time-since-start [s],throttle_mpc,roll_mpc,pitch_mpc,yaw_mpc,throttle_nw,roll_nw,pitch_nw,yaw_nw,position_x [m],position_y [m],position_z [m],rotation_w [quaternion],rotation_x [quaternion],rotation_y [quaternion],rotation_z [quaternion],velocity_x [m/s],velocity_y [m/s],velocity_z [m/s],omega_x [rad/s],omega_y [rad/s],omega_z [rad/s],network_used
0.0,9.556696181188709,5.99999961628983,-5.999999920120676,-4.913738674857901,10.974354,-2.8611677,-4.3588257,0.11854313,19.549566,-9.904492,2.1588354,-0.0028117856,-0.4517316,0.3372738,0.8259401,-10.176278,-4.246452,-0.36299986,1.1184235,-0.045388874,0.30253765,0
0.01,9.556696181188709,5.99999961628983,-5.999999920120676,-4.913738674857901,13.145814,-3.266384,-5.430379,-0.9337108,19.447115,-9.9464445,2.1550493,-0.0011233318,-0.4510143,0.3421956,0.82430995,-10.313269,-4.1441164,-0.39463744,1.0340909,-0.1285281,0.12842101,0
0.02,9.556696181188709,5.99999961628983,-5.999999920120676,-4.913738674857901,13.145814,-3.266384,-5.430379,-0.9337108,19.343315,-9.987378,2.1509337,0.00123056,-0.4502621,0.34640166,0.8229632,-10.446169,-4.042816,-0.42882004,0.96331,-0.19909804,-0.04138335,0
0.03,9.556696181188709,5.99999961628983,-5.999999920120676,-4.913738674857901,13.145814,-3.266384,-5.430379,-0.9337108,19.238203,-10.027303,2.1464663,0.0042557158,-0.4495044,0.34997147,0.82185614,-10.575836,-3.942017,-0.4649291,0.91563994,-0.2707345,-0.20598277,0
0.04,9.556696181188709,5.99999961628983,-5.999999920120676,-4.913738674857901,13.93276,-2.5157917,-4.546851,-2.1366386,19.131805,-10.066219,2.1416304,0.00801054,-0.44869807,0.35303798,0.82095665,-10.703018,-3.8411925,-0.5024271,0.8993912,-0.3551969,-0.36465013,0
0.05,9.556696181188709,5.99999961628983,-5.999999920120676,-4.913738674857901,13.93276,-2.5157917,-4.546851,-2.1366386,19.02415,-10.104126,2.1364133,0.012559307,-0.4477838,0.3557322,0.8202355,-10.827594,-3.7404163,-0.5412025,0.9104679,-0.4513016,-0.51774883,0
0.060000000000000005,9.556696181188709,5.99999961628983,-5.999999920120676,-4.913738674857901,13.93276,-2.5157917,-4.546851,-2.1366386,18.915264,-10.141026,2.1308024,0.017957093,-0.4467048,0.35816664,0.8196638,-10.949427,-3.6397161,-0.5811533,0.9452762,-0.55790883,-0.66561204,0
0.07,9.556696181188709,5.99999961628983,-5.999999920120676,-4.913738674857901,13.93276,-2.5157917,-4.546851,-2.1366386,18.805174,-10.176918,2.1247864,0.024250647,-0.44540688,0.36043718,0.8192126,-11.068366,-3.5390847,-0.6221852,1.0006586,-0.6739307,-0.80854553,0
0.08,11.19872348072567,5.999999809332383,-5.999999957328786,-5.024347199844278,14.925939,-3.796526,-5.8558187,-0.9482877,18.693907,-10.211807,2.1183553,0.03147914,-0.4438381,0.36262503,0.8188526,-11.184254,-3.438488,-0.6642097,1.0738384,-0.7983359,-0.94683003,0
0.09,11.19872348072567,5.999999809332383,-5.999999957328786,-5.024347199844278,14.925939,-3.796526,-5.8558187,-0.9482877,18.58145,-10.2456455,2.111523,0.0397499,-0.4418933,0.3648459,0.8185581,-11.3064785,-3.3293266,-0.7024591,1.191255,-0.9590866,-1.0887322,0
0.09999999999999999,11.19872348072567,5.999999809332383,-5.999999957328786,-5.024347199844278,14.925939,-3.796526,-5.8558187,-0.9482877,18.46779,-10.278393,2.104303,0.04916032,-0.43947068,0.36719888,0.81829906,-11.424908,-3.2200954,-0.7416317,1.320678,-1.1251442,-1.2263839,0
0.10999999999999999,11.19872348072567,5.999999809332383,-5.999999957328786,-5.024347199844278,14.925939,-3.796526,-5.8558187,-0.9482877,18.352966,-10.310046,2.096687,0.059724994,-0.43652514,0.36972174,0.8180368,-11.539307,-3.110671,-0.78162867,1.4602932,-1.2957399,-1.3599987,0
0.11999999999999998,11.19872348072567,5.999999809332383,-5.999999957328786,-5.024347199844278,14.925939,-3.796526,-5.8558187,-0.9482877,18.237019,-10.340606,2.0886679,0.07145304,-0.43301216,0.3724422,0.81772935,-11.649433,-3.0009387,-0.822353,1.6085037,-1.4701579,-1.4897743,0
0.12999999999999998,14.625414541279993,5.999999922171234,-5.999999989352048,-4.752359346463622,15.448947,0.11104151,-4.0195255,-2.1712947,18.119991,-10.370065,2.080238,0.0843483,-0.42888767,0.37537873,0.8173317,-11.755046,-2.8907986,-0.86370885,1.7639033,-1.6477356,-1.6158931,0
0.13999999999999999,14.625414541279993,5.999999922171234,-5.999999989352048,-4.752359346463622,15.448947,0.11104151,-4.0195255,-2.1712947,18.001863,-10.398345,2.0714307,0.09867102,-0.42380467,0.37878224,0.8168091,-11.869587,-2.7650964,-0.89794856,2.0556235,-1.9585215,-1.7368355,0
0.15,14.625414541279993,5.999999922171234,-5.999999989352048,-4.752359346463622,15.448947,0.11104151,-4.0195255,-2.1712947,17.882622,-10.425365,2.0622773,0.11464737,-0.41743702,0.38285515,0.8161028,-11.977881,-2.6389854,-0.9328351,2.34153,-2.2605908,-1.8553938,0
0.16,17.624743131578416,5.999999957493577,-6.0,-4.362986982429523,15.980715,0.66372687,-3.9951835,-2.7379298,17.762327,-10.451122,2.0527723,0.13222304,-0.4097696,0.38753238,0.8151221,-12.079466,-2.5122576,-0.96819824,2.6216495,-2.5544167,-1.9716064,0
0.17,17.624743131578416,5.999999957493577,-6.0,-4.362986982429523,15.980715,0.66372687,-3.9951835,-2.7379298,17.641008,-10.475544,2.0429432,0.15159743,-0.40044618,0.39298102,0.8137729,-12.18328,-2.3720515,-0.99764293,3.0312178,-2.9759538,-2.078496,0
0.18000000000000002,17.624743131578416,5.999999957493577,-6.0,-4.362986982429523,15.980715,0.66372687,-3.9951835,-2.7379298,17.518694,-10.498561,2.032818,0.17293039,-0.38912866,0.39931485,0.8119243,-12.278196,-2.231269,-1.027426,3.4233124,-3.3782098,-2.184292,0
0.19000000000000003,17.624743131578416,5.999999957493577,-6.0,-4.362986982429523,15.980715,0.66372687,-3.9951835,-2.7379298,17.395475,-10.520167,2.0223942,0.19610092,-0.37582168,0.4063833,0.8094162,-12.363544,-2.089839,-1.0573398,3.7991168,-3.7626438,-2.2889094,0
0.20000000000000004,20.772287773454565,5.9999999645205095,-6.0,-3.6116477210319715,17.38118,2.1649306,-4.0597086,-3.1645088,17.271452,-10.540353,2.0116735,0.22095725,-0.36055383,0.4140173,0.80608183,-12.439409,-1.9464725,-1.086547,4.1415515,-4.1123424,-2.3906848,0
0.21000000000000005,20.772287773454565,5.9999999645205095,-6.0,-3.6116477210319715,17.38118,2.1649306,-4.0597086,-3.1645088,17.146656,-10.558954,2.0007322,0.24715286,-0.3434519,0.4220099,0.8017876,-12.517856,-1.7731547,-1.1013188,4.430745,-4.4073443,-2.4505978,0
0.22000000000000006,20.772287773454565,5.9999999645205095,-6.0,-3.6116477210319715,17.38118,2.1649306,-4.0597086,-3.1645088,17.021135,-10.575803,1.9896547,0.2743336,-0.32467136,0.43015933,0.79642457,-12.584249,-1.5959538,-1.1138223,4.6749005,-4.656281,-2.5075707,0
0.23000000000000007,20.772287773454565,5.9999999645205095,-6.0,-3.6116477210319715,17.38118,2.1649306,-4.0597086,-3.1645088,16.895016,-10.590862,1.9784639,0.302251,-0.30438757,0.4382645,0.78988373,-12.63763,-1.4155395,-1.1239756,4.8810353,-4.866342,-2.561748,0
0.24000000000000007,20.772287773454565,5.9999999645205095,-6.0,-3.6116477210319715,19.725948,-0.23397937,-4.1206303,-2.1000366,16.768429,-10.604106,1.9671835,0.3306806,-0.28275982,0.44615504,0.7820757,-12.677182,-1.2327583,-1.1317487,5.055073,-5.0435953,-2.6132667,0
0.25000000000000006,20.772287773454565,5.9999999645205095,-6.0,-3.6116477210319715,19.725948,-0.23397937,-4.1206303,-2.1000366,16.64152,-10.615513,1.9558371,0.3594189,-0.25993434,0.4536873,0.7729292,-12.702229,-1.0486048,-1.1371591,5.202014,-5.1931624,-2.6622577,0
0.26000000000000006,20.772287773454565,5.9999999645205095,-6.0,-3.6116477210319715,19.725948,-0.23397937,-4.1206303,-2.1000366,16.514437,-10.625076,1.9444482,0.3882806,-0.23604652,0.46074057,0.7623896,-12.712248,-0.8641958,-1.1402689,5.32608,-5.3193645,-2.7088444,0
0.2700000000000001,20.772287773454565,5.9999999645205095,-6.0,-3.6116477210319715,19.725948,-0.23397937,-4.1206303,-2.1000366,16.38733,-10.632799,1.9330393,0.41709664,-0.2112225,0.46721375,0.7504175,-12.706874,-0.6807432,-1.1411803,5.4308333,-5.425851,-2.7531452,0
0.2800000000000001,20.99999999748541,5.999999762508063,-5.999999932910327,-3.566181885347888,19.741556,-1.0113958,-3.7814546,-1.4508173,16.260353,-10.638699,1.9216317,0.44571206,-0.18558042,0.47302264,0.73698705,-12.685895,-0.49952996,-1.1400317,5.519283,-5.5156994,-2.795272,0
0.2900000000000001,20.99999999748541,5.999999762508063,-5.999999932910327,-3.566181885347888,19.741556,-1.0113958,-3.7814546,-1.4508173,16.133665,-10.642793,1.9102507,0.47398052,-0.15922886,0.47809854,0.7220874,-12.648862,-0.319939,-1.135885,5.5939746,-5.5915,-2.833101,0
0.3000000000000001,20.99999999748541,5.999999762508063,-5.999999932910327,-3.566181885347888,19.741556,-1.0113958,-3.7814546,-1.4508173,16.00743,-10.645114,1.8989199,0.5017675,-0.13227046,0.482385,0.70571834,-12.596115,-0.14532715,-1.1300293,5.6570435,-5.6554546,-2.8690736,0
0.3100000000000001,20.99999999748541,5.999999762508063,-5.999999932910327,-3.566181885347888,19.741556,-1.0113958,-3.7814546,-1.4508173,15.881798,-10.6457205,1.8876553,0.52895296,-0.10480513,0.48583522,0.6878871,-12.5279255,0.02293089,-1.1226907,5.7102995,-5.709413,-2.9032812,0
0.3200000000000001,20.999999985221162,3.423180082752897,-5.651438622021524,-0.5372848834537143,20.520956,-2.1365669,-3.5511634,-1.4365038,15.756923,-10.644682,1.8764703,0.555426,-0.076927945,0.48841143,0.66860914,-12.44472,0.183476,-1.1141157,5.75527,-5.754937,-2.93581,0
0.3300000000000001,20.999999985221162,3.423180082752897,-5.651438622021524,-0.5372848834537143,20.520956,-2.1365669,-3.5511634,-1.4365038,15.632953,-10.642081,1.8653762,0.5807115,-0.049223006,0.48952085,0.6486297,-12.347156,0.33500472,-1.1045215,5.392054,-5.737686,-2.8181136,0
0.34000000000000014,20.999999985221162,3.423180082752897,-5.651438622021524,-0.5372848834537143,20.520956,-2.1365669,-3.5511634,-1.4365038,15.510024,-10.638016,1.8543835,0.60448647,-0.022170564,0.48876318,0.6286613,-12.23647,0.47642928,-1.0938696,5.085453,-5.7233005,-2.7061927,0
0.35000000000000014,20.999999985221162,3.423180082752897,-5.651438622021524,-0.5372848834537143,20.520956,-2.1365669,-3.5511634,-1.4365038,15.388263,-10.63259,1.8435029,0.6268568,0.0042927423,0.48636374,0.60867256,-12.11404,0.60686326,-1.0820693,4.8266397,-5.7113013,-2.5997639,0
0.36000000000000015,20.99999964373429,1.515440855929408,-3.5361830368218374,0.2809995512212647,20.565647,-3.5426679,-3.0171547,-0.39034498,15.267779,-10.625918,1.8327463,0.64790606,0.03022318,0.48250875,0.58863354,-11.981186,0.72556293,-1.0690798,4.6081634,-5.701291,-2.4985573,0
0.37000000000000016,20.99999964373429,1.515440855929408,-3.5361830368218374,0.2809995512212647,20.565647,-3.5426679,-3.0171547,-0.39034498,15.148671,-10.618121,1.8221256,0.66728145,0.054727055,0.47747356,0.5689984,-11.839234,0.8319935,-1.0549082,4.1268845,-5.362491,-2.3621638,0
0.38000000000000017,20.99999964373429,1.515440855929408,-3.5361830368218374,0.2809995512212647,20.565647,-3.5426679,-3.0171547,-0.39034498,15.03102,-10.609321,1.8116522,0.68479484,0.07711557,0.47156435,0.5502146,-11.689769,0.9262448,-1.0395973,3.7205007,-5.0767374,-2.232463,0
0.3900000000000002,20.99999964373429,1.515440855929408,-3.5361830368218374,0.2809995512212647,20.565647,-3.5426679,-3.0171547,-0.39034498,14.914895,-10.599637,1.8013375,0.70071805,0.0977139,0.46494848,0.53223014,-11.534264,1.0086538,-1.0231812,3.3773625,-4.8357162,-2.1091263,0
0.4000000000000002,20.999997329929183,-0.4258180462781846,-1.33138819600992,0.9972150501597769,19.422544,-4.146664,-0.67092234,0.89183843,14.800351,-10.589187,1.7911922,0.71527004,0.11680049,0.45775166,0.514985,-11.373967,1.0795805,-1.0056832,3.0876307,-4.632419,-1.9918424,0
0.4100000000000002,20.999997329929183,-0.4258180462781846,-1.33138819600992,0.9972150501597769,19.422544,-4.146664,-0.67092234,0.89183843,14.687429,-10.578083,1.7812274,0.72829103,0.13364701,0.45030758,0.49895236,-11.209982,1.1394894,-0.98712003,2.540775,-4.11667,-1.8451685,0
0.4200000000000002,20.999997329929183,-0.4258180462781846,-1.33138819600992,0.9972150501597769,19.422544,-4.146664,-0.67092234,0.89183843,14.57616,-10.56643,1.7714536,0.73973006,0.14771016,0.44293362,0.4845521,-11.043441,1.1894239,-0.967478,2.078996,-3.6815603,-1.7056918,0
0.4300000000000002,20.999997329929183,-0.4258180462781846,-1.33138819600992,0.9972150501597769,19.422544,-4.146664,-0.67092234,0.89183843,14.466565,-10.554323,1.7618817,0.7498787,0.15945646,0.43567646,0.47163692,-10.87529,1.230533,-0.9467106,1.6890675,-3.314471,-1.5730594,0
0.4400000000000002,20.999997329929183,-0.4258180462781846,-1.33138819600992,0.9972150501597769,20.415154,-4.324708,2.0945792,2.5580144,14.358657,-10.541845,1.7525234,0.75896406,0.16927782,0.42855597,0.4600633,-10.706252,1.2638338,-0.9247561,1.3598177,-3.0047598,-1.4469353,0
0.45000000000000023,20.999997329929183,-0.4258180462781846,-1.33138819600992,0.9972150501597769,20.415154,-4.324708,2.0945792,2.5580144,14.252442,-10.52907,1.7433909,0.76716405,0.17750274,0.42157474,0.44969624,-10.536885,1.2902164,-0.9015481,1.0818104,-2.7434504,-1.327,0
0.46000000000000024,20.999997329929183,-0.4258180462781846,-1.33138819600992,0.9972150501597769,20.415154,-4.324708,2.0945792,2.5580144,14.147921,-10.516062,1.7344971,0.77461916,0.184406,0.41472495,0.4404119,-10.36762,1.310454,-0.8770216,0.84707534,-2.5229733,-1.2129501,0
0.47000000000000025,20.999997329929183,-0.4258180462781846,-1.33138819600992,0.9972150501597769,20.415154,-4.324708,2.0945792,2.5580144,14.045089,-10.502879,1.7258552,0.7814411,0.19021724,0.40799278,0.43209836,-10.198793,1.3252138,-0.8511172,0.6488813,-2.3369431,-1.1044967,0
0.48000000000000026,20.33329838799679,-2.8323405179167924,1.282672309662996,4.8102238688162915,19.586136,-4.4519362,3.0154371,3.44552,13.943942,-10.489574,1.7174796,0.78771913,0.1951282,0.40136144,0.4246557,-10.030665,1.3350698,-0.82378244,0.4815426,-2.1799738,-1.0013652,0
0.49000000000000027,20.33329838799679,-2.8323405179167924,1.282672309662996,4.8102238688162915,19.586136,-4.4519362,3.0154371,3.44552,13.8446455,-10.476186,1.7095156,0.793181,0.19822305,0.3951116,0.41887742,-9.829723,1.3417784,-0.7693483,-0.05197124,-1.6569513,-0.76184255,0
0.5000000000000002,20.33329838799679,-2.8323405179167924,1.282672309662996,4.8102238688162915,19.586136,-4.4519362,3.0154371,3.44552,13.747327,-10.46275,1.7020863,0.7976099,0.19881624,0.3894803,0.41544622,-9.635151,1.3448057,-0.7167604,-0.49995923,-1.2131681,-0.528252,0
0.5100000000000002,20.33329838799679,-2.8323405179167924,1.282672309662996,4.8102238688162915,19.586136,-4.4519362,3.0154371,3.44552,13.65192,-10.449296,1.6951748,0.80112964,0.19735818,0.38437557,0.41412112,-9.447,1.3458704,-0.6658318,-0.8767268,-0.8372315,-0.30044675,0
0.5200000000000002,20.259799707738843,-5.036071259136575,3.946853177900008,5.13080673271007,21.978865,-5.634264,5.2012577,4.552337,13.558365,-10.435835,1.6887646,0.80382717,0.19422072,0.3797027,0.41468772,-9.2652445,1.3463365,-0.61642444,-1.1942307,-0.5194092,-0.07828346,0
0.5300000000000002,20.259799707738843,-5.036071259136575,3.946853177900008,5.13080673271007,21.978865,-5.634264,5.2012577,4.552337,13.466625,-10.422366,1.682867,0.8055713,0.1885294,0.375743,0.41752666,-9.083692,1.3474499,-0.56330425,-1.8421222,0.12809269,0.14597182,0
0.5400000000000003,20.259799707738843,-5.036071259136575,3.946853177900008,5.13080673271007,21.978865,-5.634264,5.2012577,4.552337,13.376669,-10.408876,1.6774942,0.8062261,0.17959212,0.37269163,0.42290306,-8.908747,1.3509654,-0.51147103,-2.3906674,0.6729306,0.36467308,0
0.5500000000000003,20.259799707738843,-5.036071259136575,3.946853177900008,5.13080673271007,21.978865,-5.634264,5.2012577,4.552337,13.288428,-10.395333,1.6726338,0.80581903,0.16793235,0.3703315,0.43047515,-8.740492,1.3585076,-0.46080118,-2.8567848,1.1296866,0.5779578,0
0.5600000000000003,20.999968356866265,-5.999998791994947,5.999990663507824,5.752911605330241,20.079268,-6.1584287,5.404809,3.5552015,13.201836,-10.381688,1.6682744,0.80434924,0.15398595,0.36846083,0.43993995,-8.579046,1.3712937,-0.41125482,-3.254612,1.5108109,0.7859602,0
0.5700000000000003,20.999968356866265,-5.999998791994947,5.999990663507824,5.752911605330241,20.079268,-6.1584287,5.404809,3.5552015,13.116896,-10.367877,1.6644729,0.80163807,0.13738121,0.36710075,0.45137548,-8.410215,1.392048,-0.34921864,-3.831969,2.0614114,1.0076982,0
0.5800000000000003,20.999968356866265,-5.999998791994947,5.999990663507824,5.752911605330241,20.079268,-6.1584287,5.404809,3.5552015,13.033605,-10.353819,1.6612854,0.7974789,0.11783167,0.36621258,0.46479172,-8.249403,1.4207798,-0.28851265,-4.3278255,2.5175958,1.2239444,0
0.5900000000000003,20.999968356866265,-5.999998791994947,5.999990663507824,5.752911605330241,20.079268,-6.1584287,5.404809,3.5552015,12.951884,-10.339429,1.6587025,0.7917911,0.0958049,0.3655863,0.479828,-8.095811,1.4587789,-0.22796734,-4.7357383,2.9132776,1.4330728,0
0.6000000000000003,20.999994230927985,-5.999999362441602,5.999998209026246,5.315109989991034,19.836353,-6.1453214,5.584357,3.6299179,12.871665,-10.324607,1.6567276,0.7844458,0.07173595,0.36518425,0.49612412,-7.9492493,1.507061,-0.16697031,-5.0548935,3.272458,1.6341906,0
0.6100000000000003,20.999994230927985,-5.999999362441602,5.999998209026246,5.315109989991034,19.836353,-6.1453214,5.584357,3.6299179,12.792854,-10.3092575,1.6553415,0.77527744,0.046034746,0.36521316,0.5132689,-7.8142376,1.5645875,-0.11032094,-5.2371597,3.6629784,1.8117473,0
0.6200000000000003,20.999994230927985,-5.999999362441602,5.999998209026246,5.315109989991034,19.836353,-6.1453214,5.584357,3.6299179,12.715351,-10.293279,1.6545177,0.76416045,0.019049462,0.36585796,0.5308897,-7.6876388,1.6328937,-0.054606356,-5.3633065,4.0203753,1.9830755,0
0.6300000000000003,20.999994230927985,-5.999999362441602,5.999998209026246,5.315109989991034,19.836353,-6.1453214,5.584357,3.6299179,12.639074,-10.27656,1.6542492,0.7510667,-0.008961612,0.36702207,0.5487379,-7.5688915,1.712829,0.00089491997,-5.4634566,4.328386,2.1465795,0
0.6400000000000003,20.999994230927985,-5.999999362441602,5.999998209026246,5.315109989991034,20.090874,-6.0697794,5.645013,3.7216992,12.563945,-10.258982,1.6545336,0.7360141,-0.03779038,0.3685174,0.5666127,-7.45841,1.8047377,0.055861056,-5.5479574,4.588393,2.3020601,0
0.6500000000000004,20.999994230927985,-5.999999362441602,5.999998209026246,5.315109989991034,20.090874,-6.0697794,5.645013,3.7216992,12.489876,-10.240423,1.6553619,0.71902686,-0.067248486,0.3701758,0.5843354,-7.3570323,1.9085572,0.10950387,-5.619244,4.807884,2.4499114,0
0.6600000000000004,20.999994230927985,-5.999999362441602,5.999998209026246,5.315109989991034,20.090874,-6.0697794,5.645013,3.7216992,12.416771,-10.220769,1.6567166,0.7001329,-0.097162545,0.37185612,0.60174435,-7.265616,2.0240245,0.16104066,-5.6793747,4.9931774,2.5905075,0
0.6700000000000004,20.999994230927985,-5.999999362441602,5.999998209026246,5.315109989991034,20.090874,-6.0697794,5.645013,3.7216992,12.344526,-10.199904,1.6585728,0.67936563,-0.1273723,0.37344003,0.61869305,-7.185011,2.150688,0.20970297,-5.730088,5.149606,2.7242048,0
0.6800000000000004,20.993780968657532,-5.930733208359462,4.565555982961138,3.9035704242483122,19.85779,-6.400083,5.8344975,4.3081255,12.27303,-10.177719,1.6608981,0.6567638,-0.15772904,0.37482876,0.6350482,-7.116043,2.2879214,0.25474545,-5.772853,5.281671,2.8513412,0
0.6900000000000004,20.993780968657532,-5.930733208359462,4.565555982961138,3.9035704242483122,19.85779,-6.400083,5.8344975,4.3081255,12.202163,-10.154112,1.6636527,0.63271177,-0.1877761,0.3755621,0.6506681,-7.0595016,2.4348536,0.295451,-5.797441,5.169752,2.9029746,0
0.7000000000000004,20.993780968657532,-5.930733208359462,4.565555982961138,3.9035704242483122,19.85779,-6.400083,5.8344975,4.3081255,12.131796,-10.128992,1.6667908,0.60758036,-0.21714288,0.37529746,0.6654674,-7.016016,2.590356,0.33144483,-5.818212,5.0753026,2.952074,0
0.7100000000000004,20.993780968657532,-5.930733208359462,4.565555982961138,3.9035704242483122,19.85779,-6.400083,5.8344975,4.3081255,12.061795,-10.10228,1.6702641,0.5813941,-0.24581826,0.37411597,0.6794052,-6.986115,2.7531433,0.36241725,-5.8357587,4.9955964,2.998764,0
0.7200000000000004,19.472571056455433,-4.60204901173563,2.6429165701593513,2.979712556860492,19.756908,-6.37502,5.35708,4.0525846,11.992024,-10.073908,1.6740209,0.5541821,-0.2737887,0.3720861,0.6924404,-6.9702215,2.9219105,0.38808602,-5.8505816,4.9283333,3.043163,0
0.7300000000000004,19.472571056455433,-4.60204901173563,2.6429165701593513,2.979712556860492,19.756908,-6.37502,5.35708,4.0525846,11.922339,-10.043887,1.6779636,0.5265061,-0.3002622,0.36919564,0.7045057,-6.968709,3.082743,0.39967725,-5.655159,4.572322,3.0400496,0
0.7400000000000004,19.472571056455433,-4.60204901173563,2.6429165701593513,2.979712556860492,19.756908,-6.37502,5.35708,4.0525846,11.852605,-10.012241,1.6819971,0.4988949,-0.32464805,0.3654955,0.7156258,-6.980213,3.246486,0.4062615,-5.490324,4.271769,3.0370889,0
0.7500000000000004,19.472571056455433,-4.60204901173563,2.6429165701593513,2.979712556860492,19.756908,-6.37502,5.35708,4.0525846,11.782692,-9.97895,1.6860722,0.47132483,-0.34720388,0.36111477,0.7258776,-7.0043597,3.4118445,0.40804973,-5.3512893,4.0180345,3.0342734,0
0.7600000000000005,17.23007836687311,-2.855278579339896,0.39283421583360484,2.042202146828945,18.194159,-5.52931,4.178826,3.6901731,11.712475,-9.944002,1.6901424,0.4437706,-0.36814728,0.35615417,0.7353157,-7.04076,3.5776665,0.40525597,-5.2340155,3.803826,3.031596,0
0.7700000000000005,17.23007836687311,-2.855278579339896,0.39283421583360484,2.042202146828945,18.194159,-5.52931,4.178826,3.6901731,11.641862,-9.907494,1.6941099,0.41688487,-0.38674334,0.3507837,0.74403435,-7.0833874,3.7238827,0.38766885,-4.8618994,3.272772,2.983046,0
0.7800000000000005,17.23007836687311,-2.855278579339896,0.39283421583360484,2.042202146828945,18.194159,-5.52931,4.178826,3.6901731,11.570774,-9.869529,1.6978846,0.39123994,-0.4024716,0.3451931,0.75218976,-7.135603,3.8687694,0.36677918,-4.5480113,2.8243937,2.9368784,0
0.7900000000000005,17.23007836687311,-2.855278579339896,0.39283421583360484,2.042202146828945,18.194159,-5.52931,4.178826,3.6901731,11.499121,-9.830124,1.7014362,0.3666902,-0.41578484,0.33946574,0.75988424,-7.1965203,4.011679,0.34315768,-4.2832355,2.445822,2.8929765,0
0.8000000000000005,15.786321175745046,-1.1403579065386265,-1.60990996253769,1.1352126101925935,16.279947,-4.6475143,3.0874057,1.9585673,11.426817,-9.789303,1.70474,0.3430992,-0.42705992,0.33365604,0.76718724,-7.265357,4.1521153,0.31731626,-4.0598855,2.1261907,2.8512287,0
0.8100000000000005,15.786321175745046,-1.1403579065386265,-1.60990996253769,1.1352126101925935,16.279947,-4.6475143,3.0874057,1.9585673,11.353806,-9.747124,1.7077599,0.32085362,-0.43598825,0.32794705,0.77422076,-7.3374753,4.2826843,0.286144,-3.6616533,1.6026014,2.7722583,0
0.8200000000000005,15.786321175745046,-1.1403579065386265,-1.60990996253769,1.1352126101925935,16.279947,-4.6475143,3.0874057,1.9585673,11.280054,-9.7036705,1.7104533,0.30040205,-0.44220492,0.32256874,0.7811291,-7.413429,4.4069777,0.2521843,-3.280593,1.1155441,2.6931295,0
0.8300000000000005,15.786321175745046,-1.1403579065386265,-1.60990996253769,1.1352126101925935,16.279947,-4.6475143,3.0874057,1.9585673,11.205523,-9.658997,1.7128009,0.28164563,-0.4460017,0.31758013,0.7879726,-7.4935503,4.527408,0.21729532,-2.946045,0.69124484,2.616682,0
0.8400000000000005,15.786321175745046,-1.1403579065386265,-1.60990996253769,1.1352126101925935,15.104084,-3.5496113,1.4437715,0.13250212,11.130169,-9.613132,1.7147999,0.26437548,-0.44776565,0.31295854,0.7947756,-7.5776405,4.645035,0.18253587,-2.6638222,0.33298832,2.5439858,0
0.8500000000000005,15.786321175745046,-1.1403579065386265,-1.60990996253769,1.1352126101925935,15.104084,-3.5496113,1.4437715,0.13250212,11.053958,-9.566105,1.7164537,0.24839303,-0.44783336,0.30866536,0.80154324,-7.665005,4.759931,0.14835483,-2.4257352,0.030498318,2.474857,0
0.8600000000000005,15.786321175745046,-1.1403579065386265,-1.60990996253769,1.1352126101925935,15.104084,-3.5496113,1.4437715,0.13250212,10.976859,-9.517941,1.7177701,0.23352578,-0.4464826,0.30465925,0.8082707,-7.7550507,4.872194,0.11512725,-2.2248783,-0.22490318,2.4091203,0
0.8700000000000006,15.786321175745046,-1.1403579065386265,-1.60990996253769,1.1352126101925935,15.104084,-3.5496113,1.4437715,0.13250212,10.8988495,-9.468669,1.7187604,0.21962479,-0.443943,0.30089894,0.8149473,-7.847268,4.981929,0.0831644,-2.055427,-0.44054446,2.3466094,0
0.8800000000000006,15.091813253522716,0.20291135670683458,-3.074765784315523,0.27075013452565955,14.577119,-2.4524205,0.65027636,-1.0591693,10.819908,-9.418312,1.7194386,0.20656213,-0.44040495,0.29734513,0.8215602,-7.9412155,5.0892425,0.052722853,-1.9124681,-0.6226137,2.2871659,0
0.8900000000000006,15.091813253522716,0.20291135670683458,-3.074765784315523,0.27075013452565955,14.577119,-2.4524205,0.65027636,-1.0591693,10.740027,-9.366901,1.7198154,0.19463184,-0.4355852,0.29417148,0.82815874,-8.034592,5.192189,0.022656854,-1.6215156,-0.96509826,2.1917725,0
0.9000000000000006,15.091813253522716,0.20291135670683458,-3.074765784315523,0.27075013452565955,14.577119,-2.4524205,0.65027636,-1.0591693,10.65922,-9.314483,1.7198935,0.18416691,-0.4291527,0.29159006,0.83479667,-8.126706,5.2909904,-0.0068790168,-1.3422471,-1.2879843,2.0980294,0
0.9100000000000006,15.091813253522716,0.20291135670683458,-3.074765784315523,0.27075013452565955,14.577119,-2.4524205,0.65027636,-1.0591693,10.577494,-9.261087,1.7196851,0.1750508,-0.42126828,0.28956753,0.8414515,-8.218585,5.387727,-0.03443887,-1.100991,-1.5662374,2.0083642,0
0.9200000000000006,14.552053028511988,1.1265382577105278,-4.126545719691012,-0.44982487232959345,12.411776,-0.8794133,0.11715607,-2.0204813,10.494849,-9.206733,1.7192131,0.16710716,-0.41215774,0.28801385,0.8480855,-8.310045,5.4830294,-0.05954674,-0.89744025,-1.8011751,1.923099,0
0.9300000000000006,14.552053028511988,1.1265382577105278,-4.126545719691012,-0.44982487232959345,12.411776,-0.8794133,0.11715607,-2.0204813,10.411283,-9.151419,1.718514,0.16032733,-0.40187946,0.2868845,0.85468435,-8.402954,5.5795555,-0.08008891,-0.6779371,-2.0671668,1.815297,0
0.9400000000000006,14.552053028511988,1.1265382577105278,-4.126545719691012,-0.44982487232959345,12.411776,-0.8794133,0.11715607,-2.0204813,10.326801,-9.095154,1.7176152,0.15478645,-0.39037892,0.28620902,0.8612374,-8.492572,5.673123,-0.09943531,-0.45952973,-2.324889,1.7098185,0
0.9500000000000006,14.552053028511988,1.1265382577105278,-4.126545719691012,-0.44982487232959345,12.411776,-0.8794133,0.11715607,-2.0204813,10.241444,-9.037966,1.7165294,0.15044977,-0.37768266,0.28600925,0.86770934,-8.578508,5.7640495,-0.1175366,-0.24274257,-2.5749316,1.6066121,0
0.9600000000000006,14.41621245801566,1.548770943852554,-4.7128052563781235,-1.0655669512304702,11.4919815,-0.060089983,-0.15683623,-2.3156629,10.155245,-8.97988,1.7152693,0.14727771,-0.3638177,0.28629792,0.87405926,-8.660629,5.852881,-0.13414961,-0.03252308,-2.813297,1.5060167,0
0.9700000000000006,14.41621245801566,1.548770943852554,-4.7128052563781235,-1.0655669512304702,11.4919815,-0.060089983,-0.15683623,-2.3156629,10.068218,-8.920884,1.7138803,0.14518118,-0.34893492,0.28693447,0.8802475,-8.744111,5.946025,-0.14342508,0.11801493,-3.0133543,1.3884368,0
0.9800000000000006,14.41621245801566,1.548770943852554,-4.7128052563781235,-1.0655669512304702,11.4919815,-0.060089983,-0.15683623,-2.3156629,9.98038,-8.860967,1.7124057,0.14410858,-0.3331344,0.2878207,0.8862356,-8.822789,6.0373306,-0.15124112,0.27439857,-3.2115784,1.274003,0
0.9900000000000007,14.41621245801566,1.548770943852554,-4.7128052563781235,-1.0655669512304702,11.4919815,-0.060089983,-0.15683623,-2.3156629,9.891781,-8.800144,1.7108599,0.14404128,-0.31640762,0.2889937,0.8919759,-8.896386,6.1269493,-0.15769954,0.4354166,-3.407955,1.162588,0
1.0000000000000007,14.274660039340903,1.4955187107813188,-4.6418887520883825,-1.4889803314551984,11.60199,0.13516018,-0.7499264,-2.2853956,9.802471,-8.738434,1.7092559,0.14495677,-0.29874697,0.290483,0.89741707,-8.964652,6.215036,-0.16290744,0.5996484,-3.6020744,1.0541043,0
1.0100000000000007,14.274660039340903,1.4955187107813188,-4.6418887520883825,-1.4889803314551984,11.60199,0.13516018,-0.7499264,-2.2853956,9.712498,-8.675837,1.707619,0.14676313,-0.28034234,0.29217318,0.9024985,-9.029156,6.304198,-0.16431035,0.7003326,-3.7254012,0.9328049,0
1.0200000000000007,14.274660039340903,1.4955187107813188,-4.6418887520883825,-1.4889803314551984,11.60199,0.13516018,-0.7499264,-2.2853956,9.621908,-8.612353,1.7059739,0.14938447,-0.2613582,0.29396757,0.907171,-9.087917,6.3921494,-0.16455276,0.8102765,-3.8544729,0.81522584,0
1.0300000000000007,14.274660039340903,1.4955187107813188,-4.6418887520883825,-1.4889803314551984,11.60199,0.13516018,-0.7499264,-2.2853956,9.530759,-8.547996,1.7043334,0.15280147,-0.24177526,0.29589707,0.91139525,-9.141162,6.4795284,-0.16313365,0.9169122,-3.9772801,0.70215774,0
1.0400000000000007,14.274660039340903,1.4955187107813188,-4.6418887520883825,-1.4889803314551984,11.573244,-0.34161273,-0.9250203,-2.041239,9.439103,-8.482762,1.7027196,0.1569414,-0.2216622,0.297927,0.91513646,-9.189145,6.5671573,-0.15928894,1.0069073,-4.0809546,0.59463793,0
1.0500000000000007,14.274660039340903,1.4955187107813188,-4.6418887520883825,-1.4889803314551984,11.573244,-0.34161273,-0.9250203,-2.041239,9.346995,-8.416652,1.7011553,0.16172443,-0.2011043,0.3000104,0.91836596,-9.231593,6.6549983,-0.1531976,1.0828624,-4.168474,0.49239427,0
1.0600000000000007,14.274660039340903,1.4955187107813188,-4.6418887520883825,-1.4889803314551984,11.573244,-0.34161273,-0.9250203,-2.041239,9.254491,-8.349663,1.6996626,0.16708055,-0.18017547,0.30210835,0.92105997,-9.268269,6.7429843,-0.14505747,1.1469709,-4.242355,0.39516765,0
1.0700000000000007,14.274660039340903,1.4955187107813188,-4.6418887520883825,-1.4889803314551984,11.573244,-0.34161273,-0.9250203,-2.041239,9.161651,-8.281793,1.6982604,0.17294793,-0.15894005,0.30418864,0.92319894,-9.298964,6.8310237,-0.135082,1.2010834,-4.3047204,0.30271196,0
1.0800000000000007,13.620308592890787,1.012978452318263,-4.0476839816930115,-1.690077916406377,11.703184,-1.0807608,-0.64436585,-1.8659133,9.068533,-8.213042,1.6969664,0.1792717,-0.13745427,0.30622482,0.92476714,-9.323501,6.919004,-0.12349718,1.2467612,-4.357364,0.21479313,0
1.0900000000000007,13.620308592890787,1.012978452318263,-4.0476839816930115,-1.690077916406377,11.703184,-1.0807608,-0.64436585,-1.8659133,8.975206,-8.143434,1.6957698,0.18592842,-0.11603074,0.30805787,0.9257796,-9.340915,7.002764,-0.11562863,1.2100334,-4.3091483,0.12132055,0
1.1000000000000008,13.620308592890787,1.012978452318263,-4.0476839816930115,-1.690077916406377,11.703184,-1.0807608,-0.64436585,-1.8659133,8.881735,-8.0729885,1.6946576,0.19282585,-0.09492605,0.30956832,0.9262692,-9.352332,7.086168,-0.10666834,1.1790521,-4.2684445,0.03243471,0
1.1100000000000008,13.620308592890787,1.012978452318263,-4.0476839816930115,-1.690077916406377,11.703184,-1.0807608,-0.64436585,-1.8659133,8.788179,-8.001712,1.6936395,0.19995862,-0.07410981,0.31078985,0.9262472,-9.3578,7.169037,-0.096827365,1.1529189,-4.2340813,-0.052089494,0
1.1200000000000008,12.750598646802835,0.2571297446901399,-3.161937742541376,-1.7314614834832371,12.012031,-1.8884636,-0.16594227,-1.6107004,8.694599,-7.9296103,1.6927234,0.20731872,-0.053556334,0.31175134,0.92572224,-9.357365,7.251199,-0.08630991,1.130876,-4.2050714,-0.13246605,0
1.1300000000000008,12.750598646802835,0.2571297446901399,-3.161937742541376,-1.7314614834832371,12.012031,-1.8884636,-0.16594227,-1.6107004,8.601049,-7.8567176,1.6918802,0.21477738,-0.03363748,0.31227374,0.92478335,-9.351505,7.327288,-0.082274936,0.9944223,-4.0424347,-0.21092921,0
1.1400000000000008,12.750598646802835,0.2571297446901399,-3.161937742541376,-1.7314614834832371,12.012031,-1.8884636,-0.16594227,-1.6107004,8.507586,-7.783068,1.691079,0.22224139,-0.014649818,0.31222743,0.92353016,-9.340412,7.402366,-0.07792582,0.8792705,-3.905149,-0.28554216,0
1.1500000000000008,12.750598646802835,0.2571297446901399,-3.161937742541376,-1.7314614834832371,12.012031,-1.8884636,-0.16594227,-1.6107004,8.414258,-7.708674,1.6903224,0.2297466,0.003529454,0.3117009,0.9219796,-9.324333,7.4762597,-0.07337606,0.78209406,-3.789264,-0.35649386,0
1.1600000000000008,12.044260019090153,-0.7530999804784011,-1.9408387897688353,-1.5464598419666025,12.3139305,-2.8084042,0.7075277,-1.168678,8.3211155,-7.6335473,1.6896118,0.23731919,0.021005567,0.31076807,0.92014205,-9.303484,7.5488133,-0.0687278,0.7000862,-3.6914449,-0.4239639,0
1.1700000000000008,12.044260019090153,-0.7530999804784011,-1.9408387897688353,-1.5464598419666025,12.3139305,-2.8084042,0.7075277,-1.168678,8.228198,-7.5577226,1.6889194,0.24481711,0.037329488,0.3092376,0.91817373,-9.2795,7.615947,-0.069756806,0.47341457,-3.4183939,-0.4790451,0
1.1800000000000008,12.044260019090153,-0.7530999804784011,-1.9408387897688353,-1.5464598419666025,12.3139305,-2.8084042,0.7075277,-1.168678,8.13554,-7.481234,1.6882167,0.25213706,0.05215084,0.30697277,0.91622853,-9.251605,7.6815457,-0.07078059,0.28210294,-3.1879206,-0.53142345,0
1.1900000000000008,12.044260019090153,-0.7530999804784011,-1.9408387897688353,-1.5464598419666025,12.3139305,-2.8084042,0.7075277,-1.168678,8.043178,-7.4040976,1.6875038,0.25934455,0.06568707,0.30410087,0.91430193,-9.220183,7.7454944,-0.07177964,0.12063335,-2.9933875,-0.5812316,0
1.2000000000000008,11.742677041504098,-1.6907020054366142,-0.47651980501289765,-1.1651710656721357,12.42499,-3.8237603,1.5266638,-0.45599598,7.9511466,-7.3263297,1.6867812,0.26648983,0.078123525,0.3007267,0.9123832,-9.185568,7.8076997,-0.072731756,-0.015650362,-2.8291914,-0.62859565,0
1.2100000000000009,11.742677041504098,-1.6907020054366142,-0.47651980501289765,-1.1651710656721357,12.42499,-3.8237603,1.5266638,-0.45599598,7.8594713,-7.2479568,1.6860372,0.27342492,0.088997446,0.29674974,0.9106358,-9.149017,7.866576,-0.07603808,-0.27676624,-2.4621823,-0.6549255,0
1.2200000000000009,11.742677041504098,-1.6907020054366142,-0.47651980501289765,-1.1651710656721357,12.42499,-3.8237603,1.5266638,-0.45599598,7.768174,-7.169004,1.685261,0.28003702,0.09795306,0.2921024,0.90920866,-9.110128,7.9236445,-0.079168096,-0.49717218,-2.1524174,-0.6799634,0
1.2300000000000009,11.742677041504098,-1.6907020054366142,-0.47651980501289765,-1.1651710656721357,12.42499,-3.8237603,1.5266638,-0.45599598,7.677275,-7.08949,1.6844549,0.2864051,0.10528063,0.28690454,0.9080604,-9.069364,7.978891,-0.08200734,-0.68321633,-1.8909694,-0.70377266,0
1.2400000000000009,11.742677041504098,-1.6907020054366142,-0.47651980501289765,-1.1651710656721357,12.798046,-4.3583493,2.4823384,0.27510035,7.586792,-7.009433,1.6836222,0.29259065,0.11122589,0.2812532,0.9071471,-9.02711,8.0323105,-0.08445296,-0.840257,-1.6703026,-0.7264136,0
1.2500000000000009,11.742677041504098,-1.6907020054366142,-0.47651980501289765,-1.1651710656721357,12.798046,-4.3583493,2.4823384,0.27510035,7.4967375,-6.9288497,1.6827674,0.29864132,0.11599685,0.2752272,0.90642583,-8.983701,8.083904,-0.08641529,-0.97281635,-1.4840567,-0.7479436,0
1.260000000000001,11.742677041504098,-1.6907020054366142,-0.47651980501289765,-1.1651710656721357,12.798046,-4.3583493,2.4823384,0.27510035,7.407121,-6.84776,1.6818956,0.30459413,0.11976961,0.26889068,0.905856,-8.939418,8.133677,-0.0878182,-1.0847114,-1.3268628,-0.76841706,0
1.270000000000001,11.742677041504098,-1.6907020054366142,-0.47651980501289765,-1.1651710656721357,12.798046,-4.3583493,2.4823384,0.27510035,7.3179517,-6.7661824,1.6810131,0.3104775,0.12269326,0.26229623,0.90540075,-8.894499,8.181634,-0.08859858,-1.1791642,-1.1941901,-0.78788584,0
1.280000000000001,12.04205135465916,-2.40754869324455,0.8524786936233861,-0.5792481643323617,13.237727,-4.1338186,2.7819028,0.64113057,7.2292333,-6.684134,1.6801261,0.31631318,0.1248941,0.25548682,0.90502685,-8.8491535,8.227785,-0.08870549,-1.2588937,-1.0822136,-0.8063993,0
1.290000000000001,12.04205135465916,-2.40754869324455,0.8524786936233861,-0.5792481643323617,13.237727,-4.1338186,2.7819028,0.64113057,7.1409755,-6.6016273,1.679254,0.3219536,0.12592499,0.2483988,0.90486825,-8.802429,8.273275,-0.0855723,-1.4378616,-0.7804158,-0.79525286,0
1.300000000000001,12.04205135465916,-2.40754869324455,0.8524786936233861,-0.5792481643323617,13.237727,-4.1338186,2.7819028,0.64113057,7.053185,-6.5186744,1.6784174,0.3272765,0.12543787,0.24098496,0.90503114,-8.755836,8.31699,-0.081599735,-1.5889482,-0.52569944,-0.7846534,0
1.310000000000001,12.04205135465916,-2.40754869324455,0.8524786936233861,-0.5792481643323617,13.237727,-4.1338186,2.7819028,0.64113057,6.965858,-6.4352927,1.6776253,0.33232915,0.12366476,0.23329823,0.905448,-8.709736,8.359001,-0.07669161,-1.7164966,-0.31071946,-0.7745741,0
1.320000000000001,12.44196923819032,-2.97983560893277,1.8733833856815993,0.05136638124866233,13.534492,-4.3855157,3.4436264,1.3402288,6.878988,-6.3514996,1.6768872,0.33714867,0.12080162,0.22538136,0.9060578,-8.664442,8.399372,-0.0707754,-1.8241732,-0.1292764,-0.7649894,0
1.330000000000001,12.44196923819032,-2.97983560893277,1.8733833856815993,0.05136638124866233,13.534492,-4.3855157,3.4436264,1.3402288,6.792573,-6.267304,1.6762308,0.3416295,0.116583474,0.21719052,0.90693194,-8.618776,8.439453,-0.06030295,-2.004247,0.18307494,-0.7249306,0
1.340000000000001,12.44196923819032,-2.97983560893277,1.8733833856815993,0.05136638124866233,13.534492,-4.3855157,3.4436264,1.3402288,6.7066073,-6.1827154,1.675685,0.3456783,0.110808566,0.20869136,0.9081165,-8.574641,8.477996,-0.04864788,-2.156276,0.4466961,-0.6868375,0
1.350000000000001,12.44196923819032,-2.97983560893277,1.8733833856815993,0.05136638124866233,13.534492,-4.3855157,3.4436264,1.3402288,6.6210732,-6.0977488,1.675262,0.34933662,0.103714935,0.19992778,0.909525,-8.532427,8.515096,-0.03574698,-2.2846253,0.6691907,-0.65061367,0
1.360000000000001,12.93102494654627,-3.2926741120285197,2.4378209572866307,0.6395127935672934,14.537102,-4.5692887,3.0139964,2.1636934,6.53595,-6.0124183,1.6749743,0.35263756,0.09550393,0.19093585,0.9110812,-8.49247,8.550826,-0.021569634,-2.3929822,0.8569761,-0.61616725,0
1.370000000000001,12.93102494654627,-3.2926741120285197,2.4378209572866307,0.6395127935672934,14.537102,-4.5692887,3.0139964,2.1636934,6.451222,-5.92673,1.6748573,0.35551006,0.08610947,0.18170437,0.91278744,-8.453606,8.58661,-0.0016474854,-2.5332334,1.1034628,-0.55455065,0
1.380000000000001,12.93102494654627,-3.2926741120285197,2.4378209572866307,0.6395127935672934,14.537102,-4.5692887,3.0139964,2.1636934,6.3668675,-5.840691,1.6749461,0.35788712,0.07548846,0.17222503,0.91463464,-8.41776,8.621121,0.019601038,-2.6516418,1.311497,-0.49595764,0
1.390000000000001,12.93102494654627,-3.2926741120285197,2.4378209572866307,0.6395127935672934,14.537102,-4.5692887,3.0139964,2.1636934,6.2828555,-5.754312,1.6752537,0.35979858,0.06382973,0.16252965,0.9165449,-8.385268,8.654431,0.042143952,-2.7516072,1.4870791,-0.44023976,0
1.400000000000001,13.153214072748712,-3.3463570146038304,2.437233855813679,1.088095331977761,14.505179,-4.320997,2.9960508,2.577932,6.19915,-5.6676064,1.6757932,0.36126938,0.05129373,0.15264551,0.9184512,-8.356423,8.686594,0.06591819,-2.8360002,1.6352731,-0.387256,0
1.410000000000001,13.153214072748712,-3.3463570146038304,2.437233855813679,1.088095331977761,14.505179,-4.320997,2.9960508,2.577932,6.1157165,-5.580581,1.6765865,0.36227068,0.03801786,0.14257383,0.920319,-8.331047,8.718182,0.092947856,-2.9156413,1.7602212,-0.31486008,0
1.420000000000001,13.153214072748712,-3.3463570146038304,2.437233855813679,1.088095331977761,14.505179,-4.320997,2.9960508,2.577932,6.032515,-5.493246,1.6776557,0.36277315,0.024119701,0.13231811,0.92212015,-8.309857,8.748665,0.12102624,-2.9828727,1.865681,-0.24601665,0
1.430000000000001,13.153214072748712,-3.3463570146038304,2.437233855813679,1.088095331977761,14.505179,-4.320997,2.9960508,2.577932,5.9495044,-5.4056115,1.6790102,0.36279657,0.009699077,0.12190397,0.9238094,-8.293049,8.778049,0.15002075,-3.039627,1.9546938,-0.18055141,0
1.440000000000001,13.153214072748712,-3.3463570146038304,2.437233855813679,1.088095331977761,14.261844,-3.984827,3.027224,2.5533113,5.8666387,-5.3176885,1.6806587,0.36235905,-0.005158659,0.111354224,0.9253483,-8.280785,8.806335,0.17978126,-3.087535,2.0298262,-0.118298545,0
1.450000000000001,13.153214072748712,-3.3463570146038304,2.437233855813679,1.088095331977761,14.261844,-3.984827,3.027224,2.5533113,5.783872,-5.229488,1.6826079,0.36147726,-0.020380393,0.10068932,0.92670405,-8.273199,8.833517,0.21014309,-3.127974,2.0932438,-0.059100464,0
1.460000000000001,13.153214072748712,-3.3463570146038304,2.437233855813679,1.088095331977761,14.261844,-3.984827,3.027224,2.5533113,5.7011585,-5.1410217,1.684863,0.36016682,-0.035903342,0.08992772,0.92784894,-8.270404,8.859579,0.24092971,-3.1621075,2.1467743,-0.002807226,0
1.470000000000001,13.153214072748712,-3.3463570146038304,2.437233855813679,1.088095331977761,14.261844,-3.984827,3.027224,2.5533113,5.618448,-5.052301,1.6874273,0.35844243,-0.051673442,0.079086155,0.92875946,-8.272489,8.8845,0.27195507,-3.1909175,2.19196,0.050723676,0
1.480000000000001,12.734809050907131,-3.103843177445024,1.7442782257536116,1.300989780886089,13.688834,-3.7748163,2.761423,2.2371635,5.5356913,-4.963336,1.6903024,0.35631806,-0.06764403,0.068179876,0.9294155,-8.279521,8.908253,0.30302548,-3.2152333,2.2301025,0.10162781,0
1.490000000000001,12.734809050907131,-3.103843177445024,1.7442782257536116,1.300989780886089,13.688834,-3.7748163,2.761423,2.2371635,5.4528413,-4.874143,1.6934668,0.3538086,-0.08348089,0.057216547,0.9298261,-8.291151,8.930085,0.32984024,-3.1979399,2.1542168,0.16048084,0
1.500000000000001,12.734809050907131,-3.103843177445024,1.7442782257536116,1.300989780886089,13.688834,-3.7748163,2.761423,2.2371635,5.369852,-4.784738,1.696898,0.35092723,-0.098917544,0.04620627,0.9300162,-8.307531,8.950682,0.3563322,-3.183335,2.0901725,0.21644594,0
1.5100000000000011,12.734809050907131,-3.103843177445024,1.7442782257536116,1.300989780886089,13.688834,-3.7748163,2.761423,2.2371635,5.286675,-4.695134,1.7005919,0.34768468,-0.11400806,0.03516522,0.9299896,-8.328561,8.969963,0.38233584,-3.1710014,2.0361223,0.26966482,0
1.5200000000000011,12.145812343533446,-2.6152640751190828,0.5936804315052491,1.3341599578562127,13.426065,-3.3670926,1.849296,1.5292511,5.203265,-4.605344,1.7045425,0.34409198,-0.12879783,0.024107475,0.92974746,-8.354145,8.987858,0.4076903,-3.1605859,1.9905068,0.32027224,0
1.5300000000000011,12.145812343533446,-2.6152640751190828,0.5936804315052491,1.3341599578562127,13.426065,-3.3670926,1.849296,1.5292511,5.1195836,-4.5153856,1.7087144,0.34019363,-0.14283034,0.013069969,0.9293528,-8.382776,9.003531,0.4265736,-3.0755558,1.7725903,0.370024,0
1.5400000000000011,12.145812343533446,-2.6152640751190828,0.5936804315052491,1.3341599578562127,13.426065,-3.3670926,1.849296,1.5292511,5.0355954,-4.425278,1.713071,0.33603036,-0.15574951,0.0020852599,0.92888165,-8.41539,9.017705,0.44460347,-3.0037785,1.5886644,0.4173344,0
1.5500000000000012,12.145812343533446,-2.6152640751190828,0.5936804315052491,1.3341599578562127,13.426065,-3.3670926,1.849296,1.5292511,4.9512625,-4.335037,1.7176033,0.33160746,-0.16772573,-0.008841887,0.928346,-8.451717,9.030272,0.4617129,-2.9431896,1.4334273,0.46232334,0
1.5600000000000012,11.084176030746637,-1.8389766687694302,-0.6014116137069936,1.1725010358361625,12.03842,-2.7806995,0.75345963,0.8056346,4.8665485,-4.244679,1.722302,0.3269307,-0.17890266,-0.019708013,0.9277508,-8.491524,9.041138,0.47784147,-2.892047,1.3024039,0.5051046,0
1.5700000000000012,11.084176030746637,-1.8389766687694302,-0.6014116137069936,1.1725010358361625,12.03842,-2.7806995,0.75345963,0.8056346,4.781439,-4.154225,1.7271072,0.322072,-0.18885727,-0.03038166,0.927189,-8.530814,9.049429,0.48304948,-2.7277458,1.0055004,0.53785396,0
1.5800000000000012,11.084176030746637,-1.8389766687694302,-0.6014116137069936,1.1725010358361625,12.03842,-2.7806995,0.75345963,0.8056346,4.695923,-4.063696,1.7319598,0.31709588,-0.19726557,-0.04075787,0.9267552,-8.572729,9.056019,0.48734486,-2.5890708,0.75489926,0.56899625,0
1.5900000000000012,11.084176030746637,-1.8389766687694302,-0.6014116137069936,1.1725010358361625,12.03842,-2.7806995,0.75345963,0.8056346,4.609977,-3.9731104,1.736851,0.31199756,-0.20437181,-0.05087094,0.9264457,-8.616932,9.060839,0.4907741,-2.4720263,0.54337883,0.5986104,0
1.6000000000000012,10.338128003882682,-0.9478754884617687,-1.4256320951324812,0.92576158211003,10.804337,-1.7799984,-0.65027493,0.35615134,4.523578,-3.8824854,1.7417724,0.30677325,-0.21038131,-0.060750835,0.92625,-8.663132,9.063834,0.49338105,-2.37324,0.3648441,0.62677145,1
1.6100000000000012,10.338128003882682,-0.9478754884617687,-1.4256320951324812,0.92576158211003,10.804337,-1.7799984,-0.65027493,0.35615134,4.436714,-3.79184,1.7467033,0.30151758,-0.21543503,-0.07042915,0.92612875,-8.70987,9.064931,0.49268264,-2.280658,0.20659444,0.6134921,1
1.6200000000000012,10.338128003882682,-0.9478754884617687,-1.4256320951324812,0.92576158211003,10.804337,-1.7799984,-0.65027493,0.35615134,4.3493752,-3.7011929,1.7516235,0.29632002,-0.21965125,-0.079936735,0.9260441,-8.7581005,9.064173,0.49125817,-2.2025263,0.07301557,0.6008643,1
1.6300000000000012,10.338128003882682,-0.9478754884617687,-1.4256320951324812,0.92576158211003,10.804337,-1.7799984,-0.65027493,0.35615134,4.2615476,-3.6105628,1.756526,0.2911707,-0.22315831,-0.08929679,0.9259837,-8.807633,9.061532,0.48913917,-2.1365898,-0.03973877,0.58885616,1
1.6400000000000012,10.338128003882682,-0.9478754884617687,-1.4256320951324812,0.92576158211003,10.325224,-0.83389133,-2.0097015,-0.0120968055,4.1732187,-3.519969,1.7614039,0.28606123,-0.2260641,-0.0985292,0.9259351,-8.858308,9.05699,0.48635074,-2.080944,-0.13491479,0.5774372,1
1.6500000000000012,10.338128003882682,-0.9478754884617687,-1.4256320951324812,0.92576158211003,10.325224,-0.83389133,-2.0097015,-0.0120968055,4.0843897,-3.4294286,1.7662297,0.28105813,-0.22784387,-0.10746545,0.926037,-8.907666,9.050815,0.47872862,-1.8863649,-0.4271779,0.5485086,1
1.6600000000000013,10.338128003882682,-0.9478754884617687,-1.4256320951324812,0.92576158211003,10.325224,-0.83389133,-2.0097015,-0.0120968055,3.9950638,-3.3389592,1.7709768,0.27621678,-0.22808869,-0.115972206,0.92640716,-8.957663,9.042794,0.4706104,-1.7221559,-0.6738819,0.5209995,1
1.6700000000000013,10.338128003882682,-0.9478754884617687,-1.4256320951324812,0.92576158211003,10.325224,-0.83389133,-2.0097015,-0.0120968055,3.9052353,-3.248579,1.7756406,0.27151495,-0.22703679,-0.12411273,0.9270005,-9.007996,9.032924,0.4621198,-1.5835757,-0.88212824,0.49484032,1
1.6800000000000013,9.749242939191232,-0.09582272690928416,-2.1198618995337704,0.6175537923098272,10.603054,-0.0072676297,-3.4621334,-0.28874978,3.8149033,-3.158307,1.7802182,0.26693338,-0.22488782,-0.13194059,0.92777354,-9.05841,9.021199,0.45336017,-1.4666232,-1.057911,0.46996477,0
1.6900000000000013,9.749242939191232,-0.09582272690928416,-2.1198618995337704,0.6175537923098272,10.603054,-0.0072676297,-3.4621334,-0.28874978,3.7240815,-3.068158,1.7846824,0.2624438,-0.22170076,-0.1392213,0.92875695,-9.105874,9.008389,0.4394481,-1.2527912,-1.2234622,0.477207,0
1.7000000000000013,9.749242939191232,-0.09582272690928416,-2.1198618995337704,0.6175537923098272,10.603054,-0.0072676297,-3.4621334,-0.28874978,3.632787,-2.978145,1.789007,0.25801197,-0.21753477,-0.14576913,0.92997843,-9.152977,8.993909,0.4254677,-1.072313,-1.363204,0.48409387,0
1.7100000000000013,9.749242939191232,-0.09582272690928416,-2.1198618995337704,0.6175537923098272,10.603054,-0.0072676297,-3.4621334,-0.28874978,3.541024,-2.888285,1.7931919,0.25361505,-0.21254392,-0.15169175,0.9313937,-9.199516,8.977834,0.4115124,-0.9199863,-1.4811602,0.4906428,0
1.7200000000000013,9.624909617971106,0.7352484437390192,-2.5288649092386746,0.2673616238722168,10.7944,-0.07879249,-3.8157425,-0.26179332,3.4487991,-2.7985933,1.7972378,0.2492343,-0.20685734,-0.15708023,0.93296206,-9.245315,8.960235,0.39765793,-0.7914203,-1.5807275,0.49687034,0
1.7300000000000013,9.624909617971106,0.7352484437390192,-2.5288649092386746,0.2673616238722168,10.7944,-0.07879249,-3.8157425,-0.26179332,3.3561234,-2.709084,1.8011404,0.24493733,-0.20034134,-0.1617506,0.93472236,-9.289639,8.941423,0.3828956,-0.5533019,-1.7285078,0.48560828,0
1.7400000000000013,9.624909617971106,0.7352484437390192,-2.5288649092386746,0.2673616238722168,10.7944,-0.07879249,-3.8157425,-0.26179332,3.26301,-2.6197696,1.8048967,0.24077976,-0.19289494,-0.16556053,0.9366998,-9.332871,8.921288,0.36839655,-0.35232648,-1.8532568,0.47489884,0
1.7500000000000013,9.624909617971106,0.7352484437390192,-2.5288649092386746,0.2673616238722168,10.7944,-0.07879249,-3.8157425,-0.26179332,3.1694703,-2.5306625,1.8085097,0.23673187,-0.18466143,-0.16863723,0.9388396,-9.374816,8.899937,0.3542516,-0.18270019,-1.9585639,0.46471494,0
1.7600000000000013,9.893945762739676,1.391309395406656,-2.4562157821551924,-0.14508948901950572,10.589679,0.46754846,-3.610014,-0.63062364,3.0755186,-2.4417744,1.8119832,0.23276903,-0.17576115,-0.17108814,0.9410928,-9.415303,8.877472,0.3405299,-0.039532598,-2.0474586,0.4550308,0
1.7700000000000014,9.893945762739676,1.391309395406656,-2.4562157821551924,-0.14508948901950572,10.589679,0.46754846,-3.610014,-0.63062364,2.9811642,-2.3531196,1.8153337,0.22896941,-0.16625325,-0.17275894,0.9434444,-9.455271,8.853334,0.32965752,0.18358497,-2.111141,0.42558274,0
1.7800000000000014,9.893945762739676,1.391309395406656,-2.4562157821551924,-0.14508948901950572,10.589679,0.46754846,-3.610014,-0.63062364,2.886419,-2.2647107,1.8185782,0.2253988,-0.15618967,-0.17353235,0.94587886,-9.493438,8.828305,0.31933883,0.37190437,-2.1649096,0.3975797,0
1.7900000000000014,9.893945762739676,1.391309395406656,-2.4562157821551924,-0.14508948901950572,10.589679,0.46754846,-3.610014,-0.63062364,2.791302,-2.176556,1.8217225,0.22202188,-0.14565365,-0.17354201,0.94835365,-9.529664,8.802537,0.3096255,0.5308534,-2.2103066,0.37095076,0
1.8000000000000014,10.221225942474835,1.8361548627052675,-1.7642321930181164,-0.4769600963181033,11.2696905,0.8289364,-2.8500211,-0.93730474,2.6958327,-2.0886621,1.8247728,0.21880911,-0.13471536,-0.17290063,0.9508311,-9.563833,8.776161,0.3005504,0.66501313,-2.2486343,0.34562847,0
1.8100000000000014,10.221225942474835,1.8361548627052675,-1.7642321930181164,-0.4769600963181033,11.2696905,0.8289364,-2.8500211,-0.93730474,2.600027,-2.001039,1.8277506,0.2158464,-0.12365203,-0.17147958,0.95326567,-9.596909,8.748421,0.29509735,0.8475778,-2.173073,0.3052638,0
1.8200000000000014,10.221225942474835,1.8361548627052675,-1.7642321930181164,-0.4769600963181033,11.2696905,0.8289364,-2.8500211,-0.93730474,2.5039022,-1.9136949,1.8306773,0.2132051,-0.11268775,-0.16918361,0.95562655,-9.62772,8.720379,0.2903314,1.0016801,-2.1093085,0.26687986,0
1.8300000000000014,10.221225942474835,1.8361548627052675,-1.7642321930181164,-0.4769600963181033,11.2696905,0.8289364,-2.8500211,-0.93730474,2.4074805,-1.8266318,1.8335596,0.21084294,-0.101805285,-0.16614546,0.9579023,-9.65625,8.692224,0.2862542,1.1317577,-2.0554981,0.23037943,0
1.8400000000000014,10.221225942474835,1.8361548627052675,-1.7642321930181164,-0.4769600963181033,11.54552,1.0903351,-1.6447412,-1.0876209,2.3107848,-1.7398503,1.8364047,0.20872419,-0.090989955,-0.16247706,0.96008146,-9.682482,8.66412,0.28285828,1.2415556,-2.010087,0.19567007,0
1.8500000000000014,10.221225942474835,1.8361548627052675,-1.7642321930181164,-0.4769600963181033,11.54552,1.0903351,-1.6447412,-1.0876209,2.2138383,-1.6533489,1.8392191,0.20681864,-0.0802294,-0.15827277,0.9621535,-9.706404,8.636205,0.28012797,1.3342355,-1.9717629,0.16266392,0
1.8600000000000014,10.221225942474835,1.8361548627052675,-1.7642321930181164,-0.4769600963181033,11.54552,1.0903351,-1.6447412,-1.0876209,2.1166646,-1.5671252,1.8420095,0.20510076,-0.06951334,-0.15361226,0.9641085,-9.728003,8.608601,0.27804026,1.4124664,-1.9394192,0.1312774,0
1.8700000000000014,10.221225942474835,1.8361548627052675,-1.7642321930181164,-0.4769600963181033,11.54552,1.0903351,-1.6447412,-1.0876209,2.0192866,-1.4811754,1.844782,0.20354883,-0.058833335,-0.14856277,0.9659379,-9.747267,8.58141,0.2765658,1.478501,-1.9121219,0.101431005,0
1.8800000000000014,10.34832125473858,1.8620511398602493,-1.1956190508259883,-0.7254969572967064,11.999894,0.97664875,-1.1244912,-1.0276873,1.9217275,-1.3954952,1.8475428,0.20214432,-0.04818253,-0.14318119,0.967634,-9.764185,8.554726,0.27566952,1.5342404,-1.8890834,0.07304919,0
1.8900000000000015,10.34832125473858,1.8620511398602493,-1.1956190508259883,-0.7254969572967064,11.999894,0.97664875,-1.1244912,-1.0276873,1.82401,-1.3100805,1.8503033,0.20093404,-0.037769366,-0.13746125,0.96917677,-9.778939,8.528305,0.2765268,1.5853115,-1.7809762,0.033864282,0
1.9000000000000015,10.34832125473858,1.8620511398602493,-1.1956190508259883,-0.7254969572967064,11.999894,0.97664875,-1.1244912,-1.0276873,1.7261567,-1.2249267,1.853075,0.19995776,-0.027759247,-0.13140135,0.9705567,-9.791373,8.50258,0.2778848,1.6284257,-1.6897286,-0.0033977935,0
1.9100000000000015,10.34832125473858,1.8620511398602493,-1.1956190508259883,-0.7254969572967064,11.999894,0.97664875,-1.1244912,-1.0276873,1.6281904,-1.1400262,1.8558626,0.19919103,-0.018089086,-0.125052,0.9717809,-9.801549,8.477643,0.27969918,1.6648225,-1.612711,-0.038831417,0
1.9200000000000015,10.10153329936353,1.536821751331968,-0.7891850213403748,-0.8506893340825334,11.427033,0.8333985,-0.3564907,-1.0434809,1.5301334,-1.0553707,1.8586704,0.19861287,-0.0087057715,-0.11845571,0.97285444,-9.809525,8.453574,0.28192577,1.6955478,-1.5477035,-0.07252629,0
1.9300000000000015,10.10153329936353,1.536821751331968,-0.7891850213403748,-0.8506893340825334,11.427033,0.8333985,-0.3564907,-1.0434809,1.432008,-0.9709486,1.8614904,0.19823864,0.0002530343,-0.11174299,0.97376347,-9.815216,8.43099,0.28211772,1.6707644,-1.4294534,-0.110710986,0
1.9400000000000015,10.10153329936353,1.536821751331968,-0.7891850213403748,-0.8506893340825334,11.427033,0.8333985,-0.3564907,-1.0434809,1.3338357,-0.88674754,1.8643137,0.19808252,0.008680404,-0.10501982,0.97450465,-9.81891,8.409359,0.28261864,1.6498517,-1.3296413,-0.14702193,0
1.9500000000000015,10.10153329936353,1.536821751331968,-0.7891850213403748,-0.8506893340825334,11.427033,0.8333985,-0.3564907,-1.0434809,1.2356362,-0.802758,1.8671435,0.1981257,0.016658958,-0.09828604,0.9750944,-9.820707,8.388706,0.28338215,1.6322048,-1.2453924,-0.18155111,0
1.9600000000000015,9.673098127519411,1.0471049984390606,-0.4118391531683262,-0.8638234175653493,10.282121,0.48765096,0.11091559,-1.10765,1.1374278,-0.71896994,1.869982,0.19835149,0.024258355,-0.091541365,0.97554547,-9.820692,8.369058,0.2843662,1.6173129,-1.17428,-0.21438591,1
1.9700000000000015,9.673098127519411,1.0471049984390606,-0.4118391531683262,-0.8638234175653493,10.282121,0.48765096,0.11091559,-1.10765,1.0392283,-0.635375,1.8728402,0.19882013,0.031105427,-0.08512309,0.9758369,-9.818929,8.350084,0.28730497,1.4411426,-0.9738714,-0.25821865,1
1.9800000000000015,9.673098127519411,1.0471049984390606,-0.4118391531683262,-0.8638234175653493,10.282121,0.48765096,0.11091559,-1.10765,0.9410544,-0.55196494,1.8757285,0.19958554,0.03690764,-0.07929899,0.97596914,-9.815628,8.332083,0.29038307,1.2924523,-0.80471,-0.29990047,1
1.9900000000000015,9.673098127519411,1.0471049984390606,-0.4118391531683262,-0.8638234175653493,10.282121,0.48765096,0.11091559,-1.10765,0.84292024,-0.46873033,1.8786482,0.20062417,0.041827854,-0.07397477,0.97597575,-9.811014,8.31498,0.29356584,1.1669546,-0.6619245,-0.339537,1
2.0000000000000013,,,,,9.494711,-0.24819723,0.37665334,-1.1351017,0.744838,-0.3856625,1.8816,0.2019145,0.04600356,-0.06907054,0.97588116,-9.805276,8.298711,0.29682896,1.0610309,-0.5414034,-0.37722853,1
2.010000000000001,,,,,9.494711,-0.24819723,0.37665334,-1.1351017,0.6468155,-0.30274746,1.884546,0.20346165,0.049387656,-0.06478442,0.97568834,-9.799094,8.284402,0.2923874,0.8568828,-0.3982039,-0.4144176,1
2.020000000000001,,,,,9.494711,-0.24819723,0.37665334,-1.1351017,0.5488585,-0.21997239,1.8874478,0.20526925,0.051948477,-0.06126981,0.9754037,-9.792213,8.2707,0.2879882,0.6845723,-0.27733496,-0.44978178,1
2.0300000000000007,,,,,9.494711,-0.24819723,0.37665334,-1.1351017,0.45097306,-0.13733174,1.8903058,0.20731638,0.053813927,-0.058404084,0.9750453,-9.784808,8.257499,0.28362074,0.53913337,-0.17531528,-0.48341063,1
2.0400000000000005,,,,,9.494711,-0.24819723,0.37665334,-1.1351017,0.35316366,-0.054820996,1.8931203,0.20958391,0.055091985,-0.056083757,0.9746253,-9.777022,8.244706,0.27927935,0.4163749,-0.08920622,-0.51538926,1
2.0500000000000003,,,,,9.508387,-0.6802475,0.27275375,-1.0271842,0.2554335,0.027563542,1.8958915,0.21205436,0.055873822,-0.054221563,0.9741517,-9.768979,8.232248,0.27496126,0.31275928,-0.016527312,-0.5457987,1
2.06,,,,,9.508387,-0.6802475,0.27275375,-1.0271842,0.15778464,0.10982479,1.8986204,0.21470642,0.05623936,-0.05292199,0.973621,-9.760775,8.220036,0.27079985,0.157917,0.028638398,-0.56942046,1
2.07,,,,,9.508387,-0.6802475,0.27275375,-1.0271842,0.06021817,0.19196479,1.9013076,0.21751978,0.05625536,-0.05226436,0.9730309,-9.752519,8.207984,0.2666548,0.02722079,0.06675602,-0.59188306,1
2.0799999999999996,,,,,9.508387,-0.6802475,0.27275375,-1.0271842,-0.037265845,0.2739847,1.9039534,0.22048074,0.055975262,-0.052146945,0.9723867,-9.744297,8.195995,0.2625208,-0.083094805,0.09892483,-0.61324334,1
2.0899999999999994,,,,,8.884784,-0.7338647,0.07023947,-0.85827535,-0.13466814,0.35588467,1.906558,0.22357693,0.05544433,-0.052484006,0.9716918,-9.736184,8.183987,0.25839365,-0.17620796,0.12607288,-0.6335556,1
2.099999999999999,,,,,8.884784,-0.7338647,0.07023947,-0.85827535,-0.23199274,0.43766809,1.9090905,0.22677381,0.05477372,-0.053243503,0.97094744,-9.728762,8.172678,0.2481059,-0.26317695,0.11740341,-0.6445826,1
2.109999999999999,,,,,8.884784,-0.7338647,0.07023947,-0.85827535,-0.32924405,0.5193377,1.91152,0.23003985,0.054053344,-0.054396857,0.9701553,-9.721534,8.161217,0.23781432,-0.33658275,0.11008123,-0.6550686,1
2.1199999999999988,,,,,8.884784,-0.7338647,0.07023947,-0.85827535,-0.42642418,0.60089165,1.9138465,0.23336874,0.05329004,-0.055882018,0.9693177,-9.714524,8.14954,0.22751218,-0.39854068,0.1038969,-0.66504,1
2.1299999999999986,,,,,8.245311,-0.56418747,0.061540168,-0.72295535,-0.5235354,0.68232757,1.91607,0.2367548,0.05248973,-0.057646625,0.9684365,-9.707756,8.137597,0.2171932,-0.45083597,0.0986735,-0.67452216,1
2.1399999999999983,,,,,8.245311,-0.56418747,0.061540168,-0.72295535,-0.6205826,0.76364696,1.9181587,0.24017303,0.051676154,-0.05958247,0.9675209,-9.701717,8.12623,0.2005354,-0.4685154,0.09289103,-0.6768988,1
2.149999999999998,,,,,8.245311,-0.56418747,0.061540168,-0.72295535,-0.7175706,0.84485114,1.9200805,0.24360096,0.050868593,-0.061601765,0.96657974,-9.695927,8.114561,0.18385293,-0.48343754,0.088009164,-0.6791588,1
2.159999999999998,,,,,8.245311,-0.56418747,0.061540168,-0.72295535,-0.81450194,0.92593706,1.9218355,0.24703738,0.050065815,-0.06369123,0.96561366,-9.690389,8.10258,0.16714258,-0.4960322,0.08388751,-0.681308,1
2.1699999999999977,,,,,8.393637,-0.36689368,0.11976926,-0.66048354,-0.9113792,1.0069016,1.9234233,0.2504812,0.049266808,-0.065839656,0.964623,-9.685107,8.090277,0.15040128,-0.5066624,0.08040794,-0.68335164,1
2.1799999999999975,,,,,8.393637,-0.36689368,0.11976926,-0.66048354,-1.0082046,1.0877404,1.9248508,0.25392166,0.04846768,-0.06795595,0.96361667,-9.679997,8.07742,0.13508947,-0.4848628,0.08653618,-0.68222946,1
2.1899999999999973,,,,,8.393637,-0.36689368,0.11976926,-0.66048354,-1.1049801,1.168449,1.9261249,0.25734943,0.047665607,-0.069967516,0.96260285,-9.675153,8.064245,0.119743556,-0.4664635,0.09171032,-0.6811624,1
2.199999999999997,,,,,8.393637,-0.36689368,0.11976926,-0.66048354,-1.2017084,1.2490243,1.9272455,0.26076537,0.0468612,-0.07189053,0.9615809,-9.670571,8.05077,0.10436423,-0.4509338,0.096078955,-0.6801477,1
2.209999999999997,,,,,8.766863,-0.15141883,0.3441619,-0.6028132,-1.2983923,1.3294634,1.9282122,0.26417023,0.046054944,-0.07373864,0.96054995,-9.666251,8.037008,0.08895206,-0.4378261,0.09976738,-0.6791828,1
2.2199999999999966,,,,,8.766863,-0.15141883,0.3441619,-0.6028132,-1.3950335,1.4097605,1.9290429,0.26756057,0.045183368,-0.07541703,0.9595221,-9.662013,8.022356,0.077183545,-0.39314458,0.13785994,-0.6754353,1
