time-since-start [s],throttle_mpc,roll_mpc,pitch_mpc,yaw_mpc,throttle_nw,roll_nw,pitch_nw,yaw_nw,position_x [m],position_y [m],position_z [m],rotation_w [quaternion],rotation_x [quaternion],rotation_y [quaternion],rotation_z [quaternion],velocity_x [m/s],velocity_y [m/s],velocity_z [m/s],omega_x [rad/s],omega_y [rad/s],omega_z [rad/s],network_used
0.0,9.568595312364497,5.999999663760379,-5.999999942334133,-5.851388346476567,4.4374495,-0.22139843,-3.3821688,-1.1840738,20.173117,-9.184057,2.2235897,-0.13200416,-0.46399406,0.32225332,0.81451654,-10.73557,-5.8553195,-0.17754099,1.3070804,0.09802565,0.11394855,0
0.01,9.568595312364497,5.999999663760379,-5.999999942334133,-5.851388346476567,16.196674,-1.6909128,-5.7818832,-2.78423,20.064903,-9.242197,2.2216907,-0.12923737,-0.4649542,0.32735252,0.8123765,-10.906276,-5.7728906,-0.20284702,1.1973699,-0.011541678,-0.0787757,0
0.02,9.568595312364497,5.999999663760379,-5.999999942334133,-5.851388346476567,16.196674,-1.6909128,-5.7818832,-2.78423,19.955006,-9.299515,2.2195213,-0.12576126,-0.46573308,0.33165398,0.81072956,-11.072535,-5.690698,-0.23152283,1.1053475,-0.104597166,-0.26672682,0
0.03,9.568595312364497,5.999999663760379,-5.999999942334133,-5.851388346476567,16.196674,-1.6909128,-5.7818832,-2.78423,19.843468,-9.356012,2.2170498,-0.1215828,-0.46640328,0.33522415,0.80951244,-11.234356,-5.6088333,-0.26321065,1.0281523,-0.1836137,-0.45002303,0
0.04,9.568595312364497,5.999999663760379,-5.999999942334133,-5.851388346476567,10.996843,-0.8414467,-6.445436,-2.9121222,19.730333,-9.411693,2.214248,-0.116710655,-0.46702346,0.338119,0.80866754,-11.391771,-5.5273714,-0.2976063,0.96338797,-0.2506968,-0.6287796,0
0.05,9.568595312364497,5.999999663760379,-5.999999942334133,-5.851388346476567,10.996843,-0.8414467,-6.445436,-2.9121222,19.615648,-9.466561,2.2110894,-0.11115477,-0.46764082,0.34038574,0.80814236,-11.5448265,-5.446374,-0.3344501,0.9090462,-0.3076384,-0.80310893,0
0.060000000000000005,9.568595312364497,5.999999663760379,-5.999999942334133,-5.851388346476567,10.996843,-0.8414467,-6.445436,-2.9121222,19.49945,-9.520622,2.2075512,-0.10492605,-0.4682928,0.34206432,0.80788875,-11.693575,-5.3658934,-0.37351936,0.8634448,-0.35596296,-0.9731208,0
0.07,9.568595312364497,5.999999663760379,-5.999999942334133,-5.851388346476567,10.996843,-0.8414467,-6.445436,-2.9121222,19.381786,-9.57388,2.2036126,-0.09802692,-0.4689994,0.34320027,0.80786365,-11.83872,-5.285622,-0.4143713,0.83366954,-0.40547544,-1.1381974,0
0.08,11.934931102512472,5.9999998834323565,-5.999999986487084,-5.8405901937096765,11.622328,-0.5241342,-6.654897,-3.9200497,19.262684,-9.626334,2.1992595,-0.09040518,-0.46971852,0.34390345,0.8080356,-11.981359,-5.2049856,-0.45643327,0.832152,-0.47091725,-1.2973102,0
0.09,11.934931102512472,5.9999998834323565,-5.999999986487084,-5.8405901937096765,11.622328,-0.5241342,-6.654897,-3.9200497,19.142097,-9.6779375,2.1945083,-0.08184948,-0.47027147,0.34443665,0.8083988,-12.135622,-5.1157527,-0.49402857,0.9208069,-0.6162623,-1.4561269,0
0.09999999999999999,11.934931102512472,5.9999998834323565,-5.999999986487084,-5.8405901937096765,11.622328,-0.5241342,-6.654897,-3.9200497,19.019983,-9.728647,2.1893747,-0.07216847,-0.470489,0.34502834,0.8089419,-12.286523,-5.026161,-0.53287095,1.0266101,-0.7699846,-1.609922,0
0.10999999999999999,11.934931102512472,5.9999998834323565,-5.999999986487084,-5.8405901937096765,11.622328,-0.5241342,-6.654897,-3.9200497,18.89638,-9.778458,2.183847,-0.061329175,-0.4703215,0.3457424,0.80962855,-12.43385,-4.9360275,-0.57285917,1.1471493,-0.93104094,-1.7589656,0
0.11999999999999998,11.934931102512472,5.9999998834323565,-5.999999986487084,-5.8405901937096765,11.622328,-0.5241342,-6.654897,-3.9200497,18.771322,-9.827364,2.177914,-0.04930498,-0.46971917,0.34662998,0.81041986,-12.577387,-4.845163,-0.6138918,1.2802984,-1.0984596,-1.9035062,0
0.12999999999999998,15.897225839394324,5.999999978323232,-6.0,-5.347219413983179,12.45753,0.39825767,-7.530547,-3.5764296,18.644846,-9.875357,2.1715658,-0.03607528,-0.46863177,0.3477307,0.8112743,-12.716906,-4.7533784,-0.65586555,1.4241815,-1.2713392,-2.0437727,0
0.13999999999999999,15.897225839394324,5.999999978323232,-6.0,-5.347219413983179,12.45753,0.39825767,-7.530547,-3.5764296,18.516909,-9.922366,2.1648302,-0.021278836,-0.4666506,0.34945768,0.8121967,-12.869924,-4.648245,-0.69140047,1.7527888,-1.6249695,-2.171478,0
0.15,15.897225839394324,5.999999978323232,-6.0,-5.347219413983179,12.45753,0.39825767,-7.530547,-3.5764296,18.38747,-9.968317,2.1577342,-0.0045976876,-0.46339038,0.35215396,0.8131639,-13.017013,-4.5417852,-0.72795576,2.0737746,-1.9671547,-2.2968206,0
0.16,20.04229192652962,6.0,-6.0,-4.521569439318402,15.518942,1.1318282,-8.76652,-2.573486,18.256592,-10.013195,2.1502683,0.013917523,-0.45883068,0.3557413,0.8140814,-13.157701,-4.433515,-0.76532364,2.38728,-2.298627,-2.4198225,0
0.17,20.04229192652962,6.0,-6.0,-4.521569439318402,15.518942,1.1318282,-8.76652,-2.573486,18.124268,-10.05692,2.142458,0.034640953,-0.4524394,0.36061457,0.81489587,-13.30579,-4.311178,-0.7968486,2.9203281,-2.8475816,-2.52029,0
0.18000000000000002,20.04229192652962,6.0,-6.0,-4.521569439318402,15.518942,1.1318282,-8.76652,-2.573486,17.990501,-10.099404,2.1343317,0.057850458,-0.4437417,0.36704284,0.8154911,-13.446331,-4.1848273,-0.8282619,3.3995814,-3.3402028,-2.6184933,0
0.19000000000000003,20.04229192652962,6.0,-6.0,-4.521569439318402,15.518942,1.1318282,-8.76652,-2.573486,17.855364,-10.140595,2.1258976,0.08321687,-0.4329184,0.3746552,0.8156529,-13.580159,-4.052082,-0.8583142,3.80418,-3.755917,-2.7118778,0
0.20000000000000004,20.999999932181087,6.0,-6.0,-3.8554228884981265,16.031683,3.5227485,-7.970241,-3.1232474,17.718925,-10.180424,2.117171,0.11040134,-0.4201644,0.383094,0.815176,-13.706033,-3.9125857,-0.8867271,4.145761,-4.106723,-2.80068,0
0.21000000000000005,20.999999932181087,6.0,-6.0,-3.8554228884981265,16.031683,3.5227485,-7.970241,-3.1232474,17.581247,-10.218788,2.1081867,0.13903387,-0.40561825,0.39208838,0.8138855,-13.828341,-3.7592728,-0.9098356,4.4342413,-4.4026537,-2.8524365,0
0.22000000000000006,20.999999932181087,6.0,-6.0,-3.8554228884981265,16.031683,3.5227485,-7.970241,-3.1232474,17.442396,-10.255585,2.098982,0.16877927,-0.38940233,0.40141,0.81163347,-13.939883,-3.599001,-0.9307524,4.6778083,-4.6523614,-2.9016533,0
0.23000000000000007,20.999999932181087,6.0,-6.0,-3.8554228884981265,16.031683,3.5227485,-7.970241,-3.1232474,17.30249,-10.290746,2.08958,0.19939724,-0.3716576,0.41083363,0.8082862,-14.039553,-3.4322011,-0.94930184,4.8834577,-4.863062,-2.948455,0
0.24000000000000007,20.999999932181087,6.0,-6.0,-3.8554228884981265,17.52687,2.7123637,-6.9078374,-2.4593046,17.161652,-10.324208,2.080005,0.230669,-0.35251427,0.42016795,0.80373126,-14.126334,-3.2595174,-0.9653506,5.057095,-5.0408463,-2.9929602,0
0.25000000000000006,20.999999932181087,6.0,-6.0,-3.8554228884981265,17.52687,2.7123637,-6.9078374,-2.4593046,17.020012,-10.355918,2.0702822,0.26239452,-0.33209386,0.4292506,0.79787606,-14.199319,-3.0817802,-0.9788067,5.2037053,-5.1908545,-3.0352817,0
0.26000000000000006,20.999999932181087,6.0,-6.0,-3.8554228884981265,17.52687,2.7123637,-6.9078374,-2.4593046,16.877716,-10.38583,2.0604382,0.29438993,-0.3105108,0.43794414,0.7906465,-14.257718,-2.8999803,-0.9896181,5.327498,-5.317425,-3.0755265,0
0.2700000000000001,20.999999932181087,6.0,-6.0,-3.8554228884981265,17.52687,2.7123637,-6.9078374,-2.4593046,16.734913,-10.413908,2.0504992,0.3264857,-0.2878737,0.44613275,0.7819852,-14.300873,-2.7152443,-0.9977718,5.4320254,-5.4242163,-3.1137962,0
0.2800000000000001,21.0,5.99999990956889,-5.9999999754303985,-3.1378188814934656,20.026878,0.8848366,-6.2673197,-1.5159727,16.591755,-10.440129,2.0404918,0.35852486,-0.26428577,0.45371875,0.77184963,-14.328264,-2.5288095,-1.0032911,5.5202875,-5.5143194,-3.1501884,0
0.2900000000000001,21.0,5.99999990956889,-5.9999999754303985,-3.1378188814934656,20.026878,0.8848366,-6.2673197,-1.5159727,16.448404,-10.464483,2.0304422,0.390294,-0.23980579,0.46064383,0.7602438,-14.339523,-2.3420017,-1.0062345,5.594945,-5.5902123,-3.1495817,0
0.3000000000000001,21.0,5.99999990956889,-5.9999999754303985,-3.1378188814934656,20.026878,0.8848366,-6.2673197,-1.5159727,16.305023,-10.486973,2.0203755,0.42159703,-0.21449122,0.46686062,0.74718815,-14.334432,-2.1562095,-1.0066949,5.657984,-5.6542454,-3.1490045,0
0.3100000000000001,21.0,5.99999990956889,-5.9999999754303985,-3.1378188814934656,20.026878,0.8848366,-6.2673197,-1.5159727,16.161774,-10.507615,2.0103161,0.45231906,-0.1884373,0.4723087,0.73268193,-14.312923,-1.9728622,-1.0048,5.711213,-5.7082725,-3.1484556,0
0.3200000000000001,21.0,3.8217410407537975,-5.999999423700644,0.17085060398035415,20.886524,-0.57225996,-5.9539824,0.10828938,16.01882,-10.526443,2.0002868,0.48235345,-0.16173588,0.47693798,0.7167331,-14.27509,-1.7934098,-1.0007098,5.756158,-5.753857,-3.1479335,0
0.3300000000000001,21.0,3.8217410407537975,-5.999999423700644,0.17085060398035415,20.886524,-0.57225996,-5.9539824,0.10828938,15.876325,-10.543501,1.9903088,0.5111864,-0.1347134,0.4801625,0.6999887,-14.221245,-1.6193053,-0.9945704,5.4550242,-5.791044,-2.9850798,0
0.34000000000000014,21.0,3.8217410407537975,-5.999999423700644,0.17085060398035415,20.886524,-0.57225996,-5.9539824,0.10828938,15.734446,-10.558851,1.9804027,0.5384352,-0.107652664,0.48156923,0.68307316,-14.152229,-1.4519632,-0.98631227,5.200841,-5.8226104,-2.8302174,0
0.35000000000000014,21.0,3.8217410407537975,-5.999999423700644,0.17085060398035415,20.886524,-0.57225996,-5.9539824,0.10828938,15.593328,-10.572568,1.9705902,0.564183,-0.08057136,0.48134938,0.665964,-14.069065,-1.2926636,-0.975846,4.9862823,-5.8493986,-2.6829543,0
0.36000000000000015,21.0,1.9189476258063651,-4.279196277534431,3.0114000879782337,20.985098,-1.9349877,-5.7496653,1.2727414,15.45311,-10.584736,1.9608935,0.58849674,-0.05348432,0.47966236,0.6486406,-13.972787,-1.1425457,-0.96315384,4.8051686,-5.8721285,-2.5429173,0
0.37000000000000016,21.0,1.9189476258063651,-4.279196277534431,3.0114000879782337,20.985098,-1.9349877,-5.7496653,1.2727414,15.314015,-10.595318,1.9514418,0.6108835,-0.027183393,0.4766848,0.6315485,-13.844445,-0.9765639,-0.92733836,4.386357,-5.5923705,-2.306632,0
0.38000000000000017,21.0,1.9189476258063651,-4.279196277534431,3.0114000879782337,20.985098,-1.9349877,-5.7496653,1.2727414,15.176251,-10.604322,1.9423435,0.63101214,-0.002275988,0.47263882,0.61516714,-13.707118,-0.82691246,-0.89249885,4.0326567,-5.3565106,-2.0761988,0
0.3900000000000002,21.0,1.9189476258063651,-4.279196277534431,3.0114000879782337,20.985098,-1.9349877,-5.7496653,1.2727414,15.039897,-10.611911,1.9335877,0.64914477,0.021479307,0.46769395,0.5995094,-13.562966,-0.69308406,-0.85885286,3.734033,-5.1575675,-1.8514727,0
0.4000000000000002,21.0,1.0777901032811308,-1.6265196610526949,3.2610205483983834,19.577341,-1.9628518,-4.491094,2.0012906,14.90501,-10.618237,1.9251617,0.6654979,0.04429064,0.46197975,0.58457255,-13.413808,-0.57448417,-0.8265985,3.4820774,-4.9895935,-1.6323124,0
0.4100000000000002,21.0,1.0777901032811308,-1.6265196610526949,3.2610205483983834,19.577341,-1.9628518,-4.491094,2.0012906,14.771655,-10.623435,1.9170691,0.6799676,0.06547013,0.4556691,0.5707213,-13.256814,-0.4673804,-0.79219216,2.998536,-4.5738707,-1.4123976,0
0.4200000000000002,21.0,1.0777901032811308,-1.6265196610526949,3.2610205483983834,19.577341,-1.9628518,-4.491094,2.0012906,14.63988,-10.627631,1.9093118,0.69254154,0.08449001,0.4489594,0.55828536,-13.097966,-0.37396923,-0.7595455,2.592967,-4.2204423,-1.1979293,0
0.4300000000000002,21.0,1.0777901032811308,-1.6265196610526949,3.2610205483983834,19.577341,-1.9628518,-4.491094,2.0012906,14.509698,-10.630956,1.901872,0.70349467,0.10173245,0.44196057,0.5471892,-12.938488,-0.2928451,-0.72860825,2.255652,-3.9171457,-0.98900425,0
0.4400000000000002,21.0,1.0777901032811308,-1.6265196610526949,3.2610205483983834,17.432617,-2.2951617,-1.7085692,2.4819667,14.381114,-10.633522,1.8947377,0.71301544,0.11752948,0.43482536,0.53732866,-12.77804,-0.22221257,-0.69833076,1.9969349,-3.6351852,-0.7872457,0
0.45000000000000023,21.0,1.0777901032811308,-1.6265196610526949,3.2610205483983834,17.432617,-2.2951617,-1.7085692,2.4819667,14.254138,-10.635431,1.8879032,0.7212161,0.13217404,0.4277629,0.5285789,-12.617208,-0.161084,-0.66867423,1.8096089,-3.366161,-0.5926048,0
0.46000000000000024,21.0,1.0777901032811308,-1.6265196610526949,3.2610205483983834,17.432617,-2.2951617,-1.7085692,2.4819667,14.128769,-10.636773,1.8813612,0.7281787,0.1459188,0.4209519,0.5208285,-12.456663,-0.10868068,-0.63988984,1.6834,-3.1071742,-0.40465638,0
0.47000000000000025,21.0,1.0777901032811308,-1.6265196610526949,3.2610205483983834,17.432617,-2.2951617,-1.7085692,2.4819667,14.005007,-10.6376295,1.8751056,0.7339874,0.15897118,0.4144949,0.5139883,-12.295444,-0.06387988,-0.61111677,1.5893555,-2.8760552,-0.2247806,0
0.48000000000000026,20.999999964042704,0.32044239205675135,0.6427845981135889,3.6724868406193067,17.80701,-2.5447414,0.9248014,2.3330128,13.882864,-10.638073,1.8691405,0.7387732,0.17147982,0.4083432,0.50799984,-12.132883,-0.025896939,-0.5818284,1.5099058,-2.6810102,-0.05373133,0
0.49000000000000027,20.999999964042704,0.32044239205675135,0.6427845981135889,3.6724868406193067,17.80701,-2.5447414,0.9248014,2.3330128,13.762367,-10.638165,1.8634818,0.74238455,0.18287317,0.40281588,0.5031512,-11.966646,0.0062605785,-0.5502174,1.2907797,-2.196413,0.12605453,0
0.5000000000000002,20.999999964042704,0.32044239205675135,0.6427845981135889,3.6724868406193067,17.80701,-2.5447414,0.9248014,2.3330128,13.643524,-10.637967,1.85813,0.7446633,0.1927435,0.39831534,0.49967045,-11.801821,0.032539506,-0.52029324,1.1361033,-1.7570436,0.2997517,0
0.5100000000000002,20.999999964042704,0.32044239205675135,0.6427845981135889,3.6724868406193067,17.80701,-2.5447414,0.9248014,2.3330128,13.526332,-10.637529,1.8530751,0.74575615,0.20139386,0.39477453,0.49743396,-11.636527,0.054317813,-0.49071172,1.0089799,-1.382707,0.4652528,0
0.5200000000000002,20.999999730739283,-0.5262624612658791,2.8532307040948086,3.584242238151958,18.176498,-1.8753806,2.4967391,1.2449156,13.410796,-10.636893,1.8483146,0.7458256,0.20905401,0.39203265,0.49633682,-11.470552,0.07247615,-0.46144682,0.9016186,-1.0667721,0.6226327,0
0.5300000000000002,20.999999730739283,-0.5262624612658791,2.8532307040948086,3.584242238151958,18.176498,-1.8753806,2.4967391,1.2449156,13.296923,-10.63609,1.8438445,0.74473655,0.21521753,0.39044043,0.49659282,-11.303931,0.08781215,-0.43265396,0.67874,-0.45547467,0.7679597,0
0.5400000000000003,20.999999730739283,-0.5262624612658791,2.8532307040948086,3.584242238151958,18.176498,-1.8753806,2.4967391,1.2449156,13.184719,-10.635142,1.8396593,0.7423928,0.21949054,0.3902675,0.49836475,-11.136685,0.10151316,-0.40449578,0.49055997,0.06046717,0.9061555,0
0.5500000000000003,20.999999730739283,-0.5262624612658791,2.8532307040948086,3.584242238151958,18.176498,-1.8753806,2.4967391,1.2449156,13.074192,-10.634062,1.835752,0.7389559,0.22219503,0.3912662,0.50148135,-10.968828,0.1147611,-0.37710345,0.33168977,0.4959326,1.03757,0
0.5600000000000003,20.99999968862954,-1.9947584947909993,5.06910488689683,3.275280256169136,18.009298,-2.1014998,3.4238012,0.99345195,12.965345,-10.632847,1.8321142,0.7345491,0.22359765,0.39322203,0.50578386,-10.800376,0.12855776,-0.35057157,0.19757572,0.8634783,1.162536,0
0.5700000000000003,20.99999968862954,-1.9947584947909993,5.06910488689683,3.275280256169136,18.009298,-2.1014998,3.4238012,0.99345195,12.858186,-10.631487,1.8287374,0.7290671,0.22302295,0.39630884,0.51152754,-10.631376,0.14384952,-0.32495877,-0.14491382,1.5190759,1.2662089,0
0.5800000000000003,20.99999968862954,-1.9947584947909993,5.06910488689683,3.275280256169136,18.009298,-2.1014998,3.4238012,0.99345195,12.752719,-10.62996,1.825612,0.7224099,0.21993539,0.40063652,0.5188852,-10.462007,0.1619979,-0.30024537,-0.43398315,2.0724359,1.3647946,0
0.5900000000000003,20.99999968862954,-1.9947584947909993,5.06910488689683,3.275280256169136,18.009298,-2.1014998,3.4238012,0.99345195,12.648946,-10.628233,1.8227295,0.7146611,0.21472436,0.40594405,0.52759975,-10.292517,0.18433909,-0.27639443,-0.67795384,2.5395076,1.4585427,0
0.6000000000000003,20.99999983914652,-3.3284362645657746,5.999997668534763,2.270058471151521,19.264656,-2.6993499,4.568287,0.66630137,12.546866,-10.626255,1.8200812,0.7058788,0.20771523,0.41200554,0.5374385,-10.123207,0.21198982,-0.25338554,-0.883852,2.9337509,1.5476906,0
0.6100000000000003,20.99999983914652,-3.3284362645657746,5.999997668534763,2.270058471151521,19.264656,-2.6993499,4.568287,0.66630137,12.446479,-10.623971,1.8176589,0.69612396,0.1985523,0.41862312,0.54839975,-9.954462,0.24592446,-0.2311947,-1.2656434,3.4115171,1.5831375,0
0.6200000000000003,20.99999983914652,-3.3284362645657746,5.999997668534763,2.270058471151521,19.264656,-2.6993499,4.568287,0.66630137,12.347774,-10.621312,1.815455,0.6854297,0.18695633,0.42560932,0.5604367,-9.78688,0.28721818,-0.20968887,-1.5878339,3.814823,1.6168448,0
0.6300000000000003,20.99999983914652,-3.3284362645657746,5.999997668534763,2.270058471151521,19.264656,-2.6993499,4.568287,0.66630137,12.250735,-10.618198,1.8134631,0.67379457,0.17328338,0.4327974,0.57328814,-9.621162,0.33682653,-0.1887487,-1.8597248,4.1552753,1.6488981,0
0.6400000000000003,20.99999983914652,-3.3284362645657746,5.999997668534763,2.270058471151521,18.6121,-3.1467865,4.879663,0.67729366,12.155342,-10.614545,1.8116782,0.6612151,0.15783669,0.44004405,0.5867218,-9.458061,0.39549384,-0.16832134,-2.0891662,4.4426713,1.6793785,0
0.6500000000000004,20.99999983914652,-3.3284362645657746,5.999997668534763,2.270058471151521,18.6121,-3.1467865,4.879663,0.67729366,12.061563,-10.610256,1.810095,0.64768964,0.1408763,0.44722703,0.60053235,-9.298364,0.46377307,-0.1484136,-2.2827828,4.6852813,1.7083634,0
0.6600000000000004,20.99999983914652,-3.3284362645657746,5.999997668534763,2.270058471151521,18.6121,-3.1467865,4.879663,0.67729366,11.969359,-10.605235,1.808708,0.6332198,0.12262673,0.4542428,0.6145388,-9.142881,0.5420429,-0.1290843,-2.4461675,4.890085,1.735926,0
0.6700000000000004,20.99999983914652,-3.3284362645657746,5.999997668534763,2.270058471151521,18.6121,-3.1467865,4.879663,0.67729366,11.878687,-10.59938,1.807511,0.6178118,0.103282996,0.46100396,0.6285822,-8.992447,0.6305226,-0.110436425,-2.5840383,5.062976,1.7621361,0
0.6800000000000004,20.99999986943161,-3.3900621072358432,5.941122710700294,2.0631133377209454,17.470654,-3.030939,4.914937,0.19305111,11.78949,-10.592588,1.8064965,0.6014765,0.08301546,0.46743733,0.642523,-8.847894,0.7292849,-0.092609644,-2.7003787,5.2089267,1.7870599,0
0.6900000000000004,20.99999986943161,-3.3900621072358432,5.941122710700294,2.0631133377209454,17.470654,-3.030939,4.914937,0.19305111,11.701706,-10.584759,1.8056555,0.58425874,0.061962392,0.473454,0.6562337,-8.710053,0.8382664,-0.07577055,-2.8081143,5.3229623,1.8006059,0
0.7000000000000004,20.99999986943161,-3.3900621072358432,5.941122710700294,2.0631133377209454,17.470654,-3.030939,4.914937,0.19305111,11.615263,-10.5757885,1.804977,0.5662044,0.040245946,0.4789815,0.6696032,-8.579746,0.957272,-0.060094252,-2.8990273,5.4192333,1.8134872,0
0.7100000000000004,20.99999986943161,-3.3900621072358432,5.941122710700294,2.0631133377209454,17.470654,-3.030939,4.914937,0.19305111,11.530083,-10.565579,1.804449,0.54733235,0.017985167,0.48398614,0.6825395,-8.4577675,1.0859923,-0.045770984,-2.9757438,5.500508,1.8257364,0
0.7200000000000004,20.99999979355886,-3.0083462687291482,4.9522811616364235,1.4613076456677219,17.727121,-3.5336533,4.5499306,0.068617724,11.446077,-10.554037,1.8040563,0.52766484,-0.0047139567,0.48844048,0.69496214,-8.344875,1.2240173,-0.03300652,-3.0404804,5.5691214,1.8373846,0
0.7300000000000004,20.99999979355886,-3.0083462687291482,4.9522811616364235,1.4613076456677219,17.727121,-3.5336533,4.5499306,0.068617724,11.363152,-10.541069,1.8037826,0.50747967,-0.027436873,0.49222732,0.70669854,-8.241759,1.3708189,-0.022006923,-3.0352883,5.472968,1.8189304,0
0.7400000000000004,20.99999979355886,-3.0083462687291482,4.9522811616364235,1.4613076456677219,17.727121,-3.5336533,4.5499306,0.068617724,11.281206,-10.526592,1.8036094,0.48703718,-0.049850557,0.495281,0.7176387,-8.148892,1.5256531,-0.012921856,-3.0309289,5.391807,1.8013816,0
0.7500000000000004,20.99999979355886,-3.0083462687291482,4.9522811616364235,1.4613076456677219,17.727121,-3.5336533,4.5499306,0.068617724,11.200136,-10.51053,1.803517,0.46633637,-0.071977444,0.49764878,0.72780097,-8.066638,1.6877207,-0.005878118,-3.0272686,5.3233004,1.7846941,0
0.7600000000000005,20.99999942663347,-2.2720004851758717,3.4319485467479036,0.9108006449701151,18.016933,-3.8380678,4.2807665,0.20745148,11.119836,-10.492815,1.8034843,0.4453782,-0.0938346,0.49936953,0.7371989,-7.995315,1.8562309,-0.0010003695,-3.0241964,5.2654753,1.7688253,0
0.7700000000000005,20.99999942663347,-2.2720004851758717,3.4319485467479036,0.9108006449701151,18.016933,-3.8380678,4.2807665,0.20745148,11.040193,-10.473386,1.8034891,0.42455578,-0.11489029,0.5004276,0.74573696,-7.9351435,2.030373,0.001605183,-2.9064257,4.979753,1.7267218,0
0.7800000000000005,20.99999942663347,-2.2720004851758717,3.4319485467479036,0.9108006449701151,18.016933,-3.8380678,4.2807665,0.20745148,10.961096,-10.452191,1.8035085,0.4042204,-0.13473485,0.50085294,0.75339067,-7.8859844,2.209215,0.0019317543,-2.8070922,4.738559,1.6866843,0
0.7900000000000005,20.99999942663347,-2.2720004851758717,3.4319485467479036,0.9108006449701151,18.016933,-3.8380678,4.2807665,0.20745148,10.882436,-10.429188,1.80352,0.38431293,-0.15354504,0.50073093,0.76025975,-7.8475814,2.3918746,1.1321332e-05,-2.7233088,4.5349526,1.6486115,0
0.8000000000000005,20.918253768133944,-1.3866857277702356,1.7480583189307022,0.3813482564239668,17.132412,-4.328609,3.921961,0.005337377,10.804107,-10.404342,1.8035012,0.36477897,-0.1714703,0.500128,0.7664235,-7.8196917,2.5775707,-0.0041228905,-2.6526396,4.363078,1.612407,0
0.8100000000000005,20.918253768133944,-1.3866857277702356,1.7480583189307022,0.3813482564239668,17.132412,-4.328609,3.921961,0.005337377,10.726006,-10.377632,1.8034283,0.34602365,-0.18802683,0.4991223,0.7718738,-7.8020883,2.7648587,-0.010777578,-2.4546301,3.9555721,1.5519986,0
0.8200000000000005,20.918253768133944,-1.3866857277702356,1.7480583189307022,0.3813482564239668,17.132412,-4.328609,3.921961,0.005337377,10.648032,-10.34904,1.8032787,0.32839257,-0.20285495,0.4978126,0.7766527,-7.794003,2.9537604,-0.019429212,-2.287601,3.611566,1.4945544,0
0.8300000000000005,20.918253768133944,-1.3866857277702356,1.7480583189307022,0.3813482564239668,17.132412,-4.328609,3.921961,0.005337377,10.570095,-10.318553,1.8030334,0.311753,-0.216237,0.49626592,0.78087795,-7.7947187,3.143683,-0.029892316,-2.1467023,3.3211663,1.4399291,0
0.8400000000000005,20.918253768133944,-1.3866857277702356,1.7480583189307022,0.3813482564239668,16.651114,-4.531424,2.510058,-0.39925513,10.492109,-10.286164,1.8026752,0.2959856,-0.2284101,0.49452996,0.7846401,-7.8036113,3.3341513,-0.041997787,-2.0278435,3.0760214,1.3879843,0
0.8500000000000005,20.918253768133944,-1.3866857277702356,1.7480583189307022,0.3813482564239668,16.651114,-4.531424,2.510058,-0.39925513,10.413996,-10.251868,1.8021884,0.28098413,-0.2395731,0.4926386,0.7880092,-7.8201375,3.5247786,-0.05559415,-1.9275756,2.869079,1.3385885,0
0.8600000000000005,20.918253768133944,-1.3866857277702356,1.7480583189307022,0.3813482564239668,16.651114,-4.531424,2.510058,-0.39925513,10.335681,-10.215669,1.8015586,0.26665494,-0.24989259,0.4906153,0.7910399,-7.8438253,3.7152486,-0.070547335,-1.842989,2.6943867,1.2916164,0
0.8700000000000006,20.918253768133944,-1.3866857277702356,1.7480583189307022,0.3813482564239668,16.651114,-4.531424,2.510058,-0.39925513,10.257096,-10.177566,1.8007731,0.2529159,-0.25950795,0.48847637,0.79377496,-7.874267,3.9052966,-0.08673979,-1.7716305,2.5469189,1.2469493,0
0.8800000000000006,18.712896038580162,-0.4654150606805737,0.006080699639562905,-0.0526014433636836,14.27262,-2.3299031,2.0929737,-0.69482434,10.178175,-10.137565,1.79982,0.23969528,-0.26853552,0.48623276,0.7962482,-7.9111094,4.0946975,-0.10406913,-1.7114303,2.4224336,1.204474,0
0.8900000000000006,18.712896038580162,-0.4654150606805737,0.006080699639562905,-0.0526014433636836,14.27262,-2.3299031,2.0929737,-0.69482434,10.098876,-10.095774,1.7986461,0.22741377,-0.27645835,0.48401102,0.79848963,-7.9494567,4.263385,-0.1308329,-1.5167365,2.0458186,1.142789,0
0.9000000000000006,18.712896038580162,-0.4654150606805737,0.006080699639562905,-0.0526014433636836,14.27262,-2.3299031,2.0929737,-0.69482434,10.01917,-10.052301,1.7972007,0.21641359,-0.2828854,0.48193136,0.8005509,-7.9925427,4.4312344,-0.15832257,-1.35248,1.7278967,1.0841308,0
0.9100000000000006,18.712896038580162,-0.4654150606805737,0.006080699639562905,-0.0526014433636836,14.27262,-2.3299031,2.0929737,-0.69482434,9.939012,-10.0071535,1.7954777,0.20652807,-0.28807327,0.47998574,0.80247873,-8.039694,4.5982084,-0.18633407,-1.2138995,1.4595226,1.028351,0
0.9200000000000006,17.129562572156093,0.36850552075724446,-1.6121061606199305,-0.4149560991514549,13.464377,-1.7362665,0.31756267,-1.4310874,9.858364,-9.960341,1.7934728,0.19761264,-0.29223552,0.47816154,0.8043057,-8.090343,4.764302,-0.21469235,-1.096979,1.2329757,0.97530836,0
0.9300000000000006,17.129562572156093,0.36850552075724446,-1.6121061606199305,-0.4149560991514549,13.464377,-1.7362665,0.31756267,-1.4310874,9.777217,-9.9119425,1.7911537,0.1899863,-0.29498616,0.47657505,0.8060788,-8.139419,4.9155583,-0.24911667,-0.8681197,0.7894712,0.9070877,0
0.9400000000000006,17.129562572156093,0.36850552075724446,-1.6121061606199305,-0.4149560991514549,13.464377,-1.7362665,0.31756267,-1.4310874,9.695568,-9.862034,1.7884905,0.18390004,-0.29603407,0.47532374,0.807843,-8.190493,5.066129,-0.2834858,-0.6750291,0.41508958,0.84221464,0
0.9500000000000006,17.129562572156093,0.36850552075724446,-1.6121061606199305,-0.4149560991514549,13.464377,-1.7362665,0.31756267,-1.4310874,9.613402,-9.810622,1.7854849,0.17914449,-0.2956675,0.4743627,0.80960876,-8.242863,5.21614,-0.31758454,-0.5121124,0.09905998,0.7805249,0
0.9600000000000006,15.817809234826452,0.8481144016977334,-2.97185792835182,-0.6353336098238908,10.691932,-1.8047806,-0.13881555,-1.3747578,9.530708,-9.757712,1.7821404,0.17553957,-0.29412568,0.47364786,0.8113766,-8.295938,5.3657103,-0.351235,-0.37465075,-0.16771095,0.72186226,0
0.9700000000000006,15.817809234826452,0.8481144016977334,-2.97185792835182,-0.6353336098238908,10.691932,-1.8047806,-0.13881555,-1.3747578,9.447503,-9.703366,1.7784375,0.17326687,-0.29114494,0.47319072,0.81320477,-8.3451,5.5035286,-0.3892573,-0.1837809,-0.604918,0.65526426,0
0.9800000000000006,15.817809234826452,0.8481144016977334,-2.97185792835182,-0.6353336098238908,10.691932,-1.8047806,-0.13881555,-1.3747578,9.363809,-9.647642,1.7743579,0.17246181,-0.286524,0.4729939,0.8151294,-8.393778,5.641179,-0.42650652,-0.02273938,-0.973971,0.5919342,0
0.9900000000000007,15.817809234826452,0.8481144016977334,-2.97185792835182,-0.6353336098238908,10.691932,-1.8047806,-0.13881555,-1.3747578,9.279632,-9.590543,1.7699107,0.17291805,-0.28052828,0.47300383,0.81711006,-8.441358,5.778781,-0.46278563,0.11314021,-1.2854922,0.53171176,0
1.0000000000000007,15.820749820810168,0.8648844988861161,-3.611260319353385,-0.8349934135004169,11.844524,-1.4935294,0.0029991549,-1.6666366,9.194987,-9.532067,1.765106,0.17445898,-0.27337885,0.47317106,0.8191066,-8.487315,5.9164248,-0.49794054,0.22779281,-1.5484486,0.47444448,0
1.0100000000000007,15.820749820810168,0.8648844988861161,-3.611260319353385,-0.8349934135004169,11.844524,-1.4935294,0.0029991549,-1.6666366,9.109892,-9.472214,1.759956,0.17707643,-0.2650609,0.47340444,0.8211414,-8.531193,6.0541964,-0.5318314,0.3271688,-1.8701258,0.41019,0
1.0200000000000007,15.820749820810168,0.8648844988861161,-3.611260319353385,-0.8349934135004169,11.844524,-1.4935294,0.0029991549,-1.6666366,9.024372,-9.410982,1.7544742,0.18075614,-0.2555705,0.47362337,0.8232195,-8.572497,6.192099,-0.564315,0.4110132,-2.1416485,0.34908843,0
1.0300000000000007,15.820749820810168,0.8648844988861161,-3.611260319353385,-0.8349934135004169,11.844524,-1.4935294,0.0029991549,-1.6666366,8.938453,-9.3483715,1.748675,0.18534923,-0.24509235,0.47380018,0.82528013,-8.610784,6.3301296,-0.595257,0.48175693,-2.370836,0.2909852,0
1.0400000000000007,15.820749820810168,0.8648844988861161,-3.611260319353385,-0.8349934135004169,11.472835,-1.374133,-0.5702185,-1.4758334,8.852167,-9.28438,1.7425746,0.19072793,-0.23378189,0.47391045,0.8272703,-8.645666,6.4682555,-0.62456185,0.54145,-2.564288,0.23573314,0
1.0500000000000007,15.820749820810168,0.8648844988861161,-3.611260319353385,-0.8349934135004169,11.472835,-1.374133,-0.5702185,-1.4758334,8.765552,-9.219007,1.7361896,0.19678247,-0.22177033,0.47393325,0.82914424,-8.676812,6.606417,-0.6521674,0.5918212,-2.7275753,0.18319228,0
1.0600000000000007,15.820749820810168,0.8648844988861161,-3.611260319353385,-0.8349934135004169,11.472835,-1.374133,-0.5702185,-1.4758334,8.678645,-9.152251,1.7295374,0.20341837,-0.20916864,0.473851,0.8308628,-8.703935,6.744531,-0.6780396,0.6343286,-2.8654013,0.13322961,0
1.0700000000000007,15.820749820810168,0.8648844988861161,-3.611260319353385,-0.8349934135004169,11.472835,-1.374133,-0.5702185,-1.4758334,8.591487,-9.084116,1.722635,0.21055418,-0.19607092,0.47364917,0.83239293,-8.726789,6.882494,-0.7021685,0.6702017,-2.9817352,0.08571865,0
1.0800000000000007,15.53999764320712,0.35382594462298206,-3.662813452084547,-0.8847936387629337,11.115469,-1.7896944,0.043967098,-1.4469062,8.504125,-9.014603,1.7155,0.21811952,-0.18255706,0.47331607,0.8337068,-8.745166,7.020185,-0.7245641,0.7004774,-3.0799282,0.040539056,0
1.0900000000000007,15.53999764320712,0.35382594462298206,-3.662813452084547,-0.8847936387629337,11.115469,-1.7896944,0.043967098,-1.4469062,8.416602,-8.943727,1.7081426,0.2260319,-0.16872601,0.47266632,0.8348808,-8.75865,7.155026,-0.74661624,0.6463258,-3.1708493,-0.004867291,0
1.1000000000000008,15.53999764320712,0.35382594462298206,-3.662813452084547,-0.8847936387629337,11.115469,-1.7896944,0.043967098,-1.4469062,8.328968,-8.871504,1.7005733,0.23422551,-0.15466261,0.47155312,0.8359748,-8.767461,7.289272,-0.7669507,0.600619,-3.2475877,-0.048045523,0
1.1100000000000008,15.53999764320712,0.35382594462298206,-3.662813452084547,-0.8847936387629337,11.115469,-1.7896944,0.043967098,-1.4469062,8.24127,-8.797943,1.6928095,0.2426651,-0.14041047,0.47002044,0.8369455,-8.771527,7.4227185,-0.7855375,0.5620412,-3.3123558,-0.089104995,0
1.1200000000000008,15.21562776774533,-0.5690427415374218,-3.170271492042156,-0.7678823480616455,11.441621,-2.4884858,0.22986636,-1.2887155,8.153555,-8.723052,1.6848686,0.25131878,-0.12600651,0.46810624,0.8377566,-8.770794,7.5551643,-0.802369,0.5294814,-3.367021,-0.12814966,0
1.1300000000000008,15.21562776774533,-0.5690427415374218,-3.170271492042156,-0.7678823480616455,11.441621,-2.4884858,0.22986636,-1.2887155,8.06587,-8.646857,1.6767595,0.26000935,-0.11173468,0.46558705,0.838533,-8.765358,7.6836615,-0.81917715,0.35810143,-3.3363316,-0.15954153,0
1.1400000000000008,15.21562776774533,-0.5690427415374218,-3.170271492042156,-0.7678823480616455,11.441621,-2.4884858,0.22986636,-1.2887155,7.9782634,-8.569384,1.668491,0.2686007,-0.09782568,0.462295,0.839384,-8.755341,7.81074,-0.8342095,0.21345206,-3.3104239,-0.189393,0
1.1500000000000008,15.21562776774533,-0.5690427415374218,-3.170271492042156,-0.7678823480616455,11.441621,-2.4884858,0.22986636,-1.2887155,7.890779,-8.490648,1.6600814,0.2771196,-0.08423552,0.45833457,0.8402601,-8.7409115,7.9361706,-0.8474065,0.091364145,-3.288554,-0.21777964,0
1.1600000000000008,15.05967979011394,-1.7429858418080688,-2.402191016989836,-0.46311433996040996,13.015337,-3.1354756,0.29979572,-1.0234051,7.80346,-8.410667,1.6515492,0.28558585,-0.0709259,0.45379382,0.8411183,-8.722224,8.059743,-0.8587297,-0.011680877,-3.270093,-0.24477333,0
1.1700000000000008,15.05967979011394,-1.7429858418080688,-2.402191016989836,-0.46311433996040996,13.015337,-3.1354756,0.29979572,-1.0234051,7.716347,-8.329467,1.6429088,0.29381254,-0.058240857,0.44844466,0.84212714,-8.699683,8.180012,-0.869053,-0.28167737,-3.1346993,-0.2554874,0
1.1800000000000008,15.05967979011394,-1.7429858418080688,-2.402191016989836,-0.46311433996040996,13.015337,-3.1354756,0.29979572,-1.0234051,7.629479,-8.247076,1.6341751,0.30165768,-0.04645366,0.4421174,0.8434308,-8.673446,8.2980385,-0.87738127,-0.50956863,-3.020424,-0.2656757,0
1.1900000000000008,15.05967979011394,-1.7429858418080688,-2.402191016989836,-0.46311433996040996,13.015337,-3.1354756,0.29979572,-1.0234051,7.5428896,-8.163516,1.6253685,0.30919176,-0.035436686,0.43495747,0.8449588,-8.643882,8.413633,-0.8836033,-0.70192116,-2.9239733,-0.27536407,0
1.2000000000000008,15.005442972447208,-2.887841414472215,-1.3363513150916113,0.012293412552781713,14.281758,-3.69237,0.80120474,0.13868989,7.4566116,-8.078813,1.6165106,0.31647053,-0.025080362,0.4270861,0.8466484,-8.611313,8.526629,-0.8876343,-0.8642771,-2.8425674,-0.284577,0
1.2100000000000009,15.005442972447208,-2.887841414472215,-1.3363513150916113,0.012293412552781713,14.281758,-3.69237,0.80120474,0.13868989,7.370672,-7.992995,1.6076219,0.32329774,-0.015773311,0.41835484,0.8486505,-8.576184,8.63648,-0.8897475,-1.1797824,-2.6076264,-0.27000952,0
1.2200000000000009,15.005442972447208,-2.887841414472215,-1.3363513150916113,0.012293412552781713,14.281758,-3.69237,0.80120474,0.13868989,7.285095,-7.9060926,1.5987239,0.32952198,-0.007819156,0.40865546,0.85108966,-8.538881,8.74347,-0.88947845,-1.4460965,-2.409338,-0.25615686,0
1.2300000000000009,15.005442972447208,-2.887841414472215,-1.3363513150916113,0.012293412552781713,14.281758,-3.69237,0.80120474,0.13868989,7.1999,-7.8181353,1.589841,0.33524016,-0.001015427,0.39813295,0.8538746,-8.499915,8.847494,-0.8867049,-1.6708884,-2.2419832,-0.24298392,0
1.2400000000000009,15.005442972447208,-2.887841414472215,-1.3363513150916113,0.012293412552781713,15.215628,-4.5704184,1.3790797,0.8808515,7.115101,-7.729153,1.5809988,0.34052935,0.004810401,0.38690707,0.85692376,-8.4597225,8.948459,-0.8813363,-1.860632,-2.1007357,-0.2304574,0
1.2500000000000009,15.005442972447208,-2.887841414472215,-1.3363513150916113,0.012293412552781713,15.215628,-4.5704184,1.3790797,0.8808515,7.0307083,-7.639177,1.5722234,0.34545112,0.00980517,0.37507743,0.8601645,-8.41868,9.046274,-0.87331045,-2.0207913,-1.9815222,-0.21854554,0
1.260000000000001,15.005442972447208,-2.887841414472215,-1.3363513150916113,0.012293412552781713,15.215628,-4.5704184,1.3790797,0.8808515,6.9467287,-7.548239,1.5635418,0.35005453,0.014093759,0.3627273,0.86353385,-8.377114,9.140855,-0.86259186,-2.155979,-1.8809048,-0.2072182,0
1.270000000000001,15.005442972447208,-2.887841414472215,-1.3363513150916113,0.012293412552781713,15.215628,-4.5704184,1.3790797,0.8808515,6.863167,-7.456372,1.554981,0.35437888,0.017782295,0.34992683,0.8669771,-8.335305,9.23212,-0.8491684,-2.2700884,-1.7959826,-0.1964467,0
1.280000000000001,15.065203780730124,-3.6653526266036582,-0.4433818977161255,0.533070582459146,16.445091,-4.75102,0.5149868,0.4054673,6.7800226,-7.3636084,1.5465678,0.35845557,0.020960925,0.33673516,0.8704472,-8.293499,9.31999,-0.833049,-2.3664062,-1.7243067,-0.18620375,0
1.290000000000001,15.065203780730124,-3.6653526266036582,-0.4433818977161255,0.533070582459146,16.445091,-4.75102,0.5149868,0.4054673,6.6972966,-7.2699823,1.5383315,0.3621415,0.02330426,0.32305834,0.87403804,-8.251777,9.404725,-0.81378806,-2.568917,-1.5245817,-0.15090875,0
1.300000000000001,15.065203780730124,-3.6653526266036582,-0.4433818977161255,0.533070582459146,16.445091,-4.75102,0.5149868,0.4054673,6.614985,-7.175526,1.5303013,0.36532038,0.024557913,0.30882373,0.87781805,-8.210696,9.4859295,-0.79183555,-2.7398589,-1.3560121,-0.11734569,0
1.310000000000001,15.065203780730124,-3.6653526266036582,-0.4433818977161255,0.533070582459146,16.445091,-4.75102,0.5149868,0.4054673,6.533079,-7.080276,1.5225041,0.36804962,0.02488867,0.2941059,0.8817145,-8.170655,9.5635605,-0.76719767,-2.8841527,-1.2137367,-0.08542958,0
1.320000000000001,15.320436621824015,-4.1511740638014105,0.281112837654394,1.0543493806296398,17.111671,-5.1086707,0.40900216,0.86086714,6.451567,-6.9842677,1.5149665,0.37037525,0.024437962,0.2789678,0.885664,-8.131996,9.637567,-0.7399072,-3.005952,-1.093653,-0.055079605,0
1.330000000000001,15.320436621824015,-4.1511740638014105,0.281112837654394,1.0543493806296398,17.111671,-5.1086707,0.40900216,0.86086714,6.3704367,-6.8875318,1.5077256,0.37220213,0.023014177,0.2633964,0.88969487,-8.094412,9.709092,-0.7078492,-3.1845093,-0.8793652,-0.0006396035,0
1.340000000000001,15.320436621824015,-4.1511740638014105,0.281112837654394,1.0543493806296398,17.111671,-5.1086707,0.40900216,0.86086714,6.2896714,-6.790099,1.5008185,0.3734501,0.020471616,0.24738322,0.8938211,-8.058968,9.77686,-0.67320603,-3.335236,-0.6985016,0.05112901,0
1.350000000000001,15.320436621824015,-4.1511740638014105,0.281112837654394,1.0543493806296398,17.111671,-5.1086707,0.40900216,0.86086714,6.209248,-6.6920075,1.4942702,0.37417212,0.016983239,0.2309841,0.897971,-8.026062,9.840847,-0.6360569,-3.4624684,-0.54584646,0.10035731,0
1.360000000000001,15.23195219747215,-4.206632513456988,0.5441192626171227,1.4258992041830914,16.099342,-4.6777215,0.41652498,0.95478785,6.12914,-6.593295,1.4881055,0.37441105,0.012695739,0.21424723,0.902082,-7.9960356,9.901016,-0.59650767,-3.5698671,-0.4169984,0.14716998,1
1.370000000000001,15.23195219747215,-4.206632513456988,0.5441192626171227,1.4258992041830914,16.099342,-4.6777215,0.41652498,0.95478785,6.049323,-6.4939857,1.4823833,0.37420326,0.0076031266,0.19704406,0.9061381,-7.9678245,9.960178,-0.54756975,-3.742641,-0.28712395,0.1868,1
1.380000000000001,15.23195219747215,-4.206632513456988,0.5441192626171227,1.4258992041830914,16.099342,-4.6777215,0.41652498,0.95478785,5.9697704,-6.3941054,1.4771619,0.3735765,0.0017073535,0.17927347,0.9101083,-7.943301,10.01517,-0.49637,-3.8884752,-0.1775034,0.2244854,1
1.390000000000001,15.23195219747215,-4.206632513456988,0.5441192626171227,1.4258992041830914,16.099342,-4.6777215,0.41652498,0.95478785,5.8904433,-6.2936964,1.4724631,0.3725512,-0.004865497,0.16101252,0.913923,-7.9227843,10.065873,-0.44306296,-4.011569,-0.08497662,0.26032153,1
1.400000000000001,15.186705083226265,-3.908118124065214,0.5837897487998583,1.637578339783972,16.708405,-4.5432506,-0.0718998,1.0049433,5.8113003,-6.1928024,1.4683071,0.37114438,-0.012008046,0.14232859,0.91752315,-7.9065423,10.112166,-0.38783756,-4.1154685,-0.0068765506,0.29439917,0
1.410000000000001,15.186705083226265,-3.908118124065214,0.5837897487998583,1.637578339783972,16.708405,-4.5432506,-0.0718998,1.0049433,5.7322936,-6.0914803,1.4646683,0.36928958,-0.019564526,0.12359052,0.9208509,-7.8954544,10.151586,-0.33970553,-4.0831537,0.08506823,0.36030936,0
1.420000000000001,15.186705083226265,-3.908118124065214,0.5837897487998583,1.637578339783972,16.708405,-4.5432506,-0.0718998,1.0049433,5.6533766,-5.989785,1.4615177,0.36693397,-0.027407536,0.10509981,0.92388356,-7.888698,10.186764,-0.29023385,-4.0558815,0.16268426,0.42298532,0
1.430000000000001,15.186705083226265,-3.908118124065214,0.5837897487998583,1.637578339783972,16.708405,-4.5432506,-0.0718998,1.0049433,5.574505,-5.8877597,1.4588674,0.36410892,-0.035490744,0.08682058,0.92662066,-7.8863263,10.217739,-0.23968817,-4.0328646,0.22820505,0.48258573,0
1.440000000000001,15.186705083226265,-3.908118124065214,0.5837897487998583,1.637578339783972,16.80991,-3.898038,-0.27707592,1.1728574,5.495635,-5.785445,1.4567268,0.3608413,-0.043774687,0.06872356,0.9290602,-7.888375,10.2445345,-0.18832764,-4.013438,0.28351602,0.5392615,0
1.450000000000001,15.186705083226265,-3.908118124065214,0.5837897487998583,1.637578339783972,16.80991,-3.898038,-0.27707592,1.1728574,5.4167223,-5.6828833,1.4551028,0.35715455,-0.052225664,0.05078513,0.93119943,-7.8948607,10.267164,-0.13640597,-3.9970412,0.330209,0.5931562,0
1.460000000000001,15.186705083226265,-3.908118124065214,0.5837897487998583,1.637578339783972,16.80991,-3.898038,-0.27707592,1.1728574,5.3377223,-5.5801163,1.4539999,0.35306922,-0.06081484,0.032986496,0.93303484,-7.9057875,10.285634,-0.08417239,-3.9832013,0.36962703,0.6444063,0
1.470000000000001,15.186705083226265,-3.908118124065214,0.5837897487998583,1.637578339783972,16.80991,-3.898038,-0.27707592,1.1728574,5.258591,-5.477185,1.4534197,0.34860358,-0.06951745,0.015312927,0.9345624,-7.921142,10.299944,-0.031872295,-3.9715188,0.40290418,0.6931416,0
1.480000000000001,14.90222011819099,-3.1758488112218277,0.3074127177935964,1.6262569355754652,16.919746,-3.5947652,-0.57909125,1.1230999,5.1792846,-5.374131,1.4533617,0.3437741,-0.07831217,-0.0022468246,0.9357777,-7.9409003,10.310089,0.02025233,-3.961657,0.43099797,0.7394854,0
1.490000000000001,14.90222011819099,-3.1758488112218277,0.3074127177935964,1.6262569355754652,16.919746,-3.5947652,-0.57909125,1.1230999,5.0997605,-5.2709985,1.4538093,0.33862135,-0.08697717,-0.01946467,0.93669105,-7.9645534,10.315959,0.06915904,-3.839113,0.4116747,0.78299946,0
1.500000000000001,14.90222011819099,-3.1758488112218277,0.3074127177935964,1.6262569355754652,16.919746,-3.5947652,-0.57909125,1.1230999,5.0199795,-5.167826,1.4547429,0.3331855,-0.09533833,-0.036158733,0.9373308,-7.992306,10.317806,0.11745384,-3.7356799,0.39536694,0.8243783,0
1.5100000000000011,14.90222011819099,-3.1758488112218277,0.3074127177935964,1.6262569355754652,16.919746,-3.5947652,-0.57909125,1.1230999,4.939901,-5.064656,1.4561558,0.32747975,-0.103442594,-0.052399315,0.937715,-8.023971,10.315701,0.16494986,-3.648377,0.38160363,0.8637267,0
1.5200000000000011,14.335037094301489,-2.152217794534938,-0.07191076048983687,1.4287995772290014,16.475365,-2.816909,-0.94927377,1.05713,4.859487,-4.961526,1.4580387,0.32151592,-0.111329235,-0.06824569,0.93785626,-8.05937,10.309702,0.21147409,-3.5746891,0.36998773,0.9011442,0
1.5300000000000011,14.335037094301489,-2.152217794534938,-0.07191076048983687,1.4287995772290014,16.475365,-2.816909,-0.94927377,1.05713,4.778709,-4.8584733,1.4603541,0.3153646,-0.11875671,-0.08341498,0.93780726,-8.096839,10.300249,0.25141048,-3.3528206,0.30114737,0.92703635,0
1.5400000000000011,14.335037094301489,-2.152217794534938,-0.07191076048983687,1.4287995772290014,16.475365,-2.816909,-0.94927377,1.05713,4.69754,-4.7555337,1.4630629,0.3090932,-0.12553948,-0.09768678,0.93763375,-8.137433,10.287255,0.29017115,-3.1655562,0.24303131,0.95165795,0
1.5500000000000012,14.335037094301489,-2.152217794534938,-0.07191076048983687,1.4287995772290014,16.475365,-2.816909,-0.94927377,1.05713,4.615951,-4.6527405,1.4661531,0.3027061,-0.13178238,-0.11119174,0.9373566,-8.180855,10.270868,0.32769492,-3.007499,0.19396827,0.97507143,0
1.5600000000000012,13.642846578064566,-1.1086331355787011,-0.6995768705090422,1.1060710701424539,14.739132,-2.2629101,-1.6082546,1.1603252,4.533914,-4.5501275,1.4696124,0.29620653,-0.13757312,-0.12404067,0.93698865,-8.226848,10.251218,0.36393216,-2.8740942,0.15254733,0.99733603,0
1.5700000000000012,13.642846578064566,-1.1086331355787011,-0.6995768705090422,1.1060710701424539,14.739132,-2.2629101,-1.6082546,1.1603252,4.451417,-4.447722,1.4733951,0.28966182,-0.14262255,-0.13601588,0.93661785,-8.272826,10.229524,0.39242947,-2.5986853,0.019828714,1.0026716,0
1.5800000000000012,13.642846578064566,-1.1086331355787011,-0.6995768705090422,1.1060710701424539,14.739132,-2.2629101,-1.6082546,1.1603252,4.368451,-4.345547,1.4774568,0.28313392,-0.14670873,-0.1469514,0.93633085,-8.320665,10.205003,0.41971675,-2.3662388,-0.09221838,1.0077455,0
1.5900000000000012,13.642846578064566,-1.1086331355787011,-0.6995768705090422,1.1060710701424539,14.739132,-2.2629101,-1.6082546,1.1603252,4.284999,-4.243631,1.4817855,0.27661687,-0.14998864,-0.15700385,0.93612754,-8.37002,10.177817,0.4458627,-2.1700532,-0.18681365,1.0125703,0
1.6000000000000012,13.250584554574914,-0.17260667107484085,-1.1815147318906545,0.7018232308605176,14.316404,-1.5237342,-2.0305624,0.58620536,4.2010465,-4.1419997,1.4863702,0.2701048,-0.15259339,-0.16630578,0.9360019,-8.4206,10.1481085,0.47093368,-2.0044718,-0.2666756,1.0171584,0
1.6100000000000012,13.250584554574914,-0.17260667107484085,-1.1815147318906545,0.7018232308605176,14.316404,-1.5237342,-2.0305624,0.58620536,4.1165905,-4.0406733,1.491183,0.2636645,-0.15434375,-0.17467833,0.9360262,-8.470659,10.116932,0.4914901,-1.7187032,-0.4091376,1.0016848,0
1.6200000000000012,13.250584554574914,-0.17260667107484085,-1.1815147318906545,0.7018232308605176,14.316404,-1.5237342,-2.0305624,0.58620536,4.031631,-3.9396687,1.4961971,0.2573559,-0.15510467,-0.18198699,0.93626374,-8.521326,10.0836115,0.5112034,-1.4775169,-0.5294179,0.9869705,0
1.6300000000000012,13.250584554574914,-0.17260667107484085,-1.1815147318906545,0.7018232308605176,14.316404,-1.5237342,-2.0305624,0.58620536,3.946163,-3.8390076,1.5014046,0.25116366,-0.15503535,-0.1883949,0.93668926,-8.57229,10.048323,0.5302134,-1.2739574,-0.6309695,0.97297823,0
1.6400000000000012,13.250584554574914,-0.17260667107484085,-1.1815147318906545,0.7018232308605176,14.377606,-1.0902864,-2.1849332,0.30615678,3.860185,-3.7387085,1.5067993,0.2450738,-0.15426871,-0.19403975,0.9372764,-8.623293,10.011217,0.5486442,-1.1021543,-0.7167083,0.95967263,0
1.6500000000000012,13.250584554574914,-0.17260667107484085,-1.1815147318906545,0.7018232308605176,14.377606,-1.0902864,-2.1849332,0.30615678,3.7736976,-3.638789,1.5123758,0.23907389,-0.15291575,-0.1990378,0.93799937,-8.674116,9.972426,0.56660384,-0.957153,-0.7890963,0.94701993,0
1.6600000000000013,13.250584554574914,-0.17260667107484085,-1.1815147318906545,0.7018232308605176,14.377606,-1.0902864,-2.1849332,0.30615678,3.6867037,-3.5392652,1.5181301,0.23315302,-0.15106924,-0.20348722,0.93883395,-8.724577,9.932066,0.5841858,-0.83477247,-0.85021174,0.934988,0
1.6700000000000013,13.250584554574914,-0.17260667107484085,-1.1815147318906545,0.7018232308605176,14.377606,-1.0902864,-2.1849332,0.30615678,3.5992076,-3.4401526,1.5240586,0.22730173,-0.14880683,-0.20747092,0.93975776,-8.774521,9.890235,0.60146976,-0.7314835,-0.90180993,0.9235466,0
1.6800000000000013,13.128942572911443,0.4751124049989113,-1.4868013595347445,0.26159646136076664,14.064606,-0.9529713,-2.1324935,0.13528623,3.5112157,-3.3414652,1.5301588,0.22151183,-0.14619352,-0.21105905,0.940751,-8.823816,9.847024,0.6185232,-0.64430726,-0.94537276,0.91266656,0
1.6900000000000013,13.128942572911443,0.4751124049989113,-1.4868013595347445,0.26159646136076664,14.064606,-0.9529713,-2.1324935,0.13528623,3.4227366,-3.2432144,1.5364232,0.21583942,-0.1431005,-0.21410161,0.94185686,-8.871897,9.802927,0.6343553,-0.46970552,-1.0296944,0.8807184,0
1.7000000000000013,13.128942572911443,0.4751124049989113,-1.4868013595347445,0.26159646136076664,14.064606,-0.9529713,-2.1324935,0.13528623,3.333781,-3.1454108,1.5428456,0.21033457,-0.13942792,-0.21648282,0.94310796,-8.919044,9.757676,0.6501247,-0.32234246,-1.1008891,0.8503379,0
1.7100000000000013,13.128942572911443,0.4751124049989113,-1.4868013595347445,0.26159646136076664,14.064606,-0.9529713,-2.1324935,0.13528623,3.2443595,-3.0480647,1.5494257,0.20498239,-0.13526458,-0.21830335,0.94447213,-8.965093,9.711402,0.6659322,-0.19796836,-1.1609993,0.82144815,0
1.7200000000000013,13.013241987326436,0.9748880989278087,-1.4947887876523591,-0.17043486105567798,13.9018755,-0.4485839,-2.2418838,-0.15071999,3.1544833,-2.951186,1.5561646,0.19976977,-0.130685,-0.21964811,0.94592094,-9.009904,9.66422,0.68186057,-0.09299638,-1.21175,0.79397607,0
1.7300000000000013,13.013241987326436,0.9748880989278087,-1.4947887876523591,-0.17043486105567798,13.9018755,-0.4485839,-2.2418838,-0.15071999,3.0641675,-2.8547807,1.5630586,0.19476093,-0.12569745,-0.22040705,0.94746363,-9.052974,9.616665,0.69697595,0.07352369,-1.2558057,0.7466521,0
1.7400000000000013,13.013241987326436,0.9748880989278087,-1.4947887876523591,-0.17043486105567798,13.9018755,-0.4485839,-2.2418838,-0.15071999,2.9734282,-2.7588546,1.5701052,0.19001201,-0.120310985,-0.22049703,0.94910485,-9.094571,9.568473,0.71237206,0.2140711,-1.2930127,0.7016504,0
1.7500000000000013,13.013241987326436,0.9748880989278087,-1.4947887876523591,-0.17043486105567798,13.9018755,-0.4485839,-2.2418838,-0.15071999,2.882281,-2.663413,1.5773073,0.18550096,-0.11458409,-0.22002022,0.950815,-9.134585,9.519796,0.72813034,0.33269724,-1.3244345,0.65885687,0
1.7600000000000013,12.722404814945598,1.1946567544747588,-1.5467043219127818,-0.5592130430793706,13.723089,-0.13543232,-2.2538595,-0.34713468,2.7907422,-2.56846,1.5846692,0.18120846,-0.10856596,-0.21906273,0.9525685,-9.17292,9.470768,0.74431485,0.43282193,-1.3509697,0.61816335,0
1.7700000000000014,12.722404814945598,1.1946567544747588,-1.5467043219127818,-0.5592130430793706,13.723089,-0.13543232,-2.2538595,-0.34713468,2.6988328,-2.473993,1.5921825,0.17716809,-0.10225194,-0.21762216,0.95435566,-9.208676,9.422612,0.758412,0.5515899,-1.3814671,0.56038916,0
1.7800000000000014,12.722404814945598,1.1946567544747588,-1.5467043219127818,-0.5592130430793706,13.723089,-0.13543232,-2.2538595,-0.34713468,2.6065748,-2.380008,1.5998393,0.17341082,-0.0956394,-0.2157002,0.95616597,-9.242627,9.374358,0.7730264,0.65183485,-1.4072224,0.50544995,0
1.7900000000000014,12.722404814945598,1.1946567544747588,-1.5467043219127818,-0.5592130430793706,13.723089,-0.13543232,-2.2538595,-0.34713468,2.5139868,-2.2865055,1.607645,0.16991676,-0.08876941,-0.2133692,0.95797706,-9.274697,9.326123,0.7881987,0.7364462,-1.4289718,0.45320663,0
1.8000000000000014,12.02993053792807,1.119966255588329,-1.5753701581444908,-0.8390098673958202,13.98323,-0.13043387,-2.6742635,-0.19165741,2.4210875,-2.193485,1.6156052,0.16666819,-0.081676856,-0.21069017,0.95976996,-9.304822,9.278013,0.8039562,0.8078624,-1.4473372,0.40352687,0
1.8100000000000014,12.02993053792807,1.119966255588329,-1.5753701581444908,-0.8390098673958202,13.98323,-0.13043387,-2.6742635,-0.19165741,2.3279047,-2.1009314,1.623695,0.16367753,-0.07437811,-0.20774782,0.9615178,-9.331414,9.232723,0.8140841,0.85648173,-1.4673251,0.34255522,0
1.8200000000000014,12.02993053792807,1.119966255588329,-1.5753701581444908,-0.8390098673958202,13.98323,-0.13043387,-2.6742635,-0.19165741,2.2344658,-2.0088294,1.6318887,0.16095802,-0.066886984,-0.20461203,0.9631981,-9.356069,9.187702,0.8247811,0.8975197,-1.4841994,0.28457552,0
1.8300000000000014,12.02993053792807,1.119966255588329,-1.5753701581444908,-0.8390098673958202,13.98323,-0.13043387,-2.6742635,-0.19165741,2.1407902,-1.917176,1.6401924,0.15849517,-0.059227675,-0.20131007,0.9648024,-9.378746,9.143005,0.83604026,0.9321588,-1.4984443,0.22944085,0
1.8400000000000014,12.02993053792807,1.119966255588329,-1.5753701581444908,-0.8390098673958202,12.924124,-0.07237513,-2.8208683,-0.36614355,2.046898,-1.8259679,1.6486114,0.15627545,-0.05142107,-0.19786479,0.9663237,-9.399411,9.0986805,0.84784853,0.9613975,-1.5104693,0.17701168,0
1.8500000000000014,12.02993053792807,1.119966255588329,-1.5753701581444908,-0.8390098673958202,12.924124,-0.07237513,-2.8208683,-0.36614355,1.9528091,-1.7352009,1.6571513,0.15428612,-0.043485235,-0.19429535,0.96775633,-9.4180355,9.054774,0.8601881,0.98607796,-1.5206198,0.12715523,0
1.8600000000000014,12.02993053792807,1.119966255588329,-1.5753701581444908,-0.8390098673958202,12.924124,-0.07237513,-2.8208683,-0.36614355,1.8585443,-1.6448706,1.6658171,0.1525152,-0.035435867,-0.19061781,0.96909565,-9.434594,9.011326,0.87303674,1.0069113,-1.5291873,0.07974523,0
1.8700000000000014,12.02993053792807,1.119966255588329,-1.5753701581444908,-0.8390098673958202,12.924124,-0.07237513,-2.8208683,-0.36614355,1.7641245,-1.5549726,1.6746138,0.15095145,-0.02728664,-0.18684562,0.9703381,-9.449065,8.968371,0.8863686,1.0244974,-1.5364187,0.03466165,0
1.8800000000000014,11.327361506432712,0.8481420606536514,-1.5504672370184844,-0.9887632692534456,12.347378,-0.488087,-2.9559665,-0.54620326,1.6695704,-1.4655015,1.6835461,0.14958411,-0.019049516,-0.18299003,0.9714806,-9.461429,8.925943,0.90015465,1.0393428,-1.5425218,-0.008209674,0
1.8900000000000015,11.327361506432712,0.8481420606536514,-1.5504672370184844,-0.9887632692534456,12.347378,-0.488087,-2.9559665,-0.54620326,1.5749063,-1.3764396,1.6925856,0.1484212,-0.010757547,-0.17916511,0.9724986,-9.471071,8.886511,0.9078025,1.0094767,-1.5437925,-0.056325734,0
1.9000000000000015,11.327361506432712,0.8481420606536514,-1.5504672370184844,-0.9887632692534456,12.347378,-0.488087,-2.9559665,-0.54620326,1.4801558,-1.2877696,1.7017033,0.14747128,-0.0024373312,-0.17546193,0.97337437,-9.478718,8.847588,0.9158022,0.98427063,-1.5448619,-0.10208072,0
1.9100000000000015,11.327361506432712,0.8481420606536514,-1.5504672370184844,-0.9887632692534456,12.347378,-0.488087,-2.9559665,-0.54620326,1.3853388,-1.1994861,1.7109026,0.14672494,0.0059099277,-0.17185812,0.97411495,-9.48437,8.809161,0.9241071,0.96299744,-1.545762,-0.14559048,0
1.9200000000000015,10.572330403383367,0.4273468451368229,-1.4409801322031293,-1.0137389385293378,12.00209,-0.76684076,-3.1021495,-0.5480424,1.2904752,-1.1115845,1.7201864,0.14617287,0.014282833,-0.16833463,0.97472626,-9.488033,8.771218,0.93267244,0.9450438,-1.5465196,-0.18696523,0
1.9300000000000015,10.572330403383367,0.4273468451368229,-1.4409801322031293,-1.0137389385293378,12.00209,-0.76684076,-3.1021495,-0.5480424,1.1955857,-1.0240475,1.7295213,0.1458192,0.022613045,-0.16503313,0.97518605,-9.489602,8.73624,0.93432844,0.8642708,-1.5300739,-0.22753526,0
1.9400000000000015,10.572330403383367,0.4273468451368229,-1.4409801322031293,-1.0137389385293378,12.00209,-0.76684076,-3.1021495,-0.5480424,1.1006895,-0.93685836,1.7388735,0.1456678,0.030846186,-0.16206548,0.9754807,-9.489352,8.701649,0.9361308,0.7960967,-1.5161899,-0.2661145,0
1.9500000000000015,10.572330403383367,0.4273468451368229,-1.4409801322031293,-1.0137389385293378,12.00209,-0.76684076,-3.1021495,-0.5480424,1.0058047,-0.85001343,1.7482443,0.14570892,0.038999528,-0.15937644,0.97562563,-9.487317,8.667387,0.9380263,0.73855627,-1.5044688,-0.30280066,0
1.9600000000000015,10.04983966612404,0.0029055222603987887,-1.2247950278468276,-0.9451845676893703,13.6905155,-0.8619271,-3.4487996,-1.0040909,0.9109491,-0.76350963,1.7576342,0.14593285,0.047087383,-0.15691923,0.9756336,-9.483529,8.633406,0.93996686,0.6899913,-1.494574,-0.3376866,0
1.9700000000000015,10.04983966612404,0.0029055222603987887,-1.2247950278468276,-0.9451845676893703,13.6905155,-0.8619271,-3.4487996,-1.0040909,0.81613874,-0.6773361,1.7670188,0.14634387,0.055011082,-0.1548078,0.9754948,-9.4782915,8.601327,0.93696296,0.5828217,-1.45249,-0.3674967,0
1.9800000000000015,10.04983966612404,0.0029055222603987887,-1.2247950278468276,-0.9451845676893703,13.6905155,-0.8619271,-3.4487996,-1.0040909,0.7213887,-0.5914826,1.7763734,0.1469442,0.06269276,-0.15313093,0.9752058,-9.471478,8.5694,0.93391025,0.49236643,-1.4169685,-0.395844,0
1.9900000000000015,10.04983966612404,0.0029055222603987887,-1.2247950278468276,-0.9451845676893703,13.6905155,-0.8619271,-3.4487996,-1.0040909,0.6267144,-0.50594777,1.7856969,0.14772148,0.07017136,-0.15181792,0.9747841,-9.463155,8.537551,0.9307637,0.41601872,-1.3869869,-0.4228003,0
2.0000000000000013,,,,,11.28495,-0.9039212,-2.7892604,-0.5343503,0.53213066,-0.42073143,1.7949882,0.148664,0.07747963,-0.15080899,0.9742437,-9.453376,8.505719,0.927484,0.35157818,-1.3616813,-0.44843385,0
2.010000000000001,,,,,11.28495,-0.9039212,-2.7892604,-0.5343503,0.43764934,-0.33582655,1.8042251,0.14978053,0.08445793,-0.15014772,0.97359467,-9.442689,8.475247,0.91988474,0.2499221,-1.2736249,-0.46641257,0
2.020000000000001,,,,,11.28495,-0.9039212,-2.7892604,-0.5343503,0.34328118,-0.2512268,1.8133852,0.1510755,0.09098099,-0.14986649,0.9728499,-9.430758,8.444676,0.9120969,0.16411762,-1.1993033,-0.48350906,0
2.0300000000000007,,,,,11.28495,-0.9039212,-2.7892604,-0.5343503,0.2490381,-0.16693355,1.8224664,0.1525322,0.097120486,-0.14990364,0.97202295,-9.417685,8.413948,0.90409744,0.09169284,-1.1365745,-0.49976662,0
2.0400000000000005,,,,,11.28495,-0.9039212,-2.7892604,-0.5343503,0.15493113,-0.082948565,1.8314664,0.1541356,0.10293683,-0.15020709,0.97112423,-9.403551,8.383015,0.8958673,0.030561283,-1.0836306,-0.5152264,0
2.0500000000000003,,,,,10.890165,-1.0115448,-2.2441392,-0.4839345,0.060970493,0.00072588585,1.8403829,0.1558721,0.108480945,-0.15073292,0.9701616,-9.388429,8.351834,0.8873904,-0.021037927,-1.0389452,-0.5299276,1
2.06,,,,,10.890165,-1.0115448,-2.2441392,-0.4839345,-0.032823592,0.08406615,1.849273,0.15763356,0.11430631,-0.15181506,0.9690388,-9.370217,8.3161545,0.8905563,-0.17557006,-1.2268416,-0.52767074,1
2.07,,,,,10.890165,-1.0115448,-2.2441392,-0.4839345,-0.12642989,0.16704725,1.8581928,0.15932709,0.120850354,-0.15371653,0.9676671,-9.350853,8.279967,0.8933271,-0.30599245,-1.385444,-0.52552456,1
2.0799999999999996,,,,,10.890165,-1.0115448,-2.2441392,-0.4839345,-0.2198363,0.24966316,1.8671379,0.16096166,0.1279963,-0.1563072,0.96606135,-9.33023,8.2430935,0.8955982,-0.41606677,-1.5193198,-0.52348375,1
2.0899999999999994,,,,,10.367971,-1.1468797,-2.325755,-0.10172377,-0.31302983,0.33190623,1.8761027,0.162544,0.13564534,-0.1594766,0.9642329,-9.308261,8.205382,0.897271,-0.5089676,-1.6323239,-0.5215431,1
2.099999999999999,,,,,10.367971,-1.1468797,-2.325755,-0.10172377,-0.40600222,0.41377673,1.8850571,0.16403595,0.14372885,-0.16319503,0.9621849,-9.286,8.168563,0.8935001,-0.6084631,-1.7404382,-0.50094247,1
2.109999999999999,,,,,10.367971,-1.1468797,-2.325755,-0.10172377,-0.49874505,0.49527395,1.8939701,0.16540083,0.15218635,-0.1674349,0.95991963,-9.262343,8.130709,0.8889771,-0.6924353,-1.8316995,-0.48135272,1
2.1199999999999988,,,,,10.367971,-1.1468797,-2.325755,-0.10172377,-0.5912442,0.57638705,1.9028338,0.16664568,0.1609515,-0.17211251,0.95744425,-9.237249,8.0917225,0.88361084,-0.7633067,-1.9087342,-0.4627242,1
2.1299999999999986,,,,,10.40358,-1.2468156,-1.8377382,0.31269112,-0.68348503,0.65710425,1.9116391,0.1677765,0.16996813,-0.17715679,0.9547647,-9.210689,8.051524,0.8773138,-0.8231216,-1.9737599,-0.4450098,1
2.1399999999999983,,,,,10.40358,-1.2468156,-1.8377382,0.31269112,-0.77545244,0.73741245,1.920378,0.16879174,0.17898671,-0.18252179,0.95192283,-9.182554,8.009909,0.87031645,-0.8891429,-1.9525498,-0.40782917,1
2.149999999999998,,,,,10.40358,-1.2468156,-1.8377382,0.31269112,-0.86713123,0.8172979,1.9290417,0.16968636,0.18780674,-0.1881701,0.9489601,-9.152985,7.9669676,0.8622429,-0.9448724,-1.9346519,-0.37247303,1
2.159999999999998,,,,,10.40358,-1.2468156,-1.8377382,0.31269112,-0.95850736,0.8967471,1.9376192,0.17046066,0.19645031,-0.19405766,0.94588065,-9.122039,7.9226685,0.85304135,-0.9919143,-1.9195487,-0.33885184,1
2.1699999999999977,,,,,10.17945,-1.187378,-0.86445266,0.38519874,-1.0495673,0.9757465,1.9460987,0.17111541,0.20493597,-0.20014705,0.9426877,-9.08977,7.876986,0.8426621,-1.0316235,-1.9068031,-0.3068804,1
2.1799999999999975,,,,,10.17945,-1.187378,-0.86445266,0.38519874,-1.1403018,1.0542871,1.954459,0.17171755,0.2129154,-0.20631972,0.93947345,-9.056967,7.8309245,0.829202,-1.0558422,-1.7442677,-0.27291986,1
2.1899999999999973,,,,,10.17945,-1.187378,-0.86445266,0.38519874,-1.2307028,1.1323603,1.9626786,0.17232372,0.22011654,-0.21248211,0.93632394,-9.023071,7.783521,0.8145636,-1.0762968,-1.60708,-0.24062577,1
2.199999999999997,,,,,10.17945,-1.187378,-0.86445266,0.38519874,-1.32076,1.2099531,1.970746,0.17292069,0.22665615,-0.21863833,0.9332313,-8.988234,7.7348075,0.79877466,-1.0935717,-1.4912868,-0.20991638,1
2.209999999999997,,,,,10.237589,-0.54612,0.4538611,0.6061897,-1.4104645,1.287052,1.97865,0.17349727,0.23263252,-0.2247916,0.9301868,-8.952578,7.6848106,0.7818587,-1.1081606,-1.3935513,-0.1807139,1
2.2199999999999966,,,,,10.237589,-0.54612,0.4538611,0.6061897,-1.499808,1.3636434,1.9863816,0.17407866,0.23767734,-0.2306214,0.92737144,-8.916019,7.6332774,0.7643088,-1.0204486,-1.1054845,-0.14210032,1
2.2299999999999964,,,,,10.237589,-0.54612,0.4538611,0.6061897,-1.5887833,1.4397137,1.9939328,0.17468491,0.2415063,-0.23587783,0.924943,-8.878948,7.580613,0.7457879,-0.94643384,-0.862335,-0.10538152,1
