time-since-start [s],throttle_mpc,roll_mpc,pitch_mpc,yaw_mpc,throttle_nw,roll_nw,pitch_nw,yaw_nw,position_x [m],position_y [m],position_z [m],rotation_w [quaternion],rotation_x [quaternion],rotation_y [quaternion],rotation_z [quaternion],velocity_x [m/s],velocity_y [m/s],velocity_z [m/s],omega_x [rad/s],omega_y [rad/s],omega_z [rad/s],network_used
0.0,9.568595312364502,5.999999663760379,-5.999999942334133,-5.851388346476814,4.2867494,-0.46609145,-3.1312013,-1.0922478,20.173117,-9.184057,2.2235897,-0.13200416,-0.46399406,0.32225332,0.81451654,-10.73557,-5.8553195,-0.17754099,1.3070804,0.09802565,0.11394855,0
0.01,9.568595312364502,5.999999663760379,-5.999999942334133,-5.851388346476814,16.114763,-1.7377583,-5.7798796,-2.6618,20.064903,-9.242197,2.2216907,-0.12923737,-0.4649542,0.32735252,0.8123765,-10.906276,-5.7728906,-0.20284702,1.1973699,-0.011541678,-0.0787757,0
0.02,9.568595312364502,5.999999663760379,-5.999999942334133,-5.851388346476814,16.114763,-1.7377583,-5.7798796,-2.6618,19.955006,-9.299515,2.2195213,-0.12576126,-0.46573308,0.33165398,0.81072956,-11.072535,-5.690698,-0.23152283,1.1053475,-0.104597166,-0.26672682,0
0.03,9.568595312364502,5.999999663760379,-5.999999942334133,-5.851388346476814,16.114763,-1.7377583,-5.7798796,-2.6618,19.843468,-9.356012,2.2170498,-0.1215828,-0.46640328,0.33522415,0.80951244,-11.234356,-5.6088333,-0.26321065,1.0281523,-0.1836137,-0.45002303,0
0.04,9.568595312364502,5.999999663760379,-5.999999942334133,-5.851388346476814,11.069431,-0.9367469,-6.470481,-2.8746927,19.730333,-9.411693,2.214248,-0.116710655,-0.46702346,0.338119,0.80866754,-11.391771,-5.5273714,-0.2976063,0.96338797,-0.2506968,-0.6287796,0
0.05,9.568595312364502,5.999999663760379,-5.999999942334133,-5.851388346476814,11.069431,-0.9367469,-6.470481,-2.8746927,19.615648,-9.466561,2.2110894,-0.11115477,-0.46764082,0.34038574,0.80814236,-11.5448265,-5.446374,-0.3344501,0.9090462,-0.3076384,-0.80310893,0
0.060000000000000005,9.568595312364502,5.999999663760379,-5.999999942334133,-5.851388346476814,11.069431,-0.9367469,-6.470481,-2.8746927,19.49945,-9.520622,2.2075512,-0.10492605,-0.4682928,0.34206432,0.80788875,-11.693575,-5.3658934,-0.37351936,0.8634448,-0.35596296,-0.9731208,0
0.07,9.568595312364502,5.999999663760379,-5.999999942334133,-5.851388346476814,11.069431,-0.9367469,-6.470481,-2.8746927,19.381786,-9.57388,2.2036126,-0.09802692,-0.4689994,0.34320027,0.80786365,-11.83872,-5.285622,-0.4143713,0.83366954,-0.40547544,-1.1381974,0
0.08,11.934931102512468,5.9999998834323565,-5.999999986487084,-5.840590193709679,11.850693,-0.6380463,-6.6761255,-3.8302205,19.262684,-9.626334,2.1992595,-0.09040518,-0.46971852,0.34390345,0.8080356,-11.981359,-5.2049856,-0.45643327,0.832152,-0.47091725,-1.2973102,0
0.09,11.934931102512468,5.9999998834323565,-5.999999986487084,-5.840590193709679,11.850693,-0.6380463,-6.6761255,-3.8302205,19.142097,-9.6779375,2.1945083,-0.08184948,-0.47027147,0.34443665,0.8083988,-12.135622,-5.1157527,-0.49402857,0.9208069,-0.6162623,-1.4561269,0
0.09999999999999999,11.934931102512468,5.9999998834323565,-5.999999986487084,-5.840590193709679,11.850693,-0.6380463,-6.6761255,-3.8302205,19.019983,-9.728647,2.1893747,-0.07216847,-0.470489,0.34502834,0.8089419,-12.286523,-5.026161,-0.53287095,1.0266101,-0.7699846,-1.609922,0
0.10999999999999999,11.934931102512468,5.9999998834323565,-5.999999986487084,-5.840590193709679,11.850693,-0.6380463,-6.6761255,-3.8302205,18.89638,-9.778458,2.183847,-0.061329175,-0.4703215,0.3457424,0.80962855,-12.43385,-4.9360275,-0.57285917,1.1471493,-0.93104094,-1.7589656,0
0.11999999999999998,11.934931102512468,5.9999998834323565,-5.999999986487084,-5.840590193709679,11.850693,-0.6380463,-6.6761255,-3.8302205,18.771322,-9.827364,2.177914,-0.04930498,-0.46971917,0.34662998,0.81041986,-12.577387,-4.845163,-0.6138918,1.2802984,-1.0984596,-1.9035062,0
0.12999999999999998,15.89722583939432,5.999999978323232,-6.0,-5.347219413983177,12.857937,0.20604746,-7.624578,-3.461798,18.644846,-9.875357,2.1715658,-0.03607528,-0.46863177,0.3477307,0.8112743,-12.716906,-4.7533784,-0.65586555,1.4241815,-1.2713392,-2.0437727,0
0.13999999999999999,15.89722583939432,5.999999978323232,-6.0,-5.347219413983177,12.857937,0.20604746,-7.624578,-3.461798,18.516909,-9.922366,2.1648302,-0.021278836,-0.4666506,0.34945768,0.8121967,-12.869924,-4.648245,-0.69140047,1.7527888,-1.6249695,-2.171478,0
0.15,15.89722583939432,5.999999978323232,-6.0,-5.347219413983177,12.857937,0.20604746,-7.624578,-3.461798,18.38747,-9.968317,2.1577342,-0.0045976876,-0.46339038,0.35215396,0.8131639,-13.017013,-4.5417852,-0.72795576,2.0737746,-1.9671547,-2.2968206,0
0.16,20.042291926529618,6.0,-6.0,-4.5215694393184025,16.316414,1.2162427,-8.965967,-2.571882,18.256592,-10.013195,2.1502683,0.013917523,-0.45883068,0.3557413,0.8140814,-13.157701,-4.433515,-0.76532364,2.38728,-2.298627,-2.4198225,0
0.17,20.042291926529618,6.0,-6.0,-4.5215694393184025,16.316414,1.2162427,-8.965967,-2.571882,18.124268,-10.05692,2.142458,0.034640953,-0.4524394,0.36061457,0.81489587,-13.30579,-4.311178,-0.7968486,2.9203281,-2.8475816,-2.52029,0
0.18000000000000002,20.042291926529618,6.0,-6.0,-4.5215694393184025,16.316414,1.2162427,-8.965967,-2.571882,17.990501,-10.099404,2.1343317,0.057850458,-0.4437417,0.36704284,0.8154911,-13.446331,-4.1848273,-0.8282619,3.3995814,-3.3402028,-2.6184933,0
0.19000000000000003,20.042291926529618,6.0,-6.0,-4.5215694393184025,16.316414,1.2162427,-8.965967,-2.571882,17.855364,-10.140595,2.1258976,0.08321687,-0.4329184,0.3746552,0.8156529,-13.580159,-4.052082,-0.8583142,3.80418,-3.755917,-2.7118778,0
0.20000000000000004,20.999999932181087,6.0,-6.0,-3.855422888498126,16.275541,3.505818,-8.307755,-3.05887,17.718925,-10.180424,2.117171,0.11040134,-0.4201644,0.383094,0.815176,-13.706033,-3.9125857,-0.8867271,4.145761,-4.106723,-2.80068,0
0.21000000000000005,20.999999932181087,6.0,-6.0,-3.855422888498126,16.275541,3.505818,-8.307755,-3.05887,17.581247,-10.218788,2.1081867,0.13903387,-0.40561825,0.39208838,0.8138855,-13.828341,-3.7592728,-0.9098356,4.4342413,-4.4026537,-2.8524365,0
0.22000000000000006,20.999999932181087,6.0,-6.0,-3.855422888498126,16.275541,3.505818,-8.307755,-3.05887,17.442396,-10.255585,2.098982,0.16877927,-0.38940233,0.40141,0.81163347,-13.939883,-3.599001,-0.9307524,4.6778083,-4.6523614,-2.9016533,0
0.23000000000000007,20.999999932181087,6.0,-6.0,-3.855422888498126,16.275541,3.505818,-8.307755,-3.05887,17.30249,-10.290746,2.08958,0.19939724,-0.3716576,0.41083363,0.8082862,-14.039553,-3.4322011,-0.94930184,4.8834577,-4.863062,-2.948455,0
0.24000000000000007,20.999999932181087,6.0,-6.0,-3.855422888498126,17.889355,2.731792,-7.202016,-2.5569553,17.161652,-10.324208,2.080005,0.230669,-0.35251427,0.42016795,0.80373126,-14.126334,-3.2595174,-0.9653506,5.057095,-5.0408463,-2.9929602,0
0.25000000000000006,20.999999932181087,6.0,-6.0,-3.855422888498126,17.889355,2.731792,-7.202016,-2.5569553,17.020012,-10.355918,2.0702822,0.26239452,-0.33209386,0.4292506,0.79787606,-14.199319,-3.0817802,-0.9788067,5.2037053,-5.1908545,-3.0352817,0
0.26000000000000006,20.999999932181087,6.0,-6.0,-3.855422888498126,17.889355,2.731792,-7.202016,-2.5569553,16.877716,-10.38583,2.0604382,0.29438993,-0.3105108,0.43794414,0.7906465,-14.257718,-2.8999803,-0.9896181,5.327498,-5.317425,-3.0755265,0
0.2700000000000001,20.999999932181087,6.0,-6.0,-3.855422888498126,17.889355,2.731792,-7.202016,-2.5569553,16.734913,-10.413908,2.0504992,0.3264857,-0.2878737,0.44613275,0.7819852,-14.300873,-2.7152443,-0.9977718,5.4320254,-5.4242163,-3.1137962,0
0.2800000000000001,21.0,5.99999990956889,-5.9999999754303985,-3.1378188814934633,21.13374,1.3123249,-6.3809094,-2.097996,16.591755,-10.440129,2.0404918,0.35852486,-0.26428577,0.45371875,0.77184963,-14.328264,-2.5288095,-1.0032911,5.5202875,-5.5143194,-3.1501884,0
0.2900000000000001,21.0,5.99999990956889,-5.9999999754303985,-3.1378188814934633,21.13374,1.3123249,-6.3809094,-2.097996,16.448404,-10.464483,2.0304422,0.390294,-0.23980579,0.46064383,0.7602438,-14.339523,-2.3420017,-1.0062345,5.594945,-5.5902123,-3.1495817,0
0.3000000000000001,21.0,5.99999990956889,-5.9999999754303985,-3.1378188814934633,21.13374,1.3123249,-6.3809094,-2.097996,16.305023,-10.486973,2.0203755,0.42159703,-0.21449122,0.46686062,0.74718815,-14.334432,-2.1562095,-1.0066949,5.657984,-5.6542454,-3.1490045,0
0.3100000000000001,21.0,5.99999990956889,-5.9999999754303985,-3.1378188814934633,21.13374,1.3123249,-6.3809094,-2.097996,16.161774,-10.507615,2.0103161,0.45231906,-0.1884373,0.4723087,0.73268193,-14.312923,-1.9728622,-1.0048,5.711213,-5.7082725,-3.1484556,0
0.3200000000000001,21.0,3.821741040753794,-5.999999423700644,0.1708506039803607,21.765009,-0.2986284,-5.996009,-0.23509823,16.01882,-10.526443,2.0002868,0.48235345,-0.16173588,0.47693798,0.7167331,-14.27509,-1.7934098,-1.0007098,5.756158,-5.753857,-3.1479335,0
0.3300000000000001,21.0,3.821741040753794,-5.999999423700644,0.1708506039803607,21.765009,-0.2986284,-5.996009,-0.23509823,15.876325,-10.543501,1.9903088,0.5111864,-0.1347134,0.4801625,0.6999887,-14.221245,-1.6193053,-0.9945704,5.4550242,-5.791044,-2.9850798,0
0.34000000000000014,21.0,3.821741040753794,-5.999999423700644,0.1708506039803607,21.765009,-0.2986284,-5.996009,-0.23509823,15.734446,-10.558851,1.9804027,0.5384352,-0.107652664,0.48156923,0.68307316,-14.152229,-1.4519632,-0.98631227,5.200841,-5.8226104,-2.8302174,0
0.35000000000000014,21.0,3.821741040753794,-5.999999423700644,0.1708506039803607,21.765009,-0.2986284,-5.996009,-0.23509823,15.593328,-10.572568,1.9705902,0.564183,-0.08057136,0.48134938,0.665964,-14.069065,-1.2926636,-0.975846,4.9862823,-5.8493986,-2.6829543,0
0.36000000000000015,21.0,1.9189476258063707,-4.279196277534428,3.011400087978215,21.396832,-1.7171265,-5.7128077,1.0854231,15.45311,-10.584736,1.9608935,0.58849674,-0.05348432,0.47966236,0.6486406,-13.972787,-1.1425457,-0.96315384,4.8051686,-5.8721285,-2.5429173,0
0.37000000000000016,21.0,1.9189476258063707,-4.279196277534428,3.011400087978215,21.396832,-1.7171265,-5.7128077,1.0854231,15.314015,-10.595318,1.9514418,0.6108835,-0.027183393,0.4766848,0.6315485,-13.844445,-0.9765639,-0.92733836,4.386357,-5.5923705,-2.306632,0
0.38000000000000017,21.0,1.9189476258063707,-4.279196277534428,3.011400087978215,21.396832,-1.7171265,-5.7128077,1.0854231,15.176251,-10.604322,1.9423435,0.63101214,-0.002275988,0.47263882,0.61516714,-13.707118,-0.82691246,-0.89249885,4.0326567,-5.3565106,-2.0761988,0
0.3900000000000002,21.0,1.9189476258063707,-4.279196277534428,3.011400087978215,21.396832,-1.7171265,-5.7128077,1.0854231,15.039897,-10.611911,1.9335877,0.64914477,0.021479307,0.46769395,0.5995094,-13.562966,-0.69308406,-0.85885286,3.734033,-5.1575675,-1.8514727,0
0.4000000000000002,21.0,1.0777901032811295,-1.6265196610526962,3.261020548398386,20.05624,-2.179894,-4.7243714,2.3787286,14.90501,-10.618237,1.9251617,0.6654979,0.04429064,0.46197975,0.58457255,-13.413808,-0.57448417,-0.8265985,3.4820774,-4.9895935,-1.6323124,0
0.4100000000000002,21.0,1.0777901032811295,-1.6265196610526962,3.261020548398386,20.05624,-2.179894,-4.7243714,2.3787286,14.771655,-10.623435,1.9170691,0.6799676,0.06547013,0.4556691,0.5707213,-13.256814,-0.4673804,-0.79219216,2.998536,-4.5738707,-1.4123976,0
0.4200000000000002,21.0,1.0777901032811295,-1.6265196610526962,3.261020548398386,20.05624,-2.179894,-4.7243714,2.3787286,14.63988,-10.627631,1.9093118,0.69254154,0.08449001,0.4489594,0.55828536,-13.097966,-0.37396923,-0.7595455,2.592967,-4.2204423,-1.1979293,0
0.4300000000000002,21.0,1.0777901032811295,-1.6265196610526962,3.261020548398386,20.05624,-2.179894,-4.7243714,2.3787286,14.509698,-10.630956,1.901872,0.70349467,0.10173245,0.44196057,0.5471892,-12.938488,-0.2928451,-0.72860825,2.255652,-3.9171457,-0.98900425,0
0.4400000000000002,21.0,1.0777901032811295,-1.6265196610526962,3.261020548398386,17.80483,-2.5810556,-1.7500311,2.817158,14.381114,-10.633522,1.8947377,0.71301544,0.11752948,0.43482536,0.53732866,-12.77804,-0.22221257,-0.69833076,1.9969349,-3.6351852,-0.7872457,0
0.45000000000000023,21.0,1.0777901032811295,-1.6265196610526962,3.261020548398386,17.80483,-2.5810556,-1.7500311,2.817158,14.254138,-10.635431,1.8879032,0.7212161,0.13217404,0.4277629,0.5285789,-12.617208,-0.161084,-0.66867423,1.8096089,-3.366161,-0.5926048,0
0.46000000000000024,21.0,1.0777901032811295,-1.6265196610526962,3.261020548398386,17.80483,-2.5810556,-1.7500311,2.817158,14.128769,-10.636773,1.8813612,0.7281787,0.1459188,0.4209519,0.5208285,-12.456663,-0.10868068,-0.63988984,1.6834,-3.1071742,-0.40465638,0
0.47000000000000025,21.0,1.0777901032811295,-1.6265196610526962,3.261020548398386,17.80483,-2.5810556,-1.7500311,2.817158,14.005007,-10.6376295,1.8751056,0.7339874,0.15897118,0.4144949,0.5139883,-12.295444,-0.06387988,-0.61111677,1.5893555,-2.8760552,-0.2247806,0
0.48000000000000026,20.999999964042704,0.3204423920567505,0.6427845981135875,3.672486840619291,17.60386,-2.2042894,0.774046,2.2606385,13.882864,-10.638073,1.8691405,0.7387732,0.17147982,0.4083432,0.50799984,-12.132883,-0.025896939,-0.5818284,1.5099058,-2.6810102,-0.05373133,0
0.49000000000000027,20.999999964042704,0.3204423920567505,0.6427845981135875,3.672486840619291,17.60386,-2.2042894,0.774046,2.2606385,13.762367,-10.638165,1.8634818,0.74238455,0.18287317,0.40281588,0.5031512,-11.966646,0.0062605785,-0.5502174,1.2907797,-2.196413,0.12605453,0
0.5000000000000002,20.999999964042704,0.3204423920567505,0.6427845981135875,3.672486840619291,17.60386,-2.2042894,0.774046,2.2606385,13.643524,-10.637967,1.85813,0.7446633,0.1927435,0.39831534,0.49967045,-11.801821,0.032539506,-0.52029324,1.1361033,-1.7570436,0.2997517,0
0.5100000000000002,20.999999964042704,0.3204423920567505,0.6427845981135875,3.672486840619291,17.60386,-2.2042894,0.774046,2.2606385,13.526332,-10.637529,1.8530751,0.74575615,0.20139386,0.39477453,0.49743396,-11.636527,0.054317813,-0.49071172,1.0089799,-1.382707,0.4652528,0
0.5200000000000002,20.999999730739283,-0.5262624612658752,2.8532307040948086,3.5842422381519703,17.815933,-1.6002072,2.455643,1.265567,13.410796,-10.636893,1.8483146,0.7458256,0.20905401,0.39203265,0.49633682,-11.470552,0.07247615,-0.46144682,0.9016186,-1.0667721,0.6226327,0
0.5300000000000002,20.999999730739283,-0.5262624612658752,2.8532307040948086,3.5842422381519703,17.815933,-1.6002072,2.455643,1.265567,13.296923,-10.63609,1.8438445,0.74473655,0.21521753,0.39044043,0.49659282,-11.303931,0.08781215,-0.43265396,0.67874,-0.45547467,0.7679597,0
0.5400000000000003,20.999999730739283,-0.5262624612658752,2.8532307040948086,3.5842422381519703,17.815933,-1.6002072,2.455643,1.265567,13.184719,-10.635142,1.8396593,0.7423928,0.21949054,0.3902675,0.49836475,-11.136685,0.10151316,-0.40449578,0.49055997,0.06046717,0.9061555,0
0.5500000000000003,20.999999730739283,-0.5262624612658752,2.8532307040948086,3.5842422381519703,17.815933,-1.6002072,2.455643,1.265567,13.074192,-10.634062,1.835752,0.7389559,0.22219503,0.3912662,0.50148135,-10.968828,0.1147611,-0.37710345,0.33168977,0.4959326,1.03757,0
0.5600000000000003,20.99999968862954,-1.9947584947910004,5.069104886896831,3.2752802561691357,17.854687,-1.9889883,3.7636716,1.1093658,12.965345,-10.632847,1.8321142,0.7345491,0.22359765,0.39322203,0.50578386,-10.800376,0.12855776,-0.35057157,0.19757572,0.8634783,1.162536,0
0.5700000000000003,20.99999968862954,-1.9947584947910004,5.069104886896831,3.2752802561691357,17.854687,-1.9889883,3.7636716,1.1093658,12.858186,-10.631487,1.8287374,0.7290671,0.22302295,0.39630884,0.51152754,-10.631376,0.14384952,-0.32495877,-0.14491382,1.5190759,1.2662089,0
0.5800000000000003,20.99999968862954,-1.9947584947910004,5.069104886896831,3.2752802561691357,17.854687,-1.9889883,3.7636716,1.1093658,12.752719,-10.62996,1.825612,0.7224099,0.21993539,0.40063652,0.5188852,-10.462007,0.1619979,-0.30024537,-0.43398315,2.0724359,1.3647946,0
0.5900000000000003,20.99999968862954,-1.9947584947910004,5.069104886896831,3.2752802561691357,17.854687,-1.9889883,3.7636716,1.1093658,12.648946,-10.628233,1.8227295,0.7146611,0.21472436,0.40594405,0.52759975,-10.292517,0.18433909,-0.27639443,-0.67795384,2.5395076,1.4585427,0
0.6000000000000003,20.99999983914652,-3.328436264565774,5.999997668534763,2.2700584711515197,18.28263,-2.3761322,4.724343,0.73402965,12.546866,-10.626255,1.8200812,0.7058788,0.20771523,0.41200554,0.5374385,-10.123207,0.21198982,-0.25338554,-0.883852,2.9337509,1.5476906,0
0.6100000000000003,20.99999983914652,-3.328436264565774,5.999997668534763,2.2700584711515197,18.28263,-2.3761322,4.724343,0.73402965,12.446479,-10.623971,1.8176589,0.69612396,0.1985523,0.41862312,0.54839975,-9.954462,0.24592446,-0.2311947,-1.2656434,3.4115171,1.5831375,0
0.6200000000000003,20.99999983914652,-3.328436264565774,5.999997668534763,2.2700584711515197,18.28263,-2.3761322,4.724343,0.73402965,12.347774,-10.621312,1.815455,0.6854297,0.18695633,0.42560932,0.5604367,-9.78688,0.28721818,-0.20968887,-1.5878339,3.814823,1.6168448,0
0.6300000000000003,20.99999983914652,-3.328436264565774,5.999997668534763,2.2700584711515197,18.28263,-2.3761322,4.724343,0.73402965,12.250735,-10.618198,1.8134631,0.67379457,0.17328338,0.4327974,0.57328814,-9.621162,0.33682653,-0.1887487,-1.8597248,4.1552753,1.6488981,0
0.6400000000000003,20.99999983914652,-3.328436264565774,5.999997668534763,2.2700584711515197,17.485285,-2.9710715,5.085701,0.6716882,12.155342,-10.614545,1.8116782,0.6612151,0.15783669,0.44004405,0.5867218,-9.458061,0.39549384,-0.16832134,-2.0891662,4.4426713,1.6793785,0
0.6500000000000004,20.99999983914652,-3.328436264565774,5.999997668534763,2.2700584711515197,17.485285,-2.9710715,5.085701,0.6716882,12.061563,-10.610256,1.810095,0.64768964,0.1408763,0.44722703,0.60053235,-9.298364,0.46377307,-0.1484136,-2.2827828,4.6852813,1.7083634,0
0.6600000000000004,20.99999983914652,-3.328436264565774,5.999997668534763,2.2700584711515197,17.485285,-2.9710715,5.085701,0.6716882,11.969359,-10.605235,1.808708,0.6332198,0.12262673,0.4542428,0.6145388,-9.142881,0.5420429,-0.1290843,-2.4461675,4.890085,1.735926,0
0.6700000000000004,20.99999983914652,-3.328436264565774,5.999997668534763,2.2700584711515197,17.485285,-2.9710715,5.085701,0.6716882,11.878687,-10.59938,1.807511,0.6178118,0.103282996,0.46100396,0.6285822,-8.992447,0.6305226,-0.110436425,-2.5840383,5.062976,1.7621361,0
0.6800000000000004,20.99999986943161,-3.3900621072358397,5.941122710700294,2.0631133377209507,16.982769,-3.0205455,5.024906,0.34371296,11.78949,-10.592588,1.8064965,0.6014765,0.08301546,0.46743733,0.642523,-8.847894,0.7292849,-0.092609644,-2.7003787,5.2089267,1.7870599,0
0.6900000000000004,20.99999986943161,-3.3900621072358397,5.941122710700294,2.0631133377209507,16.982769,-3.0205455,5.024906,0.34371296,11.701706,-10.584759,1.8056555,0.58425874,0.061962392,0.473454,0.6562337,-8.710053,0.8382664,-0.07577055,-2.8081143,5.3229623,1.8006059,0
0.7000000000000004,20.99999986943161,-3.3900621072358397,5.941122710700294,2.0631133377209507,16.982769,-3.0205455,5.024906,0.34371296,11.615263,-10.5757885,1.804977,0.5662044,0.040245946,0.4789815,0.6696032,-8.579746,0.957272,-0.060094252,-2.8990273,5.4192333,1.8134872,0
0.7100000000000004,20.99999986943161,-3.3900621072358397,5.941122710700294,2.0631133377209507,16.982769,-3.0205455,5.024906,0.34371296,11.530083,-10.565579,1.804449,0.54733235,0.017985167,0.48398614,0.6825395,-8.4577675,1.0859923,-0.045770984,-2.9757438,5.500508,1.8257364,0
0.7200000000000004,20.99999979355886,-3.0083462687291482,4.952281161636423,1.4613076456677219,17.241661,-3.54354,4.652362,0.23901452,11.446077,-10.554037,1.8040563,0.52766484,-0.0047139567,0.48844048,0.69496214,-8.344875,1.2240173,-0.03300652,-3.0404804,5.5691214,1.8373846,0
0.7300000000000004,20.99999979355886,-3.0083462687291482,4.952281161636423,1.4613076456677219,17.241661,-3.54354,4.652362,0.23901452,11.363152,-10.541069,1.8037826,0.50747967,-0.027436873,0.49222732,0.70669854,-8.241759,1.3708189,-0.022006923,-3.0352883,5.472968,1.8189304,0
0.7400000000000004,20.99999979355886,-3.0083462687291482,4.952281161636423,1.4613076456677219,17.241661,-3.54354,4.652362,0.23901452,11.281206,-10.526592,1.8036094,0.48703718,-0.049850557,0.495281,0.7176387,-8.148892,1.5256531,-0.012921856,-3.0309289,5.391807,1.8013816,0
0.7500000000000004,20.99999979355886,-3.0083462687291482,4.952281161636423,1.4613076456677219,17.241661,-3.54354,4.652362,0.23901452,11.200136,-10.51053,1.803517,0.46633637,-0.071977444,0.49764878,0.72780097,-8.066638,1.6877207,-0.005878118,-3.0272686,5.3233004,1.7846941,0
0.7600000000000005,20.99999942663347,-2.272000485175873,3.4319485467479036,0.9108006449701163,18.026947,-3.791068,4.273396,0.22860076,11.119836,-10.492815,1.8034843,0.4453782,-0.0938346,0.49936953,0.7371989,-7.995315,1.8562309,-0.0010003695,-3.0241964,5.2654753,1.7688253,0
0.7700000000000005,20.99999942663347,-2.272000485175873,3.4319485467479036,0.9108006449701163,18.026947,-3.791068,4.273396,0.22860076,11.040193,-10.473386,1.8034891,0.42455578,-0.11489029,0.5004276,0.74573696,-7.9351435,2.030373,0.001605183,-2.9064257,4.979753,1.7267218,0
0.7800000000000005,20.99999942663347,-2.272000485175873,3.4319485467479036,0.9108006449701163,18.026947,-3.791068,4.273396,0.22860076,10.961096,-10.452191,1.8035085,0.4042204,-0.13473485,0.50085294,0.75339067,-7.8859844,2.209215,0.0019317543,-2.8070922,4.738559,1.6866843,0
0.7900000000000005,20.99999942663347,-2.272000485175873,3.4319485467479036,0.9108006449701163,18.026947,-3.791068,4.273396,0.22860076,10.882436,-10.429188,1.80352,0.38431293,-0.15354504,0.50073093,0.76025975,-7.8475814,2.3918746,1.1321332e-05,-2.7233088,4.5349526,1.6486115,0
0.8000000000000005,20.918253768133933,-1.3866857277702336,1.748058318930699,0.38134825642396636,17.586346,-4.4661875,3.7762823,-0.008369665,10.804107,-10.404342,1.8035012,0.36477897,-0.1714703,0.500128,0.7664235,-7.8196917,2.5775707,-0.0041228905,-2.6526396,4.363078,1.612407,0
0.8100000000000005,20.918253768133933,-1.3866857277702336,1.748058318930699,0.38134825642396636,17.586346,-4.4661875,3.7762823,-0.008369665,10.726006,-10.377632,1.8034283,0.34602365,-0.18802683,0.4991223,0.7718738,-7.8020883,2.7648587,-0.010777578,-2.4546301,3.9555721,1.5519986,0
0.8200000000000005,20.918253768133933,-1.3866857277702336,1.748058318930699,0.38134825642396636,17.586346,-4.4661875,3.7762823,-0.008369665,10.648032,-10.34904,1.8032787,0.32839257,-0.20285495,0.4978126,0.7766527,-7.794003,2.9537604,-0.019429212,-2.287601,3.611566,1.4945544,0
0.8300000000000005,20.918253768133933,-1.3866857277702336,1.748058318930699,0.38134825642396636,17.586346,-4.4661875,3.7762823,-0.008369665,10.570095,-10.318553,1.8030334,0.311753,-0.216237,0.49626592,0.78087795,-7.7947187,3.143683,-0.029892316,-2.1467023,3.3211663,1.4399291,0
0.8400000000000005,20.918253768133933,-1.3866857277702336,1.748058318930699,0.38134825642396636,17.096046,-4.661052,2.3976912,-0.43493256,10.492109,-10.286164,1.8026752,0.2959856,-0.2284101,0.49452996,0.7846401,-7.8036113,3.3341513,-0.041997787,-2.0278435,3.0760214,1.3879843,0
0.8500000000000005,20.918253768133933,-1.3866857277702336,1.748058318930699,0.38134825642396636,17.096046,-4.661052,2.3976912,-0.43493256,10.413996,-10.251868,1.8021884,0.28098413,-0.2395731,0.4926386,0.7880092,-7.8201375,3.5247786,-0.05559415,-1.9275756,2.869079,1.3385885,0
0.8600000000000005,20.918253768133933,-1.3866857277702336,1.748058318930699,0.38134825642396636,17.096046,-4.661052,2.3976912,-0.43493256,10.335681,-10.215669,1.8015586,0.26665494,-0.24989259,0.4906153,0.7910399,-7.8438253,3.7152486,-0.070547335,-1.842989,2.6943867,1.2916164,0
0.8700000000000006,20.918253768133933,-1.3866857277702336,1.748058318930699,0.38134825642396636,17.096046,-4.661052,2.3976912,-0.43493256,10.257096,-10.177566,1.8007731,0.2529159,-0.25950795,0.48847637,0.79377496,-7.874267,3.9052966,-0.08673979,-1.7716305,2.5469189,1.2469493,0
0.8800000000000006,18.712896038580162,-0.465415060680572,0.006080699639560664,-0.05260144336367846,13.939551,-2.5626585,1.5465621,-0.6788341,10.178175,-10.137565,1.79982,0.23969528,-0.26853552,0.48623276,0.7962482,-7.9111094,4.0946975,-0.10406913,-1.7114303,2.4224336,1.204474,0
0.8900000000000006,18.712896038580162,-0.465415060680572,0.006080699639560664,-0.05260144336367846,13.939551,-2.5626585,1.5465621,-0.6788341,10.098876,-10.095774,1.7986461,0.22741377,-0.27645835,0.48401102,0.79848963,-7.9494567,4.263385,-0.1308329,-1.5167365,2.0458186,1.142789,0
0.9000000000000006,18.712896038580162,-0.465415060680572,0.006080699639560664,-0.05260144336367846,13.939551,-2.5626585,1.5465621,-0.6788341,10.01917,-10.052301,1.7972007,0.21641359,-0.2828854,0.48193136,0.8005509,-7.9925427,4.4312344,-0.15832257,-1.35248,1.7278967,1.0841308,0
0.9100000000000006,18.712896038580162,-0.465415060680572,0.006080699639560664,-0.05260144336367846,13.939551,-2.5626585,1.5465621,-0.6788341,9.939012,-10.0071535,1.7954777,0.20652807,-0.28807327,0.47998574,0.80247873,-8.039694,4.5982084,-0.18633407,-1.2138995,1.4595226,1.028351,0
0.9200000000000006,17.129562572156093,0.3685055207572477,-1.6121061606199314,-0.4149560991514645,12.955387,-2.0746748,0.16326627,-1.0500368,9.858364,-9.960341,1.7934728,0.19761264,-0.29223552,0.47816154,0.8043057,-8.090343,4.764302,-0.21469235,-1.096979,1.2329757,0.97530836,0
0.9300000000000006,17.129562572156093,0.3685055207572477,-1.6121061606199314,-0.4149560991514645,12.955387,-2.0746748,0.16326627,-1.0500368,9.777217,-9.9119425,1.7911537,0.1899863,-0.29498616,0.47657505,0.8060788,-8.139419,4.9155583,-0.24911667,-0.8681197,0.7894712,0.9070877,0
0.9400000000000006,17.129562572156093,0.3685055207572477,-1.6121061606199314,-0.4149560991514645,12.955387,-2.0746748,0.16326627,-1.0500368,9.695568,-9.862034,1.7884905,0.18390004,-0.29603407,0.47532374,0.807843,-8.190493,5.066129,-0.2834858,-0.6750291,0.41508958,0.84221464,0
0.9500000000000006,17.129562572156093,0.3685055207572477,-1.6121061606199314,-0.4149560991514645,12.955387,-2.0746748,0.16326627,-1.0500368,9.613402,-9.810622,1.7854849,0.17914449,-0.2956675,0.4743627,0.80960876,-8.242863,5.21614,-0.31758454,-0.5121124,0.09905998,0.7805249,0
0.9600000000000006,15.817809234826447,0.8481144016977333,-2.971857928351821,-0.6353336098238911,11.080683,-1.9274822,0.17534408,-1.439227,9.530708,-9.757712,1.7821404,0.17553957,-0.29412568,0.47364786,0.8113766,-8.295938,5.3657103,-0.351235,-0.37465075,-0.16771095,0.72186226,0
0.9700000000000006,15.817809234826447,0.8481144016977333,-2.971857928351821,-0.6353336098238911,11.080683,-1.9274822,0.17534408,-1.439227,9.447503,-9.703366,1.7784375,0.17326687,-0.29114494,0.47319072,0.81320477,-8.3451,5.5035286,-0.3892573,-0.1837809,-0.604918,0.65526426,0
0.9800000000000006,15.817809234826447,0.8481144016977333,-2.971857928351821,-0.6353336098238911,11.080683,-1.9274822,0.17534408,-1.439227,9.363809,-9.647642,1.7743579,0.17246181,-0.286524,0.4729939,0.8151294,-8.393778,5.641179,-0.42650652,-0.02273938,-0.973971,0.5919342,0
0.9900000000000007,15.817809234826447,0.8481144016977333,-2.971857928351821,-0.6353336098238911,11.080683,-1.9274822,0.17534408,-1.439227,9.279632,-9.590543,1.7699107,0.17291805,-0.28052828,0.47300383,0.81711006,-8.441358,5.778781,-0.46278563,0.11314021,-1.2854922,0.53171176,0
1.0000000000000007,15.820749820810166,0.8648844988861137,-3.6112603193533848,-0.8349934135004172,12.009412,-1.6168381,0.47683248,-1.6484891,9.194987,-9.532067,1.765106,0.17445898,-0.27337885,0.47317106,0.8191066,-8.487315,5.9164248,-0.49794054,0.22779281,-1.5484486,0.47444448,0
1.0100000000000007,15.820749820810166,0.8648844988861137,-3.6112603193533848,-0.8349934135004172,12.009412,-1.6168381,0.47683248,-1.6484891,9.109892,-9.472214,1.759956,0.17707643,-0.2650609,0.47340444,0.8211414,-8.531193,6.0541964,-0.5318314,0.3271688,-1.8701258,0.41019,0
1.0200000000000007,15.820749820810166,0.8648844988861137,-3.6112603193533848,-0.8349934135004172,12.009412,-1.6168381,0.47683248,-1.6484891,9.024372,-9.410982,1.7544742,0.18075614,-0.2555705,0.47362337,0.8232195,-8.572497,6.192099,-0.564315,0.4110132,-2.1416485,0.34908843,0
1.0300000000000007,15.820749820810166,0.8648844988861137,-3.6112603193533848,-0.8349934135004172,12.009412,-1.6168381,0.47683248,-1.6484891,8.938453,-9.3483715,1.748675,0.18534923,-0.24509235,0.47380018,0.82528013,-8.610784,6.3301296,-0.595257,0.48175693,-2.370836,0.2909852,0
1.0400000000000007,15.820749820810166,0.8648844988861137,-3.6112603193533848,-0.8349934135004172,11.651777,-1.5320412,-0.1775414,-1.5284954,8.852167,-9.28438,1.7425746,0.19072793,-0.23378189,0.47391045,0.8272703,-8.645666,6.4682555,-0.62456185,0.54145,-2.564288,0.23573314,0
1.0500000000000007,15.820749820810166,0.8648844988861137,-3.6112603193533848,-0.8349934135004172,11.651777,-1.5320412,-0.1775414,-1.5284954,8.765552,-9.219007,1.7361896,0.19678247,-0.22177033,0.47393325,0.82914424,-8.676812,6.606417,-0.6521674,0.5918212,-2.7275753,0.18319228,0
1.0600000000000007,15.820749820810166,0.8648844988861137,-3.6112603193533848,-0.8349934135004172,11.651777,-1.5320412,-0.1775414,-1.5284954,8.678645,-9.152251,1.7295374,0.20341837,-0.20916864,0.473851,0.8308628,-8.703935,6.744531,-0.6780396,0.6343286,-2.8654013,0.13322961,0
1.0700000000000007,15.820749820810166,0.8648844988861137,-3.6112603193533848,-0.8349934135004172,11.651777,-1.5320412,-0.1775414,-1.5284954,8.591487,-9.084116,1.722635,0.21055418,-0.19607092,0.47364917,0.83239293,-8.726789,6.882494,-0.7021685,0.6702017,-2.9817352,0.08571865,0
1.0800000000000007,15.539997643207121,0.35382594462298395,-3.6628134520845523,-0.8847936387629333,10.75992,-1.6096969,0.104186624,-1.5021659,8.504125,-9.014603,1.7155,0.21811952,-0.18255706,0.47331607,0.8337068,-8.745166,7.020185,-0.7245641,0.7004774,-3.0799282,0.040539056,0
1.0900000000000007,15.539997643207121,0.35382594462298395,-3.6628134520845523,-0.8847936387629333,10.75992,-1.6096969,0.104186624,-1.5021659,8.416602,-8.943727,1.7081426,0.2260319,-0.16872601,0.47266632,0.8348808,-8.75865,7.155026,-0.74661624,0.6463258,-3.1708493,-0.004867291,0
1.1000000000000008,15.539997643207121,0.35382594462298395,-3.6628134520845523,-0.8847936387629333,10.75992,-1.6096969,0.104186624,-1.5021659,8.328968,-8.871504,1.7005733,0.23422551,-0.15466261,0.47155312,0.8359748,-8.767461,7.289272,-0.7669507,0.600619,-3.2475877,-0.048045523,0
1.1100000000000008,15.539997643207121,0.35382594462298395,-3.6628134520845523,-0.8847936387629333,10.75992,-1.6096969,0.104186624,-1.5021659,8.24127,-8.797943,1.6928095,0.2426651,-0.14041047,0.47002044,0.8369455,-8.771527,7.4227185,-0.7855375,0.5620412,-3.3123558,-0.089104995,0
1.1200000000000008,15.215627767745326,-0.5690427415374238,-3.170271492042157,-0.7678823480616475,11.103643,-2.2514803,0.22451481,-1.3235601,8.153555,-8.723052,1.6848686,0.25131878,-0.12600651,0.46810624,0.8377566,-8.770794,7.5551643,-0.802369,0.5294814,-3.367021,-0.12814966,0
1.1300000000000008,15.215627767745326,-0.5690427415374238,-3.170271492042157,-0.7678823480616475,11.103643,-2.2514803,0.22451481,-1.3235601,8.06587,-8.646857,1.6767595,0.26000935,-0.11173468,0.46558705,0.838533,-8.765358,7.6836615,-0.81917715,0.35810143,-3.3363316,-0.15954153,0
1.1400000000000008,15.215627767745326,-0.5690427415374238,-3.170271492042157,-0.7678823480616475,11.103643,-2.2514803,0.22451481,-1.3235601,7.9782634,-8.569384,1.668491,0.2686007,-0.09782568,0.462295,0.839384,-8.755341,7.81074,-0.8342095,0.21345206,-3.3104239,-0.189393,0
1.1500000000000008,15.215627767745326,-0.5690427415374238,-3.170271492042157,-0.7678823480616475,11.103643,-2.2514803,0.22451481,-1.3235601,7.890779,-8.490648,1.6600814,0.2771196,-0.08423552,0.45833457,0.8402601,-8.7409115,7.9361706,-0.8474065,0.091364145,-3.288554,-0.21777964,0
1.1600000000000008,15.059679790113938,-1.7429858418080664,-2.402191016989838,-0.46311433996040857,12.651044,-2.8333936,-0.20342866,-1.0430816,7.80346,-8.410667,1.6515492,0.28558585,-0.0709259,0.45379382,0.8411183,-8.722224,8.059743,-0.8587297,-0.011680877,-3.270093,-0.24477333,0
1.1700000000000008,15.059679790113938,-1.7429858418080664,-2.402191016989838,-0.46311433996040857,12.651044,-2.8333936,-0.20342866,-1.0430816,7.716347,-8.329467,1.6429088,0.29381254,-0.058240857,0.44844466,0.84212714,-8.699683,8.180012,-0.869053,-0.28167737,-3.1346993,-0.2554874,0
1.1800000000000008,15.059679790113938,-1.7429858418080664,-2.402191016989838,-0.46311433996040857,12.651044,-2.8333936,-0.20342866,-1.0430816,7.629479,-8.247076,1.6341751,0.30165768,-0.04645366,0.4421174,0.8434308,-8.673446,8.2980385,-0.87738127,-0.50956863,-3.020424,-0.2656757,0
1.1900000000000008,15.059679790113938,-1.7429858418080664,-2.402191016989838,-0.46311433996040857,12.651044,-2.8333936,-0.20342866,-1.0430816,7.5428896,-8.163516,1.6253685,0.30919176,-0.035436686,0.43495747,0.8449588,-8.643882,8.413633,-0.8836033,-0.70192116,-2.9239733,-0.27536407,0
1.2000000000000008,15.00544297244721,-2.887841414472215,-1.336351315091612,0.012293412552781392,13.944066,-3.585073,0.5144549,-0.09357748,7.4566116,-8.078813,1.6165106,0.31647053,-0.025080362,0.4270861,0.8466484,-8.611313,8.526629,-0.8876343,-0.8642771,-2.8425674,-0.284577,0
1.2100000000000009,15.00544297244721,-2.887841414472215,-1.336351315091612,0.012293412552781392,13.944066,-3.585073,0.5144549,-0.09357748,7.370672,-7.992995,1.6076219,0.32329774,-0.015773311,0.41835484,0.8486505,-8.576184,8.63648,-0.8897475,-1.1797824,-2.6076264,-0.27000952,0
1.2200000000000009,15.00544297244721,-2.887841414472215,-1.336351315091612,0.012293412552781392,13.944066,-3.585073,0.5144549,-0.09357748,7.285095,-7.9060926,1.5987239,0.32952198,-0.007819156,0.40865546,0.85108966,-8.538881,8.74347,-0.88947845,-1.4460965,-2.409338,-0.25615686,0
1.2300000000000009,15.00544297244721,-2.887841414472215,-1.336351315091612,0.012293412552781392,13.944066,-3.585073,0.5144549,-0.09357748,7.1999,-7.8181353,1.589841,0.33524016,-0.001015427,0.39813295,0.8538746,-8.499915,8.847494,-0.8867049,-1.6708884,-2.2419832,-0.24298392,0
1.2400000000000009,15.00544297244721,-2.887841414472215,-1.336351315091612,0.012293412552781392,14.87767,-4.523721,1.147426,0.67772675,7.115101,-7.729153,1.5809988,0.34052935,0.004810401,0.38690707,0.85692376,-8.4597225,8.948459,-0.8813363,-1.860632,-2.1007357,-0.2304574,0
1.2500000000000009,15.00544297244721,-2.887841414472215,-1.336351315091612,0.012293412552781392,14.87767,-4.523721,1.147426,0.67772675,7.0307083,-7.639177,1.5722234,0.34545112,0.00980517,0.37507743,0.8601645,-8.41868,9.046274,-0.87331045,-2.0207913,-1.9815222,-0.21854554,0
1.260000000000001,15.00544297244721,-2.887841414472215,-1.336351315091612,0.012293412552781392,14.87767,-4.523721,1.147426,0.67772675,6.9467287,-7.548239,1.5635418,0.35005453,0.014093759,0.3627273,0.86353385,-8.377114,9.140855,-0.86259186,-2.155979,-1.8809048,-0.2072182,0
1.270000000000001,15.00544297244721,-2.887841414472215,-1.336351315091612,0.012293412552781392,14.87767,-4.523721,1.147426,0.67772675,6.863167,-7.456372,1.554981,0.35437888,0.017782295,0.34992683,0.8669771,-8.335305,9.23212,-0.8491684,-2.2700884,-1.7959826,-0.1964467,0
1.280000000000001,15.065203780730126,-3.6653526266036565,-0.44338189771612724,0.5330705824591491,16.082333,-4.6613665,0.36081824,0.39736643,6.7800226,-7.3636084,1.5465678,0.35845557,0.020960925,0.33673516,0.8704472,-8.293499,9.31999,-0.833049,-2.3664062,-1.7243067,-0.18620375,0
1.290000000000001,15.065203780730126,-3.6653526266036565,-0.44338189771612724,0.5330705824591491,16.082333,-4.6613665,0.36081824,0.39736643,6.6972966,-7.2699823,1.5383315,0.3621415,0.02330426,0.32305834,0.87403804,-8.251777,9.404725,-0.81378806,-2.568917,-1.5245817,-0.15090875,0
1.300000000000001,15.065203780730126,-3.6653526266036565,-0.44338189771612724,0.5330705824591491,16.082333,-4.6613665,0.36081824,0.39736643,6.614985,-7.175526,1.5303013,0.36532038,0.024557913,0.30882373,0.87781805,-8.210696,9.4859295,-0.79183555,-2.7398589,-1.3560121,-0.11734569,0
1.310000000000001,15.065203780730126,-3.6653526266036565,-0.44338189771612724,0.5330705824591491,16.082333,-4.6613665,0.36081824,0.39736643,6.533079,-7.080276,1.5225041,0.36804962,0.02488867,0.2941059,0.8817145,-8.170655,9.5635605,-0.76719767,-2.8841527,-1.2137367,-0.08542958,0
1.320000000000001,15.320436621824015,-4.151174063801411,0.28111283765439504,1.0543493806296373,16.697271,-5.0446978,0.36722454,0.79259455,6.451567,-6.9842677,1.5149665,0.37037525,0.024437962,0.2789678,0.885664,-8.131996,9.637567,-0.7399072,-3.005952,-1.093653,-0.055079605,0
1.330000000000001,15.320436621824015,-4.151174063801411,0.28111283765439504,1.0543493806296373,16.697271,-5.0446978,0.36722454,0.79259455,6.3704367,-6.8875318,1.5077256,0.37220213,0.023014177,0.2633964,0.88969487,-8.094412,9.709092,-0.7078492,-3.1845093,-0.8793652,-0.0006396035,0
1.340000000000001,15.320436621824015,-4.151174063801411,0.28111283765439504,1.0543493806296373,16.697271,-5.0446978,0.36722454,0.79259455,6.2896714,-6.790099,1.5008185,0.3734501,0.020471616,0.24738322,0.8938211,-8.058968,9.77686,-0.67320603,-3.335236,-0.6985016,0.05112901,0
1.350000000000001,15.320436621824015,-4.151174063801411,0.28111283765439504,1.0543493806296373,16.697271,-5.0446978,0.36722454,0.79259455,6.209248,-6.6920075,1.4942702,0.37417212,0.016983239,0.2309841,0.897971,-8.026062,9.840847,-0.6360569,-3.4624684,-0.54584646,0.10035731,0
1.360000000000001,15.231952197472149,-4.206632513456988,0.5441192626171222,1.4258992041830907,15.119789,-4.8006873,0.71951896,1.0242883,6.12914,-6.593295,1.4881055,0.37441105,0.012695739,0.21424723,0.902082,-7.9960356,9.901016,-0.59650767,-3.5698671,-0.4169984,0.14716998,1
1.370000000000001,15.231952197472149,-4.206632513456988,0.5441192626171222,1.4258992041830907,15.119789,-4.8006873,0.71951896,1.0242883,6.0493145,-6.4940042,1.4823388,0.37417054,0.00747697,0.19704476,0.90615255,-7.9695487,9.956582,-0.556516,-3.761823,-0.2398828,0.19021042,1
1.380000000000001,15.231952197472149,-4.206632513456988,0.5441192626171222,1.4258992041830907,15.119789,-4.8006873,0.71951896,1.0242883,5.969737,-6.394177,1.4769825,0.37345248,0.001228479,0.17927554,0.91015965,-7.946587,10.008257,-0.51439977,-3.923849,-0.09038921,0.23113886,1
1.390000000000001,15.231952197472149,-4.206632513456988,0.5441192626171222,1.4258992041830907,15.119789,-4.8006873,0.71951896,1.0242883,5.89037,-6.293853,1.4720576,0.37228602,-0.0058887303,0.16101548,0.91402465,-7.9275117,10.055953,-0.4703059,-4.0606117,0.035792217,0.2700589,1
1.400000000000001,15.37784638627409,-3.8541960175243792,0.5432887639714225,1.620366214915168,15.643466,-4.4685884,0.24963102,0.9649297,5.8111725,-6.1930723,1.4675827,0.37069467,-0.013737507,0.14233117,0.9176803,-7.912627,10.099579,-0.4244163,-4.176048,0.1422982,0.30706918,1
1.410000000000001,15.37784638627409,-3.8541960175243792,0.5432887639714225,1.620366214915168,15.643466,-4.4685884,0.24963102,0.9649297,5.732104,-6.091869,1.4635999,0.36873326,-0.021979967,0.12333412,0.9210537,-7.901809,10.140404,-0.37190172,-4.221676,0.1589389,0.3393506,1
1.420000000000001,15.37784638627409,-3.8541960175243792,0.5432887639714225,1.620366214915168,15.643466,-4.4685884,0.24963102,0.9649297,5.6531205,-5.990279,1.4601495,0.3664473,-0.030341001,0.10412012,0.924096,-7.895684,10.176805,-0.31799546,-4.2601886,0.17298861,0.37004793,1
1.430000000000001,15.37784638627409,-3.8541960175243792,0.5432887639714225,1.620366214915168,15.643466,-4.4685884,0.24963102,0.9649297,5.574174,-5.888348,1.4572439,0.3638432,-0.038797166,0.084723026,0.9267867,-7.894305,10.20867,-0.26295823,-4.292695,0.18485135,0.39923897,1
1.440000000000001,15.37784638627409,-3.8541960175243792,0.5432887639714225,1.620366214915168,16.356976,-3.8506265,-0.13441554,0.9752742,5.495218,-5.7861214,1.4548931,0.36092743,-0.047328167,0.065173335,0.92910856,-7.897707,10.235899,-0.20706083,-4.3201313,0.1948684,0.42699757,1
1.450000000000001,15.37784638627409,-3.8541960175243792,0.5432887639714225,1.620366214915168,16.356976,-3.8506265,-0.13441554,0.9752742,5.4162016,-5.6836405,1.4531398,0.35772815,-0.05568461,0.045673646,0.93104386,-7.9062586,10.259435,-0.14353128,-4.2469,0.14346254,0.45390168,1
1.460000000000001,15.37784638627409,-3.8541960175243792,0.5432887639714225,1.620366214915168,16.356976,-3.8506265,-0.13441554,0.9752742,5.3370757,-5.58095,1.4520235,0.3542729,-0.063668974,0.02638932,0.93259835,-7.9196687,10.27799,-0.07968324,-4.1850905,0.10007606,0.47948554,1
1.470000000000001,15.37784638627409,-3.8541960175243792,0.5432887639714225,1.620366214915168,16.356976,-3.8506265,-0.13441554,0.9752742,5.2577915,-5.478098,1.4515462,0.3505674,-0.07133494,0.007295569,0.9337878,-7.9377685,10.291539,-0.015794761,-4.1329207,0.063457884,0.50381404,1
1.480000000000001,14.899704863654243,-3.0324949748728542,0.246085762974366,1.622239269375081,17.2388,-3.5864036,-0.48962417,1.1074558,5.1783047,-5.375136,1.4517068,0.3466175,-0.07872769,-0.011627922,0.9346241,-7.960398,10.300061,0.047866806,-4.088887,0.03255242,0.5269487,0
1.490000000000001,14.899704863654243,-3.0324949748728542,0.246085762974366,1.622239269375081,17.2388,-3.5864036,-0.48962417,1.1074558,5.0985804,-5.2721157,1.4524299,0.3423851,-0.08591622,-0.030032668,0.93514067,-7.984995,10.303253,0.09667535,-3.9241571,0.06577157,0.5806949,0
1.500000000000001,14.899704863654243,-3.0324949748728542,0.246085762974366,1.622239269375081,17.2388,-3.5864036,-0.48962417,1.1074558,5.0185914,-5.169086,1.453638,0.33784214,-0.09296214,-0.047642298,0.9353877,-8.013403,10.302018,0.14482512,-3.785117,0.093817584,0.6318038,0
1.5100000000000011,14.899704863654243,-3.0324949748728542,0.246085762974366,1.622239269375081,17.2388,-3.5864036,-0.48962417,1.1074558,4.9383006,-5.0660896,1.4553233,0.33300683,-0.09989016,-0.064569466,0.9353921,-8.045451,10.296525,0.19212241,-3.6677592,0.11749556,0.6804047,0
1.5200000000000011,14.114036485484583,-1.9266786876544835,-0.025502070443114595,1.4810206624631845,16.677505,-2.8160465,-0.6216518,1.1560417,4.857671,-4.9631696,1.4574767,0.32789454,-0.1067207,-0.08090931,0.93517315,-8.080987,10.286917,0.23839264,-3.5687032,0.1374853,0.7266208,0
1.5300000000000011,14.114036485484583,-1.9266786876544835,-0.025502070443114595,1.4810206624631845,16.677505,-2.8160465,-0.6216518,1.1560417,4.776679,-4.8603616,1.4600492,0.32257533,-0.11322384,-0.096365936,0.93479323,-8.117794,10.274052,0.27593368,-3.3126209,0.11210836,0.7636394,0
1.5400000000000011,14.114036485484583,-1.9266786876544835,-0.025502070443114595,1.4810206624631845,16.677505,-2.8160465,-0.6216518,1.1560417,4.695305,-4.7577004,1.4629911,0.3171157,-0.11922228,-0.11071086,0.9343265,-8.157479,10.257639,0.31227553,-3.0964754,0.09068422,0.7988415,0
1.5500000000000012,14.114036485484583,-1.9266786876544835,-0.025502070443114595,1.4810206624631845,16.677505,-2.8160465,-0.6216518,1.1560417,4.6135206,-4.65522,1.4662904,0.31152183,-0.12480163,-0.12410935,0.933796,-8.199772,10.237892,0.34736922,-2.9140384,0.07259599,0.83231616,0
1.5600000000000012,13.440770975262334,-0.8353553570319348,-0.5661006363953496,1.1995547971194782,15.309998,-1.937296,-1.5621959,1.1754652,4.5313015,-4.552953,1.4699342,0.30579805,-0.13003325,-0.13670129,0.93321544,-8.24444,10.214998,0.3811783,-2.760053,0.057323735,0.86414826,0
1.5700000000000012,13.440770975262334,-0.8353553570319348,-0.5661006363953496,1.1995547971194782,15.309998,-1.937296,-1.5621959,1.1754652,4.4486356,-4.4509234,1.4738783,0.30000854,-0.13463785,-0.14826815,0.9326754,-8.289022,10.190359,0.4074558,-2.4598424,-0.03975661,0.8806068,0
1.5800000000000012,13.440770975262334,-0.8353553570319348,-0.5661006363953496,1.1995547971194782,15.309998,-1.937296,-1.5621959,1.1754652,4.3655157,-4.349154,1.4780792,0.29421228,-0.13840023,-0.15864497,0.93226373,-8.33533,10.163093,0.43255013,-2.2064564,-0.12171704,0.8962576,0
1.5900000000000012,13.440770975262334,-0.8353553570319348,-0.5661006363953496,1.1995547971194782,15.309998,-1.937296,-1.5621959,1.1754652,4.2819247,-4.2476697,1.4825255,0.2884043,-0.14146036,-0.16801304,0.9319779,-8.383044,10.133399,0.45654228,-1.9925919,-0.1909133,0.9111405,0
1.6000000000000012,13.09278877802329,0.09467667880052337,-1.0080807294447338,0.8241145511591593,14.251568,-1.2867602,-1.5849673,0.664878,4.1978507,-4.1464934,1.4872066,0.28257927,-0.14393495,-0.1765255,0.93180996,-8.431901,10.101454,0.47951004,-1.8120846,-0.2493333,0.9252931,0
1.6100000000000012,13.09278877802329,0.09467667880052337,-1.0080807294447338,0.8241145511591593,14.251568,-1.2867602,-1.5849673,0.664878,4.11329,-4.0456433,1.492097,0.27679825,-0.14564429,-0.18402155,0.9318293,-8.4803705,10.068294,0.49842665,-1.5146563,-0.36747542,0.92032826,0
1.6200000000000012,13.09278877802329,0.09467667880052337,-1.0080807294447338,0.8241145511591593,14.251568,-1.2867602,-1.5849673,0.664878,4.028241,-3.9451344,1.4971725,0.2711162,-0.14645179,-0.19038165,0.93209547,-8.529413,10.033286,0.51656425,-1.2636234,-0.4672233,0.9156071,0
1.6300000000000012,13.09278877802329,0.09467667880052337,-1.0080807294447338,0.8241145511591593,14.251568,-1.2867602,-1.5849673,0.664878,3.9427006,-3.8449838,1.5024261,0.26551923,-0.14650416,-0.1957806,0.9325799,-8.57874,9.996621,0.5340686,-1.0517485,-0.55144054,0.9111175,0
1.6400000000000012,13.09278877802329,0.09467667880052337,-1.0080807294447338,0.8241145511591593,14.211986,-0.9294618,-1.8648509,0.4897751,3.8566663,-3.745207,1.5078522,0.2599947,-0.14592376,-0.20036584,0.93325335,-8.628112,9.958459,0.5510688,-0.8729238,-0.62254477,0.9068482,0
1.6500000000000012,13.09278877802329,0.09467667880052337,-1.0080807294447338,0.8241145511591593,14.211986,-0.9294618,-1.8648509,0.4897751,3.770139,-3.6458192,1.5134462,0.2545312,-0.1448127,-0.20426168,0.9340876,-8.677327,9.91894,0.5676777,-0.7219933,-0.6825779,0.9027884,0
1.6600000000000013,13.09278877802329,0.09467667880052337,-1.0080807294447338,0.8241145511591593,14.211986,-0.9294618,-1.8648509,0.4897751,3.683121,-3.5468326,1.5192047,0.24911888,-0.14325629,-0.20757301,0.93505627,-8.726215,9.878183,0.5839926,-0.5946061,-0.73326355,0.89892787,0
1.6700000000000013,13.09278877802329,0.09467667880052337,-1.0080807294447338,0.8241145511591593,14.211986,-0.9294618,-1.8648509,0.4897751,3.595616,-3.4482594,1.5251254,0.24374913,-0.14132579,-0.21038847,0.93613535,-8.774637,9.836294,0.600097,-0.48708943,-0.77605706,0.89525676,0
1.6800000000000013,13.003643174078942,0.693881858502659,-1.3174284750643843,0.40370062086903824,14.164741,-0.72386867,-1.8375032,0.14953794,3.5076299,-3.3501103,1.5312063,0.23841463,-0.13908081,-0.21278286,0.9373034,-8.822474,9.793365,0.6160619,-0.396344,-0.81218725,0.8917658,0
1.6900000000000013,13.003643174078942,0.693881858502659,-1.3174284750643843,0.40370062086903824,14.164741,-0.72386867,-1.8375032,0.14953794,3.4191706,-3.252394,1.5374424,0.2331647,-0.1363874,-0.21463105,0.9385976,-8.869288,9.74978,0.6311788,-0.22629201,-0.89087707,0.86781627,0
1.7000000000000013,13.003643174078942,0.693881858502659,-1.3174284750643843,0.40370062086903824,14.164741,-0.72386867,-1.8375032,0.14953794,3.3302472,-3.1551175,1.5438299,0.2280441,-0.1331412,-0.2158369,0.9400441,-8.915249,9.705368,0.6463241,-0.08276811,-0.95731497,0.845042,0
1.7100000000000013,13.003643174078942,0.693881858502659,-1.3174284750643843,0.40370062086903824,14.164741,-0.72386867,-1.8375032,0.14953794,3.240869,-3.058289,1.5503693,0.22304052,-0.12942764,-0.21649788,0.9416099,-8.960199,9.660249,0.66159576,0.038366523,-1.0134083,0.82338524,0
1.7200000000000013,12.923309327196561,1.1114696740439436,-1.3594340813685593,-0.012976261448172736,14.109659,-0.24570902,-2.0078719,-0.092648126,3.151047,-2.9619148,1.5570624,0.21814318,-0.12531836,-0.21669625,0.94326603,-9.004005,9.614529,0.6770744,0.14060496,-1.0607673,0.8027912,0
1.7300000000000013,12.923309327196561,1.1114696740439436,-1.3594340813685593,-0.012976261448172736,14.109659,-0.24570902,-2.0078719,-0.092648126,3.0607946,-2.8659987,1.5639081,0.21340828,-0.12081042,-0.2163538,0.94501436,-9.046288,9.568596,0.69212645,0.29200634,-1.1072727,0.76276124,0
1.7400000000000013,12.923309327196561,1.1114696740439436,-1.3594340813685593,-0.012976261448172736,14.109659,-0.24570902,-2.0078719,-0.092648126,2.970126,-2.7705443,1.570906,0.20888567,-0.11590362,-0.2154123,0.9468527,-9.087196,9.5223,0.7075351,0.41979235,-1.1465441,0.7246956,0
1.7500000000000013,12.923309327196561,1.1114696740439436,-1.3594340813685593,-0.012976261448172736,14.109659,-0.24570902,-2.0078719,-0.092648126,2.8790555,-2.6755536,1.5780603,0.20455755,-0.11065709,-0.2139627,0.9487521,-9.126617,9.475772,0.7233738,0.5276469,-1.1797057,0.68849784,0
1.7600000000000013,12.648699347561779,1.244402324431891,-1.4668036097231385,-0.39176420024218495,14.211712,0.11611597,-2.2834847,-0.13557492,2.7875988,-2.581029,1.5853752,0.20040825,-0.10512057,-0.21208175,0.9506876,-9.16446,9.429129,0.7396996,0.6186791,-1.2077073,0.6540763,0
1.7700000000000014,12.648699347561779,1.244402324431891,-1.4668036097231385,-0.39176420024218495,14.211712,0.11611597,-2.2834847,-0.13557492,2.695776,-2.486966,1.5928439,0.19646484,-0.09927468,-0.20979695,0.95264405,-9.199871,9.383464,0.7541142,0.7162358,-1.2480955,0.60275656,0
1.7800000000000014,12.648699347561779,1.244402324431891,-1.4668036097231385,-0.39176420024218495,14.211712,0.11611597,-2.2834847,-0.13557492,2.6036074,-2.3933592,1.6004595,0.1927535,-0.09310505,-0.20713332,0.954606,-9.233565,9.337886,0.76908916,0.7985757,-1.2821959,0.55395514,0
1.7900000000000014,12.648699347561779,1.244402324431891,-1.4668036097231385,-0.39176420024218495,14.211712,0.11611597,-2.2834847,-0.13557492,2.5111108,-2.3002076,1.6082277,0.18925966,-0.08665731,-0.20414719,0.95655346,-9.265466,9.292485,0.7846547,0.868073,-1.3109865,0.5075484,0
1.8000000000000014,11.960588273009465,1.09896663319889,-1.5538743784426519,-0.6679107040874888,13.903998,-0.12308748,-2.5392427,-0.08163295,2.4183044,-2.2075088,1.6161547,0.1859701,-0.07997024,-0.20088607,0.95846957,-9.295501,9.247343,0.80082935,0.92673093,-1.3352932,0.46341887,0
1.8100000000000014,11.960588273009465,1.09896663319889,-1.5538743784426519,-0.6679107040874888,13.903998,-0.12308748,-2.5392427,-0.08163295,2.325215,-2.1152477,1.6242151,0.18289392,-0.07304738,-0.19745499,0.9603253,-9.322082,9.204967,0.81137043,0.95355177,-1.3694072,0.4079042,0
1.8200000000000014,11.960588273009465,1.09896663319889,-1.5538743784426519,-0.6679107040874888,13.903998,-0.12308748,-2.5392427,-0.08163295,2.2318695,-2.0234087,1.632384,0.18004225,-0.065892406,-0.19393939,0.9620965,-9.346792,9.162938,0.82248724,0.9761887,-1.3982022,0.35511366,0
1.8300000000000014,11.960588273009465,1.09896663319889,-1.5538743784426519,-0.6679107040874888,13.903998,-0.12308748,-2.5392427,-0.08163295,2.138286,-1.9319878,1.6406668,0.17740577,-0.058536332,-0.19034976,0.96377736,-9.369584,9.121288,0.83416456,0.9952949,-1.4225073,0.30491358,0
1.8400000000000014,11.960588273009465,1.09896663319889,-1.5538743784426519,-0.6679107040874888,12.914942,-0.13951142,-2.788785,-0.24440156,2.0444849,-1.8409814,1.6490692,0.1749753,-0.051005762,-0.18669483,0.96536326,-9.390417,9.080045,0.84638286,1.0114218,-1.4430221,0.25717682,0
1.8500000000000014,11.960588273009465,1.09896663319889,-1.5538743784426519,-0.6679107040874888,12.914942,-0.13951142,-2.788785,-0.24440156,1.950485,-1.7503854,1.6575963,0.17274186,-0.043323614,-0.1829819,0.9668506,-9.409257,9.039233,0.8591189,1.0250341,-1.4603376,0.21178252,0
1.8600000000000014,11.960588273009465,1.09896663319889,-1.5538743784426519,-0.6679107040874888,12.914942,-0.13951142,-2.788785,-0.24440156,1.8563068,-1.6601954,1.6662532,0.17069663,-0.035509635,-0.17921704,0.96823657,-9.426076,8.998878,0.8723463,1.0365244,-1.4749521,0.16861573,0
1.8700000000000014,11.960588273009465,1.09896663319889,-1.5538743784426519,-0.6679107040874888,12.914942,-0.13951142,-2.788785,-0.24440156,1.7619706,-1.5704064,1.6750448,0.16883105,-0.02758091,-0.17540531,0.9695191,-9.440846,8.9590025,0.88603586,1.0462239,-1.4872868,0.12756713,0
1.8800000000000014,11.264618905292398,0.7815442945643803,-1.5748331253329568,-0.8209895408387385,12.409379,-0.55448323,-3.3098712,-0.32358703,1.667497,-1.4810137,1.6839755,0.1671368,-0.01955224,-0.17155086,0.9706967,-9.453548,8.919627,0.90015644,1.0544116,-1.4976972,0.088532805,0
1.8900000000000015,11.264618905292398,0.7815442945643803,-1.5748331253329568,-0.8209895408387385,12.409379,-0.55448323,-3.3098712,-0.32358703,1.5729101,-1.3920008,1.6930164,0.16562064,-0.011446284,-0.16778229,0.9717442,-9.463545,8.883028,0.90811944,1.0118148,-1.5097585,0.04390229,0
1.9000000000000015,11.264618905292398,0.7815442945643803,-1.5748331253329568,-0.8209895408387385,12.409379,-0.55448323,-3.3098712,-0.32358703,1.4782329,-1.3033516,1.7021388,0.16429068,-0.003281417,-0.16420195,0.97264296,-9.471573,8.846892,0.91640824,0.9758625,-1.5199349,0.0014617927,0
1.9100000000000015,11.264618905292398,0.7815442945643803,-1.5748331253329568,-0.8209895408387385,12.409379,-0.55448323,-3.3098712,-0.32358703,1.3834854,-1.2150615,1.7113454,0.16314033,0.0049360534,-0.16077745,0.9734014,-9.477632,8.8111925,0.9249741,0.9455185,-1.5285213,-0.038896117,0
1.9200000000000015,10.522128957936962,0.3316094280171519,-1.500405815057192,-0.8546734416018822,12.059301,-0.61342174,-3.436122,-0.54091537,1.2886872,-1.1271263,1.720639,0.16216266,0.013200436,-0.1574813,0.9740264,-9.481719,8.775905,0.93377054,0.91990817,-1.535766,-0.07727367,0
1.9300000000000015,10.522128957936962,0.3316094280171519,-1.500405815057192,-0.8546734416018822,12.059301,-0.61342174,-3.436122,-0.54091537,1.1938587,-1.0395306,1.7299861,0.16136223,0.021449072,-0.1544608,0.9744962,-9.483702,8.743302,0.9356926,0.8281256,-1.5302676,-0.115420885,0
1.9400000000000015,10.522128957936962,0.3316094280171519,-1.500405815057192,-0.8546734416018822,12.059301,-0.61342174,-3.436122,-0.54091537,1.0990194,-0.95225936,1.7393531,0.16074365,0.029632032,-0.1518319,0.97479707,-9.483874,8.710999,0.937731,0.75065845,-1.5256226,-0.1516962,0
1.9500000000000015,10.522128957936962,0.3316094280171519,-1.500405815057192,-0.8546734416018822,12.059301,-0.61342174,-3.436122,-0.54091537,1.0041872,-0.86530995,1.7487408,0.1602995,0.03776158,-0.14953059,0.97494495,-9.482269,8.678927,0.93983144,0.6852742,-1.5216992,-0.1861915,0
1.9600000000000015,10.015039568698011,-0.10518780928332416,-1.303685849091235,-0.8007694934000191,13.948428,-1.7100698,-3.837432,0.23144664,0.90938,-0.77868026,1.7581495,0.160022,0.045847803,-0.14750272,0.97495276,-9.478912,8.647032,0.9419449,0.63008803,-1.5183852,-0.21899413,0
1.9700000000000015,10.015039568698011,-0.10518780928332416,-1.303685849091235,-0.8007694934000191,13.948428,-1.7100698,-3.837432,0.23144664,0.8146138,-0.6923612,1.7675554,0.15991695,0.053793307,-0.14586066,0.97481096,-9.474079,8.616792,0.939197,0.51539934,-1.4848962,-0.24754201,0
1.9800000000000015,10.015039568698011,-0.10518780928332416,-1.303685849091235,-0.8007694934000191,13.948428,-1.7100698,-3.837432,0.23144664,0.7199039,-0.6063443,1.7769333,0.15998818,0.061521187,-0.14469145,0.97451633,-9.467665,8.58659,0.9363684,0.41859794,-1.4566283,-0.27468905,0
1.9900000000000015,10.015039568698011,-0.10518780928332416,-1.303685849091235,-0.8007694934000191,13.948428,-1.7100698,-3.837432,0.23144664,0.6252657,-0.5206296,1.7862823,0.16022502,0.06906663,-0.14391863,0.97408617,-9.459731,8.55635,0.9334131,0.33689392,-1.4327681,-0.30050397,0
2.0000000000000013,,,,,11.821594,-1.2308851,-3.0232413,-0.1967958,0.5307143,-0.4352177,1.795601,0.1606171,0.07645916,-0.1434775,0.97353435,-9.450332,8.526004,0.9302907,0.26793295,-1.4126288,-0.3250521,0
2.010000000000001,,,,,11.821594,-1.2308851,-3.0232413,-0.1967958,0.43626165,-0.3501036,1.8048674,0.16117524,0.0835362,-0.14340383,0.97287124,-9.439981,8.496792,0.9229353,0.16300045,-1.3290833,-0.34296954,0
2.020000000000001,,,,,11.821594,-1.2308851,-3.0232413,-0.1967958,0.34191895,-0.26528263,1.8140591,0.16190597,0.090170115,-0.14372364,0.9721102,-9.428372,8.467361,0.9153568,0.0744317,-1.2585683,-0.36000773,0
2.0300000000000007,,,,,11.821594,-1.2308851,-3.0232413,-0.1967958,0.24769819,-0.18075731,1.8231736,0.16279379,0.09643082,-0.1443733,0.9712644,-9.415602,8.4376545,0.9075315,-0.00032541528,-1.1990514,-0.37620986,0
2.0400000000000005,,,,,11.821594,-1.2308851,-3.0232413,-0.1967958,0.15361059,-0.09653067,1.8322086,0.16382451,0.10237725,-0.14529908,0.970344,-9.401754,8.407622,0.89943916,-0.063424625,-1.1488174,-0.39161694,0
2.0500000000000003,,,,,11.653102,-1.409474,-2.4177713,-0.17496382,0.05966655,-0.012606138,1.8411613,0.1649853,0.108059056,-0.14645559,0.9693569,-9.3869,8.377224,0.89106256,-0.11668402,-1.106419,-0.40626797,1
2.06,,,,,11.653102,-1.409474,-2.4177713,-0.17496382,-0.03410726,0.070979275,1.850125,0.16615601,0.114039324,-0.14830278,0.9681903,-9.367676,8.339764,0.9016203,-0.31833845,-1.3108727,-0.39491782,1
2.07,,,,,11.653102,-1.409474,-2.4177713,-0.17496382,-0.12768266,0.1541866,1.859192,0.1672311,0.120762214,-0.15120322,0.96674025,-9.347198,8.301566,0.91169065,-0.4885344,-1.4834524,-0.3841246,1
2.0799999999999996,,,,,11.653102,-1.409474,-2.4177713,-0.17496382,-0.2210465,0.23700726,1.8683567,0.1682189,0.1281059,-0.15498976,0.96502244,-9.325356,8.262393,0.921143,-0.63218004,-1.6291273,-0.373861,1
2.0899999999999994,,,,,11.335415,-1.7379286,-2.5409346,0.5038332,-0.31418476,0.31943044,1.8776122,0.16912569,0.13596712,-0.1595207,0.963048,-9.302065,8.222042,0.9298538,-0.75341755,-1.752091,-0.36410105,1
2.099999999999999,,,,,11.335415,-1.7379286,-2.5409346,0.5038332,-0.4070859,0.40144914,1.8869363,0.16988565,0.14426996,-0.16482209,0.9608109,-9.277933,8.181483,0.93481416,-0.9069288,-1.8750993,-0.32151127,1
2.109999999999999,,,,,11.335415,-1.7379286,-2.5409346,0.5038332,-0.49973816,0.483055,1.8963052,0.17043574,0.1529463,-0.17090969,0.9583046,-9.252278,8.139442,0.93880785,-1.0364922,-1.9789361,-0.28101137,1
2.1199999999999988,,,,,11.335415,-1.7379286,-2.5409346,0.5038332,-0.59212613,0.56423235,1.9057088,0.17078443,0.16192569,-0.17765835,0.95553595,-9.225065,8.095768,0.9417058,-1.1458453,-2.0665882,-0.24249883,1
2.1299999999999986,,,,,11.993952,-2.0618877,-2.2223663,1.2223457,-0.6842341,0.6449643,1.9151353,0.17093936,0.17114827,-0.18496187,0.95251024,-9.196271,8.050338,0.94338334,-1.2381411,-2.140577,-0.20587611,1
2.1399999999999983,,,,,11.993952,-2.0618877,-2.2223663,1.2223457,-0.7760374,0.7252191,1.9246006,0.17086956,0.18040317,-0.19284704,0.94924545,-9.1641245,8.000308,0.94943845,-1.3665073,-2.153377,-0.13579287,1
2.149999999999998,,,,,11.993952,-2.0618877,-2.2223663,1.2223457,-0.867511,0.80496335,1.9341189,0.17054251,0.1895178,-0.201333,0.94576,-9.130351,7.9482126,0.9539546,-1.4748584,-2.16419,-0.069148615,1
2.159999999999998,,,,,11.993952,-2.0618877,-2.2223663,1.2223457,-0.95863897,0.88417596,1.943674,0.16996317,0.19849655,-0.21032587,0.9420581,-9.0950165,7.8939657,0.95681703,-1.5663159,-2.173323,-0.005774623,1
2.1699999999999977,,,,,11.1870365,-1.528989,-1.1460253,0.94665885,-1.0494062,0.962835,1.9532491,0.16913676,0.20734279,-0.21974578,0.938143,-9.058182,7.837506,0.9579146,-1.6435145,-2.1810353,0.054489583,1
2.1799999999999975,,,,,11.1870365,-1.528989,-1.1460253,0.94665885,-1.1398106,1.040938,1.962793,0.16815273,0.21569994,-0.22924615,0.9341537,-9.022493,7.7827554,0.95060533,-1.6256021,-2.0196717,0.09826859,1
2.1899999999999973,,,,,11.1870365,-1.528989,-1.1460253,0.94665885,-1.2298521,1.1184832,1.9722551,0.16709313,0.22329223,-0.23855214,0.9302215,-8.985613,7.725981,0.94156075,-1.610493,-1.8834697,0.13989933,1
2.199999999999997,,,,,11.1870365,-1.528989,-1.1460253,0.94665885,-1.3195194,1.1954509,1.9816182,0.16595268,0.23023044,-0.2476973,0.926336,-8.947686,7.6672697,0.9308045,-1.5977471,-1.7685058,0.17948723,1
2.209999999999997,,,,,11.316536,-0.78287727,0.10322556,1.0258849,-1.4088027,1.2718222,1.9908652,0.16472702,0.23660773,-0.2567094,0.9224862,-8.908838,7.606696,0.9183555,-1.5869946,-1.671468,0.21713255,1
2.2199999999999966,,,,,11.316536,-0.78287727,0.10322556,1.0258849,-1.4976912,1.3475751,1.9999844,0.16346292,0.24208944,-0.26525757,0.9188633,-8.868728,7.5436225,0.9052193,-1.4615954,-1.3947258,0.25681823,1
2.2299999999999964,,,,,11.316536,-0.78287727,0.10322556,1.0258849,-1.5861752,1.422689,2.0089643,0.16220172,0.24641904,-0.27308673,0.9156368,-8.827991,7.478919,0.8905452,-1.3557597,-1.161137,0.29455656,1
