time-since-start [s],throttle_mpc,roll_mpc,pitch_mpc,yaw_mpc,throttle_nw,roll_nw,pitch_nw,yaw_nw,position_x [m],position_y [m],position_z [m],rotation_w [quaternion],rotation_x [quaternion],rotation_y [quaternion],rotation_z [quaternion],velocity_x [m/s],velocity_y [m/s],velocity_z [m/s],omega_x [rad/s],omega_y [rad/s],omega_z [rad/s],network_used
0.0,9.568595312364435,5.999999663760391,-5.999999942334132,-5.851388346463944,4.215904,-0.53752536,-3.0974908,-1.0839342,20.173117,-9.184057,2.2235897,-0.13200416,-0.46399406,0.32225332,0.81451654,-10.73557,-5.8553195,-0.17754099,1.3070804,0.09802565,0.11394855,0
0.01,9.568595312364435,5.999999663760391,-5.999999942334132,-5.851388346463944,16.237219,-1.733729,-5.770902,-2.7323763,20.064903,-9.242197,2.2216907,-0.12923737,-0.4649542,0.32735252,0.8123765,-10.906276,-5.7728906,-0.20284702,1.1973699,-0.011541678,-0.0787757,0
0.02,9.568595312364435,5.999999663760391,-5.999999942334132,-5.851388346463944,16.237219,-1.733729,-5.770902,-2.7323763,19.955006,-9.299515,2.2195213,-0.12576126,-0.46573308,0.33165398,0.81072956,-11.072535,-5.690698,-0.23152283,1.1053475,-0.104597166,-0.26672682,0
0.03,9.568595312364435,5.999999663760391,-5.999999942334132,-5.851388346463944,16.237219,-1.733729,-5.770902,-2.7323763,19.843468,-9.356012,2.2170498,-0.1215828,-0.46640328,0.33522415,0.80951244,-11.234356,-5.6088333,-0.26321065,1.0281523,-0.1836137,-0.45002303,0
0.04,9.568595312364435,5.999999663760391,-5.999999942334132,-5.851388346463944,11.01911,-0.99455196,-6.4871206,-2.9167764,19.730333,-9.411693,2.214248,-0.116710655,-0.46702346,0.338119,0.80866754,-11.391771,-5.5273714,-0.2976063,0.96338797,-0.2506968,-0.6287796,0
0.05,9.568595312364435,5.999999663760391,-5.999999942334132,-5.851388346463944,11.01911,-0.99455196,-6.4871206,-2.9167764,19.615648,-9.466561,2.2110894,-0.11115477,-0.46764082,0.34038574,0.80814236,-11.5448265,-5.446374,-0.3344501,0.9090462,-0.3076384,-0.80310893,0
0.060000000000000005,9.568595312364435,5.999999663760391,-5.999999942334132,-5.851388346463944,11.01911,-0.99455196,-6.4871206,-2.9167764,19.49945,-9.520622,2.2075512,-0.10492605,-0.4682928,0.34206432,0.80788875,-11.693575,-5.3658934,-0.37351936,0.8634448,-0.35596296,-0.9731208,0
0.07,9.568595312364435,5.999999663760391,-5.999999942334132,-5.851388346463944,11.01911,-0.99455196,-6.4871206,-2.9167764,19.381786,-9.57388,2.2036126,-0.09802692,-0.4689994,0.34320027,0.80786365,-11.83872,-5.285622,-0.4143713,0.83366954,-0.40547544,-1.1381974,0
0.08,11.934931102512467,5.9999998834323565,-5.999999986487084,-5.840590193709678,11.39953,-0.42860204,-6.790801,-4.065379,19.262684,-9.626334,2.1992595,-0.09040518,-0.46971852,0.34390345,0.8080356,-11.981359,-5.2049856,-0.45643327,0.832152,-0.47091725,-1.2973102,0
0.09,11.934931102512467,5.9999998834323565,-5.999999986487084,-5.840590193709678,11.39953,-0.42860204,-6.790801,-4.065379,19.142097,-9.6779375,2.1945083,-0.08184948,-0.47027147,0.34443665,0.8083988,-12.135622,-5.1157527,-0.49402857,0.9208069,-0.6162623,-1.4561269,0
0.09999999999999999,11.934931102512467,5.9999998834323565,-5.999999986487084,-5.840590193709678,11.39953,-0.42860204,-6.790801,-4.065379,19.019983,-9.728647,2.1893747,-0.07216847,-0.470489,0.34502834,0.8089419,-12.286523,-5.026161,-0.53287095,1.0266101,-0.7699846,-1.609922,0
0.10999999999999999,11.934931102512467,5.9999998834323565,-5.999999986487084,-5.840590193709678,11.39953,-0.42860204,-6.790801,-4.065379,18.89638,-9.778458,2.183847,-0.061329175,-0.4703215,0.3457424,0.80962855,-12.43385,-4.9360275,-0.57285917,1.1471493,-0.93104094,-1.7589656,0
0.11999999999999998,11.934931102512467,5.9999998834323565,-5.999999986487084,-5.840590193709678,11.39953,-0.42860204,-6.790801,-4.065379,18.771322,-9.827364,2.177914,-0.04930498,-0.46971917,0.34662998,0.81041986,-12.577387,-4.845163,-0.6138918,1.2802984,-1.0984596,-1.9035062,0
0.12999999999999998,15.897225839394329,5.999999978323232,-6.0,-5.3472194139831775,12.265247,0.5763244,-7.6421375,-3.7588127,18.644846,-9.875357,2.1715658,-0.03607528,-0.46863177,0.3477307,0.8112743,-12.716906,-4.7533784,-0.65586555,1.4241815,-1.2713392,-2.0437727,0
0.13999999999999999,15.897225839394329,5.999999978323232,-6.0,-5.3472194139831775,12.265247,0.5763244,-7.6421375,-3.7588127,18.516909,-9.922366,2.1648302,-0.021278836,-0.4666506,0.34945768,0.8121967,-12.869924,-4.648245,-0.69140047,1.7527888,-1.6249695,-2.171478,0
0.15,15.897225839394329,5.999999978323232,-6.0,-5.3472194139831775,12.265247,0.5763244,-7.6421375,-3.7588127,18.38747,-9.968317,2.1577342,-0.0045976876,-0.46339038,0.35215396,0.8131639,-13.017013,-4.5417852,-0.72795576,2.0737746,-1.9671547,-2.2968206,0
0.16,20.042291926529618,6.0,-6.0,-4.521569439318402,15.461902,1.2074965,-8.535044,-2.744664,18.256592,-10.013195,2.1502683,0.013917523,-0.45883068,0.3557413,0.8140814,-13.157701,-4.433515,-0.76532364,2.38728,-2.298627,-2.4198225,0
0.17,20.042291926529618,6.0,-6.0,-4.521569439318402,15.461902,1.2074965,-8.535044,-2.744664,18.124268,-10.05692,2.142458,0.034640953,-0.4524394,0.36061457,0.81489587,-13.30579,-4.311178,-0.7968486,2.9203281,-2.8475816,-2.52029,0
0.18000000000000002,20.042291926529618,6.0,-6.0,-4.521569439318402,15.461902,1.2074965,-8.535044,-2.744664,17.990501,-10.099404,2.1343317,0.057850458,-0.4437417,0.36704284,0.8154911,-13.446331,-4.1848273,-0.8282619,3.3995814,-3.3402028,-2.6184933,0
0.19000000000000003,20.042291926529618,6.0,-6.0,-4.521569439318402,15.461902,1.2074965,-8.535044,-2.744664,17.855364,-10.140595,2.1258976,0.08321687,-0.4329184,0.3746552,0.8156529,-13.580159,-4.052082,-0.8583142,3.80418,-3.755917,-2.7118778,0
0.20000000000000004,20.999999932181087,6.0,-6.0,-3.855422888498127,15.660099,3.4015412,-7.9151287,-2.569639,17.718925,-10.180424,2.117171,0.11040134,-0.4201644,0.383094,0.815176,-13.706033,-3.9125857,-0.8867271,4.145761,-4.106723,-2.80068,0
0.21000000000000005,20.999999932181087,6.0,-6.0,-3.855422888498127,15.660099,3.4015412,-7.9151287,-2.569639,17.581247,-10.218788,2.1081867,0.13903387,-0.40561825,0.39208838,0.8138855,-13.828341,-3.7592728,-0.9098356,4.4342413,-4.4026537,-2.8524365,0
0.22000000000000006,20.999999932181087,6.0,-6.0,-3.855422888498127,15.660099,3.4015412,-7.9151287,-2.569639,17.442396,-10.255585,2.098982,0.16877927,-0.38940233,0.40141,0.81163347,-13.939883,-3.599001,-0.9307524,4.6778083,-4.6523614,-2.9016533,0
0.23000000000000007,20.999999932181087,6.0,-6.0,-3.855422888498127,15.660099,3.4015412,-7.9151287,-2.569639,17.30249,-10.290746,2.08958,0.19939724,-0.3716576,0.41083363,0.8082862,-14.039553,-3.4322011,-0.94930184,4.8834577,-4.863062,-2.948455,0
0.24000000000000007,20.999999932181087,6.0,-6.0,-3.855422888498127,17.297932,2.248454,-6.9022255,-1.6027387,17.161652,-10.324208,2.080005,0.230669,-0.35251427,0.42016795,0.80373126,-14.126334,-3.2595174,-0.9653506,5.057095,-5.0408463,-2.9929602,0
0.25000000000000006,20.999999932181087,6.0,-6.0,-3.855422888498127,17.297932,2.248454,-6.9022255,-1.6027387,17.020012,-10.355918,2.0702822,0.26239452,-0.33209386,0.4292506,0.79787606,-14.199319,-3.0817802,-0.9788067,5.2037053,-5.1908545,-3.0352817,0
0.26000000000000006,20.999999932181087,6.0,-6.0,-3.855422888498127,17.297932,2.248454,-6.9022255,-1.6027387,16.877716,-10.38583,2.0604382,0.29438993,-0.3105108,0.43794414,0.7906465,-14.257718,-2.8999803,-0.9896181,5.327498,-5.317425,-3.0755265,0
0.2700000000000001,20.999999932181087,6.0,-6.0,-3.855422888498127,17.297932,2.248454,-6.9022255,-1.6027387,16.734913,-10.413908,2.0504992,0.3264857,-0.2878737,0.44613275,0.7819852,-14.300873,-2.7152443,-0.9977718,5.4320254,-5.4242163,-3.1137962,0
0.2800000000000001,21.0,5.99999990956889,-5.9999999754303985,-3.137818881493465,19.130583,0.8849806,-6.3617167,-1.3317772,16.591755,-10.440129,2.0404918,0.35852486,-0.26428577,0.45371875,0.77184963,-14.328264,-2.5288095,-1.0032911,5.5202875,-5.5143194,-3.1501884,0
0.2900000000000001,21.0,5.99999990956889,-5.9999999754303985,-3.137818881493465,19.130583,0.8849806,-6.3617167,-1.3317772,16.448404,-10.464483,2.0304422,0.390294,-0.23980579,0.46064383,0.7602438,-14.339523,-2.3420017,-1.0062345,5.594945,-5.5902123,-3.1495817,0
0.3000000000000001,21.0,5.99999990956889,-5.9999999754303985,-3.137818881493465,19.130583,0.8849806,-6.3617167,-1.3317772,16.305023,-10.486973,2.0203755,0.42159703,-0.21449122,0.46686062,0.74718815,-14.334432,-2.1562095,-1.0066949,5.657984,-5.6542454,-3.1490045,0
0.3100000000000001,21.0,5.99999990956889,-5.9999999754303985,-3.137818881493465,19.130583,0.8849806,-6.3617167,-1.3317772,16.161774,-10.507615,2.0103161,0.45231906,-0.1884373,0.4723087,0.73268193,-14.312923,-1.9728622,-1.0048,5.711213,-5.7082725,-3.1484556,0
0.3200000000000001,21.0,3.8217410407537966,-5.999999423700644,0.1708506039803548,20.378416,-0.591312,-5.9952145,0.251547,16.01882,-10.526443,2.0002868,0.48235345,-0.16173588,0.47693798,0.7167331,-14.27509,-1.7934098,-1.0007098,5.756158,-5.753857,-3.1479335,0
0.3300000000000001,21.0,3.8217410407537966,-5.999999423700644,0.1708506039803548,20.378416,-0.591312,-5.9952145,0.251547,15.876325,-10.543501,1.9903088,0.5111864,-0.1347134,0.4801625,0.6999887,-14.221245,-1.6193053,-0.9945704,5.4550242,-5.791044,-2.9850798,0
0.34000000000000014,21.0,3.8217410407537966,-5.999999423700644,0.1708506039803548,20.378416,-0.591312,-5.9952145,0.251547,15.734446,-10.558851,1.9804027,0.5384352,-0.107652664,0.48156923,0.68307316,-14.152229,-1.4519632,-0.98631227,5.200841,-5.8226104,-2.8302174,0
0.35000000000000014,21.0,3.8217410407537966,-5.999999423700644,0.1708506039803548,20.378416,-0.591312,-5.9952145,0.251547,15.593328,-10.572568,1.9705902,0.564183,-0.08057136,0.48134938,0.665964,-14.069065,-1.2926636,-0.975846,4.9862823,-5.8493986,-2.6829543,0
0.36000000000000015,21.0,1.9189476258063702,-4.279196277534428,3.0114000879782137,20.113703,-1.7113484,-5.772684,0.935217,15.45311,-10.584736,1.9608935,0.58849674,-0.05348432,0.47966236,0.6486406,-13.972787,-1.1425457,-0.96315384,4.8051686,-5.8721285,-2.5429173,0
0.37000000000000016,21.0,1.9189476258063702,-4.279196277534428,3.0114000879782137,20.113703,-1.7113484,-5.772684,0.935217,15.314015,-10.595318,1.9514418,0.6108835,-0.027183393,0.4766848,0.6315485,-13.844445,-0.9765639,-0.92733836,4.386357,-5.5923705,-2.306632,0
0.38000000000000017,21.0,1.9189476258063702,-4.279196277534428,3.0114000879782137,20.113703,-1.7113484,-5.772684,0.935217,15.176251,-10.604322,1.9423435,0.63101214,-0.002275988,0.47263882,0.61516714,-13.707118,-0.82691246,-0.89249885,4.0326567,-5.3565106,-2.0761988,0
0.3900000000000002,21.0,1.9189476258063702,-4.279196277534428,3.0114000879782137,20.113703,-1.7113484,-5.772684,0.935217,15.039897,-10.611911,1.9335877,0.64914477,0.021479307,0.46769395,0.5995094,-13.562966,-0.69308406,-0.85885286,3.734033,-5.1575675,-1.8514727,0
0.4000000000000002,21.0,1.0777901032811272,-1.626519661052698,3.261020548398407,19.38825,-2.2950964,-4.6668844,2.3132179,14.90501,-10.618237,1.9251617,0.6654979,0.04429064,0.46197975,0.58457255,-13.413808,-0.57448417,-0.8265985,3.4820774,-4.9895935,-1.6323124,0
0.4100000000000002,21.0,1.0777901032811272,-1.626519661052698,3.261020548398407,19.38825,-2.2950964,-4.6668844,2.3132179,14.771655,-10.623435,1.9170691,0.6799676,0.06547013,0.4556691,0.5707213,-13.256814,-0.4673804,-0.79219216,2.998536,-4.5738707,-1.4123976,0
0.4200000000000002,21.0,1.0777901032811272,-1.626519661052698,3.261020548398407,19.38825,-2.2950964,-4.6668844,2.3132179,14.63988,-10.627631,1.9093118,0.69254154,0.08449001,0.4489594,0.55828536,-13.097966,-0.37396923,-0.7595455,2.592967,-4.2204423,-1.1979293,0
0.4300000000000002,21.0,1.0777901032811272,-1.626519661052698,3.261020548398407,19.38825,-2.2950964,-4.6668844,2.3132179,14.509698,-10.630956,1.901872,0.70349467,0.10173245,0.44196057,0.5471892,-12.938488,-0.2928451,-0.72860825,2.255652,-3.9171457,-0.98900425,0
0.4400000000000002,21.0,1.0777901032811272,-1.626519661052698,3.261020548398407,17.11622,-2.7723475,-1.240862,2.7243354,14.381114,-10.633522,1.8947377,0.71301544,0.11752948,0.43482536,0.53732866,-12.77804,-0.22221257,-0.69833076,1.9969349,-3.6351852,-0.7872457,0
0.45000000000000023,21.0,1.0777901032811272,-1.626519661052698,3.261020548398407,17.11622,-2.7723475,-1.240862,2.7243354,14.254138,-10.635431,1.8879032,0.7212161,0.13217404,0.4277629,0.5285789,-12.617208,-0.161084,-0.66867423,1.8096089,-3.366161,-0.5926048,0
0.46000000000000024,21.0,1.0777901032811272,-1.626519661052698,3.261020548398407,17.11622,-2.7723475,-1.240862,2.7243354,14.128769,-10.636773,1.8813612,0.7281787,0.1459188,0.4209519,0.5208285,-12.456663,-0.10868068,-0.63988984,1.6834,-3.1071742,-0.40465638,0
0.47000000000000025,21.0,1.0777901032811272,-1.626519661052698,3.261020548398407,17.11622,-2.7723475,-1.240862,2.7243354,14.005007,-10.6376295,1.8751056,0.7339874,0.15897118,0.4144949,0.5139883,-12.295444,-0.06387988,-0.61111677,1.5893555,-2.8760552,-0.2247806,0
0.48000000000000026,20.999999964042704,0.3204423920567513,0.64278459811359,3.67248684061931,17.431356,-2.701344,1.1566147,2.3309147,13.882864,-10.638073,1.8691405,0.7387732,0.17147982,0.4083432,0.50799984,-12.132883,-0.025896939,-0.5818284,1.5099058,-2.6810102,-0.05373133,0
0.49000000000000027,20.999999964042704,0.3204423920567513,0.64278459811359,3.67248684061931,17.431356,-2.701344,1.1566147,2.3309147,13.762367,-10.638165,1.8634818,0.74238455,0.18287317,0.40281588,0.5031512,-11.966646,0.0062605785,-0.5502174,1.2907797,-2.196413,0.12605453,0
0.5000000000000002,20.999999964042704,0.3204423920567513,0.64278459811359,3.67248684061931,17.431356,-2.701344,1.1566147,2.3309147,13.643524,-10.637967,1.85813,0.7446633,0.1927435,0.39831534,0.49967045,-11.801821,0.032539506,-0.52029324,1.1361033,-1.7570436,0.2997517,0
0.5100000000000002,20.999999964042704,0.3204423920567513,0.64278459811359,3.67248684061931,17.431356,-2.701344,1.1566147,2.3309147,13.526332,-10.637529,1.8530751,0.74575615,0.20139386,0.39477453,0.49743396,-11.636527,0.054317813,-0.49071172,1.0089799,-1.382707,0.4652528,0
0.5200000000000002,20.999999730739283,-0.5262624612658762,2.8532307040948104,3.5842422381519734,17.672375,-2.0207562,2.7605786,1.4088932,13.410796,-10.636893,1.8483146,0.7458256,0.20905401,0.39203265,0.49633682,-11.470552,0.07247615,-0.46144682,0.9016186,-1.0667721,0.6226327,0
0.5300000000000002,20.999999730739283,-0.5262624612658762,2.8532307040948104,3.5842422381519734,17.672375,-2.0207562,2.7605786,1.4088932,13.296923,-10.63609,1.8438445,0.74473655,0.21521753,0.39044043,0.49659282,-11.303931,0.08781215,-0.43265396,0.67874,-0.45547467,0.7679597,0
0.5400000000000003,20.999999730739283,-0.5262624612658762,2.8532307040948104,3.5842422381519734,17.672375,-2.0207562,2.7605786,1.4088932,13.184719,-10.635142,1.8396593,0.7423928,0.21949054,0.3902675,0.49836475,-11.136685,0.10151316,-0.40449578,0.49055997,0.06046717,0.9061555,0
0.5500000000000003,20.999999730739283,-0.5262624612658762,2.8532307040948104,3.5842422381519734,17.672375,-2.0207562,2.7605786,1.4088932,13.074192,-10.634062,1.835752,0.7389559,0.22219503,0.3912662,0.50148135,-10.968828,0.1147611,-0.37710345,0.33168977,0.4959326,1.03757,0
0.5600000000000003,20.99999968862954,-1.9947584947909935,5.069104886896828,3.275280256169136,17.663868,-1.9149858,3.6956208,0.9653424,12.965345,-10.632847,1.8321142,0.7345491,0.22359765,0.39322203,0.50578386,-10.800376,0.12855776,-0.35057157,0.19757572,0.8634783,1.162536,0
0.5700000000000003,20.99999968862954,-1.9947584947909935,5.069104886896828,3.275280256169136,17.663868,-1.9149858,3.6956208,0.9653424,12.858186,-10.631487,1.8287374,0.7290671,0.22302295,0.39630884,0.51152754,-10.631376,0.14384952,-0.32495877,-0.14491382,1.5190759,1.2662089,0
0.5800000000000003,20.99999968862954,-1.9947584947909935,5.069104886896828,3.275280256169136,17.663868,-1.9149858,3.6956208,0.9653424,12.752719,-10.62996,1.825612,0.7224099,0.21993539,0.40063652,0.5188852,-10.462007,0.1619979,-0.30024537,-0.43398315,2.0724359,1.3647946,0
0.5900000000000003,20.99999968862954,-1.9947584947909935,5.069104886896828,3.275280256169136,17.663868,-1.9149858,3.6956208,0.9653424,12.648946,-10.628233,1.8227295,0.7146611,0.21472436,0.40594405,0.52759975,-10.292517,0.18433909,-0.27639443,-0.67795384,2.5395076,1.4585427,0
0.6000000000000003,20.99999983914652,-3.32843626456578,5.999997668534763,2.2700584711515135,18.823324,-2.3473606,4.440478,0.75556266,12.546866,-10.626255,1.8200812,0.7058788,0.20771523,0.41200554,0.5374385,-10.123207,0.21198982,-0.25338554,-0.883852,2.9337509,1.5476906,0
0.6100000000000003,20.99999983914652,-3.32843626456578,5.999997668534763,2.2700584711515135,18.823324,-2.3473606,4.440478,0.75556266,12.446479,-10.623971,1.8176589,0.69612396,0.1985523,0.41862312,0.54839975,-9.954462,0.24592446,-0.2311947,-1.2656434,3.4115171,1.5831375,0
0.6200000000000003,20.99999983914652,-3.32843626456578,5.999997668534763,2.2700584711515135,18.823324,-2.3473606,4.440478,0.75556266,12.347774,-10.621312,1.815455,0.6854297,0.18695633,0.42560932,0.5604367,-9.78688,0.28721818,-0.20968887,-1.5878339,3.814823,1.6168448,0
0.6300000000000003,20.99999983914652,-3.32843626456578,5.999997668534763,2.2700584711515135,18.823324,-2.3473606,4.440478,0.75556266,12.250735,-10.618198,1.8134631,0.67379457,0.17328338,0.4327974,0.57328814,-9.621162,0.33682653,-0.1887487,-1.8597248,4.1552753,1.6488981,0
0.6400000000000003,20.99999983914652,-3.32843626456578,5.999997668534763,2.2700584711515135,18.055336,-2.9140587,4.8790455,0.7341019,12.155342,-10.614545,1.8116782,0.6612151,0.15783669,0.44004405,0.5867218,-9.458061,0.39549384,-0.16832134,-2.0891662,4.4426713,1.6793785,0
0.6500000000000004,20.99999983914652,-3.32843626456578,5.999997668534763,2.2700584711515135,18.055336,-2.9140587,4.8790455,0.7341019,12.061563,-10.610256,1.810095,0.64768964,0.1408763,0.44722703,0.60053235,-9.298364,0.46377307,-0.1484136,-2.2827828,4.6852813,1.7083634,0
0.6600000000000004,20.99999983914652,-3.32843626456578,5.999997668534763,2.2700584711515135,18.055336,-2.9140587,4.8790455,0.7341019,11.969359,-10.605235,1.808708,0.6332198,0.12262673,0.4542428,0.6145388,-9.142881,0.5420429,-0.1290843,-2.4461675,4.890085,1.735926,0
0.6700000000000004,20.99999983914652,-3.32843626456578,5.999997668534763,2.2700584711515135,18.055336,-2.9140587,4.8790455,0.7341019,11.878687,-10.59938,1.807511,0.6178118,0.103282996,0.46100396,0.6285822,-8.992447,0.6305226,-0.110436425,-2.5840383,5.062976,1.7621361,0
0.6800000000000004,20.99999986943161,-3.3900621072358414,5.941122710700296,2.0631133377209525,17.208971,-2.4131153,4.857847,0.23061706,11.78949,-10.592588,1.8064965,0.6014765,0.08301546,0.46743733,0.642523,-8.847894,0.7292849,-0.092609644,-2.7003787,5.2089267,1.7870599,0
0.6900000000000004,20.99999986943161,-3.3900621072358414,5.941122710700296,2.0631133377209525,17.208971,-2.4131153,4.857847,0.23061706,11.701706,-10.584759,1.8056555,0.58425874,0.061962392,0.473454,0.6562337,-8.710053,0.8382664,-0.07577055,-2.8081143,5.3229623,1.8006059,0
0.7000000000000004,20.99999986943161,-3.3900621072358414,5.941122710700296,2.0631133377209525,17.208971,-2.4131153,4.857847,0.23061706,11.615263,-10.5757885,1.804977,0.5662044,0.040245946,0.4789815,0.6696032,-8.579746,0.957272,-0.060094252,-2.8990273,5.4192333,1.8134872,0
0.7100000000000004,20.99999986943161,-3.3900621072358414,5.941122710700296,2.0631133377209525,17.208971,-2.4131153,4.857847,0.23061706,11.530083,-10.565579,1.804449,0.54733235,0.017985167,0.48398614,0.6825395,-8.4577675,1.0859923,-0.045770984,-2.9757438,5.500508,1.8257364,0
0.7200000000000004,20.99999979355886,-3.0083462687291473,4.9522811616364235,1.4613076456677234,17.671352,-2.8864532,4.457049,0.17042948,11.446077,-10.554037,1.8040563,0.52766484,-0.0047139567,0.48844048,0.69496214,-8.344875,1.2240173,-0.03300652,-3.0404804,5.5691214,1.8373846,0
0.7300000000000004,20.99999979355886,-3.0083462687291473,4.9522811616364235,1.4613076456677234,17.671352,-2.8864532,4.457049,0.17042948,11.363152,-10.541069,1.8037826,0.50747967,-0.027436873,0.49222732,0.70669854,-8.241759,1.3708189,-0.022006923,-3.0352883,5.472968,1.8189304,0
0.7400000000000004,20.99999979355886,-3.0083462687291473,4.9522811616364235,1.4613076456677234,17.671352,-2.8864532,4.457049,0.17042948,11.281206,-10.526592,1.8036094,0.48703718,-0.049850557,0.495281,0.7176387,-8.148892,1.5256531,-0.012921856,-3.0309289,5.391807,1.8013816,0
0.7500000000000004,20.99999979355886,-3.0083462687291473,4.9522811616364235,1.4613076456677234,17.671352,-2.8864532,4.457049,0.17042948,11.200136,-10.51053,1.803517,0.46633637,-0.071977444,0.49764878,0.72780097,-8.066638,1.6877207,-0.005878118,-3.0272686,5.3233004,1.7846941,0
0.7600000000000005,20.99999942663347,-2.272000485175872,3.431948546747901,0.9108006449701103,18.11715,-3.5893502,4.5959535,0.28709188,11.119836,-10.492815,1.8034843,0.4453782,-0.0938346,0.49936953,0.7371989,-7.995315,1.8562309,-0.0010003695,-3.0241964,5.2654753,1.7688253,0
0.7700000000000005,20.99999942663347,-2.272000485175872,3.431948546747901,0.9108006449701103,18.11715,-3.5893502,4.5959535,0.28709188,11.040193,-10.473386,1.8034891,0.42455578,-0.11489029,0.5004276,0.74573696,-7.9351435,2.030373,0.001605183,-2.9064257,4.979753,1.7267218,0
0.7800000000000005,20.99999942663347,-2.272000485175872,3.431948546747901,0.9108006449701103,18.11715,-3.5893502,4.5959535,0.28709188,10.961096,-10.452191,1.8035085,0.4042204,-0.13473485,0.50085294,0.75339067,-7.8859844,2.209215,0.0019317543,-2.8070922,4.738559,1.6866843,0
0.7900000000000005,20.99999942663347,-2.272000485175872,3.431948546747901,0.9108006449701103,18.11715,-3.5893502,4.5959535,0.28709188,10.882436,-10.429188,1.80352,0.38431293,-0.15354504,0.50073093,0.76025975,-7.8475814,2.3918746,1.1321332e-05,-2.7233088,4.5349526,1.6486115,0
0.8000000000000005,20.91825376813394,-1.3866857277702374,1.7480583189307033,0.38134825642397074,17.807222,-4.4284134,3.9181266,-0.21605621,10.804107,-10.404342,1.8035012,0.36477897,-0.1714703,0.500128,0.7664235,-7.8196917,2.5775707,-0.0041228905,-2.6526396,4.363078,1.612407,0
0.8100000000000005,20.91825376813394,-1.3866857277702374,1.7480583189307033,0.38134825642397074,17.807222,-4.4284134,3.9181266,-0.21605621,10.726006,-10.377632,1.8034283,0.34602365,-0.18802683,0.4991223,0.7718738,-7.8020883,2.7648587,-0.010777578,-2.4546301,3.9555721,1.5519986,0
0.8200000000000005,20.91825376813394,-1.3866857277702374,1.7480583189307033,0.38134825642397074,17.807222,-4.4284134,3.9181266,-0.21605621,10.648032,-10.34904,1.8032787,0.32839257,-0.20285495,0.4978126,0.7766527,-7.794003,2.9537604,-0.019429212,-2.287601,3.611566,1.4945544,0
0.8300000000000005,20.91825376813394,-1.3866857277702374,1.7480583189307033,0.38134825642397074,17.807222,-4.4284134,3.9181266,-0.21605621,10.570095,-10.318553,1.8030334,0.311753,-0.216237,0.49626592,0.78087795,-7.7947187,3.143683,-0.029892316,-2.1467023,3.3211663,1.4399291,0
0.8400000000000005,20.91825376813394,-1.3866857277702374,1.7480583189307033,0.38134825642397074,17.324827,-4.5820994,2.7068865,-0.62921584,10.492109,-10.286164,1.8026752,0.2959856,-0.2284101,0.49452996,0.7846401,-7.8036113,3.3341513,-0.041997787,-2.0278435,3.0760214,1.3879843,0
0.8500000000000005,20.91825376813394,-1.3866857277702374,1.7480583189307033,0.38134825642397074,17.324827,-4.5820994,2.7068865,-0.62921584,10.413996,-10.251868,1.8021884,0.28098413,-0.2395731,0.4926386,0.7880092,-7.8201375,3.5247786,-0.05559415,-1.9275756,2.869079,1.3385885,0
0.8600000000000005,20.91825376813394,-1.3866857277702374,1.7480583189307033,0.38134825642397074,17.324827,-4.5820994,2.7068865,-0.62921584,10.335681,-10.215669,1.8015586,0.26665494,-0.24989259,0.4906153,0.7910399,-7.8438253,3.7152486,-0.070547335,-1.842989,2.6943867,1.2916164,0
0.8700000000000006,20.91825376813394,-1.3866857277702374,1.7480583189307033,0.38134825642397074,17.324827,-4.5820994,2.7068865,-0.62921584,10.257096,-10.177566,1.8007731,0.2529159,-0.25950795,0.48847637,0.79377496,-7.874267,3.9052966,-0.08673979,-1.7716305,2.5469189,1.2469493,0
0.8800000000000006,18.71289603858016,-0.46541506068057314,0.00608069963956062,-0.05260144336368645,14.567323,-2.60752,2.1802747,-0.641871,10.178175,-10.137565,1.79982,0.23969528,-0.26853552,0.48623276,0.7962482,-7.9111094,4.0946975,-0.10406913,-1.7114303,2.4224336,1.204474,0
0.8900000000000006,18.71289603858016,-0.46541506068057314,0.00608069963956062,-0.05260144336368645,14.567323,-2.60752,2.1802747,-0.641871,10.098876,-10.095774,1.7986461,0.22741377,-0.27645835,0.48401102,0.79848963,-7.9494567,4.263385,-0.1308329,-1.5167365,2.0458186,1.142789,0
0.9000000000000006,18.71289603858016,-0.46541506068057314,0.00608069963956062,-0.05260144336368645,14.567323,-2.60752,2.1802747,-0.641871,10.01917,-10.052301,1.7972007,0.21641359,-0.2828854,0.48193136,0.8005509,-7.9925427,4.4312344,-0.15832257,-1.35248,1.7278967,1.0841308,0
0.9100000000000006,18.71289603858016,-0.46541506068057314,0.00608069963956062,-0.05260144336368645,14.567323,-2.60752,2.1802747,-0.641871,9.939012,-10.0071535,1.7954777,0.20652807,-0.28807327,0.47998574,0.80247873,-8.039694,4.5982084,-0.18633407,-1.2138995,1.4595226,1.028351,0
0.9200000000000006,17.129562572156093,0.36850552075724646,-1.6121061606199307,-0.41495609915145926,13.582305,-2.0256002,0.55643564,-1.0278722,9.858364,-9.960341,1.7934728,0.19761264,-0.29223552,0.47816154,0.8043057,-8.090343,4.764302,-0.21469235,-1.096979,1.2329757,0.97530836,0
0.9300000000000006,17.129562572156093,0.36850552075724646,-1.6121061606199307,-0.41495609915145926,13.582305,-2.0256002,0.55643564,-1.0278722,9.777217,-9.9119425,1.7911537,0.1899863,-0.29498616,0.47657505,0.8060788,-8.139419,4.9155583,-0.24911667,-0.8681197,0.7894712,0.9070877,0
0.9400000000000006,17.129562572156093,0.36850552075724646,-1.6121061606199307,-0.41495609915145926,13.582305,-2.0256002,0.55643564,-1.0278722,9.695568,-9.862034,1.7884905,0.18390004,-0.29603407,0.47532374,0.807843,-8.190493,5.066129,-0.2834858,-0.6750291,0.41508958,0.84221464,0
0.9500000000000006,17.129562572156093,0.36850552075724646,-1.6121061606199307,-0.41495609915145926,13.582305,-2.0256002,0.55643564,-1.0278722,9.613402,-9.810622,1.7854849,0.17914449,-0.2956675,0.4743627,0.80960876,-8.242863,5.21614,-0.31758454,-0.5121124,0.09905998,0.7805249,0
0.9600000000000006,15.81780923482645,0.8481144016977338,-2.9718579283518247,-0.6353336098238931,11.368025,-1.9422038,0.18630895,-1.4894596,9.530708,-9.757712,1.7821404,0.17553957,-0.29412568,0.47364786,0.8113766,-8.295938,5.3657103,-0.351235,-0.37465075,-0.16771095,0.72186226,0
0.9700000000000006,15.81780923482645,0.8481144016977338,-2.9718579283518247,-0.6353336098238931,11.368025,-1.9422038,0.18630895,-1.4894596,9.447503,-9.703366,1.7784375,0.17326687,-0.29114494,0.47319072,0.81320477,-8.3451,5.5035286,-0.3892573,-0.1837809,-0.604918,0.65526426,0
0.9800000000000006,15.81780923482645,0.8481144016977338,-2.9718579283518247,-0.6353336098238931,11.368025,-1.9422038,0.18630895,-1.4894596,9.363809,-9.647642,1.7743579,0.17246181,-0.286524,0.4729939,0.8151294,-8.393778,5.641179,-0.42650652,-0.02273938,-0.973971,0.5919342,0
0.9900000000000007,15.81780923482645,0.8481144016977338,-2.9718579283518247,-0.6353336098238931,11.368025,-1.9422038,0.18630895,-1.4894596,9.279632,-9.590543,1.7699107,0.17291805,-0.28052828,0.47300383,0.81711006,-8.441358,5.778781,-0.46278563,0.11314021,-1.2854922,0.53171176,0
1.0000000000000007,15.820749820810166,0.8648844988861143,-3.611260319353386,-0.8349934135004141,11.968077,-1.9349359,0.4975184,-1.7250465,9.194987,-9.532067,1.765106,0.17445898,-0.27337885,0.47317106,0.8191066,-8.487315,5.9164248,-0.49794054,0.22779281,-1.5484486,0.47444448,0
1.0100000000000007,15.820749820810166,0.8648844988861143,-3.611260319353386,-0.8349934135004141,11.968077,-1.9349359,0.4975184,-1.7250465,9.109892,-9.472214,1.759956,0.17707643,-0.2650609,0.47340444,0.8211414,-8.531193,6.0541964,-0.5318314,0.3271688,-1.8701258,0.41019,0
1.0200000000000007,15.820749820810166,0.8648844988861143,-3.611260319353386,-0.8349934135004141,11.968077,-1.9349359,0.4975184,-1.7250465,9.024372,-9.410982,1.7544742,0.18075614,-0.2555705,0.47362337,0.8232195,-8.572497,6.192099,-0.564315,0.4110132,-2.1416485,0.34908843,0
1.0300000000000007,15.820749820810166,0.8648844988861143,-3.611260319353386,-0.8349934135004141,11.968077,-1.9349359,0.4975184,-1.7250465,8.938453,-9.3483715,1.748675,0.18534923,-0.24509235,0.47380018,0.82528013,-8.610784,6.3301296,-0.595257,0.48175693,-2.370836,0.2909852,0
1.0400000000000007,15.820749820810166,0.8648844988861143,-3.611260319353386,-0.8349934135004141,11.570351,-1.8864326,-0.08022013,-1.5870596,8.852167,-9.28438,1.7425746,0.19072793,-0.23378189,0.47391045,0.8272703,-8.645666,6.4682555,-0.62456185,0.54145,-2.564288,0.23573314,0
1.0500000000000007,15.820749820810166,0.8648844988861143,-3.611260319353386,-0.8349934135004141,11.570351,-1.8864326,-0.08022013,-1.5870596,8.765552,-9.219007,1.7361896,0.19678247,-0.22177033,0.47393325,0.82914424,-8.676812,6.606417,-0.6521674,0.5918212,-2.7275753,0.18319228,0
1.0600000000000007,15.820749820810166,0.8648844988861143,-3.611260319353386,-0.8349934135004141,11.570351,-1.8864326,-0.08022013,-1.5870596,8.678645,-9.152251,1.7295374,0.20341837,-0.20916864,0.473851,0.8308628,-8.703935,6.744531,-0.6780396,0.6343286,-2.8654013,0.13322961,0
1.0700000000000007,15.820749820810166,0.8648844988861143,-3.611260319353386,-0.8349934135004141,11.570351,-1.8864326,-0.08022013,-1.5870596,8.591487,-9.084116,1.722635,0.21055418,-0.19607092,0.47364917,0.83239293,-8.726789,6.882494,-0.7021685,0.6702017,-2.9817352,0.08571865,0
1.0800000000000007,15.539997643207107,0.35382594462297895,-3.6628134520845537,-0.8847936387629326,10.81098,-1.9493059,0.2605053,-1.5347248,8.504125,-9.014603,1.7155,0.21811952,-0.18255706,0.47331607,0.8337068,-8.745166,7.020185,-0.7245641,0.7004774,-3.0799282,0.040539056,0
1.0900000000000007,15.539997643207107,0.35382594462297895,-3.6628134520845537,-0.8847936387629326,10.81098,-1.9493059,0.2605053,-1.5347248,8.416602,-8.943727,1.7081426,0.2260319,-0.16872601,0.47266632,0.8348808,-8.75865,7.155026,-0.74661624,0.6463258,-3.1708493,-0.004867291,0
1.1000000000000008,15.539997643207107,0.35382594462297895,-3.6628134520845537,-0.8847936387629326,10.81098,-1.9493059,0.2605053,-1.5347248,8.328968,-8.871504,1.7005733,0.23422551,-0.15466261,0.47155312,0.8359748,-8.767461,7.289272,-0.7669507,0.600619,-3.2475877,-0.048045523,0
1.1100000000000008,15.539997643207107,0.35382594462297895,-3.6628134520845537,-0.8847936387629326,10.81098,-1.9493059,0.2605053,-1.5347248,8.24127,-8.797943,1.6928095,0.2426651,-0.14041047,0.47002044,0.8369455,-8.771527,7.4227185,-0.7855375,0.5620412,-3.3123558,-0.089104995,0
1.1200000000000008,15.215627767745334,-0.5690427415374212,-3.170271492042156,-0.7678823480616469,10.907768,-2.7263918,0.41937026,-1.3546959,8.153555,-8.723052,1.6848686,0.25131878,-0.12600651,0.46810624,0.8377566,-8.770794,7.5551643,-0.802369,0.5294814,-3.367021,-0.12814966,0
1.1300000000000008,15.215627767745334,-0.5690427415374212,-3.170271492042156,-0.7678823480616469,10.907768,-2.7263918,0.41937026,-1.3546959,8.06587,-8.646857,1.6767595,0.26000935,-0.11173468,0.46558705,0.838533,-8.765358,7.6836615,-0.81917715,0.35810143,-3.3363316,-0.15954153,0
1.1400000000000008,15.215627767745334,-0.5690427415374212,-3.170271492042156,-0.7678823480616469,10.907768,-2.7263918,0.41937026,-1.3546959,7.9782634,-8.569384,1.668491,0.2686007,-0.09782568,0.462295,0.839384,-8.755341,7.81074,-0.8342095,0.21345206,-3.3104239,-0.189393,0
1.1500000000000008,15.215627767745334,-0.5690427415374212,-3.170271492042156,-0.7678823480616469,10.907768,-2.7263918,0.41937026,-1.3546959,7.890779,-8.490648,1.6600814,0.2771196,-0.08423552,0.45833457,0.8402601,-8.7409115,7.9361706,-0.8474065,0.091364145,-3.288554,-0.21777964,0
1.1600000000000008,15.05967979011394,-1.742985841808066,-2.4021910169898346,-0.4631143399604098,12.728573,-2.903636,0.2700821,-1.0109907,7.80346,-8.410667,1.6515492,0.28558585,-0.0709259,0.45379382,0.8411183,-8.722224,8.059743,-0.8587297,-0.011680877,-3.270093,-0.24477333,0
1.1700000000000008,15.05967979011394,-1.742985841808066,-2.4021910169898346,-0.4631143399604098,12.728573,-2.903636,0.2700821,-1.0109907,7.716347,-8.329467,1.6429088,0.29381254,-0.058240857,0.44844466,0.84212714,-8.699683,8.180012,-0.869053,-0.28167737,-3.1346993,-0.2554874,0
1.1800000000000008,15.05967979011394,-1.742985841808066,-2.4021910169898346,-0.4631143399604098,12.728573,-2.903636,0.2700821,-1.0109907,7.629479,-8.247076,1.6341751,0.30165768,-0.04645366,0.4421174,0.8434308,-8.673446,8.2980385,-0.87738127,-0.50956863,-3.020424,-0.2656757,0
1.1900000000000008,15.05967979011394,-1.742985841808066,-2.4021910169898346,-0.4631143399604098,12.728573,-2.903636,0.2700821,-1.0109907,7.5428896,-8.163516,1.6253685,0.30919176,-0.035436686,0.43495747,0.8449588,-8.643882,8.413633,-0.8836033,-0.70192116,-2.9239733,-0.27536407,0
1.2000000000000008,15.005442972447208,-2.8878414144722133,-1.3363513150916142,0.012293412552778797,13.783817,-3.6497862,0.8626445,0.18783654,7.4566116,-8.078813,1.6165106,0.31647053,-0.025080362,0.4270861,0.8466484,-8.611313,8.526629,-0.8876343,-0.8642771,-2.8425674,-0.284577,0
1.2100000000000009,15.005442972447208,-2.8878414144722133,-1.3363513150916142,0.012293412552778797,13.783817,-3.6497862,0.8626445,0.18783654,7.370672,-7.992995,1.6076219,0.32329774,-0.015773311,0.41835484,0.8486505,-8.576184,8.63648,-0.8897475,-1.1797824,-2.6076264,-0.27000952,0
1.2200000000000009,15.005442972447208,-2.8878414144722133,-1.3363513150916142,0.012293412552778797,13.783817,-3.6497862,0.8626445,0.18783654,7.285095,-7.9060926,1.5987239,0.32952198,-0.007819156,0.40865546,0.85108966,-8.538881,8.74347,-0.88947845,-1.4460965,-2.409338,-0.25615686,0
1.2300000000000009,15.005442972447208,-2.8878414144722133,-1.3363513150916142,0.012293412552778797,13.783817,-3.6497862,0.8626445,0.18783654,7.1999,-7.8181353,1.589841,0.33524016,-0.001015427,0.39813295,0.8538746,-8.499915,8.847494,-0.8867049,-1.6708884,-2.2419832,-0.24298392,0
1.2400000000000009,15.005442972447208,-2.8878414144722133,-1.3363513150916142,0.012293412552778797,14.791761,-4.482614,1.4877688,0.90375626,7.115101,-7.729153,1.5809988,0.34052935,0.004810401,0.38690707,0.85692376,-8.4597225,8.948459,-0.8813363,-1.860632,-2.1007357,-0.2304574,0
1.2500000000000009,15.005442972447208,-2.8878414144722133,-1.3363513150916142,0.012293412552778797,14.791761,-4.482614,1.4877688,0.90375626,7.0307083,-7.639177,1.5722234,0.34545112,0.00980517,0.37507743,0.8601645,-8.41868,9.046274,-0.87331045,-2.0207913,-1.9815222,-0.21854554,0
1.260000000000001,15.005442972447208,-2.8878414144722133,-1.3363513150916142,0.012293412552778797,14.791761,-4.482614,1.4877688,0.90375626,6.9467287,-7.548239,1.5635418,0.35005453,0.014093759,0.3627273,0.86353385,-8.377114,9.140855,-0.86259186,-2.155979,-1.8809048,-0.2072182,0
1.270000000000001,15.005442972447208,-2.8878414144722133,-1.3363513150916142,0.012293412552778797,14.791761,-4.482614,1.4877688,0.90375626,6.863167,-7.456372,1.554981,0.35437888,0.017782295,0.34992683,0.8669771,-8.335305,9.23212,-0.8491684,-2.2700884,-1.7959826,-0.1964467,0
1.280000000000001,15.065203780730123,-3.66535262660366,-0.4433818977161234,0.533070582459149,15.764371,-4.5770254,0.65984255,0.42024913,6.7800226,-7.3636084,1.5465678,0.35845557,0.020960925,0.33673516,0.8704472,-8.293499,9.31999,-0.833049,-2.3664062,-1.7243067,-0.18620375,0
1.290000000000001,15.065203780730123,-3.66535262660366,-0.4433818977161234,0.533070582459149,15.764371,-4.5770254,0.65984255,0.42024913,6.6972966,-7.2699823,1.5383315,0.3621415,0.02330426,0.32305834,0.87403804,-8.251777,9.404725,-0.81378806,-2.568917,-1.5245817,-0.15090875,0
1.300000000000001,15.065203780730123,-3.66535262660366,-0.4433818977161234,0.533070582459149,15.764371,-4.5770254,0.65984255,0.42024913,6.614985,-7.175526,1.5303013,0.36532038,0.024557913,0.30882373,0.87781805,-8.210696,9.4859295,-0.79183555,-2.7398589,-1.3560121,-0.11734569,0
1.310000000000001,15.065203780730123,-3.66535262660366,-0.4433818977161234,0.533070582459149,15.764371,-4.5770254,0.65984255,0.42024913,6.533079,-7.080276,1.5225041,0.36804962,0.02488867,0.2941059,0.8817145,-8.170655,9.5635605,-0.76719767,-2.8841527,-1.2137367,-0.08542958,0
1.320000000000001,15.320436621824015,-4.15117406380141,0.2811128376543945,1.0543493806296393,16.453476,-4.921082,0.5707639,0.81349814,6.451567,-6.9842677,1.5149665,0.37037525,0.024437962,0.2789678,0.885664,-8.131996,9.637567,-0.7399072,-3.005952,-1.093653,-0.055079605,0
1.330000000000001,15.320436621824015,-4.15117406380141,0.2811128376543945,1.0543493806296393,16.453476,-4.921082,0.5707639,0.81349814,6.3704367,-6.8875318,1.5077256,0.37220213,0.023014177,0.2633964,0.88969487,-8.094412,9.709092,-0.7078492,-3.1845093,-0.8793652,-0.0006396035,0
1.340000000000001,15.320436621824015,-4.15117406380141,0.2811128376543945,1.0543493806296393,16.453476,-4.921082,0.5707639,0.81349814,6.2896714,-6.790099,1.5008185,0.3734501,0.020471616,0.24738322,0.8938211,-8.058968,9.77686,-0.67320603,-3.335236,-0.6985016,0.05112901,0
1.350000000000001,15.320436621824015,-4.15117406380141,0.2811128376543945,1.0543493806296393,16.453476,-4.921082,0.5707639,0.81349814,6.209248,-6.6920075,1.4942702,0.37417212,0.016983239,0.2309841,0.897971,-8.026062,9.840847,-0.6360569,-3.4624684,-0.54584646,0.10035731,0
1.360000000000001,15.231952197472152,-4.206632513456989,0.544119262617125,1.4258992041830914,15.012769,-4.701575,0.80178314,1.0240737,6.12914,-6.593295,1.4881055,0.37441105,0.012695739,0.21424723,0.902082,-7.9960356,9.901016,-0.59650767,-3.5698671,-0.4169984,0.14716998,1
1.370000000000001,15.231952197472152,-4.206632513456989,0.544119262617125,1.4258992041830914,15.012769,-4.701575,0.80178314,1.0240737,6.0493135,-6.4940057,1.4823338,0.37416348,0.007462075,0.19709302,0.9061451,-7.9697356,9.956192,-0.55749464,-3.7463675,-0.22705185,0.19019988,1
1.380000000000001,15.231952197472152,-4.206632513456989,0.544119262617125,1.4258992041830914,15.012769,-4.701575,0.80178314,1.0240737,5.9697328,-6.3941836,1.4769628,0.37342727,0.0011718511,0.17945912,0.91013384,-7.946935,10.007529,-0.51638126,-3.8953493,-0.06672761,0.2311183,1
1.390000000000001,15.231952197472152,-4.206632513456989,0.544119262617125,1.4258992041830914,15.012769,-4.701575,0.80178314,1.0240737,5.890362,-6.293868,1.4720129,0.3722356,-0.00600993,0.16140854,0.91397494,-7.9279895,10.054966,-0.47332034,-4.0211015,0.068595424,0.27002886,1
1.400000000000001,15.402267527489608,-3.8602474367249213,0.5356113719443978,1.617956221148187,16.309988,-4.408422,0.10000977,0.9628607,5.8111587,-6.193098,1.4675025,0.37061527,-0.013942726,0.14299674,0.9176057,-7.9132,10.098433,-0.42849597,-4.1272454,0.18281741,0.30703005,1
1.410000000000001,15.402267527489608,-3.8602474367249213,0.5356113719443978,1.617956221148187,16.309988,-4.408422,0.10000977,0.9628607,5.732087,-6.091896,1.4635106,0.3686364,-0.02220635,0.12427706,0.92096025,-7.901898,10.141252,-0.36963478,-4.171096,0.1698072,0.33921185,1
1.420000000000001,15.402267527489608,-3.8602474367249213,0.5356113719443978,1.617956221148187,16.309988,-4.408422,0.10000977,0.9628607,5.6531043,-5.9902887,1.4601147,0.36635444,-0.030459967,0.10529861,0.9239953,-7.89545,10.179532,-0.30933365,-4.2081075,0.15883018,0.3698145,1
1.430000000000001,15.402267527489608,-3.8602474367249213,0.5356113719443978,1.617956221148187,16.309988,-4.408422,0.10000977,0.9628607,5.5741615,-5.888322,1.457328,0.3637712,-0.03869997,0.086101905,0.92669183,-7.8938785,10.213135,-0.24785231,-4.239347,0.1495693,0.39891544,1
1.440000000000001,15.402267527489608,-3.8602474367249213,0.5356113719443978,1.617956221148187,16.842495,-3.7834313,-0.30628553,0.98729885,5.4952097,-5.7860427,1.4551607,0.36088955,-0.046922985,0.06672301,0.92903364,-7.897192,10.241935,-0.18546124,-4.2657146,0.14175692,0.4265884,0
1.450000000000001,15.402267527489608,-3.8602474367249213,0.5356113719443978,1.617956221148187,16.842495,-3.7834313,-0.30628553,0.98729885,5.4162025,-5.683507,1.4535761,0.35763943,-0.055204056,0.0474649,0.9310167,-7.9049277,10.26451,-0.13140935,-4.2025065,0.20303558,0.48504916,0
1.460000000000001,15.402267527489608,-3.8602474367249213,0.5356113719443978,1.617956221148187,16.842495,-3.7834313,-0.30628553,0.98729885,5.3370953,-5.580768,1.4525336,0.3539659,-0.063605204,0.028572666,0.93265456,-7.917242,10.282494,-0.07704732,-4.149157,0.254767,0.54064125,0
1.470000000000001,15.402267527489608,-3.8602474367249213,0.5356113719443978,1.617956221148187,16.842495,-3.7834313,-0.30628553,0.98729885,5.257842,-5.477872,1.4520351,0.34989268,-0.07210567,0.009998171,0.93395627,-7.9340954,10.295948,-0.022652248,-4.104128,0.2984387,0.5935053,0
1.480000000000001,14.84403975026367,-3.085432475828822,0.2488962248258548,1.6250912279707623,17.504477,-3.5573869,-0.55363077,1.1597434,5.178398,-5.374864,1.4520797,0.3454402,-0.08068748,-0.008298362,0.9349279,-7.9554377,10.304924,0.031510077,-4.06612,0.33530697,0.6437754,0
1.490000000000001,14.84403975026367,-3.085432475828822,0.2488962248258548,1.6250912279707623,17.504477,-3.5573869,-0.55363077,1.1597434,5.098723,-5.2717896,1.4526361,0.3406515,-0.08912154,-0.026098978,0.93559134,-7.9802575,10.309308,0.07968558,-3.9131868,0.32177228,0.6919288,0
1.500000000000001,14.84403975026367,-3.085432475828822,0.2488962248258548,1.6250912279707623,17.504477,-3.5573869,-0.55363077,1.1597434,5.0187793,-5.168692,1.4536709,0.33556846,-0.09722832,-0.04323149,0.93598604,-8.009142,10.30953,0.12717965,-3.7841034,0.31035236,0.73771936,0
1.5100000000000011,14.84403975026367,-3.085432475828822,0.2488962248258548,1.6250912279707623,17.504477,-3.5573869,-0.55363077,1.1597434,4.9385276,-5.0656133,1.4551765,0.33020613,-0.10505986,-0.059788097,0.93613565,-8.041881,10.305699,0.17380549,-3.67515,0.300716,0.78126293,0
1.5200000000000011,14.225350204966064,-1.9886033753993424,-0.11369305940474735,1.4476326522735674,16.8911,-2.763294,-0.90447515,0.99374425,4.857929,-4.9625926,1.4571434,0.32457754,-0.11265969,-0.07584671,0.936057,-8.078287,10.297912,0.21939321,-3.5831876,0.2925846,0.82266986,0
1.5300000000000011,14.225350204966064,-1.9886033753993424,-0.11369305940474735,1.4476326522735674,16.8911,-2.763294,-0.90447515,0.99374425,4.7769575,-4.859667,1.4595306,0.3187553,-0.11978575,-0.091111824,0.9358115,-8.116502,10.286751,0.25785512,-3.3344839,0.22929206,0.85333693,0
1.5400000000000011,14.225350204966064,-1.9886033753993424,-0.11369305940474735,1.4476326522735674,16.8911,-2.763294,-0.90447515,0.99374425,4.695589,-4.7568703,1.4622962,0.31280833,-0.12625243,-0.10535429,0.9354731,-8.157739,10.272064,0.29509968,-3.1245682,0.17586067,0.88249916,0
1.5500000000000012,14.225350204966064,-1.9886033753993424,-0.11369305940474735,1.4476326522735674,16.8911,-2.763294,-0.90447515,0.99374425,4.613794,-4.6542373,1.4654281,0.3067414,-0.13216853,-0.11872464,0.93506354,-8.201691,10.254031,0.33108017,-2.9473915,0.13075325,0.91023046,0
1.5600000000000012,13.550785134744393,-0.910459096980615,-0.7256761406464912,1.1359710154799578,15.651676,-1.9041632,-2.04627,1.1689185,4.531547,-4.5518003,1.4689133,0.3005577,-0.13762498,-0.13135046,0.93459594,-8.248095,10.232805,0.3657616,-2.797848,0.092672355,0.936601,0
1.5700000000000012,13.550785134744393,-0.910459096980615,-0.7256761406464912,1.1359710154799578,15.651676,-1.9041632,-2.04627,1.1689185,4.448836,-4.4495854,1.4727076,0.29432407,-0.14233565,-0.14301541,0.93416196,-8.294391,10.2096815,0.39289445,-2.5034328,-0.034785155,0.94638413,0
1.5800000000000012,13.550785134744393,-0.910459096980615,-0.7256761406464912,1.1359710154799578,15.651676,-1.9041632,-2.04627,1.1689185,4.365653,-4.3476157,1.4767672,0.2881017,-0.14608099,-0.15355551,0.93385035,-8.342429,10.183839,0.4188344,-2.2549422,-0.14239004,0.9556872,0
1.5900000000000012,13.550785134744393,-0.910459096980615,-0.7256761406464912,1.1359710154799578,15.651676,-1.9041632,-2.04627,1.1689185,4.2819824,-4.2459173,1.4810805,0.2818844,-0.14901946,-0.16314116,0.933658,-8.391866,10.155456,0.44366562,-2.045213,-0.2332347,0.9645338,0
1.6000000000000012,13.189106188315433,0.018521087352100552,-1.1898809102080792,0.7404635398162436,14.675635,-1.4944898,-2.3942118,0.8777908,4.197812,-4.144515,1.4856371,0.27566585,-0.15128338,-0.17191643,0.9335761,-8.44241,10.124687,0.46746832,-1.868199,-0.30992982,0.9729463,0
1.6100000000000012,13.189106188315433,0.018521087352100552,-1.1898809102080792,0.7404635398162436,14.675635,-1.4944898,-2.3942118,0.8777908,4.1131387,-4.043427,1.4904107,0.2695105,-0.1527,-0.17971455,0.9336741,-8.492429,10.09256,0.48709956,-1.5738825,-0.44695956,0.96153826,0
1.6200000000000012,13.189106188315433,0.018521087352100552,-1.1898809102080792,0.7404635398162436,14.675635,-1.4944898,-2.3942118,0.8777908,4.027962,-3.9426706,1.4953765,0.26347607,-0.15313911,-0.1864109,0.9340115,-8.542949,10.058435,0.50595325,-1.3254793,-0.5626527,0.95069003,0
1.6300000000000012,13.189106188315433,0.018521087352100552,-1.1898809102080792,0.7404635398162436,14.675635,-1.4944898,-2.3942118,0.8777908,3.9422789,-3.8422647,1.5005276,0.25754714,-0.15275855,-0.19217455,0.9345593,-8.593664,10.022497,0.5241777,-1.1158272,-0.6603316,0.94037414,0
1.6400000000000012,13.189106188315433,0.018521087352100552,-1.1898809102080792,0.7404635398162436,14.617637,-1.0902826,-2.5383677,0.6246909,3.8560889,-3.7422266,1.5058583,0.25170964,-0.15168999,-0.1971481,0.93528754,-8.644319,9.9849,0.54190344,-0.9388806,-0.74280035,0.93056446,0
1.6500000000000012,13.189106188315433,0.018521087352100552,-1.1898809102080792,0.7404635398162436,14.617637,-1.0902826,-2.5383677,0.6246909,3.7693934,-3.642572,1.5113643,0.24595106,-0.15004344,-0.20145188,0.93616766,-8.694699,9.945783,0.5592444,-0.7895372,-0.81242704,0.9212361,0
1.6600000000000013,13.189106188315433,0.018521087352100552,-1.1898809102080792,0.7404635398162436,14.617637,-1.0902826,-2.5383677,0.6246909,3.6821966,-3.5433156,1.5170422,0.24026054,-0.14791079,-0.2051875,0.9371729,-8.744626,9.90526,0.5762981,-0.6634908,-0.8712113,0.9123655,0
1.6700000000000013,13.189106188315433,0.018521087352100552,-1.1898809102080792,0.7404635398162436,14.617637,-1.0902826,-2.5383677,0.6246909,3.5945032,-3.4444711,1.5228895,0.23462865,-0.14536892,-0.20844075,0.938279,-8.793946,9.863438,0.5931478,-0.5571069,-0.92084116,0.9039301,0
1.6800000000000013,13.09139793513697,0.6267742210048958,-1.479357333130304,0.3087618371775272,14.384764,-0.67372733,-2.19763,0.08533754,3.5063202,-3.346051,1.5289047,0.22904733,-0.14248218,-0.21128416,0.93946415,-8.842531,9.820405,0.6098636,-0.46731833,-0.9627425,0.8959088,0
1.6900000000000013,13.09139793513697,0.6267742210048958,-1.479357333130304,0.3087618371775272,14.384764,-0.67372733,-2.19763,0.08533754,3.4176574,-3.2480655,1.5350823,0.22356986,-0.13912912,-0.2135841,0.94076526,-8.88991,9.776577,0.62566173,-0.29666772,-1.0432031,0.86709726,0
1.7000000000000013,13.09139793513697,0.6267742210048958,-1.479357333130304,0.3087618371775272,14.384764,-0.67372733,-2.19763,0.08533754,3.3285255,-3.150523,1.541418,0.21824399,-0.13521548,-0.21523766,0.9422085,-8.9362755,9.731762,0.64149183,-0.15263908,-1.111137,0.8396996,0
1.7100000000000013,13.09139793513697,0.6267742210048958,-1.479357333130304,0.3087618371775272,14.384764,-0.67372733,-2.19763,0.08533754,3.238936,-3.0534334,1.5479126,0.21305567,-0.13082732,-0.21634278,0.94376117,-8.98147,9.686086,0.6574507,-0.031078411,-1.1684936,0.8136463,0
1.7200000000000013,12.996211430309554,1.0625341766113432,-1.4730864469050375,-0.11272252276356946,14.312925,-0.14464577,-2.3229964,-0.14594708,3.1489005,-2.9568043,1.5545677,0.20799257,-0.12603682,-0.21698213,0.94539434,-9.025356,9.63966,0.6736174,0.0715194,-1.2169194,0.7888715,0
1.7300000000000013,12.996211430309554,1.0625341766113432,-1.4730864469050375,-0.11272252276356946,14.312925,-0.14464577,-2.3229964,-0.14594708,3.058435,-2.8606408,1.5613817,0.20311548,-0.120859794,-0.21706656,0.9471098,-9.067509,9.592936,0.6892271,0.22605187,-1.2567956,0.74463004,0
1.7400000000000013,12.996211430309554,1.0625341766113432,-1.4730864469050375,-0.11272252276356946,14.312925,-0.14464577,-2.3229964,-0.14594708,2.9675555,-2.7649472,1.5683535,0.1984778,-0.11531109,-0.2165293,0.9489062,-9.108129,9.545718,0.7051904,0.35648182,-1.2904725,0.70255953,0
1.7500000000000013,12.996211430309554,1.0625341766113432,-1.4730864469050375,-0.11272252276356946,14.312925,-0.14464577,-2.3229964,-0.14594708,2.876278,-2.6697276,1.575487,0.19405915,-0.10944521,-0.21546483,0.95075536,-9.14711,9.498151,0.7215791,0.46656898,-1.3189127,0.6625534,0
1.7600000000000013,12.711875070588535,1.2132463433631406,-1.5169311637230651,-0.4905090226313685,14.219792,0.1342055,-2.1821373,-0.27672514,2.784619,-2.5749848,1.5827868,0.18984166,-0.103308015,-0.21395281,0.9526331,-9.184365,9.450358,0.73844826,0.55948645,-1.3429296,0.6245104,0
1.7700000000000014,12.711875070588535,1.2132463433631406,-1.5169311637230651,-0.4905090226313685,14.219792,0.1342055,-2.1821373,-0.27672514,2.692601,-2.4807155,1.5902452,0.18585642,-0.09690015,-0.21201096,0.9545245,-9.219038,9.403502,0.7533138,0.66140205,-1.3700469,0.569796,0
1.7800000000000014,12.711875070588535,1.2132463433631406,-1.5169311637230651,-0.4905090226313685,14.219792,0.1342055,-2.1821373,-0.27672514,2.6002448,-2.3869147,1.597855,0.18213265,-0.09022306,-0.20965677,0.95641494,-9.251869,9.356649,0.7687293,0.7474232,-1.3929468,0.51776654,0
1.7900000000000014,12.711875070588535,1.2132463433631406,-1.5169311637230651,-0.4905090226313685,14.219792,0.1342055,-2.1821373,-0.27672514,2.5075698,-2.293582,1.6056218,0.17865261,-0.08331368,-0.20695177,0.95828545,-9.282789,9.309903,0.7847238,0.8200291,-1.4122839,0.46829015,0
1.8000000000000014,12.017284195362231,1.0824938227025676,-1.5437923109627127,-0.7609601032686529,13.609696,-0.18242224,-2.4994998,-0.29457983,2.4145956,-2.200716,1.6135516,0.17540038,-0.07620341,-0.20394783,0.96012026,-9.31174,9.263355,0.8013144,0.8813123,-1.4286118,0.42124155,0
1.8100000000000014,12.017284195362231,1.0824938227025676,-1.5437923109627127,-0.7609601032686529,13.609696,-0.18242224,-2.4994998,-0.29457983,2.3213494,-2.1083014,1.6216187,0.17238759,-0.06891107,-0.20074335,0.96189076,-9.3372,9.219612,0.8122076,0.91263676,-1.4466,0.3632306,0
1.8200000000000014,12.017284195362231,1.0824938227025676,-1.5437923109627127,-0.7609601032686529,13.609696,-0.18242224,-2.4994998,-0.29457983,2.2278585,-2.0163226,1.6297977,0.16962704,-0.06145221,-0.19741873,0.96357363,-9.360713,9.176183,0.8236618,0.93907696,-1.4617846,0.30806622,0
1.8300000000000014,12.017284195362231,1.0824938227025676,-1.5437923109627127,-0.7609601032686529,13.609696,-0.18242224,-2.4994998,-0.29457983,2.1341422,-1.9247764,1.6380938,0.16710618,-0.05384753,-0.19398995,0.9651641,-9.382247,9.133106,0.8356613,0.96139485,-1.4746019,0.2556088,0
1.8400000000000014,12.017284195362231,1.0824938227025676,-1.5437923109627127,-0.7609601032686529,12.5671425,-0.19708212,-2.6551445,-0.4732295,2.0402205,-1.8336592,1.6465125,0.1648131,-0.0461149,-0.1904704,0.9666587,-9.4017725,9.090421,0.848186,0.9802337,-1.4854208,0.20572546,0
1.8500000000000014,12.017284195362231,1.0824938227025676,-1.5437923109627127,-0.7609601032686529,12.5671425,-0.19708212,-2.6551445,-0.4732295,1.9461137,-1.7429665,1.655059,0.16273646,-0.038269836,-0.18687125,0.9680544,-9.419266,9.04816,0.8612124,0.996136,-1.4945525,0.15828992,0
1.8600000000000014,12.017284195362231,1.0824938227025676,-1.5437923109627127,-0.7609601032686529,12.5671425,-0.19708212,-2.6551445,-0.4732295,1.8518423,-1.6526942,1.6637383,0.16086549,-0.030325865,-0.18320179,0.9693491,-9.434706,9.006353,0.87471396,1.0095602,-1.5022595,0.11318205,0
1.8700000000000014,12.017284195362231,1.0824938227025676,-1.5437923109627127,-0.7609601032686529,12.5671425,-0.19708212,-2.6551445,-0.4732295,1.7574267,-1.5628377,1.6725549,0.15918988,-0.022294803,-0.1794698,0.9705411,-9.448075,8.965029,0.8886616,1.0208923,-1.5087641,0.070287645,0
1.8800000000000014,11.312519123226089,0.7766624358226529,-1.520377839470874,-0.9050097644341363,12.452322,-0.5748001,-3.181984,-0.22945486,1.6628879,-1.4733919,1.6815131,0.15769985,-0.014187006,-0.17568175,0.97162926,-9.459357,8.9242115,0.9030241,1.0304588,-1.5142537,0.02949806,0
1.8900000000000015,11.312519123226089,0.7766624358226529,-1.520377839470874,-0.9050097644341363,12.452322,-0.5748001,-3.181984,-0.22945486,1.5682495,-1.3843398,1.6905838,0.15640366,-0.006036839,-0.17196083,0.9725887,-9.468003,8.886282,0.91114837,0.99083424,-1.5152392,-0.016358525,0
1.9000000000000015,11.312519123226089,0.7766624358226529,-1.520377839470874,-0.9050097644341363,12.452322,-0.5748001,-3.181984,-0.22945486,1.4735346,-1.2956647,1.6997373,0.1553102,0.0021281724,-0.16840513,0.9734022,-9.474679,8.848831,0.91958404,0.9573911,-1.5160676,-0.059964895,0
1.9100000000000015,11.312519123226089,0.7766624358226529,-1.520377839470874,-0.9050097644341363,12.452322,-0.5748001,-3.181984,-0.22945486,1.3787626,-1.2073617,1.7089765,0.15441085,0.010308637,-0.16498576,0.97407836,-9.479393,8.811835,0.9282832,0.92916554,-1.516764,-0.10143149,0
1.9200000000000015,10.556632048283978,0.337681186798624,-1.4141612737784466,-0.9277560835126462,12.015848,-0.80919915,-3.269112,-0.23432074,1.2839534,-1.1194266,1.7183038,0.153697,0.018504716,-0.16167818,0.97462445,-9.482153,8.775275,0.93720067,0.90534365,-1.5173494,-0.1408633,0
1.9300000000000015,10.556632048283978,0.337681186798624,-1.4141612737784466,-0.9277560835126462,12.015848,-0.80919915,-3.269112,-0.23432074,1.1891267,-1.0318427,1.7276852,0.15317345,0.026648264,-0.1586263,0.97501963,-9.482914,8.741543,0.93912846,0.8167808,-1.5012698,-0.17947635,0
1.9400000000000015,10.556632048283978,0.337681186798624,-1.4141612737784466,-0.9277560835126462,12.015848,-0.80919915,-3.269112,-0.23432074,1.0943013,-0.9445945,1.7370865,0.15284465,0.0346852,-0.15594356,0.9752512,-9.481898,8.708139,0.941164,0.7420315,-1.4876945,-0.21619466,0
1.9500000000000015,10.556632048283978,0.337681186798624,-1.4141612737784466,-0.9277560835126462,12.015848,-0.80919915,-3.269112,-0.23432074,0.9994948,-0.85767895,1.7465086,0.15270132,0.042634163,-0.1535694,0.9753353,-9.479142,8.675001,0.943255,0.67894125,-1.4762337,-0.25111118,0
1.9600000000000015,10.035918497725884,-0.08927414002621654,-1.201748604762278,-0.8617766389574094,12.353152,-0.47147447,-3.4547198,-0.97309434,0.9047243,-0.7710937,1.7559516,0.1527341,0.05051066,-0.1514526,0.975285,-9.474678,8.642076,0.94535464,0.6256919,-1.4665583,-0.28431433,0
1.9700000000000015,10.035918497725884,-0.08927414002621654,-1.201748604762278,-0.8617766389574094,12.353152,-0.47147447,-3.4547198,-0.97309434,0.8100055,-0.6848288,1.7653909,0.15294789,0.058217324,-0.14970393,0.9750919,-9.468844,8.610927,0.94247806,0.5141747,-1.4252504,-0.3126506,0
1.9800000000000015,10.035918497725884,-0.08927414002621654,-1.201748604762278,-0.8617766389574094,12.353152,-0.47147447,-3.4547198,-0.97309434,0.71535265,-0.5988749,1.774801,0.15334545,0.06567747,-0.14840937,0.97475326,-9.461485,8.579856,0.9395213,0.42004988,-1.390384,-0.33959636,0
1.9900000000000015,10.035918497725884,-0.08927414002621654,-1.201748604762278,-0.8617766389574094,12.353152,-0.47147447,-3.4547198,-0.97309434,0.62078077,-0.5132317,1.7841809,0.15391469,0.07293074,-0.14749533,0.9742865,-9.452665,8.548787,0.9364414,0.3406048,-1.3609546,-0.3652199,0
2.0000000000000013,,,,,11.643158,-0.84885436,-2.979368,-0.5612365,0.5263041,-0.4278994,1.7935293,0.15464412,0.080010474,-0.14689964,0.9737051,-9.442442,8.517657,0.93320066,0.27355,-1.336115,-0.3895861,0
2.010000000000001,,,,,11.643158,-0.84885436,-2.979368,-0.5612365,0.43193406,-0.34287214,1.8028237,0.15554266,0.08675944,-0.14665851,0.9730202,-9.431377,8.487773,0.9256359,0.17144853,-1.2490959,-0.40672716,0
2.020000000000001,,,,,11.643158,-0.84885436,-2.979368,-0.5612365,0.3376807,-0.25814453,1.8120414,0.15661506,0.09305434,-0.1467984,0.97224516,-9.419122,8.457715,0.9178598,0.08526851,-1.1756498,-0.42302713,0
2.0300000000000007,,,,,11.643158,-0.84885436,-2.979368,-0.5612365,0.24355541,-0.17371862,1.8211801,0.15784499,0.09896672,-0.14725766,0.97139263,-9.405771,8.427426,0.90985125,0.012527168,-1.1136595,-0.43852723,0
2.0400000000000005,,,,,11.643158,-0.84885436,-2.979368,-0.5612365,0.14956874,-0.08959696,1.8302376,0.1592177,0.10455688,-0.14798418,0.9704722,-9.391412,8.396857,0.90159273,-0.04887116,-1.0613382,-0.45326674,0
2.0500000000000003,,,,,11.190884,-1.1142677,-2.4423819,-0.18085776,0.055730388,-0.005782569,1.8392112,0.16071993,0.10987567,-0.14893402,0.9694912,-9.376116,8.365968,0.89306945,-0.100695655,-1.0171784,-0.46728298,1
2.06,,,,,11.190884,-1.1142677,-2.4423819,-0.18085776,-0.037937194,0.07769524,1.8481723,0.16220583,0.11555339,-0.15046927,0.96834594,-9.357233,8.3295145,0.8990755,-0.258818,-1.2393923,-0.45322803,1
2.07,,,,,11.190884,-1.1142677,-2.4423819,-0.18085776,-0.1314103,0.16080558,1.8571913,0.16354816,0.12208743,-0.15287566,0.9669404,-9.337195,8.292442,0.9046459,-0.39226794,-1.4269618,-0.43986273,1
2.0799999999999996,,,,,11.190884,-1.1142677,-2.4423819,-0.18085776,-0.22467667,0.24354129,1.8662634,0.16476071,0.12933815,-0.15601549,0.965289,-9.315866,8.254555,0.90966207,-0.50489587,-1.5852878,-0.42715323,1
2.0899999999999994,,,,,10.083553,-1.2756736,-2.1498256,-0.055241685,-0.31772283,0.3258933,1.8753824,0.1658546,0.13718735,-0.15977189,0.9634018,-9.293135,8.215689,0.914012,-0.5999507,-1.7189295,-0.41506746,1
2.099999999999999,,,,,10.083553,-1.2756736,-2.1498256,-0.055241685,-0.41054612,0.4078709,1.8844907,0.16685204,0.14540903,-0.16409054,0.9612955,-9.271317,8.179664,0.90752894,-0.7053271,-1.7861072,-0.39741072,1
2.109999999999999,,,,,10.083553,-1.2756736,-2.1498256,-0.055241685,-0.5031445,0.48948276,1.8935304,0.16777037,0.15381883,-0.16892347,0.9589869,-9.2481365,8.142528,0.90026444,-0.7942669,-1.8428146,-0.3806204,1
2.1199999999999988,,,,,10.083553,-1.2756736,-2.1498256,-0.055241685,-0.5955042,0.57071733,1.902493,0.1686115,0.16238032,-0.17418745,0.95648295,-9.223591,8.104192,0.8921383,-0.8693343,-1.8906832,-0.36465394,1
2.1299999999999986,,,,,10.125616,-1.3412536,-1.5199144,0.28406444,-0.6876116,0.65156215,1.9113698,0.16937701,0.17106254,-0.17981206,0.9537897,-9.19768,8.064585,0.8830736,-0.93269324,-1.9310905,-0.34947097,1
2.1399999999999983,,,,,10.125616,-1.3412536,-1.5199144,0.28406444,-0.77945256,0.7320035,1.9201528,0.17007896,0.17958724,-0.1857273,0.9509601,-9.170306,8.02348,0.8733675,-0.99635565,-1.8669734,-0.31838322,1
2.149999999999998,,,,,10.125616,-1.3412536,-1.5199144,0.28406444,-0.8710133,0.81202704,1.9288335,0.17072451,0.18773295,-0.19187684,0.94804585,-9.141653,7.981013,0.8626057,-1.0500962,-1.8128588,-0.28882095,1
2.159999999999998,,,,,10.125616,-1.3412536,-1.5199144,0.28406444,-0.9622816,0.891619,1.937401,0.17130835,0.1955518,-0.19822386,0.94504935,-9.111812,7.9371624,0.8507556,-1.0954609,-1.7671858,-0.2607093,1
2.1699999999999977,,,,,10.614776,-1.2424818,-0.6195825,0.48799327,-1.0532458,0.9707655,1.9458447,0.17182618,0.20308773,-0.20473716,0.9419723,-9.080857,7.8919163,0.83778524,-1.1337552,-1.7286372,-0.23397706,1
2.1799999999999975,,,,,10.614776,-1.2424818,-0.6195825,0.48799327,-1.1438874,1.0494413,1.9541731,0.17231768,0.21004072,-0.21129666,0.9389043,-9.047326,7.843018,0.82772875,-1.1506486,-1.5557048,-0.19854976,1
2.1899999999999973,,,,,10.614776,-1.2424818,-0.6195825,0.48799327,-1.234189,1.1276209,1.9623951,0.17281486,0.21617697,-0.21780834,0.9359274,-9.012867,7.792687,0.8164988,-1.1649199,-1.4097409,-0.1648609,1
2.199999999999997,,,,,10.614776,-1.2424818,-0.6195825,0.48799327,-1.3241421,1.2052903,1.9704992,0.17330398,0.22161941,-0.22428255,0.9330305,-8.977638,7.740962,0.804134,-1.1769753,-1.2865392,-0.13282517,1
2.209999999999997,,,,,10.308176,-0.823796,0.47368369,0.7329546,-1.4137396,1.2824355,1.9784741,0.17377333,0.22647145,-0.23072775,0.93020225,-8.941772,7.6878777,0.7906671,-1.1871582,-1.1825503,-0.102361426,1
2.2199999999999966,,,,,10.308176,-0.823796,0.47368369,0.7329546,-1.502981,1.3590511,1.986297,0.17424902,0.23043618,-0.23692636,0.9275777,-8.9064455,7.635048,0.7737249,-1.1304499,-0.92429566,-0.061372235,1
2.2299999999999964,,,,,10.308176,-0.823796,0.47368369,0.7329546,-1.5918673,1.4351324,1.9939456,0.17475107,0.2332846,-0.24270932,0.92527324,-8.870801,7.5810347,0.7558606,-1.0826004,-0.7063111,-0.02239437,1
