t,px,py,pz,qx,qy,qz,qw,vx,vy,vz,wx,wy,wz,throttle_mpc,roll_mpc,pitch_mpc,yaw_mpc,throttle_nw,roll_nw,pitch_nw,yaw_nw,network_used
-2.0,18.053507,-10.562094,2.045745,-0.37330599999999997,0.38108787,0.8426321,-0.073387936,-11.657954,-3.9160275,-0.11448013,1.4608555,-0.09615967,-0.04983634,10.924464856947736,5.9999994117083695,-5.999999958086886,-5.999998968366215,10.838933,-1.6855924999999998,-3.3076934999999996,-1.0415078000000002,0
-1.99,17.936208999999998,-10.600636,2.0445604,-0.37346268,0.38677946,0.8402674000000001,-0.069842875,-11.801139,-3.7922089999999997,-0.12309364,1.3548547,-0.20318419,-0.24855888,10.924464856947736,5.9999994117083695,-5.999999958086886,-5.999998968366215,14.67646,-5.752372,-5.5215825999999995,0.5330313,0
-1.98,17.8175,-10.637942,2.0432696,-0.37353159999999996,0.3917118,0.83830243,-0.065460466,-11.940028,-3.669366,-0.13566242,1.2659645,-0.29409376,-0.44235978,10.924464856947736,5.9999994117083695,-5.999999958086886,-5.999998968366215,14.67646,-5.752372,-5.5215825999999995,0.5330313,0
-1.97,17.697422,-10.6740265,2.0418348,-0.37357923,0.39595386,0.8366766,-0.06026074,-12.0746155,-3.5475944999999998,-0.15182059,1.1914138,-0.37129956,-0.6313608,10.924464856947736,5.9999994117083695,-5.999999958086886,-5.999998968366215,14.67646,-5.752372,-5.5215825999999995,0.5330313,0
-1.96,17.576021,-10.708899,2.0402217,-0.37365934,0.39956328,0.83533424,-0.05426394599999999,-12.204918,-3.4269742999999995,-0.17125334,1.1288825,-0.43685379999999996,-0.81568104,10.924464856947736,5.9999994117083695,-5.999999958086886,-5.999998968366215,6.5916605,-3.3618093,-4.7497478,-2.102215,0
-1.95,17.453339,-10.742571,2.0383991999999997,-0.37381488,0.4025881,0.83422416,-0.04749034,-12.330969999999999,-3.3075707000000003,-0.19368832,1.0764263,-0.49250475,-0.9954361999999999,10.924464856947736,5.9999994117083695,-5.999999958086886,-5.999998968366215,6.5916605,-3.3618093,-4.7497478,-2.102215,0
-1.94,17.329414,-10.775053,2.03634,-0.3740603,0.40508979999999994,0.8332980999999999,-0.039943464,-12.453607,-3.1886683,-0.2184158,1.0456363000000002,-0.5529783,-1.169614,10.924464856947736,5.9999994117083695,-5.999999958086886,-5.999998968366215,6.5916605,-3.3618093,-4.7497478,-2.102215,0
-1.93,17.204275,-10.806345,2.034025,-0.37433696,0.40719303,0.8325075999999999,-0.031571063999999996,-12.573464999999999,-3.0696652,-0.24487357,1.0450485999999999,-0.6294614000000001,-1.3375167,10.924464856947736,5.9999994117083695,-5.999999958086886,-5.999998968366215,6.5916605,-3.3618093,-4.7497478,-2.102215,0
-1.92,17.077951000000002,-10.836447,2.031437,-0.37457165,0.40902075,0.83180535,-0.02231485,-12.690397,-2.9506333,-0.27297459999999996,1.0708091,-0.7203233,-1.4995292,12.825415824501507,5.999999825177553,-5.999999991837781,-5.999999147315023,12.534289999999999,-4.309621,-7.113618400000001,-0.76985997,0
-1.91,16.950429999999997,-10.865311,2.0285873,-0.37459284,0.41078246,0.83114,-0.012013616000000001,-12.813219,-2.8221898,-0.29723802,1.1708018999999998,-0.8754371999999999,-1.6605896,12.825415824501507,5.999999825177553,-5.999999991837781,-5.999999147315023,12.534289999999999,-4.309621,-7.113618400000001,-0.76985997,0
-1.9,16.8217,-10.892891,2.0254865,-0.37423850000000003,0.41265684,0.83045745,-0.0005221809,-12.932281,-2.6938157000000005,-0.32321063,1.2872742,-1.0385095,-1.8166168999999999,12.825415824501507,5.999999825177553,-5.999999991837781,-5.999999147315023,12.534289999999999,-4.309621,-7.113618400000001,-0.76985997,0
-1.89,16.691797,-10.919186999999999,2.0221174,-0.3734528,0.41469535,0.8297062,0.012182407,-13.047301,-2.5653900000000003,-0.35081625,1.4178773,-1.2085215,-1.9678779,12.825415824501507,5.999999825177553,-5.999999991837781,-5.999999147315023,12.534289999999999,-4.309621,-7.113618400000001,-0.76985997,0
-1.8800000000000001,16.560766,-10.944198,2.0184646,-0.37218085,0.41693613,0.8288325999999999,0.026116987999999997,-13.157991,-2.4367945,-0.3799787,1.5605412,-1.3845239,-2.1146182999999996,12.825415824501507,5.999999825177553,-5.999999991837781,-5.999999147315023,12.534289999999999,-4.309621,-7.113618400000001,-0.76985997,0
-1.87,16.428654,-10.967921,2.0145125,-0.37036827,0.41940522,0.827781,0.04129243,-13.26405,-2.3079207000000004,-0.41061935,1.7134401999999997,-1.5656368999999999,-2.2570650000000003,16.063350900603215,5.9999999642720345,-6.0,-5.840460571070152,10.228128,-1.9937098000000002,-7.556674,0.3830429,0
-1.8599999999999999,16.295443,-10.990274000000001,2.0102881999999997,-0.36771923,0.42233086,0.8264759,0.057936814,-13.377642000000002,-2.1626847000000002,-0.43449196,1.9845115000000002,-1.8609401,-2.397399,16.063350900603215,5.9999999642720345,-6.0,-5.840460571070152,10.228128,-1.9937098000000002,-7.556674,0.3830429,0
-1.85,16.161125,-11.011174,2.0058172,-0.36395362,0.42589504,0.82482535,0.076250605,-13.484882,-2.0171323,-0.45999914,2.2542944,-2.1512616,-2.5345144,16.063350900603215,5.9999999642720345,-6.0,-5.840460571070152,10.228128,-1.9937098000000002,-7.556674,0.3830429,0
-1.84,16.02577,-11.030616,2.0010831000000002,-0.3590399,0.43003969999999997,0.822741,0.096194625,-13.585237,-1.8710598000000003,-0.48701359999999994,2.5223103,-2.4366908,-2.6685084999999997,19.34224521732504,5.9999999934058215,-6.0,-5.015346815720076,12.803021000000001,-0.90630436,-7.6124077,0.13832721,0
-1.83,15.889414000000002,-11.048539,1.9960971,-0.3524372,0.43508690000000005,0.8200874,0.11808468400000001,-13.684709,-1.713931,-0.5104628999999999,2.9915599999999998,-2.921368,-2.7771852000000004,19.34224521732504,5.9999999934058215,-6.0,-5.015346815720076,12.803021000000001,-0.90630436,-7.6124077,0.13832721,0
-1.82,15.752108999999999,-11.064891000000001,1.9908682,-0.34364063,0.44126827,0.8166875,0.14217852,-13.774842999999999,-1.5566034,-0.5355641,3.4389255,-3.3818,-2.8851175,19.34224521732504,5.9999999934058215,-6.0,-5.015346815720076,12.803021000000001,-0.90630436,-7.6124077,0.13832721,0
-1.81,15.613948,-11.079661,1.9853846000000002,-0.33271524,0.44834837,0.81237984,0.16829460000000002,-13.855889999999999,-1.3966941000000002,-0.5611026,3.8372989,-3.7911153,-2.9896483,19.34224521732504,5.9999999934058215,-6.0,-5.015346815720076,12.803021000000001,-0.90630436,-7.6124077,0.13832721,0
-1.8,15.475022000000001,-11.092811,1.9796478,-0.3198661,0.45600608,0.8070203,0.19611786,-13.927559,-1.2325836000000001,-0.58616483,4.173633000000001,-4.1365137,-3.0890498,20.99999975218485,5.9999999897453735,-6.0,-4.25131647731704,13.193172,-1.1298668,-8.666903,1.2763475,0
-1.79,15.335405999999999,-11.104227,1.9736949000000001,-0.305259,0.46397546,0.80050105,0.22525913,-13.993955,-1.050143,-0.60429937,4.4577045,-4.4278603,-3.1460826,20.99999975218485,5.9999999897453735,-6.0,-4.25131647731704,13.193172,-1.1298668,-8.666903,1.2763475,0
-1.7799999999999998,15.195186999999999,-11.1138,1.9675647,-0.2890388,0.47203305,0.79273564,0.25536525,-14.047839999999999,-0.86397517,-0.62162966,4.697557,-4.6736913,-3.2003169999999996,20.99999975218485,5.9999999897453735,-6.0,-4.25131647731704,13.193172,-1.1298668,-8.666903,1.2763475,0
-1.77,15.054495000000001,-11.121496,1.9612656000000002,-0.27137563,0.47996268,0.78363734,0.2861877,-14.088266,-0.6748283,-0.63803774,4.900077,-4.881115,-3.25189,20.99999975218485,5.9999999897453735,-6.0,-4.25131647731704,13.193172,-1.1298668,-8.666903,1.2763475,0
-1.7599999999999998,14.913470000000002,-11.127291,1.9548074,-0.25242406,0.48758167,0.77313644,0.31749988,-14.114435999999998,-0.48363,-0.65342504,5.0710773,-5.056128500000001,-3.3009322,20.99999975218485,5.9999999897453735,-6.0,-4.25131647731704,15.035142,-1.4126751,-8.773889,0.8784192,0
-1.75,14.772257000000002,-11.131166,1.9482008000000002,-0.23232584,0.49473634,0.7611791,0.34909442,-14.125715,-0.29145770000000004,-0.6677126,5.215466999999999,-5.203794,-3.347568,20.99999975218485,5.9999999897453735,-6.0,-4.25131647731704,15.035142,-1.4126751,-8.773889,0.8784192,0
-1.7399999999999998,14.631008999999999,-11.133121000000001,1.941457,-0.21121198,0.5012979999999999,0.7477269,0.38078094,-14.121630999999999,-0.09950975,-0.6808406,5.337389,-5.328382,-3.391915,20.99999975218485,5.9999999897453735,-6.0,-4.25131647731704,15.035142,-1.4126751,-8.773889,0.8784192,0
-1.73,14.48988,-11.133161999999999,1.9345881,-0.18920429,0.5071593,0.7327555,0.41238400000000003,-14.101884,0.09092230000000001,-0.6927675999999999,5.440342,-5.4334974,-3.434086,20.99999975218485,5.9999999897453735,-6.0,-4.25131647731704,15.035142,-1.4126751,-8.773889,0.8784192,0
-1.72,14.349025,-11.131311,1.9276060000000002,-0.16641663,0.51223123,0.71625274,0.44374165,-14.066345000000002,0.2784803,-0.70346975,5.527278,-5.522182,-3.4741879,21.0,5.999999850737139,-5.999999955789972,-3.370308059875537,15.808948000000001,1.1198798,-7.706969,-0.5143519,0
-1.71,14.208606,-11.127605,1.9205229,-0.14290029,0.5164591,0.6982683000000001,0.474627,-14.015058499999999,0.46176459999999997,-0.7129397,5.600848,-5.596845,-3.4690905,21.0,5.999999850737139,-5.999999955789972,-3.370308059875537,15.808948000000001,1.1198798,-7.706969,-0.5143519,0
-1.7,14.068776999999999,-11.122095,1.9133513999999998,-0.11870422,0.5197997999999999,0.6788664000000001,0.50483435,-13.948236999999999,0.63935924,-0.72118855,5.662971499999999,-5.6598396,-3.4642434,21.0,5.999999850737139,-5.999999955789972,-3.370308059875537,15.808948000000001,1.1198798,-7.706969,-0.5143519,0
-1.69,13.929694,-11.114842,1.9061032999999998,-0.09392946,0.52220297,0.6580715,0.53424996,-13.86626,0.80985516,-0.72824776,5.715429,-5.712989299999999,-3.4596337999999998,21.0,5.999999850737139,-5.999999955789972,-3.370308059875537,15.808948000000001,1.1198798,-7.706969,-0.5143519,0
-1.68,13.791503,-11.1059265,1.8987901999999999,-0.068672046,0.52362835,0.63591504,0.5627694000000001,-13.769661,0.9718707000000001,-0.734168,5.759723,-5.7578316,-3.4552504999999996,21.0,3.812899072288647,-5.999999542607745,0.060607015903662215,16.328344,1.1969677,-6.5945789999999995,-0.2633027,0
-1.67,13.654347,-11.095439,1.8914237,-0.043304123,0.52353454,0.6131479999999999,0.58998793,-13.659195,1.124089,-0.7389699000000001,5.456685500000001,-5.7942995999999996,-3.2827262999999998,21.0,3.812899072288647,-5.999999542607745,0.060607015903662215,16.328344,1.1969677,-6.5945789999999995,-0.2633027,0
-1.66,13.518362,-11.083483,1.8840156000000003,-0.01813307,0.5215519000000001,0.59047633,0.6156235,-13.536094,1.2653927,-0.7424236999999999,5.200894,-5.825273,-3.1186678,21.0,3.812899072288647,-5.999999542607745,0.060607015903662215,16.328344,1.1969677,-6.5945789999999995,-0.2633027,0
-1.65,13.383664999999999,-11.070171,1.8765808000000002,0.0068486216,0.51787823,0.5678685,0.6397503000000001,-13.401722,1.3948523000000002,-0.7442757,4.984978,-5.8515744000000005,-2.9626598,21.0,3.812899072288647,-5.999999542607745,0.060607015903662215,16.328344,1.1969677,-6.5945789999999995,-0.2633027,0
-1.64,13.250360999999998,-11.055629,1.8691362,0.03164722,0.5126782999999999,0.5452963000000001,0.6624283000000001,-13.2574215,1.5116795,-0.7443521,4.8027177000000005,-5.8739040000000005,-2.8143075,21.0,2.484376000629775,-3.9214584664230623,1.5042026573018965,15.881298999999999,0.85256016,-4.678826,0.8157992,0
-1.63,13.118573000000001,-11.039964,1.861718,0.05552979,0.50621396,0.5232219,0.6833028,-13.099666000000001,1.6186411,-0.73935205,4.3921220000000005,-5.6183510000000005,-2.608658,21.0,2.484376000629775,-3.9214584664230623,1.5042026573018965,15.881298999999999,0.85256016,-4.678826,0.8157992,0
-1.6199999999999999,12.988385000000001,-11.023307,1.8543502,0.07794642,0.4988151,0.50208825,0.7021505,-12.937408999999999,1.7103848000000001,-0.73414165,4.0632086,-5.3851309999999994,-2.4097667,21.0,2.484376000629775,-3.9214584664230623,1.5042026573018965,15.881298999999999,0.85256016,-4.678826,0.8157992,0
-1.6099999999999999,12.859838,-11.005804,1.8470372,0.099165,0.49077633,0.48180225,0.71914643,-12.771535,1.7879738999999997,-0.7283373000000001,3.8121797999999996,-5.1618075,-2.2182436,21.0,2.484376000629775,-3.9214584664230623,1.5042026573018965,15.881298999999999,0.85256016,-4.678826,0.8157992,0
-1.5999999999999999,12.732967,-10.987591,1.8397888,0.11940954,0.48228760000000004,0.46229142,0.7344568,-12.601783,1.8526040000000001,-0.72111315,3.6059824999999996,-4.967647,-2.035582,20.9999999891374,1.2154329296995412,-1.3219890509934658,1.4346651797008092,14.8762,-0.11167052,-2.1912236000000003,1.5472589,0
-1.5899999999999999,12.607814,-10.968794,1.8326205000000002,0.13799879999999998,0.47395238,0.44389170000000006,0.747854,-12.428742,1.9049011000000002,-0.7123523,3.2342124,-4.3984656,-1.8653157999999999,20.9999999891374,1.2154329296995412,-1.3219890509934658,1.4346651797008092,14.8762,-0.11167052,-2.1912236000000003,1.5472589,0
-1.5799999999999998,12.484403,-10.949532000000001,1.825546,0.15442522,0.46630317,0.4269112,0.7592503,-12.253418,1.9458393,-0.70239633,2.9203843999999997,-3.9179992999999995,-1.7033846000000001,20.9999999891374,1.2154329296995412,-1.3219890509934658,1.4346651797008092,14.8762,-0.11167052,-2.1912236000000003,1.5472589,0
-1.5699999999999998,12.362752,-10.929913,1.8185756000000002,0.16907614,0.45927784,0.41125605,0.7689899,-12.076555,1.9765150000000002,-0.6915405,2.6553025000000003,-3.5125906000000002,-1.5493996,20.9999999891374,1.2154329296995412,-1.3219890509934658,1.4346651797008092,14.8762,-0.11167052,-2.1912236000000003,1.5472589,0
-1.5599999999999998,12.242875,-10.910034,1.8117173999999998,0.18227454,0.45280513,0.39682755,0.7773489,-11.89873,1.9978869,-0.6800262,2.4314047999999997,-3.1705081,-1.4029707,20.9999999891374,1.2154329296995412,-1.3219890509934658,1.4346651797008092,15.690093,-0.80767524,-0.16912629,1.167941,0
-1.5499999999999998,12.124779,-10.889984,1.8049766999999999,0.19428891,0.44681170000000003,0.38352787,0.7845491,-11.720374000000001,2.0107877,-0.6680455,2.2423015,-2.8818555,-1.263727,20.9999999891374,1.2154329296995412,-1.3219890509934658,1.4346651797008092,15.690093,-0.80767524,-0.16912629,1.167941,0
-1.5399999999999998,12.008467,-10.869844,1.7983575,0.20534195,0.44122612,0.37126327,0.79077023,-11.541817,2.0159366000000003,-0.65575373,2.0825907999999997,-2.6382830000000004,-1.1313162,20.9999999891374,1.2154329296995412,-1.3219890509934658,1.4346651797008092,15.690093,-0.80767524,-0.16912629,1.167941,0
-1.5299999999999998,11.893939999999999,-10.8496895,1.7918622,0.21561797,0.43598124,0.35994592,0.7961581999999999,-11.363308,2.0139513,-0.6432777,1.9477102,-2.432748,-1.0054028,20.9999999891374,1.2154329296995412,-1.3219890509934658,1.4346651797008092,15.690093,-0.80767524,-0.16912629,1.167941,0
-1.5199999999999998,11.7811985,-10.829588000000001,1.7854922,0.22526926,0.4310156,0.34949464,0.8008324,-11.185042,2.0053604,-0.63072276,1.8338025000000002,-2.2593074,-0.885668,20.99999972927901,-0.4438784202370625,0.9957382213055096,2.8042235544005503,16.837957,-1.853893,1.2076527,0.9078948,0
-1.5099999999999998,11.670238000000001,-10.809603,1.779248,0.23364182,0.4267518,0.34047168,0.80459505,-11.007117,1.9907185,-0.6181547,1.4785925,-1.7518129,-0.7046515999999999,20.99999972927901,-0.4438784202370625,0.9957382213055096,2.8042235544005503,16.837957,-1.853893,1.2076527,0.9078948,0
-1.4999999999999998,11.561053999999999,-10.789789,1.7731287,0.24024805,0.4235427,0.3333509,0.8073223,-10.829639,1.9711157,-0.60572845,1.1791321000000001,-1.3230618,-0.5324701000000001,20.99999972927901,-0.4438784202370625,0.9957382213055096,2.8042235544005503,16.837957,-1.853893,1.2076527,0.9078948,0
-1.4899999999999998,11.453644,-10.770192,1.7671328999999998,0.245419,0.42122707,0.32793564,0.8091941999999999,-10.652505,1.9476701,-0.5934969,0.9262545,-0.9612581,-0.36873758,20.99999972927901,-0.4438784202370625,0.9957382213055096,2.8042235544005503,16.837957,-1.853893,1.2076527,0.9078948,0
-1.4799999999999998,11.348003,-10.750845,1.7612580000000002,0.24942684,0.41965944,0.32404846,0.81034845,-10.475621,1.9213240000000003,-0.5815170000000001,0.7127245,-0.65594065,-0.21303949,20.99999859166717,-1.7530928815209963,3.1499465807398765,4.569988820785121,17.525373000000002,-2.6996486,3.1781406000000003,0.1782746,0
-1.4699999999999998,11.244214999999999,-10.731785,1.7555531000000002,0.25173372,0.41889304,0.32215184,0.81078774,-10.28303,1.8904191000000004,-0.5599594,0.22338656,-0.16720185,0.004143432,20.99999859166717,-1.7530928815209963,3.1499465807398765,4.569988820785121,17.525373000000002,-2.6996486,3.1781406000000003,0.1782746,0
-1.4599999999999997,11.142328,-10.713036,1.750048,0.25193983,0.4189532999999999,0.32263172,0.8105017,-10.095234,1.8594735,-0.54153293,-0.18943712,0.24552059,0.21594748,20.99999859166717,-1.7530928815209963,3.1499465807398765,4.569988820785121,17.525373000000002,-2.6996486,3.1781406000000003,0.1782746,0
-1.4499999999999997,11.042299,-10.694591,1.7447145,0.25044033,0.41969734,0.32522643,0.8095439,-9.910979,1.8296317,-0.5253781999999999,-0.5252387,0.6065285,0.42137020000000003,20.99999859166717,-1.7530928815209963,3.1499465807398765,4.569988820785121,17.525373000000002,-2.6996486,3.1781406000000003,0.1782746,0
-1.4399999999999997,10.944102,-10.676435000000001,1.7395357,0.24760374,0.4211058,0.32968184,0.8078811,-9.728867999999999,1.8017495,-0.5105969,-0.77975434,0.9401831,0.6193042,20.999998990096664,-3.7872335168271367,5.460939854385244,4.831553555118238,17.396418,-3.5543802,5.5775255999999995,-0.3788797,0
-1.4299999999999997,10.847733999999999,-10.658549,1.7345096999999998,0.24273534,0.42352477,0.33637422,0.8053313,-9.545024,1.7762878,-0.49482605,-1.3295816999999999,1.5644403999999998,0.8187935000000001,20.999998990096664,-3.7872335168271367,5.460939854385244,4.831553555118238,17.396418,-3.5543802,5.5775255999999995,-0.3788797,0
-1.4199999999999997,10.753196,-10.640895,1.7296349999999998,0.23528336,0.42719957,0.34556797,0.80170125,-9.363091,1.7553047,-0.48032698,-1.7650088,2.120048,1.0110643,20.999998990096664,-3.7872335168271367,5.460939854385244,4.831553555118238,17.396418,-3.5543802,5.5775255999999995,-0.3788797,0
-1.4099999999999997,10.660466,-10.623422,1.7248988,0.22572899999999999,0.43200259999999996,0.35688606,0.7969016999999999,-9.183076,1.7402321,-0.46712735,-2.1034167,2.6181822,1.1965098,20.999998990096664,-3.7872335168271367,5.460939854385244,4.831553555118238,17.396418,-3.5543802,5.5775255999999995,-0.3788797,0
-1.3999999999999997,10.56953,-10.606065,1.7202886000000002,0.21446669999999998,0.43780893,0.36999184,0.79084337,-9.004427,1.7321933999999997,-0.45495605,-2.3677275,3.0600061000000003,1.3747867,20.999999659023747,-5.576079794163493,5.999997715621652,3.748384277872535,18.309309,-3.5885482000000004,6.5136970000000005,-1.2214131000000001,0
-1.3899999999999997,10.480379,-10.58875,1.7157995,0.2010784,0.44433403,0.38484818,0.78359836,-8.825644,1.7321984000000001,-0.442916,-2.8687433999999996,3.5178325,1.4912598999999997,20.999999659023747,-5.576079794163493,5.999997715621652,3.748384277872535,18.309309,-3.5885482000000004,6.5136970000000005,-1.2214131000000001,0
-1.3799999999999997,10.393017,-10.571389,1.7114303,0.18521233,0.45125568,0.40137714,0.77521664,-8.647077000000001,1.7415483,-0.43093154,-3.291607,3.9042788,1.6020178,20.999999659023747,-5.576079794163493,5.999997715621652,3.748384277872535,18.309309,-3.5885482000000004,6.5136970000000005,-1.2214131000000001,0
-1.3699999999999997,10.307436000000001,-10.553882000000002,1.7071807,0.16723704,0.4583527,0.4192443,0.7656229999999999,-8.46936,1.7614306,-0.41897905,-3.6484987999999996,4.2304835,1.7073406000000002,20.999999659023747,-5.576079794163493,5.999997715621652,3.748384277872535,18.309309,-3.5885482000000004,6.5136970000000005,-1.2214131000000001,0
-1.3599999999999997,10.223624000000001,-10.53612,1.7030504000000002,0.14746962,0.4654348,0.43815055,0.7547496,-8.2932625,1.7927966,-0.40710409999999997,-3.9497035000000005,4.5058465,1.8074952000000002,20.999999659023747,-5.576079794163493,5.999997715621652,3.748384277872535,20.250896,-4.671958,5.831139,-0.19324476,0
-1.3499999999999996,10.1415615,-10.517984,1.6990379,0.12618545,0.47233933,0.45782828,0.7425401,-8.119672,1.836375,-0.39541218,-4.2039027,4.7383,1.9027352,20.999999659023747,-5.576079794163493,5.999997715621652,3.748384277872535,20.250896,-4.671958,5.831139,-0.19324476,0
-1.3399999999999996,10.061217999999998,-10.499349,1.6951408,0.103625774,0.47892871,0.47803777,0.7289504,-7.9495697,1.8926841,-0.38405862,-4.418426999999999,4.9345349999999994,1.9933016,20.999999659023747,-5.576079794163493,5.999997715621652,3.748384277872535,20.250896,-4.671958,5.831139,-0.19324476,0
-1.3299999999999996,9.982553999999999,-10.480085,1.6913548999999999,0.080003634,0.485087,0.49856395,0.71394944,-7.784008,1.9620404999999999,-0.37323909999999993,-4.599463500000001,5.1002007,2.0794241,20.999999659023747,-5.576079794163493,5.999997715621652,3.748384277872535,20.250896,-4.671958,5.831139,-0.19324476,0
-1.3199999999999996,9.905519,-10.460061999999999,1.6876734,0.05550843,0.49071738,0.5192135,0.69751877,-7.624089,2.044569,-0.3631802,-4.7522345,5.2400637,2.1613207,20.99999981078814,-5.624116960066707,5.855561164377531,3.7353818425434575,17.72983,-3.4775652999999997,5.151057700000001,-0.45201779999999997,0
-1.3099999999999996,9.8300495,-10.439149,1.6840878000000001,0.030326026000000002,0.4956897,0.53981835,0.6796824,-7.4709425000000005,2.140207,-0.35412621,-4.888607,5.3356129999999995,2.2385604,20.99999981078814,-5.624116960066707,5.855561164377531,3.7353818425434575,17.72983,-3.4775652999999997,5.151057700000001,-0.45201779999999997,0
-1.2999999999999996,9.756074,-10.417214,1.6805866000000003,0.0046235270000000005,0.49990064,0.5602294,0.6604701999999999,-7.3257084,2.2486994,-0.3463103,-5.0036864,5.4162917,2.31201,20.99999981078814,-5.624116960066707,5.855561164377531,3.7353818425434575,17.72983,-3.4775652999999997,5.151057700000001,-0.45201779999999997,0
-1.2899999999999996,9.683506,-10.394133,1.6771563999999999,-0.02146411,0.503313,0.5803075,0.6398894,-7.189511,2.3696246,-0.33996709999999997,-5.100795,5.484417400000001,2.3818555,20.99999981078814,-5.624116960066707,5.855561164377531,3.7353818425434575,17.72983,-3.4775652999999997,5.151057700000001,-0.45201779999999997,0
-1.2799999999999996,9.61225,-10.3697815,1.6737813000000001,-0.047814685999999995,0.5058976,0.59992576,0.6179566999999999,-7.0634380000000005,2.502412,-0.3353364,-5.1827354,5.541946,2.4482737,20.99999980136889,-4.9772689420806415,4.529200846781229,3.0702007273575562,18.126923,-3.3576242999999995,4.1472287,-0.3931113,0
-1.2699999999999996,9.5422,-10.344046,1.6704429,-0.07387957,0.50746864,0.6188264,0.5950389,-6.948494,2.6463132000000003,-0.33263552,-5.150549400000001,5.383958,2.4787917,20.99999980136889,-4.9772689420806415,4.529200846781229,3.0702007273575562,18.126923,-3.3576242999999995,4.1472287,-0.3931113,0
-1.2599999999999996,9.473239999999999,-10.31682,1.6671216,-0.09921786,0.50792676,0.6368395,0.57149076,-6.8454185,2.8002542999999998,-0.33194959999999996,-5.123411,5.250605999999999,2.5078125,20.99999980136889,-4.9772689420806415,4.529200846781229,3.0702007273575562,18.126923,-3.3576242999999995,4.1472287,-0.3931113,0
-1.2499999999999996,9.405249000000001,-10.288011000000001,1.6637970000000002,-0.1238737,0.50736386,0.6539734,0.54731715,-6.754792699999999,2.9630756000000003,-0.3333137,-5.100529,5.138049,2.535409,20.99999980136889,-4.9772689420806415,4.529200846781229,3.0702007273575562,18.126923,-3.3576242999999995,4.1472287,-0.3931113,0
-1.2399999999999995,9.3381,-10.257532000000001,1.6604484,-0.14788322,0.50585616,0.67022914,0.52252567,-6.677112599999999,3.133629,-0.3367591,-5.081237000000001,5.0430446,2.5616512000000005,20.999999404986006,-3.9723039748590967,2.536825548310628,2.3129240116340744,18.447641,-2.8255432000000003,3.9582764999999998,0.19792011,0
-1.2299999999999995,9.271662,-10.225315,1.6570547999999998,-0.17058054,0.5033257999999999,0.6854883,0.497666,-6.61273,3.3107355000000003,-0.3422775,-4.907611,4.6525292,2.549446,20.999999404986006,-3.9723039748590967,2.536825548310628,2.3129240116340744,18.447641,-2.8255432000000003,3.9582764999999998,0.19792011,0
-1.2199999999999995,9.205801,-10.191299,1.6535964,-0.19145685,0.49977836,0.6997246,0.47323516,-6.561542500000001,3.4930358,-0.34965128,-4.7611704,4.3228655,2.53784,20.999999404986006,-3.9723039748590967,2.536825548310628,2.3129240116340744,18.447641,-2.8255432000000003,3.9582764999999998,0.19792011,0
-1.2099999999999995,9.140388,-10.155439999999999,1.6500561000000002,-0.21075323,0.49537414,0.71304965,0.44916353,-6.523271599999999,3.679247,-0.35860518,-4.637658,4.0445709999999995,2.5268033,20.999999404986006,-3.9723039748590967,2.536825548310628,2.3129240116340744,18.447641,-2.8255432000000003,3.9582764999999998,0.19792011,0
-1.1999999999999995,9.075292999999999,-10.117704,1.6464195,-0.2286754,0.49023867,0.7255484999999999,0.42538595,-6.497622499999999,3.8682375,-0.36888725,-4.533484,3.8096411,2.5163083,19.381866063963265,-2.6473985821231114,0.4376558041987286,1.5338235360387962,16.108776000000002,-3.0234107999999997,4.0865655,-0.9967298000000001,0
-1.1899999999999995,9.010386,-10.078142999999999,1.6426411,-0.24461570000000002,0.48449440000000005,0.73719597,0.40245596,-6.4852405,4.044283,-0.3869203,-4.2383857,3.2843983,2.4680974,19.381866063963265,-2.6473985821231114,0.4376558041987286,1.5338235360387962,16.108776000000002,-3.0234107999999997,4.0865655,-0.9967298000000001,0
-1.1799999999999995,8.945551,-10.036817,1.6386789000000002,-0.2581291,0.47829452,0.74803627,0.38084877,-6.483347,4.221023000000001,-0.40554038,-3.9894738,2.8409693,2.4222522,19.381866063963265,-2.6473985821231114,0.4376558041987286,1.5338235360387962,16.108776000000002,-3.0234107999999997,4.0865655,-0.9967298000000001,0
-1.1699999999999995,8.880686,-9.993723,1.6345295,-0.26959452,0.47175625,0.7582093000000001,0.36039394,-6.4910555,4.3976865,-0.42433279999999995,-3.7795167000000003,2.4666123,2.3786568999999997,19.381866063963265,-2.6473985821231114,0.4376558041987286,1.5338235360387962,16.108776000000002,-3.0234107999999997,4.0865655,-0.9967298000000001,0
-1.1599999999999995,8.815699,-9.948865,1.6301927999999999,-0.27933085,0.46496275,0.7678189000000001,0.34093732,-6.507575,4.5736612999999995,-0.44293433,-3.6024152999999997,2.150569,2.3372006,19.381866063963265,-2.6473985821231114,0.4376558041987286,1.5338235360387962,14.513535000000001,-2.5582526000000003,4.001666,-1.0287838,0
-1.1499999999999995,8.750506,-9.902253,1.6256723,-0.28760585,0.45797253,0.7769425999999999,0.322342,-6.5322013,4.748457,-0.46102974,-3.4530260000000004,1.883757,2.2977786,19.381866063963265,-2.6473985821231114,0.4376558041987286,1.5338235360387962,14.513535000000001,-2.5582526000000003,4.001666,-1.0287838,0
-1.1399999999999995,8.685030000000001,-9.853900999999999,1.6209746999999999,-0.29464442,0.45082608,0.78563845,0.30448797,-6.5643106,4.921675700000001,-0.47834736,-3.3270109,1.6585081999999998,2.260291,19.381866063963265,-2.6473985821231114,0.4376558041987286,1.5338235360387962,14.513535000000001,-2.5582526000000003,4.001666,-1.0287838,0
-1.1299999999999994,8.619197,-9.803825999999999,1.6161089,-0.30063525,0.44355112,0.79394984,0.287271,-6.6033482999999995,5.092988,-0.49465436,-3.2207115,1.4683483,2.224643,19.381866063963265,-2.6473985821231114,0.4376558041987286,1.5338235360387962,14.513535000000001,-2.5582526000000003,4.001666,-1.0287838,0
-1.1199999999999994,8.552941,-9.7520485,1.6110859,-0.30573675,0.43616602,0.8019098000000001,0.27060120000000004,-6.6488223,5.262117400000001,-0.5097520000000001,-3.1310417999999998,1.3078116000000002,2.1907442,16.40282828353158,-1.3453016053156628,-1.412989361471347,0.7526067664420861,14.914948999999998,-2.506977,3.5007405,-0.4625984,0
-1.1099999999999994,8.486239,-9.69872,1.6058540000000001,-0.30939275,0.42888050000000005,0.80952555,0.25496292,-6.6923202999999996,5.4032160000000005,-0.5364219,-2.8519104,0.88403386,2.1201742,16.40282828353158,-1.3453016053156628,-1.412989361471347,0.7526067664420861,14.914948999999998,-2.506977,3.5007405,-0.4625984,0
-1.0999999999999994,8.419080000000001,-9.643991,1.6003624,-0.3111865,0.4218847,0.8168326,0.24075046,-6.740087,5.5421879999999994,-0.5616618,-2.6164377,0.5262541999999999,2.053067,16.40282828353158,-1.3453016053156628,-1.412989361471347,0.7526067664420861,14.914948999999998,-2.506977,3.5007405,-0.4625984,0
-1.0899999999999994,8.351425,-9.587883,1.5946267,-0.31142446,0.41515413,0.82388324,0.22776814,-6.791361,5.67901,-0.58523136,-2.417791,0.22419643,1.9892528999999999,16.40282828353158,-1.3453016053156628,-1.412989361471347,0.7526067664420861,14.914948999999998,-2.506977,3.5007405,-0.4625984,0
-1.0799999999999994,8.283242,-9.530418,1.5886643999999999,-0.3103617,0.40865937,0.8307125,0.21584736,-6.8454895,5.813686,-0.60693383,-2.2502067,-0.0308154,1.9285703,14.879359545723293,-0.39713006486975466,-2.891996015581044,0.02037681488456191,11.923538,-2.0949676,2.5255678,-0.5691451,0
-1.0699999999999994,8.214526,-9.4716625,1.5824688999999998,-0.307788,0.40246642,0.8373679,0.20518894,-6.8978853,5.936876,-0.6321475000000001,-1.9980965,-0.43921468,1.8383064999999998,14.879359545723293,-0.39713006486975466,-2.891996015581044,0.02037681488456191,11.923538,-2.0949676,2.5255678,-0.5691451,0
-1.0599999999999994,8.145284,-9.411696000000001,1.5760229,-0.30342844,0.39670262,0.84387463,0.19604583,-6.9505696,6.0556507,-0.6568307,-1.7524731,-0.81687546,1.7495136999999998,14.879359545723293,-0.39713006486975466,-2.891996015581044,0.02037681488456191,11.923538,-2.0949676,2.5255678,-0.5691451,0
-1.0499999999999994,8.075511,-9.350555,1.5693395,-0.29748183,0.39136350000000003,0.8502290000000001,0.1882818,-7.003778,6.172353,-0.67950964,-1.5408019,-1.1401625,1.6646644,14.879359545723293,-0.39713006486975466,-2.891996015581044,0.02037681488456191,11.923538,-2.0949676,2.5255678,-0.5691451,0
-1.0399999999999994,8.005208,-9.288256,1.5624409,-0.29020134,0.38638502,0.8564293,0.18171102,-7.0570555,6.2874637,-0.69982874,-1.3622246999999998,-1.4130943999999999,1.5839787,14.59655284386933,-0.09835886127671256,-3.8796957243506647,-0.5446367254243516,13.512801999999999,-2.0497952,0.7765629,-1.1175243000000001,0
-1.0299999999999994,7.9343699999999995,-9.224806,1.5553551,-0.28158143,0.3816429,0.86253536,0.17633359,-7.1101866,6.4017854000000005,-0.71719444,-1.2033823000000001,-1.7590158999999999,1.4829961,14.59655284386933,-0.09835886127671256,-3.8796957243506647,-0.5446367254243516,13.512801999999999,-2.0497952,0.7765629,-1.1175243000000001,0
-1.0199999999999994,7.8630119999999994,-9.160232,1.5480999,-0.27151582,0.37710285,0.8685683000000001,0.17222644,-7.161220599999999,6.5124106,-0.733627,-1.0379119,-2.0824703999999996,1.3841492,14.59655284386933,-0.09835886127671256,-3.8796957243506647,-0.5446367254243516,13.512801999999999,-2.0497952,0.7765629,-1.1175243000000001,0
-1.0099999999999993,7.791152,-9.094562,1.5406906999999999,-0.26013008,0.37278634,0.87447244,0.16929507,-7.2104325,6.621208,-0.7477849,-0.8912815000000001,-2.362559,1.2895031000000001,14.59655284386933,-0.09835886127671256,-3.8796957243506647,-0.5446367254243516,13.512801999999999,-2.0497952,0.7765629,-1.1175243000000001,0
-0.9999999999999991,7.7188106,-9.027811,1.5331535,-0.24762346,0.36864606,0.8802066999999999,0.16738929,-7.2575617,6.72878,-0.7592134,-0.7675788,-2.5990064,1.1995014,15.254906164076544,-0.4123902964988476,-3.8817444092869806,-0.9490406215476828,15.042551999999999,-1.8858018,-0.34379557,-1.1168519,0
-0.9899999999999991,7.645999400000001,-8.959966,1.525536,-0.23421039,0.3645113,0.8857719999999999,0.16638894,-7.304181,6.839961,-0.76385075,-0.71222264,-2.7989564,1.0940717,15.254906164076544,-0.4123902964988476,-3.8817444092869806,-0.9490406215476828,15.042551999999999,-1.8858018,-0.34379557,-1.1168519,0
-0.9799999999999991,7.5727367,-8.891015,1.5178863999999999,-0.22007205,0.36024162,0.89116347,0.16619936,-7.3477883,6.949878,-0.76558584,-0.6655371999999999,-2.9677396000000003,0.99381566,15.254906164076544,-0.4123902964988476,-3.8817444092869806,-0.9490406215476828,15.042551999999999,-1.8858018,-0.34379557,-1.1168519,0
-0.9699999999999993,7.499054400000001,-8.820972,1.5102341000000001,-0.20532614,0.35583434,0.89633954,0.16673,-7.388059599999999,7.0584826000000005,-0.76442486,-0.6261595999999999,-3.1102133,0.8984791999999999,15.254906164076544,-0.4123902964988476,-3.8817444092869806,-0.9490406215476828,15.042551999999999,-1.8858018,-0.34379557,-1.1168519,0
-0.9599999999999993,7.424987299999999,-8.74985,1.5026078,-0.1900724,0.35128787,0.90126497,0.16790254,-7.424711,7.165710400000001,-0.76040614,-0.59294266,-3.2304787999999998,0.8078209,15.254906164076544,-0.4123902964988476,-3.8817444092869806,-0.9490406215476828,15.581552499999999,-2.4950368,-0.35645083,-0.90265447,0
-0.9499999999999993,7.350573,-8.677664,1.4950355,-0.17439553,0.3466017,0.90591013,0.16964896,-7.4574940000000005,7.271484,-0.7535947,-0.56491923,-3.3319967000000004,0.72161126,15.254906164076544,-0.4123902964988476,-3.8817444092869806,-0.9490406215476828,15.581552499999999,-2.4950368,-0.35645083,-0.90265447,0
-0.9399999999999993,7.2758512,-8.604426,1.4875451000000002,-0.15836754,0.34177628,0.91025054,0.17190999,-7.486192699999999,7.3757152999999995,-0.7440783000000001,-0.5412746,-3.4176892999999997,0.63963187,15.254906164076544,-0.4123902964988476,-3.8817444092869806,-0.9490406215476828,15.581552499999999,-2.4950368,-0.35645083,-0.90265447,0
-0.9299999999999993,7.200864,-8.530154,1.480163,-0.14204979999999998,0.33681300000000003,0.914266,0.17463370000000003,-7.5106187,7.4783077,-0.73196405,-0.52132225,-3.4900236000000002,0.56167525,15.254906164076544,-0.4123902964988476,-3.8817444092869806,-0.9490406215476828,15.581552499999999,-2.4950368,-0.35645083,-0.90265447,0
-0.9199999999999993,7.125654700000001,-8.454865,1.4729143,-0.12549464,0.33171403,0.91793984,0.17777438,-7.5306106,7.579155999999999,-0.717375,-0.5044835,-3.5510817,0.487544,15.318694648575999,-1.1517535353935422,-3.103521722895444,-1.081059517040288,15.343922000000001,-3.469997,0.43265423,-0.5716619000000001,0
-0.9099999999999993,7.0502677,-8.378574,1.4658258999999998,-0.10909163,0.32626495,0.9213188,0.1811689,-7.5461235,7.678555,-0.6999623,-0.605622,-3.4812870000000005,0.41057217,15.318694648575999,-1.1517535353935422,-3.103521722895444,-1.081059517040288,15.343922000000001,-3.469997,0.43265423,-0.5716619000000001,0
-0.8999999999999992,6.9747477,-8.301300999999999,1.4589226999999998,-0.093156524,0.32030118,0.92445487,0.18469608,-7.5571399999999995,7.775908500000001,-0.6803128,-0.6909702,-3.4223647000000006,0.33737737,15.318694648575999,-1.1517535353935422,-3.103521722895444,-1.081059517040288,15.343922000000001,-3.469997,0.43265423,-0.5716619000000001,0
-0.8899999999999992,6.8991394,-8.223063,1.4522268,-0.07763006,0.3138927,0.9273408000000001,0.18837276,-7.5637726999999995,7.871038,-0.658536,-0.7629931999999999,-3.3726230000000004,0.26777428,15.318694648575999,-1.1517535353935422,-3.103521722895444,-1.081059517040288,15.343922000000001,-3.469997,0.43265423,-0.5716619000000001,0
-0.8799999999999992,6.8234863,-8.143888,1.4457588,-0.062461298,0.30709934,0.9299700000000001,0.19220978,-7.566120599999999,7.963779,-0.63474417,-0.8237713,-3.330632,0.20158662,15.245571879984384,-2.1306165420830734,-1.91031754172501,-0.9365903107223492,16.074585,-4.262628599999999,1.1972729,-0.18028083,0
-0.8699999999999992,6.747831,-8.0638,1.4395354,-0.048121475,0.29970217,0.9324353999999999,0.19602925,-7.564320599999999,8.053541000000001,-0.6096359,-1.0277158000000002,-3.1091244,0.14573595,15.245571879984384,-2.1306165420830734,-1.91031754172501,-0.9365903107223492,16.074585,-4.262628599999999,1.1972729,-0.18028083,0
-0.8599999999999992,6.672212599999999,-7.982827,1.4335723999999999,-0.034984022000000004,0.29153615,0.93482804,0.19969876,-7.558729,8.14057,-0.5826933000000001,-1.1998318000000001,-2.9221463,0.09262588,15.245571879984384,-2.1306165420830734,-1.91031754172501,-0.9365903107223492,16.074585,-4.262628599999999,1.1972729,-0.18028083,0
-0.8499999999999992,6.596667999999999,-7.900998599999999,1.4278879,-0.022875246000000002,0.28271979999999997,0.93713564,0.20328148,-7.549722,8.224675999999999,-0.55396336,-1.3450879999999998,-2.7643169999999997,0.042121924000000005,15.245571879984384,-2.1306165420830734,-1.91031754172501,-0.9365903107223492,16.074585,-4.262628599999999,1.1972729,-0.18028083,0
-0.8399999999999992,6.5212293,-7.8183446,1.4224993000000001,-0.011646709,0.2733523,0.9393435,0.20682593,-7.5376199999999995,8.305698,-0.52349484,-1.4676771,-2.631094,-0.0059037709999999995,14.973316613433518,-3.1166883664370872,-0.8473132491285781,-0.6285310880052939,16.841997,-5.095703,2.3677363,0.37101325,0
-0.8299999999999992,6.4459243,-7.734903,1.4174122,-0.001643321,0.26323524,0.9415488999999999,0.21021529,-7.5230026,8.382097,-0.4936566,-1.7248858,-2.3528792999999997,-0.036456272000000005,14.973316613433518,-3.1166883664370872,-0.8473132491285781,-0.6285310880052939,16.841997,-5.095703,2.3677363,0.37101325,0
-0.8199999999999992,6.3707769999999995,-7.650714,1.4126318000000002,0.006867796999999999,0.25221676,0.9438310999999999,0.21336047,-7.5061279999999995,8.455133,-0.46214336,-1.9419714,-2.1180453,-0.06550955,14.973316613433518,-3.1166883664370872,-0.8473132491285781,-0.6285310880052939,16.841997,-5.095703,2.3677363,0.37101325,0
-0.8099999999999992,6.295808,-7.565811999999999,1.408175,0.014109377,0.24043499,0.94614685,0.21632905,-7.487471,8.524631,-0.4289393,-2.1251943,-1.9198294999999999,-0.09313719,14.973316613433518,-3.1166883664370872,-0.8473132491285781,-0.6285310880052939,16.841997,-5.095703,2.3677363,0.37101325,0
-0.7999999999999992,6.221032599999999,-7.480233999999999,1.4040587,0.020270837,0.22800554,0.9484545,0.21917279,-7.4674397,8.590434,-0.3940459,-2.2798374,-1.7525228,-0.11940911400000001,15.04714692261097,-3.731591406406752,0.2969446930892529,-0.2916618666107961,15.51767,-5.743702,2.958386,0.10139617,0
-0.7899999999999991,6.146463400000001,-7.394016000000001,1.400303,0.025033778,0.21489188,0.9507902,0.22179468,-7.446313000000001,8.652714,-0.35681272,-2.5062203,-1.4328781000000002,-0.12786162,15.04714692261097,-3.731591406406752,0.2969446930892529,-0.2916618666107961,15.51767,-5.743702,2.958386,0.10139617,0
-0.7799999999999991,6.0721083,-7.307193799999999,1.3969281,0.02815393,0.20107026,0.9531784,0.22411872,-7.4247174,8.711025,-0.31789570000000006,-2.6973,-1.1630832,-0.13589935,15.04714692261097,-3.731591406406752,0.2969446930892529,-0.2916618666107961,15.51767,-5.743702,2.958386,0.10139617,0
-0.7699999999999991,5.997969,-7.219809,1.3939507,0.029880403,0.18664657,0.95556325,0.22620626,-7.403173,8.765260000000001,-0.27730682,-2.8585818,-0.9353642,-0.14354266,15.04714692261097,-3.731591406406752,0.2969446930892529,-0.2916618666107961,15.51767,-5.743702,2.958386,0.10139617,0
-0.7599999999999991,5.924043,-7.1319027,1.3913876,0.030424561,0.17170972,0.95789284,0.22810426,-7.382123,8.815321,-0.23508267,-2.9947128,-0.7431595999999999,-0.1508109,15.04714692261097,-3.731591406406752,0.2969446930892529,-0.2916618666107961,17.056366,-6.01299,3.3349626000000003,1.0635326,0
-0.7499999999999991,5.8503237,-7.043517,1.3892546000000001,0.02996579,0.15633485,0.9601204,0.22984864,-7.361947,8.861121,-0.19128385,-3.1096158,-0.5809307,-0.15772249,15.04714692261097,-3.731591406406752,0.2969446930892529,-0.2916618666107961,17.056366,-6.01299,3.3349626000000003,1.0635326,0
-0.7399999999999989,5.7768,-6.954695,1.387567,0.028656395,0.14058588,0.9622046000000001,0.23146659,-7.3429713,8.902581,-0.14599323,-3.2066004,-0.44400280000000003,-0.16429491,15.04714692261097,-3.731591406406752,0.2969446930892529,-0.2916618666107961,17.056366,-6.01299,3.3349626000000003,1.0635326,0
-0.7299999999999989,5.7034593000000005,-6.8654804,1.3863393999999998,0.026625762,0.12451749999999999,0.96410966,0.23297855,-7.325475,8.939630000000001,-0.099313855,-3.2884614,-0.32843032,-0.17054485,15.04714692261097,-3.731591406406752,0.2969446930892529,-0.2916618666107961,17.056366,-6.01299,3.3349626000000003,1.0635326,0
-0.7199999999999989,5.6302843000000005,-6.7759175,1.3855852,0.023983859,0.1081767,0.9658049999999999,0.23439977,-7.309699,8.972203,-0.051366705,-3.3575578,-0.23088284,-0.17648809,15.530495524727122,-3.6581202451487247,1.2989374501511222,-0.001704616089870462,17.162216,-5.227911,3.0558273999999996,2.2003630000000003,0
-0.7099999999999989,5.557259999999999,-6.686047,1.3853396999999998,0.020447431000000002,0.09172597,0.9672798,0.23566489999999998,-7.295428,9.001161,0.0024386495,-3.404403,0.007677965,-0.16791141,15.530495524727122,-3.6581202451487247,1.2989374501511222,-0.001704616089870462,17.162216,-5.227911,3.0558273999999996,2.2003630000000003,0
-0.6999999999999991,5.484367,-6.5959105,1.3856374,0.0157968,0.07529786,0.96852577,0.23672435,-7.283508,9.025504,0.057252914,-3.443949,0.20903516,-0.15975559,15.530495524727122,-3.6581202451487247,1.2989374501511222,-0.001704616089870462,17.162216,-5.227911,3.0558273999999996,2.2003630000000003,0
-0.6899999999999991,5.411580000000001,-6.505553,1.3864876,0.010204428,0.058889727999999995,0.96952075,0.23760739,-7.274274,9.0453005,0.11290675,-3.4773328,0.3789905,-0.152,15.530495524727122,-3.6581202451487247,1.2989374501511222,-0.001704616089870462,17.162216,-5.227911,3.0558273999999996,2.2003630000000003,0
-0.679999999999999,5.338871,-6.4150195,1.3878978000000002,0.00381681,0.042500027,0.97024477,0.23833615,-7.2680077999999995,9.060606,0.16922092,-3.5055148999999997,0.52244174,-0.14462496,15.289412741366956,-2.9868420639963724,1.836095013507038,0.17828781637056926,16.84009,-4.753975,3.0310802000000003,2.3479674,0
-0.669999999999999,5.266207700000001,-6.3243566,1.3898617,-0.0033851536,0.026440323999999998,0.9706787,0.23889783,-7.2649984,9.07133,0.22360139,-3.4246163,0.72726214,-0.12877953,15.289412741366956,-2.9868420639963724,1.836095013507038,0.17828781637056926,16.84009,-4.753975,3.0310802000000003,2.3479674,0
-0.659999999999999,5.1935587,-6.2336073,1.3923708000000001,-0.011409611000000002,0.010958963,0.97081995,0.23928696,-7.2653737000000005,9.077906,0.27824628,-3.3563400000000003,0.9001450999999999,-0.11371166,15.289412741366956,-2.9868420639963724,1.836095013507038,0.17828781637056926,16.84009,-4.753975,3.0310802000000003,2.3479674,0
-0.649999999999999,5.120888,-6.1428123,1.3954269,-0.020126661,-0.004029748,0.9706726999999999,0.23952685,-7.269328,9.08055,0.33295915,-3.2987157999999996,1.0460708,-0.09938316,15.289412741366956,-2.9868420639963724,1.836095013507038,0.17828781637056926,16.84009,-4.753975,3.0310802000000003,2.3479674,0
-0.639999999999999,5.0481596,-6.0520096,1.3990296,-0.029425997000000002,-0.01859782,0.9702388000000001,0.23963481,-7.277021400000001,9.079450999999999,0.38754848,-3.2500815,1.1692426,-0.08575776,13.815803132048087,-2.106795105165752,1.4536001425935208,0.25725334210965256,15.895010000000001,-4.459244,2.7311563,1.9189951,0
-0.629999999999999,4.9753394,-5.961233999999999,1.4031034,-0.03898133,-0.032500464,0.9695385,0.23962308,-7.2874503,9.075235000000001,0.42714155,-3.0717974,1.2135441999999999,-0.06892609599999999,13.815803132048087,-2.106795105165752,1.4536001425935208,0.25725334210965256,15.895010000000001,-4.459244,2.7311563,1.9189951,0
-0.619999999999999,4.902398000000001,-5.870516,1.407571,-0.048529785,-0.045547175999999995,0.9686113000000001,0.23950456,-7.301328,9.068023,0.46630567,-2.9213169999999997,1.2509434,-0.05292039,13.815803132048087,-2.106795105165752,1.4536001425935208,0.25725334210965256,15.895010000000001,-4.459244,2.7311563,1.9189951,0
-0.6099999999999992,4.8293014,-5.779884,1.4124275,-0.058070403,-0.057866975999999994,0.9674806999999999,0.23929104,-7.3185906,9.058035,0.5049113000000001,-2.7943046000000002,1.2825153999999999,-0.037700087,13.815803132048087,-2.106795105165752,1.4536001425935208,0.25725334210965256,15.895010000000001,-4.459244,2.7311563,1.9189951,0
-0.5999999999999992,4.7560153,-5.6893644,1.417667,-0.0676023,-0.06956882,0.9661642,0.23899122,-7.339179,9.045463,0.5428418,-2.6870992,1.309168,-0.023226652,12.159780132643508,-1.173872978155558,0.7951324633295226,0.21106024637956108,13.593186,-2.7021554,2.1565657000000003,1.0344608,0
-0.5899999999999992,4.6825209999999995,-5.598974,1.4232007,-0.076780856,-0.08044776,0.96472317,0.2386251,-7.360158,9.032277,0.56378424,-2.451123,1.2289823,-0.011730118999999999,12.159780132643508,-1.173872978155558,0.7951324633295226,0.21106024637956108,13.593186,-2.7021554,2.1565657000000003,1.0344608,0
-0.5799999999999992,4.6088037,-5.508725599999999,1.4289402,-0.08533463,-0.090348125,0.96322864,0.23821336,-7.383808599999999,9.017169,0.5839955,-2.2519455,1.161306,-0.00079772435,12.159780132643508,-1.173872978155558,0.7951324633295226,0.21106024637956108,13.593186,-2.7021554,2.1565657000000003,1.0344608,0
-0.5699999999999992,4.5348370000000005,-5.418637,1.434878,-0.0933614,-0.09942107,0.9617007,0.23776183,-7.4099307,9.000324,0.6034506,-2.083828,1.1041871,0.009598200999999999,12.159780132643508,-1.173872978155558,0.7951324633295226,0.21106024637956108,13.593186,-2.7021554,2.1565657000000003,1.0344608,0
-0.5599999999999992,4.4605974999999995,-5.328725,1.4410065,-0.10094366,-0.1077942,0.96015173,0.23727433,-7.438353500000001,8.981900999999999,0.6221329000000001,-1.9419276,1.0559785,0.019484004,12.159780132643508,-1.173872978155558,0.7951324633295226,0.21106024637956108,12.807114,-1.6658615,1.2233889,0.52296823,1
-0.5499999999999992,4.3860545,-5.2390094000000005,1.4473488,-0.10836616,-0.11571933,0.9585570999999999,0.23671451,-7.470573399999999,8.960971,0.6462022,-1.898893,1.0820558999999998,0.044190127,12.159780132643508,-1.173872978155558,0.7951324633295226,0.21106024637956108,12.807114,-1.6658615,1.2233889,0.52296823,1
-0.5399999999999991,4.311178,-5.1495104000000005,1.4539275,-0.115857765,-0.12339944,0.9568863000000001,0.23604618,-7.505035400000001,8.9386,0.6694014,-1.8625695,1.1040691,0.067683905,12.159780132643508,-1.173872978155558,0.7951324633295226,0.21106024637956108,12.807114,-1.6658615,1.2233889,0.52296823,1
-0.5299999999999991,4.2359457,-5.060242,1.4607338,-0.12340736,-0.130868,0.9551390999999999,0.2352723,-7.541727000000001,8.914852999999999,0.6916818,-1.83191,1.1226516000000002,0.09002484,12.159780132643508,-1.173872978155558,0.7951324633295226,0.21106024637956108,12.807114,-1.6658615,1.2233889,0.52296823,1
-0.5199999999999991,4.1603355,-4.971218,1.4677579,-0.1310054,-0.1381532,0.9533151,0.23439570000000004,-7.5806336,8.889786,0.71299505,-1.8060316000000003,1.1383381000000001,0.11126949,11.830614339317794,-0.18788970560597296,0.31805175018221377,0.05428144649519187,12.616783999999999,-0.85454774,0.075519785,0.2571263,1
-0.5099999999999991,4.0843287,-4.882448999999999,1.4749813999999999,-0.13812594,-0.14508167,0.951516,0.23343006,-7.6211,8.86384,0.7315446999999999,-1.6576408,0.9725953000000002,0.11842673,11.830614339317794,-0.18788970560597296,0.31805175018221377,0.05428144649519187,12.616783999999999,-0.85454774,0.075519785,0.2571263,1
-0.4999999999999991,4.007907,-4.7939453,1.4823855,-0.14435387,-0.1515203,0.94984037,0.23239312,-7.663492999999999,8.836704,0.74913573,-1.5323917999999999,0.83269954,0.12523276,11.830614339317794,-0.18788970560597296,0.31805175018221377,0.05428144649519187,12.616783999999999,-0.85454774,0.075519785,0.2571263,1
-0.4899999999999989,3.9310527000000004,-4.7057185,1.489961,-0.14983062,-0.15754484,0.94827944,0.2312925,-7.707578,8.808436,0.7658198,-1.4266758,0.7146203000000001,0.13170479999999998,11.830614339317794,-0.18788970560597296,0.31805175018221377,0.05428144649519187,12.616783999999999,-0.85454774,0.075519785,0.2571263,1
-0.47999999999999887,3.8537502,-4.617780000000001,1.4976991000000002,-0.15467516,-0.16321902,0.9468226000000001,0.23013437,-7.7531576,8.779083,0.78164464,-1.3374466999999999,0.6149551999999999,0.13785927,11.924354286704936,0.9228870266458968,-0.2289027136410328,-0.2047580591308071,13.519919,-0.06963756,-1.2896682,0.05318561,0
-0.46999999999999886,3.7759979,-4.5301323,1.5055602,-0.15869997,-0.16796070000000002,0.9455846,0.22906959999999998,-7.797470599999999,8.750380499999999,0.7904619,-0.9849315999999999,0.48339862,0.12104694,11.924354286704936,0.9228870266458968,-0.2289027136410328,-0.2047580591308071,13.519919,-0.06963756,-1.2896682,0.05318561,0
-0.45999999999999885,3.6977973,-4.4427752,1.5135062,-0.16176233,-0.17131546,0.94466615,0.22823074,-7.8427553,8.720936,0.798669,-0.68739563,0.37234629999999996,0.10505958,11.924354286704936,0.9228870266458968,-0.2289027136410328,-0.2047580591308071,13.519919,-0.06963756,-1.2896682,0.05318561,0
-0.44999999999999885,3.6191404,-4.3557153,1.5215319,-0.16401373,-0.17350374,0.94403154,0.22759563,-7.888756,8.69099,0.8064285,-0.43626362,0.27860346,0.08985673,11.924354286704936,0.9228870266458968,-0.2289027136410328,-0.2047580591308071,13.519919,-0.06963756,-1.2896682,0.05318561,0
-0.43999999999999884,3.5400207000000004,-4.2689567,1.5296336000000001,-0.16558106,-0.17471056,0.94364417,0.22714339999999997,-7.9352565,8.660748,0.81388396,-0.22429836,0.19947277,0.07539989,11.830133857152765,1.9784636044050143,-0.9411916212160696,-0.5388866235989344,14.532110000000001,0.40472670000000005,-2.5673027000000004,0.22087532,0
-0.4299999999999988,3.460436,-4.1824994,1.5378047,-0.16619861,-0.17476419,0.9435808000000001,0.22691418,-7.9816885,8.630625,0.8203398000000001,0.1192306,0.021601837000000002,0.045256674000000004,11.830133857152765,1.9784636044050143,-0.9411916212160696,-0.5388866235989344,14.532110000000001,0.40472670000000005,-2.5673027000000004,0.22087532,0
-0.4199999999999988,3.3803867999999997,-4.096343,1.5460403999999999,-0.16565965,-0.17353672,0.94389516,0.22694299999999998,-8.028132000000001,8.600602,0.82681906,0.40917919999999997,-0.1285441,0.016592594,11.830133857152765,1.9784636044050143,-0.9411916212160696,-0.5388866235989344,14.532110000000001,0.40472670000000005,-2.5673027000000004,0.22087532,0
-0.4099999999999988,3.2998742999999995,-4.0104866,1.5543419,-0.16414101,-0.17122942,0.9445189,0.22720368,-8.074306,8.570885,0.8335055,0.6539052,-0.25528482,-0.01066494,11.830133857152765,1.9784636044050143,-0.9411916212160696,-0.5388866235989344,14.532110000000001,0.40472670000000005,-2.5673027000000004,0.22087532,0
-0.3999999999999988,3.2189028,-3.9249241,1.5627118,-0.16179118,-0.16801102,0.94538915,0.22767199999999999,-8.119966,8.541648,0.8405507,0.8604626,-0.36226729999999996,-0.036584944,11.78271328377599,2.752883174952383,-0.9167504924217624,-0.7276845005938298,15.565135999999999,0.52980316,-3.3009126,0.77531964,0
-0.3899999999999988,3.1374788,-3.8396506,1.5711526000000002,-0.15866958,-0.1637315,0.94649297,0.22839919,-8.164721,8.513167,0.84765977,1.1555726999999998,-0.44877094,-0.07049739999999999,11.78271328377599,2.752883174952383,-0.9167504924217624,-0.7276845005938298,15.565135999999999,0.52980316,-3.3009126,0.77531964,0
-0.3799999999999988,3.0556116,-3.754658,1.5796671999999998,-0.15482812,-0.158278,0.947808,0.22942437,-8.20854,8.485545,0.8553896000000001,1.4046582,-0.52179265,-0.102745764,11.78271328377599,2.752883174952383,-0.9167504924217624,-0.7276845005938298,15.565135999999999,0.52980316,-3.3009126,0.77531964,0
-0.3699999999999988,2.973312,-3.6699362,1.5882628,-0.15037186,-0.15183110000000002,0.94926697,0.23070993,-8.251225,8.458997,0.86385477,1.6148973999999998,-0.5834322,-0.13341168,11.78271328377599,2.752883174952383,-0.9167504924217624,-0.7276845005938298,15.565135999999999,0.52980316,-3.3009126,0.77531964,0
-0.35999999999999877,2.8905916,-3.5854738,1.5969471000000002,-0.14538956,-0.14454292,0.95081073,0.23222277,-8.292603,8.433705999999999,0.873138,1.7923490000000002,-0.6354621,-0.16257282,11.78271328377599,2.752883174952383,-0.9167504924217624,-0.7276845005938298,15.0159,1.0952425,-3.4203023999999997,0.4085519,0
-0.34999999999999876,2.8074647999999995,-3.5012572,1.6057286,-0.13995643,-0.13654178,0.9523879000000001,0.23393379,-8.332519,8.409829,0.8832939000000001,1.942127,-0.67937976,-0.19030303,11.78271328377599,2.752883174952383,-0.9167504924217624,-0.7276845005938298,15.0159,1.0952425,-3.4203023999999997,0.4085519,0
-0.33999999999999875,2.7239468,-3.4172719,1.6146162,-0.13413640000000002,-0.12793618,0.9539544,0.23581754,-8.370838000000001,8.3875,0.89435315,2.0685472,-0.7164486999999999,-0.2166725,11.78271328377599,2.752883174952383,-0.9167504924217624,-0.7276845005938298,15.0159,1.0952425,-3.4203023999999997,0.4085519,0
-0.32999999999999874,2.640054,-3.3335016000000004,1.6236188,-0.12798396,-0.11881791,0.9554726999999998,0.23785170000000003,-8.407441,8.366833999999999,0.90632534,2.1752523999999998,-0.74773616,-0.24174799,11.78271328377599,2.752883174952383,-0.9167504924217624,-0.7276845005938298,15.0159,1.0952425,-3.4203023999999997,0.4085519,0
-0.31999999999999873,2.5558045,-3.2499292,1.6327457,-0.12154568,-0.10926472,0.95691115,0.24001665,-8.442217999999999,8.347928,0.9192021,2.2653172,-0.7741431,-0.26559305,11.124638809075924,2.9510415942865724,-0.8889151311850829,-0.8581867046687472,12.534695,1.2017202,-3.0578383999999996,0.0045659803,0
-0.3099999999999987,2.4712257,-3.1665318,1.6419747,-0.11485121400000001,-0.09926586,0.9582459000000001,0.24232116,-8.473235,8.331823,0.9267134,2.3722374,-0.7921050999999999,-0.2946718,11.124638809075924,2.9510415942865724,-0.8889151311850829,-0.8581867046687472,12.534695,1.2017202,-3.0578383999999996,0.0045659803,0
-0.2999999999999987,2.3863466,-3.0832862999999997,1.6512828000000002,-0.10792618,-0.08881635,0.9594528,0.2447715,-8.502344,8.3175535,0.93502855,2.4624841,-0.8072640999999999,-0.32232362,11.124638809075924,2.9510415942865724,-0.8889151311850829,-0.8581867046687472,12.534695,1.2017202,-3.0578383999999996,0.0045659803,0
-0.2899999999999987,2.3011858,-3.0001738,1.6606778999999998,-0.10080231,-0.07798509,0.9605078000000001,0.24734816,-8.529461,8.305203,0.9441071,2.5386577,-0.82005686,-0.34861857,11.124638809075924,2.9510415942865724,-0.8889151311850829,-0.8581867046687472,12.534695,1.2017202,-3.0578383999999996,0.0045659803,0
-0.2799999999999987,2.2157642999999996,-2.9171753,1.6701673,-0.09350706,-0.066830695,0.9613908000000001,0.25003403,-8.554506,8.294839999999999,0.95389754,2.602953,-0.83085203,-0.37362325,10.104115579061292,2.71917047625102,-1.0026937812209709,-0.9693622027894322,11.43779,1.2925607,-2.9257722000000004,-0.37702945,0
-0.2699999999999989,2.1301136,-2.8342662,1.6797081999999999,-0.08604293,-0.055505097,0.96208054,0.25281605,-8.575312,8.287279,0.95438087,2.6210542,-0.8577048,-0.40285635,10.104115579061292,2.71917047625102,-1.0026937812209709,-0.9693622027894322,11.43779,1.2925607,-2.9257722000000004,-0.37702945,0
-0.2599999999999989,2.044265,-2.7514234,1.6892568,-0.07841431,-0.04413211,0.9625628,0.2556864,-8.594119000000001,8.281583,0.95538974,2.6363335,-0.8803675999999999,-0.43065497,10.104115579061292,2.71917047625102,-1.0026937812209709,-0.9693622027894322,11.43779,1.2925607,-2.9257722000000004,-0.37702945,0
-0.2499999999999989,1.9582384999999998,-2.6686282,1.6988176,-0.0706459,-0.032720037,0.96283144,0.25863758,-8.610876,8.277747999999999,0.95685464,2.6492310000000003,-0.8994936,-0.45708948,10.104115579061292,2.71917047625102,-1.0026937812209709,-0.9693622027894322,11.43779,1.2925607,-2.9257722000000004,-0.37702945,0
-0.23999999999999888,1.8720548,-2.5858622,1.708395,-0.062759034,-0.021276133,0.96288145,0.2616622,-8.625541,8.275769,0.9587032,2.6601179,-0.91563445,-0.48222688,9.563545322670311,2.081065274115465,-1.5439795134724963,-1.0721457876010112,10.32925,0.5839466,-2.5978315,-0.32049665,0
-0.22999999999999865,1.7857385,-2.5031064,1.7179658,-0.05463064,-0.010110415,0.9627158000000001,0.26474655,-8.637399,8.275633000000001,0.9554976000000001,2.5697648999999996,-1.0136448,-0.5111743,9.563545322670311,2.081065274115465,-1.5439795134724963,-1.0721457876010112,10.32925,0.5839466,-2.5978315,-0.32049665,0
-0.21999999999999864,1.699314,-2.420344,1.7275057,-0.046165988,0.0005301845,0.9623431,0.26788703,-8.647185,8.27713,0.9525163000000001,2.4935055,-1.0963697000000001,-0.53870136,9.563545322670311,2.081065274115465,-1.5439795134724963,-1.0721457876010112,10.32925,0.5839466,-2.5978315,-0.32049665,0
-0.20999999999999863,1.6128021000000001,-2.337559,1.7370166,-0.037420236,0.010725027,0.96176654,0.2710888,-8.654855,8.280145,0.94969326,2.4291415,-1.166193,-0.5648776,9.563545322670311,2.081065274115465,-1.5439795134724963,-1.0721457876010112,10.32925,0.5839466,-2.5978315,-0.32049665,0
-0.19999999999999862,1.5262243,-2.2547363999999996,1.7464998,-0.028440083999999997,0.020541288,0.9609882,0.2743542,-8.660368,8.284573,0.94696414,2.3748176,-1.2251271000000001,-0.5897694,9.999773557713569,1.5657307966729055,-1.042201217718947,-1.0606106599331977,11.0003605,-0.0811347,-2.4415147,0.34020945,0
-0.18999999999999884,1.4396014,-2.1718616,1.7559776999999999,-0.0195149,0.02989315,0.96001196,0.27767240000000004,-8.6638565,8.290583,0.94861734,2.248634,-1.1965853000000002,-0.61287373,9.999773557713569,1.5657307966729055,-1.042201217718947,-1.0606106599331977,11.0003605,-0.0811347,-2.4415147,0.34020945,0
-0.17999999999999883,1.3529547,-2.0889206000000002,1.7654720000000002,-0.010876838,0.038716916000000004,0.9588540000000001,0.2810357,-8.665121000000001,8.297868,0.9502389000000001,2.1421287,-1.1724974,-0.63484436,9.999773557713569,1.5657307966729055,-1.042201217718947,-1.0606106599331977,11.0003605,-0.0811347,-2.4415147,0.34020945,0
-0.16999999999999882,1.2663062,-2.0059004000000002,1.7749821,-0.0024850322,0.04709473,0.95753074,0.28444722,-8.664232,8.306333,0.9517716,2.0522325,-1.1521686000000002,-0.65573686,9.999773557713569,1.5657307966729055,-1.042201217718947,-1.0606106599331977,11.0003605,-0.0811347,-2.4415147,0.34020945,0
-0.1599999999999988,1.1796772,-1.9227902,1.7845069,0.005695256,0.05509589,0.9560545,0.28790832,-8.661253,8.315891,0.9531648000000001,1.9763556,-1.1350127,-0.67560416,9.999773557713569,1.5657307966729055,-1.042201217718947,-1.0606106599331977,14.065367000000002,-1.1416466,-3.2037299999999997,1.4978209999999998,0
-0.1499999999999988,1.0930883,-1.8395791000000001,1.7940449,0.013693525,0.06277883,0.9544348,0.29141890000000004,-8.656234,8.32647,0.95437264,1.9123113999999999,-1.1205344,-0.6944965999999999,9.999773557713569,1.5657307966729055,-1.042201217718947,-1.0606106599331977,14.065367000000002,-1.1416466,-3.2037299999999997,1.4978209999999998,0
-0.1399999999999988,1.0065594,-1.7562575,1.8035936000000001,0.021534797,0.07019279,0.95267874,0.29497787,-8.649219500000001,8.338004,0.95535296,1.858255,-1.1083158000000002,-0.7124619000000001,9.999773557713569,1.5657307966729055,-1.042201217718947,-1.0606106599331977,14.065367000000002,-1.1416466,-3.2037299999999997,1.4978209999999998,0
-0.12999999999999878,0.9201106,-1.672816,1.8131509,0.029240275,0.07737920400000001,0.9507916999999999,0.29858336,-8.640246000000001,8.350436,0.9560665999999999,1.8126286,-1.0980045,-0.72954565,9.999773557713569,1.5657307966729055,-1.042201217718947,-1.0606106599331977,14.065367000000002,-1.1416466,-3.2037299999999997,1.4978209999999998,0
-0.11999999999999877,0.8337610999999999,-1.589246,1.8227138999999999,0.036827907,0.08437294,0.948778,0.30223298,-8.629348,8.363713,0.95647615,1.7741175,-1.0893024,-0.74579114,10.698656830807387,0.8858476968290779,-0.4589608996155528,-0.9120517315908508,15.934123000000001,-2.1302285,-4.0357695,2.666818,0
-0.10999999999999877,0.74753445,-1.5055344,1.8323133999999999,0.044010602,0.09101579,0.9466812,0.30589770000000005,-8.615674,8.37877,0.96340996,1.6356347,-0.99094266,-0.7539494999999999,10.698656830807387,0.8858476968290779,-0.4589608996155528,-0.9120517315908508,15.934123000000001,-2.1302285,-4.0357695,2.666818,0
-0.09999999999999876,0.6614541,-1.4216683,1.8419807000000001,0.050561927,0.09718604,0.9445495999999999,0.3095545,-8.6001215,8.394608,0.96996707,1.518742,-0.9079308,-0.7617076999999999,10.698656830807387,0.8858476968290779,-0.4589608996155528,-0.9120517315908508,15.934123000000001,-2.1302285,-4.0357695,2.666818,0
-0.08999999999999875,0.575538,-1.33764,1.8517113999999997,0.05657783,0.1029594,0.9423898,0.31320825,-8.582836,8.411159,0.9761414,1.4200732,-0.8378721,-0.7690851,10.698656830807387,0.8858476968290779,-0.4589608996155528,-0.9120517315908508,15.934123000000001,-2.1302285,-4.0357695,2.666818,0
