time-since-start [s],throttle_mpc,roll_mpc,pitch_mpc,yaw_mpc,throttle_nw,roll_nw,pitch_nw,yaw_nw,position_x [m],position_y [m],position_z [m],rotation_w [quaternion],rotation_x [quaternion],rotation_y [quaternion],rotation_z [quaternion],velocity_x [m/s],velocity_y [m/s],velocity_z [m/s],omega_x [rad/s],omega_y [rad/s],omega_z [rad/s],network_used
0.0,10.613146069916073,1.6618757602437542,-5.999997793681884,-0.17108913036102974,6.666343,0.77316815,-1.8462788,0.50863147,9.043278,-2.9329236,0.17386985,0.106725186,-0.1928773,-0.27384192,0.93617237,-3.7642498,2.227899,0.17246528,-0.21023186,-0.12280705,-0.18358968,0
0.01,10.613146069916073,1.6618757602437542,-5.999997793681884,-0.17108913036102974,7.6220565,1.4876552,-5.948821,-0.2704848,9.005419,-2.910895,0.17551869,0.10086267,-0.16358227,-0.2692976,0.9436876,-3.8065443,2.17769,0.15773617,1.6618757,-5.9999976,-0.17108913,0
0.02,10.613146069916073,1.6618757602437542,-5.999997793681884,-0.17108913036102974,7.6220565,1.4876552,-5.948821,-0.2704848,8.967167,-2.8893707,0.17703356,0.09490234,-0.1341286,-0.26449212,0.9502879,-3.8427818,2.1271565,0.14562277,1.6618757,-5.9999976,-0.17108913,0
0.03,10.613146069916073,1.6618757602437542,-5.999997793681884,-0.17108913036102974,7.6220565,1.4876552,-5.948821,-0.2704848,8.928584,-2.8683524,0.17843896,0.08884998,-0.10454488,-0.2594302,0.95596653,-3.8728201,2.076485,0.13578679,1.6618757,-5.9999976,-0.17108913,0
0.04,10.613146069916073,1.6618757602437542,-5.999997793681884,-0.17108913036102974,7.457023,0.88041145,-4.5272274,-0.27210093,8.889731,-2.8478408,0.17975591,0.08271146,-0.074859776,-0.2541167,0.9607182,-3.8965416,2.0258613,0.12788104,1.6618757,-5.9999976,-0.17108913,0
0.05,10.613146069916073,1.6618757602437542,-5.999997793681884,-0.17108913036102974,7.457023,0.88041145,-4.5272274,-0.27210093,8.850675,-2.8278346,0.18100199,0.076492734,-0.04510209,-0.24855678,0.9645384,-3.913852,1.9754717,0.12155089,1.6618757,-5.9999976,-0.17108913,0
0.060000000000000005,10.613146069916073,1.6618757602437542,-5.999997793681884,-0.17108913036102974,7.457023,0.88041145,-4.5272274,-0.27210093,8.811477,-2.80833,0.18219112,0.07019984,-0.015300661,-0.24275583,0.9674232,-3.9246833,1.9255018,0.116435595,1.6618757,-5.9999976,-0.17108913,0
0.07,10.613146069916073,1.6618757602437542,-5.999997793681884,-0.17108913036102974,7.457023,0.88041145,-4.5272274,-0.27210093,8.772203,-2.7893226,0.18333362,0.06383887,0.014515605,-0.23671947,0.9693699,-3.928992,1.8761352,0.11216971,1.6618757,-5.9999976,-0.17108913,0
0.08,11.364437515297592,1.382327241134372,-5.433892857493659,-0.3845869795870531,7.5641356,1.1321087,-2.8241205,-0.106410176,8.73292,-2.7708046,0.18443616,0.057416,0.044317797,-0.23045358,0.9703766,-3.9267595,1.8275532,0.10838447,1.6618757,-5.9999976,-0.17108913,0
0.09,11.364437515297592,1.382327241134372,-5.433892857493659,-0.3845869795870531,7.5641356,1.1321087,-2.8241205,-0.106410176,8.693691,-2.7527852,0.18553504,0.052692313,0.07150132,-0.22513114,0.9702718,-3.917626,1.7764741,0.11137541,1.3823272,-5.4338927,-0.384587,0
0.09999999999999999,11.364437515297592,1.382327241134372,-5.433892857493659,-0.3845869795870531,7.5641356,1.1321087,-2.8241205,-0.106410176,8.654588,-2.7352722,0.18666267,0.04792702,0.09862839,-0.21963093,0.9694008,-3.9022002,1.726348,0.114078626,1.3823272,-5.4338927,-0.384587,0
0.10999999999999999,11.364437515297592,1.382327241134372,-5.433892857493659,-0.3845869795870531,7.5641356,1.1321087,-2.8241205,-0.106410176,8.615669,-2.7182548,0.18781452,0.043123886,0.12567757,-0.21395731,0.96776444,-3.8805282,1.6773108,0.11616613,1.3823272,-5.4338927,-0.384587,0
0.11999999999999998,11.364437515297592,1.382327241134372,-5.433892857493659,-0.3845869795870531,7.5641356,1.1321087,-2.8241205,-0.106410176,8.576999,-2.7017217,0.18898278,0.0382867,0.15262753,-0.20811474,0.96536386,-3.8526752,1.6294949,0.117311865,1.3823272,-5.4338927,-0.384587,0
0.12999999999999998,11.310100311059852,0.9781914453030972,1.1652448692466142,-0.5139969005482715,7.9252567,2.0340898,-1.1184409,-0.20793591,8.538637,-2.6856604,0.19015643,0.03341929,0.17945695,-0.20210786,0.9622011,-3.8187263,1.5830289,0.11719275,1.3823272,-5.4338927,-0.384587,0
0.13999999999999999,11.310100311059852,0.9781914453030972,1.1652448692466142,-0.5139969005482715,7.9252567,2.0340898,-1.1184409,-0.20793591,8.500637,-2.6700559,0.1913217,0.03619083,0.17452808,-0.1967394,0.96411824,-3.7815998,1.538061,0.116000496,0.97819144,1.1652448,-0.5139969,0
0.15,11.310100311059852,0.9781914453030972,1.1652448692466142,-0.5139969005482715,7.9252567,2.0340898,-1.1184409,-0.20793591,8.463003,-2.6548955,0.19247943,0.03896004,0.16958797,-0.19135827,0.9659732,-3.745554,1.4941102,0.11567899,0.97819144,1.1652448,-0.5139969,0
0.16,11.339354953215445,0.7489268776300796,4.179960986839345,-0.5041215057285303,8.810764,1.7226772,2.5436447,-0.37233266,8.425724,-2.6401699,0.1936382,0.04172674,0.16463692,-0.1859648,0.96776587,-3.7105908,1.451193,0.11620608,0.97819144,1.1652448,-0.5139969,0
0.17,11.339354953215445,0.7489268776300796,4.179960986839345,-0.5041215057285303,8.810764,1.7226772,2.5436447,-0.37233266,8.388785,-2.6258688,0.1948088,0.047426246,0.14499965,-0.18101166,0.9715764,-3.677852,1.4091609,0.11819483,0.7489269,4.179961,-0.5041215,0
0.18000000000000002,11.339354953215445,0.7489268776300796,4.179960986839345,-0.5041215057285303,8.810764,1.7226772,2.5436447,-0.37233266,8.352152,-2.6119833,0.19600803,0.053104073,0.1252961,-0.1759758,0.9749428,-3.649503,1.3680942,0.121909134,0.7489269,4.179961,-0.5041215,0
0.19000000000000003,11.339354953215445,0.7489268776300796,4.179960986839345,-0.5041215057285303,8.810764,1.7226772,2.5436447,-0.37233266,8.31578,-2.598503,0.19725229,0.058757618,0.10553527,-0.17085947,0.97786343,-3.6255875,1.3280891,0.1271722,0.7489269,4.179961,-0.5041215,0
0.20000000000000004,11.2732460581893,0.7920991975717974,4.112505424226114,-0.41900781213004834,10.0950575,2.415923,2.8374636,-0.5360694,8.279625,-2.5854173,0.19855618,0.064384304,0.085726194,-0.16566503,0.9803371,-3.6061406,1.2892398,0.13380441,0.7489269,4.179961,-0.5041215,0
0.21000000000000005,11.2732460581893,0.7920991975717974,4.112505424226114,-0.41900781213004834,10.0950575,2.415923,2.8374636,-0.5360694,8.243641,-2.572713,0.1999294,0.06949049,0.06615251,-0.1602426,0.9824038,-3.5912464,1.251871,0.14100687,0.7920992,4.1125054,-0.4190078,0
0.22000000000000006,11.2732460581893,0.7920991975717974,4.112505424226114,-0.41900781213004834,10.0950575,2.415923,2.8374636,-0.5360694,8.207784,-2.5603752,0.20137978,0.0745659,0.04654954,-0.15474923,0.98403543,-3.5807595,1.215865,0.1492105,0.7920992,4.1125054,-0.4190078,0
0.23000000000000007,11.2732460581893,0.7920991975717974,4.112505424226114,-0.41900781213004834,10.0950575,2.415923,2.8374636,-0.5360694,8.172009,-2.5483906,0.20291643,0.079608284,0.026925948,-0.1491873,0.9852313,-3.5746918,1.1813027,0.15823422,0.7920992,4.1125054,-0.4190078,0
0.24000000000000007,11.2732460581893,0.7920991975717974,4.112505424226114,-0.41900781213004834,10.345449,2.4845674,1.6273166,-0.25260252,8.136273,-2.5367439,0.20454663,0.08461541,0.0072904318,-0.1435593,0.98599076,-3.573047,1.1482625,0.16789553,0.7920992,4.1125054,-0.4190078,0
0.25000000000000006,11.2732460581893,0.7920991975717974,4.112505424226114,-0.41900781213004834,10.345449,2.4845674,1.6273166,-0.25260252,8.100533,-2.52542,0.20627587,0.08958506,-0.012348314,-0.13786775,0.9863136,-3.5758207,1.1168201,0.17801078,0.7920992,4.1125054,-0.4190078,0
0.26000000000000006,11.2732460581893,0.7920991975717974,4.112505424226114,-0.41900781213004834,10.345449,2.4845674,1.6273166,-0.25260252,8.064741,-2.5144017,0.20810775,0.09451503,-0.03198159,-0.13211513,0.9861996,-3.5830016,1.0870483,0.1883955,0.7920992,4.1125054,-0.4190078,0
0.2700000000000001,11.2732460581893,0.7920991975717974,4.112505424226114,-0.41900781213004834,10.345449,2.4845674,1.6273166,-0.25260252,8.028856,-2.5036728,0.21004407,0.09940314,-0.051600702,-0.126304,0.9856489,-3.5945694,1.059017,0.19886479,0.7920992,4.1125054,-0.4190078,0
0.2800000000000001,11.212472550572404,0.7983876860384908,2.548134528571023,-0.3252973003396087,10.011842,2.1538813,1.0737481,-0.16033934,7.992834,-2.4932153,0.21208473,0.104247235,-0.07119696,-0.12043693,0.9846616,-3.610497,1.0327929,0.20923352,0.7920992,4.1125054,-0.4190078,0
0.2900000000000001,11.212472550572404,0.7983876860384908,2.548134528571023,-0.3252973003396087,10.011842,2.1538813,1.0737481,-0.16033934,7.9566336,-2.4830105,0.2142251,0.1076579,-0.08312337,-0.11528311,0.98397666,-3.6300054,1.0084236,0.21882196,0.7983877,2.5481346,-0.3252973,0
0.3000000000000001,11.212472550572404,0.7983876860384908,2.548134528571023,-0.3252973003396087,10.011842,2.1538813,1.0737481,-0.16033934,7.9202247,-2.4730418,0.21646059,0.11104909,-0.09503474,-0.11010843,0.98311377,-3.652095,0.9855616,0.22824231,0.7983877,2.5481346,-0.3252973,0
0.3100000000000001,11.212472550572404,0.7983876860384908,2.548134528571023,-0.3252973003396087,10.011842,2.1538813,1.0737481,-0.16033934,7.8835826,-2.4632938,0.2187891,0.1144202,-0.106928915,-0.10491383,0.98207295,-3.6767457,0.9642316,0.2374206,0.7983877,2.5481346,-0.3252973,0
0.3200000000000001,11.238083357587248,0.8184091739461584,1.2161159864121784,-0.22365874089516374,9.738444,2.1389885,0.5158105,-0.21055794,7.846681,-2.4537518,0.22120789,0.117770605,-0.11880375,-0.09970025,0.9808545,-3.703935,0.944457,0.24628305,0.7983877,2.5481346,-0.3252973,0
0.3300000000000001,11.238083357587248,0.8184091739461584,1.2161159864121784,-0.22365874089516374,9.738444,2.1389885,0.5158105,-0.21055794,7.809497,-2.4443998,0.22371499,0.11995661,-0.124171175,-0.09510059,0.9803815,-3.7331767,0.9260817,0.25512466,0.81840914,1.216116,-0.22365874,0
0.34000000000000014,11.238083357587248,0.8184091739461584,1.2161159864121784,-0.22365874089516374,9.738444,2.1389885,0.5158105,-0.21055794,7.7720146,-2.4352255,0.22631003,0.12213603,-0.12953179,-0.090495706,0.9798545,-3.7635102,0.908936,0.26386634,0.81840914,1.216116,-0.22365874,0
0.35000000000000014,11.238083357587248,0.8184091739461584,1.2161159864121784,-0.22365874089516374,9.738444,2.1389885,0.5158105,-0.21055794,7.7342234,-2.4262168,0.2289919,0.124308735,-0.13488528,-0.085885845,0.97927374,-3.7949264,0.89302593,0.27248627,0.81840914,1.216116,-0.22365874,0
0.36000000000000015,11.174482145828506,0.8426564611259834,0.05070515350247594,-0.17611958056136873,9.613127,1.7541468,-0.35748014,-0.3241523,7.6961126,-2.417361,0.23175927,0.1264746,-0.14023137,-0.08127126,0.97863907,-3.8274157,0.8783573,0.2809626,0.81840914,1.216116,-0.22365874,0
0.37000000000000016,11.174482145828506,0.8426564611259834,0.05070515350247594,-0.17611958056136873,9.613127,1.7541468,-0.35748014,-0.3241523,7.657674,-2.4086456,0.23460795,0.12794666,-0.13987373,-0.07723866,0.9788254,-3.8603237,0.86488867,0.28879887,0.84265643,0.050705153,-0.17611958,0
0.38000000000000017,11.174482145828506,0.8426564611259834,0.05070515350247594,-0.17611958056136873,9.613127,1.7541468,-0.35748014,-0.3241523,7.6189065,-2.4000602,0.2375358,0.12941633,-0.13951351,-0.07320462,0.9789936,-3.8930693,0.85233504,0.29679775,0.84265643,0.050705153,-0.17611958,0
0.3900000000000002,11.174482145828506,0.8426564611259834,0.05070515350247594,-0.17611958056136873,9.613127,1.7541468,-0.35748014,-0.3241523,7.579813,-2.3915956,0.24054444,0.13088359,-0.13915066,-0.06916922,0.9791437,-3.9256485,0.84069675,0.30495209,0.84265643,0.050705153,-0.17611958,0
0.4000000000000002,11.232673040681977,0.8642831332744828,0.0681463982832748,-0.14433150636702627,9.8020315,1.7602367,-0.7903718,-0.4461259,7.5403943,-2.3832428,0.24363534,0.13234842,-0.13878526,-0.065132536,0.9792754,-3.9580574,0.82997435,0.3132547,0.84265643,0.050705153,-0.17611958,0
0.4100000000000002,11.232673040681977,0.8642831332744828,0.0681463982832748,-0.14433150636702627,9.8020315,1.7602367,-0.7903718,-0.4461259,7.500652,-2.374993,0.24681276,0.13367578,-0.13849865,-0.060955122,0.9794046,-3.9904647,0.82012796,0.32225293,0.86428314,0.0681464,-0.1443315,0
0.4200000000000002,11.232673040681977,0.8642831332744828,0.0681463982832748,-0.14433150636702627,9.8020315,1.7602367,-0.7903718,-0.4461259,7.460586,-2.3668368,0.25008085,0.13500057,-0.13820937,-0.05677653,0.97951496,-4.0227056,0.81123185,0.33138448,0.86428314,0.0681464,-0.1443315,0
0.4300000000000002,11.232673040681977,0.8642831332744828,0.0681463982832748,-0.14433150636702627,9.8020315,1.7602367,-0.7903718,-0.4461259,7.420198,-2.358765,0.25344092,0.13632275,-0.13791743,-0.05259685,0.97960633,-4.054776,0.8032862,0.34064165,0.86428314,0.0681464,-0.1443315,0
0.4400000000000002,11.232673040681977,0.8642831332744828,0.0681463982832748,-0.14433150636702627,9.483332,1.6210101,-0.9049674,-0.42674282,7.3794904,-2.350768,0.25689414,0.13764231,-0.13762282,-0.048416153,0.9796788,-4.0866733,0.7962915,0.3500167,0.86428314,0.0681464,-0.1443315,0
0.45000000000000023,11.232673040681977,0.8642831332744828,0.0681463982832748,-0.14433150636702627,9.483332,1.6210101,-0.9049674,-0.42674282,7.338465,-2.3428361,0.26044166,0.13895918,-0.13732554,-0.044234518,0.97973233,-4.1183925,0.7902479,0.35950202,0.86428314,0.0681464,-0.1443315,0
0.46000000000000024,11.232673040681977,0.8642831332744828,0.0681463982832748,-0.14433150636702627,9.483332,1.6210101,-0.9049674,-0.42674282,7.2971234,-2.33496,0.26408455,0.14027339,-0.13702562,-0.040052027,0.9797669,-4.1499305,0.78515565,0.36908984,0.86428314,0.0681464,-0.1443315,0
0.47000000000000025,11.232673040681977,0.8642831332744828,0.0681463982832748,-0.14433150636702627,9.483332,1.6210101,-0.9049674,-0.42674282,7.255468,-2.3271298,0.2678238,0.14158487,-0.13672304,-0.035868768,0.97978264,-4.181283,0.7810147,0.3787724,0.86428314,0.0681464,-0.1443315,0
0.48000000000000026,11.16289889901653,0.864769551264914,-0.1562812310724823,-0.13448825934021222,8.903129,1.4444754,-1.2405123,-0.4987217,7.2134995,-2.3193362,0.2716603,0.14289364,-0.13641784,-0.031684812,0.9797794,-4.212446,0.7778251,0.38854203,0.86428314,0.0681464,-0.1443315,0
0.49000000000000027,11.16289889901653,0.864769551264914,-0.1562812310724823,-0.13448825934021222,8.903129,1.4444754,-1.2405123,-0.4987217,7.1712213,-2.31157,0.27559158,0.14411616,-0.13501173,-0.027651487,0.9799173,-4.243139,0.7755739,0.3977447,0.8647696,-0.15628123,-0.13448825,0
0.5000000000000002,11.16289889901653,0.864769551264914,-0.1562812310724823,-0.13448825934021222,8.903129,1.4444754,-1.2405123,-0.4987217,7.1286383,-2.303822,0.27961564,0.14533585,-0.13360295,-0.023617616,0.9800357,-4.2734046,0.77419585,0.40708303,0.8647696,-0.15628123,-0.13448825,0
0.5100000000000002,11.16289889901653,0.864769551264914,-0.1562812310724823,-0.13448825934021222,8.903129,1.4444754,-1.2405123,-0.4987217,7.0857544,-2.2960832,0.2837337,0.14655265,-0.13219154,-0.019583277,0.98013484,-4.3032417,0.7736905,0.416549,0.8647696,-0.15628123,-0.13448825,0
0.5200000000000002,11.168366865930665,0.8503362296327284,-0.1560271751982552,-0.12021914814064871,8.605652,1.4339073,-1.5177556,-0.48931897,7.042575,-2.288345,0.28794703,0.14776656,-0.13077751,-0.015548551,0.9802146,-4.3326464,0.7740574,0.42613465,0.8647696,-0.15628123,-0.13448825,0
0.5300000000000002,11.168366865930665,0.8503362296327284,-0.1560271751982552,-0.12021914814064871,8.605652,1.4339073,-1.5177556,-0.48931897,6.9991026,-2.280599,0.29225704,0.14889824,-0.12937397,-0.011574744,0.9802846,-4.361631,0.7752907,0.43588436,0.85033625,-0.15602717,-0.12021915,0
0.5400000000000003,11.168366865930665,0.8503362296327284,-0.1560271751982552,-0.12021914814064871,8.605652,1.4339073,-1.5177556,-0.48931897,6.9553432,-2.2728364,0.29666507,0.1500271,-0.12796797,-0.0076007154,0.9803359,-4.3901806,0.77738005,0.44573677,0.85033625,-0.15602717,-0.12021915,0
0.5500000000000003,11.168366865930665,0.8503362296327284,-0.1560271751982552,-0.12021914814064871,8.605652,1.4339073,-1.5177556,-0.48931897,6.9113,-2.2650485,0.3011721,0.15115309,-0.12655951,-0.0036265422,0.9803685,-4.4182925,0.78032464,0.4556841,0.85033625,-0.15602717,-0.12021915,0
0.5600000000000003,11.110726953124004,0.8094242670184149,-0.27638449713983415,-0.11608461088047763,8.60905,1.4071937,-1.7161525,-0.51013565,6.866978,-2.257227,0.30577904,0.15227622,-0.12514867,0.00034769997,0.98038244,-4.4459634,0.7841238,0.46571854,0.85033625,-0.15602717,-0.12021915,0
0.5700000000000003,11.110726953124004,0.8094242670184149,-0.27638449713983415,-0.11608461088047763,8.60905,1.4071937,-1.7161525,-0.51013565,6.8223825,-2.2493634,0.31048396,0.15335082,-0.12317662,0.004032339,0.9804565,-4.4730086,0.78872144,0.47528547,0.8094243,-0.2763845,-0.11608461,0
0.5800000000000003,11.110726953124004,0.8094242670184149,-0.27638449713983415,-0.11608461088047763,8.60905,1.4071937,-1.7161525,-0.51013565,6.777519,-2.2414498,0.3152851,0.15442257,-0.12120227,0.007716903,0.9805122,-4.4995,0.79408413,0.48495477,0.8094243,-0.2763845,-0.11608461,0
0.5900000000000003,11.110726953124004,0.8094242670184149,-0.27638449713983415,-0.11608461088047763,8.60905,1.4071937,-1.7161525,-0.51013565,6.732394,-2.233479,0.32018337,0.15549141,-0.119225666,0.011401324,0.98054975,-4.5254335,0.8002109,0.49471882,0.8094243,-0.2763845,-0.11608461,0
0.6000000000000003,11.114767203077946,0.7504028003588843,-0.24612668981266864,-0.11382032857033467,8.76945,1.4477773,-1.6519195,-0.5164235,6.687012,-2.2254431,0.32517976,0.15655738,-0.11724684,0.015085531,0.98056895,-4.550808,0.8071006,0.50456995,0.8094243,-0.2763845,-0.11608461,0
0.6100000000000003,11.114767203077946,0.7504028003588843,-0.24612668981266864,-0.11382032857033467,8.76945,1.4477773,-1.6519195,-0.5164235,6.64138,-2.2173345,0.33027524,0.15757266,-0.115460366,0.01850512,0.98055977,-4.575648,0.8147354,0.51453674,0.7504028,-0.2461267,-0.11382033,0
0.6200000000000003,11.114767203077946,0.7504028003588843,-0.24612668981266864,-0.11382032857033467,8.76945,1.4477773,-1.6519195,-0.5164235,6.595501,-2.209146,0.3354707,0.15858543,-0.113672055,0.021924417,0.9805349,-4.599974,0.82307893,0.52456796,0.7504028,-0.2461267,-0.11382033,0
0.6300000000000003,11.114767203077946,0.7504028003588843,-0.24612668981266864,-0.11382032857033467,8.76945,1.4477773,-1.6519195,-0.5164235,6.549382,-2.2008708,0.3407668,0.15959567,-0.111881934,0.025343364,0.9804945,-4.6237845,0.83213025,0.5346571,0.7504028,-0.2461267,-0.11382033,0
0.6400000000000003,11.114767203077946,0.7504028003588843,-0.24612668981266864,-0.11382032857033467,8.978253,1.4486027,-1.6893886,-0.5627732,6.5030274,-2.192501,0.34616402,0.16060336,-0.11009003,0.028761907,0.9804385,-4.647077,0.8418882,0.54479766,0.7504028,-0.2461267,-0.11382033,0
0.6500000000000004,11.114767203077946,0.7504028003588843,-0.24612668981266864,-0.11382032857033467,8.978253,1.4486027,-1.6893886,-0.5627732,6.4564424,-2.1840305,0.3516629,0.1616085,-0.10829638,0.03217999,0.9803668,-4.6698484,0.8523514,0.554983,0.7504028,-0.2461267,-0.11382033,0
0.6600000000000004,11.114767203077946,0.7504028003588843,-0.24612668981266864,-0.11382032857033467,8.978253,1.4486027,-1.6893886,-0.5627732,6.409632,-2.1754515,0.35726383,0.16261108,-0.106501006,0.035597563,0.9802796,-4.692097,0.86351883,0.56520677,0.7504028,-0.2461267,-0.11382033,0
0.6700000000000004,11.114767203077946,0.7504028003588843,-0.24612668981266864,-0.11382032857033467,8.978253,1.4486027,-1.6893886,-0.5627732,6.362602,-2.1667573,0.36296713,0.16361105,-0.10470393,0.039014567,0.98017675,-4.713821,0.8753891,0.5754623,0.7504028,-0.2461267,-0.11382033,0
0.6800000000000004,11.056732340629146,0.6922719754386578,-0.3386956246794502,-0.11329470227788861,9.213436,1.545661,-1.5593411,-0.59616226,6.3153577,-2.157941,0.36877313,0.16460845,-0.1029052,0.04243095,0.9800583,-4.735018,0.88796085,0.585743,0.7504028,-0.2461267,-0.11382033,0
0.6900000000000004,11.056732340629146,0.6922719754386578,-0.3386956246794502,-0.11329470227788861,9.213436,1.545661,-1.5593411,-0.59616226,6.2679043,-2.148996,0.37467927,0.16559044,-0.10069898,0.0454859,0.979985,-4.7555504,0.90112865,0.5954859,0.69227195,-0.33869562,-0.113294706,0
0.7000000000000004,11.056732340629146,0.6922719754386578,-0.3386956246794502,-0.11329470227788861,9.213436,1.545661,-1.5593411,-0.59616226,6.220249,-2.1399164,0.38068298,0.16656989,-0.09849123,0.04854016,0.97989684,-4.775481,0.9148989,0.6052665,0.69227195,-0.33869562,-0.113294706,0
0.7100000000000004,11.056732340629146,0.6922719754386578,-0.3386956246794502,-0.11329470227788861,9.213436,1.545661,-1.5593411,-0.59616226,6.172397,-2.130696,0.3867847,0.16754682,-0.09628199,0.051593684,0.97979385,-4.794809,0.9292699,0.61507845,0.69227195,-0.33869562,-0.113294706,0
0.7200000000000004,11.037912205870123,0.5987005703008923,-0.24041980422693668,-0.11118638196329542,9.202826,1.480427,-1.5659329,-0.6408261,6.124355,-2.121329,0.39298466,0.16852123,-0.09407129,0.054646425,0.97967595,-4.8135314,0.94424033,0.62491566,0.69227195,-0.33869562,-0.113294706,0
0.7300000000000004,11.037912205870123,0.5987005703008923,-0.24041980422693668,-0.11118638196329542,9.202826,1.480427,-1.5659329,-0.6408261,6.0761285,-2.1118097,0.39928216,0.16941224,-0.092419036,0.05732391,0.9795266,-4.8316665,0.95975876,0.634583,0.5987006,-0.2404198,-0.111186385,0
0.7400000000000004,11.037912205870123,0.5987005703008923,-0.24041980422693668,-0.11118638196329542,9.202826,1.480427,-1.5659329,-0.6408261,6.027723,-2.1021323,0.40567634,0.17030145,-0.09076579,0.060000785,0.9793667,-4.8493304,0.9758106,0.6442505,0.5987006,-0.2404198,-0.111186385,0
0.7500000000000004,11.037912205870123,0.5987005703008923,-0.24041980422693668,-0.11118638196329542,9.202826,1.480427,-1.5659329,-0.6408261,5.979143,-2.0922916,0.41216716,0.17118883,-0.089111574,0.06267701,0.97919637,-4.8665214,0.99239475,0.653914,0.5987006,-0.2404198,-0.111186385,0
0.7600000000000005,10.951934441156224,0.51931098434243,-0.41351350382755103,-0.11422241089152606,9.093553,1.3677659,-1.5077169,-0.70479727,5.9303937,-2.0822823,0.4187546,0.17207438,-0.0874564,0.065352574,0.9790155,-4.8832374,1.0095099,0.663569,0.5987006,-0.2404198,-0.111186385,0
0.7700000000000005,10.951934441156224,0.51931098434243,-0.41351350382755103,-0.11422241089152606,9.093553,1.3677659,-1.5077169,-0.70479727,5.8814807,-2.0721004,0.42543435,0.17299473,-0.08502225,0.06748854,0.97892284,-4.8992963,1.026964,0.67238903,0.519311,-0.4135135,-0.11422241,0
0.7800000000000005,10.951934441156224,0.51931098434243,-0.41351350382755103,-0.11422241089152606,9.093553,1.3677659,-1.5077169,-0.70479727,5.8324103,-2.0617418,0.43220246,0.17391312,-0.08258713,0.069623746,0.978819,-4.914737,1.0447994,0.6812372,0.519311,-0.4135135,-0.11422241,0
0.7900000000000005,10.951934441156224,0.51931098434243,-0.41351350382755103,-0.11422241089152606,9.093553,1.3677659,-1.5077169,-0.70479727,5.7831883,-2.0512033,0.43905914,0.17482954,-0.08015108,0.07175816,0.97870415,-4.929559,1.0630151,0.69010895,0.519311,-0.4135135,-0.11422241,0
0.8000000000000005,10.927074430462525,0.4480054566819644,-0.1492376761165064,-0.11220953912375004,9.093313,1.8039324,-1.7340707,-1.6891673,5.7338214,-2.0404804,0.4460047,0.17574398,-0.077714115,0.07389175,0.97857815,-4.943761,1.0816094,0.6989997,0.519311,-0.4135135,-0.11422241,0
0.8100000000000005,10.927074430462525,0.4480054566819644,-0.1492376761165064,-0.11220953912375004,9.093313,1.8039324,-1.7340707,-1.6891673,5.684315,-2.0295699,0.45303795,0.17652172,-0.07663147,0.07590884,0.97836906,-4.957421,1.1005465,0.7076465,0.44800547,-0.14923768,-0.112209536,0
0.8200000000000005,10.927074430462525,0.4480054566819644,-0.1492376761165064,-0.11220953912375004,9.093313,1.8039324,-1.7340707,-1.6891673,5.634674,-2.0184681,0.4601575,0.17729841,-0.07554837,0.07792547,0.97815424,-4.970755,1.1198825,0.7162628,0.44800547,-0.14923768,-0.112209536,0
0.8300000000000005,10.927074430462525,0.4480054566819644,-0.1492376761165064,-0.11220953912375004,9.093313,1.8039324,-1.7340707,-1.6891673,5.584901,-2.007171,0.46736312,0.17807406,-0.074464835,0.07994166,0.9779337,-4.9837627,1.1396168,0.72484654,0.44800547,-0.14923768,-0.112209536,0
0.8400000000000005,10.927074430462525,0.4480054566819644,-0.1492376761165064,-0.11220953912375004,9.348008,1.6530664,-1.4639739,-1.6584561,5.5349994,-1.9956745,0.47465435,0.17884865,-0.07338085,0.08195737,0.97770745,-4.9964437,1.1597488,0.73339546,0.44800547,-0.14923768,-0.112209536,0
0.8500000000000005,10.927074430462525,0.4480054566819644,-0.1492376761165064,-0.11220953912375004,9.348008,1.6530664,-1.4639739,-1.6584561,5.484973,-1.9839747,0.4820309,0.1796222,-0.07229644,0.0839726,0.97747546,-5.0087967,1.1802773,0.7419072,0.44800547,-0.14923768,-0.112209536,0
0.8600000000000005,10.927074430462525,0.4480054566819644,-0.1492376761165064,-0.11220953912375004,9.348008,1.6530664,-1.4639739,-1.6584561,5.434825,-1.9720675,0.4894924,0.18039468,-0.071211606,0.08598733,0.97723776,-5.020821,1.2012018,0.7503795,0.44800547,-0.14923768,-0.112209536,0
0.8700000000000006,10.927074430462525,0.4480054566819644,-0.1492376761165064,-0.11220953912375004,9.348008,1.6530664,-1.4639739,-1.6584561,5.384558,-1.959949,0.49703836,0.18116611,-0.070126355,0.08800156,0.9769941,-5.032516,1.2225214,0.7588102,0.44800547,-0.14923768,-0.112209536,0
0.8800000000000006,10.804900985198541,0.39365248022994015,-0.4041302118432677,-0.11416910801348983,6.22033,-2.6218724,-15.138564,-62.28508,5.3341765,-1.9476155,0.5046685,0.18193647,-0.069040686,0.09001526,0.9767447,-5.043881,1.2442352,0.76719695,0.44800547,-0.14923768,-0.112209536,0
0.8900000000000006,10.804900985198541,0.39365248022994015,-0.4041302118432677,-0.11416910801348983,6.22033,-2.6218724,-15.138564,-62.28508,5.2836833,-1.9350644,0.5123763,0.18281107,-0.066760026,0.09153034,0.97659916,-5.054704,1.2660394,0.774368,0.39365247,-0.40413022,-0.114169106,0
0.9000000000000006,10.804900985198541,0.39365248022994015,-0.4041302118432677,-0.11416910801348983,6.22033,-2.6218724,-15.138564,-62.28508,5.2330847,-1.922294,0.52015585,0.18368414,-0.064478815,0.09304465,0.9764455,-5.0649667,1.2880828,0.78154534,0.39365247,-0.40413022,-0.114169106,0
0.9100000000000006,10.804900985198541,0.39365248022994015,-0.4041302118432677,-0.11416910801348983,6.22033,-2.6218724,-15.138564,-62.28508,5.182386,-1.9093019,0.5280072,0.18455571,-0.062197074,0.094558194,0.9762837,-5.0746684,1.3103645,0.78872573,0.39365247,-0.40413022,-0.114169106,0
0.9200000000000006,10.70949892397401,0.33825804968932693,-0.3010758756422827,-0.11504992793279854,9.284964,-0.4649673,-10.279407,-43.244465,5.131593,-1.8960859,0.5359304,0.18542573,-0.059914812,0.09607096,0.97611386,-5.083808,1.3328829,0.79590607,0.39365247,-0.40413022,-0.114169106,0
0.9300000000000006,10.70949892397401,0.33825804968932693,-0.3010758756422827,-0.11504992793279854,9.284964,-0.4649673,-10.279407,-43.244465,5.080712,-1.8826445,0.54392064,0.18623269,-0.058186885,0.09740799,0.97593224,-5.092356,1.35543,0.8021511,0.33825806,-0.30107588,-0.11504993,0
0.9400000000000006,10.70949892397401,0.33825804968932693,-0.3010758756422827,-0.11504992793279854,9.284964,-0.4649673,-10.279407,-43.244465,5.0297475,-1.8689766,0.5519733,0.18703863,-0.05645864,0.09874449,0.9757453,-5.100471,1.3781939,0.8083836,0.33825806,-0.30107588,-0.11504993,0
0.9500000000000006,10.70949892397401,0.33825804968932693,-0.3010758756422827,-0.11504992793279854,9.284964,-0.4649673,-10.279407,-43.244465,4.9787035,-1.8550799,0.5600882,0.18784355,-0.054730084,0.100080445,0.97555304,-5.108152,1.4011737,0.81460166,0.33825806,-0.30107588,-0.11504993,0
0.9600000000000006,10.523246178062541,0.2976783938171498,-0.352300906486989,-0.12033135610333848,12.123751,8.095934,-78.7651,-588.9732,4.9275856,-1.8409524,0.56826526,0.18864745,-0.05300123,0.10141586,0.97535545,-5.115399,1.4243684,0.82080317,0.33825806,-0.30107588,-0.11504993,0
0.9700000000000006,10.523246178062541,0.2976783938171498,-0.352300906486989,-0.12033135610333848,12.123751,8.095934,-78.7651,-588.9732,4.8763976,-1.8265939,0.57649523,0.18949127,-0.05106322,0.10250309,0.97518164,-5.1220794,1.4473481,0.8251783,0.29767838,-0.3523009,-0.120331354,0
0.9800000000000006,10.523246178062541,0.2976783938171498,-0.352300906486989,-0.12033135610333848,12.123751,8.095934,-78.7651,-588.9732,4.8251452,-1.8120048,0.58476883,0.19033402,-0.049124926,0.10358973,0.9750022,-5.1282983,1.470479,0.8295485,0.29767838,-0.3523009,-0.120331354,0
0.9900000000000007,10.523246178062541,0.2976783938171498,-0.352300906486989,-0.12033135610333848,12.123751,8.095934,-78.7651,-588.9732,4.773833,-1.7971838,0.5930861,0.1911757,-0.047186352,0.1046758,0.9748173,-5.1340566,1.49376,0.8339116,0.29767838,-0.3523009,-0.120331354,0
1.0000000000000007,10.336062284759013,0.2894627416182454,-0.3029086081116481,-0.1279637415270877,36.28326,125.762505,-94.59103,-1560.7334,4.722465,-1.7821292,0.60144705,0.19201627,-0.04524751,0.105761275,0.9746268,-5.1393523,1.5171902,0.83826566,0.29767838,-0.3523009,-0.120331354,0
1.0100000000000007,10.336062284759013,0.2894627416182454,-0.3029086081116481,-0.1279637415270877,36.28326,125.762505,-94.59103,-1560.7334,4.671047,-1.7668415,0.60984236,0.19286506,-0.04356105,0.106851846,0.9744171,-5.1441197,1.5403531,0.8407845,0.28946275,-0.3029086,-0.12796374,0
1.0200000000000007,10.336062284759013,0.2894627416182454,-0.3029086081116481,-0.1279637415270877,36.28326,125.762505,-94.59103,-1560.7334,4.6195836,-1.7513214,0.6182627,0.19371293,-0.04187438,0.1079419,0.97420263,-5.148483,1.5636715,0.8432858,0.28946275,-0.3029086,-0.12796374,0
1.0300000000000007,10.336062284759013,0.2894627416182454,-0.3029086081116481,-0.1279637415270877,36.28326,125.762505,-94.59103,-1560.7334,4.5680785,-1.7355675,0.626708,0.19455986,-0.040187508,0.10903144,0.9739836,-5.1524415,1.5871444,0.84576786,0.28946275,-0.3029086,-0.12796374,0
1.0400000000000007,10.336062284759013,0.2894627416182454,-0.3029086081116481,-0.1279637415270877,40.393555,142.12494,-90.586006,-1646.6866,4.5165358,-1.719578,0.63517797,0.19540587,-0.038500443,0.11012046,0.97375983,-5.155996,1.610771,0.8482291,0.28946275,-0.3029086,-0.12796374,0
1.0500000000000007,10.336062284759013,0.2894627416182454,-0.3029086081116481,-0.1279637415270877,40.393555,142.12494,-90.586006,-1646.6866,4.4649596,-1.7033514,0.64367247,0.19625095,-0.036813192,0.111208946,0.97353137,-5.159146,1.6345502,0.85066783,0.28946275,-0.3029086,-0.12796374,0
1.0600000000000007,10.336062284759013,0.2894627416182454,-0.3029086081116481,-0.1279637415270877,40.393555,142.12494,-90.586006,-1646.6866,4.4133544,-1.6868863,0.6521912,0.19709507,-0.035125762,0.112296894,0.9732983,-5.1618915,1.6584812,0.85308236,0.28946275,-0.3029086,-0.12796374,0
1.0700000000000007,10.336062284759013,0.2894627416182454,-0.3029086081116481,-0.1279637415270877,40.393555,142.12494,-90.586006,-1646.6866,4.3617234,-1.6701812,0.66073406,0.19793823,-0.03343817,0.11338431,0.9730605,-5.1642313,1.6825632,0.8554711,0.28946275,-0.3029086,-0.12796374,0
1.0800000000000007,10.120255952468733,0.2862991442628251,-0.3249201859501722,-0.13686950590217223,118.862045,477.09766,-12.15006,-3007.75,4.3100715,-1.6532346,0.66930056,0.19878045,-0.031750415,0.114471175,0.9728181,-5.1661663,1.706795,0.85783243,0.28946275,-0.3029086,-0.12796374,0
1.0900000000000007,10.120255952468733,0.2862991442628251,-0.3249201859501722,-0.13686950590217223,118.862045,477.09766,-12.15006,-3007.75,4.2584014,-1.6360474,0.67788005,0.1996771,-0.029963678,0.1155188,0.97256726,-5.167656,1.7306625,0.8580689,0.28629914,-0.32492018,-0.1368695,0
1.1000000000000008,10.120255952468733,0.2862991442628251,-0.3249201859501722,-0.13686950590217223,118.862045,477.09766,-12.15006,-3007.75,4.2067194,-1.6186209,0.6864618,0.20057273,-0.028176786,0.11656583,0.97231144,-5.1687293,1.7546636,0.8582783,0.28629914,-0.32492018,-0.1368695,0
1.1100000000000008,10.120255952468733,0.2862991442628251,-0.3249201859501722,-0.13686950590217223,118.862045,477.09766,-12.15006,-3007.75,4.1550283,-1.6009537,0.69504553,0.20146732,-0.02638975,0.117612265,0.9720506,-5.169386,1.7787973,0.8584589,0.28629914,-0.32492018,-0.1368695,0
1.1200000000000008,9.873772987809213,0.28777821894895667,-0.27887013576888703,-0.1486817854710381,123.61782,493.01443,-7.6668787,-3078.6702,4.103333,-1.5830444,0.70363086,0.20236087,-0.024602575,0.11865808,0.9717847,-5.1696258,1.8030626,0.85860896,0.28629914,-0.32492018,-0.1368695,0
1.1300000000000008,9.873772987809213,0.28777821894895667,-0.27887013576888703,-0.1486817854710381,123.61782,493.01443,-7.6668787,-3078.6702,4.051637,-1.5648948,0.7122056,0.20328368,-0.023044549,0.11975565,0.9714956,-5.1694674,1.8268713,0.856333,0.28777823,-0.27887014,-0.14868179,0
1.1400000000000008,9.873772987809213,0.28777821894895667,-0.27887013576888703,-0.1486817854710381,123.61782,493.01443,-7.6668787,-3078.6702,3.999945,-1.5465064,0.72075737,0.20420559,-0.021486416,0.12085267,0.97120214,-5.168943,1.8508255,0.8540195,0.28777823,-0.27887014,-0.14868179,0
1.1500000000000008,9.873772987809213,0.28777821894895667,-0.27887013576888703,-0.1486817854710381,123.61782,493.01443,-7.6668787,-3078.6702,3.9482598,-1.5278777,0.72928584,0.20512654,-0.019928185,0.121949136,0.9709042,-5.168052,1.8749242,0.851667,0.28777823,-0.27887014,-0.14868179,0
1.1600000000000008,9.660827713494582,0.2790360409261434,-0.361645630348693,-0.16269667366289894,134.36731,547.1796,-4.0761843,-3303.7405,3.8965855,-1.5090075,0.7377906,0.20604655,-0.018369863,0.12304505,0.9706018,-5.1667953,1.8991663,0.8492741,0.28777823,-0.27887014,-0.14868179,0
1.1700000000000008,9.660827713494582,0.2790360409261434,-0.361645630348693,-0.16269667366289894,134.36731,547.1796,-4.0761843,-3303.7405,3.8449252,-1.4898965,0.7462609,0.20708364,-0.016427362,0.12401133,0.9702928,-5.165181,1.9230106,0.8447796,0.27903605,-0.36164564,-0.16269667,0
1.1800000000000008,9.660827713494582,0.2790360409261434,-0.361645630348693,-0.16269667366289894,134.36731,547.1796,-4.0761843,-3303.7405,3.7932835,-1.4705467,0.7546861,0.20811951,-0.014484769,0.12497688,0.9699781,-5.1631384,1.9469543,0.8402513,0.27903605,-0.36164564,-0.16269667,0
1.1900000000000008,9.660827713494582,0.2790360409261434,-0.361645630348693,-0.16269667366289894,134.36731,547.1796,-4.0761843,-3303.7405,3.7416642,-1.4509571,0.7630658,0.20915416,-0.0125420885,0.12594168,0.96965766,-5.1606665,1.970996,0.8356876,0.27903605,-0.36164564,-0.16269667,0
1.2000000000000008,9.514244383672512,0.2769126162601186,-0.18923801652483477,-0.17672150374687398,42.063076,142.40994,-86.29529,-1621.1616,3.6900716,-1.4311265,0.7713997,0.21018757,-0.010599335,0.12690575,0.96933174,-5.157766,1.9951347,0.8310865,0.27903605,-0.36164564,-0.16269667,0
1.2100000000000009,9.514244383672512,0.2769126162601186,-0.18923801652483477,-0.17672150374687398,42.063076,142.40994,-86.29529,-1621.1616,3.6385098,-1.4110558,0.7796803,0.21117845,-0.009503261,0.12803937,0.9689786,-5.1545434,2.0190258,0.82502407,0.27691263,-0.18923801,-0.1767215,0
1.2200000000000009,9.514244383672512,0.2769126162601186,-0.18923801652483477,-0.17672150374687398,42.063076,142.40994,-86.29529,-1621.1616,3.5869815,-1.3907454,0.78790003,0.21216857,-0.008407154,0.12917253,0.96862197,-5.151048,2.0430748,0.8189105,0.27691263,-0.18923801,-0.1767215,0
1.2300000000000009,9.514244383672512,0.2769126162601186,-0.18923801652483477,-0.17672150374687398,42.063076,142.40994,-86.29529,-1621.1616,3.5354898,-1.3701938,0.7960583,0.21315794,-0.0073110173,0.13030526,0.96826184,-5.1472807,2.0672815,0.8127448,0.27691263,-0.18923801,-0.1767215,0
1.2400000000000009,9.514244383672512,0.2769126162601186,-0.18923801652483477,-0.17672150374687398,43.175583,146.21306,-83.80615,-1638.2817,3.484037,-1.3493993,0.80415463,0.21414654,-0.0062148534,0.13143751,0.96789825,-5.14324,2.0916445,0.8065261,0.27691263,-0.18923801,-0.1767215,0
1.2500000000000009,9.514244383672512,0.2769126162601186,-0.18923801652483477,-0.17672150374687398,43.175583,146.21306,-83.80615,-1638.2817,3.432626,-1.3283604,0.81218857,0.21513437,-0.005118667,0.13256928,0.9675312,-5.138926,2.1161637,0.80025345,0.27691263,-0.18923801,-0.1767215,0
1.260000000000001,9.514244383672512,0.2769126162601186,-0.18923801652483477,-0.17672150374687398,43.175583,146.21306,-83.80615,-1638.2817,3.3812592,-1.3070755,0.8201595,0.21612142,-0.0040224623,0.13370058,0.96716064,-5.134339,2.1408381,0.79392606,0.27691263,-0.18923801,-0.1767215,0
1.270000000000001,9.514244383672512,0.2769126162601186,-0.18923801652483477,-0.17672150374687398,43.175583,146.21306,-83.80615,-1638.2817,3.3299398,-1.285543,0.82806695,0.2171077,-0.0029262432,0.1348314,0.9667866,-5.1294785,2.165667,0.7875429,0.27691263,-0.18923801,-0.1767215,0
1.280000000000001,9.393068853172867,0.25661327075874374,-0.26433997195060804,-0.19327745807521463,11.468032,2.9308426,-1.5841829,-7.8814898,3.2786703,-1.2637615,0.8359102,0.2180932,-0.0018300135,0.13596174,0.96640915,-5.124344,2.1906495,0.78110296,0.27691263,-0.18923801,-0.1767215,0
1.290000000000001,9.393068853172867,0.25661327075874374,-0.26433997195060804,-0.19327745807521463,11.468032,2.9308426,-1.5841829,-7.8814898,3.2274532,-1.2417312,0.843683,0.2192087,-0.00040427124,0.13691139,0.9660242,-5.1189833,2.2154477,0.77344227,0.25661328,-0.26433998,-0.19327746,0
1.300000000000001,9.393068853172867,0.25661327075874374,-0.26433997195060804,-0.19327745807521463,11.468032,2.9308426,-1.5841829,-7.8814898,3.1762917,-1.2194524,0.8513789,0.22032325,0.0010214726,0.13786045,0.9656352,-5.113296,2.2403495,0.7657332,0.25661328,-0.26433998,-0.19327746,0
1.310000000000001,9.393068853172867,0.25661327075874374,-0.26433997195060804,-0.19327745807521463,11.468032,2.9308426,-1.5841829,-7.8814898,3.1251884,-1.196924,0.8589975,0.22143684,0.002447212,0.1388089,0.9652419,-5.107282,2.2653544,0.7579745,0.25661328,-0.26433998,-0.19327746,0
1.320000000000001,9.30041465210149,0.25587205054323564,-0.22480560026413005,-0.2163848336715558,11.40201,2.9588027,-1.4196243,-8.001384,3.0741467,-1.1741449,0.8665382,0.22254948,0.003872941,0.13975677,0.9648445,-5.100941,2.290461,0.7501652,0.25661328,-0.26433998,-0.19327746,0
1.330000000000001,9.30041465210149,0.25587205054323564,-0.22480560026413005,-0.2163848336715558,11.40201,2.9588027,-1.4196243,-8.001384,3.02317,-1.1511155,0.87399614,0.22374505,0.0050909594,0.14074491,0.96441865,-5.0943513,2.3154259,0.7414134,0.25587204,-0.2248056,-0.21638483,0
1.340000000000001,9.30041465210149,0.25587205054323564,-0.22480560026413005,-0.2163848336715558,11.40201,2.9588027,-1.4196243,-8.001384,2.972261,-1.127836,0.8813663,0.2249397,0.006308957,0.14173247,0.9639888,-5.0874715,2.3405046,0.7326078,0.25587204,-0.2248056,-0.21638483,0
1.350000000000001,9.30041465210149,0.25587205054323564,-0.22480560026413005,-0.2163848336715558,11.40201,2.9588027,-1.4196243,-8.001384,2.921422,-1.104305,0.88864815,0.22613345,0.007526929,0.14271946,0.9635551,-5.0803013,2.3656971,0.72374725,0.25587204,-0.2248056,-0.21638483,0
1.360000000000001,9.229870727470878,0.23513889541783875,-0.13355855527591196,-0.23948304874733783,8.511794,1.2871997,-0.5210879,-1.2185522,2.870656,-1.0805216,0.8958411,0.22732626,0.00874487,0.14370586,0.96311736,-5.0728397,2.391002,0.714831,0.25587204,-0.2248056,-0.21638483,0
1.370000000000001,9.229870727470878,0.23513889541783875,-0.13355855527591196,-0.23948304874733783,8.511794,1.2871997,-0.5210879,-1.2185522,2.8199656,-1.0564855,0.9029413,0.22856481,0.009483208,0.14469661,0.96266884,-5.0651774,2.4162335,0.7051827,0.2351389,-0.13355856,-0.23948304,0
1.380000000000001,9.229870727470878,0.23513889541783875,-0.13355855527591196,-0.23948304874733783,8.511794,1.2871997,-0.5210879,-1.2185522,2.769353,-1.0321966,0.9099446,0.22980264,0.010221516,0.14568688,0.9622171,-5.0573106,2.4415958,0.695479,0.2351389,-0.13355856,-0.23948304,0
1.390000000000001,9.229870727470878,0.23513889541783875,-0.13355855527591196,-0.23948304874733783,8.511794,1.2871997,-0.5210879,-1.2185522,2.71882,-1.0076532,0.91685057,0.2310397,0.010959791,0.14667667,0.96176225,-5.0492377,2.4670885,0.6857193,0.2351389,-0.13355856,-0.23948304,0
1.400000000000001,9.228969233441466,0.23574749248927085,-0.004827618102020371,-0.26819776785301674,8.465818,1.2889967,-0.44762537,-0.99807405,2.668369,-0.9828543,0.9236587,0.23227602,0.01169803,0.14766599,0.96130425,-5.040959,2.4927104,0.67590314,0.2351389,-0.13355856,-0.23948304,0
1.410000000000001,9.228969233441466,0.23574749248927085,-0.004827618102020371,-0.26819776785301674,8.465818,1.2889967,-0.44762537,-0.99807405,2.6180017,-0.9577985,0.9303684,0.23355451,0.011796989,0.14880897,0.96081686,-5.0325146,2.5184786,0.66601926,0.23574749,-0.004827618,-0.26819777,0
1.420000000000001,9.228969233441466,0.23574749248927085,-0.004827618102020371,-0.26819776785301674,8.465818,1.2889967,-0.44762537,-0.99807405,2.5677192,-0.9324841,0.93697894,0.23483229,0.01189591,0.14995147,0.96032643,-5.0239697,2.5444293,0.65607214,0.23574749,-0.004827618,-0.26819777,0
1.430000000000001,9.228969233441466,0.23574749248927085,-0.004827618102020371,-0.26819776785301674,8.465818,1.2889967,-0.44762537,-0.99807405,2.5175226,-0.9069093,0.9434896,0.23610929,0.011994794,0.1510935,0.95983297,-5.015323,2.5705616,0.6460615,0.23574749,-0.004827618,-0.26819777,0
1.440000000000001,9.228969233441466,0.23574749248927085,-0.004827618102020371,-0.26819776785301674,8.193602,1.0698636,-0.34761462,-1.0291297,2.4674132,-0.8810722,0.9498999,0.23738554,0.01209364,0.15223505,0.95933646,-5.006575,2.5968754,0.6359867,0.23574749,-0.004827618,-0.26819777,0
1.450000000000001,9.228969233441466,0.23574749248927085,-0.004827618102020371,-0.26819776785301674,8.193602,1.0698636,-0.34761462,-1.0291297,2.4173915,-0.8549711,0.9562091,0.23866105,0.012192447,0.15337612,0.95883685,-4.997725,2.6233702,0.62584746,0.23574749,-0.004827618,-0.26819777,0
1.460000000000001,9.228969233441466,0.23574749248927085,-0.004827618102020371,-0.26819776785301674,8.193602,1.0698636,-0.34761462,-1.0291297,2.367459,-0.8286041,0.9624167,0.23993579,0.012291215,0.15451667,0.9583342,-4.988772,2.6500454,0.6156432,0.23574749,-0.004827618,-0.26819777,0
1.470000000000001,9.228969233441466,0.23574749248927085,-0.004827618102020371,-0.26819776785301674,8.193602,1.0698636,-0.34761462,-1.0291297,2.3176165,-0.8019695,0.96852183,0.24120976,0.012389944,0.15565673,0.95782846,-4.979716,2.6769009,0.60537344,0.23574749,-0.004827618,-0.26819777,0
1.480000000000001,9.22215892830715,0.20078632339690533,-0.08760653124185704,-0.29779095903167146,7.9888463,1.0244823,-0.3270941,-1.089426,2.2678652,-0.7750655,0.97452396,0.24248296,0.012488633,0.1567963,0.9573197,-4.9705563,2.703936,0.5950378,0.23574749,-0.004827618,-0.26819777,0
1.490000000000001,9.22215892830715,0.20078632339690533,-0.08760653124185704,-0.29779095903167146,7.9888463,1.0244823,-0.3270941,-1.089426,2.218206,-0.74789035,0.9804221,0.2439641,0.012917923,0.1576695,0.9567941,-4.96128,2.7311068,0.58457637,0.20078632,-0.087606534,-0.29779094,0
1.500000000000001,9.22215892830715,0.20078632339690533,-0.08760653124185704,-0.29779095903167146,7.9888463,1.0244823,-0.3270941,-1.089426,2.1686401,-0.7204429,0.98621535,0.24544442,0.0133471675,0.15854216,0.9562653,-4.9518466,2.7583935,0.5740621,0.20078632,-0.087606534,-0.29779094,0
1.5100000000000011,9.22215892830715,0.20078632339690533,-0.08760653124185704,-0.29779095903167146,7.9888463,1.0244823,-0.3270941,-1.089426,2.1191697,-0.692722,0.9919032,0.2469239,0.0137763675,0.15941428,0.9557331,-4.9422565,2.7857955,0.5634948,0.20078632,-0.087606534,-0.29779094,0
1.5200000000000011,9.29317747899579,0.19058191337437996,0.28556531321083733,-0.32955390382412253,7.9974127,1.0010743,-0.3017877,-1.1210223,2.0697956,-0.66472656,0.9974851,0.2484025,0.01420552,0.16028585,0.95519775,-4.9325085,2.813312,0.5528741,0.20078632,-0.087606534,-0.29779094,0
1.5300000000000011,9.29317747899579,0.19058191337437996,0.28556531321083733,-0.32955390382412253,7.9974127,1.0010743,-0.3017877,-1.1210223,2.02052,-0.63645416,1.0029639,0.24973336,0.012814215,0.1615737,0.95465326,-4.9226418,2.8412151,0.542867,0.19058192,0.28556532,-0.3295539,0
1.5400000000000011,9.29317747899579,0.19058191337437996,0.28556531321083733,-0.32955390382412253,7.9974127,1.0010743,-0.3017877,-1.1210223,1.9713421,-0.60790133,1.0083423,0.25106284,0.011422838,0.16286062,0.95410335,-4.912924,2.8693917,0.5327894,0.19058192,0.28556532,-0.3295539,0
1.5500000000000012,9.29317747899579,0.19058191337437996,0.28556531321083733,-0.32955390382412253,7.9974127,1.0010743,-0.3017877,-1.1210223,1.9222608,-0.5790653,1.0136195,0.2523909,0.010031397,0.16414663,0.9535481,-4.903354,2.897842,0.52264005,0.19058192,0.28556532,-0.3295539,0
1.5600000000000012,9.35748064802731,0.12640175044560753,0.0911149421910468,-0.35721088299729703,10.400754,2.603249,-1.0051974,-7.2072716,1.8732744,-0.5499435,1.0187949,0.2537175,0.008639899,0.16543171,0.95298743,-4.893931,2.9265656,0.5124176,0.19058192,0.28556532,-0.3295539,0
1.5700000000000012,9.35748064802731,0.12640175044560753,0.0911149421910468,-0.35721088299729703,10.400754,2.603249,-1.0051974,-7.2072716,1.8243821,-0.52053225,1.0238707,0.25533828,0.008070608,0.16616471,0.95243186,-4.884541,2.955712,0.5027402,0.12640175,0.091114946,-0.35721087,0
1.5800000000000012,9.35748064802731,0.12640175044560753,0.0911149421910468,-0.35721088299729703,10.400754,2.603249,-1.0051974,-7.2072716,1.7755836,-0.49082878,1.0288496,0.2569581,0.0075012865,0.16689707,0.95187265,-4.8751683,2.9849966,0.49301898,0.12640175,0.091114946,-0.35721087,0
1.5900000000000012,9.35748064802731,0.12640175044560753,0.0911149421910468,-0.35721088299729703,10.400754,2.603249,-1.0051974,-7.2072716,1.7268788,-0.4608318,1.033731,0.25857696,0.006931936,0.1676288,0.95130986,-4.8658123,3.014419,0.4832537,0.12640175,0.091114946,-0.35721087,0
1.6000000000000012,9.541054292872143,0.12527585838432023,0.6434051149934789,-0.3867443116085243,105.03158,419.48694,30.833008,-2736.3208,1.6782674,-0.43053994,1.0385146,0.2601948,0.006362559,0.16835989,0.95074344,-4.856472,3.0439794,0.47344398,0.12640175,0.091114946,-0.35721087,0
1.6100000000000012,9.541054292872143,0.12527585838432023,0.6434051149934789,-0.3867443116085243,105.03158,419.48694,30.833008,-2736.3208,1.6297497,-0.39994857,1.0432085,0.26148582,0.0031413736,0.16980354,0.95014846,-4.8471355,3.0743585,0.46530557,0.12527587,0.64340514,-0.38674432,0
1.6200000000000012,9.541054292872143,0.12527585838432023,0.6434051149934789,-0.3867443116085243,105.03158,419.48694,30.833008,-2736.3208,1.5813229,-0.3690514,1.0478206,0.26277304,-7.985678e-05,0.17124476,0.94953966,-4.8382697,3.1051393,0.45707813,0.12527587,0.64340514,-0.38674432,0
1.6300000000000012,9.541054292872143,0.12527585838432023,0.6434051149934789,-0.3867443116085243,105.03158,419.48694,30.833008,-2736.3208,1.5329826,-0.33784443,1.0523498,0.26405644,-0.0033010861,0.17268348,0.94891715,-4.8298736,3.1363225,0.44875705,0.12527587,0.64340514,-0.38674432,0
1.6400000000000012,9.541054292872143,0.12527585838432023,0.6434051149934789,-0.3867443116085243,102.49348,408.99872,32.873768,-2692.1033,1.4847238,-0.3063236,1.0567954,0.26533604,-0.006522268,0.17411971,0.94828093,-4.8219457,3.1679082,0.44033775,0.12527587,0.64340514,-0.38674432,0
1.6500000000000012,9.541054292872143,0.12527585838432023,0.6434051149934789,-0.3867443116085243,102.49348,408.99872,32.873768,-2692.1033,1.4365419,-0.27448487,1.0611562,0.26661178,-0.009743355,0.17555341,0.94763094,-4.814485,3.1998968,0.43181568,0.12527587,0.64340514,-0.38674432,0
1.6600000000000013,9.541054292872143,0.12527585838432023,0.6434051149934789,-0.3867443116085243,102.49348,408.99872,32.873768,-2692.1033,1.3884325,-0.24232426,1.0654312,0.26788363,-0.012964301,0.17698458,0.94696724,-4.80749,3.2322888,0.42318624,0.12527587,0.64340514,-0.38674432,0
1.6700000000000013,9.541054292872143,0.12527585838432023,0.6434051149934789,-0.3867443116085243,102.49348,408.99872,32.873768,-2692.1033,1.3403906,-0.2098377,1.0696195,0.26915163,-0.01618506,0.17841317,0.9462898,-4.8009596,3.2650843,0.41444483,0.12527587,0.64340514,-0.38674432,0
1.6800000000000013,9.66823424893151,0.05377285056367919,0.18682483263913102,-0.4012562265512075,167.4303,1144.049,218.37631,-4694.685,1.2924116,-0.17702119,1.0737197,0.27041572,-0.019405583,0.17983918,0.94559866,-4.7948923,3.2982836,0.40558693,0.12527587,0.64340514,-0.38674432,0
1.6900000000000013,9.66823424893151,0.05377285056367919,0.18682483263913102,-0.4012562265512075,167.4303,1144.049,218.37631,-4694.685,1.2444918,-0.14386871,1.0777367,0.2721494,-0.020576943,0.18030664,0.94498724,-4.7890844,3.3322306,0.39782706,0.05377285,0.18682483,-0.40125623,0
1.7000000000000013,9.66823424893151,0.05377285056367919,0.18682483263913102,-0.4012562265512075,167.4303,1144.049,218.37631,-4694.685,1.1966295,-0.11037612,1.0816761,0.27388173,-0.0217482,0.18077321,0.9443712,-4.7834034,3.3663101,0.39002538,0.05377285,0.18682483,-0.40125623,0
1.7100000000000013,9.66823424893151,0.05377285056367919,0.18682483263913102,-0.4012562265512075,167.4303,1144.049,218.37631,-4694.685,1.1488234,-0.076542065,1.0855373,0.2756127,-0.02291935,0.18123887,0.9437505,-4.7778482,3.4005225,0.38218132,0.05377285,0.18682483,-0.40125623,0
1.7200000000000013,9.983982190391096,0.03527001473436458,0.42222874319645204,-0.426365802697288,175.64262,1074.814,195.4356,-4642.3145,1.1010722,-0.04236522,1.0893197,0.27734232,-0.024090387,0.18170364,0.943125,-4.772419,3.4348676,0.37429434,0.05377285,0.18682483,-0.40125623,0
1.7300000000000013,9.983982190391096,0.03527001473436458,0.42222874319645204,-0.426365802697288,175.64262,1074.814,195.4356,-4642.3145,1.0533754,-0.007838512,1.0930376,0.2789723,-0.0264198,0.18240331,0.9424466,-4.7670193,3.4705122,0.3692979,0.035270013,0.42222875,-0.4263658,0
1.7400000000000013,9.983982190391096,0.03527001473436458,0.42222874319645204,-0.426365802697288,175.64262,1074.814,195.4356,-4642.3145,1.0057307,0.027045868,1.0967053,0.28059974,-0.028748974,0.18310131,0.9417596,-4.761957,3.506402,0.36422622,0.035270013,0.42222875,-0.4263658,0
1.7500000000000013,9.983982190391096,0.03527001473436458,0.42222874319645204,-0.426365802697288,175.64262,1074.814,195.4356,-4642.3145,0.958135,0.06229037,1.1003219,0.28222466,-0.031077888,0.18379764,0.94106424,-4.7572303,3.5425372,0.35907716,0.035270013,0.42222875,-0.4263658,0
1.7600000000000013,10.194777246870746,-0.03460713172942049,0.11851043900556248,-0.42820934769481983,421.21622,4671.4023,1821.8387,150.72726,0.9105849,0.097897455,1.1038866,0.283847,-0.033406522,0.1844923,0.9403603,-4.7528377,3.5789187,0.3538484,0.035270013,0.42222875,-0.4263658,0
1.7700000000000014,10.194777246870746,-0.03460713172942049,0.11851043900556248,-0.42820934769481983,421.21622,4671.4023,1821.8387,150.72726,0.8630778,0.13387322,1.1074085,0.28574452,-0.034407772,0.18442579,0.9397624,-4.7486105,3.6162393,0.35052526,-0.03460713,0.11851044,-0.42820933,0
1.7800000000000014,10.194777246870746,-0.03460713172942049,0.11851043900556248,-0.42820934769481983,421.21622,4671.4023,1821.8387,150.72726,0.8156124,0.17022237,1.1108971,0.2876406,-0.035408854,0.18435837,0.9391598,-4.7445035,3.6535962,0.34719315,-0.03460713,0.11851044,-0.42820933,0
1.7900000000000014,10.194777246870746,-0.03460713172942049,0.11851043900556248,-0.42820934769481983,421.21622,4671.4023,1821.8387,150.72726,0.76818734,0.20694529,1.1143522,0.28953525,-0.036409758,0.18429004,0.93855256,-4.7405167,3.6909895,0.34385172,-0.03460713,0.11851044,-0.42820933,0
1.8000000000000014,10.516068731138779,-0.03207187068681103,0.5306107174821474,-0.4210255780333777,-22977.445,22785.043,-4997.969,21361.633,0.7208016,0.24404229,1.117774,0.29142848,-0.037410483,0.18422078,0.93794066,-4.7366495,3.7284198,0.34050065,-0.03460713,0.11851044,-0.42820933,0
1.8100000000000014,10.516068731138779,-0.03207187068681103,0.5306107174821474,-0.4210255780333777,-22977.445,22785.043,-4997.969,21361.633,0.6734541,0.28151998,1.1211771,0.2929065,-0.04033321,0.18476374,0.93725204,-4.732918,3.767156,0.3400958,-0.03207187,0.53061074,-0.42102557,0
1.8200000000000014,10.516068731138779,-0.03207187068681103,0.5306107174821474,-0.4210255780333777,-22977.445,22785.043,-4997.969,21361.633,0.6261415,0.3193864,1.1245756,0.29438117,-0.04325548,0.18530457,0.9365527,-4.7296658,3.806164,0.3395997,-0.03207187,0.53061074,-0.42102557,0
1.8300000000000014,10.516068731138779,-0.03207187068681103,0.5306107174821474,-0.4210255780333777,-22977.445,22785.043,-4997.969,21361.633,0.57885903,0.3576442,1.1279685,0.2958525,-0.046177242,0.18584324,0.9358426,-4.7268925,3.8454454,0.33900878,-0.03207187,0.53061074,-0.42102557,0
1.8400000000000014,10.516068731138779,-0.03207187068681103,0.5306107174821474,-0.4210255780333777,-17132.682,19663.883,-2254.286,16170.417,0.53160197,0.39629623,1.1313553,0.2973204,-0.049098477,0.18637982,0.93512166,-4.724596,3.885001,0.3383195,-0.03207187,0.53061074,-0.42102557,0
1.8500000000000014,10.516068731138779,-0.03207187068681103,0.5306107174821474,-0.4210255780333777,-17132.682,19663.883,-2254.286,16170.417,0.48436552,0.43534517,1.1347346,0.29878488,-0.05201915,0.18691427,0.93439,-4.722776,3.924831,0.3375284,-0.03207187,0.53061074,-0.42102557,0
1.8600000000000014,10.516068731138779,-0.03207187068681103,0.5306107174821474,-0.4210255780333777,-17132.682,19663.883,-2254.286,16170.417,0.43714485,0.4747938,1.1381055,0.30024594,-0.05493922,0.18744655,0.93364763,-4.7214313,3.964936,0.33663192,-0.03207187,0.53061074,-0.42102557,0
1.8700000000000014,10.516068731138779,-0.03207187068681103,0.5306107174821474,-0.4210255780333777,-17132.682,19663.883,-2254.286,16170.417,0.38993526,0.51464486,1.1414669,0.30170354,-0.057858665,0.18797664,0.9328945,-4.7205596,4.005317,0.3356265,-0.03207187,0.53061074,-0.42102557,0
1.8800000000000014,10.673795736420079,-0.07858551879017577,0.03008658013076587,-0.39704005052138197,183.27751,1480.8412,293.9783,-4909.5425,0.34273204,0.5549011,1.1448176,0.3031577,-0.060777444,0.18850459,0.9321307,-4.720161,4.0459747,0.33450866,-0.03207187,0.53061074,-0.42102557,0
1.8900000000000015,10.673795736420079,-0.07858551879017577,0.03008658013076587,-0.39704005052138197,183.27751,1480.8412,293.9783,-4909.5425,0.29553086,0.59556806,1.148164,0.30495527,-0.061410878,0.18806289,0.93159187,-4.7200837,4.087401,0.3347795,-0.07858552,0.03008658,-0.39704004,0
1.9000000000000015,10.673795736420079,-0.07858551879017577,0.03008658013076587,-0.39704005052138197,183.27751,1480.8412,293.9783,-4909.5425,0.24833006,0.636649,1.1515133,0.30675164,-0.06204406,0.18762042,0.9310492,-4.720082,4.1287827,0.3350693,-0.07858552,0.03008658,-0.39704004,0
1.9100000000000015,10.673795736420079,-0.07858551879017577,0.03008658013076587,-0.39704005052138197,183.27751,1480.8412,293.9783,-4909.5425,0.20112891,0.6781436,1.1548656,0.30854672,-0.06267699,0.18717717,0.9305028,-4.720156,4.17012,0.33537784,-0.07858552,0.03008658,-0.39704004,0
1.9200000000000015,11.050147647103385,-0.060244873174177406,0.39590113082419326,-0.3570567908490458,180.87778,1470.8633,291.6525,-4840.042,0.15392667,0.7200513,1.158221,0.31034055,-0.06330966,0.18673314,0.9299525,-4.720306,4.2114124,0.33570492,-0.07858552,0.03008658,-0.39704004,0
1.9300000000000015,11.050147647103385,-0.060244873174177406,0.39590113082419326,-0.3570567908490458,180.87778,1470.8633,291.6525,-4840.042,0.10672216,0.7623792,1.161597,0.31161097,-0.065577134,0.18695365,0.92932606,-4.720656,4.254205,0.3394835,-0.060244873,0.39590114,-0.3570568,0
1.9400000000000015,11.050147647103385,-0.060244873174177406,0.39590113082419326,-0.3570567908490458,180.87778,1470.8633,291.6525,-4840.042,0.059512213,0.8051361,1.1650103,0.31287912,-0.06784414,0.1871728,0.92869294,-4.721395,4.297191,0.34317848,-0.060244873,0.39590114,-0.3570568,0
1.9500000000000015,11.050147647103385,-0.060244873174177406,0.39590113082419326,-0.3570567908490458,180.87778,1470.8633,291.6525,-4840.042,0.012292926,0.84832376,1.1684602,0.31414503,-0.07011065,0.18739061,0.92805314,-4.7225227,4.3403716,0.3467877,-0.060244873,0.39590114,-0.3570568,0
1.9600000000000015,11.267671633893787,-0.09261349768796563,0.033651780275133984,-0.31116636815090054,180.07913,903.2968,130.52397,-4346.711,-0.034939576,0.8919442,1.1719458,0.31540868,-0.07237665,0.18760706,0.92740667,-4.7240376,4.3837466,0.35030895,-0.060244873,0.39590114,-0.3570568,0
1.9700000000000015,11.267671633893787,-0.09261349768796563,0.033651780275133984,-0.31116636815090054,180.07913,903.2968,130.52397,-4346.711,-0.082189016,0.9360034,1.1754763,0.31678605,-0.07297054,0.18711783,0.92698944,-4.7258644,4.428079,0.35578173,-0.092613496,0.03365178,-0.31116638,0
1.9800000000000015,11.267671633893787,-0.09261349768796563,0.033651780275133984,-0.31116636815090054,180.07913,903.2968,130.52397,-4346.711,-0.12945719,0.9805056,1.1790615,0.3181626,-0.07356424,0.1866281,0.9265697,-4.7277856,4.472357,0.36127633,-0.092613496,0.03365178,-0.31116638,0
1.9900000000000015,11.267671633893787,-0.09261349768796563,0.033651780275133984,-0.31116636815090054,180.07913,903.2968,130.52397,-4346.711,-0.17674504,1.0254503,1.182702,0.31953827,-0.07415774,0.18613786,0.92614746,-4.7298007,4.5165796,0.36679244,-0.092613496,0.03365178,-0.31116638,0
2.0000000000000013,11.711910211309771,-0.046727074559597986,0.6532260343052155,-0.2540013927096257,31.357548,111.45855,-62.110508,-1272.9102,-0.22405352,1.070837,1.1863977,0.3209131,-0.074751034,0.18564713,0.92572284,-4.7319098,4.560748,0.37232995,-0.092613496,0.03365178,-0.31116638,0
2.010000000000001,11.711910211309771,-0.046727074559597986,0.6532260343052155,-0.2540013927096257,31.357548,111.45855,-62.110508,-1272.9102,-0.2713846,1.1166743,1.190169,0.321463,-0.07808484,0.18638292,0.92510885,-4.734401,4.6067705,0.3818988,-0.046727076,0.653226,-0.25400138,0
2.020000000000001,11.711910211309771,-0.046727074559597986,0.6532260343052155,-0.2540013927096257,31.357548,111.45855,-62.110508,-1272.9102,-0.31874374,1.1629736,1.1940349,0.3220089,-0.08141769,0.1871164,0.9244835,-4.737524,4.653186,0.3912822,-0.046727076,0.653226,-0.25400138,0
2.0300000000000007,11.711910211309771,-0.046727074559597986,0.6532260343052155,-0.2540013927096257,31.357548,111.45855,-62.110508,-1272.9102,-0.36613724,1.2097393,1.197994,0.32255086,-0.084749535,0.18784758,0.92384666,-4.7412777,4.699994,0.40047497,-0.046727076,0.653226,-0.25400138,0
2.0400000000000005,11.711910211309771,-0.046727074559597986,0.6532260343052155,-0.2540013927096257,31.357548,111.45855,-62.110508,-1272.9102,-0.41357142,1.2569749,1.2020439,0.32308882,-0.08808034,0.18857644,0.9231984,-4.745661,4.747195,0.4094719,-0.046727076,0.653226,-0.25400138,0
2.0500000000000003,11.711910211309771,-0.046727074559597986,0.6532260343052155,-0.2540013927096257,31.5111,123.02801,-44.33145,-1233.0681,-0.4610526,1.3046845,1.2061828,0.32362282,-0.091410056,0.18930298,0.9225387,-4.750672,4.794787,0.41826776,-0.046727076,0.653226,-0.25400138,0
2.06,11.711910211309771,-0.046727074559597986,0.6532260343052155,-0.2540013927096257,31.5111,123.02801,-44.33145,-1233.0681,-0.508587,1.3528719,1.2104087,0.3241528,-0.09473864,0.19002718,0.92186767,-4.75631,4.84277,0.42685738,-0.046727076,0.653226,-0.25400138,0
2.07,11.711910211309771,-0.046727074559597986,0.6532260343052155,-0.2540013927096257,31.5111,123.02801,-44.33145,-1233.0681,-0.55618095,1.4015412,1.2147193,0.3246788,-0.09806607,0.19074903,0.9211853,-4.7625737,4.8911433,0.43523556,-0.046727076,0.653226,-0.25400138,0
2.0799999999999996,11.711910211309771,-0.046727074559597986,0.6532260343052155,-0.2540013927096257,31.5111,123.02801,-44.33145,-1233.0681,-0.6038406,1.4506961,1.2191126,0.3252008,-0.10139228,0.19146852,0.9204915,-4.7694607,4.939907,0.4433972,-0.046727076,0.653226,-0.25400138,0
2.0899999999999994,12.076688084118652,-0.05256785286494566,0.22123852610587902,-0.18970414428833818,12.264721,2.7464166,0.479642,-6.079352,-0.6515723,1.5003407,1.2235866,0.32571876,-0.10471723,0.19218567,0.91978645,-4.776971,4.9890604,0.45133704,-0.046727076,0.653226,-0.25400138,0
2.099999999999999,12.076688084118652,-0.05256785286494566,0.22123852610587902,-0.18970414428833818,12.264721,2.7464166,0.479642,-6.079352,-0.6993829,1.5504861,1.2281553,0.32635075,-0.10600249,0.19220468,0.9194112,-4.785207,5.0400333,0.46240908,-0.052567855,0.22123852,-0.18970415,0
2.109999999999999,12.076688084118652,-0.05256785286494566,0.22123852610587902,-0.18970414428833818,12.264721,2.7464166,0.479642,-6.079352,-0.74727714,1.6011417,1.2328343,0.32698202,-0.107287504,0.19222328,0.9190339,-4.7936883,5.0911107,0.47341362,-0.052567855,0.22123852,-0.18970415,0
