time-since-start [s],throttle,roll,pitch,yaw,position_x [m],position_y [m],position_z [m],rotation_w [quaternion],rotation_x [quaternion],rotation_y [quaternion],rotation_z [quaternion],velocity_x [m],velocity_y [m],velocity_z [m],network_used
0.0,0.5000005222934565,-5.999999658249679,-5.999999860511967,5.999995690708873,-0.7065824866294861,1.8399144411087036,2.67277193069458,0.27277079224586487,-0.41633141040802,0.05168206989765167,0.8657905459403992,-7.92290735244751,9.085355758666992,0.40607595443725586,0
0.016666666666666666,0.5000005222934565,-5.999999658249679,-5.999999860511967,5.999995690708873,-0.8386789338642182,1.9913560646332973,2.678223752581747,0.21030345462559974,-0.3825763345583665,0.015421998187670772,0.8995387825770466,-7.928651142856691,9.087461255628439,0.24822438064829364,0
0.03333333333333333,0.5000005222934565,-5.999999658249679,-5.999999860511967,5.999995690708873,-0.9708698010173147,2.1428239102411997,2.6810486728326652,0.14625982764224874,-0.34595373079885094,-0.020953666127435967,0.9265446977974308,-7.934204856251261,9.088504726218181,0.09083964030985095,0
0.05,8.383415656792664,-5.999999538063738,-5.9999997664893066,3.6451525868105388,-1.1031502965596776,2.2943004813928094,2.681254028487182,0.08111993801727779,-0.30673809683447567,-0.05717227623454369,0.9466058739566948,-7.939375101326105,9.088515890004851,-0.06613369091466395,0
0.06666666666666667,8.383415656792664,-5.999999538063738,-5.9999997664893066,3.6451525868105388,-1.2361321328744561,2.4456629250261077,2.6797418415750154,0.03397628960104574,-0.26433356052246854,-0.0990302635256707,0.9587316838424897,-8.01666502290341,9.072334347768624,-0.11450508300449024,0
0.08333333333333333,8.383415656792664,-5.999999538063738,-5.9999997664893066,3.6451525868105388,-1.3703069373387555,2.596626683474778,2.6774598528805305,-0.013368491461699697,-0.22036422389753155,-0.14030201202418402,0.9651819993416998,-8.08216946538732,9.040875173052589,-0.15880080880695463,0
0.09999999999999999,8.383415656792664,-5.999999538063738,-5.9999997664893066,3.6451525868105388,-1.5054610120740461,2.74694818515009,2.6744612114981567,-0.06063413380443963,-0.1750903763893361,-0.18074320146730738,0.9659186359131972,-8.133866288396101,8.99552276715523,-0.20080690601334356,0
0.11666666666666665,17.750160542556642,-5.999999358479913,-5.999999637666708,-2.169861736106105,-1.641349616128117,2.896409720341048,2.670768788291725,-0.10754083454560044,-0.12878002986368534,-0.22011442833105124,0.960937232819977,-8.170059820744228,8.937990024785858,-0.24236354859881293,0
0.13333333333333333,17.750160542556642,-5.999999358479913,-5.999999637666708,-2.169861736106105,-1.777911321113121,3.0442061971912056,2.6674992023962303,-0.10732334790424145,-0.07108408282983093,-0.2644869151933878,0.9557591108740462,-8.211374208426697,8.794129669879815,-0.1509704289591233,0
0.15,17.750160542556642,-5.999999358479913,-5.999999637666708,-2.169861736106105,-1.9148634980227681,3.1894374573135122,2.6656875707097494,-0.10653440738036501,-0.01300964149899863,-0.3074511150658304,0.9454919541064709,-8.216967486541819,8.63049800947945,-0.06836765015020924,0
0.16666666666666666,19.993311858032676,-4.314418210298491,-5.999999326073332,-2.333563556907049,-2.0516154533687754,3.331791811995101,2.665140078969435,-0.10517821376656859,0.04513407096701489,-0.34877826077603546,0.9301904310186676,-8.187524564407,8.449301446775639,-0.00019092973270692058,0
0.18333333333333332,19.993311858032676,-4.314418210298491,-5.999999326073332,-2.333563556907049,-2.1875373563167857,3.470811671807779,2.6658163570716913,-0.10268789334220119,0.10207382199877543,-0.3753391743542436,0.9155089785358717,-8.117179110991028,8.231586086994515,0.07827612050407771,0
0.19999999999999998,19.993311858032676,-4.314418210298491,-5.999999326073332,-2.333563556907049,-2.3219960601666783,3.606134241531022,2.6676347742296658,-0.09976942972291385,0.15858799012248576,-0.4003351623306356,0.8970104359727266,-8.012287445259021,8.005995905273192,0.13614306128819603,0
0.21666666666666665,16.07431497747902,0.6175370367524616,-2.523689457917399,-4.071166114807223,-2.4544347040629453,3.7376470714528134,2.6702168745935824,-0.0964349910455486,0.21444094720603332,-0.4236620073354307,0.8747719304846979,-7.875211617493296,7.7748053455307,0.16925856583833954,0
0.2333333333333333,16.07431497747902,0.6175370367524616,-2.523689457917399,-4.071166114807223,-2.5846403340579815,3.8656803913988043,2.6728972957010844,-0.07669783158986405,0.24653274242026949,-0.4095176558125373,0.8750053675731994,-7.747795303722506,7.5901313891153395,0.15212325706328864,0
0.24999999999999997,16.07431497747902,0.6175370367524616,-2.523689457917399,-4.071166114807223,-2.7126392719717174,3.9906824847926705,2.6752761347157525,-0.056836455710918526,0.2782252640847128,-0.39471006756687194,0.8738216845835789,-7.610431540831336,7.411042292298248,0.13291567569999463,0
0.26666666666666666,11.964185558819567,1.940865749162577,1.4480381506363251,-3.407185139398833,-2.8382670538675034,4.112745539311681,2.6773112440500992,-0.036883030016575516,0.30946718438991055,-0.3792632243148779,0.8712227985565688,-7.463290211591388,7.2374248835810695,0.11072538750440848,0
0.2833333333333333,11.964185558819567,1.940865749162577,1.4480381506363251,-3.407185139398833,-2.961720306663922,4.23231816834169,2.678678503182539,-0.01255748245677455,0.3089384479301858,-0.3566049354048098,0.8816078035212889,-7.3515496571502,7.111855785617694,0.05447578283554092,0
0.3,10.168393829279,2.0220406788984913,2.4848474870508683,-2.8280676437499372,-3.0833332269059603,4.349827620519022,2.679164228379564,0.011783300570898452,0.3080348893821853,-0.3335139926522908,0.8909231906376317,-7.24242188379343,6.98992600217476,0.0049075789268724235,0
0.31666666666666665,10.168393829279,2.0220406788984913,2.4848474870508683,-2.8280676437499372,-3.203288373935587,4.465486007528696,2.6787336049545667,0.03448322414716769,0.2974519434800308,-0.3107914199831723,0.9020764912118288,-7.152924455326551,6.889653887755476,-0.05539325915102996,0
0.3333333333333333,10.168393829279,2.0220406788984913,2.4848474870508683,-2.8280676437499372,-3.321788194943002,4.579503486063283,2.6773566778610296,0.05713942311149336,0.2864918295165326,-0.2876747648414841,0.9120859618369135,-7.067773806193782,6.793113613437423,-0.10869481977648857,0
0.35,7.638564582239752,1.332176249594914,4.284398894110653,-1.643917867754807,-3.4389046274986788,4.691947029852256,2.6751477063671416,0.07972316947998397,0.27516844487923975,-0.26419333906799813,0.9209389105378847,-6.986905236826084,6.700874949010731,-0.15529034198832387,0
0.36666666666666664,7.638564582239752,1.332176249594914,4.284398894110653,-1.643917867754807,-3.5548789810094057,4.803072578706487,2.6719662164861435,0.09864899119972327,0.24658154555544143,-0.24714858319044344,0.9318709942440997,-6.931160958064904,6.634641110510457,-0.22548552540603325,0
0.3833333333333333,7.638564582239752,1.332176249594914,4.284398894110653,-1.643917867754807,-3.669981892228508,4.91311833760021,2.6676636539764673,0.11741841169032874,0.2176037080544002,-0.22971199013625404,0.9413256602177947,-6.882357114077964,6.571395371473454,-0.2898982099700955,0
0.39999999999999997,6.173011143161564,1.0547048964790526,4.2812102750603875,-0.9717479819019467,-3.784330159650888,5.022138813430878,2.6623323368557634,0.13600167331921686,0.18828087475573582,-0.2119112044312624,0.949287918732655,-6.840621245903172,6.511698903167764,-0.3490210872177234,0
0.41666666666666663,6.173011143161564,1.0547048964790526,4.2812102750603875,-0.9717479819019467,-3.8981000137501414,5.1302865440501275,2.6558823154556395,0.14949491396336947,0.15719879683345875,-0.19704443251362036,0.9560927542598862,-6.8127583838076085,6.466539055802012,-0.4244046588464389,0
0.4333333333333333,6.173011143161564,1.0547048964790526,4.2812102750603875,-0.9717479819019467,-4.01145554699795,5.237708060281798,2.648203485393534,0.16277654609239026,0.1258942056289806,-0.18189874622575866,0.9615442503142665,-6.790913804716506,6.42460869686845,-0.4965541513973761,0
0.44999999999999996,6.194639015908061,0.292406216095181,3.363913268542695,-0.3984699871571748,-4.124497522209473,5.3444599105884745,2.6393458980456916,0.17582776969242706,0.09441141246959651,-0.16649558413104412,0.965634690359128,-6.775136774080059,6.386231462582764,-0.565934392366425,0
0.4666666666666666,6.194639015908061,0.292406216095181,3.363913268542695,-0.3984699871571748,-4.237324261477218,5.450598178806147,2.629352559042757,0.18339989724146724,0.06828905376954271,-0.1588343822030797,0.9677152349823088,-6.764930224934374,6.350744240451536,-0.6330342334193048,0
0.4833333333333333,6.194639015908061,0.292406216095181,3.363913268542695,-0.3984699871571748,-4.35002383347059,5.556164566402296,2.6182516688879,0.190824802838034,0.042111876893580875,-0.1510456779797511,0.9690189584159732,-6.759877801226815,6.317629368044514,-0.6988900555834996,0
0.49999999999999994,6.891288777661676,0.25824430300076984,2.996847402938756,-0.11111636803947082,-4.4626821492992335,5.661199770005034,2.6060614746800677,0.19809652623288357,0.015900895240016477,-0.14313572374505765,0.9695448141125914,-6.759977826344181,6.287024434381411,-0.7638008307385022,0
0.5166666666666666,6.891288777661676,0.25824430300076984,2.996847402938756,-0.11111636803947082,-4.575387345462265,5.765719148415161,2.5928879585986055,0.20247192776945444,-0.007755924354675042,-0.13604300883813067,0.9697614748012018,-6.765492926478983,6.255743854331943,-0.8169379093076059,0
0.5333333333333333,6.891288777661676,0.25824430300076984,2.996847402938756,-0.11111636803947082,-4.688226757633781,5.8697395655851965,2.578832220378466,0.2067199455576603,-0.031407864365676996,-0.12886470345653606,0.9693680170746766,-6.776079542314122,6.227163126126212,-0.8697133366740681,0
0.55,8.330325675769291,-0.142529765324392,2.064892559839368,0.10859534678110928,-4.801284665426237,5.973306702025176,2.5638979931237995,0.21083790698784632,-0.055040044346065714,-0.12160532377916586,0.9683646884740975,-6.791706074787206,6.201363057589976,-0.9224025367000428,0
0.5666666666666668,8.330325675769291,-0.142529765324392,2.064892559839368,0.10859534678110928,-4.914674784322993,6.0764219236963255,2.5482767950375034,0.21195721121802563,-0.07205453349915972,-0.11905969492797709,0.9673195583767326,-6.815848563935799,6.172753142282833,-0.9522129594348528,0
0.5833333333333335,8.330325675769291,-0.142529765324392,2.064892559839368,0.10859534678110928,-5.028504220343206,6.179074864371212,2.532154722688063,0.21301328475657316,-0.08904752747423088,-0.11647854840408213,0.9659858592594526,-6.844419378307649,6.1458935259157,-0.9825342836633284,0
0.6000000000000002,9.35817098636553,-0.5696049554722284,1.9798187421310636,0.28240541493589255,-5.142846526693068,6.2812948992663005,2.515521921134752,0.21400581255754228,-0.10601395695207197,-0.11386265421044037,0.9643639889889644,-6.877387374470031,6.1208082860423385,-1.0135271816836604,0
0.6166666666666669,9.35817098636553,-0.5696049554722284,1.9798187421310636,0.28240541493589255,-5.257812986413718,6.383084531029667,2.498500688881482,0.21307955947219634,-0.12319151419043513,-0.11464281056783188,0.9624333911036721,-6.919439836880267,6.094105108087053,-1.0292346550810731,0
0.6333333333333336,9.35817098636553,-0.5696049554722284,1.9798187421310636,0.28240541493589255,-5.37352278877163,6.484437007587257,2.48120646963424,0.21208932663818472,-0.14033208166715633,-0.11538854401659421,0.9602138107996872,-6.966580248365484,6.0683507413792865,-1.0463154130814687,0
0.6500000000000004,10.990645351317788,-0.6539160698400962,1.0862378730583684,0.34097008260098605,-5.490060303864683,6.585368193289525,2.463614890470566,0.21103541138504953,-0.15743051271682168,-0.11609963064112164,0.957705914533193,-7.018756109149689,6.043551094931269,-1.0649473444302537,0
0.6666666666666671,10.990645351317788,-0.6539160698400962,1.0862378730583684,0.34097008260098605,-5.607584625476062,6.685855170476733,2.4459089476090083,0.20849463422919554,-0.16756990715175554,-0.11895383738807784,0.9561905419136081,-7.084758226523241,6.014834925209769,-1.060007973554929,0
0.6833333333333338,10.990645351317788,-0.6539160698400962,1.0862378730583684,0.34097008260098605,-5.726238678142901,6.7858609583091205,2.4282730034267392,0.2059288990747217,-0.1776892425116591,-0.12179380468124505,0.9545607078244815,-7.154318298026564,5.985806912736378,-1.0565604054191864,0
0.7000000000000005,15.723728850471145,-0.7774006560638965,1.1746508890867906,0.45966248949498195,-5.846081479492801,6.885380286844931,2.410681551434635,0.20333851305478123,-0.187787307454289,-0.12461919256031664,0.9528166073662635,-7.227402248117249,5.956458375238292,-1.0546816911056238,0
0.7166666666666672,15.723728850471145,-0.7774006560638965,1.1746508890867906,0.45966248949498195,-5.967445593621544,6.984300568096386,2.393695590609178,0.19967663882029046,-0.19889425237219885,-0.1280725190223159,0.9508773844789963,-7.337202593339556,5.913843304613083,-0.9840850126125537,0
0.733333333333334,15.723728850471145,-0.7774006560638965,1.1746508890867906,0.45966248949498195,-6.090685075493609,7.0825039322241725,2.377863301996099,0.19598432196748802,-0.20997087395411343,-0.1315063196006873,0.9487931912163866,-7.45243454821234,5.870424590915659,-0.916263100952904,0
0.7500000000000007,17.04114017737049,-0.755616408146744,0.3232956085122852,0.4677608502223124,-6.215889851316426,7.179976800075677,2.363137340482531,0.19226212542548424,-0.22101548346285757,-0.13492007077960552,0.9465643453336829,-7.573025489908988,5.8261801047895005,-0.8513475472684741,0
0.7666666666666674,17.04114017737049,-0.755616408146744,0.3232956085122852,0.4677608502223124,-6.34322655299323,7.276669363703701,2.3496301745019164,0.18753829108174905,-0.22529529986713154,-0.13949666432036434,0.945839390192125,-7.707767699554872,5.776504120651362,-0.7698121084387051,0
0.7833333333333341,17.04114017737049,-0.755616408146744,0.3232956085122852,0.4677608502223124,-6.472828282591261,7.372512788101388,2.3374668355216794,0.1828028101967297,-0.2295611249366445,-0.14406459481076345,0.9450556963394349,-7.844821322195266,5.724281278329714,-0.6900948968688042,0
0.8000000000000008,16.87299100051881,-0.756867550359366,-0.24926106093906086,0.44470190258963105,-6.604733186161797,7.46746452145139,2.326616691534666,0.17805597685422797,-0.23381269375425606,-0.14862357857224992,0.9442133124447284,-7.984140963235513,5.669499181813164,-0.6122352228043217,0
0.8166666666666675,16.87299100051881,-0.756867550359366,-0.24926106093906086,0.44470190258963105,-6.7389608760660344,7.561483464871749,2.3170316401047337,0.17276833979151843,-0.23351845570091795,-0.15407797752045096,0.9443941246193515,-8.123174408571678,5.612167992835344,-0.5381128275995195,0
0.8333333333333343,16.87299100051881,-0.756867550359366,-0.24926106093906086,0.44470190258963105,-6.875505284283565,7.6545166075852675,2.3086747889284687,0.16747071173621025,-0.2332107135462765,-0.15952346631801403,0.9445203235776836,-8.262139064926536,5.551204378961746,-0.46485592923715036,0
0.850000000000001,16.99680144039284,-0.593908105392545,-0.6999779521029734,0.40528019044188535,-7.0143648595897155,7.746503475607975,2.301531476776447,0.1621633990439862,-0.23288948508670343,-0.1649597300586412,0.9445919020217853,-8.40098636688999,5.486616451794238,-0.39249284764913117,0
0.8666666666666677,16.99680144039284,-0.593908105392545,-0.6999779521029734,0.40528019044188535,-7.1555402708034155,7.837379259973212,2.295604051911201,0.15685272864621488,-0.2287311540135778,-0.16978829018793518,0.9456485982512289,-8.539703693005707,5.417851669562248,-0.31876950394481496,0
0.8833333333333344,16.99680144039284,-0.593908105392545,-0.6999779521029734,0.40528019044188535,-7.2990095252372935,7.927077745548209,2.290906671094563,0.15153109008086818,-0.2245568285637614,-0.17460497761067695,0.9466391685523408,-8.676238698006015,5.345345494095176,-0.2448941607284913,0
0.9000000000000011,17.59501730461517,-0.8311614838066732,-0.9093499629491129,0.408180812307844,-7.444735809815443,8.015536823535584,2.2874415375972474,0.14619885547168313,-0.22036680063336242,-0.1794094555126124,0.9475635436579736,-8.810538557982401,5.269127829901368,-0.170906430701177,0
0.9166666666666679,17.59501730461517,-0.8311614838066732,-0.9093499629491129,0.408180812307844,-7.592718437564926,8.10266776217089,2.2852795749801453,0.14008139412668294,-0.2147963501907295,-0.18632028400284684,0.948432673885167,-8.946866402863078,5.1857208073196,-0.08853919477133325,0
0.9333333333333346,17.59501730461517,-0.8311614838066732,-0.9093499629491129,0.408180812307844,-7.742947436691234,8.188365531492963,2.2844896681544804,0.1339475477155565,-0.20920077540932555,-0.19320931894802784,0.9491908676659124,-9.08008871665998,5.0971564536124125,-0.006273288330724259,0
0.9500000000000013,17.167574755463324,-0.5164806210462236,-1.1532403613526196,0.3411605954863498,-7.8953703320856325,8.272544629729707,2.2850694508287184,0.12779803370317255,-0.20358073079336494,-0.20007575455025609,0.9498380363156608,-9.210119794013412,5.003489618425679,0.07581000368636984,0
0.966666666666668,17.167574755463324,-0.5164806210462236,-1.1532403613526196,0.3411605954863498,-8.04990393578567,8.355142960133142,2.286968407938692,0.12229113911054669,-0.19555937713467952,-0.20480126841556426,0.9512401914998755,-9.333162164527687,4.907654063806314,0.15218773139700106,0
0.9833333333333347,17.167574755463324,-0.5164806210462236,-1.1532403613526196,0.3411605954863498,-8.206450523368943,8.436111417247144,2.2901462260035164,0.11676969621167443,-0.1875147588492304,-0.20950241819698023,0.952529182854556,-9.45166605088915,4.807915941415005,0.22925859119027456,0
1.0000000000000013,12.620246887207031,-0.23099276423454285,-0.31214138865470886,0.5183032751083374,-8.364933869004375,8.51538551929358,2.2946137199895027,0.11123436186234106,-0.17944783296114306,-0.21417864462449293,0.9537048570354693,-9.565561684407301,4.704342880266725,0.30693406339352947,1
1.016666666666668,12.620246887207031,-0.23099276423454285,-0.31214138865470886,0.5183032751083374,-8.525040896629914,8.593142279662617,2.2998457876853746,0.1062109870761278,-0.1781036683589054,-0.21552561360412548,0.9542259028037245,-9.647132853592444,4.626297211528969,0.32090717573699085,1
1.0333333333333345,12.620246887207031,-0.23099276423454285,-0.31214138865470886,0.5183032751083374,-8.686499974325635,8.669589748130468,2.3053103932274506,0.10118451869467981,-0.17675431615155368,-0.21686630499393827,0.9547191549435893,-9.7278058625388,4.547229468227358,0.3348384166517774,1
1.0500000000000012,12.466012001037598,-0.42655664682388306,-0.27753016352653503,0.6253988146781921,-8.849296041531444,8.744710971256051,2.311006829357935,0.09615510312336491,-0.1753998156415148,-0.21820067974376703,0.9551845990881647,-9.807569782059765,4.467149406312323,0.3487266588837996,1
1.0666666666666678,12.466012001037598,-0.42655664682388306,-0.27753016352653503,0.6253988146781921,-9.0134063116851,8.818495819999356,2.3169153610936517,0.09004675755307796,-0.17466574112517066,-0.22089932931178916,0.9552941959420542,-9.885539923754779,4.386773466115894,0.36023287979802,1
1.0833333333333344,12.466012001037598,-0.42655664682388306,-0.27753016352653503,0.6253988146781921,-9.178809890884844,8.89092815096201,2.323012439916205,0.08393434677964273,-0.17392378124193475,-0.22358800627587333,0.9553606655909402,-9.96276341102904,4.304849085620581,0.3713517247453455,1
1.100000000000001,13.595900535583496,-0.20781654119491577,-0.43440306186676025,0.683678150177002,-9.345494162439914,8.961982248230091,2.329291580526377,0.07781814675071345,-0.17317396948793434,-0.22626658925443557,0.9553840050340193,-10.039219572616318,4.221387282191979,0.3820797214647671,1
1.1166666666666676,13.595900535583496,-0.20781654119491577,-0.43440306186676025,0.683678150177002,-9.513501736677545,9.031570244578491,2.3358791314301364,0.07125418980287372,-0.17113514512579459,-0.22721070230073814,0.9560392007956141,-10.12144357673014,4.128996073220191,0.40844707185392404,1
1.1333333333333342,13.595900535583496,-0.20781654119491577,-0.43440306186676025,0.683678150177002,-9.682867382114607,9.099609634358524,2.34290716959681,0.06468677254038736,-0.16908800993378129,-0.22814378132190885,0.9566479684600206,-10.20218567150695,4.035557934826617,0.43493802299679624,1
1.1500000000000008,12.808914184570312,-0.3784816265106201,-0.3450794517993927,0.6273760795593262,-9.853566278812082,9.166083141349992,2.350377746471546,0.05811621389650179,-0.16703266332684685,-0.22906578100486483,0.9572102784636768,-10.281431331151648,3.9410936129904073,0.46155154281871524,1
1.1666666666666674,12.808914184570312,-0.3784816265106201,-0.3450794517993927,0.6273760795593262,-10.025536630489226,9.231018472485951,2.3582001099996126,0.051924974780054804,-0.1656571421773525,-0.23137345399973921,0.9572501695918136,-10.354825252026878,3.850909604517077,0.4770890338358497,1
1.183333333333334,12.808914184570312,-0.3784816265106201,-0.3450794517993927,0.6273760795593262,-10.198720880853575,9.294438953892659,2.3662792710114897,0.045731370457966644,-0.1642740752715272,-0.23367058783111977,0.9572464575499782,-10.427096035033385,3.7593142351959994,0.49236674060610003,1
1.2000000000000006,13.318428993225098,-0.3930164575576782,-0.37255755066871643,0.6028217673301697,-10.373100154582797,9.35632119308706,2.37461087488817,0.03953568305166238,-0.16288352560868224,-0.23595707786354123,0.9571991425072556,-10.498224951620218,3.666323171378207,0.5073816852765289,1
1.2166666666666672,13.318428993225098,-0.3930164575576782,-0.37255755066871643,0.6028217673301697,-10.54867825693802,9.416610679674251,2.383249631840569,0.03346029481938934,-0.16122287833717266,-0.23839113432108575,0.9571088304931604,-10.570928596089416,3.5681670890890915,0.5292235433252511,1
1.2333333333333338,13.318428993225098,-0.3930164575576782,-0.37255755066871643,0.6028217673301697,-10.725457095634061,9.47525187557494,2.3922501273841,0.027383380768355906,-0.15955487916115357,-0.24081431993403604,0.9569748734778125,-10.642310061292015,3.468531329083751,0.5507895923674563,1
1.2500000000000004,13.676004409790039,-0.3156004548072815,-0.4312710762023926,0.5836119055747986,-10.903414472461376,9.532220272245079,2.4016077286501445,0.02130521801116716,-0.15787960414284882,-0.243226524203005,0.956797277569769,-10.712349961106687,3.367434266213296,0.5720755146324431,1
1.266666666666667,13.676004409790039,-0.3156004548072815,-0.4312710762023926,0.5836119055747986,-11.082542728821014,9.587469429209003,2.411359587964897,0.015362116985194928,-0.15567647770072723,-0.24504633547714028,0.9568078110473677,-10.782773065450746,3.262258219939003,0.5981325776672474,1
1.2833333333333337,13.676004409790039,-0.3156004548072815,-0.4312710762023926,0.5836119055747986,-11.262831272526567,9.640955393292431,2.4215449689946653,0.009418347921625903,-0.15346658150544332,-0.2468554906571179,0.9567767367445219,-10.851581798188885,3.155854649674324,0.624097437247138,1
1.3000000000000003,13.676004409790039,-0.3156004548072815,-0.4312710762023926,0.5836119055747986,-11.444253065945555,9.692657882808279,2.4321623009009836,0.0034741692914250525,-0.15125001165662613,-0.24865391106994772,0.9567040560125298,-10.918760433666376,3.0482448362293932,0.6499660023984231,1
1.3166666666666669,12.659913063049316,0.02767944149672985,-0.48829659819602966,0.6222296953201294,-11.62678081171035,9.742556972503271,2.4432099448010858,-0.0024701604166322234,-0.14902686454411543,-0.25044151850945207,0.9565897720119885,-10.984293529771287,2.939450270231008,0.6757341988970813,1
1.3333333333333335,12.659913063049316,0.02767944149672985,-0.48829659819602966,0.6222296953201294,-11.810346981451028,9.790703953005162,2.4545708272602833,-0.008414924463938966,-0.1464303171743332,-0.2494326374760029,0.9572203324103901,-11.043374521948111,2.838183431872399,0.687661123422621,1
1.35,12.659913063049316,0.02767944149672985,-0.48829659819602966,0.6222296953201294,-11.994884214718644,9.837163017115714,2.4661349534815113,-0.01435932248119381,-0.14382740041920186,-0.24841290669082614,0.9578092559040934,-11.100820933412606,2.7369040325920495,0.700122866786057,1
1.3666666666666667,12.268792152404785,-0.35057368874549866,-0.4120607078075409,0.7746208906173706,-12.180365258311951,9.881934141955133,2.477911207676361,-0.020303095900619465,-0.14121822749967294,-0.24738237050988884,0.9583565168762673,-11.156631588858394,2.6356344486973207,0.7131158812448065,1
1.3833333333333333,12.268792152404785,-0.35057368874549866,-0.4120607078075409,0.7746208906173706,-12.366749115657875,9.925040627374468,2.4898609839013575,-0.027750780461208623,-0.1394606078823994,-0.24919316577945191,0.9579579601012157,-11.209183687922685,2.5369639238126065,0.7208296015601856,1
1.4,12.268792152404785,-0.35057368874549866,-0.4120607078075409,0.7746208906173706,-12.553996414243588,9.9664936757418,2.5019379359450857,-0.03519674461061774,-0.1376943423969741,-0.2509885123048257,0.9575000146690822,-11.260241739500435,2.4372259464792094,0.7283768022617687,1
1.4166666666666665,11.977616310119629,-0.13901330530643463,-0.3744875490665436,0.788360059261322,-12.742082114403612,10.006275694114496,2.5141392797340263,-0.04264052673588473,-0.13591954054312413,-0.25276829878340246,0.9569827089702193,-11.3097891408008,2.3364443121056206,0.73575644065877,1
1.4333333333333331,11.977616310119629,-0.13901330530643463,-0.3744875490665436,0.788360059261322,-12.93097198913719,10.044391279233624,2.5264292736569516,-0.04987263929883993,-0.13454058946922756,-0.2528440381877033,0.9568079724517237,-11.356784556789659,2.23736318492501,0.7390650989895811,1
1.4499999999999997,11.977616310119629,-0.13901330530643463,-0.3744875490665436,0.788360059261322,-13.120634542669153,10.080852428444059,2.538775530965099,-0.05710204670876762,-0.13315434074900542,-0.2529060630217506,0.9565813374971355,-11.402509729027889,2.137915130169991,0.7425083840018813,1
1.4666666666666663,12.988057136535645,-0.43801528215408325,-0.421064168214798,0.7679756879806519,-13.31104856165785,10.115653182859347,2.5511803122108136,-0.06432835683375705,-0.13176086957428587,-0.25295436992124143,0.956302816399412,-11.44695959004445,2.0381189495438288,0.7460883037095173,1
1.483333333333333,12.988057136535645,-0.43801528215408325,-0.421064168214798,0.7679756879806519,-13.502222223621798,10.148714990302912,2.5637621803397117,-0.07181480336198653,-0.12978501396610412,-0.2553675850097501,0.9553983121472366,-11.493585885550372,1.9290871532071134,0.7636846471192528,1
1.4999999999999996,12.988057136535645,-0.43801528215408325,-0.421064168214798,0.7679756879806519,-13.694158236494495,10.17994914306187,2.576634749384277,-0.07929646755442002,-0.12780051563401282,-0.2577637945021176,0.954430185419837,-11.53843835410612,1.8188052851854393,0.7809718017832373,1
1.5166666666666662,11.849621772766113,-0.4269489645957947,-0.4314591884613037,0.7211817502975464,-13.886826870560963,10.20933505241627,2.589792835838015,-0.0867728511874489,-0.12580750673095212,-0.26014283882847966,0.953398500687307,-11.58149716300648,1.7073028972969855,0.7979461382209938,1
1.5333333333333328,11.849621772766113,-0.4269489645957947,-0.4314591884613037,0.7211817502975464,-14.080167653882194,10.236934891918477,2.603099638130185,-0.09388283407362323,-0.12363039892410563,-0.2624588179151148,0.9523743806856496,-11.619115780761073,1.604504748400399,0.7988262087115396,1
1.5499999999999994,11.849621772766113,-0.4269489645957947,-0.4314591884613037,0.7211817502975464,-14.274121317637388,10.26281284883455,2.616418901092207,-0.1009870239915658,-0.12144566259836628,-0.2647586021817987,0.9512914951536746,-11.65504020164934,1.5006814728288602,0.7994407748726411,1
1.566666666666666,11.83322811126709,-0.40273797512054443,-0.37368619441986084,0.6298901438713074,-14.468659495705234,10.286952062710585,2.6297461676482197,-0.1080849825826894,-0.11925343256121249,-0.2670420497221081,0.9501499109100028,-11.689254954859734,1.395860111078416,0.7997860072608373,1
1.5833333333333326,11.83322811126709,-0.40273797512054443,-0.37368619441986084,0.6298901438713074,-14.663753750970677,10.309337449227444,2.64307498771815,-0.11430154263522108,-0.11733071645210509,-0.26926184591850355,0.9490346531187402,-11.721801161093198,1.2902330683166747,0.7996240424399347,1
1.5999999999999992,11.83322811126709,-0.40273797512054443,-0.37368619441986084,0.6298901438713074,-14.859377683146572,10.329954785134268,2.6563986807200495,-0.1205125574914499,-0.11540230819011786,-0.2714685792134013,0.9478733540989132,-11.752814150130067,1.1836976577958165,0.7991701777976955,1
1.6166666666666658,12.662817001342773,-0.40538156032562256,-0.4172992706298828,0.754686713218689,-15.055505637742225,10.348789112450616,2.6697123527498325,-0.12671772583176266,-0.11346830132956441,-0.2736621425498969,0.94666607018949,-11.782281867264388,1.0762756864083736,0.7984209539834856,1
1.6333333333333324,12.662817001342773,-0.40538156032562256,-0.4172992706298828,0.754686713218689,-15.252127809584163,10.365762716219201,2.6831060995591964,-0.13400226443914373,-0.11146572068365794,-0.2756972323213385,0.9453094078065718,-11.81207532288313,0.960408277056893,0.8087817016839458,1
1.649999999999999,12.662817001342773,-0.40538156032562256,-0.4172992706298828,0.754686713218689,-15.4492313290289,10.380797853519162,2.69667017139434,-0.14127835327220173,-0.10945611134918058,-0.27771493746570414,0.9438931370939371,-11.840041288174985,0.843664605072194,0.8188595976710683,1
1.6666666666666656,14.63157844543457,-0.46397876739501953,-0.6187878847122192,0.5404514670372009,-15.646785624616328,10.393880165325967,2.7103998362883663,-0.14854553352295413,-0.10743960004597115,-0.27971513075265775,0.9424173473572998,-11.866166245690728,0.7260741489942839,0.8286525212792829,1
1.6833333333333322,14.63157844543457,-0.46397876739501953,-0.6187878847122192,0.5404514670372009,-15.84478940579643,10.404842524709775,2.7245148533409558,-0.1546430858913473,-0.10326210571179129,-0.2821004393183215,0.9411917178800403,-11.893788560862538,0.5892536131675672,0.8651121413340728,1
1.6999999999999988,14.63157844543457,-0.46397876739501953,-0.6187878847122192,0.5404514670372009,-16.043228577736926,10.413516897758871,2.7392356139656364,-0.16073107768832956,-0.09907822735643124,-0.2844683074573435,0.9399079006695353,-11.918411097303752,0.4515232437605837,0.901338897213283,1
1.7166666666666655,12.599048614501953,-0.3431154191493988,-0.4306434392929077,0.7569006085395813,-16.24205304420706,10.419888493942608,2.7545580946204526,-0.16680913253315305,-0.09488822364174819,-0.28681858877991073,0.9385659750958132,-11.94002198867079,0.3129278808329198,0.9373157021834044,1
1.733333333333332,12.599048614501953,-0.3431154191493988,-0.4306434392929077,0.7569006085395813,-16.441192541950148,10.424104943520545,2.7702474301647193,-0.17402461251945595,-0.09284928373704893,-0.2882963508877271,0.9370057166161765,-11.956410795002409,0.19295738494845702,0.9453718686368638,1
1.7499999999999987,12.599048614501953,-0.3431154191493988,-0.4306434392929077,0.7569006085395813,-16.64058981656946,10.426317531015988,2.786069398658764,-0.18122950508997623,-0.0908046950108536,-0.28975657344587125,0.9353884520098263,-11.970953871529458,0.07246925678150178,0.9532315517595228,1
1.7666666666666653,14.087591171264648,-0.3864252269268036,-0.49459460377693176,0.5817233324050903,-16.840214040036464,10.426517870860657,2.8020207202934917,-0.18842337190905425,-0.08875458185310127,-0.2911991676164304,0.9337142796688958,-11.983643389458658,-0.04850748688942322,0.9608941491032479,1
1.7833333333333319,14.087591171264648,-0.3864252269268036,-0.49459460377693176,0.5817233324050903,-17.040044400622854,10.424578425574136,2.818266409948934,-0.19443091215706473,-0.08570881549892942,-0.2929916388081802,0.9322052204807924,-11.99560299162173,-0.18431771435332833,0.988548242953233,1
1.7999999999999985,14.087591171264648,-0.3864252269268036,-0.49459460377693176,0.5817233324050903,-17.240054224370503,10.420370981409537,2.8349709626266675,-0.20042856414616572,-0.08265869021361293,-0.294769209194545,0.9306487517194133,-12.005177840358277,-0.3206617532780185,1.0159565007229803,1
1.816666666666665,14.333462715148926,-0.4894145429134369,-0.5876815319061279,0.8008147478103638,-17.44020371031511,10.41388692175417,2.852130220646075,-0.2064160228511168,-0.0796043611187227,-0.2965317883728415,0.9290449525427792,-12.012361407772465,-0.4575059567356352,1.0431116813569241,1
1.8333333333333317,14.333462715148926,-0.4894145429134369,-0.5876815319061279,0.8008147478103638,-17.640452284195987,10.40509775034937,2.86976729138181,-0.21438394343026043,-0.07618819927735093,-0.29876607192211935,0.9268083790719611,-12.016974869422572,-0.5972988842711713,1.073273273372425,1
1.8499999999999983,14.333462715148926,-0.4894145429134369,-0.5876815319061279,0.8008147478103638,-17.840753091361844,10.393973635018535,2.887903855917835,-0.22233360874511798,-0.07276554984324701,-0.30097491488328515,0.9244928858292991,-12.018627736576267,-0.7376901117980368,1.1030495784462833,1
1.866666666666665,13.509038925170898,-0.30392998456954956,-0.45507243275642395,0.6365145444869995,-18.041056708105316,10.380505060448767,2.9065334252246964,-0.23026434186420386,-0.06933670426253781,-0.3031581291685027,0.9220986699841353,-12.017310521686422,-0.8786248444714567,1.1324325090299319,1
1.8833333333333315,13.509038925170898,-0.30392998456954956,-0.45507243275642395,0.6365145444869995,-18.241317510223926,10.364752003075937,2.925557738519388,-0.23647500430219343,-0.06686301674850666,-0.30424514206693404,0.9203498557721629,-12.013645170149825,-1.0117657506978328,1.1504608195453572,1
1.8999999999999981,13.509038925170898,-0.30392998456954956,-0.45507243275642395,0.6365145444869995,-18.441500190293368,10.346778824482904,2.9448813039347312,-0.24267409568635936,-0.06438605753323212,-0.305317267823594,0.9185560075501517,-12.00793560490528,-1.145034625757758,1.1683423815527247,1
1.9166666666666647,13.257179260253906,-0.5408229827880859,-0.3550405502319336,0.8755037784576416,-18.641570665652804,10.326583630177586,2.9645016566446465,-0.24886131268646067,-0.0619059478178047,-0.3063744539778647,0.9167172130936124,-12.000180400777763,-1.2784028673260488,1.1860749177629062,1
1.9333333333333313,13.257179260253906,-0.5408229827880859,-0.3550405502319336,0.8755037784576416,-18.84149598449458,10.30418364522858,2.98438659739748,-0.2567246719928907,-0.06030484161580227,-0.309305365287468,0.9136662487100119,-11.990503352559882,-1.4097292897845688,1.1999994799664193,1
1.949999999999998,13.257179260253906,-0.5408229827880859,-0.3550405502319336,0.8755037784576416,-19.041242254235847,10.279588301532634,3.0044976822695526,-0.2645669042500144,-0.05869877265212861,-0.3122108224416433,0.9105400945453274,-11.978692157356276,-1.541839121027816,1.2132117826728699,1
1.9666666666666646,13.485286712646484,-0.3630487322807312,-0.5449659824371338,0.7209367752075195,-19.240773790147436,10.252784882778364,3.024823019451291,-0.2723873640846144,-0.0570878730975561,-0.3150905863370114,0.907339007865106,-11.964733059106106,-1.6746914589926303,1.2257093668733299,1
1.9833333333333312,13.485286712646484,-0.3630487322807312,-0.5449659824371338,0.7209367752075195,-19.440051744977264,10.223744335030593,3.04537737121367,-0.2794330935248754,-0.05403437322733777,-0.31624527659195906,0.9049786803819889,-11.948213903437951,-1.8101630501749442,1.240783649918519,1
1.9999999999999978,13.485286712646484,-0.3630487322807312,-0.5449659824371338,0.7209367752075195,-19.639034003957747,10.192446598550246,3.066181491616465,-0.2864604165349541,-0.050977314079634795,-0.31737913557552566,0.9025587413951419,-11.9292498344791,-1.945547502134808,1.2556810247383614,1
2.0166666666666644,12.685580253601074,-0.5053480863571167,-0.43281492590904236,0.8463709354400635,-19.837679834187814,10.158893455823582,3.0872324033702467,-0.2934688702207504,-0.04791689702481835,-0.3184920885997208,0.9000793503074386,-11.907842838007971,-2.080805199661824,1.27039804089657,1
2.033333333333331,12.685580253601074,-0.5053480863571167,-0.43281492590904236,0.8463709354400635,-20.03596024450586,10.12315271097571,3.108438017033769,-0.3011558215910237,-0.04567908816921954,-0.32087324054207583,0.8968048894210464,-11.885430826699192,-2.2081396426422595,1.2741830656612954,1
2.0499999999999976,12.685580253601074,-0.5053480863571167,-0.43281492590904236,0.8463709354400635,-20.2338483274706,10.085287068136912,3.129702082593621,-0.30881853323514546,-0.043437602650216955,-0.3232285657232578,0.8934582456201213,-11.86076267031954,-2.335786010020843,1.2774119626361684,1
2.066666666666664,13.650680541992188,-0.3195034861564636,-0.3980891704559326,0.5967205166816711,-20.431306438418705,10.045291676262593,3.15101531646015,-0.31645638838923945,-0.041192620882703014,-0.3255578745655354,0.890039688272623,-11.833833420610974,-2.463702562734435,1.280082986531978,1
2.083333333333331,13.650680541992188,-0.3195034861564636,-0.3980891704559326,0.5967205166816711,-20.62828003712576,10.00308210081219,3.172474443754734,-0.3220651325200088,-0.03901544602943911,-0.32666599979447847,0.8877168603354738,-11.802679053725448,-2.6014280881193286,1.294970720958095,1
2.0999999999999974,13.650680541992188,-0.3195034861564636,-0.3980891704559326,0.5967205166816711,-20.824718432616912,9.958578090222222,3.1941796181988202,-0.327660085316195,-0.03683660047352605,-0.3277601366724789,0.8853560189687422,-11.769609331104022,-2.739030572758179,1.3096084440243296,1
2.116666666666664,13.093968391418457,-0.32712501287460327,-0.5560886859893799,0.8256370425224304,-21.02058971802766,9.911781905445844,3.2161266630331355,-0.3332410071931359,-0.0346561775165511,-0.3288402383468778,0.8829572652673618,-11.734626195130259,-2.8764847876370445,1.3239949744917647,1
2.1333333333333306,13.093968391418457,-0.32712501287460327,-0.5560886859893799,0.8256370425224304,-21.215873171342203,9.862743764798248,3.23825140340233,-0.3409215675914371,-0.031917296777779824,-0.3294519645769103,0.8798950097104852,-11.699006272804539,-3.008009430154606,1.330957839963931,1
2.1499999999999972,13.093968391418457,-0.32712501287460327,-0.5560886859893799,0.8256370425224304,-21.410543887408384,9.81151779090554,3.260491391198732,-0.348576134735165,-0.02917598253377068,-0.3300385720418103,0.8767656673595792,-11.661099225440367,-3.1390181142465847,1.3378247364358193,1
2.166666666666664,12.962532043457031,-0.3381519019603729,-0.4738072156906128,0.6356428265571594,-21.604563824416477,9.758112915767764,3.282845030554152,-0.356204125008816,-0.02643244379353273,-0.3306000160162257,0.8735694768085028,-11.620914401967813,-3.269470943999382,1.3445961025923518,1
2.1833333333333305,12.962532043457031,-0.3381519019603729,-0.4738072156906128,0.6356428265571594,-21.797899161026606,9.70254904323121,3.3052962014133023,-0.3622020270068036,-0.023730026160968063,-0.3315066930126772,0.8708329025352486,-11.578984859799666,-3.3981263960931027,1.3495109313523623,1
2.199999999999997,12.962532043457031,-0.3381519019603729,-0.4738072156906128,0.6356428265571594,-21.990518632428646,9.64484436304217,3.327827606808145,-0.3681812434409992,-0.021026384325100945,-0.33239626798043226,0.8680514030475028,-11.535011615087157,-3.5263629651174107,1.3542238991059263,1
2.2166666666666637,12.55006217956543,-0.24465462565422058,-0.35644304752349854,0.5027201771736145,-22.182388229988412,9.585006101198982,3.350435865116163,-0.37414146585087027,-0.018321657763538418,-0.33326869502739603,0.8652251218394545,-11.48900110699546,-3.65415131232234,1.3587329401421455,1
2.2333333333333303,12.55006217956543,-0.24465462565422058,-0.35644304752349854,0.5027201771736145,-22.373488118103428,9.523075472874469,3.3730732467032727,-0.3787877300435522,-0.016384737804991303,-0.33383952585326054,0.8630194789650982,-11.442743062656493,-3.777461964535376,1.3577309864957983,1
2.249999999999997,12.55006217956543,-0.24465462565422058,-0.35644304752349854,0.5027201771736145,-22.563804930363958,9.459092817835622,3.395692834324793,-0.3834224297951157,-0.014447317618161806,-0.3344001645128178,0.8607874879882111,-11.395032715890414,-3.900391836491205,1.3565975719633998,1
2.2666666666666635,13.527620315551758,-0.22655059397220612,-0.44576501846313477,0.5703971982002258,-22.753314497793443,9.393064616366816,3.4182924323952046,-0.3880454236075445,-0.012509456352752767,-0.334950593889693,0.8585292170517825,-11.345874423880232,-4.022924862493083,1.355332150735895,1
2.28333333333333,13.527620315551758,-0.22655059397220612,-0.44576501846313477,0.5703971982002258,-22.941959514461985,9.324919008065804,3.440975441133387,-0.3933863514392781,-0.010179560899260217,-0.3350638001710699,0.8560816894524245,-11.291237582577052,-4.154429945209863,1.3666271703042954,1
2.2999999999999967,13.527620315551758,-0.22655059397220612,-0.44576501846313477,0.5703971982002258,-23.129679442551144,9.254587618771486,3.4638466114380133,-0.39871156068230196,-0.007849258699752115,-0.3351636182653703,0.8535999552876146,-11.234865311446061,-4.285214927664829,1.3779113958100377,1
2.3166666666666633,12.234384536743164,0.016129380092024803,-0.4628562033176422,0.45904672145843506,-23.31644543485431,9.182082632533515,3.4869057562679915,-0.40402083855655,-0.005518642866411202,-0.33525004418414983,0.8510841137203218,-11.17676685145664,-4.415257943897269,1.3891839707463847,1
2.33333333333333,12.234384536743164,0.016129380092024803,-0.4628562033176422,0.45904672145843506,-23.502277703150742,9.107520825019476,3.5100147885582764,-0.40856294188684805,-0.0035725916638843745,-0.33355123337373827,0.849592365773157,-11.122936084352629,-4.531974529293038,1.3839783306424114,1
2.3499999999999965,12.234384536743164,0.016129380092024803,-0.4628562033176422,0.45904672145843506,-23.687204361997157,9.031022995829916,3.5330409738256185,-0.4130929807267132,-0.0016264349659894386,-0.33184257310011955,0.8480755301395727,-11.068095700821434,-4.64757854996049,1.3792418652088152,1
2.366666666666663,11.760356903076172,-0.2149057686328888,-0.4345560073852539,0.41444340348243713,-23.87120868395151,8.952607787094067,3.555992108354972,-0.41761082130823685,0.0003197697590442205,-0.3301241138184707,0.8465336516103392,-11.012257660429444,-4.762058101867576,1.3749717700906625,1
2.3833333333333298,11.760356903076172,-0.2149057686328888,-0.4345560073852539,0.41444340348243713,-24.054291118690074,8.872329608493304,3.578823161102821,-0.42172347812769995,0.0029930483920660974,-0.3301243026254556,0.8444870328387875,-10.957398342714178,-4.871205453453467,1.3647539728903182,1
2.3999999999999964,11.760356903076172,-0.2149057686328888,-0.4345560073852539,0.41444340348243713,-24.23644744384907,8.790238242211943,3.6014838790342365,-0.4258242216757095,0.005666242474429028,-0.33011516574716443,0.8424165581431932,-10.901125755598768,-4.979638165793242,1.3545310606350014,1
2.416666666666663,12.665899276733398,-0.2926321029663086,-0.34558355808258057,0.6004040837287903,-24.417654167617243,8.706345721565704,3.623974150326026,-0.42991293611031317,0.008339276491042196,-0.33009670344170483,0.84032228601242,-10.843447447077402,-5.087341533089636,1.34429984477791,1
2.4333333333333296,12.665899276733398,-0.2926321029663086,-0.34558355808258057,0.6004040837287903,-24.597850168847888,8.62059466807095,3.646391492021609,-0.4350391983857182,0.010155904819457398,-0.3309430604977243,0.8373258017839973,-10.779822444163344,-5.202706532940384,1.3457394262386633,1
2.449999999999996,12.665899276733398,-0.2926321029663086,-0.34558355808258057,0.6004040837287903,-24.77697325721158,8.532924835146432,3.668830740802193,-0.4401483749580656,0.011972134285483488,-0.3317764201160839,0.834296432472886,-10.714698911099862,-5.317591893130748,1.346928737288547,1
2.466666666666663,12.699666976928711,-0.0031395028345286846,-0.5664448142051697,0.6884483695030212,-24.954998508261784,8.443344375151234,3.691287727718966,-0.445240265169865,0.013787893558634714,-0.33259674956746854,0.8312342970543524,-10.64808301375651,-5.431978622697755,1.3478680514410024,1
2.4833333333333294,12.699666976928711,-0.0031395028345286846,-0.5664448142051697,0.6884483695030212,-25.131900374388476,8.351861930862395,3.7137641307463523,-0.4515663881535158,0.01581474850110457,-0.3305867379361655,0.8285832207329357,-10.579940600443921,-5.545664247643756,1.3493901274793858,1
2.499999999999996,12.699666976928711,-0.0031395028345286846,-0.5664448142051697,0.6884483695030212,-25.307656581233854,8.25849730058103,3.736270387528964,-0.4578675863332245,0.0178407305276176,-0.3285584791326966,0.8258864096649382,-10.510607728204386,-5.657837820495892,1.351450200480237,1
2.5166666666666626,12.456226348876953,-0.19300341606140137,-0.5072793364524841,0.549150288105011,-25.48224747995197,8.163275840309844,3.7588154492738397,-0.46414351190602476,0.01986572781141671,-0.3265120851094886,0.8231440127044133,-10.440107496761025,-5.768480781100593,1.3540464016002605,1
2.533333333333329,12.456226348876953,-0.19300341606140137,-0.5072793364524841,0.549150288105011,-25.65566416972561,8.06623959070495,3.7813804625240106,-0.46924910602077835,0.022597306228176187,-0.3259580674502953,0.8203938265696565,-10.369646607500782,-5.875679857181575,1.3537721766052817,1
2.549999999999996,12.456226348876953,-0.19300341606140137,-0.5072793364524841,0.549150288105011,-25.827894118180843,7.967426208700873,3.8039417470399983,-0.4743352736594081,0.025327949137495642,-0.32539055543057266,0.8176096768942568,-10.2977009626319,-5.981733486112621,1.3535984893320032,1
2.5666666666666624,12.235880851745605,-0.2622431516647339,-0.37841975688934326,0.5382752418518066,-25.998912701275806,7.86685494369841,3.826500955196321,-0.4794018042593088,0.028057543493300828,-0.32480957254478987,0.8147916789394185,-10.224285229124073,-6.08662266597495,1.353522546542886,1
2.583333333333329,12.235880851745605,-0.2622431516647339,-0.37841975688934326,0.5382752418518066,-26.168706695375803,7.764559487727555,3.8490349045517753,-0.48401124795191214,0.030217176762687377,-0.32519858775393334,0.8118287792182395,-10.15076595835433,-6.18870825162143,1.3505256320941204,1
2.5999999999999956,12.235880851745605,-0.2622431516647339,-0.37841975688934326,0.5382752418518066,-26.3372639878954,7.660568840115982,3.871517615645088,-0.4886038281637495,0.03237575723261668,-0.32557627268892936,0.8088375944952932,-10.075882535325135,-6.2900429758658465,1.3473738065785978,1
2.6166666666666623,13.591545104980469,-0.02095862850546837,-0.42513227462768555,0.5066144466400146,-26.50456191828313,7.554895649277615,3.893946499259856,-0.49317938488430774,0.03453320969578645,-0.32594261419082204,0.805818228986724,-9.999644029961043,-6.390610769468478,1.3440661897699149,1
2.633333333333329,13.591545104980469,-0.02095862850546837,-0.42513227462768555,0.5066144466400146,-26.670508259333978,7.447461736055024,3.916468279885645,-0.497722565047098,0.036097580588424986,-0.32447697808746845,0.8035446208950867,-9.913771174655032,-6.501243293946084,1.3586111230037214,1
2.6499999999999955,13.591545104980469,-0.02095862850546837,-0.42513227462768555,0.5066144466400146,-26.835016140360914,7.338194751647184,3.9392356545335936,-0.5022506118937913,0.03766085392966493,-0.3230014762214984,0.801246580929952,-9.827031248936528,-6.610577633489669,1.3735372659420315,1
2.666666666666662,11.973618507385254,-0.029231511056423187,-0.4002395272254944,0.4815327525138855,-26.998071231574105,7.227116415940503,3.962254966245766,-0.5067633877485636,0.03922298218798715,-0.3215161534557285,0.7989241789635091,-9.739438836279001,-6.718603798014307,1.388843356509033,1
2.6833333333333287,11.973618507385254,-0.029231511056423187,-0.4002395272254944,0.4815327525138855,-27.159747082128685,7.1143544725959735,3.9853547464159966,-0.5110251634791647,0.040720389689367906,-0.32017355789922264,0.7966706214844356,-9.661544246953182,-6.8126480336853215,1.383179610078053,1
2.6999999999999953,11.973618507385254,-0.029231511056423187,-0.4002395272254944,0.4815327525138855,-27.32011877240433,7.000034215404185,4.008362595449686,-0.5152729953545345,0.04221668609239311,-0.3188222260728434,0.7943953260155195,-9.582941527925456,-6.905600167756512,1.3778114588086203,1
2.716666666666662,12.568243026733398,-0.0019572973251342773,-0.4398955702781677,0.4202343225479126,-27.4791745967089,6.8841739103231046,4.031283431777558,-0.5195067674681445,0.04371183056905287,-0.3174621948490907,0.7920983546405738,-9.503642268318556,-6.997452508407896,1.372737918696314,1
2.7333333333333285,12.568243026733398,-0.0019572973251342773,-0.4398955702781677,0.4202343225479126,-27.63687002439145,6.766754715305345,4.054188066109109,-0.5234370040934643,0.04551166837050391,-0.31571971312621155,0.7901034791031482,-9.419692414472573,-7.0926327688519875,1.375884025282405,1
2.749999999999995,12.568243026733398,-0.0019572973251342773,-0.4398955702781677,0.4202343225479126,-27.793160492230175,6.6477601107091235,4.077148418234839,-0.5273537873693721,0.04731033643352965,-0.313969116792436,0.7880882963690727,-9.335049269997588,-7.186500351200837,1.3794235411361047,1
2.7666666666666617,12.062759399414062,0.0368504524230957,-0.3600025773048401,0.5713274478912354,-27.948034554725023,6.527212039458284,4.100171019220711,-0.531257016626917,0.04910778852886135,-0.31221045084149585,0.7860528582324643,-9.24972596791227,-7.279047483342575,1.3833533689233501,1
2.7833333333333283,12.062759399414062,0.0368504524230957,-0.3600025773048401,0.5713274478912354,-28.10151038030091,6.40516266161938,4.123206133317288,-0.5359427196140047,0.04981558482115379,-0.3106041372124869,0.7834595923899087,-9.16730412796325,-7.36669841876584,1.38092267506131,1
2.799999999999995,12.062759399414062,0.0368504524230957,-0.3600025773048401,0.5713274478912354,-28.253609095383904,6.281661420240528,4.146203853600824,-0.5406113999575834,0.05052179886797379,-0.3089879581569937,0.7808414422586842,-9.084474840558796,-7.453270305361277,1.37886611766675,1
2.8166666666666615,12.686025619506836,-0.20651566982269287,-0.44472867250442505,0.564765214920044,-28.40432401591519,6.156726339226299,4.169170415862489,-0.5452629093707596,0.05122640823851014,-0.30736196500818835,0.7781984909966261,-9.001250922044008,-7.538758395135162,1.3771837108226705,1
2.833333333333328,12.686025619506836,-0.20651566982269287,-0.44472867250442505,0.564765214920044,-28.553610423193533,6.030339323640736,4.192180802101104,-0.5499657301090723,0.053601274228766184,-0.30691555644873786,0.7748983768701633,-8.912915595653917,-7.627478577373644,1.384064418584483,1
2.8499999999999948,12.686025619506836,-0.20651566982269287,-0.44472867250442505,0.564765214920044,-28.701414499811687,5.902483925003713,4.215305950981583,-0.5546471865799393,0.055974057994811935,-0.3064572252808914,0.7715681606204944,-8.823373802961699,-7.714961861844712,1.3909549362253055,1
2.8666666666666614,11.504594802856445,-0.3082044720649719,-0.3558441400527954,0.584502637386322,-28.847716266523705,5.773180882715475,4.238546011416856,-0.5593070969249596,0.058344667362200515,-0.30598698930923035,0.7682079716150083,-8.732640998102047,-7.801193348280406,1.3978535133076289,1
2.883333333333328,11.504594802856445,-0.3082044720649719,-0.3558441400527954,0.584502637386322,-28.992566723509878,5.642516412948718,4.261768175219596,-0.5637954719387496,0.06056762048667761,-0.3065796809719951,0.7645097661538789,-8.649209873476522,-7.878402817653077,1.3887660430400608,1
2.8999999999999946,11.504594802856445,-0.3082044720649719,-0.3558441400527954,0.584502637386322,-29.136016493550535,5.510572171590903,4.284836873052843,-0.5682617940724823,0.06278820450651229,-0.3071603807595694,0.7607816568658925,-8.56456037917751,-7.954763387959218,1.3794374102678968,1
2.916666666666661,12.492494583129883,-0.25083959102630615,-0.3470376133918762,0.6753149628639221,-29.278045361739416,5.377362434151277,4.307748076311444,-0.5727058886258078,0.06500633256348116,-0.30772906595786026,0.7570237895761776,-8.478703497429489,-8.030259818557841,1.3698665136851267,1
2.933333333333328,12.492494583129883,-0.25083959102630615,-0.3470376133918762,0.6753149628639221,-29.418571632175837,5.242848236105274,4.330608021368812,-0.5777074438715003,0.06665953534579862,-0.3080142384227747,0.7529527865220911,-8.384262676533979,-8.111283053930993,1.373299599558193,1
2.9499999999999944,12.492494583129883,-0.25083959102630615,-0.3470376133918762,0.6753149628639221,-29.557514610742533,5.106991737112994,4.353523823537215,-0.5826833471613663,0.06830977824336083,-0.3082857341249578,0.7488483500895287,-8.28871062357643,-8.191333438371167,1.376569589686615,1
2.966666666666661,12.141961097717285,0.14916187524795532,-0.42107200622558594,0.3548874258995056,-29.69485588497715,4.96980927556147,4.376492775768374,-0.587633377550267,0.06995698798039758,-0.30854354100918024,0.744710662527868,-8.192060339901257,-8.270396096319136,1.3796778345743368,1
2.9833333333333276,12.141961097717285,0.14916187524795532,-0.42107200622558594,0.3548874258995056,-29.830602982600055,4.8313368031946435,4.3994754721231635,-0.590998743480565,0.07092641109332443,-0.30575930151909336,0.7431024378293845,-8.09759132398558,-8.34607302400315,1.3783518887340978,1
2.9999999999999942,12.141961097717285,0.14916187524795532,-0.42107200622558594,0.3548874258995056,-29.964775630518325,4.691614433552555,4.422441362873028,-0.5943507505674545,0.07189423099671863,-0.30296815069344984,0.7414774161593116,-8.003128561549012,-8.420383373393163,1.377660287414167,1
3.016666666666661,11.683900833129883,-0.0008073002099990845,-0.48966968059539795,0.5735011100769043,-30.097374042264242,4.550664962394574,4.445400976539259,-0.5976893230426898,0.07286042581413008,-0.3001701516229876,0.739835634249386,-7.908685169313751,-8.493324830563822,1.3775977546097258,1
3.0333333333333274,11.683900833129883,-0.0008073002099990845,-0.48966968059539795,0.5735011100769043,-30.228427030478137,4.408534229558778,4.468312647367608,-0.6024376727326679,0.0744473906153531,-0.2980785088503522,0.7366652518099156,-7.817601800682885,-8.562116805399905,1.3718687947135977,1
3.049999999999994,11.683900833129883,-0.0008073002099990845,-0.48966968059539795,0.5735011100769043,-30.357958434179757,4.265269295880118,4.491132131168862,-0.6071622312105799,0.07603141537192412,-0.2959750944881609,0.7334657772999774,-7.7260981749612,-8.629427928239066,1.366534897783658,1
3.0666666666666607,11.408565521240234,0.07570642977952957,-0.31177181005477905,0.24167639017105103,-30.485961406622238,4.120894891748051,4.513865991474028,-0.6118628118961741,0.07761243752821187,-0.29385999160355813,0.7302373370718568,-7.6341932075239445,-8.69525229540627,1.3615935512398674,1
3.0833333333333273,11.408565521240234,0.07570642977952957,-0.31177181005477905,0.24167639017105103,-30.612448464989907,3.9754471054734153,4.536489515509634,-0.6141424977352874,0.07853138803859913,-0.29196428108977396,0.7289847229507134,-7.544248830411667,-8.758324154292321,1.353290626530366,1
3.099999999999994,11.408565521240234,0.07570642977952957,-0.31177181005477905,0.24167639017105103,-30.737436219258356,3.828956020013258,4.558977714926582,-0.6164153026005954,0.079449458667809,-0.29006529935053693,0.727723941140798,-7.45427774537163,-8.820448001104069,1.3453541635504884,1
3.1166666666666605,11.274480819702148,-0.14262966811656952,-0.4670792818069458,0.4466988444328308,-30.86092427578625,3.681437445278989,4.58133667570231,-0.6186812010271433,0.08036663912959689,-0.2881630676624133,0.7264550057681588,-7.364286131474974,-8.881622677706535,1.3377815534056425,1
3.133333333333327,11.274480819702148,-0.14262966811656952,-0.4670792818069458,0.4466988444328308,-30.98291924615418,3.5329142759664176,4.603556477977516,-0.6224020964637573,0.08285567296334778,-0.2869131956651891,0.7234856184390281,-7.274994032325198,-8.940931639387474,1.328614293776179,1
3.1499999999999937,11.274480819702148,-0.14262966811656952,-0.4670792818069458,0.4466988444328308,-31.103420241153955,3.3834139454532717,4.625624460765864,-0.6261040585582133,0.08534218634478195,-0.28565459582830294,0.7204942228280519,-7.185011508211781,-8.998880738890346,1.3195625824604782,1
3.1666666666666603,12.097740173339844,0.10064677894115448,-0.406294047832489,0.7896929383277893,-31.222415874980488,3.232959181793033,4.647542518207804,-0.6297869746975953,0.0878261036346802,-0.28438730643809984,0.7174809099328613,-7.0943531263050605,-9.05546236180892,1.3106226173805038,1
3.183333333333327,12.097740173339844,0.10064677894115448,-0.406294047832489,0.7896929383277893,-31.339841554824893,3.0815386607729405,4.669407634477314,-0.6355275688859837,0.08785319690029682,-0.2822233119109022,0.7132577243562904,-6.996734793423513,-9.114780659835999,1.3132734239746704,1
3.1999999999999935,12.097740173339844,0.10064677894115448,-0.406294047832489,0.7896929383277893,-31.455640637538437,2.9291404744025225,4.691321035657435,-0.6412329082492821,0.08787541665728538,-0.28004366151921517,0.7089949720047322,-6.899164960072812,-9.172782338881035,1.3164168240094976,1
3.21666666666666,11.705522537231445,-0.3857453763484955,-0.3948582708835602,0.5894877314567566,-31.569814105886437,2.775786558768459,4.713290932202989,-0.6469026762933662,0.08789276167304218,-0.2778484761754854,0.7046928893472179,-6.801664556848812,-9.229468355181481,1.3200528669638438,1
3.2333333333333267,11.705522537231445,-0.3857453763484955,-0.3948582708835602,0.5894877314567566,-31.682385835722403,2.621513725921101,4.735278020761027,-0.6509814484606145,0.09092412547197484,-0.2784105868386774,0.700316754378348,-6.706732486761649,-9.283066472424663,1.3183421756297455,1
3.2499999999999933,11.705522537231445,-0.3857453763484955,-0.3948582708835602,0.5894877314567566,-31.793364885418182,2.4663578922579332,4.757233806404277,-0.6550307363291737,0.09395137112886243,-0.2789600877095013,0.6959089006125572,-6.610545819398213,-9.33542573449864,1.3162957887767497,1
3.26666666666666,12.057031631469727,-0.03438862785696983,-0.39971429109573364,0.652532696723938,-31.902730489616513,2.310339840668205,4.779152657956393,-0.6590503564984057,0.09697436153347642,-0.27949695389992407,0.6914695276906756,-6.513121944059743,-9.38652994268411,1.3139093664833132,1
3.2833333333333266,12.057031631469727,-0.03438862785696983,-0.39971429109573364,0.652532696723938,-32.01044033612868,2.153468051300105,4.801070813643571,-0.6637001525670714,0.0979446557873037,-0.27802148451192704,0.6874685885148065,-6.4120194878552725,-9.437868592667973,1.316311748307593,1
3.299999999999993,12.057031631469727,-0.03438862785696983,-0.39971429109573364,0.652532696723938,-32.11646318113191,1.9957514355448036,4.823031131580674,-0.6683229051134789,0.09891095912977045,-0.27653468669470554,0.6834396373338123,-6.310684578554424,-9.487908615914346,1.3189688912723267,1
3.3166666666666598,11.934107780456543,-0.05478588491678238,-0.4335368871688843,0.4080224633216858,-32.220795291289235,1.8372116612546179,4.845037860411224,-0.6729184257761961,0.09987323218730441,-0.2750366210302102,0.6793828383137409,-6.209134127996838,-9.536647158935905,1.3218811033945106,1
3.3333333333333264,11.934107780456543,-0.05478588491678238,-0.4335368871688843,0.4080224633216858,-32.323441670551304,1.6778748036272042,4.867081072100438,-0.6761681467433713,0.10169850865921293,-0.27325184956856574,0.6765999789632628,-6.108388683441884,-9.583541600927418,1.323344785535537,1
3.349999999999993,11.934107780456543,-0.05478588491678238,-0.4335368871688843,0.4080224633216858,-32.42440686202804,1.5177680882207927,4.889150693060449,-0.679401083841444,0.10352126076722543,-0.2714602954400694,0.6738003250247278,-6.007393872047091,-9.629029588099481,1.3250496305255082,1
3.3666666666666596,11.046329498291016,-0.1335545778274536,-0.32231801748275757,0.5616845488548279,-32.52368682358756,1.3569149807767003,4.911250713337622,-0.6826171568223375,0.10534144326692609,-0.2696620031147397,0.6709839459912426,-5.906163375677753,-9.673108164431728,1.3269921142687588,1
3.383333333333326,11.046329498291016,-0.1335545778274536,-0.32231801748275757,0.5616845488548279,-32.62134007658758,1.195364721747439,4.933281830428957,-0.6863545199570014,0.10663960313504045,-0.269064260966778,0.6671955827250359,-5.812161650270725,-9.71275691171083,1.3167448108359157,1
