time-since-start [s],throttle_mpc,roll_mpc,pitch_mpc,yaw_mpc,throttle_nw,roll_nw,pitch_nw,yaw_nw,position_x [m],position_y [m],position_z [m],rotation_w [quaternion],rotation_x [quaternion],rotation_y [quaternion],rotation_z [quaternion],velocity_x [m/s],velocity_y [m/s],velocity_z [m/s],omega_x [rad/s],omega_y [rad/s],omega_z [rad/s],network_used
0.0,9.707177453771761,5.999999716428176,-5.999999929655886,-4.667161975090609,8.1364565,-0.8981352,-2.3781197,-0.44343522,18.842709,-9.765314,2.172248,0.06605699,0.47877654,-0.22579773,-0.84582794,-9.8401785,-5.644128,-0.34359255,1.4827403,-0.19695507,0.052497607,0
0.01,9.707177453771761,5.999999716428176,-5.999999929655886,-4.667161975090609,18.40511,-0.12488476,-5.414834,0.66424376,18.74358,-9.821478,2.1687012,0.062204413,0.47819358,-0.23188773,-0.84480155,-9.985059,-5.588188,-0.36606354,1.3989855,-0.31389636,-0.10862402,0
0.02,9.707177453771761,5.999999716428176,-5.999999929655886,-4.667161975090609,18.40511,-0.12488476,-5.414834,0.66424376,18.643015,-9.877072,2.164921,0.057696395,0.4772427,-0.23735075,-0.8441417,-10.1274605,-5.5306973,-0.39022657,1.3522359,-0.4365522,-0.26398104,0
0.03,9.707177453771761,5.999999716428176,-5.999999929655886,-4.667161975090609,18.40511,-0.12488476,-5.414834,0.66424376,18.54104,-9.932085,2.1608915,0.05246481,0.47590938,-0.24234493,-0.8438167,-10.26721,-5.4717646,-0.41590643,1.3374616,-0.56478345,-0.41392285,0
0.04,9.707177453771761,5.999999716428176,-5.999999929655886,-4.667161975090609,11.82904,-1.8523474,-4.9175577,-0.20172687,18.437681,-9.986502,2.156598,0.046451394,0.47417465,-0.24700609,-0.84379417,-10.404136,-5.411445,-0.44294387,1.3502892,-0.6983423,-0.55876994,0
0.05,9.707177453771761,5.999999716428176,-5.999999929655886,-4.667161975090609,11.82904,-1.8523474,-4.9175577,-0.20172687,18.332968,-10.040309,2.1520286,0.039606716,0.47201604,-0.25145033,-0.84404075,-10.538068,-5.349755,-0.47119376,1.3869116,-0.836902,-0.698817,0
0.060000000000000005,9.707177453771761,5.999999716428176,-5.999999929655886,-4.667161975090609,11.82904,-1.8523474,-4.9175577,-0.20172687,18.22693,-10.0934925,2.1471708,0.031889297,0.46940833,-0.25577644,-0.8445218,-10.668836,-5.2866797,-0.5005232,1.4440113,-0.9800804,-0.83433473,0
0.07,9.707177453771761,5.999999716428176,-5.999999929655886,-4.667161975090609,11.82904,-1.8523474,-4.9175577,-0.20172687,18.119602,-10.146038,2.1420147,0.023264842,0.4663239,-0.26006776,-0.8452013,-10.796266,-5.2221837,-0.5308102,1.5186944,-1.1274598,-0.96557224,0
0.08,11.889654367782535,5.999999843486426,-5.999999960221902,-4.605642210533016,15.429378,0.22586828,-5.4174533,-0.6311303,18.011019,-10.197931,2.1365519,0.013705606,0.46273327,-0.26439396,-0.84604114,-10.920184,-5.1562166,-0.5619417,1.6084336,-1.2786024,-1.0927589,0
0.09,11.889654367782535,5.999999843486426,-5.999999960221902,-4.605642210533016,15.429378,0.22586828,-5.4174533,-0.6311303,17.901154,-10.249124,2.130807,0.003059343,0.45846352,-0.26895475,-0.84703296,-11.05247,-5.081935,-0.58716255,1.7784969,-1.5006503,-1.2191188,0
0.09999999999999999,11.889654367782535,5.999999843486426,-5.999999960221902,-4.605642210533016,15.429378,0.22586828,-5.4174533,-0.6311303,17.789988,-10.299564,2.1248057,-0.008809491,0.45334885,-0.27391973,-0.8481539,-11.180203,-5.0059285,-0.61317927,1.9544913,-1.720583,-1.342182,0
0.10999999999999999,11.889654367782535,5.999999843486426,-5.999999960221902,-4.605642210533016,15.429378,0.22586828,-5.4174533,-0.6311303,17.677567,-10.349236,2.118541,-0.021895627,0.44736686,-0.27929744,-0.8493387,-11.30312,-4.9280334,-0.63985044,2.1351752,-1.9384105,-1.462082,0
0.11999999999999998,11.889654367782535,5.999999843486426,-5.999999960221902,-4.605642210533016,15.429378,0.22586828,-5.4174533,-0.6311303,17.563942,-10.398118,2.1120067,-0.03618961,0.44049257,-0.28508878,-0.850518,-11.420947,-4.848118,-0.66704905,2.319474,-2.154116,-1.5789431,0
0.12999999999999998,15.459361293848161,5.999999922363029,-5.9999999837943125,-4.187069557584192,17.889732,-0.15081587,-6.43565,-0.32920295,17.449165,-10.44619,2.1051981,-0.051677693,0.43269843,-0.29128745,-0.8516179,-11.533409,-4.766087,-0.6946616,2.5064585,-2.367661,-1.6928813,0
0.13999999999999999,15.459361293848161,5.999999922363029,-5.9999999837943125,-4.187069557584192,17.889732,-0.15081587,-6.43565,-0.32920295,17.33322,-10.493375,2.09816,-0.06861042,0.42359012,-0.29819766,-0.852609,-11.654748,-4.670388,-0.71301913,2.8499947,-2.7340033,-1.7972976,0
0.15,15.459361293848161,5.999999922363029,-5.9999999837943125,-4.187069557584192,17.889732,-0.15081587,-6.43565,-0.32920295,17.216097,-10.53959,2.090936,-0.087201506,0.4127933,-0.30606303,-0.8534184,-11.7686825,-4.5723667,-0.7318639,3.1814005,-3.0847156,-1.9002982,0
0.16,18.978466346777786,5.99999994271984,-5.9999999871325755,-3.5937074919138996,15.897006,0.8112941,-7.4871817,0.3409205,17.097874,-10.584813,2.0835218,-0.10737529,0.40030587,-0.31477872,-0.853897,-11.874709,-4.4718666,-0.7510291,3.501322,-3.4209843,-2.001841,0
0.17,18.978466346777786,5.99999994271984,-5.9999999871325755,-3.5937074919138996,15.897006,0.8112941,-7.4871817,0.3409205,16.978548,-10.628934,2.07598,-0.12916306,0.3858881,-0.32442117,-0.8539075,-11.9888115,-4.3513927,-0.75705457,3.890271,-3.8238847,-2.0799544,0
0.18000000000000002,18.978466346777786,5.99999994271984,-5.9999999871325755,-3.5937074919138996,15.897006,0.8112941,-7.4871817,0.3409205,16.858124,-10.671821,2.0683877,-0.1524572,0.36945355,-0.3349296,-0.8532777,-12.094732,-4.2251487,-0.7610662,4.218621,-4.1638966,-2.1542346,0
0.19000000000000003,18.978466346777786,5.99999994271984,-5.9999999871325755,-3.5937074919138996,15.897006,0.8112941,-7.4871817,0.3409205,16.736687,-10.713416,2.060766,-0.17699027,0.35121012,-0.34602252,-0.85181814,-12.191351,-4.093165,-0.7629746,4.49582,-4.4508314,-2.22487,0
0.20000000000000004,20.999999534808584,5.999999908298255,-5.999999966523672,-3.16539841200653,18.394302,0.61513746,-7.967874,-0.56457454,16.614334,-10.753664,2.0531359,-0.20252196,0.3313429,-0.35745898,-0.8493642,-12.277622,-3.9556913,-0.76276577,4.7298403,-4.6929693,-2.2920394,0
0.21000000000000005,20.999999534808584,5.999999908298255,-5.999999966523672,-3.16539841200653,18.394302,0.61513746,-7.967874,-0.56457454,16.491135,-10.792438,2.0455713,-0.22879025,0.31000027,-0.36905047,-0.8457874,-12.360565,-3.7979906,-0.74980277,4.92748,-4.8972325,-2.3348954,0
0.22000000000000006,20.999999534808584,5.999999908298255,-5.999999966523672,-3.16539841200653,18.394302,0.61513746,-7.967874,-0.56457454,16.367172,-10.829608,2.0381472,-0.25555655,0.2873173,-0.38063654,-0.84098464,-12.430028,-3.635387,-0.7346866,5.094343,-5.0695972,-2.3756485,0
0.23000000000000007,20.999999534808584,5.999999908298255,-5.999999966523672,-3.16539841200653,18.394302,0.61513746,-7.967874,-0.56457454,16.242586,-10.865131,2.0308843,-0.28264618,0.26343682,-0.3920641,-0.83486384,-12.485163,-3.4687254,-0.717609,5.235224,-5.215043,-2.4144018,0
0.24000000000000007,20.999999534808584,5.999999908298255,-5.999999966523672,-3.16539841200653,18.23098,0.73535484,-7.4983306,-0.43071836,16.117523,-10.8989725,2.0238008,-0.3098996,0.23849185,-0.40320233,-0.82735205,-12.525249,-3.2989902,-0.69881624,5.3541694,-5.337772,-2.4512537,0
0.25000000000000006,20.999999534808584,5.999999908298255,-5.999999966523672,-3.16539841200653,18.23098,0.73535484,-7.4983306,-0.43071836,15.992138,-10.931105,2.0169125,-0.33717054,0.21260706,-0.4139395,-0.8183936,-12.5497,-3.127282,-0.67860186,5.4545965,-5.4413304,-2.4862971,0
0.26000000000000006,20.999999534808584,5.999999908298255,-5.999999966523672,-3.16539841200653,18.23098,0.73535484,-7.4983306,-0.43071836,15.866587,-10.9615135,2.0102322,-0.36432433,0.18589982,-0.42418027,-0.8079479,-12.558075,-2.9547942,-0.6572986,5.539391,-5.5287123,-2.5196207,0
0.2700000000000001,20.999999534808584,5.999999908298255,-5.999999966523672,-3.16539841200653,18.23098,0.73535484,-7.4983306,-0.43071836,15.741033,-10.9902,2.003769,-0.39123687,0.15848117,-0.43384334,-0.795988,-12.55008,-2.7827935,-0.63527143,5.610986,-5.6024423,-2.551309,0
0.2800000000000001,20.999999894620856,4.321114998435359,-5.794763993746965,-0.9699195282359347,17.07956,0.56217843,-5.8320765,-0.3569271,15.615642,-11.017175,1.9975278,-0.41779336,0.13045642,-0.44285953,-0.7824991,-12.525573,-2.6125977,-0.6129102,5.671438,-5.6646533,-2.5814428,0
0.2900000000000001,20.999999894620856,4.321114998435359,-5.794763993746965,-0.9699195282359347,17.07956,0.56217843,-5.8320765,-0.3569271,15.490578,-11.042462,1.9915104,-0.44356462,0.1021581,-0.45072454,-0.7678939,-12.484618,-2.4455652,-0.5905907,5.461115,-5.6843085,-2.502365,0
0.3000000000000001,20.999999894620856,4.321114998435359,-5.794763993746965,-0.9699195282359347,17.07956,0.56217843,-5.8320765,-0.3569271,15.366004,-11.066102,1.9857153,-0.46822247,0.07386974,-0.4570748,-0.75259095,-12.427725,-2.2830896,-0.56850946,5.2835846,-5.700985,-2.4271677,0
0.3100000000000001,20.999999894620856,4.321114998435359,-5.794763993746965,-0.9699195282359347,17.07956,0.56217843,-5.8320765,-0.3569271,15.242075,-11.088145,1.980139,-0.49180225,0.045614943,-0.46204355,-0.73659015,-12.355584,-2.1264837,-0.54681987,5.1337323,-5.715133,-2.35566,0
0.3200000000000001,20.999999570239623,2.71273113363275,-3.6672639999415457,-0.6042336252046663,16.082632,-0.569303,-3.63405,0.36329538,15.118941,-11.108657,1.974777,-0.51432943,0.017415648,-0.46574238,-0.7198927,-12.268939,-1.9769529,-0.5257017,5.007241,-5.7271357,-2.287661,0
0.3300000000000001,20.999999570239623,2.71273113363275,-3.6672639999415457,-0.6042336252046663,16.082632,-0.569303,-3.63405,0.36329538,14.996743,-11.127712,1.9696223,-0.53540045,-0.009784021,-0.4682633,-0.7028369,-12.168662,-1.8355448,-0.5053567,4.6501846,-5.4051166,-2.2050548,0
0.34000000000000014,20.999999570239623,2.71273113363275,-3.6672639999415457,-0.6042336252046663,16.082632,-0.569303,-3.63405,0.36329538,14.87561,-11.145397,1.9646664,-0.554763,-0.035239667,-0.46976352,-0.6857973,-12.056089,-1.7028415,-0.48598114,4.3486934,-5.133443,-2.126502,0
0.35000000000000014,20.999999570239623,2.71273113363275,-3.6672639999415457,-0.6042336252046663,16.082632,-0.569303,-3.63405,0.36329538,14.755659,-11.1618,1.9598986,-0.57263255,-0.059205964,-0.470405,-0.6688088,-11.932582,-1.5791763,-0.4677298,4.0941224,-4.90424,-2.0518038,0
0.36000000000000015,20.716518712409364,0.6988353594680546,-1.3791354891583478,-0.12896024492448546,15.472846,-1.9470305,-1.6788468,0.8567756,14.636992,-11.177013,1.9553074,-0.58918583,-0.081901915,-0.47031382,-0.6518869,-11.799343,-1.4647897,-0.45072353,3.879172,-4.710867,-1.9807711,0
0.37000000000000016,20.716518712409364,0.6988353594680546,-1.3791354891583478,-0.12896024492448546,15.472846,-1.9470305,-1.6788468,0.8567756,14.519693,-11.191136,1.9508718,-0.6041854,-0.10247362,-0.46961883,-0.6355445,-11.659436,-1.3611885,-0.43657956,3.3841212,-4.190445,-1.8899024,0
0.38000000000000017,20.716518712409364,0.6988353594680546,-1.3791354891583478,-0.12896024492448546,15.472846,-1.9470305,-1.6788468,0.8567756,14.403829,-11.204268,1.9465714,-0.61751664,-0.12027298,-0.46848997,-0.62026143,-11.512458,-1.2663721,-0.42370254,2.9661052,-3.75134,-1.8034924,0
0.3900000000000002,20.716518712409364,0.6988353594680546,-1.3791354891583478,-0.12896024492448546,15.472846,-1.9470305,-1.6788468,0.8567756,14.289464,-11.216492,1.9423937,-0.6294653,-0.13575104,-0.46705538,-0.6059734,-11.359686,-1.1797048,-0.41198614,2.6131425,-3.38084,-1.7213227,0
0.4000000000000002,19.329740199126704,-1.7740139742706855,1.3231523863828345,1.9723724547630306,15.932132,-3.7489924,0.14439154,1.0534232,14.176651,-11.227888,1.9383279,-0.6402594,-0.1492894,-0.4654047,-0.5926031,-11.202145,-1.1005841,-0.40130895,2.3151147,-3.0682223,-1.643185,0
0.4100000000000002,19.329740199126704,-1.7740139742706855,1.3231523863828345,1.9723724547630306,15.932132,-3.7489924,0.14439154,1.0534232,14.065384,-11.23855,1.9343307,-0.6496055,-0.160058,-0.46365306,-0.580878,-11.051059,-1.0329574,-0.3984163,1.6722741,-2.388655,-1.4663366,0
0.4200000000000002,19.329740199126704,-1.7740139742706855,1.3231523863828345,1.9723724547630306,15.932132,-3.7489924,0.14439154,1.0534232,13.955637,-11.248566,1.9303569,-0.65727997,-0.16744912,-0.46197796,-0.5714189,-10.8978615,-0.9707881,-0.39638066,1.135583,-1.8091598,-1.2975981,0
0.4300000000000002,19.329740199126704,-1.7740139742706855,1.3231523863828345,1.9723724547630306,15.932132,-3.7489924,0.14439154,1.0534232,13.847431,-11.25798,1.9264022,-0.6635603,-0.1720476,-0.4604305,-0.5639951,-10.742962,-0.9125864,-0.3945717,0.68238693,-1.3202204,-1.1371398,0
0.4400000000000002,19.329740199126704,-1.7740139742706855,1.3231523863828345,1.9723724547630306,16.854982,-4.8199615,1.955379,1.9888861,13.740781,-11.266828,1.9224656,-0.6686622,-0.17433898,-0.4590221,-0.55838597,-10.587045,-0.8572418,-0.39271927,0.29971066,-0.90767276,-0.9845551,0
0.45000000000000023,19.329740199126704,-1.7740139742706855,1.3231523863828345,1.9723724547630306,16.854982,-4.8199615,1.955379,1.9888861,13.635692,-11.275131,1.9185487,-0.67275155,-0.17472662,-0.45774654,-0.5543857,-10.430642,-0.803793,-0.39059278,-0.023407735,-0.55956995,-0.8394578,0
0.46000000000000024,19.329740199126704,-1.7740139742706855,1.3231523863828345,1.9723724547630306,16.854982,-4.8199615,1.955379,1.9888861,13.532168,-11.282907,1.9146553,-0.6759573,-0.17354584,-0.45658764,-0.5518067,-10.274178,-0.75141406,-0.38800043,-0.29622796,-0.26583666,-0.7014804,0
0.47000000000000025,19.329740199126704,-1.7740139742706855,1.3231523863828345,1.9723724547630306,16.854982,-4.8199615,1.955379,1.9888861,13.430208,-11.290161,1.9107909,-0.6783812,-0.17107545,-0.45552456,-0.5504806,-10.117993,-0.6993999,-0.38478622,-0.5265719,-0.017973408,-0.5702737,0
0.48000000000000026,20.667056159081042,-4.079901018492334,3.8013434619894273,2.2943083199379863,17.78357,-4.4016614,3.5598598,1.2145135,13.329805,-11.296894,1.9069623,-0.68010426,-0.16754746,-0.4545348,-0.5502576,-9.962373,-0.6471516,-0.38082615,-0.72104704,0.191189,-0.44550538,0
0.49000000000000027,20.667056159081042,-4.079901018492334,3.8013434619894273,2.2943083199379863,17.78357,-4.4016614,3.5598598,1.2145135,13.23101,-11.303082,1.903213,-0.6808699,-0.16199856,-0.45375487,-0.5516144,-9.796902,-0.5903861,-0.36888286,-1.2447586,0.75423604,-0.31106192,0
0.5000000000000002,20.667056159081042,-4.079901018492334,3.8013434619894273,2.2943083199379863,17.78357,-4.4016614,3.5598598,1.2145135,13.1338625,-11.308695,1.8995887,-0.68045014,-0.15366915,-0.45327687,-0.5548989,-9.632929,-0.5315321,-0.35580325,-1.6869015,1.2293817,-0.18321562,0
0.5100000000000002,20.667056159081042,-4.079901018492334,3.8013434619894273,2.2943083199379863,17.78357,-4.4016614,3.5598598,1.2145135,13.038344,-11.313702,1.8961016,-0.67893136,-0.14300889,-0.45301136,-0.55980426,-9.47109,-0.46938387,-0.34139907,-2.0601678,1.6303606,-0.061642803,0
0.5200000000000002,20.99999907990417,-5.161210589465214,4.835056557640778,2.3940331194302704,19.209108,-4.537828,5.229467,1.0943649,12.944431,-11.318067,1.8927658,-0.6763737,-0.13039455,-0.45287377,-0.56605715,-9.311988,-0.40294886,-0.3255566,-2.3752773,1.968759,0.053964414,0
0.5300000000000002,20.99999907990417,-5.161210589465214,4.835056557640778,2.3940331194302704,19.209108,-4.537828,5.229467,1.0943649,12.852106,-11.321736,1.8896049,-0.672676,-0.11562074,-0.452816,-0.57366884,-9.153719,-0.33022445,-0.30636087,-2.8099368,2.415533,0.16879225,0
0.5400000000000003,20.99999907990417,-5.161210589465214,4.835056557640778,2.3940331194302704,19.209108,-4.537828,5.229467,1.0943649,12.761343,-11.32465,1.8866439,-0.6677272,-0.09853743,-0.4527735,-0.5826033,-8.999626,-0.25133017,-0.28560778,-3.176855,2.7925916,0.27798545,0
0.5500000000000003,20.99999907990417,-5.161210589465214,4.835056557640778,2.3940331194302704,19.209108,-4.537828,5.229467,1.0943649,12.672097,-11.32674,1.883898,-0.6615503,-0.07951416,-0.4526505,-0.5925672,-8.850547,-0.16544215,-0.2633268,-3.4865813,3.110822,0.38182053,0
0.5600000000000003,20.99999950635159,-5.351204067048707,4.90515172525968,2.1768113481579427,19.228529,-4.693649,5.732677,0.8465062,12.584312,-11.327933,1.8813821,-0.65416175,-0.05886715,-0.45236334,-0.6033026,-8.707308,-0.071952745,-0.23963092,-3.7480223,3.3794105,0.48056042,0
0.5700000000000003,20.99999950635159,-5.351204067048707,4.90515172525968,2.1768113481579427,19.228529,-4.693649,5.732677,0.8465062,12.497928,-11.328152,1.8791096,-0.6455824,-0.036789935,-0.45181367,-0.61460054,-8.570738,0.029553635,-0.21470304,-3.9983075,3.6170547,0.563796,0
0.5800000000000003,20.99999950635159,-5.351204067048707,4.90515172525968,2.1768113481579427,19.228529,-4.693649,5.732677,0.8465062,12.412871,-11.327314,1.8770914,-0.63582915,-0.013454575,-0.45091617,-0.6262702,-8.441688,0.13933541,-0.18877335,-4.209561,3.8176386,0.64294714,0
0.5900000000000003,20.99999950635159,-5.351204067048707,4.90515172525968,2.1768113481579427,19.228529,-4.693649,5.732677,0.8465062,12.329065,-11.325337,1.8753364,-0.6249127,0.010912937,-0.4496237,-0.63812464,-8.320995,0.25748825,-0.1621263,-4.387866,3.986946,0.71821433,0
0.6000000000000003,20.999999477500943,-4.761907641386314,4.087712961847263,1.9849478547432127,19.584969,-4.2405515,5.8783326,0.7663403,12.24642,-11.322137,1.8738502,-0.612847,0.03611479,-0.44789848,-0.65000063,-8.209472,0.38395077,-0.13509713,-4.5383577,4.129858,0.7897881,0
0.6100000000000003,20.999999477500943,-4.761907641386314,4.087712961847263,1.9849478547432127,19.584969,-4.2405515,5.8783326,0.7663403,12.164842,-11.31763,1.8726346,-0.59982693,0.061630554,-0.44566894,-0.6616556,-8.1078615,0.5184932,-0.10805486,-4.5733747,4.123093,0.8484349,0
0.6200000000000003,20.999999477500943,-4.761907641386314,4.087712961847263,1.9849478547432127,19.584969,-4.2405515,5.8783326,0.7663403,12.084227,-11.31174,1.8716879,-0.5860425,0.08703541,-0.4429014,-0.67291677,-8.016704,0.6606241,-0.08135154,-4.602923,4.117392,0.90420395,0
0.6300000000000003,20.999999477500943,-4.761907641386314,4.087712961847263,1.9849478547432127,19.584969,-4.2405515,5.8783326,0.7663403,12.004469,-11.304394,1.8710052,-0.57150435,0.11229711,-0.43961942,-0.6837445,-7.936435,0.8097479,-0.055330966,-4.627856,4.112589,0.95723635,0
0.6400000000000003,20.999999477500943,-4.761907641386314,4.087712961847263,1.9849478547432127,19.634367,-3.6846032,5.6526694,0.72734743,11.925458,-11.295523,1.8705777,-0.55622566,0.13738543,-0.43584418,-0.6941021,-7.867449,0.9652336,-0.03033809,-4.648894,4.108544,1.0076665,0
0.6500000000000004,20.999999477500943,-4.761907641386314,4.087712961847263,1.9849478547432127,19.634367,-3.6846032,5.6526694,0.72734743,11.847079,-11.285069,1.8703936,-0.54022187,0.16227181,-0.4315948,-0.70395577,-7.8100896,1.1264182,-0.0067162747,-4.6666446,4.1051373,1.0556219,0
0.6600000000000004,20.999999477500943,-4.761907641386314,4.087712961847263,1.9849478547432127,19.634367,-3.6846032,5.6526694,0.72734743,11.769215,-11.272978,1.8704375,-0.5235104,0.18692918,-0.4268886,-0.7132741,-7.7646546,1.2926096,0.015195235,-4.6816206,4.102271,1.1012242,0
0.6700000000000004,20.999999477500943,-4.761907641386314,4.087712961847263,1.9849478547432127,19.634367,-3.6846032,5.6526694,0.72734743,11.691744,-11.259202,1.8706905,-0.5061103,0.21133159,-0.42174155,-0.72202826,-7.73139,1.46309,0.03506366,-4.694256,4.0998588,1.1445887,0
0.6800000000000004,20.999998777641476,-3.4492438659085094,2.765990377125256,1.720749814825438,17.687487,-2.9680796,4.6430707,0.92815477,11.614544,-11.243703,1.8711307,-0.488042,0.23545413,-0.41616827,-0.7301916,-7.7104917,1.6371194,0.052564763,-4.704915,4.097831,1.1858255,0
0.6900000000000004,20.999998777641476,-3.4492438659085094,2.765990377125256,1.720749814825438,17.687487,-2.9680796,4.6430707,0.92815477,11.537491,-11.226449,1.8717326,-0.46970537,0.25864947,-0.4103113,-0.73764586,-7.70204,1.8139249,0.06740442,-4.5090003,3.890205,1.2120744,0
0.7000000000000004,20.999998777641476,-3.4492438659085094,2.765990377125256,1.720749814825438,17.687487,-2.9680796,4.6430707,0.92815477,11.460462,-11.2074175,1.8724691,-0.45146412,0.2804255,-0.40432328,-0.74435467,-7.7056937,1.9926665,0.07942367,-4.343654,3.714944,1.2370352,0
0.7100000000000004,20.999998777641476,-3.4492438659085094,2.765990377125256,1.720749814825438,17.687487,-2.9680796,4.6430707,0.92815477,11.383336,-11.186593,1.8733112,-0.43328446,0.30096886,-0.3982247,-0.75039923,-7.7209983,2.1725597,0.088530235,-4.2041073,3.5670023,1.2607712,0
0.7200000000000004,19.13013998721639,-1.7514789063976564,0.8094784626167002,1.3665256060134077,16.723772,-2.6271782,3.3605275,0.7717424,11.306003,-11.163966,1.8742296,-0.4151348,0.32043648,-0.3920284,-0.7558419,-7.7475343,2.3529027,0.0946512,-4.086335,3.4421215,1.2833424,0
0.7300000000000004,19.13013998721639,-1.7514789063976564,0.8094784626167002,1.3665256060134077,16.723772,-2.6271782,3.3605275,0.7717424,11.228365,-11.139617,1.8751487,-0.39755422,0.33811182,-0.38592926,-0.7607164,-7.781504,2.5170162,0.08875487,-3.721881,3.0318568,1.2874241,0
0.7400000000000004,19.13013998721639,-1.7514789063976564,0.8094784626167002,1.3665256060134077,16.723772,-2.6271782,3.3605275,0.7717424,11.150342,-11.113629,1.875996,-0.38100585,0.35346743,-0.38012078,-0.76511645,-7.824412,2.6804428,0.08032551,-3.4143147,2.685527,1.2913055,0
0.7500000000000004,19.13013998721639,-1.7514789063976564,0.8094784626167002,1.3665256060134077,16.723772,-2.6271782,3.3605275,0.7717424,11.071849,-11.086012,1.8767474,-0.36535144,0.36687547,-0.37459725,-0.7691536,-7.875359,2.8427856,0.069634676,-3.1547565,2.393169,1.2949965,0
0.7600000000000005,17.58513252867706,0.12091331699321466,-1.015699339260557,0.9445440531565384,16.202673,-2.0317204,1.0466352,0.063528046,10.99281,-11.056778,1.8773817,-0.35046527,0.37864622,-0.3693432,-0.77290773,-7.9335775,3.0037496,0.056934673,-2.935713,2.1463711,1.2985065,0
0.7700000000000005,17.58513252867706,0.12091331699321466,-1.015699339260557,0.9445440531565384,16.202673,-2.0317204,1.0466352,0.063528046,10.913182,-11.026007,1.8778461,-0.33683452,0.38823783,-0.36465013,-0.7764302,-7.9931016,3.1502573,0.03573236,-2.4585981,1.6536791,1.2811373,0
0.7800000000000005,17.58513252867706,0.12091331699321466,-1.015699339260557,0.9445440531565384,16.202673,-2.0317204,1.0466352,0.063528046,10.8329315,-10.993778,1.8780922,-0.32485843,0.39525843,-0.36076707,-0.77979785,-8.0576315,3.295271,0.013320685,-2.0559645,1.237749,1.2646207,0
0.7900000000000005,17.58513252867706,0.12091331699321466,-1.015699339260557,0.9445440531565384,16.202673,-2.0317204,1.0466352,0.063528046,10.752015,-10.960106,1.8781098,-0.31430647,0.4001404,-0.35760653,-0.78308135,-8.126185,3.4388475,-0.0098893605,-1.7161834,0.88662237,1.2489144,0
0.8000000000000005,16.81544451585181,1.5913866191005008,-2.4697619886689886,0.611640920649397,14.604749,-1.297767,-0.6399989,-0.12374736,10.670397,-10.925006,1.8778929,-0.3049751,0.4032398,-0.35508287,-0.786323,-8.197945,3.5810833,-0.033541102,-1.4294423,0.5902036,1.2339786,0
0.8100000000000005,16.81544451585181,1.5913866191005008,-2.4697619886689886,0.611640920649397,14.604749,-1.297767,-0.6399989,-0.12374736,10.588064,-10.88852,1.8774223,-0.29716396,0.40423056,-0.3533878,-0.789562,-8.268917,3.7159379,-0.06055848,-0.9579598,0.113401935,1.2034403,0
0.8200000000000005,16.81544451585181,1.5913866191005008,-2.4697619886689886,0.611640920649397,14.604749,-1.297767,-0.6399989,-0.12374736,10.505014,-10.850691,1.8766828,-0.29110366,0.40287238,-0.3526703,-0.79282784,-8.3413315,3.8498688,-0.08728342,-0.5600804,-0.28911847,1.1744004,0
0.8300000000000005,16.81544451585181,1.5913866191005008,-2.4697619886689886,0.611640920649397,14.604749,-1.297767,-0.6399989,-0.12374736,10.421236,-10.811525,1.875679,-0.28653258,0.3995447,-0.3527909,-0.7961166,-8.414313,3.9831324,-0.11333995,-0.22431158,-0.6289277,1.1467856,0
0.8400000000000005,16.81544451585181,1.5913866191005008,-2.4697619886689886,0.611640920649397,13.46452,-0.34330657,-1.6535544,-0.09075631,10.336728,-10.77103,1.8744193,-0.28322443,0.39455944,-0.353623,-0.79941076,-8.487121,4.115961,-0.13842312,0.05904431,-0.915794,1.1205258,0
0.8500000000000005,16.81544451585181,1.5913866191005008,-2.4697619886689886,0.611640920649397,13.46452,-0.34330657,-1.6535544,-0.09075631,10.251495,-10.729208,1.8729147,-0.28098467,0.38817453,-0.35505366,-0.8026862,-8.559122,4.248555,-0.16229106,0.29817027,-1.1579647,1.0955548,0
0.8600000000000005,16.81544451585181,1.5913866191005008,-2.4697619886689886,0.611640920649397,13.46452,-0.34330657,-1.6535544,-0.09075631,10.16555,-10.68606,1.8711783,-0.2796467,0.380604,-0.3569832,-0.80591655,-8.629774,4.381081,-0.18475725,0.4999716,-1.3624026,1.071809,0
0.8700000000000006,16.81544451585181,1.5913866191005008,-2.4697619886689886,0.611640920649397,13.46452,-0.34330657,-1.6535544,-0.09075631,10.078906,-10.641586,1.8692248,-0.27906835,0.3720264,-0.35932449,-0.8090756,-8.69861,4.5136757,-0.20568305,0.67027533,-1.5349855,1.0492285,0
0.8800000000000006,16.918213252351826,2.50121990375562,-3.4070637451042205,0.23864889292834024,12.387941,-0.52909267,-1.812648,-0.21199413,9.991585,-10.595785,1.8670702,-0.2791286,0.3625912,-0.36200178,-0.8121389,-8.765223,4.6464415,-0.22497113,0.81399816,-1.6806768,1.0277561,0
0.8900000000000006,16.918213252351826,2.50121990375562,-3.4070637451042205,0.23864889292834024,12.387941,-0.52909267,-1.812648,-0.21199413,9.903607,-10.548652,1.8647337,-0.2800282,0.352033,-0.36512348,-0.81507176,-8.829612,4.780278,-0.24205592,1.0772507,-1.9497566,0.98903435,0
0.9000000000000006,16.918213252351826,2.50121990375562,-3.4070637451042205,0.23864889292834024,12.387941,-0.52909267,-1.812648,-0.21199413,9.815002,-10.500178,1.8622353,-0.28191847,0.34014365,-0.3687646,-0.8178246,-8.890817,4.9144897,-0.25731564,1.2994121,-2.1769106,0.95221275,0
0.9100000000000006,16.918213252351826,2.50121990375562,-3.4070637451042205,0.23864889292834024,12.387941,-0.52909267,-1.812648,-0.21199413,9.725804,-10.45036,1.8595939,-0.284637,0.32711574,-0.37281805,-0.82035595,-8.948281,5.049166,-0.27067474,1.4868984,-2.3686697,0.917198,0
0.9200000000000006,17.09412236423507,3.070667752273642,-4.0643813153703165,-0.07356904824159097,12.833606,0.16078278,-2.302528,-0.6243755,9.636052,-10.399194,1.8568285,-0.2880451,0.3131118,-0.37719128,-0.8226286,-9.001519,5.1843514,-0.28210652,1.6451231,-2.5305476,0.8839014,0
0.9300000000000006,17.09412236423507,3.070667752273642,-4.0643813153703165,-0.07356904824159097,12.833606,0.16078278,-2.302528,-0.6243755,9.545787,-10.346665,1.8539629,-0.29222515,0.2980008,-0.3819029,-0.824591,-9.050583,5.321463,-0.29069838,1.8674893,-2.769677,0.83691806,0
0.9400000000000006,17.09412236423507,3.070667752273642,-4.0643813153703165,-0.07356904824159097,12.833606,0.16078278,-2.302528,-0.6243755,9.455057,-10.292763,1.851021,-0.29723263,0.28168344,-0.38695505,-0.82617986,-9.094375,5.4590855,-0.29736245,2.0551484,-2.9715426,0.7922402,0
0.9500000000000006,17.09412236423507,3.070667752273642,-4.0643813153703165,-0.07356904824159097,12.833606,0.16078278,-2.302528,-0.6243755,9.363919,-10.237482,1.848022,-0.30292115,0.2643307,-0.39225072,-0.8273498,-9.132365,5.5971675,-0.30214617,2.213519,-3.1419497,0.7497547,0
0.9600000000000006,17.228085493792992,2.7544564396448035,-3.7623048463653106,-0.3505402024561059,11.488361,-0.1836519,-2.779401,-0.3773004,9.272431,-10.180819,1.8449842,-0.30916524,0.24608904,-0.39770657,-0.82806206,-9.164099,5.7356076,-0.3051429,2.3471746,-3.2857985,0.70935404,0
0.9700000000000006,17.228085493792992,2.7544564396448035,-3.7623048463653106,-0.3505402024561059,11.488361,-0.1836519,-2.779401,-0.3773004,9.180658,-10.122765,1.8419285,-0.3158077,0.22723843,-0.40317693,-0.8282975,-9.189387,5.8753505,-0.30572766,2.4106107,-3.3601618,0.65734476,0
0.9800000000000006,17.228085493792992,2.7544564396448035,-3.7623048463653106,-0.3505402024561059,11.488361,-0.1836519,-2.779401,-0.3773004,9.088668,-10.063313,1.8388746,-0.32272613,0.20801513,-0.4085467,-0.8280503,-9.207734,6.015124,-0.30481526,2.4641495,-3.422932,0.6078875,0
0.9900000000000007,17.228085493792992,2.7544564396448035,-3.7623048463653106,-0.3505402024561059,11.488361,-0.1836519,-2.779401,-0.3773004,8.996529,-10.002462,1.8358365,-0.32986706,0.18847753,-0.41379163,-0.82730925,-9.218956,6.154718,-0.30259505,2.5093372,-3.475916,0.56085724,0
1.0000000000000007,17.487937620708493,1.9703674775776603,-2.9850778802896096,-0.5958174633163511,12.71202,0.0409728,-3.0807436,-0.6962009,8.904313,-9.940219,1.8328264,-0.33718374,0.16867666,-0.41889164,-0.8260662,-9.222902,6.293907,-0.2992696,2.5474772,-3.5206382,0.5161347,0
1.0100000000000007,17.487937620708493,1.9703674775776603,-2.9850778802896096,-0.5958174633163511,12.71202,0.0409728,-3.0807436,-0.6962009,8.812096,-9.876575,1.8298619,-0.34448054,0.14903441,-0.4236741,-0.8243922,-9.21944,6.434545,-0.29350755,2.457327,-3.4372358,0.4615709,0
1.0200000000000007,17.487937620708493,1.9703674775776603,-2.9850778802896096,-0.5958174633163511,12.71202,0.0409728,-3.0807436,-0.6962009,8.719949,-9.811531,1.8269587,-0.35161644,0.12989645,-0.42801562,-0.822372,-9.208651,6.574293,-0.28704822,2.3812506,-3.3668256,0.40968454,0
1.0300000000000007,17.487937620708493,1.9703674775776603,-2.9850778802896096,-0.5958174633163511,12.71202,0.0409728,-3.0807436,-0.6962009,8.627946,-9.745093,1.8241227,-0.35862514,0.1112002,-0.43196636,-0.820017,-9.190731,6.712928,-0.28008562,2.317051,-3.307384,0.3603443,0
1.0400000000000007,17.487937620708493,1.9703674775776603,-2.9850778802896096,-0.5958174633163511,13.212357,-1.2987336,-3.21454,0.029559297,8.536158,-9.677276,1.8213581,-0.36553258,0.09289216,-0.4355686,-0.8173354,-9.165863,6.85024,-0.27280098,2.2628744,-3.2572029,0.31342518,0
1.0500000000000007,17.487937620708493,1.9703674775776603,-2.9850778802896096,-0.5958174633163511,13.212357,-1.2987336,-3.21454,0.029559297,8.444652,-9.608094,1.818667,-0.37235853,0.07492665,-0.43885773,-0.81433356,-9.134213,6.9860325,-0.26536512,2.217156,-3.214839,0.2688084,0
1.0600000000000007,17.487937620708493,1.9703674775776603,-2.9850778802896096,-0.5958174633163511,13.212357,-1.2987336,-3.21454,0.029559297,8.353496,-9.537561,1.8160504,-0.37911758,0.057264823,-0.44186366,-0.8110162,-9.095938,7.120117,-0.2579404,2.1785753,-3.179075,0.22638099,0
1.0700000000000007,17.487937620708493,1.9703674775776603,-2.9850778802896096,-0.5958174633163511,13.212357,-1.2987336,-3.21454,0.029559297,8.262754,-9.465698,1.8135074,-0.3858202,0.0398737,-0.44461137,-0.80738693,-9.051184,7.2523146,-0.25068238,2.1460183,-3.1488826,0.1860355,0
1.0800000000000007,16.833470102843393,0.8586049644254656,-2.1829182605948776,-0.6604102808342678,12.365848,-1.103337,-1.7479286,-0.41711506,8.172493,-9.392524,1.8110356,-0.39247343,0.022725388,-0.44712207,-0.80344886,-9.000092,7.3824496,-0.24374074,2.1185446,-3.1233938,0.14766975,0
1.0900000000000007,16.833470102843393,0.8586049644254656,-2.1829182605948776,-0.6604102808342678,12.365848,-1.103337,-1.7479286,-0.41711506,8.082763,-9.318083,1.8086115,-0.39893913,0.0062330742,-0.4491859,-0.7994002,-8.944978,7.5055723,-0.2411595,1.9219664,-2.976796,0.10801703,0
1.1000000000000008,16.833470102843393,0.8586049644254656,-2.1829182605948776,-0.6604102808342678,12.365848,-1.103337,-1.7479286,-0.41711506,7.9936113,-9.242421,1.8062109,-0.40512487,-0.009274791,-0.45065302,-0.79542416,-8.884308,7.6264405,-0.23903985,1.7560568,-2.8530464,0.07031008,0
1.1100000000000008,16.833470102843393,0.8586049644254656,-2.1829182605948776,-0.6604102808342678,12.365848,-1.103337,-1.7479286,-0.41711506,7.905093,-9.165564,1.8038292,-0.41109315,-0.02393541,-0.45161846,-0.7914987,-8.818481,7.7449684,-0.23737939,1.6160303,-2.7485847,0.03445342,0
1.1200000000000008,16.07888317402219,-0.5602798010856955,-1.5771363576499122,-0.5563520534402392,12.940872,-2.06876,-1.4663069,0.049654648,7.8172584,-9.087531,1.8014617,-0.4168933,-0.037866,-0.4521607,-0.78760195,-8.747844,7.861086,-0.23617509,1.4978491,-2.6604052,0.00035625696,0
1.1300000000000008,16.07888317402219,-0.5602798010856955,-1.5771363576499122,-0.5563520534402392,12.940872,-2.06876,-1.4663069,0.049654648,7.7301354,-9.008375,1.7990819,-0.42247027,-0.050744217,-0.4520011,-0.78398913,-8.676095,7.969639,-0.23983131,1.1768403,-2.4914916,-0.026961569,0
1.1400000000000008,16.07888317402219,-0.5602798010856955,-1.5771363576499122,-0.5563520534402392,12.940872,-2.06876,-1.4663069,0.049654648,7.6437497,-8.928145,1.7966642,-0.42779422,-0.062319834,-0.45093226,-0.7808767,-8.600553,8.075801,-0.24372733,0.9059,-2.3489094,-0.0529389,0
1.1500000000000008,16.07888317402219,-0.5602798010856955,-1.5771363576499122,-0.5563520534402392,12.940872,-2.06876,-1.4663069,0.049654648,7.558136,-8.846866,1.7942072,-0.4329304,-0.072783306,-0.44910666,-0.7781883,-8.521693,8.17956,-0.24766275,0.67721814,-2.2285552,-0.07764153,0
1.1600000000000008,15.974849211019531,-1.7492910813635658,-0.1625071291002657,-0.3637134843935427,12.544216,-2.3095863,-0.70758295,0.30092925,7.4733257,-8.764561,1.7917114,-0.43792886,-0.0822967,-0.44664952,-0.77585423,-8.4399185,8.280912,-0.25146267,0.48420352,-2.1269648,-0.10113199,0
1.1700000000000008,15.974849211019531,-1.7492910813635658,-0.1625071291002657,-0.3637134843935427,12.544216,-2.3095863,-0.70758295,0.30092925,7.3893437,-8.681258,1.789176,-0.44259945,-0.090360865,-0.44354394,-0.7740862,-8.356157,8.379241,-0.2555727,0.13589591,-1.820587,-0.11401692,0
1.1800000000000008,15.974849211019531,-1.7492910813635658,-0.1625071291002657,-0.3637134843935427,12.544216,-2.3095863,-0.70758295,0.30092925,7.306209,-8.596984,1.7866019,-0.44680026,-0.096589655,-0.4397896,-0.77306217,-8.270457,8.475364,-0.2591484,-0.1580914,-1.5619875,-0.12626961,0
1.1900000000000008,15.974849211019531,-1.7492910813635658,-0.1625071291002657,-0.3637134843935427,12.544216,-2.3095863,-0.70758295,0.30092925,7.2239394,-8.511758,1.7839956,-0.45062625,-0.10126248,-0.43549916,-0.7726723,-8.183386,8.569473,-0.26195273,-0.40623045,-1.3437159,-0.13792104,0
1.2000000000000008,15.6599116615956,-2.7866017059699155,0.9934967006213334,-0.07578795927102094,13.825912,-3.3429976,-0.2515849,1.2789345,7.1425447,-8.4256,1.7813662,-0.4541515,-0.104615465,-0.43076292,-0.7728165,-8.095418,8.6617365,-0.26378056,-0.61567193,-1.1594839,-0.14900072,0
1.2100000000000009,15.6599116615956,-2.7866017059699155,0.9934967006213334,-0.07578795927102094,13.825912,-3.3429976,-0.2515849,1.2789345,7.0620236,-8.338537,1.7787144,-0.45725194,-0.106317006,-0.4255398,-0.77364933,-8.008734,8.750535,-0.26636308,-0.95419264,-0.82369715,-0.14540817,0
1.2200000000000009,15.6599116615956,-2.7866017059699155,0.9934967006213334,-0.07578795927102094,13.825912,-3.3429976,-0.2515849,1.2789345,6.9823694,-8.250593,1.7760435,-0.4598279,-0.10611485,-0.41979867,-0.7752851,-7.922168,8.837939,-0.26756167,-1.2399278,-0.54028237,-0.14199188,0
1.2300000000000009,15.6599116615956,-2.7866017059699155,0.9934967006213334,-0.07578795927102094,13.825912,-3.3429976,-0.2515849,1.2789345,6.903578,-8.161781,1.7733686,-0.46196136,-0.10429981,-0.41361654,-0.7775825,-7.836274,8.924196,-0.26714844,-1.481108,-0.3010714,-0.13874324,0
1.2400000000000009,15.6599116615956,-2.7866017059699155,0.9934967006213334,-0.07578795927102094,14.306584,-3.776295,0.20971358,1.7957224,6.8256397,-8.072113,1.7707067,-0.46371618,-0.101117365,-0.40705445,-0.7804161,-7.751527,9.009513,-0.2649395,-1.6846805,-0.09916914,-0.135654,0
1.2500000000000009,15.6599116615956,-2.7866017059699155,0.9934967006213334,-0.07578795927102094,14.306584,-3.776295,0.20971358,1.7957224,6.748542,-7.981594,1.7680765,-0.4651425,-0.09677492,-0.40016153,-0.7836758,-7.668335,9.094054,-0.2607912,-1.8565094,0.07124288,-0.13271637,0
1.260000000000001,15.6599116615956,-2.7866017059699155,0.9934967006213334,-0.07578795927102094,14.306584,-3.776295,0.20971358,1.7957224,6.6722665,-7.890234,1.7654979,-0.46627995,-0.09144802,-0.39297774,-0.78726655,-7.587054,9.17795,-0.25459614,-2.0015447,0.21507663,-0.12992288,0
1.270000000000001,15.6599116615956,-2.7866017059699155,0.9934967006213334,-0.07578795927102094,14.306584,-3.776295,0.20971358,1.7957224,6.5967927,-7.7980375,1.7629918,-0.46716025,-0.08528534,-0.3855361,-0.79110646,-7.507993,9.261301,-0.24627897,-2.1239638,0.33647746,-0.12726647,0
1.280000000000001,15.174065767858432,-3.358912903693068,1.4316984645378994,0.2566684973213058,15.6968565,-4.877159,0.22224623,2.921171,6.5220976,-7.70501,1.7605797,-0.46780884,-0.07841305,-0.3778641,-0.79512566,-7.4314275,9.344181,-0.2357926,-2.2272942,0.43894422,-0.12474041,0
1.290000000000001,15.174065767858432,-3.358912903693068,1.4316984645378994,0.2566684973213058,15.6968565,-4.877159,0.22224623,2.921171,6.448143,-7.6111684,1.7582663,-0.4681643,-0.0707067,-0.36988068,-0.79938155,-7.3599057,9.424088,-0.22654408,-2.4037642,0.59374875,-0.10602456,0
1.300000000000001,15.174065767858432,-3.358912903693068,1.4316984645378994,0.2566684973213058,15.6968565,-4.877159,0.22224623,2.921171,6.374889,-7.5165296,1.7560564,-0.46816903,-0.062074184,-0.36151865,-0.80390835,-7.2913747,9.503655,-0.21511602,-2.5527184,0.7244074,-0.08822713,0
1.310000000000001,15.174065767858432,-3.358912903693068,1.4316984645378994,0.2566684973213058,15.6968565,-4.877159,0.22224623,2.921171,6.302304,-7.4210963,1.7539717,-0.46784684,-0.052658334,-0.35281822,-0.80861956,-7.2261534,9.5829315,-0.20147781,-2.6784468,0.8346869,-0.071303,0
1.320000000000001,13.939480317530537,-3.6483634240529463,1.2201834229937496,0.45567921894446384,14.98371,-5.0944996,0.6478165,3.6754718,6.230353,-7.3248715,1.7520343,-0.46721736,-0.04258061,-0.34381384,-0.8134413,-7.1645255,9.661936,-0.18563065,-2.7845705,0.9277662,-0.055209354,0
1.330000000000001,13.939480317530537,-3.6483634240529463,1.2201834229937496,0.45567921894446384,14.98371,-5.0944996,0.6478165,3.6754718,6.158976,-7.22789,1.7502195,-0.46631008,-0.03196773,-0.3343999,-0.8183578,-7.111446,9.734257,-0.17704603,-2.9192927,0.9733259,-0.030139908,0
1.340000000000001,13.939480317530537,-3.6483634240529463,1.2201834229937496,0.45567921894446384,14.98371,-5.0944996,0.6478165,3.6754718,6.0881114,-7.130187,1.7485003,-0.4651423,-0.020927778,-0.3244937,-0.8233519,-7.0621204,9.806262,-0.16646537,-3.0330055,1.0117784,-0.0063006305,0
1.350000000000001,13.939480317530537,-3.6483634240529463,1.2201834229937496,0.45567921894446384,14.98371,-5.0944996,0.6478165,3.6754718,6.01772,-7.031766,1.7468969,-0.4637137,-0.009531343,-0.31415394,-0.8283634,-7.0167494,9.877871,-0.15391707,-3.1289854,1.0442333,0.016368855,0
1.360000000000001,13.76309299257507,-3.5100307332850167,1.1358603388019184,0.8367614227904336,13.327582,-4.2144303,1.1066923,3.5759835,5.9477625,-6.932631,1.7454286,-0.4620249,0.0021612872,-0.3034313,-0.83334124,-6.97551,9.948992,-0.13945471,-3.2099977,1.0716269,0.03792594,0
1.370000000000001,13.76309299257507,-3.5100307332850167,1.1358603388019184,0.8367614227904336,13.327582,-4.2144303,1.1066923,3.5759835,5.878193,-6.8327923,1.7441069,-0.4600488,0.01403063,-0.2924009,-0.8382481,-6.939022,10.01864,-0.12460202,-3.2568154,1.0815599,0.07712501,0
1.380000000000001,13.76309299257507,-3.5100307332850167,1.1358603388019184,0.8367614227904336,13.327582,-4.2144303,1.1066923,3.5759835,5.8089666,-6.73226,1.7429423,-0.4577607,0.025977293,-0.2811276,-0.8430584,-6.906873,10.087618,-0.108032815,-3.2963312,1.089946,0.114400595,0
1.390000000000001,13.76309299257507,-3.5100307332850167,1.1358603388019184,0.8367614227904336,13.327582,-4.2144303,1.1066923,3.5759835,5.7400393,-6.6310425,1.7419516,-0.4551658,0.037980724,-0.26963872,-0.84774786,-6.8791513,10.155826,-0.08985891,-3.3296833,1.0970271,0.14984703,0
1.400000000000001,13.738741226011564,-3.306353298330811,0.8916827341227217,1.179835777638645,16.356598,-4.494073,-1.2681229,4.2034993,5.6713676,-6.5291467,1.7411503,-0.45226976,0.050023284,-0.2579582,-0.8522952,-6.85593,10.223164,-0.07020116,-3.3578331,1.1030066,0.18355411,0
1.410000000000001,13.738741226011564,-3.306353298330811,0.8916827341227217,1.179835777638645,16.356598,-4.494073,-1.2681229,4.2034993,5.6029053,-6.4265833,1.7405511,-0.44907212,0.0619588,-0.24613531,-0.85668695,-6.8372974,10.28941,-0.049398754,-3.3498352,1.0699449,0.23244193,0
1.420000000000001,13.738741226011564,-3.306353298330811,0.8916827341227217,1.179835777638645,16.356598,-4.494073,-1.2681229,4.2034993,5.5346065,-6.323363,1.7401664,-0.44557056,0.0736696,-0.23421395,-0.86092,-6.823214,10.354568,-0.02737594,-3.3430815,1.0420445,0.27893084,0
1.430000000000001,13.738741226011564,-3.306353298330811,0.8916827341227217,1.179835777638645,16.356598,-4.494073,-1.2681229,4.2034993,5.466426,-6.2194967,1.7400073,-0.4417687,0.08518026,-0.22220655,-0.86499065,-6.8136625,10.418525,-0.004266169,-3.3373787,1.0185002,0.3231385,0
1.440000000000001,13.738741226011564,-3.306353298330811,0.8916827341227217,1.179835777638645,17.041653,-4.6928205,-2.5918682,4.510406,5.398318,-6.1149974,1.7400843,-0.43767112,0.09651161,-0.21012409,-0.8688943,-6.8086243,10.481169,0.019796912,-3.3325634,0.99863285,0.3651769,0
1.450000000000001,13.738741226011564,-3.306353298330811,0.8916827341227217,1.179835777638645,17.041653,-4.6928205,-2.5918682,4.510406,5.3302383,-6.009878,1.7404062,-0.43328288,0.10768126,-0.19797637,-0.8726259,-6.8080773,10.542394,0.044679295,-3.3284974,0.9818682,0.40515244,0
1.460000000000001,13.738741226011564,-3.306353298330811,0.8916827341227217,1.179835777638645,17.041653,-4.6928205,-2.5918682,4.510406,5.2621417,-5.9041543,1.7409804,-0.4286096,0.11870406,-0.18577209,-0.8761802,-6.811998,10.602097,0.070246845,-3.3250642,0.96772236,0.44316638,0
1.470000000000001,13.738741226011564,-3.306353298330811,0.8916827341227217,1.179835777638645,17.041653,-4.6928205,-2.5918682,4.510406,5.1939836,-5.7978415,1.741813,-0.42365733,0.12959246,-0.17351913,-0.8795517,-6.820358,10.660178,0.0963652,-3.3221653,0.9557867,0.47931495,0
1.480000000000001,13.321285545688294,-3.0802266198944785,0.3088317476121308,1.3317628597070656,16.982735,-4.746135,-2.9144638,4.144416,5.125719,-5.6909566,1.7429091,-0.41843227,0.14035688,-0.16122463,-0.8827349,-6.833126,10.716541,0.122899935,-3.3197176,0.94571596,0.5136897,0
1.490000000000001,13.321285545688294,-3.0802266198944785,0.3088317476121308,1.3317628597070656,16.982735,-4.746135,-2.9144638,4.144416,5.057308,-5.5835247,1.7442532,-0.4129747,0.15075935,-0.1488809,-0.88575274,-6.849734,10.769426,0.14592563,-3.2823584,0.8463207,0.55383277,0
1.500000000000001,13.321285545688294,-3.0802266198944785,0.3088317476121308,1.3317628597070656,16.982735,-4.746135,-2.9144638,4.144416,4.9887104,-5.475574,1.7458283,-0.40731594,0.16061231,-0.13648604,-0.8886332,-6.8704476,10.820416,0.16913131,-3.250825,0.76243,0.592006,0
1.5100000000000011,13.321285545688294,-3.0802266198944785,0.3088317476121308,1.3317628597070656,16.982735,-4.746135,-2.9144638,4.144416,4.9198856,-5.367123,1.747636,-0.40145066,0.16999169,-0.12405342,-0.89137584,-6.8951297,10.869381,0.19242896,-3.2242098,0.6916256,0.6283061,0
1.5200000000000011,12.90285658559145,-2.8459628694293344,-0.3258636605779927,1.332752030359389,17.755056,-4.979507,-4.028635,4.240031,4.850795,-5.2581935,1.7496768,-0.39537576,0.17896175,-0.11159424,-0.89397836,-6.9236536,10.916203,0.21573028,-3.2017455,0.63186634,0.6628249,0
1.5300000000000011,12.90285658559145,-2.8459628694293344,-0.3258636605779927,1.332752030359389,17.755056,-4.979507,-4.028635,4.240031,4.7814054,-5.148814,1.7519312,-0.3891348,0.18731293,-0.09910211,-0.8964745,-6.9548764,10.959367,0.23514168,-3.1462076,0.48246545,0.69569844,0
1.5400000000000011,12.90285658559145,-2.8459628694293344,-0.3258636605779927,1.332752030359389,17.755056,-4.979507,-4.028635,4.240031,4.711686,-5.0390143,1.754379,-0.38276288,0.19488302,-0.0865751,-0.898898,-6.989501,11.000212,0.25442964,-3.099335,0.356365,0.7269589,0
1.5500000000000012,12.90285658559145,-2.8459628694293344,-0.3258636605779927,1.332752030359389,17.755056,-4.979507,-4.028635,4.240031,4.6416044,-4.9288177,1.7570192,-0.37624803,0.20178597,-0.074027196,-0.90124327,-7.0273275,11.038607,0.27355644,-3.0597763,0.24993137,0.7566853,0
1.5600000000000012,12.866860830556428,-2.7089062699228967,-0.9738679185294647,1.288828773345713,18.388704,-5.376388,-4.3837166,3.9325576,4.5711293,-4.8182507,1.7598494,-0.36958158,0.20811804,-0.061469693,-0.9035029,-7.0681767,11.074437,0.29248047,-3.026391,0.16009709,0.7849531,0
1.5700000000000012,12.866860830556428,-2.7089062699228967,-0.9738679185294647,1.288828773345713,18.388704,-5.376388,-4.3837166,3.9325576,4.5002317,-4.707339,1.7628663,-0.36278903,0.21370633,-0.04886507,-0.9057182,-7.1117525,11.107504,0.31083676,-2.976789,-0.01676675,0.80967844,0
1.5800000000000012,12.866860830556428,-2.7089062699228967,-0.9738679185294647,1.288828773345713,18.388704,-5.376388,-4.3837166,3.9325576,4.4288855,-4.5961103,1.7660654,-0.35588962,0.21841827,-0.036185868,-0.9079241,-7.157944,11.1377735,0.328946,-2.9349315,-0.16604915,0.8331905,0
1.5900000000000012,12.866860830556428,-2.7089062699228967,-0.9738679185294647,1.288828773345713,18.388704,-5.376388,-4.3837166,3.9325576,4.3570647,-4.484594,1.7694443,-0.3488701,0.2223831,-0.023453511,-0.9101016,-7.206525,11.165114,0.34680656,-2.8996105,-0.29205123,0.8555488,0
1.6000000000000012,12.882296160377216,-2.6302940231918512,-1.6593749110609226,1.2328924117197237,19.921803,-4.879078,-5.5628777,4.1586747,4.284747,-4.3728185,1.7730005,-0.3417208,0.2257099,-0.0106855035,-0.9122321,-7.2572923,11.189417,0.364407,-2.8698058,-0.3984035,0.87680995,0
1.6100000000000012,12.882296160377216,-2.6302940231918512,-1.6593749110609226,1.2328924117197237,19.921803,-4.879078,-5.5628777,4.1586747,4.2119117,-4.260816,1.7767321,-0.33445013,0.22822966,0.0021695911,-0.9143573,-7.3101134,11.210603,0.38187248,-2.8323352,-0.59506226,0.894283,0
1.6200000000000012,12.882296160377216,-2.6302940231918512,-1.6593749110609226,1.2328924117197237,19.921803,-4.879078,-5.5628777,4.1586747,4.1385393,-4.148618,1.780637,-0.32706246,0.22981249,0.015149909,-0.9165078,-7.3646817,11.228504,0.39908096,-2.8007224,-0.76105326,0.9108987,0
1.6300000000000012,12.882296160377216,-2.6302940231918512,-1.6593749110609226,1.2328924117197237,19.921803,-4.879078,-5.5628777,4.1586747,4.064613,-4.036258,1.7847128,-0.31954697,0.23059607,0.028224738,-0.9186503,-7.420752,11.242994,0.41604802,-2.7740521,-0.90115875,0.926699,0
1.6400000000000012,12.882296160377216,-2.6302940231918512,-1.6593749110609226,1.2328924117197237,20.28886,-4.87586,-5.834231,4.0966735,3.99012,-3.9237704,1.788957,-0.3118962,0.23069662,0.041368593,-0.92075425,-7.4781013,11.253963,0.4327738,-2.7515519,-1.0194155,0.94172394,0
1.6500000000000012,12.882296160377216,-2.6302940231918512,-1.6593749110609226,1.2328924117197237,20.28886,-4.87586,-5.834231,4.0966735,3.9150476,-3.811191,1.7933671,-0.3041055,0.23021232,0.054560218,-0.9227921,-7.5365267,11.261321,0.44924504,-2.7325704,-1.1192306,0.95601165,0
1.6600000000000013,12.882296160377216,-2.6302940231918512,-1.6593749110609226,1.2328924117197237,20.28886,-4.87586,-5.834231,4.0966735,3.8393862,-3.6985567,1.7979407,-0.29617244,0.22922614,0.067781836,-0.92473936,-7.595841,11.264995,0.46543667,-2.7165573,-1.20348,0.9695983,0
1.6700000000000013,12.882296160377216,-2.6302940231918512,-1.6593749110609226,1.2328924117197237,20.28886,-4.87586,-5.834231,4.0966735,3.763128,-3.5859041,1.8026749,-0.28809655,0.22780833,0.08101847,-0.92657423,-7.6558695,11.264926,0.48131377,-2.703049,-1.2745911,0.98251826,0
1.6800000000000013,12.953719279929013,-2.6287755130070156,-2.266732969358836,1.1856668570640199,19.206335,-4.375309,-4.8147326,1.9673415,3.686267,-3.4732714,1.8075659,-0.27987882,0.2260183,0.09425746,-0.92827755,-7.7164497,11.261066,0.49683285,-2.6916537,-1.334612,0.9948042,0
1.6900000000000013,12.953719279929013,-2.6287755130070156,-2.266732969358836,1.1856668570640199,19.206335,-4.375309,-4.8147326,1.9673415,3.6087961,-3.360696,1.8126134,-0.2715027,0.2236796,0.107555866,-0.9298847,-7.777756,11.253333,0.51257616,-2.6817448,-1.4799858,1.0041698,0
1.7000000000000013,12.953719279929013,-2.6287755130070156,-2.266732969358836,1.1856668570640199,19.206335,-4.375309,-4.8147326,1.9673415,3.5307112,-3.248218,1.817816,-0.2629521,0.2206536,0.12095546,-0.9314172,-7.8392377,11.24167,0.5278896,-2.673395,-1.6026887,1.0130758,0
1.7100000000000013,12.953719279929013,-2.6287755130070156,-2.266732969358836,1.1856668570640199,19.206335,-4.375309,-4.8147326,1.9673415,3.4520116,-3.1358767,1.8231696,-0.25423086,0.21703783,0.13442577,-0.93284035,-7.900672,11.226005,0.5427455,-2.666359,-1.7062562,1.0215449,0
1.7200000000000013,13.185419699037652,-2.5755886905005574,-2.530071049878647,1.083664695698777,18.303736,-4.2513523,-4.3965373,1.1989897,3.3726985,-3.0237122,1.8286692,-0.24534395,0.21291502,0.147941,-0.93412375,-7.961852,11.206286,0.5571029,-2.6604304,-1.7936723,1.0295984,0
1.7300000000000013,13.185419699037652,-2.5755886905005574,-2.530071049878647,1.083664695698777,18.303736,-4.2513523,-4.3965373,1.1989897,3.2927704,-2.9117672,1.8343197,-0.2362974,0.20824969,0.16148733,-0.93526334,-8.023667,11.182052,0.57291394,-2.647119,-1.9085091,1.0322512,0
1.7400000000000013,13.185419699037652,-2.5755886905005574,-2.530071049878647,1.083664695698777,18.303736,-4.2513523,-4.3965373,1.1989897,3.212227,-2.8000855,1.8401254,-0.22709721,0.203017,0.17505138,-0.9362521,-8.084803,11.153623,0.5881203,-2.6358955,-2.005438,1.0347741,0
1.7500000000000013,13.185419699037652,-2.5755886905005574,-2.530071049878647,1.083664695698777,18.303736,-4.2513523,-4.3965373,1.1989897,3.1310773,-2.688709,1.84608,-0.21774979,0.19729623,0.1886133,-0.9370615,-8.145042,11.120979,0.6026685,-2.6264327,-2.087252,1.0371732,0
1.7600000000000013,12.852286459085976,-2.333444566186185,-2.675027569960947,0.8351553283201304,17.740557,-4.027701,-4.074183,0.82554805,3.0493302,-2.57768,1.8521763,-0.20826206,0.19115478,0.20215604,-0.93766713,-8.204186,11.084121,0.61649454,-2.618454,-2.1563077,1.0394545,0
1.7700000000000014,12.852286459085976,-2.333444566186185,-2.675027569960947,0.8351553283201304,17.740557,-4.027701,-4.074183,0.82554805,2.9670055,-2.4670358,1.858393,-0.19867662,0.18456954,0.21559182,-0.9380735,-8.26058,11.044101,0.6267214,-2.5739667,-2.2371547,1.0294294,0
1.7800000000000014,12.852286459085976,-2.333444566186185,-2.675027569960947,0.8351553283201304,17.740557,-4.027701,-4.074183,0.82554805,2.884124,-2.356812,1.8647078,-0.18903176,0.17752567,0.22885026,-0.93828523,-8.315517,11.000033,0.6361225,-2.5364258,-2.3053997,1.0198963,0
1.7900000000000014,12.852286459085976,-2.333444566186185,-2.675027569960947,0.8351553283201304,17.740557,-4.027701,-4.074183,0.82554805,2.8007011,-2.2470489,1.8711125,-0.17932907,0.17008719,0.24194123,-0.93828344,-8.368807,10.95198,0.6446426,-2.5047467,-2.363007,1.0108311,0
1.8000000000000014,12.320081281176364,-2.1162795800058465,-2.8564218297894315,0.5355213156024705,16.162945,-4.0972424,-4.1016335,0.15403375,2.7167542,-2.1377857,1.8775976,-0.16957091,0.16230847,0.2548727,-0.938052,-8.420271,10.900011,0.65221834,-2.478014,-2.411635,1.0022106,0
1.8100000000000014,12.320081281176364,-2.1162795800058465,-2.8564218297894315,0.5355213156024705,16.162945,-4.0972424,-4.1016335,0.15403375,2.6323128,-2.02905,1.8841318,-0.1597902,0.15414375,0.2675876,-0.9376053,-8.467693,10.846517,0.6544498,-2.4215932,-2.480926,0.9793101,0
1.8200000000000014,12.320081281176364,-2.1162795800058465,-2.8564218297894315,0.5355213156024705,16.162945,-4.0972424,-4.1016335,0.15403375,2.5474074,-1.9208676,1.8906832,-0.15001722,0.14555876,0.28004062,-0.93695503,-8.513031,10.789436,0.65566444,-2.3739786,-2.5394201,0.95753324,0
1.8300000000000014,12.320081281176364,-2.1162795800058465,-2.8564218297894315,0.5355213156024705,16.162945,-4.0972424,-4.1016335,0.15403375,2.4620597,-1.8132734,1.8972415,-0.14025164,0.13661171,0.29225332,-0.93608475,-8.556119,10.728875,0.6558131,-2.3337948,-2.5887997,0.936825,0
1.8400000000000014,12.320081281176364,-2.1162795800058465,-2.8564218297894315,0.5355213156024705,14.04056,-3.470693,-4.026802,-0.42684886,2.3762932,-1.7063018,1.9037956,-0.13049391,0.1273521,0.30424356,-0.9349805,-8.596807,10.664937,0.6548396,-2.2998817,-2.630485,0.91713285,0
1.8500000000000014,12.320081281176364,-2.1162795800058465,-2.8564218297894315,0.5355213156024705,14.04056,-3.470693,-4.026802,-0.42684886,2.2901325,-1.599986,1.9103342,-0.12074502,0.11782203,0.316026,-0.9336306,-8.634957,10.597732,0.65268195,-2.2712605,-2.665675,0.8984071,0
1.8600000000000014,12.320081281176364,-2.1162795800058465,-2.8564218297894315,0.5355213156024705,14.04056,-3.470693,-4.026802,-0.42684886,2.2036033,-1.4943582,1.916845,-0.11100637,0.10805755,0.32761264,-0.9320252,-8.670449,10.52737,0.6492737,-2.247105,-2.6953816,0.8806002,0
1.8700000000000014,12.320081281176364,-2.1162795800058465,-2.8564218297894315,0.5355213156024705,14.04056,-3.470693,-4.026802,-0.42684886,2.1167328,-1.3894491,1.923315,-0.10127964,0.098089546,0.33901313,-0.93015635,-8.70317,10.453966,0.6445444,-2.2267182,-2.7204595,0.86366713,0
1.8800000000000014,11.846962003351573,-1.6643327572163757,-2.8147608336730534,0.16648217170810548,13.519094,-3.2276456,-3.554552,-0.47406235,2.0295496,-1.2852888,1.9297309,-0.09156668,0.0879446,0.35023513,-0.92801756,-8.733019,10.377637,0.6384212,-2.2095122,-2.7416298,0.84756494,0
1.8900000000000015,11.846962003351573,-1.6643327572163757,-2.8147608336730534,0.16648217170810548,13.519094,-3.2276456,-3.554552,-0.47406235,1.9420878,-1.181891,1.9360609,-0.081933156,0.077629276,0.36112005,-0.92566353,-8.758874,10.301547,0.62735933,-2.1245456,-2.7529414,0.81414396,0
1.9000000000000015,11.846962003351573,-1.6643327572163757,-2.8147608336730534,0.16648217170810548,13.519094,-3.2276456,-3.554552,-0.47406235,1.854382,-1.0792668,1.9422731,-0.07243601,0.06715003,0.3715449,-0.9231459,-8.781801,10.222931,0.61486036,-2.0528276,-2.7625012,0.78236306,0
1.9100000000000015,11.846962003351573,-1.6643327572163757,-2.8147608336730534,0.16648217170810548,13.519094,-3.2276456,-3.554552,-0.47406235,1.7664621,-0.97744066,1.948353,-0.06306527,0.056527674,0.38156307,-0.92045486,-8.801732,10.141956,0.6009017,-1.9922925,-2.7705808,0.7521416,0
1.9200000000000015,11.25148987038574,-1.0317443502136672,-2.379797309441804,-0.23453126352556533,12.199762,-2.7507126,-3.3653693,-0.73484397,1.6783581,-0.8764353,1.9542861,-0.05381254,0.045779973,0.3912191,-0.9175817,-8.818606,10.058786,0.5854555,-1.9411962,-2.777409,0.72340316,0
1.9300000000000015,11.25148987038574,-1.0317443502136672,-2.379797309441804,-0.23453126352556533,12.199762,-2.7507126,-3.3653693,-0.73484397,1.5901042,-0.7762506,1.9600365,-0.04479579,0.035049584,0.40031284,-0.9146118,-8.831691,9.977864,0.5644196,-1.7994802,-2.7152796,0.676397,0
1.9400000000000015,11.25148987038574,-1.0317443502136672,-2.379797309441804,-0.23453126352556533,12.199762,-2.7507126,-3.3653693,-0.73484397,1.5017343,-0.67688394,1.9655695,-0.03611358,0.024449693,0.40869457,-0.9116288,-8.8418455,9.895209,0.54197514,-1.6798532,-2.6628594,0.63169754,0
1.9500000000000015,11.25148987038574,-1.0317443502136672,-2.379797309441804,-0.23453126352556533,12.199762,-2.7507126,-3.3653693,-0.73484397,1.4132771,-0.5783516,1.9708712,-0.027732817,0.013954179,0.41646576,-0.9086214,-8.849099,9.81102,0.5181592,-1.5788718,-2.6186304,0.58919144,0
1.9600000000000015,10.848236033950919,-0.4407071677927458,-1.8639516212254879,-0.6333013273915202,11.458359,-2.0019252,-2.8742545,-0.68732953,1.3247621,-0.48066822,1.9759281,-0.019624926,0.003540795,0.423711,-0.9055781,-8.853477,9.725468,0.49300045,-1.4936298,-2.5813127,0.54877114,0
1.9700000000000015,10.848236033950919,-0.4407071677927458,-1.8639516212254879,-0.6333013273915202,11.458359,-2.0019252,-2.8742545,-0.68732953,1.2362179,-0.3838309,1.9807137,-0.011897854,-0.0066474685,0.4302849,-0.90259045,-8.854959,9.641825,0.4639616,-1.3295606,-2.4693313,0.49076647,0
1.9800000000000015,10.848236033950919,-0.4407071677927458,-1.8639516212254879,-0.6333013273915202,11.458359,-2.0019252,-2.8742545,-0.68732953,1.147672,-0.28783506,1.985203,-0.004640343,-0.016500354,0.436082,-0.8997439,-8.853788,9.557208,0.43373105,-1.1910602,-2.3748353,0.43560815,0
1.9900000000000015,10.848236033950919,-0.4407071677927458,-1.8639516212254879,-0.6333013273915202,11.458359,-2.0019252,-2.8742545,-0.68732953,1.0591509,-0.19268952,1.9893845,0.0021969085,-0.026079563,0.44122013,-0.89701736,-8.850061,9.471785,0.40238956,-1.0741442,-2.2950933,0.38315645,0
2.0000000000000013,,,,,10.189922,-0.89516646,-1.4197013,-0.8712847,0.97067946,-0.098401636,1.9932473,0.008656495,-0.035437252,0.44579732,-0.8943905,-8.843859,9.385698,0.3700052,-0.97544926,-2.2278006,0.33327857,0
2.010000000000001,,,,,10.189922,-0.89516646,-1.4197013,-0.8712847,0.88228005,-0.004956782,1.9967659,0.0145977475,-0.044344082,0.44962832,-0.8919951,-8.835678,9.303204,0.3335654,-0.7743932,-2.0437684,0.26667333,0
2.020000000000001,,,,,10.189922,-0.89516646,-1.4197013,-0.8712847,0.79397315,0.087661214,1.9999158,0.019907817,-0.052623134,0.4525773,-0.8899486,-8.825382,9.220351,0.2963241,-0.6046679,-1.888459,0.20333642,0
2.0300000000000007,,,,,10.189922,-0.89516646,-1.4197013,-0.8712847,0.7057791,0.17944947,2.00269,0.024658717,-0.06038553,0.4547841,-0.88821006,-8.813135,9.137276,0.25841376,-0.4613926,-1.7573873,0.14310747,0
2.0400000000000005,,,,,10.189922,-0.89516646,-1.4197013,-0.8712847,0.61771667,0.27040634,2.0050821,0.02891222,-0.0677248,0.45636457,-0.8867406,-8.799075,9.054088,0.2199484,-0.34044638,-1.6467695,0.08583396,0
2.0500000000000003,,,,,9.3678,0.2687072,-0.3298294,-1.1008422,0.5298034,0.36053112,2.0070875,0.03272141,-0.07471951,0.45741495,-0.88550436,-8.78332,8.970874,0.18102518,-0.23835018,-1.5534122,0.03137089,1
2.06,,,,,9.3678,0.2687072,-0.3298294,-1.1008422,0.44204774,0.44986278,2.008674,0.035990648,-0.08118611,0.4580412,-0.88448393,-8.767603,8.89547,0.13624051,-0.15932837,-1.3625876,-0.024187136,1
2.07,,,,,9.3678,0.2687072,-0.3298294,-1.1008422,0.35445577,0.5384408,2.0098114,0.038645975,-0.08698353,0.45833373,-0.8836689,-8.7506075,8.820151,0.091184035,-0.09261572,-1.2015271,-0.0770189,1
2.0799999999999996,,,,,9.3678,0.2687072,-0.3298294,-1.1008422,0.26703948,0.6262662,2.010497,0.040759332,-0.09222934,0.45834434,-0.88303626,-8.73249,8.744946,0.04591591,-0.036295936,-1.0655879,-0.12725821,1
2.0899999999999994,,,,,9.153095,0.4742519,0.23873979,-1.1163266,0.17980942,0.71334016,2.0107293,0.042392436,-0.09702206,0.45811573,-0.88256425,-8.713377,8.669872,0.00048810337,0.0112488195,-0.95085096,-0.17503226,1
2.099999999999999,,,,,9.153095,0.4742519,0.23873979,-1.1163266,0.09277268,0.7996728,2.0105004,0.043500584,-0.1012408,0.4576203,-0.8822934,-8.693847,8.596668,-0.046255276,0.08345163,-0.7653456,-0.22122183,1
2.109999999999999,,,,,9.153095,0.4742519,0.23873979,-1.1163266,0.0059348997,0.8852741,2.009804,0.044052396,-0.104793675,0.45683867,-0.8822562,-8.67361,8.523624,-0.09304286,0.14440162,-0.6087718,-0.26514488,1
2.1199999999999988,,,,,9.153095,0.4742519,0.23873979,-1.1163266,-0.08069759,0.9701459,2.0086396,0.04411504,-0.10779542,0.4558136,-0.8824217,-8.652809,8.450752,-0.13981132,0.19585137,-0.47661698,-0.3069126,1
2.1299999999999986,,,,,8.519117,1.0038112,0.7495219,-1.3741574,-0.16711977,1.0542898,2.0070078,0.043745946,-0.11034217,0.45458037,-0.88276136,-8.631566,8.378059,-0.18650621,0.23928045,-0.36507237,-0.34663075,1
2.1399999999999983,,,,,8.519117,1.0038112,0.7495219,-1.3741574,-0.2533352,1.137733,2.004892,0.0428969,-0.112339236,0.4529865,-0.8833702,-8.611483,8.310578,-0.23664202,0.3585412,-0.19129053,-0.39705175,1
2.149999999999998,,,,,8.519117,1.0038112,0.7495219,-1.3741574,-0.33934876,1.2205023,2.0022757,0.04152977,-0.113717094,0.450911,-0.8843207,-8.591215,8.243301,-0.28656995,0.45920697,-0.04461153,-0.44499862,1
2.159999999999998,,,,,8.519117,1.0038112,0.7495219,-1.3741574,-0.42515925,1.3025999,1.9991617,0.039703824,-0.11458332,0.44842273,-0.8855571,-8.570884,8.176259,-0.33619982,0.54417557,0.07919246,-0.4905927,1
2.1699999999999977,,,,,8.887468,2.587493,0.90008026,-1.7706267,-0.51076657,1.3840284,1.9955531,0.037469815,-0.11502786,0.4455794,-0.88703084,-8.5505905,8.109476,-0.38545558,0.615894,0.18368982,-0.53394943,1
2.1799999999999975,,,,,8.887468,2.587493,0.90008026,-1.7706267,-0.5961671,1.4647762,1.9914649,0.034874056,-0.115070954,0.44186267,-0.88898814,-8.529549,8.040118,-0.4321222,0.92341405,0.2952678,-0.5946335,1
