time-since-start [s],throttle_mpc,roll_mpc,pitch_mpc,yaw_mpc,throttle_nw,roll_nw,pitch_nw,yaw_nw,position_x [m],position_y [m],position_z [m],rotation_w [quaternion],rotation_x [quaternion],rotation_y [quaternion],rotation_z [quaternion],velocity_x [m/s],velocity_y [m/s],velocity_z [m/s],omega_x [rad/s],omega_y [rad/s],omega_z [rad/s],network_used
0.0,10.210127548603387,5.999999777224428,-5.999999945598473,-4.725384591410073,1.7742624,-0.21070547,-3.421507,0.046946067,18.548475,-10.101478,1.8503116,-0.05892211,0.4714066,-0.26648182,-0.8386247,-11.501443,-2.293413,-0.9661508,0.90999645,0.28477803,0.7463818,0
0.01,10.210127548603387,5.999999777224428,-5.999999945598473,-4.725384591410073,14.550661,-1.2553953,-5.889866,-1.6891719,18.432724,-10.123923,1.8405598,-0.05789038,0.4712724,-0.27170056,-0.83709604,-11.648134,-2.1957362,-0.98469377,0.81479067,0.19358316,0.5628657,0
0.02,10.210127548603387,5.999999777224428,-5.999999945598473,-4.725384591410073,14.550661,-1.2553953,-5.889866,-1.6891719,18.315527,-10.145397,1.8306079,-0.0575245,0.47104487,-0.27609575,-0.83581024,-11.790908,-2.099183,-1.0061196,0.7356717,0.115373924,0.38396057,0
0.03,10.210127548603387,5.999999777224428,-5.999999945598473,-4.725384591410073,14.550661,-1.2553953,-5.889866,-1.6891719,18.196915,-10.165907,1.8204309,-0.057849452,0.47073847,-0.27977577,-0.83473605,-11.930998,-2.0030665,-1.0295426,0.68711215,0.031148903,0.21099117,0
0.04,10.210127548603387,5.999999777224428,-5.999999945598473,-4.725384591410073,11.043815,0.84227484,-5.9556074,-2.3600233,18.076916,-10.185458,1.8100117,-0.058934983,0.47029442,-0.28289434,-0.8338589,-12.068811,-1.9071754,-1.0545435,0.67181516,-0.06563491,0.044212215,0
0.05,10.210127548603387,5.999999777224428,-5.999999945598473,-4.725384591410073,11.043815,0.84227484,-5.9556074,-2.3600233,17.95555,-10.204051,1.7993352,-0.060846794,0.46964902,-0.28559178,-0.8331656,-12.204213,-1.8115852,-1.0809871,0.68540287,-0.17384261,-0.116752855,0
0.060000000000000005,10.210127548603387,5.999999777224428,-5.999999945598473,-4.725384591410073,11.043815,0.84227484,-5.9556074,-2.3600233,17.83284,-10.22169,1.7883877,-0.063640855,0.4687426,-0.2879894,-0.8326418,-12.337052,-1.7163175,-1.1087422,0.7240404,-0.2923719,-0.2722494,0
0.07,10.210127548603387,5.999999777224428,-5.999999945598473,-4.725384591410073,11.043815,0.84227484,-5.9556074,-2.3600233,17.708817,-10.238379,1.7771564,-0.06736434,0.46751925,-0.2901914,-0.83227205,-12.467162,-1.6213517,-1.1376809,0.7843627,-0.4201634,-0.4225945,0
0.08,12.586982461792264,5.999999910978794,-5.999999987246722,-4.974300832062763,11.317359,1.3071636,-6.74224,-3.2929826,17.583506,-10.254118,1.7656302,-0.072056524,0.46592608,-0.29228696,-0.8320391,-12.594367,-1.5266347,-1.1676791,0.86341614,-0.55620664,-0.5680793,0
0.09,12.586982461792264,5.999999910978794,-5.999999987246722,-4.974300832062763,11.317359,1.3071636,-6.74224,-3.2929826,17.456861,-10.268853,1.7538409,-0.07783628,0.46385682,-0.29439002,-0.8319332,-12.733781,-1.4204243,-1.19033,0.9880316,-0.72901464,-0.7238146,0
0.09999999999999999,12.586982461792264,5.999999910978794,-5.999999987246722,-4.974300832062763,11.317359,1.3071636,-6.74224,-3.2929826,17.328842,-10.282527,1.7418203,-0.0848141,0.46120644,-0.29660106,-0.83193934,-12.869406,-1.3142996,-1.2139118,1.1262133,-0.9079388,-0.8748609,0
0.10999999999999999,12.586982461792264,5.999999910978794,-5.999999987246722,-4.974300832062763,11.317359,1.3071636,-6.74224,-3.2929826,17.199488,-10.295139,1.7295599,-0.09300635,0.45792687,-0.29896992,-0.83202755,-13.000973,-1.2080967,-1.2382702,1.2759268,-1.0921075,-1.0214554,0
0.11999999999999998,12.586982461792264,5.999999910978794,-5.999999987246722,-4.974300832062763,11.317359,1.3071636,-6.74224,-3.2929826,17.068836,-10.306688,1.7170527,-0.10242341,0.45397115,-0.30153587,-0.8321634,-13.128208,-1.1016574,-1.2632552,1.4353813,-1.2807112,-1.1638173,0
0.12999999999999998,16.557776609781545,5.999999985723392,-6.0,-4.801369989450843,13.772506,1.1202534,-7.580801,-2.684016,16.936937,-10.317171,1.7042931,-0.113069944,0.4492929,-0.3043283,-0.8323074,-13.250833,-0.9948349,-1.288722,1.6030002,-1.4729997,-1.3021492,0
0.13999999999999999,16.557776609781545,5.999999985723392,-6.0,-4.801369989450843,13.772506,1.1202534,-7.580801,-2.684016,16.803745,-10.3265,1.6913333,-0.12520145,0.443531,-0.30760065,-0.8324583,-13.386777,-0.87084293,-1.3033148,1.9086508,-1.7997909,-1.4398875,0
0.15,16.557776609781545,5.999999985723392,-6.0,-4.801369989450843,13.772506,1.1202534,-7.580801,-2.684016,16.669226,-10.334586,1.6782255,-0.1390413,0.4363451,-0.31156224,-0.8325861,-13.516156,-0.74627733,-1.3182693,2.209792,-2.1188684,-1.5747294,0
0.16,20.36671145579784,6.0,-6.0,-4.2962117497322785,15.350485,1.5038613,-8.17738,-2.3091185,16.533447,-10.341422,1.6649674,-0.15453815,0.42771688,-0.31616476,-0.8325961,-13.6384325,-0.6208628,-1.3333287,2.5062606,-2.4305634,-1.7067394,0
0.17,20.36671145579784,6.0,-6.0,-4.2962117497322785,15.350485,1.5038613,-8.17738,-2.3091185,16.396418,-10.346928,1.6516067,-0.17194116,0.4171759,-0.32165727,-0.8324286,-13.765992,-0.48009512,-1.3388474,2.9711351,-2.9087484,-1.8266804,0
0.18000000000000002,20.36671145579784,6.0,-6.0,-4.2962117497322785,15.350485,1.5038613,-8.17738,-2.3091185,16.258162,-10.351022,1.6381911,-0.19145101,0.40427685,-0.32822558,-0.8319706,-13.883716,-0.3383537,-1.3441988,3.4159687,-3.364905,-1.9454303,0
0.19000000000000003,20.36671145579784,6.0,-6.0,-4.2962117497322785,15.350485,1.5038613,-8.17738,-2.3091185,16.118776,-10.353686,1.6247276,-0.21290253,0.38907066,-0.33569545,-0.83102673,-13.991917,-0.19386464,-1.3480254,3.8181438,-3.7766416,-2.0607839,0
0.20000000000000004,20.999999949960092,6.0,-6.0,-3.84934150745183,16.078999,2.7873812,-7.341324,-1.7149285,15.978354,-10.354883,1.6112407,-0.23600061,0.37176564,-0.343804,-0.8293932,-14.090831,-0.044778716,-1.3488662,4.1576433,-4.124125,-2.170477,0
0.21000000000000005,20.999999949960092,6.0,-6.0,-3.84934150745183,16.078999,2.7873812,-7.341324,-1.7149285,15.836981,-10.354543,1.5977767,-0.26039645,0.35257086,-0.35231808,-0.8268976,-14.182025,0.11348395,-1.3434093,4.4443073,-4.41731,-2.2528594,0
0.22000000000000006,20.999999949960092,6.0,-6.0,-3.84934150745183,16.078999,2.7873812,-7.341324,-1.7149285,15.694754,-10.3526,1.584384,-0.28577575,0.3316701,-0.36104032,-0.82339376,-14.261311,0.27585894,-1.3345792,4.6863165,-4.664724,-2.3311992,0
0.23000000000000007,20.999999949960092,6.0,-6.0,-3.84934150745183,16.078999,2.7873812,-7.341324,-1.7149285,15.551798,-10.349015,1.5710967,-0.31189853,0.30924624,-0.36978465,-0.8187464,-14.327693,0.4417158,-1.3223649,4.8906326,-4.873507,-2.4056947,0
0.24000000000000007,20.999999949960092,6.0,-6.0,-3.84934150745183,18.099186,1.6555604,-6.819845,-0.927163,15.408247,-10.343758,1.5579481,-0.33854777,0.28546554,-0.3783935,-0.8128428,-14.380305,0.6102496,-1.3068372,5.063129,-5.0496864,-2.476535,0
0.25000000000000006,20.999999949960092,6.0,-6.0,-3.84934150745183,18.099186,1.6555604,-6.819845,-0.927163,15.264242,-10.336805,1.544971,-0.36552632,0.26048082,-0.3867336,-0.80559146,-14.418418,0.78050715,-1.2881393,5.208766,-5.198351,-2.543899,0
0.26000000000000006,20.999999949960092,6.0,-6.0,-3.84934150745183,18.099186,1.6555604,-6.819845,-0.927163,15.119931,-10.328146,1.5321957,-0.39265466,0.23443373,-0.39469263,-0.79691976,-14.441443,0.95141274,-1.2664807,5.331729,-5.3237934,-2.6079574,0
0.2700000000000001,20.999999949960092,6.0,-6.0,-3.84934150745183,18.099186,1.6555604,-6.819845,-0.927163,14.975467,-10.317779,1.5196506,-0.41976842,0.20745638,-0.40217623,-0.7867724,-14.448941,1.1217928,-1.2421286,5.4355507,-5.42964,-2.6688724,0
0.2800000000000001,21.0,5.999999901550835,-5.999999973624798,-3.4440654939171003,21.262527,0.22652332,-6.5713,-1.536764,14.831007,-10.305716,1.5073613,-0.44671687,0.17967273,-0.4091053,-0.7751095,-14.44063,1.2903998,-1.2154006,5.523213,-5.5189476,-2.7267985,0
0.2900000000000001,21.0,5.999999901550835,-5.999999973624798,-3.4440654939171003,21.262527,0.22652332,-6.5713,-1.536764,14.686709,-10.291982,1.4953496,-0.4733227,0.15117908,-0.41542274,-0.7619283,-14.416383,1.4559344,-1.1866574,5.597306,-5.594227,-2.7619948,0
0.3000000000000001,21.0,5.999999901550835,-5.999999973624798,-3.4440654939171003,21.262527,0.22652332,-6.5713,-1.536764,14.542734,-10.276613,1.4836338,-0.49942365,0.12206659,-0.42108107,-0.7472395,-14.376231,1.6170683,-1.1562972,5.6598687,-5.657743,-2.7954643,0
0.3100000000000001,21.0,5.999999901550835,-5.999999973624798,-3.4440654939171003,21.262527,0.22652332,-6.5713,-1.536764,14.39924,-10.259661,1.4722278,-0.5249078,0.09244193,-0.42603275,-0.73104215,-14.320366,1.7724652,-1.1247492,5.712696,-5.711333,-2.8272913,0
0.3200000000000001,21.0,3.9221175339216128,-5.999999556802211,-0.7169313283590801,21.897326,-1.6731187,-6.310554,0.59447825,14.25638,-10.241188,1.4611412,-0.54967207,0.062406726,-0.43023878,-0.7133449,-14.249128,1.9207996,-1.0924675,5.757304,-5.756546,-2.8575563,0
0.3300000000000001,21.0,3.9221175339216128,-5.999999556802211,-0.7169313283590801,21.897326,-1.6731187,-6.310554,0.59447825,14.114307,-10.221274,1.4503794,-0.5733487,0.03237816,-0.43310758,-0.6947238,-14.1630745,2.0607758,-1.0598816,5.4714355,-5.793605,-2.7525153,0
0.34000000000000014,21.0,3.9221175339216128,-5.999999556802211,-0.7169313283590801,21.897326,-1.6731187,-6.310554,0.59447825,13.9731655,-10.2000065,1.439944,-0.59568053,0.0027040085,-0.43421122,-0.67573553,-14.0632515,2.19118,-1.0271823,5.2301426,-5.825018,-2.6526287,0
0.35000000000000014,21.0,3.9221175339216128,-5.999999556802211,-0.7169313283590801,21.897326,-1.6731187,-6.310554,0.59447825,13.833085,-10.177487,1.4298357,-0.6167243,-0.026624087,-0.4337377,-0.65636444,-13.950859,2.3109467,-0.99450415,5.0264726,-5.8516426,-2.5576434,0
0.36000000000000015,21.0,1.6619630354915234,-4.5455269469809725,2.3817719689081205,20.703836,-2.911099,-4.8358974,2.457947,13.694186,-10.153827,1.4200532,-0.63652295,-0.05561279,-0.4318446,-0.6365976,-13.827091,2.4191518,-0.96201706,4.8545566,-5.874206,-2.4673193,0
0.37000000000000016,21.0,1.6619630354915234,-4.5455269469809725,2.3817719689081205,20.703836,-2.911099,-4.8358974,2.457947,13.556644,-10.129096,1.4106605,-0.6546272,-0.08346627,-0.42871082,-0.61701226,-13.680112,2.524494,-0.9171688,4.4340596,-5.589557,-2.2485,0
0.38000000000000017,21.0,1.6619630354915234,-4.5455269469809725,2.3817719689081205,20.703836,-2.911099,-4.8358974,2.457947,13.420603,-10.103392,1.4016956,-0.6707463,-0.10959329,-0.42454594,-0.5982057,-13.527578,2.6139297,-0.8764448,4.0786653,-5.349834,-2.0351002,0
0.3900000000000002,21.0,1.6619630354915234,-4.5455269469809725,2.3817719689081205,20.703836,-2.911099,-4.8358974,2.457947,13.286105,-10.076869,1.3931174,-0.6851154,-0.1342769,-0.41949907,-0.58017904,-13.371387,2.688302,-0.8398557,3.7782927,-5.147945,-1.8269888,0
0.4000000000000002,21.0,0.7147678246577183,-2.179105383530956,2.856529997529145,20.11172,-1.2920015,-4.0041227,2.5061452,13.153187,-10.049672,1.3848883,-0.6979478,-0.1577531,-0.4136397,-0.5629259,-13.211872,2.748924,-0.8063775,3.5061803,-4.9961195,-1.6255909,0
0.4100000000000002,21.0,0.7147678246577183,-2.179105383530956,2.856529997529145,20.11172,-1.2920015,-4.0041227,2.5061452,13.02191,-10.021924,1.3770075,-0.70924526,-0.179403,-0.40712717,-0.54683965,-13.043386,2.7985892,-0.7704418,3.0348818,-4.5929275,-1.4158604,0
0.4200000000000002,21.0,0.7147678246577183,-2.179105383530956,2.856529997529145,20.11172,-1.2920015,-4.0041227,2.5061452,12.892317,-9.993744,1.3694652,-0.7190295,-0.19877888,-0.40023395,-0.53225636,-12.875485,2.8355722,-0.7386379,2.63936,-4.25036,-1.2113242,0
0.4300000000000002,21.0,0.7147678246577183,-2.179105383530956,2.856529997529145,20.11172,-1.2920015,-4.0041227,2.5061452,12.7644,-9.96525,1.3622243,-0.72750765,-0.21628612,-0.39308083,-0.5190768,-12.708112,2.8614757,-0.70989645,2.3235111,-3.9432619,-1.0132093,0
0.4400000000000002,21.0,0.7147678246577183,-2.179105383530956,2.856529997529145,18.243748,-1.7244004,-1.0641643,2.7229788,12.638156,-9.936547,1.3552614,-0.7348053,-0.23227738,-0.3858412,-0.5071838,-12.54032,2.8776176,-0.68278176,2.073266,-3.667719,-0.82332015,0
0.45000000000000023,21.0,0.7147678246577183,-2.179105383530956,2.856529997529145,18.243748,-1.7244004,-1.0641643,2.7229788,12.5135975,-9.907728,1.3485664,-0.741071,-0.24702987,-0.37855455,-0.4964744,-12.371436,2.8849046,-0.6563063,1.8619397,-3.435237,-0.64274883,0
0.46000000000000024,21.0,0.7147678246577183,-2.179105383530956,2.856529997529145,18.243748,-1.7244004,-1.0641643,2.7229788,12.390732,-9.878879,1.342133,-0.74644274,-0.26076725,-0.37121063,-0.4868538,-12.201936,2.8839507,-0.63045615,1.6834848,-3.2390795,-0.47103822,0
0.47000000000000025,21.0,0.7147678246577183,-2.179105383530956,2.856529997529145,18.243748,-1.7244004,-1.0641643,2.7229788,12.269561,-9.850077,1.3359551,-0.7510319,-0.27367482,-0.36379564,-0.47823244,-12.032204,2.8752902,-0.6052195,1.5327928,-3.0735672,-0.3077535,0
0.48000000000000026,20.99999999032907,-0.15545275926874144,-0.09943549245618291,2.916645543799574,16.07146,-2.5354795,2.6000383,2.8273609,12.150086,-9.821398,1.3300266,-0.75492865,-0.2859058,-0.35629413,-0.47052675,-11.8625555,2.8593848,-0.58058953,1.4055482,-2.9339077,-0.1524812,0
0.49000000000000027,20.99999999032907,-0.15545275926874144,-0.09943549245618291,2.916645543799574,16.07146,-2.5354795,2.6000383,2.8273609,12.032309,-9.792913,1.3243413,-0.75801635,-0.29693878,-0.34915805,-0.46403387,-11.69324,2.8367183,-0.5565618,1.162402,-2.4917336,-0.0018782541,0
0.5000000000000002,20.99999999032907,-0.15545275926874144,-0.09943549245618291,2.916645543799574,16.07146,-2.5354795,2.6000383,2.8273609,11.916221,-9.764685,1.3188934,-0.76023954,-0.30637962,-0.34275925,-0.45900282,-11.5244,2.8081877,-0.5331016,0.95708346,-2.1185653,0.14133458,0
0.5100000000000002,20.99999999032907,-0.15545275926874144,-0.09943549245618291,2.916645543799574,16.07146,-2.5354795,2.6000383,2.8273609,11.801819,-9.736767,1.3136777,-0.76173836,-0.31451172,-0.33697048,-0.45528898,-11.356101,2.7747154,-0.51015043,0.7837167,-1.8036284,0.27751988,0
0.5200000000000002,20.9999998279338,-0.9810757324712831,1.8566101758889342,3.147872598137375,16.137854,-2.1039872,3.7944264,1.9419572,11.689097,-9.709205,1.308689,-0.76262105,-0.32156911,-0.33167937,-0.45275962,-11.188363,2.737077,-0.48764172,0.637337,-1.5378325,0.4070225,0
0.5300000000000002,20.9999998279338,-0.9810757324712831,1.8566101758889342,3.147872598137375,16.137854,-2.1039872,3.7944264,1.9419572,11.57805,-9.682036,1.3039235,-0.7628106,-0.32714957,-0.32722756,-0.45168054,-11.021171,2.6960018,-0.4654975,0.38489735,-1.008503,0.5415168,0
0.5400000000000003,20.9999998279338,-0.9810757324712831,1.8566101758889342,3.147872598137375,16.137854,-2.1039872,3.7944264,1.9419572,11.468672,-9.6552925,1.2993782,-0.7622571,-0.3309464,-0.3238812,-0.45226058,-10.854411,2.6525514,-0.44358382,0.1717662,-0.56175005,0.66941136,0
0.5500000000000003,20.9999998279338,-0.9810757324712831,1.8566101758889342,3.147872598137375,16.137854,-2.1039872,3.7944264,1.9419572,11.360961,-9.62899,1.2950516,-0.7610639,-0.33326146,-0.32144457,-0.45430383,-10.687947,2.6077685,-0.42174798,-0.008166824,-0.18468648,0.79103017,0
0.5600000000000003,20.99999978810168,-2.607447235212014,4.284054768317978,3.2733375493859613,17.763044,-1.3690921,4.3375206,1.7548643,11.254914,-9.603139,1.2909435,-0.75930613,-0.33434355,-0.31974873,-0.45763454,-10.521657,2.5625296,-0.39984462,-0.16006407,0.13356298,0.90668106,0
0.5700000000000003,20.99999978810168,-2.607447235212014,4.284054768317978,3.2733375493859613,17.763044,-1.3690921,4.3375206,1.7548643,11.150529,-9.577738,1.2870554,-0.7569378,-0.33346248,-0.31908092,-0.46263957,-10.355431,2.5176768,-0.37770697,-0.54217,0.7805649,1.0228136,0
0.5800000000000003,20.99999978810168,-2.607447235212014,4.284054768317978,3.2733375493859613,17.763044,-1.3690921,4.3375206,1.7548643,11.047805,-9.552777,1.2833914,-0.7539053,-0.3300381,-0.3196479,-0.46960294,-10.189172,2.474522,-0.3549973,-0.8647056,1.3266567,1.1332475,0
0.5900000000000003,20.99999978810168,-2.607447235212014,4.284054768317978,3.2733375493859613,17.763044,-1.3690921,4.3375206,1.7548643,10.946744,-9.528236,1.2799587,-0.75023437,-0.32445648,-0.32120398,-0.47823054,-10.022834,2.4343808,-0.331363,-1.1369458,1.7875837,1.2382624,0
0.6000000000000003,20.99999983079919,-3.4425014941706977,5.523826496593031,3.0497068277823756,17.445587,-1.8895477,4.9739413,1.8969542,10.847346,-9.504077,1.2767682,-0.74593073,-0.31703734,-0.32353753,-0.4882603,-9.856445,2.3983672,-0.30651417,-1.3667235,2.1766334,1.3381242,0
0.6100000000000003,20.99999983079919,-3.4425014941706977,5.523826496593031,3.0497068277823756,17.445587,-1.8895477,4.9739413,1.8969542,10.749612,-9.480252,1.2738333,-0.7409427,-0.3075438,-0.32667947,-0.4997011,-9.690115,2.3674796,-0.28020522,-1.6910406,2.6982527,1.422112,0
0.6200000000000003,20.99999983079919,-3.4425014941706977,5.523826496593031,3.0497068277823756,17.445587,-1.8895477,4.9739413,1.8969542,10.653541,-9.456706,1.2711699,-0.73520005,-0.29578695,-0.33062905,-0.51251864,-9.524049,2.3428707,-0.25216052,-1.9647497,3.1385446,1.5019785,0
0.6300000000000003,20.99999983079919,-3.4425014941706977,5.523826496593031,3.0497068277823756,17.445587,-1.8895477,4.9739413,1.8969542,10.559129,-9.433371,1.2687966,-0.7286678,-0.28207806,-0.33517584,-0.5264335,-9.35856,2.3256178,-0.22215766,-2.1957402,3.5101943,1.5779259,0
0.6400000000000003,20.99999983079919,-3.4425014941706977,5.523826496593031,3.0497068277823756,17.073986,-2.0975327,5.0169687,1.8838171,10.466367,-9.410167,1.2667339,-0.72131073,-0.2666816,-0.34014076,-0.5411987,-9.194056,2.3166208,-0.19006123,-2.3906734,3.823907,1.6501465,0
0.6500000000000004,20.99999983079919,-3.4425014941706977,5.523826496593031,3.0497068277823756,17.073986,-2.0975327,5.0169687,1.8838171,10.375242,-9.387008,1.2650028,-0.7130966,-0.24982436,-0.34537205,-0.5565961,-9.031032,2.3166213,-0.15581508,-2.5551722,4.0887175,1.7188233,0
0.6600000000000004,20.99999983079919,-3.4425014941706977,5.523826496593031,3.0497068277823756,17.073986,-2.0975327,5.0169687,1.8838171,10.285739,-9.363801,1.263625,-0.70399845,-0.23170245,-0.35074162,-0.5724339,-8.870051,2.3262148,-0.119434215,-2.693984,4.312252,1.7841301,0
0.6700000000000004,20.99999983079919,-3.4425014941706977,5.523826496593031,3.0497068277823756,17.073986,-2.0975327,5.0169687,1.8838171,10.197832,-9.340449,1.2626214,-0.69399536,-0.21248668,-0.35614192,-0.5885431,-8.711741,2.3458624,-0.08099662,-2.8111157,4.500947,1.8462323,0
0.6800000000000004,20.999999792460542,-3.673032307665894,5.546495463297151,2.5750256905129567,16.324848,-2.6834214,5.048893,1.6309046,10.111493,-9.316849,1.2620118,-0.6830726,-0.19232702,-0.36148265,-0.60477483,-8.55677,2.3758993,-0.04063518,-2.9099507,4.6602345,1.905287,0
0.6900000000000004,20.999999792460542,-3.673032307665894,5.546495463297151,2.5750256905129567,16.324848,-2.6834214,5.048893,1.6309046,10.026684,-9.292895,1.2618147,-0.67127097,-0.17126626,-0.36664918,-0.62099254,-8.405846,2.4165452,0.0014753565,-3.0292265,4.7982335,1.9381512,0
0.7000000000000004,20.999999792460542,-3.673032307665894,5.546495463297151,2.5750256905129567,16.324848,-2.6834214,5.048893,1.6309046,9.943359,-9.268482,1.2620467,-0.6586286,-0.14934832,-0.37154478,-0.63707,-8.259731,2.4679215,0.045149785,-3.1298747,4.9147344,1.9694028,0
0.7100000000000004,20.999999792460542,-3.673032307665894,5.546495463297151,2.5750256905129567,16.324848,-2.6834214,5.048893,1.6309046,9.861469,-9.2435,1.2627224,-0.64513713,-0.12669985,-0.37612486,-0.65289783,-8.119211,2.5300457,0.090168655,-3.214803,5.0130863,1.9991207,0
0.7200000000000004,20.9999995948366,-3.4981438740980284,4.811704837987115,2.0341057902014765,17.446636,-3.3663464,4.17701,1.0590972,9.780954,-9.217843,1.2638538,-0.6307947,-0.10343384,-0.38035285,-0.6683798,-7.9850636,2.6028306,0.13627191,-3.2864656,5.0961175,2.0273807,0
0.7300000000000004,20.9999995948366,-3.4981438740980284,4.811704837987115,2.0341057902014765,17.446636,-3.3663464,4.17701,1.0590972,9.701745,-9.191406,1.2654505,-0.61575925,-0.07986864,-0.38407135,-0.68333817,-7.8580422,2.6860662,0.18317147,-3.3194194,5.051719,2.0277107,0
0.7400000000000004,20.9999995948366,-3.4981438740980284,4.811704837987115,2.0341057902014765,17.446636,-3.3663464,4.17701,1.0590972,9.623767,-9.164087,1.2675189,-0.60018754,-0.0562689,-0.3871701,-0.69764477,-7.738808,2.779314,0.23058921,-3.3472428,5.0142517,2.0280244,0
0.7500000000000004,20.9999995948366,-3.4981438740980284,4.811704837987115,2.0341057902014765,17.446636,-3.3663464,4.17701,1.0590972,9.546941,-9.135789,1.2700629,-0.58408165,-0.032656092,-0.38968444,-0.7112864,-7.6279554,2.8820472,0.2782467,-3.3707352,4.9826326,2.028323,0
0.7600000000000005,20.99999785013127,-2.866246906456244,3.5846184540323054,1.4237209706244305,16.71214,-2.9402795,3.4120872,1.1816059,9.471178,-9.106417,1.2730836,-0.5674465,-0.00905114,-0.39164427,-0.7242496,-7.526037,2.9937105,0.32585698,-3.3905702,4.9559503,2.0286067,0
0.7700000000000005,20.99999785013127,-2.866246906456244,3.5846184540323054,1.4237209706244305,16.71214,-2.9402795,3.4120872,1.1816059,9.396387,-9.075887,1.2765789,-0.5505428,0.014055157,-0.3929887,-0.73638654,-7.4335237,3.1136885,0.37313396,-3.308428,4.742264,1.9989247,0
0.7800000000000005,20.99999785013127,-2.866246906456244,3.5846184540323054,1.4237209706244305,16.71214,-2.9402795,3.4120872,1.1816059,9.3224745,-9.044118,1.2805443,-0.5336209,0.036273893,-0.3936994,-0.7476188,-7.3506227,3.241156,0.4198377,-3.2391512,4.5618796,1.9706992,0
0.7900000000000005,20.99999785013127,-2.866246906456244,3.5846184540323054,1.4237209706244305,16.71214,-2.9402795,3.4120872,1.1816059,9.249342,-9.011041,1.284973,-0.5166699,0.057724927,-0.3938534,-0.7580236,-7.27743,3.3752792,0.46576315,-3.1807244,4.4096065,1.9438587,0
0.8000000000000005,18.433538261163303,-1.935341500704105,1.8394226028819927,0.833953620175604,16.47704,-3.1469235,2.7042282,0.7798245,9.176892,-8.976592,1.2898563,-0.4996782,0.07850988,-0.39351264,-0.76766264,-7.2140183,3.5152898,0.51072276,-3.1314476,4.2810645,1.9183354,0
0.8100000000000005,18.433538261163303,-1.935341500704105,1.8394226028819927,0.833953620175604,16.47704,-3.1469235,2.7042282,0.7798245,9.104994,-8.940805,1.2950968,-0.4830038,0.09802203,-0.39266938,-0.7764728,-7.1669354,3.6426992,0.53721213,-2.944304,3.9006279,1.8651245,0
0.8200000000000005,18.433538261163303,-1.935341500704105,1.8394226028819927,0.833953620175604,16.47704,-3.1469235,2.7042282,0.7798245,9.0335245,-8.903725,1.300597,-0.4669701,0.11579475,-0.39135313,-0.78445745,-7.1280966,3.7738366,0.5626763,-2.786448,3.5794678,1.8145245,0
0.8300000000000005,18.433538261163303,-1.935341500704105,1.8394226028819927,0.833953620175604,16.47704,-3.1469235,2.7042282,0.7798245,8.962404,-8.865317,1.3063468,-0.45151207,0.13209718,-0.38965282,-0.79174364,-7.097083,3.9079778,0.5871267,-2.6532938,3.3083491,1.7664076,0
0.8400000000000005,18.433538261163303,-1.935341500704105,1.8394226028819927,0.833953620175604,15.439663,-3.1089036,1.8247551,0.5545833,8.891557,-8.825557,1.3123361,-0.4365674,0.1471575,-0.38763645,-0.79843074,-7.073518,4.0445166,0.61058676,-2.540974,3.079476,1.7206517,0
0.8500000000000005,18.433538261163303,-1.935341500704105,1.8394226028819927,0.833953620175604,15.439663,-3.1089036,1.8247551,0.5545833,8.820909,-8.78442,1.3185552,-0.42207792,0.16116868,-0.38535592,-0.8045966,-7.057061,4.1829386,0.6330853,-2.4462273,2.8862662,1.6771412,0
0.8600000000000005,18.433538261163303,-1.935341500704105,1.8394226028819927,0.833953620175604,15.439663,-3.1089036,1.8247551,0.5545833,8.750391,-8.741893,1.3249946,-0.4079906,0.17429358,-0.3828509,-0.81030273,-7.047414,4.322805,0.6546521,-2.3663032,2.723163,1.6357658,0
0.8700000000000006,18.433538261163303,-1.935341500704105,1.8394226028819927,0.833953620175604,15.439663,-3.1089036,1.8247551,0.5545833,8.679938,-8.697961,1.3316451,-0.39425755,0.18666942,-0.38015163,-0.815598,-7.04431,4.463737,0.6753153,-2.2988818,2.585475,1.5964206,0
0.8800000000000006,15.952101378669695,-0.8908189145273311,0.15452982683985833,0.3573767789517699,14.327541,-2.4304883,1.6850563,0.74048984,8.609483,-8.652616,1.3384979,-0.3808362,0.19841163,-0.37728128,-0.8205214,-7.0475154,4.605404,0.6950995,-2.2420068,2.4692426,1.5590062,0
0.8900000000000006,15.952101378669695,-0.8908189145273311,0.15452982683985833,0.3573767789517699,14.327541,-2.4304883,1.6850563,0.74048984,8.538972,-8.605947,1.3454653,-0.3680787,0.20892943,-0.3743393,-0.8250677,-7.0555153,4.728374,0.6982876,-2.0308416,2.1085572,1.5000418,0
0.9000000000000006,15.952101378669695,-0.8908189145273311,0.15452982683985833,0.3573767789517699,14.327541,-2.4304883,1.6850563,0.74048984,8.468357,-8.558048,1.3524615,-0.3562819,0.21777162,-0.37142515,-0.8292661,-7.068229,4.851445,0.70087194,-1.8526918,1.8040696,1.443971,0
0.9100000000000006,15.952101378669695,-0.8908189145273311,0.15452982683985833,0.3573767789517699,14.327541,-2.4304883,1.6850563,0.74048984,8.397594,-8.508919,1.3594811,-0.34533173,0.22521389,-0.36854935,-0.83318436,-7.0851107,4.97439,0.7029986,-1.7023923,1.5470254,1.3906516,0
0.9200000000000006,13.79603029213285,0.08472115230658225,-1.4504384955161398,-0.015558893258561838,12.996975,-2.1547976,0.88804513,0.62365973,8.326643,-8.458562,1.3665203,-0.3351268,0.23148721,-0.3657152,-0.8368729,-7.105694,5.0970364,0.70479953,-1.5755872,1.3300334,1.3399485,0
0.9300000000000006,13.79603029213285,0.08472115230658225,-1.4504384955161398,-0.015558893258561838,12.996975,-2.1547976,0.88804513,0.62365973,8.255485,-8.407063,1.373509,-0.32594335,0.23613515,-0.3630269,-0.84036463,-7.126308,5.202732,0.6929318,-1.3162448,0.89670414,1.2734334,0
0.9400000000000006,13.79603029213285,0.08472115230658225,-1.4504384955161398,-0.015558893258561838,12.996975,-2.1547976,0.88804513,0.62365973,8.18411,-8.354509,1.380379,-0.31800324,0.23881188,-0.3605755,-0.8436991,-7.1491513,5.3079557,0.68108124,-1.0974388,0.53089577,1.2101822,0
0.9500000000000006,13.79603029213285,0.08472115230658225,-1.4504384955161398,-0.015558893258561838,12.996975,-2.1547976,0.88804513,0.62365973,8.112496,-8.300905,1.3871313,-0.31114656,0.23984213,-0.35833684,-0.8469111,-7.1736426,5.4126396,0.6694351,-0.912829,0.22208929,1.1500348,0
0.9600000000000006,12.750252655553988,0.746109209312456,-2.733089753099679,-0.33931823176060166,12.973457,-1.5694063,-0.06608215,0.11998286,8.040632,-8.246258,1.3937689,-0.30523357,0.23949681,-0.35628447,-0.85002065,-7.1992874,5.5167456,0.6581523,-0.75706726,-0.038595412,1.0928388,0
0.9700000000000006,12.750252655553988,0.746109209312456,-2.733089753099679,-0.33931823176060166,12.973457,-1.5694063,-0.06608215,0.11998286,7.9685154,-8.190604,1.4002689,-0.3003897,0.23755474,-0.3544263,-0.85306257,-7.223899,5.613413,0.64160836,-0.5359413,-0.44505388,1.0238034,0
0.9800000000000006,12.750252655553988,0.746109209312456,-2.733089753099679,-0.33931823176060166,12.973457,-1.5694063,-0.06608215,0.11998286,7.8961544,-8.133995,1.4066006,-0.29675844,0.23376682,-0.35280603,-0.8560463,-7.248392,5.7084894,0.6248553,-0.3358026,-0.80172324,0.95691454,0
0.9900000000000007,12.750252655553988,0.746109209312456,-2.733089753099679,-0.33931823176060166,12.973457,-1.5694063,-0.06608215,0.11998286,7.8235497,-8.076438,1.4127688,-0.294188,0.22840644,-0.35139534,-0.85895586,-7.2725086,5.8029704,0.60890406,-0.1669365,-1.1028062,0.893308,0
1.0000000000000007,12.368818928470688,0.9464105914408618,-3.356006999449512,-0.5924042204979508,11.90201,-1.6425788,-0.75756997,0.29207578,7.7507076,-8.017938,1.4187819,-0.29253304,0.22172526,-0.3501552,-0.86177355,-7.295807,5.896845,0.59387934,-0.024452489,-1.3569639,0.83282274,0
1.0100000000000007,12.368818928470688,0.9464105914408618,-3.356006999449512,-0.5924042204979508,11.90201,-1.6425788,-0.75756997,0.29207578,7.6776414,-7.958516,1.4246372,-0.2917999,0.21370633,-0.34903908,-0.86449647,-7.3172355,5.9873066,0.5773633,0.12704673,-1.6686368,0.7628864,0
1.0200000000000007,12.368818928470688,0.9464105914408618,-3.356006999449512,-0.5924042204979508,11.90201,-1.6425788,-0.75756997,0.29207578,7.6043687,-7.8981934,1.4303328,-0.29198635,0.2043457,-0.3480044,-0.86711,-7.337092,6.0771317,0.56194055,0.25487357,-1.9317287,0.6963819,0
1.0300000000000007,12.368818928470688,0.9464105914408618,-3.356006999449512,-0.5924042204979508,11.90201,-1.6425788,-0.75756997,0.29207578,7.5309067,-7.836976,1.43588,-0.29296416,0.19385515,-0.3470225,-0.86957896,-7.3550076,6.1662774,0.5476876,0.36273083,-2.15381,0.6331408,0
1.0400000000000007,12.368818928470688,0.9464105914408618,-3.356006999449512,-0.5924042204979508,11.101185,-1.7874441,-1.1596296,0.1709124,7.4572763,-7.774871,1.4412905,-0.2946231,0.18241306,-0.346068,-0.8718713,-7.3706684,6.2546935,0.5346489,0.45374116,-2.341272,0.573003,0
1.0500000000000007,12.368818928470688,0.9464105914408618,-3.356006999449512,-0.5924042204979508,11.101185,-1.7874441,-1.1596296,0.1709124,7.383502,-7.7118855,1.4465771,-0.29686832,0.17017,-0.34511888,-0.8739589,-7.3838034,6.342324,0.5228412,0.53053874,-2.4995103,0.5158161,0
1.0600000000000007,12.368818928470688,0.9464105914408618,-3.356006999449512,-0.5924042204979508,11.101185,-1.7874441,-1.1596296,0.1709124,7.30961,-7.648028,1.4517516,-0.29961833,0.15725343,-0.34415635,-0.87581754,-7.394182,6.4291058,0.5122578,0.5953455,-2.63308,0.46143538,0
1.0700000000000007,12.368818928470688,0.9464105914408618,-3.356006999449512,-0.5924042204979508,11.101185,-1.7874441,-1.1596296,0.1709124,7.2356286,-7.583307,1.4568262,-0.30280286,0.14377135,-0.3431646,-0.8774269,-7.401609,6.5149693,0.5028718,0.6500354,-2.7458253,0.4097232,0
1.0800000000000007,12.192352243580018,0.7089150784346149,-3.321223145638917,-0.7361930258709946,10.510117,-1.689995,-1.2559153,0.3205587,7.1615887,-7.5177317,1.461813,-0.30636135,0.12981547,-0.34213054,-0.8787701,-7.405917,6.599839,0.4946397,0.69618946,-2.840993,0.3605485,0
1.0900000000000007,12.192352243580018,0.7089150784346149,-3.321223145638917,-0.7361930258709946,10.510117,-1.689995,-1.2559153,0.3205587,7.0875216,-7.4513197,1.4667164,-0.3102406,0.11551141,-0.34096223,-0.8798592,-7.4069557,6.682439,0.48620844,0.6980895,-2.9159086,0.30673108,0
1.1000000000000008,12.192352243580018,0.7089150784346149,-3.321223145638917,-0.7361930258709946,10.510117,-1.689995,-1.2559153,0.3205587,7.013461,-7.384087,1.4715407,-0.31439883,0.10096475,-0.33958694,-0.88070416,-7.4046965,6.7638803,0.47880802,0.699691,-2.9791405,0.25555453,0
1.1100000000000008,12.192352243580018,0.7089150784346149,-3.321223145638917,-0.7361930258709946,10.510117,-1.689995,-1.2559153,0.3205587,6.93944,-7.316046,1.476296,-0.31880227,0.08622061,-0.3380215,-0.8812901,-7.399075,6.8440604,0.47238025,0.7010423,-3.03251,0.20688918,0
1.1200000000000008,12.022223949460802,0.13406152213379263,-2.8735031434528846,-0.7726179844859704,10.213886,-1.8741373,-0.9232883,0.36416355,6.8654914,-7.24721,1.4809914,-0.3234208,0.07131742,-0.33628058,-0.8816052,-7.3900385,6.922877,0.4668574,0.7021835,-3.0775557,0.16061187,0
1.1300000000000008,12.022223949460802,0.13406152213379263,-2.8735031434528846,-0.7726179844859704,10.213886,-1.8741373,-0.9232883,0.36416355,6.79165,-7.1775985,1.4856293,-0.3281569,0.05652234,-0.33423316,-0.88170636,-7.3777385,6.9991484,0.46086416,0.613491,-3.0457613,0.114818014,0
1.1400000000000008,12.022223949460802,0.13406152213379263,-2.8735031434528846,-0.7726179844859704,10.213886,-1.8741373,-0.9232883,0.36416355,6.717948,-7.107232,1.4902112,-0.33293843,0.04205098,-0.33178055,-0.881649,-7.3621206,7.0738673,0.45563757,0.5386365,-3.018919,0.07127126,0
1.1500000000000008,12.022223949460802,0.13406152213379263,-2.8735031434528846,-0.7726179844859704,10.213886,-1.8741373,-0.9232883,0.36416355,6.6444187,-7.0361266,1.4947445,-0.33777323,0.027863609,-0.32897845,-0.8814226,-7.343281,7.146931,0.45112744,0.47546127,-2.9962575,0.029861383,0
1.1600000000000008,11.730303838037932,-0.7045742547543277,-2.0877385138552023,-0.6585738006368966,10.622589,-2.8946514,-0.6979167,0.5914465,6.571093,-6.964299,1.4992361,-0.34266573,0.013926236,-0.325874,-0.8810176,-7.321305,7.2182455,0.44728068,0.42214334,-2.977126,-0.009516518,0
1.1700000000000008,11.730303838037932,-0.7045742547543277,-2.0877385138552023,-0.6585738006368966,10.622589,-2.8946514,-0.6979167,0.5914465,6.4980006,-6.891776,1.5036807,-0.3475012,0.0005977836,-0.3223212,-0.8805403,-7.296901,7.286036,0.44174415,0.2463741,-2.838431,-0.041365948,0
1.1800000000000008,11.730303838037932,-0.7045742547543277,-2.0877385138552023,-0.6585738006368966,10.622589,-2.8946514,-0.6979167,0.5914465,6.425165,-6.8185844,1.508073,-0.35219622,-0.011838178,-0.31821242,-0.8800898,-7.2697606,7.3519588,0.436793,0.09802356,-2.7213588,-0.07165252,0
1.1900000000000008,11.730303838037932,-0.7045742547543277,-2.0877385138552023,-0.6585738006368966,10.622589,-2.8946514,-0.6979167,0.5914465,6.3526134,-6.744744,1.5124187,-0.35679218,-0.0235108,-0.31363526,-0.87964714,-7.24012,7.4159493,0.4324256,-0.02718583,-2.62254,-0.10045291,0
1.2000000000000008,11.37505944054525,-1.5046018244640773,-1.05160016214645,-0.4279295529478266,9.810771,-3.172765,-0.58956736,1.1563112,6.2803698,-6.670273,1.5167238,-0.36132085,-0.03453009,-0.30866274,-0.87919384,-7.2081833,7.477954,0.42863795,-0.13286406,-2.5391288,-0.12784007,0
1.2100000000000009,11.37505944054525,-1.5046018244640773,-1.05160016214645,-0.4279295529478266,9.810771,-3.172765,-0.58956736,1.1563112,6.2084513,-6.595201,1.5209793,-0.36566743,-0.044517916,-0.30322486,-0.87884,-7.1751833,7.536112,0.4225556,-0.34678882,-2.3071287,-0.14256555,0
1.2200000000000009,11.37505944054525,-1.5046018244640773,-1.05160016214645,-0.4279295529478266,9.810771,-3.172765,-0.58956736,1.1563112,6.136872,-6.5195575,1.5251769,-0.36974666,-0.053180337,-0.2972738,-0.8786849,-7.1404667,7.592295,0.4170671,-0.52735025,-2.111308,-0.15656845,0
1.2300000000000009,11.37505944054525,-1.5046018244640773,-1.05160016214645,-0.4279295529478266,9.810771,-3.172765,-0.58956736,1.1563112,6.065647,-6.4433618,1.5293227,-0.37361768,-0.060717676,-0.29089397,-0.8786942,-7.104349,7.646511,0.41221377,-0.67975235,-1.9460257,-0.16988422,0
1.2400000000000009,11.37505944054525,-1.5046018244640773,-1.05160016214645,-0.4279295529478266,9.9742985,-3.512631,-0.21020141,1.3505841,5.9947886,-6.366634,1.5334233,-0.3773268,-0.06729976,-0.28415486,-0.8788349,-7.067099,7.698767,0.40803117,-0.80838674,-1.8065197,-0.18254659,0
1.2500000000000009,11.37505944054525,-1.5046018244640773,-1.05160016214645,-0.4279295529478266,9.9742985,-3.512631,-0.21020141,1.3505841,5.9243083,-6.289393,1.5374856,-0.38091007,-0.073070504,-0.27711383,-0.8790766,-7.028944,7.7490716,0.40454835,-0.91696036,-1.6887704,-0.1945876,0
1.260000000000001,11.37505944054525,-1.5046018244640773,-1.05160016214645,-0.4279295529478266,9.9742985,-3.512631,-0.21020141,1.3505841,5.8542123,-6.2116585,1.5415168,-0.38439557,-0.078151844,-0.26981843,-0.87939173,-6.9900775,7.797431,0.40178764,-1.008602,-1.589385,-0.20603776,0
1.270000000000001,11.37505944054525,-1.5046018244640773,-1.05160016214645,-0.4279295529478266,9.9742985,-3.512631,-0.21020141,1.3505841,5.7845087,-6.133451,1.5455239,-0.38780513,-0.08264711,-0.26230812,-0.8797559,-6.950666,7.84385,0.39976475,-1.0859525,-1.5054997,-0.21692605,0
1.280000000000001,10.994993493667096,-2.0114182884383283,-0.16571606950149145,-0.1186327924337412,9.642967,-3.1033669,0.33961818,0.805042,5.715201,-6.0547886,1.5495147,-0.39115557,-0.08664383,-0.25461584,-0.8801479,-6.9108515,7.8883324,0.39848927,-1.1512402,-1.4346973,-0.22728005,0
1.290000000000001,10.994993493667096,-2.0114182884383283,-0.16571606950149145,-0.1186327924337412,9.642967,-3.1033669,0.33961818,0.805042,5.646286,-5.975698,1.5534801,-0.3943549,-0.08983427,-0.24672654,-0.8806471,-6.8721156,7.929465,0.39470923,-1.2853509,-1.2367849,-0.2219487,0
1.300000000000001,10.994993493667096,-2.0114182884383283,-0.16571606950149145,-0.1186327924337412,9.642967,-3.1033669,0.33961818,0.805042,5.577759,-5.8962054,1.5574114,-0.3973299,-0.09197896,-0.23863055,-0.8813192,-6.83335,7.968783,0.39168805,-1.3985529,-1.0697408,-0.21687897,0
1.310000000000001,10.994993493667096,-2.0114182884383283,-0.16571606950149145,-0.1186327924337412,9.642967,-3.1033669,0.33961818,0.805042,5.5096188,-5.816329,1.5613166,-0.40011612,-0.093238294,-0.23035978,-0.8821266,-6.7947807,8.006341,0.38945463,-1.494106,-0.92874986,-0.21205801,0
1.320000000000001,10.700958624253552,-2.373776314377781,0.6144391501668276,0.20658292942823153,9.736633,-3.2478986,0.7456793,0.93849015,5.441862,-5.736085,1.5652033,-0.40274155,-0.09374782,-0.22194041,-0.8830359,-6.756599,8.042187,0.38802907,-1.5747617,-0.8097485,-0.2074736,1
1.330000000000001,10.700958624253552,-2.373776314377781,0.6144391501668276,0.20658292942823153,9.736633,-3.2478986,0.7456793,0.93849015,5.374463,-5.655511,1.5690242,-0.40507862,-0.093128815,-0.21309158,-0.88421136,-6.7233014,8.072446,0.37627476,-1.8356324,-0.567212,-0.15124083,1
1.340000000000001,10.700958624253552,-2.373776314377781,0.6144391501668276,0.20658292942823153,9.736633,-3.2478986,0.7456793,0.93849015,5.3073936,-5.5746417,1.5727316,-0.40700924,-0.091087215,-0.20358816,-0.88577527,-6.690808,8.101247,0.36532176,-2.0558412,-0.3625168,-0.097767435,1
1.350000000000001,10.700958624253552,-2.373776314377781,0.6144391501668276,0.20658292942823153,9.736633,-3.2478986,0.7456793,0.93849015,5.240643,-5.4934916,1.5763336,-0.40856475,-0.08784261,-0.19352472,-0.8876407,-6.6594157,8.128606,0.35523257,-2.2417243,-0.1897564,-0.046917967,1
1.360000000000001,10.854874073021987,-2.5001350573506107,1.1378752981760436,0.5123040910169517,10.129395,-3.5755172,1.2218376,1.2568511,5.1742005,-5.4120746,1.5798392,-0.40976956,-0.0835803,-0.1829807,-0.8897307,-6.6293807,8.154532,0.34604535,-2.3986304,-0.043946292,0.001436294,0
1.370000000000001,10.854874073021987,-2.5001350573506107,1.1378752981760436,0.5123040910169517,10.129395,-3.5755172,1.2218376,1.2568511,5.1080666,-5.330391,1.5833092,-0.4106383,-0.078430384,-0.17235899,-0.8919174,-6.597647,8.181859,0.34808788,-2.414462,0.14031857,0.026504725,0
1.380000000000001,10.854874073021987,-2.5001350573506107,1.1378752981760436,0.5123040910169517,10.129395,-3.5755172,1.2218376,1.2568511,5.0422406,-5.248442,1.5868044,-0.41119733,-0.07250426,-0.16198553,-0.89410293,-6.5678415,8.207704,0.35111117,-2.42783,0.2958491,0.050343037,0
1.390000000000001,10.854874073021987,-2.5001350573506107,1.1378752981760436,0.5123040910169517,10.129395,-3.5755172,1.2218376,1.2568511,4.976702,-5.1662416,1.5903345,-0.41147923,-0.06592125,-0.15181857,-0.89626443,-6.540103,8.232172,0.3550606,-2.4391162,0.4271261,0.0730116,0
1.400000000000001,11.246520348632359,-2.361652260103189,1.530323011310813,0.754256531604343,9.204642,-2.7991042,1.6966058,1.1875622,4.911431,-5.0838027,1.5939085,-0.4115105,-0.05878238,-0.14182296,-0.89838165,-6.5145516,8.255352,0.3598783,-2.4486449,0.5379322,0.09456779,0
1.410000000000001,11.246520348632359,-2.361652260103189,1.530323011310813,0.754256531604343,9.204642,-2.7991042,1.6966058,1.1875622,4.8464074,-5.0011344,1.5975535,-0.41126102,-0.051059075,-0.13208196,-0.90045065,-6.490454,8.278113,0.3692445,-2.4351025,0.6926444,0.12693892,0
1.420000000000001,11.246520348632359,-2.361652260103189,1.530323011310813,0.754256531604343,9.204642,-2.7991042,1.6966058,1.1875622,4.781613,-4.918244,1.6012961,-0.41070592,-0.042733297,-0.1226604,-0.902468,-6.4688444,8.29973,0.37937346,-2.4236748,0.82323223,0.15772158,0
1.430000000000001,11.246520348632359,-2.361652260103189,1.530323011310813,0.754256531604343,9.204642,-2.7991042,1.6966058,1.1875622,4.717022,-4.835143,1.6051434,-0.40987173,-0.033898454,-0.11350639,-0.904418,-6.449824,8.320305,0.39018923,-2.4140315,0.93345755,0.18699373,0
1.440000000000001,11.246520348632359,-2.361652260103189,1.530323011310813,0.754256531604343,10.031058,-2.8698313,1.6369785,1.4251513,4.6526074,-4.7518415,1.6091019,-0.40878028,-0.024633791,-0.10457637,-0.90628654,-6.4334793,8.339923,0.40161422,-2.4058928,1.0264956,0.2148295,0
1.450000000000001,11.246520348632359,-2.361652260103189,1.530323011310813,0.754256531604343,10.031058,-2.8698313,1.6369785,1.4251513,4.5883427,-4.668348,1.6131773,-0.4074496,-0.015006576,-0.09583387,-0.90806127,-6.4198833,8.358651,0.41356933,-2.3990235,1.1050266,0.24129935,0
1.460000000000001,11.246520348632359,-2.361652260103189,1.530323011310813,0.754256531604343,10.031058,-2.8698313,1.6369785,1.4251513,4.5242,-4.584671,1.6173747,-0.4058949,-0.0050739874,-0.08724846,-0.90973127,-6.409097,8.376544,0.4259739,-2.3932252,1.171313,0.2664703,0
1.470000000000001,11.246520348632359,-2.361652260103189,1.530323011310813,0.754256531604343,10.031058,-2.8698313,1.6369785,1.4251513,4.4601507,-4.500819,1.6216979,-0.40412897,0.0051153237,-0.07879482,-0.9112874,-6.4011736,8.393641,0.4387459,-2.3883302,1.227264,0.2904061,0
1.480000000000001,11.760350590224215,-2.175175553359194,1.6471010746093129,0.9180499852729913,12.986874,-3.0997596,1.4503878,1.6125131,4.3961663,-4.4168005,1.6261505,-0.40216273,0.01551991,-0.07045194,-0.9127215,-6.3961554,8.409975,0.45180216,-2.3841977,1.2744914,0.3131674,0
1.490000000000001,11.760350590224215,-2.175175553359194,1.6471010746093129,0.9180499852729913,12.986874,-3.0997596,1.4503878,1.6125131,4.332218,-4.332619,1.6307601,-0.3999856,0.026115758,-0.062289737,-0.9140291,-6.3939795,8.426285,0.47014555,-2.3516386,1.3325609,0.34284917,0
1.500000000000001,11.760350590224215,-2.175175553359194,1.6471010746093129,0.9180499852729913,12.986874,-3.0997596,1.4503878,1.6125131,4.268276,-4.248278,1.6355537,-0.3975891,0.03688195,-0.05436349,-0.91520876,-6.3948956,8.44187,0.48860496,-2.3241556,1.3815765,0.37107444,0
1.5100000000000011,11.760350590224215,-2.175175553359194,1.6471010746093129,0.9180499852729913,12.986874,-3.0997596,1.4503878,1.6125131,4.2043095,-4.1637845,1.6405321,-0.3949849,0.047789846,-0.04663753,-0.91625744,-6.3989167,8.456771,0.5070878,-2.3009572,1.4229503,0.39791465,0
1.5200000000000011,12.667875502249116,-1.9766285357326503,1.4438214943354601,1.0268577778802983,13.742861,-3.0959888,1.2918814,1.7129583,4.140287,-4.0791454,1.6456951,-0.3921831,0.058814906,-0.03908205,-0.91717255,-6.406051,8.471023,0.525503,-2.2813747,1.4578736,0.42343783,0
1.5300000000000011,12.667875502249116,-1.9766285357326503,1.4438214943354601,1.0268577778802983,13.742861,-3.0959888,1.2918814,1.7129583,4.076174,-3.9943614,1.6510864,-0.38918847,0.069829896,-0.031714123,-0.9179597,-6.4170876,8.485699,0.5527402,-2.2338774,1.4556522,0.45304784,0
1.5400000000000011,12.667875502249116,-1.9766285357326503,1.4438214943354601,1.0268577778802983,13.742861,-3.0959888,1.2918814,1.7129583,4.011934,-3.9094336,1.656749,-0.38600558,0.080733106,-0.024547031,-0.9186288,-6.431433,8.499716,0.5797177,-2.1937854,1.4537789,0.48120487,0
1.5500000000000012,12.667875502249116,-1.9766285357326503,1.4438214943354601,1.0268577778802983,13.742861,-3.0959888,1.2918814,1.7129583,3.947534,-3.8243692,1.6626798,-0.38264257,0.091539375,-0.017552689,-0.91918266,-6.4490366,8.513082,0.6063499,-2.1599448,1.452199,0.50798017,0
1.5600000000000012,13.003306402134855,-1.6167215625495845,0.9440435633423726,0.9960295481453103,15.746465,-3.5989113,-0.37085238,2.3459265,3.8829422,-3.7391744,1.6688746,-0.37910655,0.10226101,-0.010707492,-0.91962266,-6.4698496,8.525802,0.63255465,-2.1313803,1.4508667,0.53344166,0
1.5700000000000012,13.003306402134855,-1.6167215625495845,0.9440435633423726,0.9960295481453103,15.746465,-3.5989113,-0.37085238,2.3459265,3.8181233,-3.653854,1.6753455,-0.3754253,0.11267,-0.004048207,-0.91996986,-6.4944487,8.538194,0.66153365,-2.0511127,1.3718253,0.556141,0
1.5800000000000012,13.003306402134855,-1.6167215625495845,0.9440435633423726,0.9960295481453103,15.746465,-3.5989113,-0.37085238,2.3459265,3.7530427,-3.568413,1.6821033,-0.3716251,0.1225874,0.0023961575,-0.9202505,-6.5221496,8.549905,0.68993807,-1.983364,1.3051096,0.5777264,0
1.5900000000000012,13.003306402134855,-1.6167215625495845,0.9440435633423726,0.9960295481453103,15.746465,-3.5989113,-0.37085238,2.3459265,3.6876702,-3.4828584,1.6891422,-0.3677099,0.1320885,0.008654588,-0.9204709,-6.552808,8.560911,0.71772194,-1.9261818,1.2487972,0.5982527,0
1.6000000000000012,13.10540480766767,-1.20670973418691,0.3448126155076659,0.8784483983327364,13.408026,-2.68525,0.54081804,1.5190009,3.6219769,-3.3971975,1.6964556,-0.36368325,0.1412367,0.01475177,-0.92063487,-6.5863,8.5711975,0.7448433,-1.8779184,1.2012658,0.61777174,0
1.6100000000000012,13.10540480766767,-1.20670973418691,0.3448126155076659,0.8784483983327364,13.408026,-2.68525,0.54081804,1.5190009,3.5559335,-3.311437,1.7040416,-0.35958213,0.14980519,0.020646548,-0.9207781,-6.6227856,8.580816,0.7722455,-1.773199,1.0677296,0.63056326,0
1.6200000000000012,13.10540480766767,-1.20670973418691,0.3448126155076659,0.8784483983327364,13.408026,-2.68525,0.54081804,1.5190009,3.4895122,-3.225584,1.7118982,-0.35544083,0.15761857,0.026307013,-0.92093736,-6.661801,8.589654,0.79894274,-1.6848166,0.9550139,0.642727,0
1.6300000000000012,13.10540480766767,-1.20670973418691,0.3448126155076659,0.8784483983327364,13.408026,-2.68525,0.54081804,1.5190009,3.4226894,-3.1396465,1.7200181,-0.35125822,0.16479504,0.031765364,-0.9211138,-6.7031417,8.597679,0.82494426,-1.6102226,0.85987234,0.6542939,0
1.6400000000000012,13.10540480766767,-1.20670973418691,0.3448126155076659,0.8784483983327364,13.580244,-2.436306,0.1181725,1.521339,3.355442,-3.0536332,1.7283947,-0.3470332,0.17143413,0.03704918,-0.9213062,-6.746636,8.604862,0.8502598,-1.5472665,0.77956486,0.6652933,0
1.6500000000000012,13.10540480766767,-1.20670973418691,0.3448126155076659,0.8784483983327364,13.580244,-2.436306,0.1181725,1.521339,3.2877498,-2.9675524,1.7370211,-0.3427648,0.17761958,0.04218207,-0.9215116,-6.7921352,8.61118,0.87489796,-1.4941325,0.71177834,0.6757528,0
1.6600000000000013,13.10540480766767,-1.20670973418691,0.3448126155076659,0.8784483983327364,13.580244,-2.436306,0.1181725,1.521339,3.2195928,-2.881413,1.7458904,-0.3384522,0.18342182,0.047184236,-0.9217264,-6.8395133,8.616613,0.89886624,-1.4492881,0.65456057,0.6856991,0
1.6700000000000013,13.10540480766767,-1.20670973418691,0.3448126155076659,0.8784483983327364,13.580244,-2.436306,0.1181725,1.521339,3.150953,-2.7952235,1.7549961,-0.33409488,0.18890014,0.052072957,-0.9219464,-6.88866,8.621144,0.92217,-1.4114405,0.6062637,0.69515735,0
1.6800000000000013,12.941340220446996,-0.7853434384872514,-0.30716705944456,0.7053906216983284,14.392478,-2.2116835,-0.22981682,1.6226982,3.0818136,-2.7089932,1.7643315,-0.3296926,0.19410443,0.056863025,-0.9221672,-6.939482,8.624755,0.944813,-1.3794978,0.5654969,0.70415145,0
1.6900000000000013,12.941340220446996,-0.7853434384872514,-0.30716705944456,0.7053906216983284,14.392478,-2.2116835,-0.22981682,1.6226982,3.012161,-2.6227317,1.7738825,-0.32528326,0.1987797,0.06150133,-0.9224394,-6.9912257,8.627396,0.96530116,-1.2867774,0.42944786,0.70421225,0
1.7000000000000013,12.941340220446996,-0.7853434384872514,-0.30716705944456,0.7053906216983284,14.392478,-2.2116835,-0.22981682,1.6226982,2.9419842,-2.5364485,1.7836355,-0.3209009,0.20272729,0.06594623,-0.92280805,-7.0443497,8.629087,0.9851951,-1.2085264,0.31460887,0.70427006,0
1.7100000000000013,12.941340220446996,-0.7853434384872514,-0.30716705944456,0.7053906216983284,14.392478,-2.2116835,-0.22981682,1.6226982,2.87127,-2.4501534,1.7935846,-0.31653988,0.20606144,0.07022512,-0.9232599,-7.098671,8.6298065,1.0045527,-1.1424869,0.21767358,0.704325,0
1.7200000000000013,11.984064825915844,-0.39765787821852533,-1.1912436761944838,0.4799671967477939,13.410452,-1.7815453,-1.2225884,1.7473332,2.800007,-2.363856,1.8037248,-0.31219524,0.20887822,0.07436147,-0.9237822,-7.1540346,8.629534,1.0234246,-1.0867531,0.13585049,0.70437735,0
1.7300000000000013,11.984064825915844,-0.39765787821852533,-1.1912436761944838,0.4799671967477939,13.410452,-1.7815453,-1.2225884,1.7473332,2.728207,-2.2775657,1.8140084,-0.3078944,0.21088132,0.07834768,-0.92444086,-7.206128,8.628342,1.0332435,-0.9791945,-0.071052626,0.6933655,0
1.7400000000000013,11.984064825915844,-0.39765787821852533,-1.1912436761944838,0.4799671967477939,13.410452,-1.7815453,-1.2225884,1.7473332,2.6558826,-2.1912925,1.8243885,-0.30366182,0.21184036,0.08217819,-0.9252886,-7.2588224,8.626169,1.042755,-0.88842696,-0.24569885,0.682894,0
1.7500000000000013,11.984064825915844,-0.39765787821852533,-1.1912436761944838,0.4799671967477939,13.410452,-1.7815453,-1.2225884,1.7473332,2.583029,-2.105046,1.8348627,-0.2994889,0.21191804,0.085874565,-0.9262947,-7.311893,8.622972,1.052056,-0.8118287,-0.3931167,0.67293626,0
1.7600000000000013,11.099536987662573,-0.041174707950540256,-1.862976016570776,0.24392026869446892,15.417461,-2.2653632,-3.9821424,2.496147,2.5096438,-2.0188367,1.8454293,-0.29536793,0.21125115,0.089455344,-0.9274307,-7.365148,8.618717,1.0612289,-0.7471876,-0.51755106,0.66346717,0
1.7700000000000014,11.099536987662573,-0.041174707950540256,-1.862976016570776,0.24392026869446892,15.417461,-2.2653632,-3.9821424,2.496147,2.4357455,-1.9326735,1.8560476,-0.29132485,0.20966074,0.09288914,-0.92873186,-7.414479,8.61377,1.0624361,-0.6370042,-0.7273132,0.6428799,0
1.7800000000000014,11.099536987662573,-0.041174707950540256,-1.862976016570776,0.24392026869446892,15.417461,-2.2653632,-3.9821424,2.496147,2.3613548,-1.8465649,1.8666782,-0.2873819,0.20701012,0.0961514,-0.93022174,-7.4635963,8.607783,1.0636914,-0.5440222,-0.90437335,0.6233029,0
1.7900000000000014,11.099536987662573,-0.041174707950540256,-1.862976016570776,0.24392026869446892,15.417461,-2.2653632,-3.9821424,2.496147,2.286475,-1.7605215,1.8773221,-0.28352723,0.20346199,0.09926614,-0.9318588,-7.512288,8.600731,1.0650865,-0.46555543,-1.0538294,0.60468644,0
1.8000000000000014,10.536652837034612,0.20832194210599625,-2.20364350944115,0.031061103497567126,14.425577,-1.7942771,-4.5360427,2.4979072,2.211111,-1.6745541,1.8879808,-0.27975044,0.19915324,0.102253854,-0.9336064,-7.56037,8.592593,1.0666947,-0.39933735,-1.1799846,0.5869836,0
1.8100000000000014,10.536652837034612,0.20832194210599625,-2.20364350944115,0.031061103497567126,14.425577,-1.7942771,-4.5360427,2.4979072,2.1352823,-1.5886712,1.8986316,-0.2760725,0.19404133,0.1050818,-0.9354618,-7.605278,8.583823,1.0635068,-0.3045359,-1.339582,0.55970436,0
1.8200000000000014,10.536652837034612,0.20832194210599625,-2.20364350944115,0.031061103497567126,14.425577,-1.7942771,-4.5360427,2.4979072,2.0590088,-1.5028812,1.909252,-0.2725114,0.18809763,0.107724644,-0.9374173,-7.649273,8.574002,1.0606428,-0.22453178,-1.474299,0.53376365,0
1.8300000000000014,10.536652837034612,0.20832194210599625,-2.20364350944115,0.031061103497567126,14.425577,-1.7942771,-4.5360427,2.4979072,1.9823005,-1.4171947,1.9198457,-0.26905432,0.18144733,0.11020853,-0.9394359,-7.692188,8.563128,1.0581566,-0.15701436,-1.5880138,0.5090959,0
1.8400000000000014,10.536652837034612,0.20832194210599625,-2.20364350944115,0.031061103497567126,14.06163,-1.7729746,-4.623123,2.2174027,1.9051692,-1.3316222,1.9304166,-0.2656902,0.17419611,0.1125556,-0.9414854,-7.733877,8.551205,1.0560863,-0.10003425,-1.6840004,0.48563862,0
1.8500000000000014,10.536652837034612,0.20832194210599625,-2.20364350944115,0.031061103497567126,14.06163,-1.7729746,-4.623123,2.2174027,1.8276277,-1.2461742,1.9409689,-0.26240936,0.16643327,0.11478455,-0.94353855,-7.774215,8.538236,1.0544565,-0.051946163,-1.7650224,0.46333236,0
1.8600000000000014,10.536652837034612,0.20832194210599625,-2.20364350944115,0.031061103497567126,14.06163,-1.7729746,-4.623123,2.2174027,1.74969,-1.160861,1.9515072,-0.2592034,0.15823443,0.11691121,-0.945572,-7.8130913,8.524228,1.0532804,-0.01136224,-1.8334126,0.4421207,0
1.8700000000000014,10.536652837034612,0.20832194210599625,-2.20364350944115,0.031061103497567126,14.06163,-1.7729746,-4.623123,2.2174027,1.6713712,-1.0756931,1.962036,-0.25606507,0.14966358,0.118948914,-0.94756633,-7.8504095,8.509191,1.0525613,0.022889186,-1.8911405,0.4219499,0
1.8800000000000014,10.220062783097033,0.3379720496944077,-2.188285769147386,-0.1467480680153922,12.90663,-1.7662379,-4.4737606,1.7225078,1.5926875,-0.9906806,1.9725599,-0.25298792,0.14077505,0.12090893,-0.94950503,-7.8860855,8.4931345,1.0522938,0.051796477,-1.9398677,0.40276888,0
1.8900000000000015,10.220062783097033,0.3379720496944077,-2.188285769147386,-0.1467480680153922,12.90663,-1.7662379,-4.4737606,1.7225078,1.5136607,-0.9058312,1.9830686,-0.2499952,0.13160507,0.12275295,-0.9513745,-7.919024,8.476585,1.0495135,0.09640081,-1.9785985,0.37580392,0
1.9000000000000015,10.220062783097033,0.3379720496944077,-2.188285769147386,-0.1467480680153922,12.90663,-1.7662379,-4.4737606,1.7225078,1.434313,-0.82115215,1.9935515,-0.24710739,0.1221848,0.12445118,-0.953163,-7.950228,8.459089,1.0471463,0.13404809,-2.011292,0.35016215,0
1.9100000000000015,10.220062783097033,0.3379720496944077,-2.188285769147386,-0.1467480680153922,12.90663,-1.7662379,-4.4737606,1.7225078,1.3546623,-0.7366527,2.0040128,-0.2443154,0.11255005,0.12602381,-0.954861,-7.9796367,8.440675,1.0451746,0.16582382,-2.0388894,0.32577863,0
1.9200000000000015,9.848044914846804,0.2953587929486416,-2.1247661597649006,-0.2784871607776593,12.669154,-1.7635946,-4.203534,1.6197401,1.2747266,-0.6523417,2.0144565,-0.24161124,0.10273131,0.1274878,-0.95646024,-8.007195,8.42137,1.0435754,0.19264388,-2.062185,0.3025916,0
1.9300000000000015,9.848044914846804,0.2953587929486416,-2.1247661597649006,-0.2784871607776593,12.669154,-1.7635946,-4.203534,1.6197401,1.1945295,-0.56822455,2.0248682,-0.23900501,0.09278099,0.12886922,-0.95794576,-8.031924,8.401933,1.0387961,0.20862573,-2.0719452,0.27407792,0
1.9400000000000015,9.848044914846804,0.2953587929486416,-2.1247661597649006,-0.2784871607776593,12.669154,-1.7635946,-4.203534,1.6197401,1.1140945,-0.48430586,2.0352337,-0.23650667,0.08274193,0.13018966,-0.95930606,-8.054794,8.381685,1.0343176,0.22211635,-2.080184,0.24696337,0
1.9500000000000015,9.848044914846804,0.2953587929486416,-2.1247661597649006,-0.2784871607776593,12.669154,-1.7635946,-4.203534,1.6197401,1.0334401,-0.40059358,2.0455558,-0.23410915,0.07262545,0.13145603,-0.96053994,-8.075783,8.360648,1.0301056,0.23350458,-2.0871387,0.22117935,0
1.9600000000000015,9.607984764412384,0.2735732510990282,-1.6059929271476454,-0.3555746665261814,12.774256,-1.5398098,-3.8356695,1.0964519,0.9525854,-0.31709555,2.055837,-0.23180589,0.062441356,0.13267408,-0.96164644,-8.094867,8.3388405,1.0261242,0.24311814,-2.093009,0.19666058,0
1.9700000000000015,9.607984764412384,0.2735732510990282,-1.6059929271476454,-0.3555746665261814,12.774256,-1.5398098,-3.8356695,1.0964519,0.8715515,-0.23381661,2.066068,-0.22962748,0.052398738,0.13380969,-0.96261096,-8.111617,8.316837,1.0200369,0.2478221,-2.017063,0.16956222,0
1.9800000000000015,9.607984764412384,0.2735732510990282,-1.6059929271476454,-0.3555746665261814,12.774256,-1.5398098,-3.8356695,1.0964519,0.7903593,-0.15076116,2.0762384,-0.22760023,0.04266426,0.13483723,-0.9634294,-8.126534,8.294148,1.0140982,0.251798,-1.9529607,0.1437936,0
1.9900000000000015,9.607984764412384,0.2735732510990282,-1.6059929271476454,-0.3555746665261814,12.774256,-1.5398098,-3.8356695,1.0964519,0.70902693,-0.06793584,2.0863502,-0.22571236,0.033188567,0.13577221,-0.964115,-8.1396675,8.270817,1.0082707,0.25515845,-1.898855,0.11928946,0
2.0000000000000013,,,,,13.235656,-1.7393087,-3.5753431,1.7879721,0.62757194,0.014653107,2.0964043,-0.22395319,0.023930028,0.13662757,-0.9646785,-8.151057,8.246881,1.0025204,0.25799844,-1.853187,0.09598772,0
2.010000000000001,,,,,13.235656,-1.7393087,-3.5753431,1.7879721,0.5460126,0.097002074,2.1063924,-0.22235563,0.015140714,0.13736436,-0.9651214,-8.160569,8.222832,0.9951069,0.25402227,-1.700022,0.072859526,0
2.020000000000001,,,,,13.235656,-1.7393087,-3.5753431,1.7879721,0.46436593,0.17910802,2.1163065,-0.22094688,0.00701877,0.13795362,-0.9654541,-8.168519,8.198286,0.98771083,0.25067276,-1.5707427,0.05086624,0
2.0300000000000007,,,,,13.235656,-1.7393087,-3.5753431,1.7879721,0.38264713,0.2609663,2.1261466,-0.21970955,-0.0005409188,0.13841833,-0.9656953,-8.175018,8.173304,0.980311,0.2478507,-1.4616243,0.029952157,0
2.0400000000000005,,,,,13.235656,-1.7393087,-3.5753431,1.7879721,0.3008702,0.34257278,2.1359127,-0.21862803,-0.007627155,0.1387776,-0.96585923,-8.18016,8.14793,0.9728904,0.2454727,-1.3695226,0.010064352,0
2.0500000000000003,,,,,13.20192,-1.683565,-2.996042,1.8917185,0.2190483,0.42392373,2.1456044,-0.21768846,-0.014314914,0.13904731,-0.9659566,-8.184025,8.1222105,0.9654353,0.24346866,-1.2917838,-0.008847567,1
2.06,,,,,13.20192,-1.683565,-2.996042,1.8917185,0.13718747,0.50495696,2.1554263,-0.21652883,-0.021185648,0.1400134,-0.96595144,-8.187853,8.084472,0.99848664,-0.010391191,-1.5109856,0.08022517,1
2.07,,,,,13.20192,-1.683565,-2.996042,1.8917185,0.055297747,0.5856132,2.1655638,-0.21480475,-0.028772859,0.14241897,-0.9657884,-8.189792,8.046741,1.0285616,-0.25484207,-1.726235,0.16762753,1
2.0799999999999996,,,,,13.20192,-1.683565,-2.996042,1.8917185,-0.026601737,0.6658894,2.1759908,-0.21253282,-0.03705222,0.14618906,-0.9654455,-8.189797,8.008295,1.056757,-0.47752342,-1.9243107,0.25222915,1
2.0899999999999994,,,,,14.412061,-2.8375978,-2.9691937,2.0904918,-0.10849125,0.7457738,2.186697,-0.20974596,-0.045929454,0.15114234,-0.9649106,-8.18778,7.9683323,1.0844641,-0.66546834,-2.0915117,0.3326794,1
2.099999999999999,,,,,14.412061,-2.8375978,-2.9691937,2.0904918,-0.19034834,0.8252307,2.1977348,-0.20647833,-0.05519197,0.1575348,-0.9641072,-8.18327,7.922712,1.1229961,-1.0040562,-2.2285144,0.41893575,1
2.109999999999999,,,,,14.412061,-2.8375978,-2.9691937,2.0904918,-0.2721487,0.9042197,2.2091537,-0.20275977,-0.06466559,0.16555785,-0.96296245,-8.17644,7.8746767,1.1606007,-1.2898393,-2.3441691,0.5009595,1
2.1199999999999988,,,,,14.412061,-2.8375978,-2.9691937,2.0904918,-0.35386923,0.9827146,2.220943,-0.19861522,-0.07430663,0.1749498,-0.9614688,-8.167302,7.82384,1.1970431,-1.5310556,-2.4417973,0.5789583,1
2.1299999999999986,,,,,15.471268,-3.4722462,-2.6436567,2.4150426,-0.43548682,1.0606858,2.2330897,-0.1940658,-0.08407634,0.18548821,-0.95961607,-8.155861,7.7698936,1.2320902,-1.7346572,-2.5242045,0.65312964,1
2.1399999999999983,,,,,15.471268,-3.4722462,-2.6436567,2.4150426,-0.5169736,1.13808,2.2456276,-0.18913823,-0.09375892,0.19720572,-0.9573636,-8.141122,7.708373,1.2751715,-2.005482,-2.5430603,0.7395872,1
2.149999999999998,,,,,15.471268,-3.4722462,-2.6436567,2.4150426,-0.5983011,1.2148398,2.2585864,-0.18385425,-0.10317974,0.21011734,-0.9546734,-8.124022,7.642972,1.316227,-2.2340782,-2.5589774,0.8218022,1
2.159999999999998,,,,,15.471268,-3.4722462,-2.6436567,2.4150426,-0.6794463,1.2909253,2.2719443,-0.17822431,-0.11236125,0.22402343,-0.9515375,-8.104664,7.5734644,1.354976,-2.4270315,-2.5724094,0.899983,1
2.1699999999999977,,,,,11.792615,-1.8942993,-2.343287,2.6054072,-0.76038694,1.3662945,2.285677,-0.17225802,-0.121320434,0.23875332,-0.9479475,-8.083132,7.4996886,1.3911408,-2.5899005,-2.583741,0.97432745,1
2.1799999999999975,,,,,11.792615,-1.8942993,-2.343287,2.6054072,-0.8411294,1.4409963,2.2996004,-0.16589446,-0.1300583,0.253547,-0.94407463,-8.0651045,7.4401507,1.3932172,-2.4813125,-2.5463033,1.0543649,1
2.1899999999999973,,,,,11.792615,-1.8942993,-2.343287,2.6054072,-0.92168343,1.5150867,2.3135333,-0.1590841,-0.13857289,0.26780406,-0.94009036,-8.045453,7.377454,1.3930365,-2.389665,-2.514699,1.1304752,1
2.199999999999997,,,,,11.792615,-1.8942993,-2.343287,2.6054072,-1.0020328,1.5885351,2.327453,-0.15185241,-0.14687245,0.28160387,-0.93598485,-8.024156,7.3117948,1.3905426,-2.3123152,-2.4880197,1.2028506,1
2.209999999999997,,,,,12.788149,-1.8001703,-2.3406258,2.6764956,-1.0821608,1.6613129,2.341336,-0.14422339,-0.15496418,0.29501235,-0.93174696,-8.001189,7.243353,1.385682,-2.2470329,-2.4654987,1.2716744,1
2.2199999999999966,,,,,12.788149,-1.8001703,-2.3406258,2.6764956,-1.1620405,1.7333633,2.355197,-0.13620599,-0.16285613,0.30805025,-0.9273779,-7.974451,7.166299,1.3860707,-2.177251,-2.4460654,1.3406093,1
2.2299999999999964,,,,,12.788149,-1.8001703,-2.3406258,2.6764956,-1.2416434,1.8046297,2.369048,-0.12780951,-0.17055444,0.32073653,-0.9228775,-7.945853,7.0865927,1.3837903,-2.118356,-2.4296618,1.4061617,1
