time-since-start [s],throttle_mpc,roll_mpc,pitch_mpc,yaw_mpc,throttle_nw,roll_nw,pitch_nw,yaw_nw,position_x [m],position_y [m],position_z [m],rotation_w [quaternion],rotation_x [quaternion],rotation_y [quaternion],rotation_z [quaternion],velocity_x [m/s],velocity_y [m/s],velocity_z [m/s],omega_x [rad/s],omega_y [rad/s],omega_z [rad/s],network_used
0.0,9.038681315118389,5.999999220600298,-5.9999998492434266,-1.3911951486063585,12.681431,1.9551563,-2.5903938,-0.8469237,17.22177,-9.79818,2.153714,-0.18227687,0.383728,-0.20329528,-0.8821559,-10.829979,-0.76580685,0.35727906,0.6334757,0.07990972,-0.10823199,0
0.01,9.038681315118389,5.999999220600298,-5.9999998492434266,-1.3911951486063585,12.862212,1.9875376,-1.2264855,-0.4593876,17.113087,-9.805522,2.15719,-0.1847045,0.38211522,-0.20669784,-0.88156015,-10.9056635,-0.70275366,0.33752808,1.1012152,-0.49918607,-0.13815553,0
0.02,9.038681315118389,5.999999220600298,-5.9999998492434266,-1.3911951486063585,12.862212,1.9875376,-1.2264855,-0.4593876,17.003668,-9.81224,2.1604557,-0.18870173,0.37765256,-0.21151656,-0.8814937,-10.977871,-0.6408276,0.3152568,1.5398893,-1.031887,-0.17053676,0
0.03,9.038681315118389,5.999999220600298,-5.9999998492434266,-1.3911951486063585,12.862212,1.9875376,-1.2264855,-0.4593876,16.893547,-9.818342,2.1634881,-0.19417301,0.3705364,-0.2176439,-0.88183385,-11.046132,-0.57965446,0.29095215,1.9515079,-1.5229057,-0.20502937,0
0.04,9.038681315118389,5.999999220600298,-5.9999998492434266,-1.3911951486063585,11.271458,2.7925684,-2.6230888,-0.2892475,16.782764,-9.823835,2.1662693,-0.20102258,0.360933,-0.22497232,-0.88244265,-11.11005,-0.5189351,0.2650056,2.3379748,-1.9764265,-0.2413226,0
0.05,9.038681315118389,5.999999220600298,-5.9999998492434266,-1.3911951486063585,11.271458,2.7925684,-2.6230888,-0.2892475,16.671366,-9.828723,2.168784,-0.20915484,0.34898424,-0.23339497,-0.88317126,-11.169283,-0.45844272,0.23772095,2.7010858,-2.3961687,-0.27913776,0
0.060000000000000005,9.038681315118389,5.999999220600298,-5.9999998492434266,-1.3911951486063585,11.271458,2.7925684,-2.6230888,-0.2892475,16.559399,-9.833005,2.17102,-0.2184742,0.33481255,-0.24280597,-0.88386375,-11.223531,-0.3980187,0.20932192,3.0425274,-2.7854426,-0.31822512,0
0.07,9.038681315118389,5.999999220600298,-5.9999998492434266,-1.3911951486063585,11.271458,2.7925684,-2.6230888,-0.2892475,16.446915,-9.836683,2.1729672,-0.22888494,0.31852555,-0.25310054,-0.88436055,-11.2725315,-0.3375688,0.17995948,3.363878,-3.147197,-0.35836107,0
0.08,11.158398527114203,5.999999369707602,-5.999999874259107,-1.5563073691434361,13.180377,2.4416797,-4.9526744,-0.67123365,16.333967,-9.839756,2.1746163,-0.24029112,0.30021963,-0.26417494,-0.8845,-11.316055,-0.27705902,0.14971887,3.6666114,-3.4840612,-0.3993456,0
0.09,11.158398527114203,5.999999369707602,-5.999999874259107,-1.5563073691434361,13.180377,2.4416797,-4.9526744,-0.67123365,16.220577,-9.842169,2.1760204,-0.25266868,0.27989298,-0.27597243,-0.88411427,-11.36082,-0.20542969,0.13088925,3.986262,-3.8326228,-0.4521556,0
0.09999999999999999,11.158398527114203,5.999999369707602,-5.999999874259107,-1.5563073691434361,13.180377,2.4416797,-4.9526744,-0.67123365,16.106775,-9.843864,2.177231,-0.26598656,0.25753957,-0.28843126,-0.8830245,-11.39866,-0.13376115,0.111103944,4.288701,-4.1594987,-0.50529456,0
0.10999999999999999,11.158398527114203,5.999999369707602,-5.999999874259107,-1.5563073691434361,13.180377,2.4416797,-4.9526744,-0.67123365,15.992627,-9.84484,2.1782439,-0.28011268,0.23328505,-0.3014182,-0.8810575,-11.429856,-0.060972143,0.09159079,4.555334,-4.4467645,-0.5568681,0
0.11999999999999998,11.158398527114203,5.999999369707602,-5.999999874259107,-1.5563073691434361,13.180377,2.4416797,-4.9526744,-0.67123365,15.8782,-9.845078,2.179066,-0.29485905,0.2073618,-0.31474975,-0.87806153,-11.454255,0.013451725,0.07294305,4.7803917,-4.6892247,-0.6059109,0
0.12999999999999998,16.41522015042979,5.999995910152598,-5.999999830513627,-1.3330411774144901,14.332441,1.9616847,-4.006474,-0.7608154,15.763565,-9.844566,2.1797047,-0.31004813,0.17999613,-0.32825667,-0.87391037,-11.471383,0.0892332,0.054907195,4.97036,-4.893865,-0.6525471,0
0.13999999999999999,16.41522015042979,5.999995910152598,-5.999999830513627,-1.3330411774144901,14.332441,1.9616847,-4.006474,-0.7608154,15.648771,-9.843109,2.180354,-0.32549804,0.15138267,-0.34179702,-0.8685098,-11.485301,0.20220685,0.07503857,5.130747,-5.0665455,-0.6859392,0
0.15,16.41522015042979,5.999995910152598,-5.999999830513627,-1.3330411774144901,14.332441,1.9616847,-4.006474,-0.7608154,15.533898,-9.840519,2.181205,-0.34104595,0.121697225,-0.35524717,-0.8617872,-11.487473,0.316082,0.09510155,5.2661333,-5.2122865,-0.7176927,0
0.16,19.19603006828592,3.4256133903293016,-5.999999685983016,0.003126223193029962,14.378598,1.6089483,-4.07126,-0.68950206,15.4190645,-9.836787,2.182254,-0.35656905,0.091108836,-0.36849493,-0.85367996,-11.477548,0.4302013,0.11452807,5.3804164,-5.335289,-0.747888,0
0.17,19.19603006828592,3.4256133903293016,-5.999999685983016,0.003126223193029962,14.378598,1.6089483,-4.07126,-0.68950206,15.304408,-9.83182,2.1835902,-0.37174034,0.060085796,-0.38058764,-0.84460175,-11.451588,0.56306726,0.15246189,5.075646,-5.4386797,-0.7110356,0
0.18000000000000002,19.19603006828592,3.4256133903293016,-5.999999685983016,0.003126223193029962,14.378598,1.6089483,-4.07126,-0.68950206,15.190083,-9.825531,2.185297,-0.38633597,0.029028825,-0.39079875,-0.83497214,-11.411536,0.69423574,0.188614,4.8184104,-5.5259876,-0.67599154,0
0.19000000000000003,19.19603006828592,3.4256133903293016,-5.999999685983016,0.003126223193029962,14.378598,1.6089483,-4.07126,-0.68950206,15.076224,-9.817945,2.1873555,-0.40038657,-0.0020133415,-0.39934194,-0.8247501,-11.357828,0.8226032,0.22269082,4.6012936,-5.5997133,-0.64266706,0
0.20000000000000004,19.41978393493082,1.2762841085500292,-5.999999365546053,0.8363821471391018,14.822382,-0.0065585338,-0.9332417,-0.31812602,14.96297,-9.809092,2.189743,-0.41390958,-0.032998256,-0.4063967,-0.8138992,-11.290939,0.9471642,0.25437608,4.418038,-5.661969,-0.61097777,0
0.21000000000000005,19.41978393493082,1.2762841085500292,-5.999999365546053,0.8363821471391018,14.822382,-0.0065585338,-0.9332417,-0.31812602,14.850452,-9.799009,2.1924412,-0.42687103,-0.063570544,-0.41141814,-0.8027922,-11.210499,1.0683739,0.28486723,3.9283273,-5.714307,-0.53995544,0
0.22000000000000006,19.41978393493082,1.2762841085500292,-5.999999365546053,0.8363821471391018,14.822382,-0.0065585338,-0.9332417,-0.31812602,14.7388,-9.787744,2.1954308,-0.4392777,-0.09344152,-0.41400778,-0.7917712,-11.118145,1.1837952,0.3126541,3.5149806,-5.7585597,-0.47241816,0
0.23000000000000007,19.41978393493082,1.2762841085500292,-5.999999365546053,0.8363821471391018,14.822382,-0.0065585338,-0.9332417,-0.31812602,14.628127,-9.775356,2.198685,-0.45118105,-0.12266902,-0.4144975,-0.7807561,-11.014785,1.292536,0.3378084,3.1660883,-5.795972,-0.40819493,0
0.24000000000000007,19.41978393493082,1.2762841085500292,-5.999999365546053,0.8363821471391018,14.113604,-1.5978347,0.8457481,-0.0009417683,14.518539,-9.761918,2.2021778,-0.46261248,-0.15130316,-0.4131638,-0.7696708,-10.901276,1.3938313,0.3603528,2.8715978,-5.8275967,-0.34712315,0
0.25000000000000006,19.41978393493082,1.2762841085500292,-5.999999365546053,0.8363821471391018,14.113604,-1.5978347,0.8457481,-0.0009417683,14.410134,-9.747507,2.205883,-0.4735888,-0.17938617,-0.41023743,-0.7584457,-10.778435,1.4870213,0.38026258,2.6230252,-5.8543262,-0.2890482,0
0.26000000000000006,19.41978393493082,1.2762841085500292,-5.999999365546053,0.8363821471391018,14.113604,-1.5978347,0.8457481,-0.0009417683,14.303,-9.732207,2.2097738,-0.48411655,-0.20695266,-0.40591148,-0.74701935,-10.647048,1.5715369,0.397469,2.413209,-5.8769174,-0.233823,0
0.2700000000000001,19.41978393493082,1.2762841085500292,-5.999999365546053,0.8363821471391018,14.113604,-1.5978347,0.8457481,-0.0009417683,14.19722,-9.716107,2.2138226,-0.49419492,-0.23403016,-0.40034807,-0.7353387,-10.507878,1.6468875,0.41186407,2.2361052,-5.896008,-0.18130773,0
0.2800000000000001,18.3590375503846,-1.1049689020187627,-5.4339133320538515,1.2316274251520485,14.605167,-2.4970553,3.2671404,0.43820822,14.092867,-9.699302,2.2180007,-0.5038184,-0.26063964,-0.39368376,-0.7233584,-10.3616705,1.7126532,0.4233052,2.086612,-5.9121394,-0.1313694,0
0.2900000000000001,18.3590375503846,-1.1049689020187627,-5.4339133320538515,1.2316274251520485,14.605167,-2.4970553,3.2671404,0.43820822,13.989966,-9.681904,2.2222488,-0.51311624,-0.28617233,-0.38545442,-0.7115071,-10.217532,1.7654325,0.42587337,1.5891478,-5.837447,-0.06448674,0
0.3000000000000001,18.3590375503846,-1.1049689020187627,-5.4339133320538515,1.2316274251520485,14.605167,-2.4970553,3.2671404,0.43820822,13.888534,-9.664027,2.226509,-0.5222322,-0.31015065,-0.37532565,-0.7001508,-10.068452,1.8085673,0.42580763,1.1692439,-5.7744493,-0.0008860463,0
0.3100000000000001,18.3590375503846,-1.1049689020187627,-5.4339133320538515,1.2316274251520485,14.605167,-2.4970553,3.2671404,0.43820822,13.788612,-9.645767,2.230757,-0.5311659,-0.33276498,-0.36357284,-0.6891628,-9.915401,1.8418754,0.42342874,0.81480765,-5.7213097,0.05959376,0
0.3200000000000001,16.143532066687364,-3.319916630953779,-0.5771526430625149,1.5980871014521905,14.454991,-3.8444345,4.1363816,0.46055543,13.690236,-9.627225,2.2349706,-0.53990483,-0.3541745,-0.35042372,-0.6784296,-9.759257,1.865225,0.41897938,0.5156308,-5.676482,0.1171058,0
0.3300000000000001,16.143532066687364,-3.319916630953779,-0.5771526430625149,1.5980871014521905,14.454991,-3.8444345,4.1363816,0.46055543,13.593338,-9.608507,2.2390747,-0.5480651,-0.3727478,-0.33651993,-0.6689083,-9.619991,1.877048,0.4016302,-0.082347766,-4.881293,0.18977799,0
0.34000000000000014,16.143532066687364,-3.319916630953779,-0.5771526430625149,1.5980871014521905,14.454991,-3.8444345,4.1363816,0.46055543,13.49784,-9.589711,2.2429998,-0.555449,-0.38726145,-0.3224434,-0.6614647,-9.479698,1.8809555,0.3832768,-0.58713627,-4.2101526,0.25888413,0
0.35000000000000014,16.143532066687364,-3.319916630953779,-0.5771526430625149,1.5980871014521905,14.454991,-3.8444345,4.1363816,0.46055543,13.403747,-9.57091,2.2467394,-0.562257,-0.3983747,-0.30826584,-0.65584844,-9.339197,1.8778862,0.364601,-1.0132498,-3.6437023,0.32459924,0
0.36000000000000015,14.462163613763764,-4.9643231525922475,5.999975155125213,2.1460443895766996,14.322845,-5.1569843,5.58014,-0.25907677,13.311056,-9.552175,2.250293,-0.5686263,-0.40663114,-0.29402694,-0.6518158,-9.199125,1.8686416,0.34620762,-1.3729439,-3.165607,0.38708964,0
0.37000000000000016,14.462163613763764,-4.9643231525922475,5.999975155125213,2.1460443895766996,14.322845,-5.1569843,5.58014,-0.25907677,13.219718,-9.533553,2.253642,-0.5742619,-0.4104273,-0.28057602,-0.65042305,-9.069016,1.8550125,0.32349366,-1.9991415,-1.8023791,0.46748093,0
0.38000000000000017,14.462163613763764,-4.9643231525922475,5.999975155125213,2.1460443895766996,14.322845,-5.1569843,5.58014,-0.25907677,13.12966,-9.515084,2.2567627,-0.5788758,-0.4085149,-0.26875177,-0.65252686,-8.943486,1.838343,0.3007117,-2.4897292,-0.61372674,0.5473288,0
0.3900000000000002,14.462163613763764,-4.9643231525922475,5.999975155125213,2.1460443895766996,14.322845,-5.1569843,5.58014,-0.25907677,13.040833,-9.49679,2.2596605,-0.582523,-0.4017564,-0.25850946,-0.6575956,-8.822044,1.8202292,0.2792617,-2.8772845,0.4161337,0.62566054,0
0.4000000000000002,13.207197277828588,-5.976599112043119,5.999999516587125,1.0521901280621555,11.04577,-6.8486834,5.4046526,-1.1428249,12.95321,-9.478681,2.2623596,-0.5852737,-0.39085302,-0.24964935,-0.66510457,-8.702985,1.8017625,0.26114804,-3.2031717,1.286643,0.70026624,0
0.4100000000000002,13.207197277828588,-5.976599112043119,5.999999516587125,1.0521901280621555,11.04577,-6.8486834,5.4046526,-1.1428249,12.8667145,-9.460745,2.264861,-0.58742934,-0.3761065,-0.24169633,-0.6745768,-8.59671,1.7856102,0.23976889,-3.6360435,2.0214508,0.71753526,0
0.4200000000000002,13.207197277828588,-5.976599112043119,5.999999516587125,1.0521901280621555,11.04577,-6.8486834,5.4046526,-1.1428249,12.781266,-9.442964,2.2671695,-0.58919746,-0.35776418,-0.23424645,-0.68555087,-8.493377,1.7710254,0.22259973,-4.00137,2.6416903,0.7339569,0
0.4300000000000002,13.207197277828588,-5.976599112043119,5.999999516587125,1.0521901280621555,11.04577,-6.8486834,5.4046526,-1.1428249,12.696835,-9.425317,2.2693288,-0.590497,-0.33628583,-0.22715959,-0.69758433,-8.393532,1.7587184,0.21005104,-4.309688,3.1652257,0.74957263,0
0.4400000000000002,13.207197277828588,-5.976599112043119,5.999999516587125,1.0521901280621555,11.282344,-7.434692,5.392287,-1.6136656,12.613381,-9.40778,2.2713873,-0.59124345,-0.31206405,-0.22031488,-0.71028787,-8.297752,1.7492834,0.20237373,-4.569892,3.6071362,0.7644222,0
0.45000000000000023,13.207197277828588,-5.976599112043119,5.999999516587125,1.0521901280621555,11.282344,-7.434692,5.392287,-1.6136656,12.530864,-9.39032,2.2733939,-0.59135526,-0.28543958,-0.21361004,-0.72332174,-8.206642,1.7432123,0.1996693,-4.789489,3.9801488,0.778543,0
0.46000000000000024,13.207197277828588,-5.976599112043119,5.999999516587125,1.0521901280621555,11.282344,-7.434692,5.392287,-1.6136656,12.449231,-9.372903,2.275398,-0.5907577,-0.2567121,-0.20695992,-0.7363913,-8.120818,1.7409041,0.20190106,-4.974815,4.295006,0.79197097,0
0.47000000000000025,13.207197277828588,-5.976599112043119,5.999999516587125,1.0521901280621555,11.282344,-7.434692,5.392287,-1.6136656,12.368427,-9.355489,2.2774484,-0.5893849,-0.2261484,-0.20029476,-0.74924266,-8.0409,1.7426726,0.20890537,-5.1312175,4.5607758,0.80474,0
0.48000000000000026,13.13470622796963,-5.87992986835258,5.999999668989259,0.2967057546480878,15.954182,-6.8389716,5.6691704,-1.9500173,12.288389,-9.338035,2.2795916,-0.5871803,-0.19398846,-0.19355841,-0.7616581,-7.9674993,1.7487515,0.22040334,-5.2632093,4.7851114,0.81688243,0
0.49000000000000027,13.13470622796963,-5.87992986835258,5.999999668989259,0.2967057546480878,15.954182,-6.8389716,5.6691704,-1.9500173,12.20905,-9.320498,2.2818677,-0.58416206,-0.160455,-0.18675384,-0.77339,-7.901567,1.7592429,0.23538734,-5.359405,4.974611,0.7913572,0
0.5000000000000002,13.13470622796963,-5.87992986835258,5.999999668989259,0.2967057546480878,15.954182,-6.8389716,5.6691704,-1.9500173,12.130332,-9.3028345,2.2843118,-0.580359,-0.12574968,-0.17988417,-0.78422725,-7.8432436,1.774273,0.2539801,-5.4405823,5.1345634,0.76708454,0
0.5100000000000002,13.13470622796963,-5.87992986835258,5.999999668989259,0.2967057546480878,15.954182,-6.8389716,5.6691704,-1.9500173,12.052157,-9.284997,2.2869575,-0.5757436,-0.090052366,-0.17290966,-0.794048,-7.7930264,1.793873,0.2756235,-5.509086,5.2695765,0.74400294,0
0.5200000000000002,14.09705164413589,-4.047472486691612,5.999999593312897,0.6517403408545224,16.97487,-5.9405875,5.7222114,-2.0599427,11.974443,-9.266941,2.2898324,-0.5702948,-0.053529613,-0.16579941,-0.802751,-7.751364,1.8180139,0.2996937,-5.5668974,5.383537,0.7220539,0
0.5300000000000002,14.09705164413589,-4.047472486691612,5.999999593312897,0.6517403408545224,16.97487,-5.9405875,5.7222114,-2.0599427,11.897114,-9.2486105,2.2930026,-0.5639392,-0.016760375,-0.15912081,-0.81016815,-7.716209,1.8487203,0.33457753,-5.329977,5.4797974,0.7186036,0
0.5400000000000003,14.09705164413589,-4.047472486691612,5.999999593312897,0.6517403408545224,16.97487,-5.9405875,5.7222114,-2.0599427,11.8200865,-9.22995,2.2965274,-0.5566758,0.019780334,-0.15334006,-0.8162156,-7.6906886,1.8841742,0.3704754,-5.1299973,5.561027,0.7153226,0
0.5500000000000003,14.09705164413589,-4.047472486691612,5.999999593312897,0.6517403408545224,16.97487,-5.9405875,5.7222114,-2.0599427,11.743267,-9.210911,2.3004127,-0.5485813,0.056087755,-0.148296,-0.8209271,-7.674764,1.9243035,0.4065391,-4.961199,5.6295733,0.7122026,0
0.5600000000000003,15.170063830913854,-1.908483418832724,5.99999925586845,0.8801778916320455,17.596195,-2.2108974,6.066606,-0.9639972,11.666558,-9.191448,2.3046558,-0.5397159,0.09215056,-0.14385055,-0.82433146,-7.668372,1.9689867,0.44195518,-4.81872,5.6874166,0.7092357,0
0.5700000000000003,15.170063830913854,-1.908483418832724,5.99999925586845,0.8801778916320455,17.596195,-2.2108974,6.066606,-0.9639972,11.589866,-9.171498,2.309297,-0.5301997,0.12749016,-0.14059693,-0.8263579,-7.6716046,2.021815,0.48598915,-4.364924,5.736349,0.71762395,0
0.5800000000000003,15.170063830913854,-1.908483418832724,5.99999925586845,0.8801778916320455,17.596195,-2.2108974,6.066606,-0.9639972,11.513092,-9.150997,2.3143675,-0.52018523,0.16173579,-0.13900754,-0.82699823,-7.684479,2.0793211,0.52764326,-3.9818928,5.7776237,0.72560054,0
0.5900000000000003,15.170063830913854,-1.908483418832724,5.99999925586845,0.8801778916320455,17.596195,-2.2108974,6.066606,-0.9639972,11.436144,-9.129896,2.3198392,-0.50974745,0.19501498,-0.13880682,-0.82635325,-7.7064543,2.1414433,0.5661534,-3.6585908,5.8124375,0.7331857,0
0.6000000000000003,15.111812037260378,0.10121669078598158,5.99999811540318,0.791757776531108,17.65367,0.5299005,5.401779,0.4392525,11.3589325,-9.108151,2.3256776,-0.49893677,0.2274304,-0.13975795,-0.8245031,-7.7370324,2.2080767,0.60083,-3.385704,5.841802,0.74039865,0
0.6100000000000003,15.111812037260378,0.10121669078598158,5.99999811540318,0.791757776531108,17.65367,0.5299005,5.401779,0.4392525,11.281375,-9.08572,2.331838,-0.48799098,0.25866887,-0.14231914,-0.8214016,-7.7755575,2.2788305,0.6305521,-2.8419423,5.86673,0.74291885,0
0.6200000000000003,15.111812037260378,0.10121669078598158,5.99999811540318,0.791757776531108,17.65367,0.5299005,5.401779,0.4392525,11.203397,-9.062559,2.3382711,-0.47713703,0.28849992,-0.14684038,-0.81703496,-7.821406,2.3539565,0.655266,-2.3829777,5.887731,0.7453154,0
0.6300000000000003,15.111812037260378,0.10121669078598158,5.99999811540318,0.791757776531108,17.65367,0.5299005,5.401779,0.4392525,11.124926,-9.038625,2.3449242,-0.46637785,0.31710505,-0.1529856,-0.8114996,-7.8738275,2.433458,0.6744736,-1.9955864,5.905424,0.74759436,0
0.6400000000000003,15.111812037260378,0.10121669078598158,5.99999811540318,0.791757776531108,17.958847,1.4402919,5.2749515,0.09183983,11.0459,-9.013875,2.3517401,-0.45570064,0.34463036,-0.16046748,-0.80487084,-7.932155,2.517291,0.68772763,-1.6686068,5.9203296,0.7497615,0
0.6500000000000004,15.111812037260378,0.10121669078598158,5.99999811540318,0.791757776531108,17.958847,1.4402919,5.2749515,0.09183983,10.966265,-8.988266,2.3586571,-0.4450832,0.37119237,-0.16904077,-0.79720914,-7.995792,2.6053636,0.6946204,-1.392618,5.932887,0.75182223,0
0.6600000000000004,15.111812037260378,0.10121669078598158,5.99999811540318,0.791757776531108,17.958847,1.4402919,5.2749515,0.09183983,10.885969,-8.961754,2.3656094,-0.4344984,0.3968833,-0.17849626,-0.7885644,-8.064198,2.6975398,0.6947768,-1.159668,5.9434657,0.75378186,0
0.6700000000000004,15.111812037260378,0.10121669078598158,5.99999811540318,0.791757776531108,17.958847,1.4402919,5.2749515,0.09183983,10.804967,-8.934301,2.372528,-0.42391723,0.42177552,-0.18865557,-0.7789792,-8.136876,2.7936409,0.6878505,-0.9630452,5.9523773,0.75564533,0
0.6800000000000004,14.707001781976082,1.5565950848435097,4.931809951379604,0.7848956611561835,15.758345,1.7408302,4.9157143,0.55065846,10.723219,-8.905869,2.379341,-0.41331053,0.44592482,-0.19936658,-0.7684909,-8.2133665,2.8934493,0.67352223,-0.7970847,5.9598846,0.7574174,0
0.6900000000000004,14.707001781976082,1.5565950848435097,4.931809951379604,0.7848956611561835,15.758345,1.7408302,4.9157143,0.55065846,10.640699,-8.876433,2.3859622,-0.40300617,0.46881282,-0.21077158,-0.7572158,-8.29106,2.9939559,0.6494876,-0.4299558,5.799737,0.75876576,0
0.7000000000000004,14.707001781976082,1.5565950848435097,4.931809951379604,0.7848956611561835,15.758345,1.7408302,4.9157143,0.55065846,10.557389,-8.845978,2.3923051,-0.39329508,0.49005684,-0.22298019,-0.74528044,-8.371368,3.097634,0.61791295,-0.12009223,5.6645374,0.760048,0
0.7100000000000004,14.707001781976082,1.5565950848435097,4.931809951379604,0.7848956611561835,15.758345,1.7408302,4.9157143,0.55065846,10.473266,-8.81447,2.3982947,-0.38409352,0.50987417,-0.23582734,-0.73272496,-8.4536495,3.2042944,0.578784,0.14143836,5.550398,0.7612673,0
0.7200000000000004,13.443413360987158,2.7004792702395113,0.4194708410496159,0.9740803784204713,14.550441,2.3024704,3.1224601,0.38172454,10.38831,-8.781882,2.403855,-0.37532192,0.52844226,-0.24917224,-0.71958005,-8.537345,3.3137348,0.5320878,0.3621749,5.454039,0.76242673,0
0.7300000000000004,13.443413360987158,2.7004792702395113,0.4194708410496159,0.9740803784204713,14.550441,2.3024704,3.1224601,0.38172454,10.302551,-8.748235,2.4088914,-0.36760375,0.5444542,-0.26257032,-0.70674884,-8.61465,3.4161046,0.47415203,0.72718984,4.6690865,0.7728126,0
0.7400000000000004,13.443413360987158,2.7004792702395113,0.4194708410496159,0.9740803784204713,14.550441,2.3024704,3.1224601,0.38172454,10.216017,-8.713553,2.413317,-0.36149654,0.55696744,-0.2757033,-0.6950505,-8.692119,3.5205562,0.41008416,1.0352308,4.0065227,0.78268886,0
0.7500000000000004,13.443413360987158,2.7004792702395113,0.4194708410496159,0.9740803784204713,14.550441,2.3024704,3.1224601,0.38172454,10.12871,-8.677816,2.417075,-0.3568215,0.5665867,-0.28862292,-0.68436444,-8.769169,3.6269,0.34069636,1.2951889,3.4472642,0.7920805,0
0.7600000000000005,12.788321399435256,3.0844782250688736,-5.136392902784828,1.2445914614854259,15.335306,2.0321846,-4.235186,0.88538694,10.040636,-8.641009,2.4201152,-0.35340607,0.5738022,-0.30136576,-0.67456186,-8.845338,3.7350137,0.26668757,1.5145692,2.975203,0.80101126,0
0.7700000000000005,12.788321399435256,3.0844782250688736,-5.136392902784828,1.2445914614854259,15.335306,2.0321846,-4.235186,0.88538694,9.951825,-8.603139,2.4223902,-0.35184035,0.5774642,-0.3133022,-0.66677207,-8.916577,3.8394585,0.18780057,1.7600299,1.710357,0.8227779,0
0.7800000000000005,12.788321399435256,3.0844782250688736,-5.136392902784828,1.2445914614854259,15.335306,2.0321846,-4.235186,0.88538694,9.86231,-8.564216,2.4238632,-0.35261413,0.57671314,-0.32395032,-0.66190726,-8.986191,3.9454045,0.10651819,1.9671392,0.6427473,0.8434765,0
0.7900000000000005,12.788321399435256,3.0844782250688736,-5.136392902784828,1.2445914614854259,15.335306,2.0321846,-4.235186,0.88538694,9.772109,-8.524225,2.4245172,-0.35541365,0.5722669,-0.33351335,-0.6595152,-9.053807,4.0527954,0.024193283,2.141885,-0.2583832,0.86315936,0
0.8000000000000005,12.497200506525935,2.914120381514811,-5.999999046840724,1.080879214730026,11.923454,3.0860949,-6.1748457,0.8867413,9.681242,-8.483153,2.4243476,-0.35994175,0.5646898,-0.3421422,-0.65917057,-9.119103,4.161598,-0.058038548,2.2893212,-1.0189955,0.88187635,1
0.8100000000000005,12.497200506525935,2.914120381514811,-5.999999046840724,1.080879214730026,11.923454,3.0860949,-6.1748457,0.8867413,9.589756,-8.441025,2.4233544,-0.36607274,0.55421656,-0.34979957,-0.6606623,-9.177542,4.264322,-0.14035518,2.4140239,-1.7957084,0.882115,1
0.8200000000000005,12.497200506525935,2.914120381514811,-5.999999046840724,1.080879214730026,11.923454,3.0860949,-6.1748457,0.8867413,9.4977,-8.397862,2.4215467,-0.37367913,0.5410359,-0.3564425,-0.6637714,-9.233254,4.3682504,-0.22083147,2.51921,-2.4513047,0.882342,1
0.8300000000000005,12.497200506525935,2.914120381514811,-5.999999046840724,1.080879214730026,11.923454,3.0860949,-6.1748457,0.8867413,9.405101,-8.353656,2.4189467,-0.38249776,0.5254949,-0.36216336,-0.66812265,-9.285959,4.473272,-0.2987302,2.6079338,-3.0046706,0.88255787,1
0.8400000000000005,12.497200506525935,2.914120381514811,-5.999999046840724,1.080879214730026,10.865707,2.8021655,-6.138761,1.1587591,9.311992,-8.308394,2.4155831,-0.3922926,0.5078793,-0.36703387,-0.6733876,-9.335371,4.579229,-0.37345177,2.6827717,-3.471747,0.88276315,0
0.8500000000000005,12.497200506525935,2.914120381514811,-5.999999046840724,1.080879214730026,10.865707,2.8021655,-6.138761,1.1587591,9.218395,-8.262043,2.4114966,-0.40280288,0.4884468,-0.37107643,-0.6793169,-9.383414,4.691052,-0.44321617,2.7191012,-3.8659883,0.8924848,0
0.8600000000000005,12.497200506525935,2.914120381514811,-5.999999046840724,1.080879214730026,10.865707,2.8021655,-6.138761,1.1587591,9.124337,-8.214571,2.4067333,-0.41380236,0.4674159,-0.37431115,-0.68569726,-9.427443,4.8033752,-0.5087563,2.749733,-4.198752,0.9017293,0
0.8700000000000006,12.497200506525935,2.914120381514811,-5.999999046840724,1.080879214730026,10.865707,2.8021655,-6.138761,1.1587591,9.0298605,-8.165975,2.401337,-0.42514062,0.44495735,-0.37678745,-0.6923144,-9.467193,4.915892,-0.5697795,2.7755594,-4.4796243,0.9105202,0
0.8800000000000006,12.797655610638374,2.3261761118562965,-5.999999478568337,0.6549112049158542,12.390768,1.9037476,-5.5024695,0.92931205,8.935008,-8.116253,2.3953538,-0.43668494,0.42122045,-0.378547,-0.69898593,-9.502412,5.0282626,-0.62608355,2.797334,-4.7166977,0.91887975,1
0.8900000000000006,12.797655610638374,2.3261761118562965,-5.999999478568337,0.6549112049158542,12.390768,1.9037476,-5.5024695,0.92931205,8.839829,-8.065414,2.3888302,-0.44809204,0.39666492,-0.37942445,-0.70562536,-9.532623,5.139165,-0.67795086,2.6580546,-4.8393207,0.9193917,1
0.9000000000000006,12.797655610638374,2.3261761118562965,-5.999999478568337,0.6549112049158542,12.390768,1.9037476,-5.5024695,0.92931205,8.744372,-8.013473,2.3818116,-0.45910585,0.37168685,-0.3793013,-0.7121804,-9.558061,5.249155,-0.72501504,2.5404844,-4.9428077,0.9198784,1
0.9100000000000006,12.797655610638374,2.3261761118562965,-5.999999478568337,0.6549112049158542,12.390768,1.9037476,-5.5024695,0.92931205,8.6486845,-7.9604363,2.3743463,-0.4697329,0.3463223,-0.37827477,-0.7185539,-9.578704,5.3578315,-0.7673245,2.4412394,-5.030145,0.9203413,1
0.9200000000000006,13.60905581454967,1.4153898054190346,-5.9999993286193165,0.6282619129550204,13.168642,0.7792131,-5.6964383,0.89599,8.5528145,-7.9063215,2.366481,-0.47997487,0.3206047,-0.37642893,-0.72466373,-9.594528,5.464807,-0.8049666,2.3574634,-5.103853,0.9207815,1
0.9300000000000006,13.60905581454967,1.4153898054190346,-5.9999993286193165,0.6282619129550204,13.168642,0.7792131,-5.6964383,0.89599,8.456807,-7.8511143,2.3582828,-0.48972246,0.29472858,-0.37347156,-0.7306336,-9.60622,5.5762806,-0.8339736,2.1113875,-5.1964154,0.91956496,1
0.9400000000000006,13.60905581454967,1.4153898054190346,-5.9999993286193165,0.6282619129550204,13.168642,0.7792131,-5.6964383,0.89599,8.360707,-7.794805,2.349818,-0.49890333,0.2688595,-0.36917564,-0.73655885,-9.612916,5.685093,-0.85823643,1.9036784,-5.27452,0.91840816,1
0.9500000000000006,13.60905581454967,1.4153898054190346,-5.9999993286193165,0.6282619129550204,13.168642,0.7792131,-5.6964383,0.89599,8.2645645,-7.737423,2.3411338,-0.5075607,0.2429873,-0.36369753,-0.7423362,-9.614768,5.79081,-0.8778669,1.7283543,-5.3404236,0.9173081,1
0.9600000000000006,14.336601167945851,0.44711649725142155,-5.999998857001439,0.48901319920507613,13.404736,-0.01921338,-6.325281,0.6188255,8.168427,-7.679001,2.332276,-0.5157252,0.2171047,-0.35717177,-0.7478777,-9.611909,5.893023,-0.8930134,1.5803658,-5.3960333,0.916262,1
0.9700000000000006,14.336601167945851,0.44711649725142155,-5.999998857001439,0.48901319920507613,13.404736,-0.01921338,-6.325281,0.6188255,8.072343,-7.6195664,2.3232963,-0.52342004,0.19129388,-0.3494044,-0.7532293,-9.604332,5.993102,-0.9022826,1.3309165,-5.4903827,0.9016667,1
0.9800000000000006,14.336601167945851,0.44711649725142155,-5.999998857001439,0.48901319920507613,13.404736,-0.01921338,-6.325281,0.6188255,7.9763556,-7.5591536,2.314245,-0.5306715,0.16562493,-0.34024644,-0.75841165,-9.592291,6.088789,-0.9073063,1.1203609,-5.569991,0.88778764,1
0.9900000000000007,14.336601167945851,0.44711649725142155,-5.999998857001439,0.48901319920507613,13.404736,-0.01921338,-6.325281,0.6188255,7.880511,-7.4978075,2.305164,-0.53749907,0.14007823,-0.3298675,-0.7633217,-9.5759945,6.179668,-0.908249,0.9426351,-5.6371617,0.8745896,1
1.0000000000000007,14.655134542975649,-0.10810648976848906,-5.999996996467573,0.3364539971997019,13.819486,-0.6474113,-5.7703466,0.56687987,7.78485,-7.435578,2.2960932,-0.54391336,0.114639215,-0.31841406,-0.7678725,-9.555628,6.2653522,-0.9053169,0.792621,-5.693838,0.8620392,1
1.0100000000000007,14.655134542975649,-0.10810648976848906,-5.999996996467573,0.3364539971997019,13.819486,-0.6474113,-5.7703466,0.56687987,7.689416,-7.3725066,2.287086,-0.5498694,0.08950805,-0.30586994,-0.7720591,-9.530624,6.347962,-0.8955129,0.5680016,-5.705901,0.84755564,1
1.0200000000000007,14.655134542975649,-0.10810648976848906,-5.999996996467573,0.3364539971997019,13.819486,-0.6474113,-5.7703466,0.56687987,7.5942507,-7.3086395,2.2781947,-0.5553417,0.06484836,-0.29223454,-0.77587944,-9.501882,6.424514,-0.882228,0.37841293,-5.7160597,0.8337828,1
1.0300000000000007,14.655134542975649,-0.10810648976848906,-5.999996996467573,0.3364539971997019,13.819486,-0.6474113,-5.7703466,0.56687987,7.49939,-7.2440376,2.2694523,-0.5603573,0.040601864,-0.27764753,-0.7792706,-9.469673,6.494707,-0.8657482,0.21839195,-5.7246146,0.82068574,1
1.0400000000000007,14.655134542975649,-0.10810648976848906,-5.999996996467573,0.3364539971997019,13.816716,-0.9126978,-5.6713285,0.53150713,7.404868,-7.1787677,2.2608895,-0.5649339,0.016720776,-0.26222995,-0.7821797,-9.434247,6.558269,-0.8463845,0.08332778,-5.7318196,0.80823135,1
1.0500000000000007,14.655134542975649,-0.10810648976848906,-5.999996996467573,0.3364539971997019,13.816716,-0.9126978,-5.6713285,0.53150713,7.3107157,-7.112896,2.2525334,-0.56907535,-0.0067411806,-0.24602652,-0.784588,-9.3958435,6.6149464,-0.82449245,-0.07205751,-5.722467,0.79465246,1
1.0600000000000007,14.655134542975649,-0.10810648976848906,-5.999996996467573,0.3364539971997019,13.816716,-0.9126978,-5.6713285,0.53150713,7.216961,-7.0464926,2.2444074,-0.57278746,-0.029740846,-0.22908202,-0.78648007,-9.35471,6.6645403,-0.80038905,-0.20320724,-5.714558,0.7817398,1
1.0700000000000007,14.655134542975649,-0.10810648976848906,-5.999996996467573,0.3364539971997019,13.816716,-0.9126978,-5.6713285,0.53150713,7.12363,-6.97963,2.2365322,-0.5760813,-0.052327253,-0.21149509,-0.78782076,-9.311092,6.706869,-0.7744281,-0.313901,-5.70787,0.76946074,1
1.0800000000000007,14.404633503408613,-0.40770041338476426,-3.880354050673949,0.22379392755128158,12.9989395,-0.6274248,-3.438443,0.60279924,7.030747,-6.912381,2.2289243,-0.57896286,-0.07453999,-0.19335204,-0.7885812,-9.265222,6.741777,-0.746979,-0.40732917,-5.702215,0.7577843,0
1.0900000000000007,14.404633503408613,-0.40770041338476426,-3.880354050673949,0.22379392755128158,12.9989395,-0.6274248,-3.438443,0.60279924,6.938343,-6.844815,2.2216234,-0.5813221,-0.095956124,-0.175309,-0.78874797,-9.215278,6.770348,-0.7130432,-0.40762016,-5.4180903,0.7315812,0
1.1000000000000008,14.404633503408613,-0.40770041338476426,-3.880354050673949,0.22379392755128158,12.9989395,-0.6274248,-3.438443,0.60279924,6.846448,-6.7770004,2.214666,-0.58311474,-0.1162464,-0.15790458,-0.78837144,-9.163437,6.7913055,-0.67841053,-0.4078311,-5.1782746,0.7066639,0
1.1100000000000008,14.404633503408613,-0.40770041338476426,-3.880354050673949,0.22379392755128158,12.9989395,-0.6274248,-3.438443,0.60279924,6.75508,-6.7090135,2.2080564,-0.58442736,-0.13556758,-0.14104784,-0.7875094,-9.109903,6.804936,-0.64349383,-0.4079808,-4.9758587,0.6829694,0
1.1200000000000008,13.739882208785646,-0.2627745575434641,0.29567590195906324,0.1563905217903352,13.0370655,-0.06486766,-0.7708225,0.5176322,6.664255,-6.6409264,2.2017958,-0.5853278,-0.15405285,-0.1246605,-0.786205,-9.054858,6.8114986,-0.6086566,-0.4080837,-4.80501,0.6604375,0
1.1300000000000008,13.739882208785646,-0.2627745575434641,0.29567590195906324,0.1563905217903352,13.0370655,-0.06486766,-0.7708225,0.5176322,6.5739746,-6.5728073,2.1958513,-0.5856819,-0.17053878,-0.10970348,-0.78476614,-9.001087,6.8113403,-0.58032876,-0.38583013,-4.009545,0.6357038,0
1.1400000000000008,13.739882208785646,-0.2627745575434641,0.29567590195906324,0.1563905217903352,13.0370655,-0.06486766,-0.7708225,0.5176322,6.4842367,-6.5047183,2.1901877,-0.5854637,-0.18412866,-0.09694377,-0.7835371,-8.94633,6.80562,-0.5525504,-0.3669695,-3.3381345,0.61218375,0
1.1500000000000008,13.739882208785646,-0.2627745575434641,0.29567590195906324,0.1563905217903352,13.0370655,-0.06486766,-0.7708225,0.5176322,6.3950505,-6.4367104,2.1847987,-0.5848461,-0.19528434,-0.0860525,-0.78256863,-8.890854,6.795262,-0.52538246,-0.35098696,-2.7714324,0.5898178,0
1.1600000000000008,13.110522711002591,-0.0388676272525087,5.0957609006097,0.053776492644637006,13.501006,0.2704807,4.1155386,0.27583504,6.3064218,-6.3688264,2.1796782,-0.58395356,-0.20439355,-0.076746784,-0.7818767,-8.834864,6.781046,-0.49882102,-0.33744603,-2.2931087,0.56854945,1
1.1700000000000008,13.110522711002591,-0.0388676272525087,5.0957609006097,0.053776492644637006,13.501006,0.2704807,4.1155386,0.27583504,6.21835,-6.301099,2.1748097,-0.5827124,-0.21071377,-0.069840975,-0.78177226,-8.779513,6.7640224,-0.4749633,-0.2430227,-1.2936463,0.55418587,1
1.1800000000000008,13.110522711002591,-0.0388676272525087,5.0957609006097,0.053776492644637006,13.501006,0.2704807,4.1155386,0.27583504,6.130832,-6.2335525,2.1701777,-0.5810794,-0.2136763,-0.065964624,-0.78252,-8.72402,6.7450833,-0.45145196,-0.16325092,-0.4500565,0.5405271,1
1.1900000000000008,13.110522711002591,-0.0388676272525087,5.0957609006097,0.053776492644637006,13.501006,0.2704807,4.1155386,0.27583504,6.043869,-6.1662,2.1657803,-0.5791539,-0.21380784,-0.06464357,-0.7840203,-8.668557,6.7253613,-0.42805046,-0.095859386,0.26197013,0.5275386,1
1.2000000000000008,12.739616102266492,0.23667981542525693,5.999997271308023,-0.10023329328902632,12.229243,1.0488062,5.184358,0.3098406,5.95746,-6.0990453,2.161617,-0.5769933,-0.2115448,-0.065475434,-0.7861552,-8.613274,6.7058086,-0.40454,-0.038928602,0.8629519,0.51518744,1
1.2100000000000009,12.739616102266492,0.23667981542525693,5.999997271308023,-0.10023329328902632,12.229243,1.0488062,5.184358,0.3098406,5.8715763,-6.0320725,2.1576328,-0.57453007,-0.20709288,-0.068609945,-0.78887254,-8.563474,6.6890044,-0.39221883,0.13048692,1.5369289,0.50511104,1
1.2200000000000009,12.739616102266492,0.23667981542525693,5.999997271308023,-0.10023329328902632,12.229243,1.0488062,5.184358,0.3098406,5.786189,-5.9652596,2.153774,-0.57169294,-0.20062613,-0.07414606,-0.7920974,-8.514007,6.6739016,-0.3795038,0.27352422,2.105789,0.4955291,1
1.2300000000000009,12.739616102266492,0.23667981542525693,5.999997271308023,-0.10023329328902632,12.229243,1.0488062,5.184358,0.3098406,5.7012944,-5.898586,2.1500444,-0.5684986,-0.19243585,-0.081699856,-0.79567736,-8.464925,6.661227,-0.36631522,0.39428928,2.5859265,0.48641732,1
1.2400000000000009,12.739616102266492,0.23667981542525693,5.999997271308023,-0.10023329328902632,11.95202,1.060852,5.7424793,0.50355476,5.6168885,-5.832024,2.1464493,-0.56495184,-0.1827668,-0.09094532,-0.7994712,-8.416298,6.6515994,-0.3526243,0.49624923,2.99118,0.47775266,1
1.2500000000000009,12.739616102266492,0.23667981542525693,5.999997271308023,-0.10023329328902632,11.95202,1.060852,5.7424793,0.50355476,5.532961,-5.7655406,2.1429808,-0.56100845,-0.17165157,-0.10173032,-0.80340254,-8.369304,6.64569,-0.3409948,0.5841625,3.4202712,0.47901875,1
1.260000000000001,12.739616102266492,0.23667981542525693,5.999997271308023,-0.10023329328902632,11.95202,1.060852,5.7424793,0.50355476,5.4495,-5.6990967,2.1396308,-0.5566184,-0.159126,-0.113915235,-0.80738944,-8.322962,6.6437845,-0.3289473,0.658386,3.7824419,0.48022273,1
1.270000000000001,12.739616102266492,0.23667981542525693,5.999997271308023,-0.10023329328902632,11.95202,1.060852,5.7424793,0.50355476,5.366499,-5.63265,2.1364028,-0.55177194,-0.14538707,-0.12725955,-0.8113045,-8.277414,6.646329,-0.31658328,0.72105175,4.0881286,0.48136765,1
1.280000000000001,12.796427910907717,0.2372811306049968,5.999998158243522,-0.18773840993835242,11.396379,0.66675556,5.8368325,0.48780882,5.2839484,-5.5661535,2.1332996,-0.54645985,-0.13060412,-0.14155723,-0.8150371,-8.232813,6.653691,-0.30405074,0.77395946,4.3461404,0.4824564,0
1.290000000000001,12.796427910907717,0.2372811306049968,5.999998158243522,-0.18773840993835242,11.396379,0.66675556,5.8368325,0.48780882,5.201854,-5.499554,2.1303606,-0.5407707,-0.1146477,-0.15642923,-0.8185063,-8.186262,6.66705,-0.283716,0.6902821,4.6040173,0.44956976,0
1.300000000000001,12.796427910907717,0.2372811306049968,5.999998158243522,-0.18773840993835242,11.396379,0.66675556,5.8368325,0.48780882,5.1202183,-5.432792,2.1276245,-0.53477657,-0.09742482,-0.17156066,-0.82163805,-8.141209,6.686128,-0.26358658,0.6196713,4.8216863,0.41829687,0
1.310000000000001,12.796427910907717,0.2372811306049968,5.999998158243522,-0.18773840993835242,11.396379,0.66675556,5.8368325,0.48780882,5.0390234,-5.365811,2.1250875,-0.5284502,-0.079121776,-0.18687361,-0.82435316,-8.097969,6.7111044,-0.24388061,0.5600846,5.005416,0.38855854,0
1.320000000000001,12.960470142005354,0.10060141375963903,5.999995960511882,-0.25028667881301175,11.683467,0.2424058,6.0246143,0.26849127,4.958251,-5.2985497,2.1227443,-0.5217708,-0.059899926,-0.20229965,-0.8265845,-8.056838,6.7421017,-0.22485316,0.50979924,5.1604986,0.36027947,0
1.330000000000001,12.960470142005354,0.10060141375963903,5.999995960511882,-0.25028667881301175,11.683467,0.2424058,6.0246143,0.26849127,4.877881,-5.2309456,2.1205943,-0.5147324,-0.03986962,-0.21773367,-0.8282831,-8.017591,6.7796636,-0.20529878,0.44605762,5.291394,0.3303188,0
1.340000000000001,12.960470142005354,0.10060141375963903,5.999995960511882,-0.25028667881301175,11.683467,0.2424058,6.0246143,0.26849127,4.7978897,-5.1629353,2.118634,-0.50733215,-0.019129846,-0.23308666,-0.8294086,-7.981029,6.8234067,-0.18702328,0.39226025,5.4018817,0.30182835,0
1.350000000000001,12.960470142005354,0.10060141375963903,5.999995960511882,-0.25028667881301175,11.683467,0.2424058,6.0246143,0.26849127,4.7182493,-5.0944567,2.1168487,-0.49956074,0.0022033113,-0.2483236,-0.8299213,-7.947403,6.8732996,-0.1703477,0.34685475,5.4951425,0.2747359,0
1.360000000000001,12.868574982265985,-0.09217649904990352,4.883678432755515,-0.2777631179768958,12.235737,-0.38942978,4.454407,0.39480478,4.6389294,-5.025449,2.1152205,-0.4914129,0.024027847,-0.2634127,-0.82978886,-7.916942,6.929269,-0.1556075,0.30853117,5.573862,0.24897286,1
1.370000000000001,12.868574982265985,-0.09217649904990352,4.883678432755515,-0.2777631179768958,12.235737,-0.38942978,4.454407,0.39480478,4.5598907,-4.9558682,2.1136978,-0.48298585,0.045815535,-0.27786553,-0.82910556,-7.8913565,6.987709,-0.14931452,0.19968772,5.3992667,0.25612888,1
1.380000000000001,12.868574982265985,-0.09217649904990352,4.883678432755515,-0.2777631179768958,12.235737,-0.38942978,4.454407,0.39480478,4.4810915,-4.8856764,2.1122265,-0.47437632,0.06713624,-0.29131347,-0.8280072,-7.8690543,7.0514154,-0.1453753,0.10781639,5.251901,0.26293376,1
1.390000000000001,12.868574982265985,-0.09217649904990352,4.883678432755515,-0.2777631179768958,12.235737,-0.38942978,4.454407,0.39480478,4.4024987,-4.8148227,2.110782,-0.46557996,0.08804027,-0.3038905,-0.8265195,-7.8501096,7.120016,-0.14396058,0.030270781,5.127519,0.26940474,1
1.400000000000001,12.44371860836956,-0.23244291264103656,0.7485037996514439,-0.284034871151755,12.395643,-0.09257584,1.3130825,0.58303654,4.324078,-4.74326,2.109338,-0.4565928,0.108570024,-0.31570858,-0.8246595,-7.8345833,7.193167,-0.14522995,-0.035182994,5.0225363,0.27555814,1
1.410000000000001,12.44371860836956,-0.23244291264103656,0.7485037996514439,-0.284034871151755,12.395643,-0.09257584,1.3130825,0.58303654,4.2457957,-4.67094,2.1078737,-0.44781682,0.12766623,-0.3263982,-0.82257235,-7.8223224,7.271516,-0.14807478,-0.04407357,4.4440465,0.29064623,1
1.420000000000001,12.44371860836956,-0.23244291264103656,0.7485037996514439,-0.284034871151755,12.395643,-0.09257584,1.3130825,0.58303654,4.16762,-4.597817,2.1063669,-0.439619,0.14450456,-0.33570862,-0.820459,-7.813272,7.3535295,-0.15368238,-0.05158249,3.9557724,0.3049939,1
1.430000000000001,12.44371860836956,-0.23244291264103656,0.7485037996514439,-0.284034871151755,12.395643,-0.09257584,1.3130825,0.58303654,4.089521,-4.5238585,2.104791,-0.43193793,0.15943485,-0.3438801,-0.81838644,-7.8071175,7.4386506,-0.16189347,-0.057925306,3.543645,0.31863755,1
1.440000000000001,12.44371860836956,-0.23244291264103656,0.7485037996514439,-0.284034871151755,12.642611,0.026002161,0.34828267,0.64448816,4.0114694,-4.449035,2.1031206,-0.42471156,0.17275284,-0.35110968,-0.81639344,-7.803586,7.5264244,-0.17254598,-0.06328424,3.1957881,0.3316117,1
1.450000000000001,12.44371860836956,-0.23244291264103656,0.7485037996514439,-0.284034871151755,12.642611,0.026002161,0.34828267,0.64448816,3.9334412,-4.3733134,2.1013408,-0.41802067,0.184371,-0.35743746,-0.8145577,-7.8024063,7.6182637,-0.1837753,-0.04929207,2.7517235,0.34696466,1
1.460000000000001,12.44371860836956,-0.23244291264103656,0.7485037996514439,-0.284034871151755,12.642611,0.026002161,0.34828267,0.64448816,3.855414,-4.2966633,2.099438,-0.41192913,0.19423592,-0.36290792,-0.812948,-7.8033466,7.712041,-0.19709495,-0.037488196,2.3769107,0.36156422,1
1.470000000000001,12.44371860836956,-0.23244291264103656,0.7485037996514439,-0.284034871151755,12.642611,0.026002161,0.34828267,0.64448816,3.7773678,-4.219067,2.0973926,-0.40635553,0.20262273,-0.36767295,-0.8115637,-7.80612,7.8074293,-0.21227138,-0.027531097,2.0605493,0.3754474,1
1.480000000000001,12.205283321837298,-0.4135193533015898,-3.300792875080491,-0.27816093231396183,11.989212,-0.34136018,-4.832337,0.2802437,3.699286,-4.1405096,2.0951872,-0.4012261,0.20976263,-0.37185663,-0.81039476,-7.810483,7.904167,-0.22909467,-0.01913305,1.793524,0.3886493,0
1.490000000000001,12.205283321837298,-0.4135193533015898,-3.300792875080491,-0.27816093231396183,11.989212,-0.34136018,-4.832337,0.2802437,3.6211543,-4.060996,2.0927923,-0.39707807,0.21478114,-0.37481332,-0.8097609,-7.8159914,7.998615,-0.25008422,-0.08041407,0.999054,0.35592878,0
1.500000000000001,12.205283321837298,-0.4135193533015898,-3.300792875080491,-0.27816093231396183,11.989212,-0.34136018,-4.832337,0.2802437,3.5429628,-3.980535,2.0901828,-0.39435536,0.21700537,-0.37604386,-0.8099279,-7.822367,8.0936775,-0.27190128,-0.13219883,0.32848603,0.3248138,0
1.5100000000000011,12.205283321837298,-0.4135193533015898,-3.300792875080491,-0.27816093231396183,11.989212,-0.34136018,-4.832337,0.2802437,3.4647052,-3.899122,2.0873532,-0.39286038,0.2168807,-0.3758288,-0.81078714,-7.8291674,8.188921,-0.2939795,-0.17595497,-0.23750405,0.29522565,0
1.5200000000000011,12.13018748388934,-0.7458873189519212,-5.999992904214583,-0.27389071855601554,12.338419,-0.59527147,-5.88656,0.12009312,3.386379,-3.8167574,2.084304,-0.39241487,0.21477732,-0.3743941,-0.8122253,-7.8360143,8.283984,-0.3158371,-0.2129238,-0.7152256,0.26708943,1
1.5300000000000011,12.13018748388934,-0.7458873189519212,-5.999992904214583,-0.27389071855601554,12.338419,-0.59527147,-5.88656,0.12009312,3.3079853,-3.7334392,2.0810432,-0.39319012,0.21017188,-0.3714671,-0.81439614,-7.842626,8.379564,-0.33619404,-0.27241734,-1.5217013,0.2598763,1
1.5400000000000011,12.13018748388934,-0.7458873189519212,-5.999992904214583,-0.27389071855601554,12.338419,-0.59527147,-5.88656,0.12009312,3.2295291,-3.6491697,2.0775847,-0.3952896,0.20265293,-0.36682767,-0.81738305,-7.848445,8.474163,-0.35529795,-0.32266074,-2.202406,0.25301713,1
1.5500000000000012,12.13018748388934,-0.7458873189519212,-5.999992904214583,-0.27389071855601554,12.338419,-0.59527147,-5.88656,0.12009312,3.151021,-3.5639613,2.0739439,-0.3984684,0.19265303,-0.3607086,-0.82097304,-7.8529954,8.567304,-0.37260762,-0.36509138,-2.776953,0.2464945,1
1.5600000000000012,12.316673567406228,-1.155669774523373,-5.999998171797472,-0.23106454663966822,13.007375,-1.38783,-6.182633,0.6383574,3.0724752,-3.4778304,2.0701404,-0.40251034,0.18053499,-0.35329893,-0.82496786,-7.8558702,8.658544,-0.38770437,-0.40092298,-3.2618988,0.24029195,1
1.5700000000000012,12.316673567406228,-1.155669774523373,-5.999998171797472,-0.23106454663966822,13.007375,-1.38783,-6.182633,0.6383574,2.9939103,-3.390774,2.0662212,-0.40713325,0.16667305,-0.344485,-0.8293324,-7.856782,8.752277,-0.3956342,-0.55471724,-3.6889353,0.25982517,1
1.5800000000000012,12.316673567406228,-1.155669774523373,-5.999998171797472,-0.23106454663966822,13.007375,-1.38783,-6.182633,0.6383574,2.9153478,-3.3027947,2.0622373,-0.4120938,0.15137944,-0.33418074,-0.8340179,-7.8553476,8.843075,-0.40061626,-0.68453103,-4.0493746,0.27839985,1
1.5900000000000012,12.316673567406228,-1.155669774523373,-5.999998171797472,-0.23106454663966822,13.007375,-1.38783,-6.182633,0.6383574,2.8368123,-3.2139242,2.0582192,-0.41726813,0.13485518,-0.322568,-0.83883905,-7.8514,8.930456,-0.40245742,-0.7941052,-4.3536024,0.29606307,1
1.6000000000000012,12.473050245091708,-1.4219407264043322,-5.999998241728149,-0.09895486811557042,14.746226,-1.1862564,-6.189866,1.1742423,2.758329,-3.1241987,2.054199,-0.42254877,0.11727373,-0.30980217,-0.84363604,-7.8447986,9.013965,-0.40106288,-0.88659644,-4.610385,0.31285957,0
1.6100000000000012,12.473050245091708,-1.4219407264043322,-5.999998241728149,-0.09895486811557042,14.746226,-1.1862564,-6.189866,1.1742423,2.6799238,-3.033676,2.0501883,-0.42791837,0.09881949,-0.29599518,-0.84823775,-7.8358126,9.089914,-0.40064472,-0.97010225,-4.827099,0.2926517,0
1.6200000000000012,12.473050245091708,-1.4219407264043322,-5.999998241728149,-0.09895486811557042,14.746226,-1.1862564,-6.189866,1.1742423,2.601622,-2.942416,2.0461967,-0.4333687,0.079653494,-0.2812466,-0.8524946,-7.824088,9.161339,-0.39717937,-1.0405939,-5.010012,0.27343544,0
1.6300000000000012,12.473050245091708,-1.4219407264043322,-5.999998241728149,-0.09895486811557042,14.746226,-1.1862564,-6.189866,1.1742423,2.5234513,-2.850466,2.0422544,-0.43882558,0.05988515,-0.26566535,-0.8563104,-7.809566,9.227869,-0.39079386,-1.1000985,-5.164397,0.25516212,0
1.6400000000000012,12.473050245091708,-1.4219407264043322,-5.999998241728149,-0.09895486811557042,14.6604395,-1.3184297,-6.2651772,0.7534158,2.4454403,-2.7578769,2.0383902,-0.44422472,0.039610915,-0.24934758,-0.859605,-7.792209,9.289157,-0.38167107,-1.150328,-5.294704,0.23778552,0
1.6500000000000012,12.473050245091708,-1.4219407264043322,-5.999998241728149,-0.09895486811557042,14.6604395,-1.3184297,-6.2651772,0.7534158,2.3676171,-2.664702,2.0346296,-0.44951066,0.018916296,-0.23237856,-0.8623121,-7.7720013,9.344882,-0.3700423,-1.1927269,-5.404688,0.22126159,0
1.6600000000000013,12.473050245091708,-1.4219407264043322,-5.999998241728149,-0.09895486811557042,14.6604395,-1.3184297,-6.2651772,0.7534158,2.29001,-2.5709991,2.0309968,-0.45463538,-0.0021225135,-0.2148345,-0.86437714,-7.748948,9.3947525,-0.35618046,-1.2285155,-5.497519,0.20554847,0
1.6700000000000013,12.473050245091708,-1.4219407264043322,-5.999998241728149,-0.09895486811557042,14.6604395,-1.3184297,-6.2651772,0.7534158,2.2126477,-2.4768279,2.0275126,-0.45955753,-0.023437291,-0.19678377,-0.86575586,-7.7230725,9.438502,-0.34039387,-1.2587239,-5.5758724,0.1906064,0
1.6800000000000013,12.747865977071761,-1.4301395337078564,-5.9999960114087285,0.10800567643234354,13.827365,-1.0948081,-4.516872,0.6550974,2.135558,-2.382251,2.0241942,-0.4642414,-0.044966627,-0.1782881,-0.86641264,-7.694417,9.475899,-0.32302073,-1.2842215,-5.642006,0.17639755,0
1.6900000000000013,12.747865977071761,-1.4301395337078564,-5.9999960114087285,0.10800567643234354,13.827365,-1.0948081,-4.516872,0.6550974,2.0587718,-2.287329,2.021069,-0.46863398,-0.06665791,-0.1593994,-0.8663315,-7.66235,9.507417,-0.30185273,-1.3069835,-5.6978335,0.17304154,0
1.7000000000000013,12.747865977071761,-1.4301395337078564,-5.9999960114087285,0.10800567643234354,13.827365,-1.0948081,-4.516872,0.6550974,1.9823201,-2.1921263,2.01816,-0.47268817,-0.088462934,-0.1401646,-0.86550194,-7.6275826,9.532056,-0.2798254,-1.3261963,-5.744955,0.1698502,0
1.7100000000000013,12.747865977071761,-1.4301395337078564,-5.9999960114087285,0.10800567643234354,13.827365,-1.0948081,-4.516872,0.6550974,1.906229,-2.0967124,2.015474,-0.47638303,-0.11033462,-0.120630436,-0.8639058,-7.5902085,9.54967,-0.25734654,-1.3424131,-5.7847276,0.16681547,0
1.7200000000000013,12.804248699981184,-1.2285424362386064,-5.10972704350999,0.37290791523070166,13.645292,-1.079378,-2.715347,0.7990016,1.8305244,-2.0011578,2.0130131,-0.4797008,-0.13222966,-0.10083996,-0.8615296,-7.5503364,9.560148,-0.2348368,-1.3561013,-5.818298,0.16392969,0
1.7300000000000013,12.804248699981184,-1.2285424362386064,-5.10972704350999,0.37290791523070166,13.645292,-1.079378,-2.715347,0.7990016,1.7552314,-1.9055341,2.0107787,-0.48255685,-0.1538444,-0.08106989,-0.8584276,-7.507907,9.563444,-0.21219222,-1.336182,-5.7078037,0.17418432,0
1.7400000000000013,12.804248699981184,-1.2285424362386064,-5.10972704350999,0.37290791523070166,13.645292,-1.079378,-2.715347,0.7990016,1.6803739,-1.8099134,2.0087667,-0.48489928,-0.17493887,-0.06154612,-0.85468155,-7.4632697,9.559595,-0.19036205,-1.3193705,-5.6145406,0.18393575,0
1.7500000000000013,12.804248699981184,-1.2285424362386064,-5.10972704350999,0.37290791523070166,13.645292,-1.079378,-2.715347,0.7990016,1.6059729,-1.7143662,2.0069675,-0.4867572,-0.19556151,-0.04223677,-0.85031676,-7.416606,9.548734,-0.16973902,-1.3051817,-5.5358214,0.19320866,0
1.7600000000000013,12.246078892348542,-0.9275216149249011,-1.1916419305040924,0.6039976521818904,13.183416,-0.901649,-2.957073,0.84734654,1.532048,-1.618962,2.0053668,-0.48815417,-0.2157516,-0.023116017,-0.845353,-7.3680882,9.530997,-0.15069693,-1.2932068,-5.4693775,0.20202656,0
1.7700000000000014,12.246078892348542,-0.9275216149249011,-1.1916419305040924,0.6039976521818904,13.183416,-0.901649,-2.957073,0.84734654,1.4586059,-1.523764,2.003922,-0.48904592,-0.23428354,-0.0050248723,-0.84019005,-7.3201056,9.50767,-0.13858476,-1.2362039,-4.8022757,0.2217514,0
1.7800000000000014,12.246078892348542,-0.9275216149249011,-1.1916419305040924,0.6039976521818904,13.183416,-0.901649,-2.957073,0.84734654,1.38565,-1.4288285,2.0025885,-0.4894752,-0.25022087,0.01137159,-0.8352685,-7.2708874,9.478605,-0.12839457,-1.1880943,-4.239207,0.24050835,0
1.7900000000000014,12.246078892348542,-0.9275216149249011,-1.1916419305040924,0.6039976521818904,13.183416,-0.901649,-2.957073,0.84734654,1.3131912,-1.3342094,2.0013473,-0.4895616,-0.2639798,0.02633318,-0.83063227,-7.220771,9.444482,-0.12010649,-1.1474884,-3.7639477,0.2583449,0
1.8000000000000014,11.82701361940898,-0.6201566275493301,2.771535079461716,0.7402796788070567,12.594442,-0.780347,2.2162986,0.90809876,1.2412367,-1.2399544,2.00018,-0.48939162,-0.2759088,0.040082294,-0.8262946,-7.170026,9.40587,-0.11366443,-1.1132145,-3.3628044,0.27530617,1
1.8100000000000014,11.82701361940898,-0.6201566275493301,2.771535079461716,0.7402796788070567,12.594442,-0.780347,2.2162986,0.90809876,1.1697991,-1.1461116,1.9990828,-0.48904753,-0.28520522,0.05210378,-0.82266325,-7.1174374,9.362102,-0.10603146,-1.0614085,-2.4927588,0.30635747,1
1.8200000000000014,11.82701361940898,-0.6201566275493301,2.771535079461716,0.7402796788070567,12.594442,-0.780347,2.2162986,0.90809876,1.0988882,-1.0527234,1.9980544,-0.48862463,-0.29126328,0.062005445,-0.8201013,-7.064787,9.315089,-0.09982926,-1.0176891,-1.7583948,0.3358851,1
1.8300000000000014,11.82701361940898,-0.6201566275493301,2.771535079461716,0.7402796788070567,12.594442,-0.780347,2.2162986,0.90809876,1.0285026,-0.95981824,1.9970826,-0.48818,-0.29460832,0.070126854,-0.8185155,-7.012389,9.265622,-0.094638385,-0.9807897,-1.1385534,0.3639638,1
1.8400000000000014,11.82701361940898,-0.6201566275493301,2.771535079461716,0.7402796788070567,12.906371,-0.5953226,3.5822368,0.94266176,0.9586386,-0.86741716,1.9961593,-0.48774227,-0.2956745,0.07675343,-0.81779706,-6.9604955,9.214352,-0.09007298,-0.94964355,-0.6153752,0.3906647,0
1.8500000000000014,11.82701361940898,-0.6201566275493301,2.771535079461716,0.7402796788070567,12.906371,-0.5953226,3.5822368,0.94266176,0.88927454,-0.7755196,1.9952489,-0.48733738,-0.29467273,0.081957854,-0.817895,-6.912434,9.165029,-0.09202196,-0.89839333,-0.08718545,0.4078204,0
1.8600000000000014,11.82701361940898,-0.6201566275493301,2.771535079461716,0.7402796788070567,12.906371,-0.5953226,3.5822368,0.94266176,0.820387,-0.684119,1.9943191,-0.4869807,-0.29178426,0.08580793,-0.8187477,-6.8652124,9.11502,-0.09390877,-0.8551243,0.35863274,0.42413428,0
1.8700000000000014,11.82701361940898,-0.6201566275493301,2.771535079461716,0.7402796788070567,12.906371,-0.5953226,3.5822368,0.94266176,0.7519669,-0.5932201,1.9933718,-0.48666346,-0.28729907,0.08851728,-0.8202327,-6.81898,9.064757,-0.09544846,-0.8185923,0.73492545,0.43964767,0
1.8800000000000014,11.37650626564352,-0.431881527960448,5.634362342902642,0.7773548856295881,12.28163,-0.6452352,4.5647063,0.63888955,0.68400353,-0.5028236,1.992412,-0.48637155,-0.28145912,0.090265,-0.8222377,-6.773868,9.014604,-0.09640366,-0.78774714,1.0525348,0.4543998,0
1.8900000000000015,11.37650626564352,-0.431881527960448,5.634362342902642,0.7773548856295881,12.28163,-0.6452352,4.5647063,0.63888955,0.6164768,-0.41291708,1.9914278,-0.4861653,-0.2735586,0.090583265,-0.8249866,-6.7316813,8.966807,-0.10028004,-0.7324793,1.767077,0.4702473,0
1.9000000000000015,11.37650626564352,-0.431881527960448,5.634362342902642,0.7773548856295881,12.28163,-0.6452352,4.5647063,0.63888955,0.549365,-0.32348397,1.9904102,-0.4860753,-0.26303652,0.0891061,-0.82861435,-6.69093,8.920015,-0.103028975,-0.68580866,2.3701856,0.48531714,0
1.9100000000000015,11.37650626564352,-0.431881527960448,5.634362342902642,0.7773548856295881,12.28163,-0.6452352,4.5647063,0.63888955,0.48265243,-0.23451135,1.9893723,-0.48603797,-0.2502722,0.08610779,-0.8328958,-6.6518617,8.874798,-0.104326196,-0.6463962,2.8792386,0.49964747,0
1.9200000000000015,11.164269665866115,-0.3173060934574346,5.999981289757034,0.8000361205249666,11.821412,-0.6491815,5.57308,0.8184145,0.41632116,-0.14598091,1.9883294,-0.48598978,-0.23558414,0.08181866,-0.8376269,-6.614709,8.831651,-0.10394008,-0.6131117,3.308904,0.5132747,1
1.9300000000000015,11.164269665866115,-0.3173060934574346,5.999981289757034,0.8000361205249666,11.821412,-0.6491815,5.57308,0.8184145,0.35035783,-0.057877757,1.9873191,-0.48588485,-0.2192198,0.07651892,-0.84261644,-6.5783253,8.789417,-0.097800955,-0.6188902,3.6619933,0.5282481,1
1.9400000000000015,11.164269665866115,-0.3173060934574346,5.999981289757034,0.8000361205249666,11.821412,-0.6491815,5.57308,0.8184145,0.2847462,0.029817665,1.9863801,-0.485678,-0.20139188,0.07044161,-0.84769994,-6.544403,8.750158,-0.08968864,-0.62375325,3.9600186,0.54248667,1
1.9500000000000015,11.164269665866115,-0.3173060934574346,5.999981289757034,0.8000361205249666,11.821412,-0.6491815,5.57308,0.8184145,0.21946052,0.117136754,1.9855322,-0.48531502,-0.18230423,0.06370273,-0.85274583,-6.513173,8.714199,-0.07960207,-0.62784463,4.211568,0.5560265,1
1.9600000000000015,10.816085077341558,-0.4409369907826535,5.998855363496786,0.7643423515346855,11.748629,-0.70036495,5.4179316,0.7489837,0.15447275,0.20411396,1.9847947,-0.48474962,-0.16213301,0.056401115,-0.8576413,-6.4848495,8.681823,-0.06760186,-0.631286,4.4238887,0.56890196,1
1.9700000000000015,10.816085077341558,-0.4409369907826535,5.998855363496786,0.7643423515346855,11.748629,-0.70036495,5.4179316,0.7489837,0.08975205,0.29078725,1.9841828,-0.48395017,-0.1410752,0.048667658,-0.8622763,-6.459787,8.653449,-0.054492123,-0.64214253,4.578902,0.57773864,1
1.9800000000000015,10.816085077341558,-0.4409369907826535,5.998855363496786,0.7643423515346855,11.748629,-0.70036495,5.4179316,0.7489837,0.02526579,0.37719667,1.9837104,-0.482893,-0.11930004,0.040611908,-0.86656296,-6.437988,8.629071,-0.039759785,-0.65129745,4.709741,0.5861417,1
1.9900000000000015,10.816085077341558,-0.4409369907826535,5.998855363496786,0.7643423515346855,11.748629,-0.70036495,5.4179316,0.7489837,-0.039019473,0.46338296,1.9833925,-0.48155305,-0.09691319,0.03228366,-0.870443,-6.419611,8.608845,-0.02360693,-0.65901667,4.8201766,0.5941324,1
2.0000000000000013,,,,,11.8570175,-0.6592804,3.4700985,0.91754353,-0.103138685,0.54938823,1.9832423,-0.4799102,-0.07400783,0.02372612,-0.87386775,-6.4048004,8.592899,-0.0062650237,-0.6655253,4.9133897,0.60173106,0
2.010000000000001,,,,,11.8570175,-0.6592804,3.4700985,0.91754353,-0.16713604,0.6352641,1.983192,-0.47793123,-0.05134524,0.015295802,-0.8767612,-6.395164,8.582874,-0.0037029656,-0.65279526,4.700038,0.6108843,0
2.020000000000001,,,,,11.8570175,-0.6592804,3.4700985,0.91754353,-0.23105277,0.7210582,1.9831702,-0.4756209,-0.02954062,0.007276687,-0.8791234,-6.388664,8.576507,-0.0005924044,-0.6420599,4.519958,0.6195883,0
2.0300000000000007,,,,,11.8570175,-0.6592804,3.4700985,0.91754353,-0.29491988,0.80680627,1.9831811,-0.4730128,-0.008471428,-0.00039447355,-0.88101405,-6.385226,8.573642,0.0028284064,-0.633007,4.367961,0.62786525,0
2.0400000000000005,,,,,11.8570175,-0.6592804,3.4700985,0.91754353,-0.3587676,0.8925426,1.983227,-0.47013363,0.011966496,-0.0077710566,-0.88247925,-6.3847847,8.574138,0.006346144,-0.6253728,4.2396674,0.635736,0
2.0500000000000003,,,,,11.015366,-0.85951674,0.17502615,0.7194404,-0.42262563,0.9783002,1.9833076,-0.4670046,0.031861372,-0.014897979,-0.88355446,-6.3872814,8.577869,0.009767198,-0.6189352,4.1313806,0.6432205,1
2.06,,,,,11.015366,-0.85951674,0.17502615,0.7194404,-0.48652512,1.0641133,1.9834638,-0.46367744,0.05014753,-0.021087617,-0.88433176,-6.393082,8.585241,0.021414058,-0.65620404,3.514372,0.6469607,1
2.07,,,,,11.015366,-0.85951674,0.17502615,0.7194404,-0.550497,1.1500148,1.9837344,-0.46023032,0.06598677,-0.025803389,-0.88496715,-6.4017076,8.595447,0.03264928,-0.68769836,2.9935882,0.6505173,1
2.0799999999999996,,,,,11.015366,-0.85951674,0.17502615,0.7194404,-0.61456805,1.2360301,1.984115,-0.45670527,0.079756215,-0.029282995,-0.885551,-6.4128623,8.607959,0.043416433,-0.714313,2.5540223,0.6538994,1
2.0899999999999994,,,,,10.645755,-1.0034379,-3.59322,0.6531242,-0.67876214,1.3221803,1.9846009,-0.4531289,0.0917758,-0.031726364,-0.8861397,-6.4262934,8.622331,0.053696565,-0.73680425,2.183008,0.65711546,1
2.099999999999999,,,,,10.645755,-1.0034379,-3.59322,0.6531242,-0.7430984,1.4084791,1.9851692,-0.44957215,0.10100661,-0.032568835,-0.88691634,-6.4412265,8.6376,0.059887942,-0.7780001,1.2821909,0.65691966,1
2.109999999999999,,,,,10.645755,-1.0034379,-3.59322,0.6531242,-0.80759186,1.4949346,1.9857976,-0.44609964,0.10664066,-0.03137745,-0.8880524,-6.457677,8.653563,0.06574777,-0.8128317,0.5218587,0.6567334,1
2.1199999999999988,,,,,10.645755,-1.0034379,-3.59322,0.6531242,-0.87225556,1.5815502,1.9864837,-0.44270408,0.109236605,-0.028481895,-0.88953245,-6.4751973,8.669528,0.07143237,-0.84228224,-0.119898245,0.6565563,1
2.1299999999999986,,,,,10.212784,-1.0019386,-5.750077,0.5680378,-0.93709815,1.6683232,1.9872262,-0.43936515,0.1092635,-0.024157666,-0.89131075,-6.493403,8.684924,0.07708512,-0.86718285,-0.66157156,0.65638787,1
2.1399999999999983,,,,,10.212784,-1.0019386,-5.750077,0.5680378,-1.002121,1.755242,1.9880044,-0.43608415,0.1063452,-0.01825656,-0.89341295,-6.511185,8.698653,0.07861068,-0.8878629,-1.4551276,0.6520525,1
2.149999999999998,,,,,10.212784,-1.0019386,-5.750077,0.5680378,-1.0673214,1.8422905,1.9887992,-0.4328418,0.100198895,-0.010674492,-0.8958196,-6.528852,8.710752,0.08036699,-0.90537417,-2.1249275,0.6479299,1
2.159999999999998,,,,,10.212784,-1.0019386,-5.750077,0.5680378,-1.1326962,1.9294494,1.989613,-0.42958015,0.09131357,-0.0016828852,-0.8983977,-6.545978,8.720665,0.082456835,-0.92020166,-2.6902714,0.6440096,1
2.1699999999999977,,,,,10.43521,-1.1071097,-5.979324,0.30451053,-1.1982379,2.0166945,1.9904497,-0.426243,0.0801023,0.0084893815,-0.9010144,-6.562189,8.727924,0.08492443,-0.9327563,-3.1674497,0.6402816,1
2.1799999999999975,,,,,10.43521,-1.1071097,-5.979324,0.30451053,-1.2639375,2.103998,1.9913238,-0.42280364,0.0668503,0.019727862,-0.9035361,-6.57748,8.732226,0.0899556,-0.9598022,-3.6059606,0.6238053,1
2.1899999999999973,,,,,10.43521,-1.1071097,-5.979324,0.30451053,-1.329782,2.191327,1.9922498,-0.41923812,0.051803384,0.031929955,-0.9058338,-6.591188,8.733047,0.095293924,-0.9826648,-3.9760845,0.6081374,1
