time-since-start [s],throttle_mpc,roll_mpc,pitch_mpc,yaw_mpc,throttle_nw,roll_nw,pitch_nw,yaw_nw,position_x [m],position_y [m],position_z [m],rotation_w [quaternion],rotation_x [quaternion],rotation_y [quaternion],rotation_z [quaternion],velocity_x [m/s],velocity_y [m/s],velocity_z [m/s],omega_x [rad/s],omega_y [rad/s],omega_z [rad/s],network_used
0.0,6.032144364855328,5.854139940999603,-5.999999846727628,-3.3449934267550154,14.808796,0.8918353,-3.2558265,-0.009138396,17.151487,-10.2737,1.7575412,-0.0010578381,-0.32650837,0.14685762,0.93371516,-10.417338,-1.7883329,0.8938862,1.4521333,-0.3916349,0.09032289,0
0.01,6.032144364855328,5.854139940999603,-5.999999846727628,-3.3449934267550154,16.409801,2.3052921,-5.371731,-0.87139565,17.047134,-10.291496,1.7662151,0.028512415,-0.3006603,0.16860206,0.938277,-10.4529085,-1.7704566,0.8410841,5.85414,-6.0,-3.3449934,0
0.02,6.032144364855328,5.854139940999603,-5.999999846727628,-3.3449934267550154,16.409801,2.3052921,-5.371731,-0.87139565,16.942442,-10.309096,1.7743664,0.058024608,-0.27420005,0.19000322,0.9409284,-10.485014,-1.7490534,0.78932875,5.85414,-6.0,-3.3449934,0
0.03,6.032144364855328,5.854139940999603,-5.999999846727628,-3.3449934267550154,16.409801,2.3052921,-5.371731,-0.87139565,16.837446,-10.326467,1.7820044,0.08741866,-0.2471815,0.21101749,0.94166386,-10.513353,-1.7243834,0.73839825,5.85414,-6.0,-3.3449934,0
0.04,6.032144364855328,5.854139940999603,-5.999999846727628,-3.3449934267550154,12.0530405,-1.4102308,-4.6835337,-0.20526186,16.732187,-10.343575,1.7891363,0.11663471,-0.21965966,0.23160209,0.940482,-10.537656,-1.6967332,0.6880639,5.85414,-6.0,-3.3449934,0
0.05,6.032144364855328,5.854139940999603,-5.999999846727628,-3.3449934267550154,12.0530405,-1.4102308,-4.6835337,-0.20526186,16.626709,-10.360393,1.7957668,0.14561327,-0.19169055,0.25171512,0.9373852,-10.557682,-1.6664138,0.6380923,5.85414,-6.0,-3.3449934,0
0.060000000000000005,6.032144364855328,5.854139940999603,-5.999999846727628,-3.3449934267550154,12.0530405,-1.4102308,-4.6835337,-0.20526186,16.521051,-10.376896,1.8018985,0.17429535,-0.16333112,0.27131563,0.9323798,-10.57323,-1.6337575,0.58824694,5.85414,-6.0,-3.3449934,0
0.07,6.032144364855328,5.854139940999603,-5.999999846727628,-3.3449934267550154,12.0530405,-1.4102308,-4.6835337,-0.20526186,16.41526,-10.393063,1.8075314,0.20262253,-0.13463913,0.2903637,0.92547584,-10.584132,-1.5991162,0.5382905,5.85414,-6.0,-3.3449934,0
0.08,11.857051362918975,4.782242110930781,-5.999999793703447,-1.3376336425269533,12.627539,-1.6859527,3.5840209,-0.17701186,16.309383,-10.408874,1.8126631,0.23053715,-0.10567299,0.30882055,0.9166874,-10.59026,-1.5628575,0.4879862,5.85414,-6.0,-3.3449934,0
0.09,11.857051362918975,4.782242110930781,-5.999999793703447,-1.3376336425269533,12.627539,-1.6859527,3.5840209,-0.17701186,16.20346,-10.424136,1.8175182,0.24828017,-0.0746531,0.32287905,0.9102379,-10.59298,-1.4894638,0.48293704,4.7822423,-6.0,-1.3376336,0
0.09999999999999999,11.857051362918975,4.782242110930781,-5.999999793703447,-1.3376336425269533,12.627539,-1.6859527,3.5840209,-0.17701186,16.097553,-10.43866,1.8223184,0.26564673,-0.043520004,0.33644795,0.90240824,-10.586712,-1.4150879,0.4769318,4.7822423,-6.0,-1.3376336,0
0.10999999999999999,11.857051362918975,4.782242110930781,-5.999999793703447,-1.3376336425269533,12.627539,-1.6859527,3.5840209,-0.17701186,15.9917555,-10.452436,1.8270518,0.2826105,-0.012320924,0.34950674,0.8932103,-10.571474,-1.3402617,0.46950355,4.7822423,-6.0,-1.3376336,0
0.11999999999999998,11.857051362918975,4.782242110930781,-5.999999793703447,-1.3376336425269533,12.627539,-1.6859527,3.5840209,-0.17701186,15.886155,-10.465466,1.8317019,0.29914576,0.018896837,0.36203554,0.88265795,-10.54734,-1.2655197,0.46019387,4.7822423,-6.0,-1.3376336,0
0.12999999999999998,16.340575125567177,2.0039158068211247,-5.999999333075379,0.0998725264321589,15.95194,-1.9893087,3.5157356,0.35092643,15.780839,-10.477749,1.8362476,0.31522745,0.050085947,0.3740154,0.8707673,-10.51444,-1.1913962,0.4485559,4.7822423,-6.0,-1.3376336,0
0.13999999999999999,16.340575125567177,2.0039158068211247,-5.999999333075379,0.0998725264321589,15.95194,-1.9893087,3.5157356,0.35092643,15.675969,-10.4891615,1.840826,0.3253518,0.079524204,0.3730713,0.86523986,-10.458123,-1.0916789,0.46698073,2.0039158,-5.9999995,0.09987253,0
0.15,16.340575125567177,2.0039158068211247,-5.999999333075379,0.0998725264321589,15.95194,-1.9893087,3.5157356,0.35092643,15.57171,-10.4995985,1.8455831,0.33515066,0.1088829,0.37175393,0.8588467,-10.392526,-0.9963443,0.48421228,2.0039158,-5.9999995,0.09987253,0
0.16,17.032978364625414,0.17449161112116007,-5.334455944645399,0.34946984991451496,15.2645855,-2.3651721,2.4248207,-0.3353519,15.46815,-10.509105,1.8505044,0.34461415,0.13813263,0.37006462,0.85159427,-10.317907,-0.9057669,0.49978197,2.0039158,-5.9999995,0.09987253,0
0.17,17.032978364625414,0.17449161112116007,-5.334455944645399,0.34946984991451496,15.2645855,-2.3651721,2.4248207,-0.3353519,15.3653965,-10.517714,1.8555974,0.35275185,0.16174167,0.36124328,0.84788513,-10.231894,-0.81694597,0.5188067,0.17449161,-5.334456,0.34946984,0
0.18000000000000002,17.032978364625414,0.17449161112116007,-5.334455944645399,0.34946984991451496,15.2645855,-2.3651721,2.4248207,-0.3353519,15.263535,-10.525467,1.8608792,0.3606373,0.18523504,0.35216358,0.8435696,-10.1393585,-0.7344466,0.53748363,0.17449161,-5.334456,0.34946984,0
0.19000000000000003,17.032978364625414,0.17449161112116007,-5.334455944645399,0.34946984991451496,15.2645855,-2.3651721,2.4248207,-0.3353519,15.16263,-10.532427,1.8663446,0.36826482,0.20859593,0.34283203,0.83865076,-10.040551,-0.6584874,0.5554572,0.17449161,-5.334456,0.34946984,0
0.20000000000000004,15.424476876913936,-0.47628073388155645,-1.4274041242192876,0.03414924702211654,16.007507,-1.3284614,3.5740976,-0.9488204,15.062744,-10.538661,1.8719846,0.37562892,0.23180763,0.3332553,0.8331321,-9.935739,-0.58926827,0.5723736,0.17449161,-5.334456,0.34946984,0
0.21000000000000005,15.424476876913936,-0.47628073388155645,-1.4274041242192876,0.03414924702211654,16.007507,-1.3284614,3.5740976,-0.9488204,14.963879,-10.544261,1.877735,0.3784065,0.23690948,0.3285414,0.8323118,-9.8371725,-0.5312611,0.5777674,-0.47628072,-1.4274042,0.03414925,0
0.22000000000000006,15.424476876913936,-0.47628073388155645,-1.4274041242192876,0.03414924702211654,16.007507,-1.3284614,3.5740976,-0.9488204,14.866004,-10.549292,1.8835405,0.38116264,0.2419979,0.3238089,0.83144444,-9.737628,-0.47534752,0.58337677,-0.47628072,-1.4274042,0.03414925,0
0.23000000000000007,15.424476876913936,-0.47628073388155645,-1.4274041242192876,0.03414924702211654,16.007507,-1.3284614,3.5740976,-0.9488204,14.76913,-10.553774,1.8894032,0.3838972,0.24707262,0.3190581,0.8305299,-9.637127,-0.42154008,0.58917767,-0.47628072,-1.4274042,0.03414925,0
0.24000000000000007,15.424476876913936,-0.47628073388155645,-1.4274041242192876,0.03414924702211654,16.53616,-0.9356309,3.520094,-0.73914355,14.6732645,-10.55773,1.8953247,0.38661,0.25213337,0.31428918,0.8295684,-9.535692,-0.36985078,0.5951461,-0.47628072,-1.4274042,0.03414925,0
0.25000000000000006,15.424476876913936,-0.47628073388155645,-1.4274041242192876,0.03414924702211654,16.53616,-0.9356309,3.520094,-0.73914355,14.578418,-10.561179,1.9013066,0.3893009,0.25717983,0.3095025,0.8285599,-9.433346,-0.32029116,0.6012579,-0.47628072,-1.4274042,0.03414925,0
0.26000000000000006,15.424476876913936,-0.47628073388155645,-1.4274041242192876,0.03414924702211654,16.53616,-0.9356309,3.520094,-0.73914355,14.4846,-10.564143,1.9073504,0.39196977,0.2622117,0.3046983,0.82750446,-9.330111,-0.27287224,0.60748893,-0.47628072,-1.4274042,0.03414925,0
0.2700000000000001,15.424476876913936,-0.47628073388155645,-1.4274041242192876,0.03414924702211654,16.53616,-0.9356309,3.520094,-0.73914355,14.391819,-10.566644,1.9134569,0.39461643,0.26722875,0.2998768,0.8264021,-9.226009,-0.22760452,0.61381483,-0.47628072,-1.4274042,0.03414925,0
0.2800000000000001,14.151492872166061,-0.6861621382183221,1.0097548374986949,-0.15339621384455768,17.014048,-1.0884732,4.4621744,-1.1824046,14.300082,-10.568703,1.919627,0.39724076,0.27223065,0.29503834,0.82525307,-9.121065,-0.18449813,0.6202114,-0.47628072,-1.4274042,0.03414925,0
0.2900000000000001,14.151492872166061,-0.6861621382183221,1.0097548374986949,-0.15339621384455768,17.014048,-1.0884732,4.4621744,-1.1824046,14.209354,-10.570355,1.9258192,0.39731058,0.26646987,0.29441583,0.8273194,-9.024778,-0.14594162,0.61838365,-0.6861621,1.0097549,-0.15339622,0
0.3000000000000001,14.151492872166061,-0.6861621382183221,1.0097548374986949,-0.15339621384455768,17.014048,-1.0884732,4.4621744,-1.1824046,14.119582,-10.57162,1.931998,0.39736536,0.260699,0.2937822,0.8293544,-8.9297495,-0.10671716,0.61753213,-0.6861621,1.0097549,-0.15339622,0
0.3100000000000001,14.151492872166061,-0.6861621382183221,1.0097548374986949,-0.15339621384455768,17.014048,-1.0884732,4.4621744,-1.1824046,14.030754,-10.572489,1.9381732,0.39740512,0.25491825,0.29313743,0.83135796,-8.835994,-0.06682831,0.6176412,-0.6861621,1.0097549,-0.15339622,0
0.3200000000000001,12.801356693635302,-1.0913468919988736,5.369247971497754,-0.41143863252558605,16.921934,-1.6835632,5.07538,-2.1918812,13.942857,-10.572955,1.9443542,0.39742982,0.2491279,0.29248157,0.83333004,-8.743525,-0.026278684,0.6186951,-0.6861621,1.0097549,-0.15339622,0
0.3300000000000001,12.801356693635302,-1.0913468919988736,5.369247971497754,-0.41143863252558605,16.921934,-1.6835632,5.07538,-2.1918812,13.855832,-10.573028,1.950504,0.39250216,0.22389491,0.29900512,0.8404812,-8.662352,0.01257802,0.6116148,-1.0913469,5.369248,-0.41143864,0
0.34000000000000014,12.801356693635302,-1.0913468919988736,5.369247971497754,-0.41143863252558605,16.921934,-1.6835632,5.07538,-2.1918812,13.769595,-10.572688,1.956593,0.3872783,0.19849296,0.30530304,0.84699804,-8.58595,0.056185182,0.60649216,-1.0913469,5.369248,-0.41143864,0
0.35000000000000014,12.801356693635302,-1.0913468919988736,5.369247971497754,-0.41143863252558605,16.921934,-1.6835632,5.07538,-2.1918812,13.684096,-10.571889,1.9626393,0.38176215,0.17294122,0.31137052,0.8528757,-8.514538,0.10443096,0.6030298,-1.0913469,5.369248,-0.41143864,0
0.36000000000000015,12.303597851929373,-0.9542465973458657,5.73130996651776,-0.5749557952692735,17.835943,-1.678374,4.909948,-1.8126036,13.599286,-10.570585,1.9686582,0.37595788,0.14725897,0.31720302,0.8581097,-8.4483185,0.1571895,0.6009252,-1.0913469,5.369248,-0.41143864,0
0.37000000000000016,12.303597851929373,-0.9542465973458657,5.73130996651776,-0.5749557952692735,17.835943,-1.678374,4.909948,-1.8126036,13.515099,-10.568741,1.9746425,0.36987805,0.11990397,0.3241696,0.862396,-8.389923,0.21225454,0.5960546,-0.9542466,5.73131,-0.5749558,0
0.38000000000000017,12.303597851929373,-0.9542465973458657,5.73130996651776,-0.5749557952692735,17.835943,-1.678374,4.909948,-1.8126036,13.431468,-10.566324,1.9805812,0.36348304,0.09244679,0.33085993,0.8659474,-8.337083,0.27178016,0.59175456,-0.9542466,5.73131,-0.5749558,0
0.3900000000000002,12.303597851929373,-0.9542465973458657,5.73130996651776,-0.5749557952692735,17.835943,-1.678374,4.909948,-1.8126036,13.348338,-10.563291,1.9864783,0.35677826,0.06491083,0.3372683,0.8687608,-8.289956,0.33559123,0.58768207,-0.9542466,5.73131,-0.5749558,0
0.4000000000000002,12.156887268671577,-0.8068455713132001,5.108180187649449,-0.6826887627871137,15.74758,-2.0220072,3.3472428,-1.07797,13.265651,-10.559599,1.9923344,0.34976947,0.037319556,0.3433893,0.87083393,-8.248685,0.40349787,0.58349323,-0.9542466,5.73131,-0.5749558,0
0.4100000000000002,12.156887268671577,-0.8068455713132001,5.108180187649449,-0.6826887627871137,15.74758,-2.0220072,3.3472428,-1.07797,13.183345,-10.555212,1.998141,0.34400377,0.012484605,0.34881955,0.87168217,-8.213555,0.47430038,0.5777451,-0.80684555,5.10818,-0.6826888,0
0.4200000000000002,12.156887268671577,-0.8068455713132001,5.108180187649449,-0.6826887627871137,15.74758,-2.0220072,3.3472428,-1.07797,13.101363,-10.550101,2.003887,0.33800408,-0.012358839,0.35401252,0.8719375,-8.183734,0.5483915,0.5712811,-0.80684555,5.10818,-0.6826888,0
0.4300000000000002,12.156887268671577,-0.8068455713132001,5.108180187649449,-0.6826887627871137,15.74758,-2.0220072,3.3472428,-1.07797,13.019652,-10.544233,2.0095634,0.33177447,-0.037193872,0.35896468,0.8715997,-8.159282,0.62559927,0.5638285,-0.80684555,5.10818,-0.6826888,0
0.4400000000000002,12.156887268671577,-0.8068455713132001,5.108180187649449,-0.6826887627871137,14.3887615,-1.3994185,2.2188332,-1.1801203,12.938159,-10.53758,2.0151594,0.32531917,-0.062003613,0.36367267,0.870669,-8.140243,0.7057431,0.55511767,-0.80684555,5.10818,-0.6826888,0
0.45000000000000023,12.156887268671577,-0.8068455713132001,5.108180187649449,-0.6826887627871137,14.3887615,-1.3994185,2.2188332,-1.1801203,12.85683,-10.530109,2.0206606,0.3186426,-0.08677117,0.36813328,0.86914605,-8.126647,0.78863436,0.54488176,-0.80684555,5.10818,-0.6826888,0
0.46000000000000024,12.156887268671577,-0.8068455713132001,5.108180187649449,-0.6826887627871137,14.3887615,-1.3994185,2.2188332,-1.1801203,12.775608,-10.521797,2.0260508,0.31174922,-0.11147971,0.37234348,0.86703193,-8.11851,0.8740772,0.53285867,-0.80684555,5.10818,-0.6826888,0
0.47000000000000025,12.156887268671577,-0.8068455713132001,5.108180187649449,-0.6826887627871137,14.3887615,-1.3994185,2.2188332,-1.1801203,12.694441,-10.512619,2.0313108,0.3046438,-0.13611242,0.3763004,0.86432797,-8.115834,0.9618686,0.5187908,-0.80684555,5.10818,-0.6826888,0
0.48000000000000026,11.89007152767636,-0.3984714766663959,2.4226700627141886,-0.7446953979739205,12.282657,-1.1415879,2.158481,-0.8534564,12.613274,-10.502552,2.0364187,0.29733118,-0.16065253,0.38000134,0.86103606,-8.118604,1.0517993,0.50242627,-0.80684555,5.10818,-0.6826888,1
0.49000000000000027,11.89007152767636,-0.3984714766663959,2.4226700627141886,-0.7446953979739205,12.282657,-1.1415879,2.158481,-0.8534564,12.532053,-10.491573,2.041357,0.29596254,-0.17325012,0.37757823,0.8601304,-8.125928,1.1440123,0.48512697,-1.1415879,2.158481,-0.8534564,1
0.5000000000000002,11.89007152767636,-0.3984714766663959,2.4226700627141886,-0.7446953979739205,12.282657,-1.1415879,2.158481,-0.8534564,12.450744,-10.4796715,2.0461192,0.29454437,-0.18581872,0.375092,0.859081,-8.136179,1.2364763,0.4672203,-1.1415879,2.158481,-0.8534564,1
0.5100000000000002,11.89007152767636,-0.3984714766663959,2.4226700627141886,-0.7446953979739205,12.282657,-1.1415879,2.158481,-0.8534564,12.369319,-10.466844,2.050699,0.29307696,-0.19835623,0.372543,0.8578878,-8.149344,1.329153,0.44863987,-1.1415879,2.158481,-0.8534564,1
0.5200000000000002,11.911331063320752,0.1179865641822381,0.7706776427615595,-0.7023235820120691,14.250527,-1.3986514,1.4246802,-0.41887,12.287746,-10.453088,2.0550892,0.2915605,-0.21086057,0.36993173,0.8565512,-8.165411,1.4220036,0.4293197,-1.1415879,2.158481,-0.8534564,0
0.5300000000000002,11.911331063320752,0.1179865641822381,0.7706776427615595,-0.7023235820120691,14.250527,-1.3986514,1.4246802,-0.41887,12.206005,-10.438417,2.0592709,0.29326323,-0.21528533,0.37081498,0.8544848,-8.182963,1.5122826,0.40691343,0.11798657,0.7706776,-0.70232356,0
0.5400000000000003,11.911331063320752,0.1179865641822381,0.7706776427615595,-0.7023235820120691,14.250527,-1.3986514,1.4246802,-0.41887,12.124084,-10.422842,2.0632255,0.29495797,-0.21970415,0.371688,0.8523949,-8.201098,1.6029532,0.38389936,0.11798657,0.7706776,-0.70232356,0
0.5500000000000003,11.911331063320752,0.1179865641822381,0.7706776427615595,-0.7023235820120691,14.250527,-1.3986514,1.4246802,-0.41887,12.04198,-10.406358,2.0669467,0.29664454,-0.22411695,0.37255082,0.85028154,-8.2198105,1.6940129,0.36027026,0.11798657,0.7706776,-0.70232356,0
0.5600000000000003,11.650451787189276,0.6389757737003521,-0.865590677964089,-0.6536822217202698,13.2354145,-0.31035975,0.20311235,-0.30850235,11.959685,-10.388961,2.0704286,0.29832295,-0.22852357,0.37340334,0.8481447,-8.239093,1.7854594,0.33601895,0.11798657,0.7706776,-0.70232356,0
0.5700000000000003,11.650451787189276,0.6389757737003521,-0.865590677964089,-0.6536822217202698,13.2354145,-0.31035975,0.20311235,-0.30850235,11.8772,-10.370658,2.0736578,0.3034353,-0.22511566,0.37406763,0.8469489,-8.257838,1.8751616,0.3098584,0.6389758,-0.8655907,-0.65368223,0
0.5800000000000003,11.650451787189276,0.6389757737003521,-0.865590677964089,-0.6536822217202698,13.2354145,-0.31035975,0.20311235,-0.30850235,11.794534,-10.351458,2.0766265,0.30853558,-0.22169885,0.37471712,0.8457196,-8.275355,1.9649162,0.2839416,0.6389758,-0.8655907,-0.65368223,0
0.5900000000000003,11.650451787189276,0.6389757737003521,-0.865590677964089,-0.6536822217202698,13.2354145,-0.31035975,0.20311235,-0.30850235,11.711698,-10.33136,2.0793376,0.31362367,-0.21827324,0.37535173,0.8444568,-8.291643,2.0547078,0.25826642,0.6389758,-0.8655907,-0.65368223,0
0.6000000000000003,11.806909705048616,0.6389242643619424,-0.3838941960472535,-0.5911001517944272,11.693424,-0.41283387,-0.87515414,-0.0019026771,11.628705,-10.310364,2.081793,0.31869933,-0.214839,0.37597147,0.84316045,-8.306701,2.1445205,0.2328307,0.6389758,-0.8655907,-0.65368223,0
0.6100000000000003,11.806909705048616,0.6389242643619424,-0.3838941960472535,-0.5911001517944272,11.693424,-0.41283387,-0.87515414,-0.0019026771,11.545567,-10.288463,2.0839999,0.32259566,-0.21331121,0.3774141,0.84142023,-8.320863,2.2356262,0.20848313,0.63892424,-0.3838942,-0.59110016,0
0.6200000000000003,11.806909705048616,0.6389242643619424,-0.3838941960472535,-0.5911001517944272,11.693424,-0.41283387,-0.87515414,-0.0019026771,11.462291,-10.265651,2.0859625,0.32648468,-0.2117786,0.3788482,0.83966094,-8.334177,2.3269422,0.18403333,0.63892424,-0.3838942,-0.59110016,0
0.6300000000000003,11.806909705048616,0.6389242643619424,-0.3838941960472535,-0.5911001517944272,11.693424,-0.41283387,-0.87515414,-0.0019026771,11.378886,-10.241923,2.0876803,0.3303663,-0.21024121,0.3802737,0.8378828,-8.346641,2.4184606,0.15948126,0.63892424,-0.3838942,-0.59110016,0
0.6400000000000003,11.806909705048616,0.6389242643619424,-0.3838941960472535,-0.5911001517944272,11.758534,-0.74072635,-0.31129894,0.09415431,11.2953615,-10.21728,2.0891519,0.3342405,-0.20869906,0.38169062,0.8360856,-8.358253,2.510173,0.13482684,0.63892424,-0.3838942,-0.59110016,0
0.6500000000000004,11.806909705048616,0.6389242643619424,-0.3838941960472535,-0.5911001517944272,11.758534,-0.74072635,-0.31129894,0.09415431,11.211725,-10.191719,2.0903766,0.33810714,-0.20715217,0.3830989,0.8342696,-8.36901,2.6020715,0.11007001,0.63892424,-0.3838942,-0.59110016,0
0.6600000000000004,11.806909705048616,0.6389242643619424,-0.3838941960472535,-0.5911001517944272,11.758534,-0.74072635,-0.31129894,0.09415431,11.127985,-10.165238,2.0913532,0.3419661,-0.2056006,0.3844985,0.83243465,-8.378912,2.6941476,0.08521075,0.63892424,-0.3838942,-0.59110016,0
0.6700000000000004,11.806909705048616,0.6389242643619424,-0.3838941960472535,-0.5911001517944272,11.758534,-0.74072635,-0.31129894,0.09415431,11.044149,-10.1378355,2.0920806,0.34581733,-0.20404439,0.3858894,0.8305809,-8.387957,2.786393,0.06024901,0.63892424,-0.3838942,-0.59110016,0
0.6800000000000004,11.733854444079377,0.6259930636489157,-1.022187576580996,-0.5653937608206927,11.388276,-0.91487324,-0.27048108,0.011355478,10.960229,-10.109509,2.092558,0.34966075,-0.20248355,0.38727158,0.8287083,-8.396142,2.8787994,0.035184763,0.63892424,-0.3838942,-0.59110016,0
0.6900000000000004,11.733854444079377,0.6259930636489157,-1.022187576580996,-0.5653937608206927,11.388276,-0.91487324,-0.27048108,0.011355478,10.876232,-10.080262,2.092782,0.35460886,-0.19824404,0.3874974,0.8275243,-8.403236,2.970664,0.009739406,0.6259931,-1.0221876,-0.56539375,0
0.7000000000000004,11.733854444079377,0.6259930636489157,-1.022187576580996,-0.5653937608206927,11.388276,-0.91487324,-0.27048108,0.011355478,10.79217,-10.0500965,2.0927536,0.35954142,-0.19399583,0.3877062,0.8263041,-8.408983,3.0623407,-0.015350026,0.6259931,-1.0221876,-0.56539375,0
0.7100000000000004,11.733854444079377,0.6259930636489157,-1.022187576580996,-0.5653937608206927,11.388276,-0.91487324,-0.27048108,0.011355478,10.708057,-10.019014,2.0924761,0.36445817,-0.1897391,0.38789797,0.8250476,-8.413384,3.153811,-0.040088132,0.6259931,-1.0221876,-0.56539375,0
0.7200000000000004,11.86976779158424,0.5273972133950809,-0.7474961394404254,-0.5057637174329117,11.226937,-1.0047513,-0.794527,-0.06912041,10.623907,-9.9870205,2.091953,0.36935893,-0.18547402,0.3880727,0.8237549,-8.41644,3.2450573,-0.06447956,0.6259931,-1.0221876,-0.56539375,0
0.7300000000000004,11.86976779158424,0.5273972133950809,-0.7474961394404254,-0.5057637174329117,11.226937,-1.0047513,-0.794527,-0.06912041,10.539732,-9.954109,2.0911918,0.3733765,-0.18240012,0.38839012,0.8224795,-8.418288,3.3371546,-0.08772137,0.5273972,-0.7474961,-0.5057637,0
0.7400000000000004,11.86976779158424,0.5273972133950809,-0.7474961394404254,-0.5057637174329117,11.226937,-1.0047513,-0.794527,-0.06912041,10.455544,-9.920278,2.0901992,0.37738386,-0.17932123,0.38869694,0.8211816,-8.41908,3.4290962,-0.11075406,0.5273972,-0.7474961,-0.5057637,0
0.7500000000000004,11.86976779158424,0.5273972133950809,-0.7474961394404254,-0.5057637174329117,11.226937,-1.0047513,-0.794527,-0.06912041,10.371354,-9.885528,2.0889776,0.38138092,-0.17623743,0.38899314,0.81986123,-8.418818,3.5208719,-0.13357976,0.5273972,-0.7474961,-0.5057637,0
0.7600000000000005,11.997230751846596,0.39739979864261943,-0.8871312955273837,-0.46634785418722985,12.700583,-0.66251,0.03742048,-0.25419796,10.287171,-9.84986,2.0875287,0.3853675,-0.17314884,0.3892787,0.81851846,-8.417508,3.61247,-0.15620069,0.5273972,-0.7474961,-0.5057637,0
0.7700000000000005,11.997230751846596,0.39739979864261943,-0.8871312955273837,-0.46634785418722985,12.700583,-0.66251,0.03742048,-0.25419796,10.203008,-9.813273,2.0858588,0.3893412,-0.16965765,0.38878635,0.8176026,-8.415126,3.7048066,-0.17774032,0.3973998,-0.8871313,-0.46634784,0
0.7800000000000005,11.997230751846596,0.39739979864261943,-0.8871312955273837,-0.46634785418722985,12.700583,-0.66251,0.03742048,-0.25419796,10.118873,-9.775765,2.0839753,0.3933036,-0.16616152,0.38828272,0.81666285,-8.411696,3.7967956,-0.19890219,0.3973998,-0.8871313,-0.46634784,0
0.7900000000000005,11.997230751846596,0.39739979864261943,-0.8871312955273837,-0.46634785418722985,12.700583,-0.66251,0.03742048,-0.25419796,10.034777,-9.73734,2.081882,0.39725456,-0.16266058,0.3877678,0.81569946,-8.407223,3.8884254,-0.21968974,0.3973998,-0.8871313,-0.46634784,0
0.8000000000000005,12.14672068591024,0.2948564409892512,-0.5475905759324468,-0.40048955859538454,12.607271,-0.6926041,0.26755026,-0.333385,9.950731,-9.697999,2.0795827,0.40119398,-0.1591549,0.38724157,0.8147123,-8.401707,3.9796839,-0.24010652,0.3973998,-0.8871313,-0.46634784,1
0.8100000000000005,12.14672068591024,0.2948564409892512,-0.5475905759324468,-0.40048955859538454,12.607271,-0.6926041,0.26755026,-0.333385,9.866747,-9.657723,2.0771008,0.40147948,-0.16227831,0.3846884,0.81516486,-8.395562,4.0752764,-0.2562395,-0.6926041,0.26755026,-0.333385,1
0.8200000000000005,12.14672068591024,0.2948564409892512,-0.5475905759324468,-0.40048955859538454,12.607271,-0.6926041,0.26755026,-0.333385,9.782818,-9.616493,2.0744586,0.40175843,-0.16539903,0.38212886,0.81560403,-8.390309,4.1707144,-0.2721312,-0.6926041,0.26755026,-0.333385,1
0.8300000000000005,12.14672068591024,0.2948564409892512,-0.5475905759324468,-0.40048955859538454,12.607271,-0.6926041,0.26755026,-0.333385,9.698937,-9.574309,2.071659,0.4020307,-0.16851701,0.379563,0.8160296,-8.385949,4.265995,-0.28778842,-0.6926041,0.26755026,-0.333385,1
0.8400000000000005,12.14672068591024,0.2948564409892512,-0.5475905759324468,-0.40048955859538454,12.163809,-0.3100052,0.05540254,-0.3057561,9.615096,-9.531174,2.068704,0.4022963,-0.17163219,0.37699088,0.8164417,-8.382482,4.361115,-0.3032179,-0.6926041,0.26755026,-0.333385,1
0.8500000000000005,12.14672068591024,0.2948564409892512,-0.5475905759324468,-0.40048955859538454,12.163809,-0.3100052,0.05540254,-0.3057561,9.531285,-9.487103,2.0655808,0.40317303,-0.17305784,0.37557352,0.81636155,-8.379803,4.4527483,-0.3213685,-0.3100052,0.05540254,-0.3057561,1
0.8600000000000005,12.14672068591024,0.2948564409892512,-0.5475905759324468,-0.40048955859538454,12.163809,-0.3100052,0.05540254,-0.3057561,9.447499,-9.442117,2.062277,0.4040478,-0.17448266,0.37415433,0.8162774,-8.377462,4.5442696,-0.3393797,-0.3100052,0.05540254,-0.3057561,1
0.8700000000000006,12.14672068591024,0.2948564409892512,-0.5475905759324468,-0.40048955859538454,12.163809,-0.3100052,0.05540254,-0.3057561,9.363735,-9.396218,2.0587938,0.40492064,-0.17590664,0.37273335,0.8161894,-8.375461,4.635678,-0.35725313,-0.3100052,0.05540254,-0.3057561,1
0.8800000000000006,12.295603560883489,0.6337180444230889,-1.1662336897935135,-0.341676438690451,12.303207,0.28529558,-0.02525646,-0.2636202,9.279989,-9.349404,2.0551326,0.40579152,-0.17732978,0.3713106,0.8160974,-8.373799,4.7269735,-0.37499034,-0.3100052,0.05540254,-0.3057561,0
0.8900000000000006,12.295603560883489,0.6337180444230889,-1.1662336897935135,-0.341676438690451,12.303207,0.28529558,-0.02525646,-0.2636202,9.1962595,-9.301674,2.0512993,0.40990323,-0.17191541,0.37121856,0.81524247,-8.371776,4.8190145,-0.39159003,0.6337181,-1.1662337,-0.34167644,0
0.9000000000000006,12.295603560883489,0.6337180444230889,-1.1662336897935135,-0.341676438690451,12.303207,0.28529558,-0.02525646,-0.2636202,9.112558,-9.253025,2.0473027,0.41399568,-0.16649298,0.37110913,0.81434935,-8.368264,4.9105854,-0.40771183,0.6337181,-1.1662337,-0.34167644,0
0.9100000000000006,12.295603560883489,0.6337180444230889,-1.1662336897935135,-0.341676438690451,12.303207,0.28529558,-0.02525646,-0.2636202,9.0289,-9.203464,2.043147,0.41806865,-0.16106272,0.37098223,0.81341785,-8.363269,5.0016665,-0.42336643,0.6337181,-1.1662337,-0.34167644,0
0.9200000000000006,12.476662097478611,0.7419270295598833,-1.4954839788154919,-0.25211777002106794,12.319155,0.86903274,-0.126972,-0.23738287,8.945298,-9.152994,2.0388372,0.42212203,-0.1556249,0.37083793,0.8124482,-8.35679,5.092238,-0.43856445,0.6337181,-1.1662337,-0.34167644,0
0.9300000000000006,12.476662097478611,0.7419270295598833,-1.4954839788154919,-0.25211777002106794,12.319155,0.86903274,-0.126972,-0.23738287,8.861771,-9.101614,2.0343835,0.4264813,-0.14844598,0.37048602,0.8116752,-8.348584,5.183537,-0.45202705,0.741927,-1.495484,-0.25211778,0
0.9400000000000006,12.476662097478611,0.7419270295598833,-1.4954839788154919,-0.25211777002106794,12.319155,0.86903274,-0.126972,-0.23738287,8.778335,-9.049325,2.0297985,0.4308102,-0.14125648,0.37010774,0.8108443,-8.338531,5.2740874,-0.4648874,0.741927,-1.495484,-0.25211778,0
0.9500000000000006,12.476662097478611,0.7419270295598833,-1.4954839788154919,-0.25211777002106794,12.319155,0.86903274,-0.126972,-0.23738287,8.695007,-8.996135,2.0250876,0.43510842,-0.13405691,0.36970308,0.8099556,-8.326634,5.363862,-0.47716573,0.741927,-1.495484,-0.25211778,0
0.9600000000000006,12.922593355608328,0.2948309896467472,-0.6932601257668417,-0.21440224345603176,11.828012,0.6749957,0.08218644,-0.19520234,8.611809,-8.942051,2.020257,0.43937564,-0.12684779,0.36927208,0.8090092,-8.3129015,5.452832,-0.48888245,0.741927,-1.495484,-0.25211778,0
0.9700000000000006,12.922593355608328,0.2948309896467472,-0.6932601257668417,-0.21440224345603176,11.828012,0.6749957,0.08218644,-0.19520234,8.528757,-8.887066,2.0153272,0.44170654,-0.12379071,0.36880288,0.80842733,-8.297181,5.5442886,-0.49704996,0.29483098,-0.69326013,-0.21440224,0
0.9800000000000006,12.922593355608328,0.2948309896467472,-0.6932601257668417,-0.21440224345603176,11.828012,0.6749957,0.08218644,-0.19520234,8.445867,-8.831167,2.0103173,0.44403064,-0.120731734,0.368328,0.8078331,-8.280633,5.635317,-0.5049313,0.29483098,-0.69326013,-0.21440224,0
0.9900000000000007,12.922593355608328,0.2948309896467472,-0.6932601257668417,-0.21440224345603176,11.828012,0.6749957,0.08218644,-0.19520234,8.363147,-8.774362,2.0052297,0.44634792,-0.11767091,0.36784747,0.8072264,-8.263261,5.72591,-0.51253027,0.29483098,-0.69326013,-0.21440224,0
1.0000000000000007,12.99287891461209,0.023279047345814,-0.7193015444889027,-0.12531941747177622,12.059252,0.47523636,0.37089503,-0.18829173,8.280604,-8.716651,2.0000675,0.44865838,-0.11460828,0.36736134,0.80660737,-8.245069,5.816062,-0.5198507,0.29483098,-0.69326013,-0.21440224,0
1.0100000000000007,12.99287891461209,0.023279047345814,-0.7193015444889027,-0.12531941747177622,12.059252,0.47523636,0.37089503,-0.18829173,8.198249,-8.65804,1.9948362,0.45049536,-0.11188452,0.36576736,0.8066903,-8.226052,5.9062033,-0.5263297,0.023279047,-0.7193015,-0.12531942,0
1.0200000000000007,12.99287891461209,0.023279047345814,-0.7193015444889027,-0.12531941747177622,12.059252,0.47523636,0.37089503,-0.18829173,8.116086,-8.59853,1.9895425,0.45232633,-0.10915926,0.3641685,0.80676246,-8.206479,5.9957514,-0.5323463,0.023279047,-0.7193015,-0.12531942,0
1.0300000000000007,12.99287891461209,0.023279047345814,-0.7193015444889027,-0.12531941747177622,12.059252,0.47523636,0.37089503,-0.18829173,8.0341215,-8.538127,1.9841908,0.45415127,-0.10643256,0.36256477,0.80682385,-8.186351,6.084703,-0.53790474,0.023279047,-0.7193015,-0.12531942,0
1.0400000000000007,12.99287891461209,0.023279047345814,-0.7193015444889027,-0.12531941747177622,12.346474,0.21266964,0.17401418,-0.17935571,7.952361,-8.476837,1.9787858,0.45597014,-0.10370443,0.36095622,0.80687445,-8.165671,6.173052,-0.54300916,0.023279047,-0.7193015,-0.12531942,1
1.0500000000000007,12.99287891461209,0.023279047345814,-0.7193015444889027,-0.12531941747177622,12.346474,0.21266964,0.17401418,-0.17935571,7.8708043,-8.414689,1.9733081,0.45648932,-0.10424517,0.36211744,0.8059904,-8.145659,6.2567306,-0.55256045,0.21266964,0.17401418,-0.17935571,1
1.0600000000000007,12.99287891461209,0.023279047345814,-0.7193015444889027,-0.12531941747177622,12.346474,0.21266964,0.17401418,-0.17935571,7.789448,-8.351703,1.9677339,0.4570073,-0.10478563,0.3632777,0.8051042,-8.125553,6.340636,-0.5623472,0.21266964,0.17401418,-0.17935571,1
1.0700000000000007,12.99287891461209,0.023279047345814,-0.7193015444889027,-0.12531941747177622,12.346474,0.21266964,0.17401418,-0.17935571,7.708293,-8.287876,1.9620605,0.45752403,-0.10532581,0.364437,0.8042158,-8.105354,6.424766,-0.5723698,0.21266964,0.17401418,-0.17935571,1
1.0800000000000007,13.389601723864292,-0.36936794621549124,0.0372092812291852,-0.0912175097121448,12.843965,-0.0027270438,0.12007696,-0.23525353,7.627341,-8.2232065,1.9562857,0.45803952,-0.1058657,0.3655953,0.80332524,-8.085063,6.509121,-0.582629,0.21266964,0.17401418,-0.17935571,1
1.0900000000000007,13.389601723864292,-0.36936794621549124,0.0372092812291852,-0.0912175097121448,12.843965,-0.0027270438,0.12007696,-0.23525353,7.546596,-8.157676,1.9504249,0.4587631,-0.106784195,0.36573452,0.80272716,-8.063926,6.5970583,-0.5895315,-0.0027270438,0.12007696,-0.23525353,1
1.1000000000000008,13.389601723864292,-0.36936794621549124,0.0372092812291852,-0.0912175097121448,12.843965,-0.0027270438,0.12007696,-0.23525353,7.466062,-8.091265,1.9444947,0.4594859,-0.10770251,0.36587307,0.8021277,-8.042877,6.6850963,-0.59651035,-0.0027270438,0.12007696,-0.23525353,1
1.1100000000000008,13.389601723864292,-0.36936794621549124,0.0372092812291852,-0.0912175097121448,12.843965,-0.0027270438,0.12007696,-0.23525353,7.385738,-8.023973,1.9384944,0.46020788,-0.10862063,0.366011,0.8015269,-8.021917,6.7732344,-0.60356593,-0.0027270438,0.12007696,-0.23525353,1
1.1200000000000008,13.493951051958662,-0.7293548910528416,-0.9891847746335152,0.02253404905435679,13.41419,-0.49736345,0.10849572,-0.26188466,7.305623,-7.9557996,1.9324231,0.46092907,-0.109538555,0.3661483,0.80092466,-8.001046,6.861473,-0.6106986,-0.0027270438,0.12007696,-0.23525353,0
1.1300000000000008,13.493951051958662,-0.7293548910528416,-0.9891847746335152,0.02253404905435679,13.41419,-0.49736345,0.10849572,-0.26188466,7.225722,-7.886722,1.9263045,0.4622416,-0.107214846,0.36095324,0.8028385,-7.9792027,6.953799,-0.6128441,-0.7293549,-0.9891848,0.022534048,0
1.1400000000000008,13.493951051958662,-0.7293548910528416,-0.9891847746335152,0.02253404905435679,13.41419,-0.49736345,0.10849572,-0.26188466,7.1460385,-7.8167276,1.9201701,0.46353665,-0.10488708,0.35574457,0.804722,-7.957432,7.0449324,-0.61383975,-0.7293549,-0.9891848,0.022534048,0
1.1500000000000008,13.493951051958662,-0.7293548910528416,-0.9891847746335152,0.02253404905435679,13.41419,-0.49736345,0.10849572,-0.26188466,7.0665727,-7.7458277,1.9140314,0.46481422,-0.102555364,0.3505225,0.8065751,-7.935736,7.134859,-0.6137003,-0.7293549,-0.9891848,0.022534048,0
1.1600000000000008,13.883826431387403,-1.0664831496621618,-0.08501220809473249,0.059426379709957525,13.415254,-0.83477396,0.05003283,-0.056790534,6.9873233,-7.6740346,1.9078999,0.4660742,-0.10021976,0.3452871,0.8083978,-7.9141192,7.223565,-0.61244035,-0.7293549,-0.9891848,0.022534048,1
1.1700000000000008,13.883826431387403,-1.0664831496621618,-0.08501220809473249,0.059426379709957525,13.415254,-0.83477396,0.05003283,-0.056790534,6.908288,-7.6013618,1.9017828,0.46579495,-0.10246448,0.3419981,0.80967444,-7.893038,7.3108687,-0.6108886,-0.83477396,0.05003283,-0.056790534,1
1.1800000000000008,13.883826431387403,-1.0664831496621618,-0.08501220809473249,0.059426379709957525,13.415254,-0.83477396,0.05003283,-0.056790534,6.8294587,-7.527818,1.8956838,0.46550754,-0.104707405,0.33870304,0.8109369,-7.8729157,7.3978467,-0.6088552,-0.83477396,0.05003283,-0.056790534,1
1.1900000000000008,13.883826431387403,-1.0664831496621618,-0.08501220809473249,0.059426379709957525,13.415254,-0.83477396,0.05003283,-0.056790534,6.750826,-7.453406,1.8896073,0.46521196,-0.106948495,0.33540204,0.81218517,-7.853755,7.4844937,-0.6063474,-0.83477396,0.05003283,-0.056790534,1
1.2000000000000008,13.650371774649624,-1.087144113358954,-0.8909045930227981,0.15668598193558061,13.539788,-1.1143905,0.20061523,-0.13105965,6.67238,-7.3781295,1.8835583,0.46490818,-0.10918769,0.33209515,0.8134191,-7.8355575,7.5708046,-0.60337263,-0.83477396,0.05003283,-0.056790534,0
1.2100000000000009,13.650371774649624,-1.087144113358954,-0.8909045930227981,0.15668598193558061,13.539788,-1.1143905,0.20061523,-0.13105965,6.594113,-7.301985,1.8775512,0.4651451,-0.10782851,0.32567996,0.8160545,-7.8178673,7.657904,-0.59786916,-1.0871441,-0.8909046,0.15668598,0
1.2200000000000009,13.650371774649624,-1.087144113358954,-0.8909045930227981,0.15668598193558061,13.539788,-1.1143905,0.20061523,-0.13105965,6.5160203,-7.224976,1.8716052,0.4653588,-0.10646394,0.3192485,0.8186491,-7.8007464,7.743641,-0.5911407,-1.0871441,-0.8909046,0.15668598,0
1.2300000000000009,13.650371774649624,-1.087144113358954,-0.8909045930227981,0.15668598193558061,13.539788,-1.1143905,0.20061523,-0.13105965,6.438096,-7.1471167,1.8657326,0.4655492,-0.10509405,0.31280106,0.8212027,-7.784195,7.827997,-0.5832077,-1.0871441,-0.8909046,0.15668598,0
1.2400000000000009,13.650371774649624,-1.087144113358954,-0.8909045930227981,0.15668598193558061,13.752477,-1.1474816,0.35345,0.03541294,6.3603344,-7.068421,1.859945,0.46571633,-0.103718914,0.306338,0.82371527,-7.7682137,7.9109554,-0.5740909,-1.0871441,-0.8909046,0.15668598,0
1.2500000000000009,13.650371774649624,-1.087144113358954,-0.8909045930227981,0.15668598193558061,13.752477,-1.1474816,0.35345,0.03541294,6.2827296,-6.9889026,1.8542547,0.46586016,-0.10233858,0.2998596,0.8261867,-7.7528033,7.992499,-0.56381106,-1.0871441,-0.8909046,0.15668598,0
1.260000000000001,13.650371774649624,-1.087144113358954,-0.8909045930227981,0.15668598193558061,13.752477,-1.1474816,0.35345,0.03541294,6.205276,-6.9085755,1.8486729,0.4659807,-0.10095313,0.29336622,0.82861686,-7.737963,8.072611,-0.5523894,-1.0871441,-0.8909046,0.15668598,0
1.270000000000001,13.650371774649624,-1.087144113358954,-0.8909045930227981,0.15668598193558061,13.752477,-1.1474816,0.35345,0.03541294,6.127968,-6.827455,1.8432108,0.46607792,-0.099562645,0.28685817,0.8310056,-7.7236934,8.151273,-0.53984725,-1.0871441,-0.8909046,0.15668598,0
1.280000000000001,13.923334326121537,-1.1015787309134721,0.44764517944581766,0.1672136275999619,13.883711,-1.0610694,0.43611878,-0.100390166,6.0508003,-6.745555,1.8378797,0.4661519,-0.09816717,0.28033578,0.8333527,-7.7099943,8.228469,-0.52620625,-1.0871441,-0.8909046,0.15668598,1
1.290000000000001,13.923334326121537,-1.1015787309134721,0.44764517944581766,0.1672136275999619,13.883711,-1.0610694,0.43611878,-0.100390166,5.9737663,-6.6628823,1.8326991,0.46543038,-0.102596544,0.27687714,0.834378,-7.6970077,8.305982,-0.5098576,-1.0610694,0.43611878,-0.100390166,1
1.300000000000001,13.923334326121537,-1.1015787309134721,0.44764517944581766,0.1672136275999619,13.883711,-1.0610694,0.43611878,-0.100390166,5.8968544,-6.579436,1.8276834,0.4646934,-0.1070225,0.2734093,0.83537567,-7.6855793,8.383324,-0.49322677,-1.0610694,0.43611878,-0.100390166,1
1.310000000000001,13.923334326121537,-1.1015787309134721,0.44764517944581766,0.1672136275999619,13.883711,-1.0610694,0.43611878,-0.100390166,5.8200493,-6.4952164,1.8228354,0.46394104,-0.11144492,0.2699324,0.8363457,-7.6757107,8.460484,-0.4763296,-1.0610694,0.43611878,-0.100390166,1
1.320000000000001,13.51988054153763,-0.9964697156401359,0.034402031639576384,0.24800439180164757,14.0774,-1.0535951,0.4088114,-0.2467825,5.743335,-6.4102263,1.8181577,0.4631733,-0.11586364,0.26644656,0.837288,-7.6674037,8.537455,-0.45918217,-1.0610694,0.43611878,-0.100390166,1
1.330000000000001,13.51988054153763,-0.9964697156401359,0.034402031639576384,0.24800439180164757,14.0774,-1.0535951,0.4088114,-0.2467825,5.6666965,-6.3244624,1.8136607,0.46304372,-0.120341904,0.26283512,0.8378693,-7.6605544,8.615291,-0.44018447,-1.0535951,0.4088114,-0.2467825,1
1.340000000000001,13.51988054153763,-0.9964697156401359,0.034402031639576384,0.24800439180164757,14.0774,-1.0535951,0.4088114,-0.2467825,5.5901184,-6.237921,1.8093548,0.46289864,-0.12481614,0.25921488,0.83842254,-7.6552615,8.692894,-0.42095283,-1.0535951,0.4088114,-0.2467825,1
1.350000000000001,13.51988054153763,-0.9964697156401359,0.034402031639576384,0.24800439180164757,14.0774,-1.0535951,0.4088114,-0.2467825,5.513586,-6.150605,1.8052423,0.46273807,-0.12928618,0.2555859,0.8389478,-7.6515265,8.77026,-0.4015043,-1.0535951,0.4088114,-0.2467825,1
1.360000000000001,13.609974924140445,-1.0077548581874993,0.39414387576732896,0.2865400791676189,13.802425,-1.2443633,0.46545038,-0.10677877,5.437083,-6.062517,1.8013253,0.462562,-0.13375191,0.25194845,0.8394449,-7.649351,8.847382,-0.381856,-1.0535951,0.4088114,-0.2467825,1
1.370000000000001,13.609974924140445,-1.0077548581874993,0.39414387576732896,0.2865400791676189,13.802425,-1.2443633,0.46545038,-0.10677877,5.360593,-5.9736667,1.7975943,0.46158135,-0.13871501,0.2477251,0.8404356,-7.6488466,8.922727,-0.364313,-1.2443633,0.46545038,-0.10677877,1
1.380000000000001,13.609974924140445,-1.0077548581874993,0.39414387576732896,0.2865400791676189,13.802425,-1.2443633,0.46545038,-0.10677877,5.2841,-5.884064,1.7940397,0.46058023,-0.14367194,0.24349074,0.84138894,-7.650137,8.997752,-0.34656882,-1.2443633,0.46545038,-0.10677877,1
1.390000000000001,13.609974924140445,-1.0077548581874993,0.39414387576732896,0.2865400791676189,13.802425,-1.2443633,0.46545038,-0.10677877,5.207585,-5.793713,1.7906635,0.45955867,-0.14862248,0.23924558,0.84230494,-7.6532216,9.072448,-0.32864496,-1.2443633,0.46545038,-0.10677877,1
1.400000000000001,13.024056809617788,-0.8445777527876411,-0.8572010464530199,0.3893546851842638,13.465732,-0.99004865,0.14213884,-0.09734258,5.1310296,-5.702616,1.7874672,0.4585167,-0.15356643,0.2349898,0.8431835,-7.658101,9.146801,-0.31056285,-1.2443633,0.46545038,-0.10677877,1
1.410000000000001,13.024056809617788,-0.8445777527876411,-0.8572010464530199,0.3893546851842638,13.465732,-0.99004865,0.14213884,-0.09734258,5.0544186,-5.610787,1.7844386,0.4579941,-0.15654787,0.231064,0.8440038,-7.6644163,9.218942,-0.29513597,-0.99004865,0.14213884,-0.09734258,1
1.420000000000001,13.024056809617788,-0.8445777527876411,-0.8572010464530199,0.3893546851842638,13.465732,-0.99004865,0.14213884,-0.09734258,4.9777374,-5.5182385,1.7815653,0.45745996,-0.15952536,0.22713238,0.8448028,-7.671961,9.2905855,-0.27946985,-0.99004865,0.14213884,-0.09734258,1
1.430000000000001,13.024056809617788,-0.8445777527876411,-0.8572010464530199,0.3893546851842638,13.465732,-0.99004865,0.14213884,-0.09734258,4.9009748,-5.4249763,1.7788501,0.45691425,-0.16249883,0.22319502,0.84558046,-7.6807337,9.361727,-0.26357654,-0.99004865,0.14213884,-0.09734258,1
1.440000000000001,13.024056809617788,-0.8445777527876411,-0.8572010464530199,0.3893546851842638,13.453097,-1.0492101,-0.36786526,-0.06704646,4.8241186,-5.331005,1.7762947,0.456357,-0.16546819,0.21925202,0.8463368,-7.690735,9.432359,-0.24746811,-0.99004865,0.14213884,-0.09734258,1
1.450000000000001,13.024056809617788,-0.8445777527876411,-0.8572010464530199,0.3893546851842638,13.453097,-1.0492101,-0.36786526,-0.06704646,4.7471566,-5.2363315,1.7739012,0.45616886,-0.1663765,0.21391386,0.8476252,-7.7018423,9.5022135,-0.23113418,-1.0492101,-0.36786526,-0.06704646,1
1.460000000000001,13.024056809617788,-0.8445777527876411,-0.8572010464530199,0.3893546851842638,13.453097,-1.0492101,-0.36786526,-0.06704646,4.6700788,-5.1409645,1.7716738,0.4559666,-0.16727966,0.20856906,0.8488873,-7.7138796,9.571029,-0.21426462,-1.0492101,-0.36786526,-0.06704646,1
1.470000000000001,13.024056809617788,-0.8445777527876411,-0.8572010464530199,0.3893546851842638,13.453097,-1.0492101,-0.36786526,-0.06704646,4.592876,-5.0449147,1.7696177,0.45575017,-0.16817762,0.2032178,0.85012317,-7.7268476,9.638795,-0.19687407,-1.0492101,-0.36786526,-0.06704646,1
1.480000000000001,13.047164849840843,-0.8489824750632091,-0.6240202259278927,0.42646928362803316,13.589621,-0.9792188,-0.6073122,-0.12014209,4.5155387,-4.9481926,1.7677381,0.4555196,-0.16907038,0.19786024,0.8513326,-7.7407446,9.7055025,-0.17897718,-1.0492101,-0.36786526,-0.06704646,1
1.490000000000001,13.047164849840843,-0.8489824750632091,-0.6240202259278927,0.42646928362803316,13.589621,-0.9792188,-0.6073122,-0.12014209,4.4380574,-4.850805,1.7660458,0.4557964,-0.16883154,0.19220397,0.85252684,-7.7556257,9.771744,-0.15935604,-0.9792188,-0.6073122,-0.12014209,1
1.500000000000001,13.047164849840843,-0.8489824750632091,-0.6240202259278927,0.42646928362803316,13.589621,-0.9792188,-0.6073122,-0.12014209,4.360424,-4.7527614,1.7645531,0.4560579,-0.16858704,0.18654126,0.8536925,-7.771192,9.836719,-0.13911942,-0.9792188,-0.6073122,-0.12014209,1
1.5100000000000011,13.047164849840843,-0.8489824750632091,-0.6240202259278927,0.42646928362803316,13.589621,-0.9792188,-0.6073122,-0.12014209,4.2826314,-4.6540747,1.7632655,0.45630407,-0.1683369,0.18087228,0.8548295,-7.787443,9.900419,-0.11828357,-0.9792188,-0.6073122,-0.12014209,1
1.5200000000000011,12.39894269481866,-0.7390068027067938,-1.6972960142847824,0.5465719208267462,13.631573,-0.98644185,-1.1220491,-0.099059716,4.2046723,-4.5547576,1.7621894,0.45653498,-0.16808109,0.17519723,0.8559378,-7.804379,9.962838,-0.09686485,-0.9792188,-0.6073122,-0.12014209,0
1.5300000000000011,12.39894269481866,-0.7390068027067938,-1.6972960142847824,0.5465719208267462,13.631573,-0.98644185,-1.1220491,-0.099059716,4.1265492,-4.45485,1.7612783,0.4550403,-0.16201758,0.16861144,0.8592193,-7.820092,10.018301,-0.08519303,-0.7390068,-1.697296,0.5465719,0
1.5400000000000011,12.39894269481866,-0.7390068027067938,-1.6972960142847824,0.5465719208267462,13.631573,-0.98644185,-1.1220491,-0.099059716,4.0482717,-4.3543987,1.7604892,0.45350328,-0.15593898,0.16200991,0.8624208,-7.8354516,10.071752,-0.07247735,-0.7390068,-1.697296,0.5465719,0
1.5500000000000012,12.39894269481866,-0.7390068027067938,-1.6972960142847824,0.5465719208267462,13.631573,-0.98644185,-1.1220491,-0.099059716,3.9698422,-4.2534227,1.7598324,0.451924,-0.14984585,0.15539329,0.86554193,-7.850439,10.123173,-0.05875525,-0.7390068,-1.697296,0.5465719,0
1.5600000000000012,12.324746910667661,-0.7742235852847281,-0.5301965939105397,0.5415896504923126,14.182297,-1.0901546,-2.0303652,-0.13942418,3.8912644,-4.1519423,1.7593174,0.45030263,-0.14373876,0.1487622,0.8685825,-7.8650384,10.172549,-0.04406458,-0.7390068,-1.697296,0.5465719,0
1.5700000000000012,12.324746910667661,-0.7742235852847281,-0.5301965939105397,0.5415896504923126,14.182297,-1.0901546,-2.0303652,-0.13942418,3.8125422,-4.049979,1.7589501,0.4477819,-0.14277439,0.14459315,0.8707461,-7.87946,10.219975,-0.029325638,-0.77422357,-0.5301966,0.5415897,0
1.5800000000000012,12.324746910667661,-0.7742235852847281,-0.5301965939105397,0.5415896504923126,14.182297,-1.0901546,-2.0303652,-0.13942418,3.7336738,-3.9475462,1.7587321,0.44524804,-0.14180584,0.14041984,0.8728841,-7.894301,10.266389,-0.014220279,-0.77422357,-0.5301966,0.5415897,0
1.5900000000000012,12.324746910667661,-0.7742235852847281,-0.5301965939105397,0.5415896504923126,14.182297,-1.0901546,-2.0303652,-0.13942418,3.654655,-3.8446543,1.758667,0.4427011,-0.14083312,0.13624242,0.8749965,-7.9095545,10.311782,0.0012430332,-0.77422357,-0.5301966,0.5415897,0
1.6000000000000012,11.829660572080995,-0.7614383580231965,-1.5067615622951425,0.5668267056176823,13.376324,-1.177626,-2.504051,-0.12162633,3.5754814,-3.7413137,1.7587583,0.44014114,-0.13985626,0.132061,0.87708324,-7.925214,10.356151,0.017055808,-0.77422357,-0.5301966,0.5415897,0
1.6100000000000012,11.829660572080995,-0.7614383580231965,-1.5067615622951425,0.5668267056176823,13.376324,-1.177626,-2.504051,-0.12162633,3.496153,-3.6375442,1.758987,0.43810046,-0.13454443,0.12579706,0.87985235,-7.940372,10.397431,0.0287735,-0.76143837,-1.5067616,0.5668267,0
1.6200000000000012,11.829660572080995,-0.7614383580231965,-1.5067615622951425,0.5668267056176823,13.376324,-1.177626,-2.504051,-0.12162633,3.4166749,-3.533371,1.7593364,0.436025,-0.12922193,0.119523145,0.8825516,-7.955223,10.436873,0.0412067,-0.76143837,-1.5067616,0.5668267,0
1.6300000000000012,11.829660572080995,-0.7614383580231965,-1.5067615622951425,0.5668267056176823,13.376324,-1.177626,-2.504051,-0.12162633,3.3370497,-3.4288127,1.7598135,0.43391496,-0.123889185,0.11323975,0.8851809,-7.969752,10.474467,0.054324616,-0.76143837,-1.5067616,0.5668267,0
1.6400000000000012,11.829660572080995,-0.7614383580231965,-1.5067615622951425,0.5668267056176823,13.107923,-1.1973367,-2.4771228,-0.015356356,3.257281,-3.3238878,1.7604251,0.4317705,-0.11854663,0.10694738,0.88774,-7.983943,10.510203,0.06809625,-0.76143837,-1.5067616,0.5668267,0
1.6500000000000012,11.829660572080995,-0.7614383580231965,-1.5067615622951425,0.5668267056176823,13.107923,-1.1973367,-2.4771228,-0.015356356,3.177372,-3.2186148,1.7611775,0.42959183,-0.11319467,0.10064652,0.8902288,-7.997782,10.544076,0.082490385,-0.76143837,-1.5067616,0.5668267,0
1.6600000000000013,11.829660572080995,-0.7614383580231965,-1.5067615622951425,0.5668267056176823,13.107923,-1.1973367,-2.4771228,-0.015356356,3.0973263,-3.1130123,1.7620769,0.4273791,-0.107833736,0.094337694,0.89264697,-8.011254,10.576076,0.09747562,-0.76143837,-1.5067616,0.5668267,0
1.6700000000000013,11.829660572080995,-0.7614383580231965,-1.5067615622951425,0.5668267056176823,13.107923,-1.1973367,-2.4771228,-0.015356356,3.0171483,-3.0070994,1.7631289,0.42513248,-0.102464244,0.08802138,0.8949944,-8.0243435,10.606197,0.11302037,-0.76143837,-1.5067616,0.5668267,0
1.6800000000000013,11.80080993898279,-0.7543568496738229,0.04049817056360321,0.5281791355617661,14.029156,-1.129319,-2.151594,-0.07132852,2.936841,-2.9008949,1.7643391,0.42285216,-0.09708663,0.08169809,0.8972708,-8.037036,10.634435,0.12909286,-0.76143837,-1.5067616,0.5668267,0
1.6900000000000013,11.80080993898279,-0.7543568496738229,0.04049817056360321,0.5281791355617661,14.029156,-1.129319,-2.151594,-0.07132852,2.8564079,-2.7944162,1.7657107,0.42009535,-0.09864643,0.07865494,0.8986665,-8.049712,10.661227,0.1452176,-0.75435686,0.04049817,0.5281791,0
1.7000000000000013,11.80080993898279,-0.7543568496738229,0.04049817056360321,0.5281791355617661,14.029156,-1.129319,-2.151594,-0.07132852,2.7758443,-2.6876721,1.7672436,0.4173296,-0.10020414,0.075610116,0.90004313,-8.063104,10.687491,0.16138344,-0.75435686,0.04049817,0.5281791,0
1.7100000000000013,11.80080993898279,-0.7543568496738229,0.04049817056360321,0.5281791355617661,14.029156,-1.129319,-2.151594,-0.07132852,2.6951435,-2.5806682,1.7689385,0.414555,-0.10175973,0.072563685,0.9014006,-8.0772085,10.713222,0.177585,-0.75435686,0.04049817,0.5281791,0
1.7200000000000013,11.318657812743142,-0.6732313517526769,-0.661136306653888,0.537176541026171,13.375573,-1.4435334,-3.980627,0.39992148,2.6142979,-2.4734094,1.7707956,0.4117716,-0.10331315,0.06951571,0.90273887,-8.092023,10.738412,0.19381696,-0.75435686,0.04049817,0.5281791,0
1.7300000000000013,11.318657812743142,-0.6732313517526769,-0.661136306653888,0.537176541026171,13.375573,-1.4435334,-3.980627,0.39992148,2.5333042,-2.3659072,1.7727919,0.4092229,-0.10152685,0.065392256,0.9044071,-8.106692,10.761858,0.20547237,-0.67323136,-0.6611363,0.53717655,0
1.7400000000000013,11.318657812743142,-0.6732313517526769,-0.661136306653888,0.537176541026171,13.375573,-1.4435334,-3.980627,0.39992148,2.4521637,-2.2581758,1.7749058,0.40666217,-0.09973756,0.061266866,0.9060486,-8.121454,10.78426,0.21733318,-0.67323136,-0.6611363,0.53717655,0
1.7500000000000013,11.318657812743142,-0.6732313517526769,-0.661136306653888,0.537176541026171,13.375573,-1.4435334,-3.980627,0.39992148,2.370875,-2.1502256,1.7771392,0.40408945,-0.097945325,0.057139672,0.9076634,-8.136302,10.805614,0.22939043,-0.67323136,-0.6611363,0.53717655,0
1.7600000000000013,11.122021709910287,-0.589132669167325,-0.016189291706164597,0.49888597141346935,13.513526,-1.0838677,-2.4571254,0.25898153,2.2894373,-2.0420673,1.7794943,0.4015048,-0.09615021,0.053010795,0.9092515,-8.151227,10.825921,0.24163511,-0.67323136,-0.6611363,0.53717655,0
1.7700000000000014,11.122021709910287,-0.589132669167325,-0.016189291706164597,0.49888597141346935,13.513526,-1.0838677,-2.4571254,0.25898153,2.207851,-1.933712,1.7819629,0.3989548,-0.09712636,0.0505394,0.9104102,-8.166118,10.845059,0.25207967,-0.58913267,-0.016189292,0.49888596,0
1.7800000000000014,11.122021709910287,-0.589132669167325,-0.016189291706164597,0.49888597141346935,13.513526,-1.0838677,-2.4571254,0.25898153,2.1261132,-1.8251677,1.784536,0.39639887,-0.09810106,0.048067246,0.91155535,-8.181478,10.863744,0.26253805,-0.58913267,-0.016189292,0.49888596,0
1.7900000000000014,11.122021709910287,-0.589132669167325,-0.016189291706164597,0.49888597141346935,13.513526,-1.0838677,-2.4571254,0.25898153,2.0442195,-1.7164388,1.7872137,0.39383703,-0.0990743,0.045594376,0.9126869,-8.197306,10.881968,0.27300712,-0.58913267,-0.016189292,0.49888596,0
1.8000000000000014,10.703722203548734,-0.5286817849163117,-1.2494323737025113,0.49427378427181784,14.08757,-2.021066,-4.248024,0.8748843,1.9621654,-1.60753,1.7899963,0.39126933,-0.10004606,0.043120824,0.91380477,-8.2136,10.89973,0.2834839,-0.58913267,-0.016189292,0.49888596,0
1.8100000000000014,10.703722203548734,-0.5286817849163117,-1.2494323737025113,0.49427378427181784,14.08757,-2.021066,-4.248024,0.8748843,1.8799499,-1.49845,1.7928635,0.38900572,-0.09526253,0.038507108,0.9154868,-8.229374,10.916044,0.28998703,-0.5286818,-1.2494323,0.49427378,0
1.8200000000000014,10.703722203548734,-0.5286817849163117,-1.2494323737025113,0.49427378427181784,14.08757,-2.021066,-4.248024,0.8748843,1.7975794,-1.3892137,1.7957971,0.38672185,-0.09047403,0.033891384,0.9171212,-8.244649,10.931023,0.29676378,-0.5286818,-1.2494323,0.49427378,0
1.8300000000000014,10.703722203548734,-0.5286817849163117,-1.2494323737025113,0.49427378427181784,14.08757,-2.021066,-4.248024,0.8748843,1.7150587,-1.2798342,1.7987996,0.3844178,-0.08568081,0.029273892,0.9187078,-8.259414,10.944666,0.30379543,-0.5286818,-1.2494323,0.49427378,0
1.8400000000000014,10.703722203548734,-0.5286817849163117,-1.2494323737025113,0.49427378427181784,13.286202,-2.051007,-4.35183,0.9079557,1.632393,-1.1703249,1.8018738,0.3820937,-0.08088313,0.024654878,0.9202465,-8.27366,10.956974,0.31106326,-0.5286818,-1.2494323,0.49427378,0
1.8500000000000014,10.703722203548734,-0.5286817849163117,-1.2494323737025113,0.49427378427181784,13.286202,-2.051007,-4.35183,0.9079557,1.5495875,-1.0606993,1.8050218,0.37974972,-0.07608124,0.020034578,0.92173725,-8.287378,10.967947,0.3185484,-0.5286818,-1.2494323,0.49427378,0
1.8600000000000014,10.703722203548734,-0.5286817849163117,-1.2494323737025113,0.49427378427181784,13.286202,-2.051007,-4.35183,0.9079557,1.4666474,-0.9509707,1.8082454,0.3773859,-0.07127538,0.015413233,0.92318,-8.300559,10.977585,0.32623205,-0.5286818,-1.2494323,0.49427378,0
1.8700000000000014,10.703722203548734,-0.5286817849163117,-1.2494323737025113,0.49427378427181784,13.286202,-2.051007,-4.35183,0.9079557,1.3835782,-0.8411523,1.8115469,0.37500247,-0.0664658,0.010791087,0.9245746,-8.313193,10.985889,0.33409527,-0.5286818,-1.2494323,0.49427378,0
1.8800000000000014,10.540072551967851,-0.4452321364551065,0.026752664253485395,0.47199187705709966,12.043675,-1.8778874,-3.3797867,0.8452426,1.3003852,-0.73125756,1.8149278,0.37259948,-0.06165276,0.006168377,0.925921,-8.3252735,10.992862,0.34211907,-0.5286818,-1.2494323,0.49427378,0
1.8900000000000015,10.540072551967851,-0.4452321364551065,0.026752664253485395,0.47199187705709966,12.043675,-1.8778874,-3.3797867,0.8452426,1.2170743,-0.621299,1.8183815,0.3702743,-0.062591195,0.004302437,0.92680097,-8.336952,10.998788,0.34860298,-0.44523212,0.026752664,0.47199187,0
1.9000000000000015,10.540072551967851,-0.4452321364551065,0.026752664253485395,0.47199187705709966,12.043675,-1.8778874,-3.3797867,0.8452426,1.1336449,-0.51128286,1.8218999,0.36794522,-0.06352897,0.0024364516,0.92767113,-8.348973,11.004394,0.35506573,-0.44523212,0.026752664,0.47199187,0
1.9100000000000015,10.540072551967851,-0.4452321364551065,0.026752664253485395,0.47199187705709966,12.043675,-1.8778874,-3.3797867,0.8452426,1.0500937,-0.40121228,1.8254827,0.3656123,-0.06446608,0.00057044043,0.9285315,-8.361335,11.009676,0.3615055,-0.44523212,0.026752664,0.47199187,0
1.9200000000000015,10.258940713496509,-0.39658185037998045,-0.16945973962702096,0.4799048842713925,12.453543,-1.6445884,-5.0854893,0.81503713,0.9664171,-0.29109043,1.8291298,0.36327547,-0.06540251,-0.0012955767,0.9293821,-8.374036,11.014634,0.36792052,-0.44523212,0.026752664,0.47199187,0
1.9300000000000015,10.258940713496509,-0.39658185037998045,-0.16945973962702096,0.4799048842713925,12.453543,-1.6445884,-5.0854893,0.81503713,0.8826138,-0.1809214,1.832827,0.36091274,-0.06533816,-0.003289315,0.9303018,-8.38666,11.019105,0.37153202,-0.39658186,-0.16945975,0.4799049,0
1.9400000000000015,10.258940713496509,-0.39658185037998045,-0.16945973962702096,0.4799048842713925,12.453543,-1.6445884,-5.0854893,0.81503713,0.79868346,-0.07070974,1.8365604,0.35854623,-0.06527312,-0.0052830186,0.9312118,-8.399429,11.023159,0.37514275,-0.39658186,-0.16945975,0.4799049,0
1.9500000000000015,10.258940713496509,-0.39658185037998045,-0.16945973962702096,0.4799048842713925,12.453543,-1.6445884,-5.0854893,0.81503713,0.71462476,0.03954035,1.84033,0.356176,-0.065207414,-0.0072766677,0.9321121,-8.412343,11.026794,0.37875113,-0.39658186,-0.16945975,0.4799049,0
1.9600000000000015,10.17799178895211,-0.3720850353201338,0.7195329907427529,0.45050132980036484,11.570528,-1.022005,-3.4882877,0.56758136,0.6304362,0.14982471,1.8441354,0.35380206,-0.06514102,-0.009270241,0.9330027,-8.425399,11.03001,0.38235548,-0.39658186,-0.16945975,0.4799049,0
1.9700000000000015,10.17799178895211,-0.3720850353201338,0.7195329907427529,0.45050132980036484,11.570528,-1.022005,-3.4882877,0.56758136,0.5461161,0.26013967,1.8479729,0.35160884,-0.06917605,-0.00958633,0.9335381,-8.438735,11.033014,0.38511282,-0.37208503,0.71953297,0.45050132,0
1.9800000000000015,10.17799178895211,-0.3720850353201338,0.7195329907427529,0.45050132980036484,11.570528,-1.022005,-3.4882877,0.56758136,0.46165872,0.37048566,1.8518372,0.34940806,-0.073209584,-0.009902212,0.9340534,-8.452865,11.036217,0.3877561,-0.37208503,0.71953297,0.45050132,0
1.9900000000000015,10.17799178895211,-0.3720850353201338,0.7195329907427529,0.45050132980036484,11.570528,-1.022005,-3.4882877,0.56758136,0.37705606,0.48086464,1.8557274,0.34719977,-0.07724155,-0.010217884,0.9345487,-8.467786,11.039613,0.39027876,-0.37208503,0.71953297,0.45050132,0
2.0000000000000013,,,,,11.230065,-1.3138725,-2.4774518,0.6301536,0.29230025,0.59127855,1.8596423,0.34498402,-0.08127185,-0.010533336,0.9350237,-8.483499,11.043199,0.39267418,-0.37208503,0.71953297,0.45050132,0
2.010000000000001,,,,,11.230065,-1.3138725,-2.4774518,0.6301536,0.20738544,0.70172817,1.8635724,0.3425437,-0.080926366,-0.012827115,0.93592185,-8.499479,11.046655,0.393338,-0.44288522,-0.2426101,0.48030567,0
2.020000000000001,,,,,11.230065,-1.3138725,-2.4774518,0.6301536,0.12231031,0.8122099,1.8675091,0.34009922,-0.0805799,-0.015120738,0.9368085,-8.51556,11.049615,0.3940015,-0.44288522,-0.2426101,0.48030567,0
2.0300000000000007,,,,,11.230065,-1.3138725,-2.4774518,0.6301536,0.037073888,0.9227187,1.8714525,0.3376506,-0.08023246,-0.017414179,0.9376838,-8.53174,11.052079,0.39466262,-0.44288522,-0.2426101,0.48030567,0
2.0400000000000005,,,,,11.230065,-1.3138725,-2.4774518,0.6301536,-0.04832482,1.0332497,1.8754023,0.33519787,-0.07988404,-0.019707406,0.93854785,-8.548016,11.054048,0.39531916,-0.44288522,-0.2426101,0.48030567,0
2.0500000000000003,,,,,11.38575,-0.7919524,-1.4426694,0.59152013,-0.13388675,1.1437981,1.8793588,0.33274108,-0.07953464,-0.022000395,0.93940043,-8.564384,11.055519,0.39596903,-0.44288522,-0.2426101,0.48030567,1
2.06,,,,,11.38575,-0.7919524,-1.4426694,0.59152013,-0.21962322,1.2543579,1.8833897,0.3294764,-0.07413809,-0.027884226,0.94083524,-8.582802,11.056189,0.41022384,-0.7919524,-1.4426694,0.59152013,1
2.07,,,,,11.38575,-0.7919524,-1.4426694,0.59152013,-0.30554032,1.3649158,1.8875638,0.3261865,-0.06873587,-0.033765927,0.94219804,-8.600508,11.055129,0.42458987,-0.7919524,-1.4426694,0.59152013,1
2.0799999999999996,,,,,11.38575,-0.7919524,-1.4426694,0.59152013,-0.3916309,1.4754544,1.891882,0.32287166,-0.06332839,-0.039645042,0.94348884,-8.617489,11.052342,0.43903825,-0.7919524,-1.4426694,0.59152013,1
2.0899999999999994,,,,,11.786064,-0.7123716,-1.9372424,0.73245615,-0.47788757,1.5859566,1.8963447,0.31953216,-0.05791608,-0.04552113,0.9447075,-8.63373,11.047836,0.45354012,-0.7919524,-1.4426694,0.59152013,1
2.099999999999999,,,,,11.786064,-0.7123716,-1.9372424,0.73245615,-0.56430507,1.6964039,1.9009726,0.31540608,-0.050066967,-0.05176614,0.9462199,-8.649567,11.041292,0.47204652,-0.7123716,-1.9372424,0.73245615,1
2.109999999999999,,,,,11.786064,-0.7123716,-1.9372424,0.73245615,-0.65087444,1.8067755,1.9057858,0.3112422,-0.04221185,-0.05800494,0.94761884,-8.664085,11.032703,0.49059185,-0.7123716,-1.9372424,0.73245615,1
2.1199999999999988,,,,,11.786064,-0.7123716,-1.9372424,0.73245615,-0.73758227,1.9170511,1.9107845,0.30704096,-0.034351673,-0.06423679,0.9489041,-8.677264,11.022083,0.5091289,-0.7123716,-1.9372424,0.73245615,1
2.1299999999999986,,,,,12.060641,-0.78528935,-2.1723497,1.0149732,-0.824415,2.0272102,1.9159683,0.30280292,-0.026487375,-0.07046093,0.95007557,-8.689085,11.009447,0.5276106,-0.7123716,-1.9372424,0.73245615,1
2.1399999999999983,,,,,12.060641,-0.78528935,-2.1723497,1.0149732,-0.91136014,2.137231,1.92135,0.29708815,-0.017712535,-0.07734011,0.9515476,-8.6997,10.994381,0.54869795,-0.78528935,-2.1723497,1.0149732,1
2.149999999999998,,,,,12.060641,-0.78528935,-2.1723497,1.0149732,-0.9984034,2.24709,1.9269418,0.29132608,-0.008934879,-0.08420698,0.95286834,-8.708696,10.977055,0.5696114,-0.78528935,-2.1723497,1.0149732,1
2.159999999999998,,,,,12.060641,-0.78528935,-2.1723497,1.0149732,-1.0855284,2.3567643,1.9327414,0.28551763,-0.00015579909,-0.09106046,0.95403737,-8.716045,10.957494,0.5902913,-0.78528935,-2.1723497,1.0149732,1
2.1699999999999977,,,,,11.804723,-0.5578318,-2.751625,1.20677,-1.1727185,2.466232,1.9387465,0.27966377,0.008623306,-0.09789944,0.9550545,-8.721721,10.935724,0.6106786,-0.78528935,-2.1723497,1.0149732,1
