time-since-start [s],throttle_mpc,roll_mpc,pitch_mpc,yaw_mpc,throttle_nw,roll_nw,pitch_nw,yaw_nw,position_x [m],position_y [m],position_z [m],rotation_w [quaternion],rotation_x [quaternion],rotation_y [quaternion],rotation_z [quaternion],velocity_x [m/s],velocity_y [m/s],velocity_z [m/s],omega_x [rad/s],omega_y [rad/s],omega_z [rad/s],network_used
0.0,6.032144364855326,5.8541399409996036,-5.999999846727628,-3.3449934267550074,14.806751,0.8905841,-3.255612,-0.009246493,17.151487,-10.2737,1.7575412,-0.0010578381,-0.32650837,0.14685762,0.93371516,-10.417338,-1.7883329,0.8938862,1.4521333,-0.3916349,0.09032289,0
0.01,6.032144364855326,5.8541399409996036,-5.999999846727628,-3.3449934267550074,16.407877,2.3044577,-5.371229,-0.8724584,17.047134,-10.291496,1.7662151,0.028512415,-0.3006603,0.16860206,0.938277,-10.4529085,-1.7704566,0.8410841,5.85414,-6.0,-3.3449934,0
0.02,6.032144364855326,5.8541399409996036,-5.999999846727628,-3.3449934267550074,16.407877,2.3044577,-5.371229,-0.8724584,16.942442,-10.309096,1.7743664,0.058024608,-0.27420005,0.19000322,0.9409284,-10.485014,-1.7490534,0.78932875,5.85414,-6.0,-3.3449934,0
0.03,6.032144364855326,5.8541399409996036,-5.999999846727628,-3.3449934267550074,16.407877,2.3044577,-5.371229,-0.8724584,16.837446,-10.326467,1.7820044,0.08741866,-0.2471815,0.21101749,0.94166386,-10.513353,-1.7243834,0.73839825,5.85414,-6.0,-3.3449934,0
0.04,6.032144364855326,5.8541399409996036,-5.999999846727628,-3.3449934267550074,12.051387,-1.4091679,-4.6917987,-0.2086642,16.732187,-10.343575,1.7891363,0.11663471,-0.21965966,0.23160209,0.940482,-10.537656,-1.6967332,0.6880639,5.85414,-6.0,-3.3449934,0
0.05,6.032144364855326,5.8541399409996036,-5.999999846727628,-3.3449934267550074,12.051387,-1.4091679,-4.6917987,-0.2086642,16.626709,-10.360393,1.7957668,0.14561327,-0.19169055,0.25171512,0.9373852,-10.557682,-1.6664138,0.6380923,5.85414,-6.0,-3.3449934,0
0.060000000000000005,6.032144364855326,5.8541399409996036,-5.999999846727628,-3.3449934267550074,12.051387,-1.4091679,-4.6917987,-0.2086642,16.521051,-10.376896,1.8018985,0.17429535,-0.16333112,0.27131563,0.9323798,-10.57323,-1.6337575,0.58824694,5.85414,-6.0,-3.3449934,0
0.07,6.032144364855326,5.8541399409996036,-5.999999846727628,-3.3449934267550074,12.051387,-1.4091679,-4.6917987,-0.2086642,16.41526,-10.393063,1.8075314,0.20262253,-0.13463913,0.2903637,0.92547584,-10.584132,-1.5991162,0.5382905,5.85414,-6.0,-3.3449934,0
0.08,11.857051362918984,4.782242110930788,-5.999999793703447,-1.3376336425269613,12.627556,-1.6863849,3.5837777,-0.1754911,16.309383,-10.408874,1.8126631,0.23053715,-0.10567299,0.30882055,0.9166874,-10.59026,-1.5628575,0.4879862,5.85414,-6.0,-3.3449934,0
0.09,11.857051362918984,4.782242110930788,-5.999999793703447,-1.3376336425269613,12.627556,-1.6863849,3.5837777,-0.1754911,16.20346,-10.424136,1.8175182,0.24828017,-0.0746531,0.32287905,0.9102379,-10.59298,-1.4894638,0.48293704,4.7822423,-6.0,-1.3376336,0
0.09999999999999999,11.857051362918984,4.782242110930788,-5.999999793703447,-1.3376336425269613,12.627556,-1.6863849,3.5837777,-0.1754911,16.097553,-10.43866,1.8223184,0.26564673,-0.043520004,0.33644795,0.90240824,-10.586712,-1.4150879,0.4769318,4.7822423,-6.0,-1.3376336,0
0.10999999999999999,11.857051362918984,4.782242110930788,-5.999999793703447,-1.3376336425269613,12.627556,-1.6863849,3.5837777,-0.1754911,15.9917555,-10.452436,1.8270518,0.2826105,-0.012320924,0.34950674,0.8932103,-10.571474,-1.3402617,0.46950355,4.7822423,-6.0,-1.3376336,0
0.11999999999999998,11.857051362918984,4.782242110930788,-5.999999793703447,-1.3376336425269613,12.627556,-1.6863849,3.5837777,-0.1754911,15.886155,-10.465466,1.8317019,0.29914576,0.018896837,0.36203554,0.88265795,-10.54734,-1.2655197,0.46019387,4.7822423,-6.0,-1.3376336,0
0.12999999999999998,16.340575125567174,2.0039158068211265,-5.999999333075379,0.09987252643215935,15.955323,-1.9917848,3.5153623,0.35190263,15.780839,-10.477749,1.8362476,0.31522745,0.050085947,0.3740154,0.8707673,-10.51444,-1.1913962,0.4485559,4.7822423,-6.0,-1.3376336,0
0.13999999999999999,16.340575125567174,2.0039158068211265,-5.999999333075379,0.09987252643215935,15.955323,-1.9917848,3.5153623,0.35190263,15.675969,-10.4891615,1.840826,0.3253518,0.079524204,0.3730713,0.86523986,-10.458123,-1.0916789,0.46698073,2.0039158,-5.9999995,0.09987253,0
0.15,16.340575125567174,2.0039158068211265,-5.999999333075379,0.09987252643215935,15.955323,-1.9917848,3.5153623,0.35190263,15.57171,-10.4995985,1.8455831,0.33515066,0.1088829,0.37175393,0.8588467,-10.392526,-0.9963443,0.48421228,2.0039158,-5.9999995,0.09987253,0
0.16,17.03297836462542,0.1744916111211611,-5.3344559446454,0.3494698499145087,15.273732,-2.366669,2.425638,-0.33290306,15.46815,-10.509105,1.8505044,0.34461415,0.13813263,0.37006462,0.85159427,-10.317907,-0.9057669,0.49978197,2.0039158,-5.9999995,0.09987253,0
0.17,17.03297836462542,0.1744916111211611,-5.3344559446454,0.3494698499145087,15.273732,-2.366669,2.425638,-0.33290306,15.3653965,-10.517714,1.8555974,0.35275185,0.16174167,0.36124328,0.84788513,-10.231894,-0.81694597,0.5188067,0.17449161,-5.334456,0.34946984,0
0.18000000000000002,17.03297836462542,0.1744916111211611,-5.3344559446454,0.3494698499145087,15.273732,-2.366669,2.425638,-0.33290306,15.263535,-10.525467,1.8608792,0.3606373,0.18523504,0.35216358,0.8435696,-10.1393585,-0.7344466,0.53748363,0.17449161,-5.334456,0.34946984,0
0.19000000000000003,17.03297836462542,0.1744916111211611,-5.3344559446454,0.3494698499145087,15.273732,-2.366669,2.425638,-0.33290306,15.16263,-10.532427,1.8663446,0.36826482,0.20859593,0.34283203,0.83865076,-10.040551,-0.6584874,0.5554572,0.17449161,-5.334456,0.34946984,0
0.20000000000000004,15.42447687691394,-0.4762807338815521,-1.427404124219292,0.034149247022122624,16.028301,-1.3295085,3.5765767,-0.9470987,15.062744,-10.538661,1.8719846,0.37562892,0.23180763,0.3332553,0.8331321,-9.935739,-0.58926827,0.5723736,0.17449161,-5.334456,0.34946984,0
0.21000000000000005,15.42447687691394,-0.4762807338815521,-1.427404124219292,0.034149247022122624,16.028301,-1.3295085,3.5765767,-0.9470987,14.963879,-10.544261,1.877735,0.3784065,0.23690948,0.3285414,0.8323118,-9.8371725,-0.5312611,0.5777674,-0.47628072,-1.4274042,0.03414925,0
0.22000000000000006,15.42447687691394,-0.4762807338815521,-1.427404124219292,0.034149247022122624,16.028301,-1.3295085,3.5765767,-0.9470987,14.866004,-10.549292,1.8835405,0.38116264,0.2419979,0.3238089,0.83144444,-9.737628,-0.47534752,0.58337677,-0.47628072,-1.4274042,0.03414925,0
0.23000000000000007,15.42447687691394,-0.4762807338815521,-1.427404124219292,0.034149247022122624,16.028301,-1.3295085,3.5765767,-0.9470987,14.76913,-10.553774,1.8894032,0.3838972,0.24707262,0.3190581,0.8305299,-9.637127,-0.42154008,0.58917767,-0.47628072,-1.4274042,0.03414925,0
0.24000000000000007,15.42447687691394,-0.4762807338815521,-1.427404124219292,0.034149247022122624,16.556896,-0.9360252,3.5227973,-0.7378179,14.6732645,-10.55773,1.8953247,0.38661,0.25213337,0.31428918,0.8295684,-9.535692,-0.36985078,0.5951461,-0.47628072,-1.4274042,0.03414925,0
0.25000000000000006,15.42447687691394,-0.4762807338815521,-1.427404124219292,0.034149247022122624,16.556896,-0.9360252,3.5227973,-0.7378179,14.578418,-10.561179,1.9013066,0.3893009,0.25717983,0.3095025,0.8285599,-9.433346,-0.32029116,0.6012579,-0.47628072,-1.4274042,0.03414925,0
0.26000000000000006,15.42447687691394,-0.4762807338815521,-1.427404124219292,0.034149247022122624,16.556896,-0.9360252,3.5227973,-0.7378179,14.4846,-10.564143,1.9073504,0.39196977,0.2622117,0.3046983,0.82750446,-9.330111,-0.27287224,0.60748893,-0.47628072,-1.4274042,0.03414925,0
0.2700000000000001,15.42447687691394,-0.4762807338815521,-1.427404124219292,0.034149247022122624,16.556896,-0.9360252,3.5227973,-0.7378179,14.391819,-10.566644,1.9134569,0.39461643,0.26722875,0.2998768,0.8264021,-9.226009,-0.22760452,0.61381483,-0.47628072,-1.4274042,0.03414925,0
0.2800000000000001,14.151492872166063,-0.6861621382183195,1.0097548374986773,-0.15339621384455673,17.016762,-1.0842521,4.4617057,-1.1830686,14.300082,-10.568703,1.919627,0.39724076,0.27223065,0.29503834,0.82525307,-9.121065,-0.18449813,0.6202114,-0.47628072,-1.4274042,0.03414925,0
0.2900000000000001,14.151492872166063,-0.6861621382183195,1.0097548374986773,-0.15339621384455673,17.016762,-1.0842521,4.4617057,-1.1830686,14.209354,-10.570355,1.9258192,0.39731058,0.26646987,0.29441583,0.8273194,-9.024778,-0.14594162,0.61838365,-0.6861621,1.0097549,-0.15339622,0
0.3000000000000001,14.151492872166063,-0.6861621382183195,1.0097548374986773,-0.15339621384455673,17.016762,-1.0842521,4.4617057,-1.1830686,14.119582,-10.57162,1.931998,0.39736536,0.260699,0.2937822,0.8293544,-8.9297495,-0.10671716,0.61753213,-0.6861621,1.0097549,-0.15339622,0
0.3100000000000001,14.151492872166063,-0.6861621382183195,1.0097548374986773,-0.15339621384455673,17.016762,-1.0842521,4.4617057,-1.1830686,14.030754,-10.572489,1.9381732,0.39740512,0.25491825,0.29313743,0.83135796,-8.835994,-0.06682831,0.6176412,-0.6861621,1.0097549,-0.15339622,0
0.3200000000000001,12.80135669363529,-1.0913468919988831,5.369247971497784,-0.41143863252557705,16.925247,-1.6838837,5.0760093,-2.1964674,13.942857,-10.572955,1.9443542,0.39742982,0.2491279,0.29248157,0.83333004,-8.743525,-0.026278684,0.6186951,-0.6861621,1.0097549,-0.15339622,0
0.3300000000000001,12.80135669363529,-1.0913468919988831,5.369247971497784,-0.41143863252557705,16.925247,-1.6838837,5.0760093,-2.1964674,13.855832,-10.573028,1.950504,0.39250216,0.22389491,0.29900512,0.8404812,-8.662352,0.01257802,0.6116148,-1.0913469,5.369248,-0.41143864,0
0.34000000000000014,12.80135669363529,-1.0913468919988831,5.369247971497784,-0.41143863252557705,16.925247,-1.6838837,5.0760093,-2.1964674,13.769595,-10.572688,1.956593,0.3872783,0.19849296,0.30530304,0.84699804,-8.58595,0.056185182,0.60649216,-1.0913469,5.369248,-0.41143864,0
0.35000000000000014,12.80135669363529,-1.0913468919988831,5.369247971497784,-0.41143863252557705,16.925247,-1.6838837,5.0760093,-2.1964674,13.684096,-10.571889,1.9626393,0.38176215,0.17294122,0.31137052,0.8528757,-8.514538,0.10443096,0.6030298,-1.0913469,5.369248,-0.41143864,0
0.36000000000000015,12.303597851929377,-0.9542465973458605,5.731309966517759,-0.5749557952692721,17.833984,-1.680176,4.918751,-1.814878,13.599286,-10.570585,1.9686582,0.37595788,0.14725897,0.31720302,0.8581097,-8.4483185,0.1571895,0.6009252,-1.0913469,5.369248,-0.41143864,0
0.37000000000000016,12.303597851929377,-0.9542465973458605,5.731309966517759,-0.5749557952692721,17.833984,-1.680176,4.918751,-1.814878,13.515099,-10.568741,1.9746425,0.36987805,0.11990397,0.3241696,0.862396,-8.389923,0.21225454,0.5960546,-0.9542466,5.73131,-0.5749558,0
0.38000000000000017,12.303597851929377,-0.9542465973458605,5.731309966517759,-0.5749557952692721,17.833984,-1.680176,4.918751,-1.814878,13.431468,-10.566324,1.9805812,0.36348304,0.09244679,0.33085993,0.8659474,-8.337083,0.27178016,0.59175456,-0.9542466,5.73131,-0.5749558,0
0.3900000000000002,12.303597851929377,-0.9542465973458605,5.731309966517759,-0.5749557952692721,17.833984,-1.680176,4.918751,-1.814878,13.348338,-10.563291,1.9864783,0.35677826,0.06491083,0.3372683,0.8687608,-8.289956,0.33559123,0.58768207,-0.9542466,5.73131,-0.5749558,0
0.4000000000000002,12.156887268671582,-0.8068455713132042,5.108180187649465,-0.6826887627871163,15.755292,-2.0233493,3.346499,-1.0791667,13.265651,-10.559599,1.9923344,0.34976947,0.037319556,0.3433893,0.87083393,-8.248685,0.40349787,0.58349323,-0.9542466,5.73131,-0.5749558,0
0.4100000000000002,12.156887268671582,-0.8068455713132042,5.108180187649465,-0.6826887627871163,15.755292,-2.0233493,3.346499,-1.0791667,13.183345,-10.555212,1.998141,0.34400377,0.012484605,0.34881955,0.87168217,-8.213555,0.47430038,0.5777451,-0.80684555,5.10818,-0.6826888,0
0.4200000000000002,12.156887268671582,-0.8068455713132042,5.108180187649465,-0.6826887627871163,15.755292,-2.0233493,3.346499,-1.0791667,13.101363,-10.550101,2.003887,0.33800408,-0.012358839,0.35401252,0.8719375,-8.183734,0.5483915,0.5712811,-0.80684555,5.10818,-0.6826888,0
0.4300000000000002,12.156887268671582,-0.8068455713132042,5.108180187649465,-0.6826887627871163,15.755292,-2.0233493,3.346499,-1.0791667,13.019652,-10.544233,2.0095634,0.33177447,-0.037193872,0.35896468,0.8715997,-8.159282,0.62559927,0.5638285,-0.80684555,5.10818,-0.6826888,0
0.4400000000000002,12.156887268671582,-0.8068455713132042,5.108180187649465,-0.6826887627871163,14.391058,-1.4023638,2.2242713,-1.1808243,12.938159,-10.53758,2.0151594,0.32531917,-0.062003613,0.36367267,0.870669,-8.140243,0.7057431,0.55511767,-0.80684555,5.10818,-0.6826888,0
0.45000000000000023,12.156887268671582,-0.8068455713132042,5.108180187649465,-0.6826887627871163,14.391058,-1.4023638,2.2242713,-1.1808243,12.85683,-10.530109,2.0206606,0.3186426,-0.08677117,0.36813328,0.86914605,-8.126647,0.78863436,0.54488176,-0.80684555,5.10818,-0.6826888,0
0.46000000000000024,12.156887268671582,-0.8068455713132042,5.108180187649465,-0.6826887627871163,14.391058,-1.4023638,2.2242713,-1.1808243,12.775608,-10.521797,2.0260508,0.31174922,-0.11147971,0.37234348,0.86703193,-8.11851,0.8740772,0.53285867,-0.80684555,5.10818,-0.6826888,0
0.47000000000000025,12.156887268671582,-0.8068455713132042,5.108180187649465,-0.6826887627871163,14.391058,-1.4023638,2.2242713,-1.1808243,12.694441,-10.512619,2.0313108,0.3046438,-0.13611242,0.3763004,0.86432797,-8.115834,0.9618686,0.5187908,-0.80684555,5.10818,-0.6826888,0
0.48000000000000026,11.89007152767636,-0.39847147666639415,2.4226700627141904,-0.7446953979739172,12.247896,-1.1340302,2.1517487,-0.8569899,12.613274,-10.502552,2.0364187,0.29733118,-0.16065253,0.38000134,0.86103606,-8.118604,1.0517993,0.50242627,-0.80684555,5.10818,-0.6826888,1
0.49000000000000027,11.89007152767636,-0.39847147666639415,2.4226700627141904,-0.7446953979739172,12.247896,-1.1340302,2.1517487,-0.8569899,12.532053,-10.491574,2.0413558,0.29599676,-0.1732167,0.3775981,0.8601167,-8.125903,1.1437521,0.48489794,-1.1340302,2.1517487,-0.8569899,1
0.5000000000000002,11.89007152767636,-0.39847147666639415,2.4226700627141904,-0.7446953979739172,12.247896,-1.1340302,2.1517487,-0.8569899,12.450745,-10.479676,2.0461144,0.2946131,-0.18575206,0.3751321,0.8590543,-8.136107,1.2359573,0.4667633,-1.1340302,2.1517487,-0.8569899,1
0.5100000000000002,11.89007152767636,-0.39847147666639415,2.4226700627141904,-0.7446953979739172,12.247896,-1.1340302,2.1517487,-0.8569899,12.369321,-10.466855,2.0506885,0.29318044,-0.19825652,0.37260374,0.8578492,-8.149207,1.3283769,0.44795644,-1.1340302,2.1517487,-0.8569899,1
0.5200000000000002,11.915234386780947,0.1161634295790586,0.7716495708685286,-0.7021428419299744,14.233275,-1.3960602,1.4161077,-0.4198841,12.28775,-10.453108,2.0550709,0.29169902,-0.21072803,0.37001345,0.8565014,-8.165186,1.4209732,0.42841202,-1.1340302,2.1517487,-0.8569899,0
0.5300000000000002,11.915234386780947,0.1161634295790586,0.7716495708685286,-0.7021428419299744,14.233275,-1.3960602,1.4161077,-0.4198841,12.206011,-10.438446,2.0592434,0.29339674,-0.2151593,0.37089145,0.8544376,-8.182697,1.5112916,0.40602967,0.11616343,0.7716496,-0.70214283,0
0.5400000000000003,11.915234386780947,0.1161634295790586,0.7716495708685286,-0.7021428419299744,14.233275,-1.3960602,1.4161077,-0.4198841,12.124094,-10.42288,2.0631895,0.29508635,-0.21958461,0.37175924,0.85235023,-8.200794,1.6020011,0.38303983,0.11616343,0.7716496,-0.70214283,0
0.5500000000000003,11.915234386780947,0.1161634295790586,0.7716495708685286,-0.7021428419299744,14.233275,-1.3960602,1.4161077,-0.4198841,12.041993,-10.406405,2.0669022,0.29676786,-0.22400391,0.37261677,0.8502394,-8.21947,1.6930991,0.35943517,0.11616343,0.7716496,-0.70214283,0
0.5600000000000003,11.658300810474955,0.6351962764018257,-0.8628312081553016,-0.6534608805056638,13.23543,-0.30839586,0.20305383,-0.30591497,11.9597025,-10.389018,2.070376,0.29844117,-0.22841702,0.37346405,0.8481052,-8.238719,1.7845837,0.33520854,0.11616343,0.7716496,-0.70214283,0
0.5700000000000003,11.658300810474955,0.6351962764018257,-0.8628312081553016,-0.6534608805056638,13.23543,-0.30839586,0.20305383,-0.30591497,11.877221,-10.370724,2.0735974,0.3035429,-0.22502606,0.37411642,0.84691274,-8.2574415,1.8743532,0.30909732,0.63519627,-0.86283123,-0.65346086,0
0.5800000000000003,11.658300810474955,0.6351962764018257,-0.8628312081553016,-0.6534608805056638,13.23543,-0.30839586,0.20305383,-0.30591497,11.794559,-10.35153,2.0765588,0.3086327,-0.22162624,0.37475407,0.8456869,-8.2749405,1.9641736,0.2832301,0.63519627,-0.86283123,-0.65346086,0
0.5900000000000003,11.658300810474955,0.6351962764018257,-0.8628312081553016,-0.6534608805056638,13.23543,-0.30839586,0.20305383,-0.30591497,11.711726,-10.33144,2.079263,0.31371033,-0.2182177,0.375377,0.84442776,-8.291214,2.0540292,0.25760484,0.63519627,-0.86283123,-0.65346086,0
0.6000000000000003,11.813349458331574,0.63614973314797,-0.38219778841324936,-0.5908491466460222,11.687454,-0.41894403,-0.87753075,-0.0006386079,11.628737,-10.31045,2.081712,0.31877562,-0.21480057,0.37598515,0.8431354,-8.306262,2.1439047,0.23221937,0.63519627,-0.86283123,-0.65346086,0
0.6100000000000003,11.813349458331574,0.63614973314797,-0.38219778841324936,-0.5908491466460222,11.687454,-0.41894403,-0.87753075,-0.0006386079,11.545603,-10.288555,2.0839128,0.3226646,-0.21328375,0.37741897,0.8413988,-8.320417,2.2350612,0.20791364,0.6361497,-0.3821978,-0.59084916,0
0.6200000000000003,11.813349458331574,0.63614973314797,-0.38219778841324936,-0.5908491466460222,11.687454,-0.41894403,-0.87753075,-0.0006386079,11.462331,-10.265747,2.0858698,0.32654628,-0.2117621,0.3788443,0.8396432,-8.333727,2.326427,0.18350609,0.6361497,-0.3821978,-0.59084916,0
0.6300000000000003,11.813349458331574,0.63614973314797,-0.38219778841324936,-0.5908491466460222,11.687454,-0.41894403,-0.87753075,-0.0006386079,11.37893,-10.242023,2.0875823,0.33042064,-0.2102357,0.3802611,0.8378687,-8.3461895,2.4179943,0.15899666,0.6361497,-0.3821978,-0.59084916,0
0.6400000000000003,11.813349458331574,0.63614973314797,-0.38219778841324936,-0.5908491466460222,11.749117,-0.74420226,-0.31848782,0.09585503,11.295409,-10.217384,2.0890493,0.33428758,-0.20870458,0.3816693,0.83607537,-8.357803,2.5097547,0.13438529,0.6361497,-0.3821978,-0.59084916,0
0.6500000000000004,11.813349458331574,0.63614973314797,-0.38219778841324936,-0.5908491466460222,11.749117,-0.74420226,-0.31848782,0.09585503,11.211778,-10.191827,2.0902696,0.33814698,-0.20716877,0.38306895,0.83426327,-8.3685665,2.6017005,0.10967196,0.6361497,-0.3821978,-0.59084916,0
0.6600000000000004,11.813349458331574,0.63614973314797,-0.38219778841324936,-0.5908491466460222,11.749117,-0.74420226,-0.31848782,0.09585503,11.128041,-10.16535,2.0912423,0.34199876,-0.20562829,0.38446,0.8324323,-8.378477,2.693823,0.08485663,0.6361497,-0.3821978,-0.59084916,0
0.6700000000000004,11.813349458331574,0.63614973314797,-0.38219778841324936,-0.5908491466460222,11.749117,-0.74420226,-0.31848782,0.09585503,11.0442095,-10.137951,2.0919664,0.34584287,-0.2040832,0.38584238,0.83058274,-8.387533,2.7861147,0.05993928,0.6361497,-0.3821978,-0.59084916,0
0.6800000000000004,11.73882130337673,0.6243911143403682,-1.0208035930690207,-0.5651550409075552,11.354826,-0.919109,-0.27904686,0.015649687,10.960293,-10.109628,2.0924408,0.3496792,-0.20253351,0.3872161,0.82871443,-8.395734,2.878567,0.034919906,0.6361497,-0.3821978,-0.59084916,0
0.6900000000000004,11.73882130337673,0.6243911143403682,-1.0208035930690207,-0.5651550409075552,11.354826,-0.919109,-0.27904686,0.015649687,10.8763,-10.080382,2.0926628,0.35462195,-0.19830185,0.38743776,0.82753307,-8.402845,2.9704652,0.009510684,0.62439114,-1.0208036,-0.565155,0
0.7000000000000004,11.73882130337673,0.6243911143403682,-1.0208035930690207,-0.5651550409075552,11.354826,-0.919109,-0.27904686,0.015649687,10.792241,-10.05022,2.0926325,0.35954913,-0.19406152,0.38764244,0.82631546,-8.408611,3.0621753,-0.015542322,0.62439114,-1.0208036,-0.565155,0
0.7100000000000004,11.73882130337673,0.6243911143403682,-1.0208035930690207,-0.5651550409075552,11.354826,-0.919109,-0.27904686,0.015649687,10.708133,-10.019141,2.092353,0.3644606,-0.18981266,0.38783014,0.8250616,-8.413033,3.153679,-0.04024369,0.62439114,-1.0208036,-0.565155,0
0.7200000000000004,11.873278204447068,0.5270795855847402,-0.7469629024551843,-0.5055083933383416,11.19635,-1.012396,-0.79181653,-0.063583285,10.623986,-9.987147,2.0918286,0.3693561,-0.18555549,0.38800088,0.8237717,-8.416111,3.2449582,-0.06459805,0.62439114,-1.0208036,-0.565155,0
0.7300000000000004,11.873278204447068,0.5270795855847402,-0.7469629024551843,-0.5055083933383416,11.19635,-1.012396,-0.79181653,-0.063583285,10.539815,-9.954237,2.0910664,0.37337127,-0.18248361,0.3883181,0.82249737,-8.417982,3.3370774,-0.08781168,0.5270796,-0.7469629,-0.5055084,0
0.7400000000000004,11.873278204447068,0.5270795855847402,-0.7469629024551843,-0.5055083933383416,11.19635,-1.012396,-0.79181653,-0.063583285,10.45563,-9.920406,2.090073,0.3773763,-0.17940676,0.3886247,0.8212006,-8.4188,3.4290414,-0.110816106,0.5270796,-0.7469629,-0.5055084,0
0.7500000000000004,11.873278204447068,0.5270795855847402,-0.7469629024551843,-0.5055083933383416,11.19635,-1.012396,-0.79181653,-0.063583285,10.371444,-9.885657,2.0888507,0.381371,-0.17632504,0.3889207,0.81988144,-8.418566,3.5208392,-0.1336135,0.5270796,-0.7469629,-0.5055084,0
0.7600000000000005,11.999614114566754,0.39790288137336366,-0.8870473017458353,-0.4661471625261634,12.726809,-0.6748849,0.046124406,-0.24458927,10.287264,-9.84999,2.0874016,0.38535532,-0.17323847,0.38920608,0.81853986,-8.417279,3.6124601,-0.15620603,0.5270796,-0.7469629,-0.5055084,0
0.7700000000000005,11.999614114566754,0.39790288137336366,-0.8870473017458353,-0.4661471625261634,12.726809,-0.6748849,0.046124406,-0.24458927,10.203102,-9.813403,2.0857317,0.3893284,-0.16974603,0.388716,0.8176238,-8.414923,3.7048109,-0.17772442,0.39790288,-0.8870473,-0.46614715,0
0.7800000000000005,11.999614114566754,0.39790288137336366,-0.8870473017458353,-0.4661471625261634,12.726809,-0.6748849,0.046124406,-0.24458927,10.118969,-9.775895,2.0838485,0.39329016,-0.16624863,0.38821465,0.81668407,-8.411518,3.7968142,-0.19886513,0.39790288,-0.8870473,-0.46614715,0
0.7900000000000005,11.999614114566754,0.39790288137336366,-0.8870473017458353,-0.4661471625261634,12.726809,-0.6748849,0.046124406,-0.24458927,10.034876,-9.73747,2.0817556,0.39724052,-0.16274643,0.387702,0.8157205,-8.407068,3.8884585,-0.21963166,0.39790288,-0.8870473,-0.46614715,0
0.8000000000000005,12.148323065318316,0.2956495308179628,-0.547727740520314,-0.4003244190323099,12.609829,-0.67894983,0.2445221,-0.3319276,9.950831,-9.698129,2.079457,0.40117928,-0.15923949,0.38717806,0.8147333,-8.401577,3.979732,-0.24002755,0.39790288,-0.8870473,-0.46614715,1
0.8100000000000005,12.148323065318316,0.2956495308179628,-0.547727740520314,-0.4003244190323099,12.609829,-0.67894983,0.2445221,-0.3319276,9.866847,-9.657853,2.076976,0.40151435,-0.1622388,0.38463542,0.8151808,-8.395445,4.075337,-0.25613534,-0.67894983,0.2445221,-0.3319276,1
0.8200000000000005,12.148323065318316,0.2956495308179628,-0.547727740520314,-0.4003244190323099,12.609829,-0.67894983,0.2445221,-0.3319276,9.78292,-9.616622,2.0743353,0.40184307,-0.16523556,0.3820867,0.8156154,-8.390173,4.1707797,-0.27199382,-0.67894983,0.2445221,-0.3319276,1
0.8300000000000005,12.148323065318316,0.2956495308179628,-0.547727740520314,-0.4003244190323099,12.609829,-0.67894983,0.2445221,-0.3319276,9.69904,-9.574437,2.071537,0.40216544,-0.16822971,0.37953192,0.8160372,-8.385762,4.2660556,-0.28760934,-0.67894983,0.2445221,-0.3319276,1
0.8400000000000005,12.148323065318316,0.2956495308179628,-0.547727740520314,-0.4003244190323099,12.216109,-0.3132875,0.045479566,-0.2955548,9.6152,-9.5313015,2.0685837,0.40248147,-0.17122121,0.3769712,0.81644607,-8.382215,4.3611627,-0.30298838,-0.67894983,0.2445221,-0.3319276,1
0.8500000000000005,12.148323065318316,0.2956495308179628,-0.547727740520314,-0.4003244190323099,12.216109,-0.3132875,0.045479566,-0.2955548,9.531391,-9.487229,2.065465,0.4033331,-0.17259401,0.3755299,0.816401,-8.379426,4.453151,-0.32075372,-0.3132875,0.045479566,-0.2955548,1
0.8600000000000005,12.148323065318316,0.2956495308179628,-0.547727740520314,-0.4003244190323099,12.216109,-0.3132875,0.045479566,-0.2955548,9.44761,-9.442239,2.062169,0.40418282,-0.17396599,0.37408683,0.8163521,-8.376973,4.5450187,-0.33837,-0.3132875,0.045479566,-0.2955548,1
0.8700000000000006,12.148323065318316,0.2956495308179628,-0.547727740520314,-0.4003244190323099,12.216109,-0.3132875,0.045479566,-0.2955548,9.363851,-9.396329,2.058698,0.40503064,-0.17533717,0.37264204,0.81629944,-8.374856,4.6367655,-0.35583872,-0.3132875,0.045479566,-0.2955548,1
0.8800000000000006,12.293629261374548,0.6291186602762319,-1.1498142281512682,-0.3424491012089394,12.277851,0.29698232,-0.016750265,-0.261043,9.280111,-9.3495035,2.0550528,0.40587655,-0.1767075,0.3711955,0.81624293,-8.373075,4.7283907,-0.37316144,-0.3132875,0.045479566,-0.2955548,0
0.8900000000000006,12.293629261374548,0.6291186602762319,-1.1498142281512682,-0.3424491012089394,12.277851,0.29698232,-0.016750265,-0.261043,9.19639,-9.30176,2.051238,0.4099547,-0.17136972,0.37111858,0.81537753,-8.370942,4.820352,-0.3897031,0.6291187,-1.1498142,-0.3424491,0
0.9000000000000006,12.293629261374548,0.6291186602762319,-1.1498142281512682,-0.3424491012089394,12.277851,0.29698232,-0.016750265,-0.261043,9.112698,-9.253099,2.0472603,0.41401404,-0.16602406,0.3710246,0.81447476,-8.367339,4.911851,-0.40577778,0.6291187,-1.1498142,-0.3424491,0
0.9100000000000006,12.293629261374548,0.6291186602762319,-1.1498142281512682,-0.3424491012089394,12.277851,0.29698232,-0.016750265,-0.261043,9.029048,-9.203526,2.043124,0.4180544,-0.16067079,0.37091365,0.81353456,-8.362269,5.0028677,-0.4213957,0.6291187,-1.1498142,-0.3424491,0
0.9200000000000006,12.464249567146537,0.738663883947169,-1.4749445567684574,-0.2539750656546505,12.2970295,0.8819785,-0.09827299,-0.23570769,8.945457,-9.153045,2.0388336,0.42207557,-0.15531014,0.37078565,0.81255704,-8.355734,5.0933847,-0.43656728,0.6291187,-1.1498142,-0.3424491,0
0.9300000000000006,12.464249567146537,0.738663883947169,-1.4749445567684574,-0.2539750656546505,12.2970295,0.8819785,-0.09827299,-0.23570769,8.86194,-9.101654,2.0343997,0.42640072,-0.14822441,0.37046388,0.8117687,-8.347494,5.1845627,-0.45008516,0.7386639,-1.4749446,-0.25397506,0
0.9400000000000006,12.464249567146537,0.738663883947169,-1.4749445567684574,-0.2539750656546505,12.2970295,0.8819785,-0.09827299,-0.23570769,8.778515,-9.0493555,2.0298338,0.4306962,-0.14112838,0.37011626,0.8109239,-8.337425,5.2750063,-0.46301478,0.7386639,-1.4749446,-0.25397506,0
0.9500000000000006,12.464249567146537,0.738663883947169,-1.4749445567684574,-0.2539750656546505,12.2970295,0.8819785,-0.09827299,-0.23570769,8.695199,-8.996157,2.0251412,0.43496165,-0.1340225,0.3697429,0.81002253,-8.325534,5.364688,-0.47537574,0.7386639,-1.4749446,-0.25397506,0
0.9600000000000006,12.910695542359207,0.2931622639278264,-0.6841314103945028,-0.2157354347859691,11.836398,0.66629356,0.099192984,-0.19622825,8.61201,-8.942065,2.020328,0.4391968,-0.1269073,0.3693438,0.80906475,-8.311826,5.4535804,-0.48718795,0.7386639,-1.4749446,-0.25397506,0
0.9700000000000006,12.910695542359207,0.2931622639278264,-0.6841314103945028,-0.2157354347859691,11.836398,0.66629356,0.099192984,-0.19622825,8.52897,-8.887073,2.0154145,0.44151565,-0.123893455,0.36888772,0.80847764,-8.296145,5.5449758,-0.4954578,0.29316226,-0.6841314,-0.21573544,0
0.9800000000000006,12.910695542359207,0.2931622639278264,-0.6841314103945028,-0.2157354347859691,11.836398,0.66629356,0.099192984,-0.19622825,8.44609,-8.831167,2.0104196,0.44382784,-0.12087774,0.3684261,0.80787843,-8.279649,5.63595,-0.5034469,0.29316226,-0.6841314,-0.21573544,0
0.9900000000000007,12.910695542359207,0.2931622639278264,-0.6841314103945028,-0.2157354347859691,11.836398,0.66629356,0.099192984,-0.19622825,8.3633795,-8.774355,2.0053463,0.44613335,-0.11786021,0.367959,0.80726707,-8.262337,5.726497,-0.5111589,0.29316226,-0.6841314,-0.21573544,0
1.0000000000000007,12.982954848602047,0.02247895808987658,-0.7200196082746041,-0.12634321067535992,12.0443735,0.47395578,0.3473373,-0.1934143,8.280846,-8.71664,2.0001974,0.44843218,-0.11484091,0.36748633,0.8066436,-8.244211,5.816611,-0.51859736,0.29316226,-0.6841314,-0.21573544,0
1.0100000000000007,12.982954848602047,0.02247895808987658,-0.7200196082746041,-0.12634321067535992,12.0443735,0.47395578,0.3473373,-0.1934143,8.198498,-8.658022,1.9949782,0.45027465,-0.112117894,0.36588758,0.80672705,-8.2252655,5.906733,-0.52518356,0.022478959,-0.7200196,-0.1263432,0
1.0200000000000007,12.982954848602047,0.02247895808987658,-0.7200196082746041,-0.12634321067535992,12.0443735,0.47395578,0.3473373,-0.1934143,8.116343,-8.598506,1.9896954,0.4521111,-0.10939338,0.36428395,0.8067997,-8.205764,5.996262,-0.53130645,0.022478959,-0.7200196,-0.1263432,0
1.0300000000000007,12.982954848602047,0.02247895808987658,-0.7200196082746041,-0.12634321067535992,12.0443735,0.47395578,0.3473373,-0.1934143,8.034386,-8.538098,1.9843535,0.4539415,-0.1066674,0.36267546,0.80686164,-8.185708,6.0851946,-0.53697014,0.022478959,-0.7200196,-0.1263432,0
1.0400000000000007,12.982954848602047,0.02247895808987658,-0.7200196082746041,-0.12634321067535992,12.336462,0.20901476,0.15688533,-0.18451741,7.9526315,-8.476804,1.9789575,0.4557658,-0.103939995,0.36106208,0.8069127,-8.165101,6.1735244,-0.54217887,0.022478959,-0.7200196,-0.1263432,1
1.0500000000000007,12.982954848602047,0.02247895808987658,-0.7200196082746041,-0.12634321067535992,12.336462,0.20901476,0.15688533,-0.18451741,7.8710804,-8.41465,1.9734877,0.4563351,-0.104429625,0.36216655,0.8060323,-8.145155,6.2571754,-0.55182827,0.20901476,0.15688533,-0.18451741,1
1.0600000000000007,12.982954848602047,0.02247895808987658,-0.7200196082746041,-0.12634321067535992,12.336462,0.20901476,0.15688533,-0.18451741,7.789729,-8.35166,1.9679202,0.4569032,-0.104918994,0.36327007,0.8051499,-8.125109,6.341037,-0.56170005,0.20901476,0.15688533,-0.18451741,1
1.0700000000000007,12.982954848602047,0.02247895808987658,-0.7200196082746041,-0.12634321067535992,12.336462,0.20901476,0.15688533,-0.18451741,7.7085786,-8.28783,1.9622527,0.4574701,-0.105408095,0.36437264,0.8042654,-8.104961,6.425108,-0.57179475,0.20901476,0.15688533,-0.18451741,1
1.0800000000000007,13.381877956165743,-0.3693778992517292,0.037198399456760435,-0.09193589064598923,12.837005,-0.00216388,0.13020647,-0.23721379,7.62763,-8.223158,1.9564834,0.45803586,-0.10589692,0.36547425,0.8033788,-8.084713,6.5093884,-0.582113,0.20901476,0.15688533,-0.18451741,1
1.0900000000000007,13.381877956165743,-0.3693778992517292,0.037198399456760435,-0.09193589064598923,12.837005,-0.00216388,0.13020647,-0.23721379,7.546889,-8.157624,1.9506277,0.4587492,-0.106858276,0.3656378,0.80276984,-8.063613,6.597265,-0.5890464,-0.00216388,0.13020647,-0.23721379,1
1.1000000000000008,13.381877956165743,-0.3693778992517292,0.037198399456760435,-0.09193589064598923,12.837005,-0.00216388,0.13020647,-0.23721379,7.4663577,-8.091212,1.9447021,0.45946172,-0.107819445,0.3658007,0.80215937,-8.042608,6.6852503,-0.5960632,-0.00216388,0.13020647,-0.23721379,1
1.1100000000000008,13.381877956165743,-0.3693778992517292,0.037198399456760435,-0.09193589064598923,12.837005,-0.00216388,0.13020647,-0.23721379,7.3860364,-8.023919,1.938706,0.4601734,-0.108780414,0.36596295,0.80154747,-8.021698,6.7733455,-0.6031636,-0.00216388,0.13020647,-0.23721379,1
1.1200000000000008,13.487868249867738,-0.7279206567156806,-0.9854569440531084,0.022333378939440703,13.40851,-0.494714,0.1205805,-0.25957927,7.3059235,-7.9557447,1.9326385,0.46088424,-0.10974119,0.3661245,0.8009341,-8.000882,6.8615494,-0.6103481,-0.00216388,0.13020647,-0.23721379,0
1.1300000000000008,13.487868249867738,-0.7279206567156806,-0.9854569440531084,0.022333378939440703,13.40851,-0.494714,0.1205805,-0.25957927,7.2260237,-7.8866673,1.9265232,0.46219072,-0.10742927,0.3609439,0.80284375,-7.9791,6.9538546,-0.61254543,-0.72792065,-0.98545694,0.02233338,0
1.1400000000000008,13.487868249867738,-0.7279206567156806,-0.9854569440531084,0.022333378939440703,13.40851,-0.494714,0.1205805,-0.25957927,7.1463413,-7.8166723,1.9203917,0.46347985,-0.10511332,0.3557498,0.8047233,-7.9573927,7.0449715,-0.6135966,-0.72792065,-0.98545694,0.02233338,0
1.1500000000000008,13.487868249867738,-0.7279206567156806,-0.9854569440531084,0.022333378939440703,13.40851,-0.494714,0.1205805,-0.25957927,7.066876,-7.7457724,1.9142551,0.46475157,-0.10279342,0.3505423,0.8065727,-7.9357615,7.134887,-0.61351633,-0.72792065,-0.98545694,0.02233338,0
1.1600000000000008,13.879544988449863,-1.0651227968113826,-0.08719464216303548,0.05927931574042437,13.441235,-0.8380958,0.0510576,-0.0605382,6.987626,-7.673979,1.9081252,0.46600586,-0.10046966,0.34532166,0.80839175,-7.91421,7.223587,-0.61231935,-0.72792065,-0.98545694,0.02233338,1
1.1700000000000008,13.879544988449863,-1.0651227968113826,-0.08719464216303548,0.05927931574042437,13.441235,-0.8380958,0.0510576,-0.0605382,6.9085903,-7.601305,1.9020102,0.46573725,-0.10273244,0.34201962,0.809665,-7.8931456,7.3110957,-0.61059403,-0.8380958,0.0510576,-0.0605382,1
1.1800000000000008,13.879544988449863,-1.0651227968113826,-0.08719464216303548,0.05927931574042437,13.441235,-0.8380958,0.0510576,-0.0605382,6.8297606,-7.527758,1.8959149,0.4654604,-0.10499341,0.33871153,0.8109239,-7.8730474,7.3982778,-0.608385,-0.8380958,0.0510576,-0.0605382,1
1.1900000000000008,13.879544988449863,-1.0651227968113826,-0.08719464216303548,0.05927931574042437,13.441235,-0.8380958,0.0510576,-0.0605382,6.751127,-7.453341,1.8898441,0.46517527,-0.107252516,0.33539745,0.8121683,-7.853916,7.4851274,-0.6056997,-0.8380958,0.0510576,-0.0605382,1
1.2000000000000008,13.640100410736716,-1.0842389170282565,-0.8965102709024663,0.15697219140877014,13.515352,-1.1193002,0.15455468,-0.13769402,6.672679,-7.378057,1.8838024,0.46488193,-0.109509714,0.3320774,0.8133984,-7.8357553,7.5716395,-0.6025455,-0.8380958,0.0510576,-0.0605382,0
1.2100000000000009,13.640100410736716,-1.0842389170282565,-0.8965102709024663,0.15697219140877014,13.515352,-1.1193002,0.15455468,-0.13769402,6.59441,-7.301904,1.8778031,0.46512672,-0.108120464,0.32566166,0.816034,-7.8181515,7.6587067,-0.59713525,-1.0842389,-0.89651024,0.15697218,0
1.2200000000000009,13.640100410736716,-1.0842389170282565,-0.8965102709024663,0.15697219140877014,13.515352,-1.1193002,0.15455468,-0.13769402,6.5163145,-7.224888,1.871864,0.46534827,-0.1067258,0.3192296,0.8186288,-7.801109,7.7444086,-0.59049886,-1.0842389,-0.89651024,0.15697218,0
1.2300000000000009,13.640100410736716,-1.0842389170282565,-0.8965102709024663,0.15697219140877014,13.515352,-1.1193002,0.15455468,-0.13769402,6.438386,-7.147021,1.8659972,0.46554646,-0.10532579,0.31278154,0.82118255,-7.7846284,7.8287272,-0.58265686,-1.0842389,-0.89651024,0.15697218,0
1.2400000000000009,13.640100410736716,-1.0842389170282565,-0.8965102709024663,0.15697219140877014,13.728917,-1.1467892,0.29248917,0.033089694,6.36062,-7.0683174,1.8602147,0.46572137,-0.10392049,0.3063178,0.8236951,-7.7687106,7.911646,-0.5736299,-1.0842389,-0.89651024,0.15697218,0
1.2500000000000009,13.640100410736716,-1.0842389170282565,-0.8965102709024663,0.15697219140877014,13.728917,-1.1467892,0.29248917,0.033089694,6.28301,-6.988792,1.8545285,0.46587294,-0.10251,0.2998387,0.8261664,-7.7533555,7.993146,-0.563439,-1.0842389,-0.89651024,0.15697218,0
1.260000000000001,13.640100410736716,-1.0842389170282565,-0.8965102709024663,0.15697219140877014,13.728917,-1.1467892,0.29248917,0.033089694,6.2055507,-6.908459,1.8489499,0.46600115,-0.101094365,0.2933446,0.82859635,-7.7385635,8.073211,-0.5521052,-1.0842389,-0.89651024,0.15697218,0
1.270000000000001,13.640100410736716,-1.0842389170282565,-0.8965102709024663,0.15697219140877014,13.728917,-1.1467892,0.29248917,0.033089694,6.128237,-6.827333,1.8434902,0.466106,-0.099673666,0.2868358,0.8309848,-7.7243347,8.151823,-0.53964996,-1.0842389,-0.89651024,0.15697218,0
1.280000000000001,13.915426608945529,-1.0997572512900038,0.4442588934053554,0.16750710367832666,13.891939,-1.0552208,0.46066415,-0.09178196,6.0510616,-6.7454276,1.8381606,0.46618748,-0.09824797,0.2803126,0.8333316,-7.7106686,8.228969,-0.5260949,-1.0842389,-0.89651024,0.15697218,1
1.290000000000001,13.915426608945529,-1.0997572512900038,0.4442588934053554,0.16750710367832666,13.891939,-1.0552208,0.46066415,-0.09178196,5.974021,-6.6627502,1.8329815,0.4653981,-0.10275402,0.27693987,0.8343564,-7.697697,8.306542,-0.509686,-1.0552208,0.46066415,-0.09178196,1
1.300000000000001,13.915426608945529,-1.0997572512900038,0.4442588934053554,0.16750710367832666,13.891939,-1.0552208,0.46066415,-0.09178196,5.8971024,-6.5792975,1.8279679,0.4645932,-0.10725665,0.27355793,0.8353534,-7.686297,8.383972,-0.49301252,-1.0552208,0.46066415,-0.09178196,1
1.310000000000001,13.915426608945529,-1.0997572512900038,0.4442588934053554,0.16750710367832666,13.891939,-1.0552208,0.46066415,-0.09178196,5.8202896,-6.4950714,1.8231221,0.4637728,-0.11175571,0.27016684,0.8363225,-7.676469,8.461249,-0.47609043,-1.0552208,0.46066415,-0.09178196,1
1.320000000000001,13.512540912181619,-0.9965688530053133,0.024498652037707704,0.24774929765147952,14.08362,-1.0504112,0.4412278,-0.2404221,5.743567,-6.4100733,1.8184468,0.46293697,-0.11625103,0.26676676,0.8372637,-7.668215,8.538364,-0.45893586,-1.0552208,0.46066415,-0.09178196,1
1.330000000000001,13.512540912181619,-0.9965688530053133,0.024498652037707704,0.24774929765147952,14.08362,-1.0504112,0.4412278,-0.2404221,5.66692,-6.3243,1.8139521,0.46273652,-0.12084821,0.26324645,0.83783764,-7.661437,8.616364,-0.43996805,-1.0504112,0.4412278,-0.2404221,1
1.340000000000001,13.512540912181619,-0.9965688530053133,0.024498652037707704,0.24774929765147952,14.08362,-1.0504112,0.4412278,-0.2404221,5.590333,-6.2377462,1.8096482,0.4625204,-0.1254413,0.25971723,0.83838314,-7.6562366,8.694165,-0.42078817,-1.0504112,0.4412278,-0.2404221,1
1.350000000000001,13.512540912181619,-0.9965688530053133,0.024498652037707704,0.24774929765147952,14.08362,-1.0504112,0.4412278,-0.2404221,5.5137897,-6.150417,1.805537,0.4622886,-0.13003013,0.25617918,0.83890027,-7.652616,8.771762,-0.40141356,-1.0504112,0.4412278,-0.2404221,1
1.360000000000001,13.600549465674227,-1.0106619803696357,0.35769006303292983,0.28494387215540845,13.804873,-1.248239,0.4692225,-0.10553953,5.437275,-6.062312,1.8016205,0.4620411,-0.13461456,0.25263247,0.83938897,-7.650576,8.849147,-0.38186154,-1.0504112,0.4412278,-0.2404221,1
1.370000000000001,13.600549465674227,-1.0106619803696357,0.35769006303292983,0.28494387215540845,13.804873,-1.248239,0.4692225,-0.10553953,5.3607726,-5.973442,1.7978886,0.46104085,-0.1395978,0.24840103,0.8403873,-7.6502213,8.92475,-0.3644577,-1.248239,0.4692225,-0.10553953,1
1.380000000000001,13.600549465674227,-1.0106619803696357,0.35769006303292983,0.28494387215540845,13.804873,-1.248239,0.4692225,-0.10553953,5.2842646,-5.8838177,1.794332,0.46002,-0.1445748,0.24415846,0.841348,-7.6516685,9.000034,-0.34685385,-1.248239,0.4692225,-0.10553953,1
1.390000000000001,13.600549465674227,-1.0106619803696357,0.35769006303292983,0.28494387215540845,13.804873,-1.248239,0.4692225,-0.10553953,5.2077336,-5.7934422,1.7909522,0.45897853,-0.14954534,0.23990498,0.84227103,-7.6549172,9.074988,-0.32907167,-1.248239,0.4692225,-0.10553953,1
1.400000000000001,13.014886960470044,-0.8475016741253225,-0.9136143003942847,0.38765164074895414,13.505113,-0.98460203,0.045060255,-0.09869182,5.1311603,-5.702319,1.7877512,0.45791656,-0.15450919,0.23564078,0.8431564,-7.659968,9.149598,-0.31113276,-1.248239,0.4692225,-0.10553953,1
1.410000000000001,13.014886960470044,-0.8475016741253225,-0.9136143003942847,0.38765164074895414,13.505113,-0.98460203,0.045060255,-0.09869182,5.054529,-5.6104603,1.7847177,0.45751327,-0.15706784,0.23151396,0.84404534,-7.6664443,9.222154,-0.29551223,-0.98460203,0.045060255,-0.09869182,1
1.420000000000001,13.014886960470044,-0.8475016741253225,-0.9136143003942847,0.38765164074895414,13.505113,-0.98460203,0.045060255,-0.09869182,4.977827,-5.5178785,1.781842,0.45709878,-0.15962265,0.22738147,0.8449136,-7.6740766,9.294123,-0.2795907,-0.98460203,0.045060255,-0.09869182,1
1.430000000000001,13.014886960470044,-0.8475016741253225,-0.9136143003942847,0.38765164074895414,13.505113,-0.98460203,0.045060255,-0.09869182,4.9010434,-5.4245796,1.7791269,0.45667303,-0.16217355,0.22324339,0.8457611,-7.6828647,9.365498,-0.26337987,-0.98460203,0.045060255,-0.09869182,1
1.440000000000001,13.014886960470044,-0.8475016741253225,-0.9136143003942847,0.38765164074895414,13.512014,-1.0596999,-0.45307428,-0.07114337,4.824166,-5.33057,1.7765753,0.45623612,-0.16472048,0.21909983,0.8465879,-7.6928086,9.436274,-0.2468915,-0.98460203,0.045060255,-0.09869182,1
1.450000000000001,13.014886960470044,-0.8475016741253225,-0.9136143003942847,0.38765164074895414,13.512014,-1.0596999,-0.45307428,-0.07114337,4.7471833,-5.2358565,1.7741907,0.45615327,-0.16529521,0.21351843,0.8479456,-7.703812,9.506285,-0.22994985,-1.0596999,-0.45307428,-0.07114337,1
1.460000000000001,13.014886960470044,-0.8475016741253225,-0.9136143003942847,0.38765164074895414,13.512014,-1.0596999,-0.45307428,-0.07114337,4.6700864,-5.140448,1.7719784,0.45605516,-0.16586441,0.2079299,0.84927493,-7.7157006,9.575162,-0.2124128,-1.0596999,-0.45307428,-0.07114337,1
1.470000000000001,13.014886960470044,-0.8475016741253225,-0.9136143003942847,0.38765164074895414,13.512014,-1.0596999,-0.45307428,-0.07114337,4.592866,-5.0443573,1.7699444,0.4559419,-0.16642809,0.20233443,0.85057604,-7.728473,9.642896,-0.19429615,-1.0596999,-0.45307428,-0.07114337,1
1.480000000000001,13.024094496938064,-0.8533941940560763,-0.6123950819132202,0.4261063294594012,13.594735,-1.002697,-0.6250014,-0.12297392,4.5155134,-4.947595,1.7680945,0.45581338,-0.16698623,0.19673225,0.8518488,-7.742129,9.709477,-0.17561568,-1.0596999,-0.45307428,-0.07114337,1
1.490000000000001,13.024094496938064,-0.8533941940560763,-0.6123950819132202,0.4261063294594012,13.594735,-1.002697,-0.6250014,-0.12297392,4.43802,-4.85017,1.7664379,0.45610672,-0.16672742,0.19093099,0.8530616,-7.7566853,9.775252,-0.1556338,-1.002697,-0.6250014,-0.12297392,1
1.500000000000001,13.024094496938064,-0.8533941940560763,-0.6123950819132202,0.4261063294594012,13.594735,-1.002697,-0.6250014,-0.12297392,4.360378,-4.7520943,1.7649843,0.45638397,-0.16646273,0.185123,0.85424435,-7.77194,9.839724,-0.13502339,-1.002697,-0.6250014,-0.12297392,1
1.5100000000000011,13.024094496938064,-0.8533941940560763,-0.6123950819132202,0.4261063294594012,13.594735,-1.002697,-0.6250014,-0.12297392,4.2825794,-4.6533804,1.7637396,0.45664513,-0.16619219,0.17930847,0.855397,-7.7878942,9.902884,-0.1138016,-1.002697,-0.6250014,-0.12297392,1
1.5200000000000011,12.3608125927589,-0.7362393337709252,-1.6295327577217633,0.547268838012624,13.620103,-0.9957852,-1.1291186,-0.09270723,4.204618,-4.5540414,1.7627102,0.45689017,-0.16591577,0.17348762,0.8565194,-7.8045454,9.964725,-0.09198567,-1.002697,-0.6250014,-0.12297392,0
1.5300000000000011,12.3608125927589,-0.7362393337709252,-1.6295327577217633,0.547268838012624,13.620103,-0.9957852,-1.1291186,-0.09270723,4.1264954,-4.454119,1.7618477,0.45532924,-0.16013715,0.16705853,0.8597226,-7.819968,10.019473,-0.0803433,-0.7362393,-1.6295328,0.54726887,0
1.5400000000000011,12.3608125927589,-0.7362393337709252,-1.6295327577217633,0.547268838012624,13.620103,-0.9957852,-1.1291186,-0.09270723,4.0482197,-4.3536587,1.7611066,0.4537285,-0.15434454,0.16061482,0.86285055,-7.8350787,10.072271,-0.067706876,-0.7362393,-1.6295328,0.54726887,0
1.5500000000000012,12.3608125927589,-0.7362393337709252,-1.6295327577217633,0.547268838012624,13.620103,-0.9957852,-1.1291186,-0.09270723,3.9697945,-4.2526803,1.7604969,0.45208812,-0.14853844,0.15415709,0.86590314,-7.84986,10.123107,-0.054111242,-0.7362393,-1.6295328,0.54726887,0
1.5600000000000012,12.286852865704558,-0.7660915256295091,-0.4623457912291018,0.541743418183516,14.243439,-1.0779161,-2.205003,-0.1506401,3.8912234,-4.1512036,1.7600275,0.4504082,-0.14271934,0.14768586,0.86888003,-7.864296,10.171965,-0.039591588,-0.7362393,-1.6295328,0.54726887,0
1.5700000000000012,12.286852865704558,-0.7660915256295091,-0.4623457912291018,0.541743418183516,14.243439,-1.0779161,-2.205003,-0.1506401,3.8125093,-4.0492487,1.7597039,0.44784322,-0.14203402,0.14370102,0.8709837,-7.878595,10.218942,-0.025062667,-0.7660915,-0.46234578,0.5417434,0
1.5800000000000012,12.286852865704558,-0.7660915256295091,-0.4623457912291018,0.541743418183516,14.243439,-1.0779161,-2.205003,-0.1506401,3.73365,-3.9468286,1.7595273,0.445266,-0.1413448,0.13971224,0.87306356,-7.8933506,10.264974,-0.0102032665,-0.7660915,-0.46234578,0.5417434,0
1.5900000000000012,12.286852865704558,-0.7660915256295091,-0.4623457912291018,0.541743418183516,14.243439,-1.0779161,-2.205003,-0.1506401,3.654641,-3.8439527,1.759501,0.4426766,-0.14065172,0.13571964,0.87511957,-7.908556,10.310058,0.0049791075,-0.7660915,-0.46234578,0.5417434,0
1.6000000000000012,11.798173820820388,-0.7551371536099808,-1.4817599354186102,0.566086126681753,13.279323,-1.1933218,-2.6261673,-0.11084193,3.5754774,-3.7406309,1.759628,0.4400751,-0.13995478,0.13172333,0.8771517,-7.924205,10.354185,0.02047691,-0.7660915,-0.46234578,0.5417434,0
1.6100000000000012,11.798173820820388,-0.7551371536099808,-1.4817599354186102,0.566086126681753,13.279323,-1.1933218,-2.6261673,-0.11084193,3.4961593,-3.636882,1.7598896,0.43802294,-0.13473956,0.12554216,0.8798977,-7.939387,10.395306,0.031912323,-0.75513715,-1.4817599,0.5660861,0
1.6200000000000012,11.798173820820388,-0.7551371536099808,-1.4817599354186102,0.566086126681753,13.279323,-1.1933218,-2.6261673,-0.11084193,3.416691,-3.5327313,1.7602688,0.435937,-0.12951395,0.11935133,0.8825758,-7.954273,10.434618,0.04404989,-0.75513715,-1.4817599,0.5660861,0
1.6300000000000012,11.798173820820388,-0.7551371536099808,-1.4817599354186102,0.566086126681753,13.279323,-1.1933218,-2.6261673,-0.11084193,3.3370755,-3.4281962,1.7607728,0.4338174,-0.12427833,0.11315128,0.8851858,-7.968849,10.472114,0.05685984,-0.75513715,-1.4817599,0.5660861,0
1.6400000000000012,11.798173820820388,-0.7551371536099808,-1.4817599354186102,0.566086126681753,12.988404,-1.2110423,-2.5527887,-0.009074962,3.2573156,-3.3232954,1.7614082,0.43166435,-0.119033135,0.106942505,0.88772744,-7.9831004,10.507784,0.07031221,-0.75513715,-1.4817599,0.5660861,0
1.6500000000000012,11.798173820820388,-0.7551371536099808,-1.4817599354186102,0.566086126681753,12.988404,-1.2110423,-2.5527887,-0.009074962,3.177415,-3.2180471,1.7621813,0.42947796,-0.113778755,0.10072548,0.89020056,-7.997012,10.541621,0.08437683,-0.75513715,-1.4817599,0.5660861,0
1.6600000000000013,11.798173820820388,-0.7551371536099808,-1.4817599354186102,0.566086126681753,12.988404,-1.2110423,-2.5527887,-0.009074962,3.0973768,-3.1124694,1.7630978,0.42725843,-0.10851559,0.09450068,0.892605,-8.010569,10.573619,0.09902333,-0.75513715,-1.4817599,0.5660861,0
1.6700000000000013,11.798173820820388,-0.7551371536099808,-1.4817599354186102,0.566086126681753,12.988404,-1.2110423,-2.5527887,-0.009074962,3.017205,-3.006581,1.7641636,0.4250059,-0.10324405,0.0882686,0.8949407,-8.023757,10.60377,0.11422116,-0.75513715,-1.4817599,0.5660861,0
1.6800000000000013,11.777419320109038,-0.7499507983785891,0.04835388430632904,0.5270132161254741,13.9428625,-1.1321485,-2.1302273,-0.09863864,2.936903,-2.9004004,1.765384,0.42272064,-0.09796454,0.08202969,0.89720726,-8.036561,10.632069,0.12993965,-0.75513715,-1.4817599,0.5660861,0
1.6900000000000013,11.777419320109038,-0.7499507983785891,0.04835388430632904,0.5270132161254741,13.9428625,-1.1321485,-2.1302273,-0.09863864,2.8564737,-2.7939448,1.7667627,0.41996482,-0.09954937,0.07902488,0.8985956,-8.049365,10.658966,0.14578378,-0.7499508,0.048353884,0.52701324,0
1.7000000000000013,11.777419320109038,-0.7499507983785891,0.04835388430632904,0.5270132161254741,13.9428625,-1.1321485,-2.1302273,-0.09863864,2.775913,-2.6872227,1.7682999,0.41720018,-0.101132095,0.0760184,0.89996505,-8.062886,10.685345,0.1616662,-0.7499508,0.048353884,0.52701324,0
1.7100000000000013,11.777419320109038,-0.7499507983785891,0.04835388430632904,0.5270132161254741,13.9428625,-1.1321485,-2.1302273,-0.09863864,2.6952133,-2.5802398,1.769996,0.4144267,-0.10271269,0.07301032,0.90131545,-8.077122,10.711201,0.17758164,-0.7499508,0.048353884,0.52701324,0
1.7200000000000013,11.302039245384547,-0.6711641723263481,-0.6741000852951475,0.53592583850401,13.13247,-1.4530073,-3.7478662,0.4964422,2.6143677,-2.4730005,1.7718515,0.41164452,-0.104291126,0.0700007,0.902647,-8.092067,10.736528,0.1935248,-0.7499508,0.048353884,0.52701324,0
1.7300000000000013,11.302039245384547,-0.6711641723263481,-0.6741000852951475,0.53592583850401,13.13247,-1.4530073,-3.7478662,0.4964422,2.533373,-2.3655164,1.7738438,0.40910557,-0.102441035,0.06586257,0.90432304,-8.106864,10.760121,0.20495978,-0.67116416,-0.6741001,0.53592587,0
1.7400000000000013,11.302039245384547,-0.6711641723263481,-0.6741000852951475,0.53592583850401,13.13247,-1.4530073,-3.7478662,0.4964422,2.4522302,-2.2578018,1.7759514,0.40655443,-0.1005879,0.061722476,0.9059721,-8.121743,10.782664,0.21660489,-0.67116416,-0.6741001,0.53592587,0
1.7500000000000013,11.302039245384547,-0.6711641723263481,-0.6741000852951475,0.53592583850401,13.13247,-1.4530073,-3.7478662,0.4964422,2.370938,-2.149867,1.7781764,0.4039912,-0.09873176,0.05758054,0.9075942,-8.136697,10.804153,0.22845103,-0.67116416,-0.6741001,0.53592587,0
1.7600000000000013,11.112083360441197,-0.5884365192430882,-0.03421602737933563,0.49787527136719384,13.479398,-1.1098373,-2.7618935,0.2874437,2.2894962,-2.0417225,1.7805209,0.4014159,-0.09687268,0.05343689,0.9091892,-8.151718,10.824586,0.24048907,-0.67116416,-0.6741001,0.53592587,0
1.7700000000000014,11.112083360441197,-0.5884365192430882,-0.03421602737933563,0.49787527136719384,13.479398,-1.1098373,-2.7618935,0.2874437,2.2079046,-1.93338,1.7829772,0.39887372,-0.097764425,0.05093398,0.91035557,-8.166698,10.84385,0.25079724,-0.58843654,-0.034216028,0.49787527,0
1.7800000000000014,11.112083360441197,-0.5884365192430882,-0.03421602737933563,0.49787527136719384,13.479398,-1.1098373,-2.7618935,0.2874437,2.1261609,-1.8248472,1.7855369,0.39632562,-0.09865472,0.04843031,0.9115083,-8.182133,10.862645,0.26112375,-0.58843654,-0.034216028,0.49787527,0
1.7900000000000014,11.112083360441197,-0.5884365192430882,-0.03421602737933563,0.49787527136719384,13.479398,-1.1098373,-2.7618935,0.2874437,2.0442607,-1.7161288,1.7881998,0.39377162,-0.09954354,0.045925915,0.9126475,-8.198022,10.880969,0.27146554,-0.58843654,-0.034216028,0.49787527,0
1.8000000000000014,10.69820882136759,-0.5284684587118595,-1.26249388886904,0.4936365913439442,14.050148,-1.9164399,-3.985596,0.8612639,1.9621992,-1.6072295,1.7909662,0.39121175,-0.10043089,0.043420844,0.91377306,-8.214362,10.898817,0.28181955,-0.58843654,-0.034216028,0.49787527,0
1.8100000000000014,10.69820882136759,-0.5284684587118595,-1.26249388886904,0.4936365913439442,14.050148,-1.9164399,-3.985596,0.8612639,1.8799762,-1.4981582,1.7938163,0.38895476,-0.09558665,0.038783602,0.91546315,-8.230175,10.915209,0.2882484,-0.52846843,-1.2624938,0.49363658,0
1.8200000000000014,10.69820882136759,-0.5284684587118595,-1.26249388886904,0.4936365913439442,14.050148,-1.9164399,-3.985596,0.8612639,1.7975974,-1.3889298,1.7967321,0.3866772,-0.09073736,0.03414431,0.9171048,-8.245479,10.930257,0.2949548,-0.52846843,-1.2624938,0.49363658,0
1.8300000000000014,10.69820882136759,-0.5284684587118595,-1.26249388886904,0.4936365913439442,14.050148,-1.9164399,-3.985596,0.8612639,1.7150683,-1.2795577,1.7997162,0.38437918,-0.08588327,0.029503211,0.9186979,-8.260263,10.943959,0.3019198,-0.52846843,-1.2624938,0.49363658,0
1.8400000000000014,10.69820882136759,-0.5284684587118595,-1.26249388886904,0.4936365913439442,13.088536,-1.9587755,-4.051054,0.86422944,1.6323941,-1.1700552,1.8027713,0.3820608,-0.081024624,0.024860552,0.9202425,-8.27452,10.956319,0.30912426,-0.52846843,-1.2624938,0.49363658,0
1.8500000000000014,10.69820882136759,-0.5284684587118595,-1.26249388886904,0.4936365913439442,13.088536,-1.9587755,-4.051054,0.86422944,1.5495799,-1.0604359,1.8058996,0.3797222,-0.07616169,0.020216575,0.9217382,-8.288238,10.967333,0.3165491,-0.52846843,-1.2624938,0.49363658,0
1.8600000000000014,10.69820882136759,-0.5284684587118595,-1.26249388886904,0.4936365913439442,13.088536,-1.9587755,-4.051054,0.86422944,1.4666312,-0.95071316,1.809103,0.37736353,-0.071294725,0.015571529,0.9231852,-8.30141,10.977003,0.324175,-0.52846843,-1.2624938,0.49363658,0
1.8700000000000014,10.69820882136759,-0.5284684587118595,-1.26249388886904,0.4936365913439442,13.088536,-1.9587755,-4.051054,0.86422944,1.3835535,-0.8409005,1.8123837,0.3749849,-0.06642399,0.010925658,0.9245834,-8.314026,10.985332,0.33198285,-0.52846843,-1.2624938,0.49363658,0
1.8800000000000014,10.53765199460256,-0.44513393669449053,0.019118013499602394,0.47163046471661163,12.3561945,-1.8980138,-3.7340102,0.9073221,1.3003526,-0.7310112,1.8157432,0.3725864,-0.061549738,0.0062792096,0.9259326,-8.3260765,10.99232,0.33995333,-0.52846843,-1.2624938,0.49363658,0
1.8900000000000015,10.53765199460256,-0.44513393669449053,0.019118013499602394,0.47163046471661163,12.3561945,-1.8980138,-3.7340102,0.9073221,1.2170339,-0.6210581,1.819175,0.37026337,-0.06245237,0.0043991194,0.92681444,-8.337722,10.998257,0.346416,-0.44513392,0.019118013,0.47163045,0
1.9000000000000015,10.53765199460256,-0.44513393669449053,0.019118013499602394,0.47163046471661163,12.3561945,-1.8980138,-3.7340102,0.9073221,1.133597,-0.51104724,1.8226714,0.36793643,-0.06335434,0.0025189826,0.9276865,-8.349704,11.003866,0.3528586,-0.44513392,0.019118013,0.47163045,0
1.9100000000000015,10.53765199460256,-0.44513393669449053,0.019118013499602394,0.47163046471661163,12.3561945,-1.8980138,-3.7340102,0.9073221,1.0500386,-0.40098193,1.8262322,0.36560565,-0.06425565,0.0006388192,0.9285488,-8.362021,11.009148,0.3592794,-0.44513392,0.019118013,0.47163045,0
1.9200000000000015,10.259560647714034,-0.3965022659454216,-0.17064146834315408,0.47973333250931655,12.842292,-1.7077584,-5.282978,0.8561497,0.9663554,-0.29086545,1.829857,0.363271,-0.06515628,-0.0012413509,0.92940134,-8.374671,11.0141,0.36567652,-0.44513392,0.019118013,0.47163045,0
1.9300000000000015,10.259560647714034,-0.3965022659454216,-0.17064146834315408,0.47973333250931655,12.842292,-1.7077584,-5.282978,0.8561497,0.88254595,-0.1807018,1.8335317,0.36090958,-0.065086134,-0.003237547,0.930321,-8.387244,11.018563,0.36930084,-0.39650226,-0.17064147,0.47973332,0
1.9400000000000015,10.259560647714034,-0.3965022659454216,-0.17064146834315408,0.47973333250931655,12.842292,-1.7077584,-5.282978,0.8561497,0.79861003,-0.07049563,1.8372427,0.35854435,-0.06501531,-0.0052337092,0.93123096,-8.399962,11.022609,0.3729246,-0.39650226,-0.17064147,0.47973332,0
1.9500000000000015,10.259560647714034,-0.3965022659454216,-0.17064146834315408,0.47973333250931655,12.842292,-1.7077584,-5.282978,0.8561497,0.7145462,0.039748915,1.84099,0.35617542,-0.064943805,-0.007229817,0.93213123,-8.412825,11.026235,0.37654614,-0.39650226,-0.17064147,0.47973332,0
1.9600000000000015,10.180319829968042,-0.371964914541507,0.7210657467886338,0.45045579468127006,11.481405,-1.0326933,-3.3790007,0.5234745,0.6303531,0.15002762,1.8447734,0.35380277,-0.06487163,-0.009225849,0.9330218,-8.425827,11.029441,0.3801639,-0.39650226,-0.17064147,0.47973332,0
1.9700000000000015,10.180319829968042,-0.371964914541507,0.7210657467886338,0.45045579468127006,11.481405,-1.0326933,-3.3790007,0.5234745,0.54602903,0.26033688,1.8485891,0.35161015,-0.068913564,-0.009539321,0.9335576,-8.439114,11.032437,0.38295174,-0.3719649,0.72106576,0.45045578,0
1.9800000000000015,10.180319829968042,-0.371964914541507,0.7210657467886338,0.45045579468127006,11.481405,-1.0326933,-3.3790007,0.5234745,0.46156815,0.3706771,1.8524319,0.34940997,-0.072954014,-0.009852588,0.93407327,-8.453194,11.035632,0.38562575,-0.3719649,0.72106576,0.45045578,0
1.9900000000000015,10.180319829968042,-0.371964914541507,0.7210657467886338,0.45045579468127006,11.481405,-1.0326933,-3.3790007,0.5234745,0.37696245,0.48105025,1.8563011,0.34720227,-0.076992884,-0.010165643,0.9345688,-8.468067,11.039021,0.3881793,-0.3719649,0.72106576,0.45045578,0
2.0000000000000013,,,,,11.299241,-1.3315223,-2.3978763,0.6290233,0.29220405,0.5914582,1.860195,0.3449871,-0.0810301,-0.010478479,0.9350443,-8.483734,11.042601,0.39060578,-0.3719649,0.72106576,0.45045578,0
2.010000000000001,,,,,11.299241,-1.3315223,-2.3978763,0.6290233,0.2072871,0.70190185,1.8641046,0.3425475,-0.0806945,-0.012768785,0.9359413,-8.499672,11.046052,0.39131096,-0.44280875,-0.24043702,0.4802996,0
2.020000000000001,,,,,11.299241,-1.3315223,-2.3978763,0.6290233,0.12221024,0.8123776,1.8680212,0.34010375,-0.08035791,-0.015058935,0.936827,-8.515713,11.049009,0.39201555,-0.44280875,-0.24043702,0.4802996,0
2.0300000000000007,,,,,11.299241,-1.3315223,-2.3978763,0.6290233,0.036972493,0.92288035,1.8719449,0.3376559,-0.08002035,-0.017348902,0.9377013,-8.531853,11.051472,0.39271745,-0.44280875,-0.24043702,0.4802996,0
2.0400000000000005,,,,,11.299241,-1.3315223,-2.3978763,0.6290233,-0.048427146,1.0334053,1.8758756,0.33520395,-0.07968183,-0.019638661,0.93856436,-8.54809,11.053439,0.39341453,-0.44280875,-0.24043702,0.4802996,0
2.0500000000000003,,,,,11.408296,-0.8002008,-1.3892881,0.59379876,-0.13398962,1.1439475,1.8798132,0.33274794,-0.07934234,-0.021928182,0.939416,-8.564421,11.054912,0.3941047,-0.44280875,-0.24043702,0.4802996,1
2.06,,,,,11.408296,-0.8002008,-1.3892881,0.59379876,-0.21972649,1.2545015,1.8838267,0.32947692,-0.074210346,-0.027761763,0.9408329,-8.582848,11.055595,0.40858632,-0.8002008,-1.3892881,0.59379876,1
2.07,,,,,11.408296,-0.8002008,-1.3892881,0.59379876,-0.3056443,1.3650538,1.8879855,0.32618186,-0.06907292,-0.033593316,0.94218117,-8.6006155,11.054577,0.42317137,-0.8002008,-1.3892881,0.59379876,1
2.0799999999999996,,,,,11.408296,-0.8002008,-1.3892881,0.59379876,-0.39173645,1.4755874,1.8922906,0.32286295,-0.06393044,-0.03942241,0.9434606,-8.61771,11.051859,0.43783247,-0.8002008,-1.3892881,0.59379876,1
2.0899999999999994,,,,,11.796882,-0.6947162,-1.9763694,0.69793785,-0.4779961,1.5860851,1.8967426,0.3195204,-0.058783293,-0.04524863,0.944671,-8.634116,11.047447,0.45254228,-0.8002008,-1.3892881,0.59379876,1
2.099999999999999,,,,,11.796882,-0.6947162,-1.9763694,0.69793785,-0.5644184,1.696529,1.901361,0.3155531,-0.05071256,-0.05147946,0.94615215,-8.650121,11.0410185,0.47114143,-0.6947162,-1.9763694,0.69793785,1
2.109999999999999,,,,,11.796882,-0.6947162,-1.9763694,0.69793785,-0.6509938,1.8068984,1.9061656,0.3115473,-0.04263565,-0.057704005,0.94751793,-8.664757,11.032533,0.4897886,-0.6947162,-1.9763694,0.69793785,1
2.1199999999999988,,,,,11.796882,-0.6947162,-1.9763694,0.69793785,-0.7377087,1.9171727,1.9111568,0.30750355,-0.03455354,-0.06392152,0.94876826,-8.678007,11.022002,0.508435,-0.6947162,-1.9763694,0.69793785,1
2.1299999999999986,,,,,12.056555,-0.77544534,-2.1999612,0.9881944,-0.8245491,2.0273314,1.9163342,0.3034223,-0.026467219,-0.07013124,0.9499029,-8.689849,11.00944,0.5270319,-0.6947162,-1.9763694,0.69793785,1
2.1399999999999983,,,,,12.056555,-0.77544534,-2.1999612,0.9881944,-0.91150177,2.1373527,1.9217099,0.29783064,-0.017539542,-0.077015236,0.9513451,-8.70043,10.994457,0.54809123,-0.77544534,-2.1999612,0.9881944,1
2.149999999999998,,,,,12.056555,-0.77544534,-2.1999612,0.9881944,-0.9985521,2.247213,1.9272954,0.29219118,-0.00860905,-0.08388687,0.95263463,-8.709362,10.977201,0.56897825,-0.77544534,-2.1999612,0.9881944,1
2.159999999999998,,,,,12.056555,-0.77544534,-2.1999612,0.9881944,-1.0856832,2.356889,1.9330888,0.28650486,0.0003228241,-0.09074505,0.95377135,-8.716618,10.957702,0.5896322,-0.77544534,-2.1999612,0.9881944,1
2.1699999999999977,,,,,11.933356,-0.59822863,-2.8443534,1.2384725,-1.1728784,2.4663591,1.939087,0.28077254,0.009254647,-0.09758866,0.95475507,-8.722171,10.935982,0.6099925,-0.77544534,-2.1999612,0.9881944,1
