time-since-start [s],throttle_mpc,roll_mpc,pitch_mpc,yaw_mpc,throttle_nw,roll_nw,pitch_nw,yaw_nw,position_x [m],position_y [m],position_z [m],rotation_w [quaternion],rotation_x [quaternion],rotation_y [quaternion],rotation_z [quaternion],velocity_x [m/s],velocity_y [m/s],velocity_z [m/s],omega_x [rad/s],omega_y [rad/s],omega_z [rad/s],network_used
0.0,6.0321443648553394,5.854139940999617,-5.999999846727628,-3.3449934267550083,14.814228,0.89257926,-3.2567432,-0.011167917,17.151487,-10.2737,1.7575412,-0.0010578381,-0.32650837,0.14685762,0.93371516,-10.417338,-1.7883329,0.8938862,1.4521333,-0.3916349,0.09032289,0
0.01,6.0321443648553394,5.854139940999617,-5.999999846727628,-3.3449934267550083,16.407019,2.3027565,-5.3682346,-0.86981887,17.047134,-10.291496,1.7662151,0.028512415,-0.3006603,0.16860206,0.938277,-10.4529085,-1.7704566,0.8410841,5.85414,-6.0,-3.3449934,0
0.02,6.0321443648553394,5.854139940999617,-5.999999846727628,-3.3449934267550083,16.407019,2.3027565,-5.3682346,-0.86981887,16.942442,-10.309096,1.7743664,0.058024608,-0.27420005,0.19000322,0.9409284,-10.485014,-1.7490534,0.78932875,5.85414,-6.0,-3.3449934,0
0.03,6.0321443648553394,5.854139940999617,-5.999999846727628,-3.3449934267550083,16.407019,2.3027565,-5.3682346,-0.86981887,16.837446,-10.326467,1.7820044,0.08741866,-0.2471815,0.21101749,0.94166386,-10.513353,-1.7243834,0.73839825,5.85414,-6.0,-3.3449934,0
0.04,6.0321443648553394,5.854139940999617,-5.999999846727628,-3.3449934267550083,12.05121,-1.4115682,-4.6766853,-0.20416225,16.732187,-10.343575,1.7891363,0.11663471,-0.21965966,0.23160209,0.940482,-10.537656,-1.6967332,0.6880639,5.85414,-6.0,-3.3449934,0
0.05,6.0321443648553394,5.854139940999617,-5.999999846727628,-3.3449934267550083,12.05121,-1.4115682,-4.6766853,-0.20416225,16.626709,-10.360393,1.7957668,0.14561327,-0.19169055,0.25171512,0.9373852,-10.557682,-1.6664138,0.6380923,5.85414,-6.0,-3.3449934,0
0.060000000000000005,6.0321443648553394,5.854139940999617,-5.999999846727628,-3.3449934267550083,12.05121,-1.4115682,-4.6766853,-0.20416225,16.521051,-10.376896,1.8018985,0.17429535,-0.16333112,0.27131563,0.9323798,-10.57323,-1.6337575,0.58824694,5.85414,-6.0,-3.3449934,0
0.07,6.0321443648553394,5.854139940999617,-5.999999846727628,-3.3449934267550083,12.05121,-1.4115682,-4.6766853,-0.20416225,16.41526,-10.393063,1.8075314,0.20262253,-0.13463913,0.2903637,0.92547584,-10.584132,-1.5991162,0.5382905,5.85414,-6.0,-3.3449934,0
0.08,11.857051362918986,4.782242110930803,-5.999999793703447,-1.3376336425269784,12.616232,-1.6928139,3.5904768,-0.17753766,16.309383,-10.408874,1.8126631,0.23053715,-0.10567299,0.30882055,0.9166874,-10.59026,-1.5628575,0.4879862,5.85414,-6.0,-3.3449934,0
0.09,11.857051362918986,4.782242110930803,-5.999999793703447,-1.3376336425269784,12.616232,-1.6928139,3.5904768,-0.17753766,16.20346,-10.424136,1.8175182,0.24828017,-0.0746531,0.32287905,0.9102379,-10.59298,-1.4894638,0.48293704,4.7822423,-6.0,-1.3376336,0
0.09999999999999999,11.857051362918986,4.782242110930803,-5.999999793703447,-1.3376336425269784,12.616232,-1.6928139,3.5904768,-0.17753766,16.097553,-10.43866,1.8223184,0.26564673,-0.043520004,0.33644795,0.90240824,-10.586712,-1.4150879,0.4769318,4.7822423,-6.0,-1.3376336,0
0.10999999999999999,11.857051362918986,4.782242110930803,-5.999999793703447,-1.3376336425269784,12.616232,-1.6928139,3.5904768,-0.17753766,15.9917555,-10.452436,1.8270518,0.2826105,-0.012320924,0.34950674,0.8932103,-10.571474,-1.3402617,0.46950355,4.7822423,-6.0,-1.3376336,0
0.11999999999999998,11.857051362918986,4.782242110930803,-5.999999793703447,-1.3376336425269784,12.616232,-1.6928139,3.5904768,-0.17753766,15.886155,-10.465466,1.8317019,0.29914576,0.018896837,0.36203554,0.88265795,-10.54734,-1.2655197,0.46019387,4.7822423,-6.0,-1.3376336,0
0.12999999999999998,16.340575125567174,2.0039158068211287,-5.999999333075379,0.09987252643215985,15.944208,-1.9887072,3.519778,0.35033458,15.780839,-10.477749,1.8362476,0.31522745,0.050085947,0.3740154,0.8707673,-10.51444,-1.1913962,0.4485559,4.7822423,-6.0,-1.3376336,0
0.13999999999999999,16.340575125567174,2.0039158068211287,-5.999999333075379,0.09987252643215985,15.944208,-1.9887072,3.519778,0.35033458,15.675969,-10.4891615,1.840826,0.3253518,0.079524204,0.3730713,0.86523986,-10.458123,-1.0916789,0.46698073,2.0039158,-5.9999995,0.09987253,0
0.15,16.340575125567174,2.0039158068211287,-5.999999333075379,0.09987252643215985,15.944208,-1.9887072,3.519778,0.35033458,15.57171,-10.4995985,1.8455831,0.33515066,0.1088829,0.37175393,0.8588467,-10.392526,-0.9963443,0.48421228,2.0039158,-5.9999995,0.09987253,0
0.16,17.032978364625414,0.17449161112115716,-5.3344559446453985,0.3494698499145159,15.273819,-2.3707242,2.4150748,-0.3326425,15.46815,-10.509105,1.8505044,0.34461415,0.13813263,0.37006462,0.85159427,-10.317907,-0.9057669,0.49978197,2.0039158,-5.9999995,0.09987253,0
0.17,17.032978364625414,0.17449161112115716,-5.3344559446453985,0.3494698499145159,15.273819,-2.3707242,2.4150748,-0.3326425,15.3653965,-10.517714,1.8555974,0.35275185,0.16174167,0.36124328,0.84788513,-10.231894,-0.81694597,0.5188067,0.17449161,-5.334456,0.34946984,0
0.18000000000000002,17.032978364625414,0.17449161112115716,-5.3344559446453985,0.3494698499145159,15.273819,-2.3707242,2.4150748,-0.3326425,15.263535,-10.525467,1.8608792,0.3606373,0.18523504,0.35216358,0.8435696,-10.1393585,-0.7344466,0.53748363,0.17449161,-5.334456,0.34946984,0
0.19000000000000003,17.032978364625414,0.17449161112115716,-5.3344559446453985,0.3494698499145159,15.273819,-2.3707242,2.4150748,-0.3326425,15.16263,-10.532427,1.8663446,0.36826482,0.20859593,0.34283203,0.83865076,-10.040551,-0.6584874,0.5554572,0.17449161,-5.334456,0.34946984,0
0.20000000000000004,15.424476876913944,-0.4762807338815468,-1.4274041242192852,0.034149247022120154,16.003971,-1.3318046,3.5780375,-0.9407607,15.062744,-10.538661,1.8719846,0.37562892,0.23180763,0.3332553,0.8331321,-9.935739,-0.58926827,0.5723736,0.17449161,-5.334456,0.34946984,0
0.21000000000000005,15.424476876913944,-0.4762807338815468,-1.4274041242192852,0.034149247022120154,16.003971,-1.3318046,3.5780375,-0.9407607,14.963879,-10.544261,1.877735,0.3784065,0.23690948,0.3285414,0.8323118,-9.8371725,-0.5312611,0.5777674,-0.47628072,-1.4274042,0.03414925,0
0.22000000000000006,15.424476876913944,-0.4762807338815468,-1.4274041242192852,0.034149247022120154,16.003971,-1.3318046,3.5780375,-0.9407607,14.866004,-10.549292,1.8835405,0.38116264,0.2419979,0.3238089,0.83144444,-9.737628,-0.47534752,0.58337677,-0.47628072,-1.4274042,0.03414925,0
0.23000000000000007,15.424476876913944,-0.4762807338815468,-1.4274041242192852,0.034149247022120154,16.003971,-1.3318046,3.5780375,-0.9407607,14.76913,-10.553774,1.8894032,0.3838972,0.24707262,0.3190581,0.8305299,-9.637127,-0.42154008,0.58917767,-0.47628072,-1.4274042,0.03414925,0
0.24000000000000007,15.424476876913944,-0.4762807338815468,-1.4274041242192852,0.034149247022120154,16.528389,-0.9392724,3.524252,-0.72803354,14.6732645,-10.55773,1.8953247,0.38661,0.25213337,0.31428918,0.8295684,-9.535692,-0.36985078,0.5951461,-0.47628072,-1.4274042,0.03414925,0
0.25000000000000006,15.424476876913944,-0.4762807338815468,-1.4274041242192852,0.034149247022120154,16.528389,-0.9392724,3.524252,-0.72803354,14.578418,-10.561179,1.9013066,0.3893009,0.25717983,0.3095025,0.8285599,-9.433346,-0.32029116,0.6012579,-0.47628072,-1.4274042,0.03414925,0
0.26000000000000006,15.424476876913944,-0.4762807338815468,-1.4274041242192852,0.034149247022120154,16.528389,-0.9392724,3.524252,-0.72803354,14.4846,-10.564143,1.9073504,0.39196977,0.2622117,0.3046983,0.82750446,-9.330111,-0.27287224,0.60748893,-0.47628072,-1.4274042,0.03414925,0
0.2700000000000001,15.424476876913944,-0.4762807338815468,-1.4274041242192852,0.034149247022120154,16.528389,-0.9392724,3.524252,-0.72803354,14.391819,-10.566644,1.9134569,0.39461643,0.26722875,0.2998768,0.8264021,-9.226009,-0.22760452,0.61381483,-0.47628072,-1.4274042,0.03414925,0
0.2800000000000001,14.151492872166074,-0.6861621382183111,1.009754837498696,-0.15339621384455807,17.012423,-1.0970451,4.461666,-1.1758777,14.300082,-10.568703,1.919627,0.39724076,0.27223065,0.29503834,0.82525307,-9.121065,-0.18449813,0.6202114,-0.47628072,-1.4274042,0.03414925,0
0.2900000000000001,14.151492872166074,-0.6861621382183111,1.009754837498696,-0.15339621384455807,17.012423,-1.0970451,4.461666,-1.1758777,14.209354,-10.570355,1.9258192,0.39731058,0.26646987,0.29441583,0.8273194,-9.024778,-0.14594162,0.61838365,-0.6861621,1.0097549,-0.15339622,0
0.3000000000000001,14.151492872166074,-0.6861621382183111,1.009754837498696,-0.15339621384455807,17.012423,-1.0970451,4.461666,-1.1758777,14.119582,-10.57162,1.931998,0.39736536,0.260699,0.2937822,0.8293544,-8.9297495,-0.10671716,0.61753213,-0.6861621,1.0097549,-0.15339622,0
0.3100000000000001,14.151492872166074,-0.6861621382183111,1.009754837498696,-0.15339621384455807,17.012423,-1.0970451,4.461666,-1.1758777,14.030754,-10.572489,1.9381732,0.39740512,0.25491825,0.29313743,0.83135796,-8.835994,-0.06682831,0.6176412,-0.6861621,1.0097549,-0.15339622,0
0.3200000000000001,12.801356693635299,-1.091346891998864,5.369247971497753,-0.4114386325255849,16.917229,-1.6916648,5.079887,-2.1851053,13.942857,-10.572955,1.9443542,0.39742982,0.2491279,0.29248157,0.83333004,-8.743525,-0.026278684,0.6186951,-0.6861621,1.0097549,-0.15339622,0
0.3300000000000001,12.801356693635299,-1.091346891998864,5.369247971497753,-0.4114386325255849,16.917229,-1.6916648,5.079887,-2.1851053,13.855832,-10.573028,1.950504,0.39250216,0.22389491,0.29900512,0.8404812,-8.662352,0.01257802,0.6116148,-1.0913469,5.369248,-0.41143864,0
0.34000000000000014,12.801356693635299,-1.091346891998864,5.369247971497753,-0.4114386325255849,16.917229,-1.6916648,5.079887,-2.1851053,13.769595,-10.572688,1.956593,0.3872783,0.19849296,0.30530304,0.84699804,-8.58595,0.056185182,0.60649216,-1.0913469,5.369248,-0.41143864,0
0.35000000000000014,12.801356693635299,-1.091346891998864,5.369247971497753,-0.4114386325255849,16.917229,-1.6916648,5.079887,-2.1851053,13.684096,-10.571889,1.9626393,0.38176215,0.17294122,0.31137052,0.8528757,-8.514538,0.10443096,0.6030298,-1.0913469,5.369248,-0.41143864,0
0.36000000000000015,12.30359785192938,-0.9542465973458654,5.7313099665177765,-0.574955795269281,17.869516,-1.6866549,4.915588,-1.8148028,13.599286,-10.570585,1.9686582,0.37595788,0.14725897,0.31720302,0.8581097,-8.4483185,0.1571895,0.6009252,-1.0913469,5.369248,-0.41143864,0
0.37000000000000016,12.30359785192938,-0.9542465973458654,5.7313099665177765,-0.574955795269281,17.869516,-1.6866549,4.915588,-1.8148028,13.515099,-10.568741,1.9746425,0.36987805,0.11990397,0.3241696,0.862396,-8.389923,0.21225454,0.5960546,-0.9542466,5.73131,-0.5749558,0
0.38000000000000017,12.30359785192938,-0.9542465973458654,5.7313099665177765,-0.574955795269281,17.869516,-1.6866549,4.915588,-1.8148028,13.431468,-10.566324,1.9805812,0.36348304,0.09244679,0.33085993,0.8659474,-8.337083,0.27178016,0.59175456,-0.9542466,5.73131,-0.5749558,0
0.3900000000000002,12.30359785192938,-0.9542465973458654,5.7313099665177765,-0.574955795269281,17.869516,-1.6866549,4.915588,-1.8148028,13.348338,-10.563291,1.9864783,0.35677826,0.06491083,0.3372683,0.8687608,-8.289956,0.33559123,0.58768207,-0.9542466,5.73131,-0.5749558,0
0.4000000000000002,12.15688726867158,-0.8068455713132032,5.108180187649452,-0.6826887627871122,15.735712,-2.0178025,3.3527834,-1.0726757,13.265651,-10.559599,1.9923344,0.34976947,0.037319556,0.3433893,0.87083393,-8.248685,0.40349787,0.58349323,-0.9542466,5.73131,-0.5749558,0
0.4100000000000002,12.15688726867158,-0.8068455713132032,5.108180187649452,-0.6826887627871122,15.735712,-2.0178025,3.3527834,-1.0726757,13.183345,-10.555212,1.998141,0.34400377,0.012484605,0.34881955,0.87168217,-8.213555,0.47430038,0.5777451,-0.80684555,5.10818,-0.6826888,0
0.4200000000000002,12.15688726867158,-0.8068455713132032,5.108180187649452,-0.6826887627871122,15.735712,-2.0178025,3.3527834,-1.0726757,13.101363,-10.550101,2.003887,0.33800408,-0.012358839,0.35401252,0.8719375,-8.183734,0.5483915,0.5712811,-0.80684555,5.10818,-0.6826888,0
0.4300000000000002,12.15688726867158,-0.8068455713132032,5.108180187649452,-0.6826887627871122,15.735712,-2.0178025,3.3527834,-1.0726757,13.019652,-10.544233,2.0095634,0.33177447,-0.037193872,0.35896468,0.8715997,-8.159282,0.62559927,0.5638285,-0.80684555,5.10818,-0.6826888,0
0.4400000000000002,12.15688726867158,-0.8068455713132032,5.108180187649452,-0.6826887627871122,14.383368,-1.38824,2.2093794,-1.1774428,12.938159,-10.53758,2.0151594,0.32531917,-0.062003613,0.36367267,0.870669,-8.140243,0.7057431,0.55511767,-0.80684555,5.10818,-0.6826888,0
0.45000000000000023,12.15688726867158,-0.8068455713132032,5.108180187649452,-0.6826887627871122,14.383368,-1.38824,2.2093794,-1.1774428,12.85683,-10.530109,2.0206606,0.3186426,-0.08677117,0.36813328,0.86914605,-8.126647,0.78863436,0.54488176,-0.80684555,5.10818,-0.6826888,0
0.46000000000000024,12.15688726867158,-0.8068455713132032,5.108180187649452,-0.6826887627871122,14.383368,-1.38824,2.2093794,-1.1774428,12.775608,-10.521797,2.0260508,0.31174922,-0.11147971,0.37234348,0.86703193,-8.11851,0.8740772,0.53285867,-0.80684555,5.10818,-0.6826888,0
0.47000000000000025,12.15688726867158,-0.8068455713132032,5.108180187649452,-0.6826887627871122,14.383368,-1.38824,2.2093794,-1.1774428,12.694441,-10.512619,2.0313108,0.3046438,-0.13611242,0.3763004,0.86432797,-8.115834,0.9618686,0.5187908,-0.80684555,5.10818,-0.6826888,0
0.48000000000000026,11.890071527676358,-0.3984714766664125,2.4226700627142184,-0.7446953979739162,12.273418,-1.1436621,2.1664705,-0.85177356,12.613274,-10.502552,2.0364187,0.29733118,-0.16065253,0.38000134,0.86103606,-8.118604,1.0517993,0.50242627,-0.80684555,5.10818,-0.6826888,1
0.49000000000000027,11.890071527676358,-0.3984714766664125,2.4226700627142184,-0.7446953979739162,12.273418,-1.1436621,2.1664705,-0.85177356,12.532053,-10.491573,2.0413566,0.2959383,-0.17328432,0.37758237,0.86013013,-8.125926,1.1439439,0.48506486,-1.1436621,2.1664705,-0.85177356,1
0.5000000000000002,11.890071527676358,-0.3984714766664125,2.4226700627142184,-0.7446953979739162,12.273418,-1.1436621,2.1664705,-0.85177356,12.450744,-10.4796715,2.0461178,0.29449564,-0.18588696,0.37509993,0.85907954,-8.136182,1.2363415,0.46709275,-1.1436621,2.1664705,-0.85177356,1
0.5100000000000002,11.890071527676358,-0.3984714766664125,2.4226700627142184,-0.7446953979739162,12.273418,-1.1436621,2.1664705,-0.85177356,12.369319,-10.4668455,2.050696,0.29300344,-0.19845834,0.37255436,0.85788447,-8.14936,1.3289534,0.44844323,-1.1436621,2.1664705,-0.85177356,1
0.5200000000000002,11.912316185849637,0.11843143741405396,0.7680201140545131,-0.7024390226028389,14.249635,-1.4081212,1.439523,-0.41672757,12.287746,-10.453092,2.055084,0.291462,-0.21099634,0.36994615,0.85654515,-8.165445,1.4217407,0.42905006,-1.1436621,2.1664705,-0.85177356,0
0.5300000000000002,11.912316185849637,0.11843143741405396,0.7680201140545131,-0.7024390226028389,14.249635,-1.4081212,1.439523,-0.41672757,12.206005,-10.438422,2.059263,0.29317066,-0.21540938,0.37082648,0.85448045,-8.183033,1.5120336,0.4066344,0.118431434,0.7680201,-0.702439,0
0.5400000000000003,11.912316185849637,0.11843143741405396,0.7680201140545131,-0.7024390226028389,14.249635,-1.4081212,1.439523,-0.41672757,12.124084,-10.422849,2.0632148,0.29487124,-0.21981652,0.37169662,0.85239226,-8.201201,1.602717,0.3836123,0.118431434,0.7680201,-0.702439,0
0.5500000000000003,11.912316185849637,0.11843143741405396,0.7680201140545131,-0.7024390226028389,14.249635,-1.4081212,1.439523,-0.41672757,12.041979,-10.406366,2.0669332,0.2965637,-0.22421761,0.37255657,0.8502807,-8.219943,1.6937888,0.35997662,0.118431434,0.7680201,-0.702439,0
0.5600000000000003,11.65254021443595,0.6398915700645191,-0.8707507515321783,-0.6538432174329272,13.233484,-0.30940735,0.20614591,-0.3052842,11.959683,-10.388971,2.070412,0.29824808,-0.22861256,0.3734063,0.8481458,-8.239254,1.7852465,0.3357202,0.118431434,0.7680201,-0.702439,0
0.5700000000000003,11.65254021443595,0.6398915700645191,-0.8707507515321783,-0.6538432174329272,13.233484,-0.30940735,0.20614591,-0.3052842,11.877195,-10.37067,2.0736382,0.303372,-0.2251819,0.37406656,0.84695446,-8.258025,1.874967,0.30956382,0.63989156,-0.8707507,-0.6538432,0
0.5800000000000003,11.65254021443595,0.6398915700645191,-0.8707507515321783,-0.6538432174329272,13.233484,-0.30940735,0.20614591,-0.3052842,11.794526,-10.351472,2.0766041,0.30848387,-0.22174229,0.37471193,0.8457294,-8.275563,1.9647388,0.2836544,0.63989156,-0.8707507,-0.6538432,0
0.5900000000000003,11.65254021443595,0.6398915700645191,-0.8707507515321783,-0.6538432174329272,13.233484,-0.30940735,0.20614591,-0.3052842,11.711689,-10.331375,2.0793123,0.3135834,-0.21829383,0.37534234,0.84447056,-8.291865,2.054546,0.2579898,0.63989156,-0.8707507,-0.6538432,0
0.6000000000000003,11.808734511501562,0.6396226221887199,-0.3864856226532576,-0.5913056499385113,11.690437,-0.41758922,-0.8681977,-0.003502734,11.628694,-10.310381,2.081765,0.31867042,-0.21483666,0.3759578,0.8431781,-8.3069315,2.1443734,0.2325678,0.63989156,-0.8707507,-0.6538432,0
0.6100000000000003,11.808734511501562,0.6396226221887199,-0.3864856226532576,-0.5913056499385113,11.690437,-0.41758922,-0.8681977,-0.003502734,11.545552,-10.288482,2.0839689,0.32257324,-0.21329722,0.37739915,0.8414391,-8.321099,2.23549,0.20823482,0.6396226,-0.38648564,-0.5913057,0
0.6200000000000003,11.808734511501562,0.6396226221887199,-0.3864856226532576,-0.5913056499385113,11.690437,-0.41758922,-0.8681977,-0.003502734,11.462274,-10.26567,2.0859292,0.32646877,-0.21175295,0.37883192,0.839681,-8.334416,2.3268166,0.183801,0.6396226,-0.38648564,-0.5913057,0
0.6300000000000003,11.808734511501562,0.6396226221887199,-0.3864856226532576,-0.5913056499385113,11.690437,-0.41758922,-0.8681977,-0.003502734,11.378866,-10.241942,2.0876446,0.33035687,-0.21020389,0.38025612,0.83790386,-8.346879,2.4183443,0.1592663,0.6396226,-0.38648564,-0.5913057,0
0.6400000000000003,11.808734511501562,0.6396226221887199,-0.3864856226532576,-0.5913056499385113,11.758935,-0.74650025,-0.30386025,0.09487237,11.295338,-10.217299,2.0891142,0.3342375,-0.20865005,0.3816716,0.8361078,-8.358487,2.5100656,0.1346306,0.6396226,-0.38648564,-0.5913057,0
0.6500000000000004,11.808734511501562,0.6396226221887199,-0.3864856226532576,-0.5913056499385113,11.758935,-0.74650025,-0.30386025,0.09487237,11.211699,-10.191739,2.090337,0.33811048,-0.20709147,0.38307846,0.8342927,-8.369239,2.6019719,0.1098939,0.6396226,-0.38648564,-0.5913057,0
0.6600000000000004,11.808734511501562,0.6396226221887199,-0.3864856226532576,-0.5913056499385113,11.758935,-0.74650025,-0.30386025,0.09487237,11.127956,-10.165259,2.091312,0.3419758,-0.20552818,0.38447663,0.8324587,-8.379132,2.694055,0.08505611,0.6396226,-0.38648564,-0.5913057,0
0.6700000000000004,11.808734511501562,0.6396226221887199,-0.3864856226532576,-0.5913056499385113,11.758935,-0.74650025,-0.30386025,0.09487237,11.04412,-10.137857,2.092038,0.34583336,-0.20396022,0.38586608,0.83060575,-8.3881645,2.786307,0.060117185,0.6396226,-0.38648564,-0.5913057,0
0.6800000000000004,11.735408797582192,0.6264277117430179,-1.0227597242375206,-0.5655836958221756,11.37452,-0.9154567,-0.28166014,0.017332658,10.9601965,-10.109532,2.092514,0.34968308,-0.20238763,0.38724676,0.828734,-8.396336,2.8787196,0.035077102,0.6396226,-0.38648564,-0.5913057,0
0.6900000000000004,11.735408797582192,0.6264277117430179,-1.0227597242375206,-0.5655836958221756,11.37452,-0.9154567,-0.28166014,0.017332658,10.876197,-10.080285,2.0927372,0.35463318,-0.19814508,0.3874734,0.827549,-8.403414,2.970587,0.0096549755,0.6264277,-1.0227597,-0.5655837,0
0.7000000000000004,11.735408797582192,0.6264277117430179,-1.0227597242375206,-0.5655836958221756,11.37452,-0.9154567,-0.28166014,0.017332658,10.792133,-10.050121,2.092708,0.35956767,-0.19389383,0.38768303,0.82632756,-8.4091425,3.062266,-0.015411241,0.6264277,-1.0227597,-0.5655837,0
0.7100000000000004,11.735408797582192,0.6264277117430179,-1.0227597242375206,-0.5655836958221756,11.37452,-0.9154567,-0.28166014,0.017332658,10.708018,-10.019041,2.09243,0.36448637,-0.18963405,0.38787562,0.8250699,-8.413525,3.1537387,-0.040126152,0.6264277,-1.0227597,-0.5655837,0
0.7200000000000004,11.870913510328695,0.5275324773333645,-0.7460373327396969,-0.5059555626546336,11.217142,-1.0033063,-0.8016075,-0.06574215,10.623866,-9.987047,2.0919065,0.36938903,-0.18536593,0.38805115,0.823776,-8.416561,3.244987,-0.06449443,0.6264277,-1.0227597,-0.5655837,0
0.7300000000000004,11.870913510328695,0.5275324773333645,-0.7460373327396969,-0.5059555626546336,11.217142,-1.0033063,-0.8016075,-0.06574215,10.53969,-9.954137,2.0911453,0.37340438,-0.18229793,0.38837188,0.8224982,-8.418386,3.3370829,-0.08771601,0.52753246,-0.7460373,-0.5059556,0
0.7400000000000004,11.870913510328695,0.5275324773333645,-0.7460373327396969,-0.5059555626546336,11.217142,-1.0033063,-0.8016075,-0.06574215,10.455502,-9.920306,2.090153,0.37740958,-0.17922497,0.388682,0.821198,-8.419159,3.4290242,-0.11072972,0.52753246,-0.7460373,-0.5059556,0
0.7500000000000004,11.870913510328695,0.5275324773333645,-0.7460373327396969,-0.5059555626546336,11.217142,-1.0033063,-0.8016075,-0.06574215,10.371311,-9.885557,2.0889316,0.38140446,-0.17614712,0.38898155,0.81987536,-8.4188795,3.5208,-0.13353768,0.52753246,-0.7460373,-0.5059556,0
0.7600000000000005,11.998065812391244,0.3973388170999449,-0.885149159098086,-0.46650500269515743,12.717569,-0.67170554,0.06459664,-0.25248653,10.2871275,-9.84989,2.087483,0.3853889,-0.17306449,0.38927048,0.8185304,-8.41755,3.6123993,-0.15614207,0.52753246,-0.7460373,-0.5059556,0
0.7700000000000005,11.998065812391244,0.3973388170999449,-0.885149159098086,-0.46650500269515743,12.717569,-0.67170554,0.06459664,-0.25248653,10.202964,-9.813303,2.0858135,0.38935918,-0.16958171,0.3887817,0.8176121,-8.415151,3.7047353,-0.1776684,0.3973388,-0.8851492,-0.466505,0
0.7800000000000005,11.998065812391244,0.3973388170999449,-0.885149159098086,-0.46650500269515743,12.717569,-0.67170554,0.06459664,-0.25248653,10.118829,-9.775795,2.0839307,0.39331818,-0.16609403,0.38828167,0.81667024,-8.411706,3.7967248,-0.1988184,0.3973388,-0.8851492,-0.466505,0
0.7900000000000005,11.998065812391244,0.3973388170999449,-0.885149159098086,-0.46650500269515743,12.717569,-0.67170554,0.06459664,-0.25248653,10.034733,-9.73737,2.0818384,0.3972658,-0.16260156,0.38777038,0.8157047,-8.407218,3.888356,-0.21959552,0.3973388,-0.8851492,-0.466505,0
0.8000000000000005,12.147262781735213,0.29470087606184886,-0.5462870129728096,-0.4006139529292962,12.598604,-0.678044,0.24040002,-0.33533728,9.950688,-9.6980295,2.07954,0.40120187,-0.15910435,0.38724783,0.8147155,-8.4016905,3.979617,-0.2400033,0.3973388,-0.8851492,-0.466505,1
0.8100000000000005,12.147262781735213,0.29470087606184886,-0.5462870129728096,-0.4006139529292962,12.598604,-0.678044,0.24040002,-0.33533728,9.866704,-9.657756,2.0770588,0.40155986,-0.16209184,0.3846982,0.815158,-8.395526,4.075136,-0.2561859,-0.678044,0.24040002,-0.33533728,1
0.8200000000000005,12.147262781735213,0.29470087606184886,-0.5462870129728096,-0.4006139529292962,12.598604,-0.678044,0.24040002,-0.33533728,9.782776,-9.616528,2.074417,0.40191153,-0.16507676,0.3821425,0.81558764,-8.390216,4.1704903,-0.27211672,-0.678044,0.24040002,-0.33533728,1
0.8300000000000005,12.147262781735213,0.29470087606184886,-0.5462870129728096,-0.4006139529292962,12.598604,-0.678044,0.24040002,-0.33533728,9.698896,-9.574347,2.0716176,0.40225688,-0.16805911,0.37958083,0.81600446,-8.385761,4.2656765,-0.28780225,-0.678044,0.24040002,-0.33533728,1
0.8400000000000005,12.147262781735213,0.29470087606184886,-0.5462870129728096,-0.4006139529292962,12.224543,-0.31464526,0.046076372,-0.29760453,9.615058,-9.531215,2.0686622,0.40259588,-0.17103879,0.37701312,0.81640846,-8.382164,4.3606915,-0.3032488,-0.678044,0.24040002,-0.33533728,1
0.8500000000000005,12.147262781735213,0.29470087606184886,-0.5462870129728096,-0.4006139529292962,12.224543,-0.31464526,0.046076372,-0.29760453,9.531251,-9.487148,2.065541,0.40345383,-0.17242084,0.37556607,0.81636125,-8.379322,4.452735,-0.32095098,-0.31464526,0.046076372,-0.29760453,1
0.8600000000000005,12.147262781735213,0.29470087606184886,-0.5462870129728096,-0.4006139529292962,12.224543,-0.31464526,0.046076372,-0.29760453,9.447471,-9.442162,2.0622435,0.40430987,-0.1738021,0.37411723,0.81631005,-8.376816,4.5446577,-0.33850354,-0.31464526,0.046076372,-0.29760453,1
0.8700000000000006,12.147262781735213,0.29470087606184886,-0.5462870129728096,-0.4006139529292962,12.224543,-0.31464526,0.046076372,-0.29760453,9.363713,-9.3962555,2.0587714,0.405164,-0.1751825,0.37266663,0.816255,-8.374649,4.6364584,-0.35590807,-0.31464526,0.046076372,-0.29760453,1
0.8800000000000006,12.294747223718286,0.6272729873592953,-1.1448791479317257,-0.3423540390174198,12.279524,0.28050473,-0.0021313997,-0.2588875,9.279976,-9.349433,2.055126,0.40601623,-0.17656209,0.37121424,0.8161961,-8.372821,4.7281384,-0.3731661,-0.31464526,0.046076372,-0.29760453,0
0.8900000000000006,12.294747223718286,0.6272729873592953,-1.1448791479317257,-0.3423540390174198,12.279524,0.28050473,-0.0021313997,-0.2588875,9.196258,-9.301691,2.0513113,0.41008288,-0.1712479,0.37113926,0.8153289,-8.370646,4.8200994,-0.3896922,0.62727296,-1.1448791,-0.34235403,0
0.9000000000000006,12.294747223718286,0.6272729873592953,-1.1448791479317257,-0.3423540390174198,12.279524,0.28050473,-0.0021313997,-0.2588875,9.112568,-9.253031,2.0473337,0.4141308,-0.16592592,0.37104735,0.8144247,-8.367004,4.9116,-0.40575388,0.62727296,-1.1448791,-0.34235403,0
0.9100000000000006,12.294747223718286,0.6272729873592953,-1.1448791479317257,-0.3423540390174198,12.279524,0.28050473,-0.0021313997,-0.2588875,9.028922,-9.20346,2.0431979,0.4181599,-0.16059637,0.37093857,0.8134833,-8.3619,5.002621,-0.42136142,0.62727296,-1.1448791,-0.34235403,0
0.9200000000000006,12.463797836537632,0.7371715944290557,-1.47017831193379,-0.2537153635527651,12.295589,0.85994154,-0.10013908,-0.23549764,8.945335,-9.15298,2.0389082,0.42216995,-0.1552595,0.3708129,0.81250495,-8.355337,5.093144,-0.43652505,0.62727296,-1.1448791,-0.34235403,0
0.9300000000000006,12.463797836537632,0.7371715944290557,-1.47017831193379,-0.2537153635527651,12.295589,0.85994154,-0.10013908,-0.23549764,8.861822,-9.101592,2.0344748,0.42648408,-0.14819592,0.37049454,0.8117159,-8.347075,5.184318,-0.4500481,0.7371716,-1.4701784,-0.25371537,0
0.9400000000000006,12.463797836537632,0.7371715944290557,-1.47017831193379,-0.2537153635527651,12.295589,0.85994154,-0.10013908,-0.23549764,8.778401,-9.049295,2.0299091,0.43076867,-0.14112207,0.37015057,0.8108706,-8.33699,5.2747607,-0.46298522,0.7371716,-1.4701784,-0.25371537,0
0.9500000000000006,12.463797836537632,0.7371715944290557,-1.47017831193379,-0.2537153635527651,12.295589,0.85994154,-0.10013908,-0.23549764,8.695089,-8.9960985,2.025217,0.43502343,-0.13403845,0.36978096,0.8099691,-8.325087,5.3644443,-0.475356,0.7371716,-1.4701784,-0.25371537,0
0.9600000000000006,12.910155423702886,0.29204135024262945,-0.682298488624362,-0.21539453127660116,11.840646,0.67140484,0.10767974,-0.20535575,8.611906,-8.942009,2.0204039,0.43924809,-0.12694556,0.36938575,0.8090116,-8.311372,5.4533415,-0.48718017,0.7371716,-1.4701784,-0.25371537,0
0.9700000000000006,12.910155423702886,0.29204135024262945,-0.682298488624362,-0.21539453127660116,11.840646,0.67140484,0.10767974,-0.20535575,8.52887,-8.887018,2.0154905,0.4415616,-0.1239411,0.36892912,0.8084262,-8.29569,5.5447435,-0.49546444,0.29204136,-0.6822985,-0.21539453,0
0.9800000000000006,12.910155423702886,0.29204135024262945,-0.682298488624362,-0.21539453127660116,11.840646,0.67140484,0.10767974,-0.20535575,8.445994,-8.831116,2.0104957,0.44386855,-0.1209348,0.36846697,0.8078287,-8.279194,5.6357255,-0.50346833,0.29204136,-0.6822985,-0.21539453,0
0.9900000000000007,12.910155423702886,0.29204135024262945,-0.682298488624362,-0.21539453127660116,11.840646,0.67140484,0.10767974,-0.20535575,8.363288,-8.774306,2.005422,0.4461688,-0.11792669,0.36799932,0.80721915,-8.261885,5.726281,-0.51119554,0.29204136,-0.6822985,-0.21539453,0
1.0000000000000007,12.982541082939575,0.021725085823423015,-0.7201652365901087,-0.1260185872079714,12.045099,0.4576859,0.34887084,-0.19028293,8.280759,-8.716592,2.0002728,0.4484624,-0.11491682,0.36752617,0.8065976,-8.243767,5.8164043,-0.5186497,0.29204136,-0.6822985,-0.21539453,0
1.0100000000000007,12.982541082939575,0.021725085823423015,-0.7201652365901087,-0.1260185872079714,12.045099,0.4576859,0.34887084,-0.19028293,8.198416,-8.657977,1.9950529,0.4503035,-0.11219449,0.3659241,0.8066835,-8.224829,5.9065366,-0.52525073,0.021725086,-0.72016525,-0.12601858,0
1.0200000000000007,12.982541082939575,0.021725085823423015,-0.7201652365901087,-0.1260185872079714,12.045099,0.4576859,0.34887084,-0.19028293,8.116264,-8.598463,1.9897693,0.45213857,-0.10947067,0.36431712,0.8067586,-8.205337,5.996077,-0.5313876,0.021725086,-0.72016525,-0.12601858,0
1.0300000000000007,12.982541082939575,0.021725085823423015,-0.7201652365901087,-0.1260185872079714,12.045099,0.4576859,0.34887084,-0.19028293,8.034311,-8.538057,1.9844267,0.4539676,-0.1067454,0.3627053,0.8068229,-8.18529,6.085019,-0.53706473,0.021725086,-0.72016525,-0.12601858,0
1.0400000000000007,12.982541082939575,0.021725085823423015,-0.7201652365901087,-0.1260185872079714,12.329677,0.19609849,0.16529599,-0.18271838,7.952561,-8.476765,1.9790297,0.45579058,-0.104018696,0.36108857,0.8068765,-8.164693,6.1733584,-0.5422861,0.021725086,-0.72016525,-0.12601858,1
1.0500000000000007,12.982541082939575,0.021725085823423015,-0.7201652365901087,-0.1260185872079714,12.329677,0.19609849,0.16529599,-0.18271838,7.871014,-8.414614,1.9735585,0.45633075,-0.10456843,0.36216095,0.8060191,-8.144774,6.256975,-0.5519919,0.19609849,0.16529599,-0.18271838,1
1.0600000000000007,12.982541082939575,0.021725085823423015,-0.7201652365901087,-0.1260185872079714,12.329677,0.19609849,0.16529599,-0.18271838,7.789666,-8.351624,1.9679891,0.45686975,-0.105117895,0.3632324,0.8051596,-8.124774,6.3408046,-0.5619173,0.19609849,0.16529599,-0.18271838,1
1.0700000000000007,12.982541082939575,0.021725085823423015,-0.7201652365901087,-0.1260185872079714,12.329677,0.19609849,0.16529599,-0.18271838,7.708519,-8.287794,1.9623193,0.45740765,-0.1056671,0.36430296,0.8042982,-8.1046915,6.424845,-0.572063,0.19609849,0.16529599,-0.18271838,1
1.0800000000000007,13.382030013790212,-0.3686617316487877,0.03537559591856884,-0.09168174522781519,12.843463,0.0006237994,0.12534307,-0.23670213,7.627573,-8.2231245,1.956547,0.4579444,-0.10621604,0.36537263,0.80343485,-8.084527,6.5090966,-0.5824295,0.19609849,0.16529599,-0.18271838,1
1.0900000000000007,13.382030013790212,-0.3686617316487877,0.03537559591856884,-0.09168174522781519,12.843463,0.0006237994,0.12534307,-0.23670213,7.546833,-8.157594,1.9506885,0.4586662,-0.107150465,0.3655361,0.80282444,-8.063501,6.597035,-0.5893148,0.0006237994,0.12534307,-0.23670213,1
1.1000000000000008,13.382030013790212,-0.3686617316487877,0.03537559591856884,-0.09168174522781519,12.843463,0.0006237994,0.12534307,-0.23670213,7.466303,-8.091183,1.9447606,0.45938718,-0.10808469,0.3656989,0.80221254,-8.042565,6.68508,-0.5962822,0.0006237994,0.12534307,-0.23670213,1
1.1100000000000008,13.382030013790212,-0.3686617316487877,0.03537559591856884,-0.09168174522781519,12.843463,0.0006237994,0.12534307,-0.23670213,7.385981,-8.023891,1.9387627,0.46010736,-0.109018736,0.36586106,0.8015992,-8.021718,6.773232,-0.6033319,0.0006237994,0.12534307,-0.23670213,1
1.1200000000000008,13.488347134697637,-0.7230255608415982,-0.9908277192943671,0.022424992984326965,13.415291,-0.4916093,0.123105936,-0.2589954,7.3058677,-7.9557176,1.9326937,0.4608267,-0.10995258,0.36602256,0.80098444,-8.000958,6.861489,-0.61046433,0.0006237994,0.12534307,-0.23670213,0
1.1300000000000008,13.488347134697637,-0.7230255608415982,-0.9908277192943671,0.022424992984326965,13.415291,-0.4916093,0.123105936,-0.2589954,7.225967,-7.88664,1.9265772,0.46214405,-0.10760724,0.36084935,0.802889,-7.979238,6.953804,-0.6126504,-0.72302556,-0.99082774,0.022424992,0
1.1400000000000008,13.488347134697637,-0.7230255608415982,-0.9908277192943671,0.022424992984326965,13.415291,-0.4916093,0.123105936,-0.2589954,7.1462827,-7.8166456,1.9204447,0.46344402,-0.10525785,0.35566258,0.8047633,-7.957582,7.0449286,-0.6136899,-0.72302556,-0.99082774,0.022424992,0
1.1500000000000008,13.488347134697637,-0.7230255608415982,-0.9908277192943671,0.022424992984326965,13.415291,-0.4916093,0.123105936,-0.2589954,7.066815,-7.7457457,1.9143075,0.46472654,-0.1029045,0.35046244,0.80660737,-7.9359937,7.134848,-0.61359745,-0.72302556,-0.99082774,0.022424992,0
1.1600000000000008,13.879269300660571,-1.0613537823193682,-0.0898582306266344,0.05931726111346603,13.429008,-0.8297547,0.05160322,-0.059398856,6.9875627,-7.6739526,1.9081767,0.4659916,-0.100547284,0.34524912,0.808421,-7.914475,7.2235494,-0.61238784,-0.72302556,-0.99082774,0.022424992,1
1.1700000000000008,13.879269300660571,-1.0613537823193682,-0.0898582306266344,0.05931726111346603,13.429008,-0.8297547,0.05160322,-0.059398856,6.9085236,-7.6012797,1.9020606,0.4657214,-0.10279082,0.34198254,0.809682,-7.8934546,7.3109765,-0.61074626,-0.8297547,0.05160322,-0.059398856,1
1.1800000000000008,13.879269300660571,-1.0613537823193682,-0.0898582306266344,0.05931726111346603,13.429008,-0.8297547,0.05160322,-0.059398856,6.8296905,-7.5277343,1.8959633,0.4654431,-0.10503256,0.33871004,0.81092894,-7.87339,7.3980813,-0.608627,-0.8297547,0.05160322,-0.059398856,1
1.1900000000000008,13.879269300660571,-1.0613537823193682,-0.0898582306266344,0.05931726111346603,13.429008,-0.8297547,0.05160322,-0.059398856,6.7510533,-7.4533195,1.8898895,0.46515673,-0.10727249,0.33543164,0.8121618,-7.854284,7.4848585,-0.6060373,-0.8297547,0.05160322,-0.059398856,1
1.2000000000000008,13.64284164860941,-1.0840183554260576,-0.899322611627313,0.15691353995912935,13.523989,-1.115588,0.16185023,-0.14333488,6.6726017,-7.3780384,1.8838439,0.46486235,-0.109510556,0.33214742,0.81338054,-7.8361373,7.5713024,-0.6029845,-0.8297547,0.05160322,-0.059398856,0
1.2100000000000009,13.64284164860941,-1.0840183554260576,-0.899322611627313,0.15691353995912935,13.523989,-1.115588,0.16185023,-0.14333488,6.594329,-7.301889,1.8778402,0.4651125,-0.10810937,0.32572618,0.81601757,-7.8185215,7.658399,-0.59756535,-1.0840183,-0.8993226,0.15691353,0
1.2200000000000009,13.64284164860941,-1.0840183554260576,-0.899322611627313,0.15691353995912935,13.523989,-1.115588,0.16185023,-0.14333488,6.5162296,-7.224875,1.8718967,0.4653393,-0.10670275,0.31928852,0.8186136,-7.8014646,7.744128,-0.59091806,-1.0840183,-0.8993226,0.15691353,0
1.2300000000000009,13.64284164860941,-1.0840183554260576,-0.899322611627313,0.15691353995912935,13.523989,-1.115588,0.16185023,-0.14333488,6.438298,-7.147011,1.866026,0.46554273,-0.10529077,0.31283486,0.8211685,-7.784968,7.8284717,-0.58306307,-1.0840183,-0.8993226,0.15691353,0
1.2400000000000009,13.64284164860941,-1.0840183554260576,-0.899322611627313,0.15691353995912935,13.73927,-1.1458153,0.30159536,0.028718773,6.360529,-7.0683103,1.8602397,0.4657228,-0.1038735,0.3063655,0.8236821,-7.769031,7.9114113,-0.574021,-1.0840183,-0.8993226,0.15691353,0
1.2500000000000009,13.64284164860941,-1.0840183554260576,-0.899322611627313,0.15691353995912935,13.73927,-1.1458153,0.30159536,0.028718773,6.282916,-6.988787,1.8545498,0.4658795,-0.10245102,0.29988074,0.8261544,-7.753655,7.99293,-0.563813,-1.0840183,-0.8993226,0.15691353,0
1.260000000000001,13.64284164860941,-1.0840183554260576,-0.899322611627313,0.15691353995912935,13.73927,-1.1458153,0.30159536,0.028718773,6.205454,-6.9084563,1.8489676,0.4660128,-0.10102339,0.29338095,0.8285852,-7.7388396,8.073011,-0.55246013,-1.0840183,-0.8993226,0.15691353,0
1.270000000000001,13.64284164860941,-1.0840183554260576,-0.899322611627313,0.15691353995912935,13.73927,-1.1458153,0.30159536,0.028718773,6.1281376,-6.827332,1.8435045,0.46612266,-0.09959069,0.2868664,0.83097446,-7.724585,8.151639,-0.539984,-1.0840183,-0.8993226,0.15691353,0
1.280000000000001,13.917644807593637,-1.0998179910780244,0.44323021496920717,0.16749412622061985,13.875083,-1.0572834,0.45782524,-0.09580676,6.0509605,-6.7454286,1.8381717,0.46620914,-0.09815299,0.28033745,0.8333219,-7.7108912,8.228793,-0.52640617,-1.0840183,-0.8993226,0.15691353,1
1.290000000000001,13.917644807593637,-1.0998179910780244,0.44323021496920717,0.16749412622061985,13.875083,-1.0572834,0.45782524,-0.09580676,5.973918,-6.662753,1.8329889,0.46543995,-0.102657765,0.27694768,0.834342,-7.697909,8.306266,-0.51013374,-1.0572834,0.45782524,-0.09580676,1
1.300000000000001,13.917644807593637,-1.0998179910780244,0.44323021496920717,0.16749412622061985,13.875083,-1.0572834,0.45782524,-0.09580676,5.8969975,-6.5793037,1.82797,0.4646552,-0.107159115,0.27354866,0.8353342,-7.6864953,8.38359,-0.49359402,-1.0572834,0.45782524,-0.09580676,1
1.310000000000001,13.917644807593637,-1.0998179910780244,0.44323021496920717,0.16749412622061985,13.875083,-1.0572834,0.45782524,-0.09580676,5.820183,-6.495082,1.8231177,0.4638549,-0.11165689,0.27014053,0.8362984,-7.6766534,8.460757,-0.47680324,-1.0572834,0.45782524,-0.09580676,1
1.320000000000001,13.516535059731305,-0.9963824198965392,0.025732032411913512,0.24803564235419562,14.06941,-1.0553478,0.45162332,-0.24508135,5.7434587,-6.4100895,1.8184346,0.4630391,-0.11615093,0.26672333,0.8372347,-7.668383,8.537759,-0.4597774,-1.0572834,0.45782524,-0.09580676,1
1.330000000000001,13.516535059731305,-0.9963824198965392,0.025732032411913512,0.24803564235419562,14.06941,-1.0553478,0.45162332,-0.24508135,5.66681,-6.3243217,1.813931,0.4628419,-0.12080965,0.26320416,0.837798,-7.6615906,8.61566,-0.4409162,-1.0553478,0.45162332,-0.24508135,1
1.340000000000001,13.516535059731305,-0.9963824198965392,0.025732032411913512,0.24803564235419562,14.06941,-1.0553478,0.45162332,-0.24508135,5.590221,-6.2377763,1.809617,0.46262875,-0.12546422,0.2596759,0.8383325,-7.6563883,8.69337,-0.42184746,-1.0553478,0.45162332,-0.24508135,1
1.350000000000001,13.516535059731305,-0.9963824198965392,0.025732032411913512,0.24803564235419562,14.06941,-1.0553478,0.45162332,-0.24508135,5.5136757,-6.150455,1.8054947,0.46239966,-0.13011445,0.2561387,0.83883804,-7.6527777,8.7708845,-0.40258873,-1.0553478,0.45162332,-0.24508135,1
1.360000000000001,13.609398333436326,-1.0082820723623296,0.35441797655919716,0.2858116323460735,13.821719,-1.2473826,0.48859176,-0.10464463,5.437159,-6.06236,1.8015659,0.46215466,-0.13476022,0.25259268,0.83931476,-7.65076,8.848195,-0.3831576,-1.0553478,0.45162332,-0.24508135,1
1.370000000000001,13.609398333436326,-1.0082820723623296,0.35441797655919716,0.2858116323460735,13.821719,-1.2473826,0.48859176,-0.10464463,5.360655,-5.9734993,1.7978218,0.46112582,-0.13982214,0.2484108,0.8403002,-7.650438,8.923906,-0.36562315,-1.2473826,0.48859176,-0.10464463,1
1.380000000000001,13.609398333436326,-1.0082820723623296,0.35441797655919716,0.2858116323460735,13.821719,-1.2473826,0.48859176,-0.10464463,5.2841444,-5.8838835,1.794254,0.46007615,-0.14487775,0.24421771,0.8412477,-7.651933,8.999319,-0.34790188,-1.2473826,0.48859176,-0.10464463,1
1.390000000000001,13.609398333436326,-1.0082820723623296,0.35441797655919716,0.2858116323460735,13.821719,-1.2473826,0.48859176,-0.10464463,5.2076097,-5.7935143,1.7908642,0.4590057,-0.1499268,0.24001357,0.84215724,-7.6552463,9.074419,-0.33001566,-1.2473826,0.48859176,-0.10464463,1
1.400000000000001,13.021817161348364,-0.8444005964159874,-0.9316506700125418,0.38842011600923165,13.48769,-0.9825138,0.046522714,-0.09539984,5.131033,-5.7023964,1.7876542,0.4579146,-0.15496908,0.2357986,0.8430287,-7.660377,9.149194,-0.31198636,-1.2473826,0.48859176,-0.10464463,1
1.410000000000001,13.021817161348364,-0.8444005964159874,-0.9316506700125418,0.38842011600923165,13.48769,-0.9825138,0.046522714,-0.09539984,5.0543976,-5.6105413,1.7846112,0.45749497,-0.15752529,0.23168689,0.8439223,-7.666924,9.221742,-0.29657176,-0.9825138,0.046522714,-0.09539984,1
1.420000000000001,13.021817161348364,-0.8444005964159874,-0.9316506700125418,0.38842011600923165,13.48769,-0.9825138,0.046522714,-0.09539984,4.9776907,-5.5179634,1.7817237,0.45706418,-0.16007765,0.22756954,0.8447953,-7.674625,9.293706,-0.28085846,-0.9825138,0.046522714,-0.09539984,1
1.430000000000001,13.021817161348364,-0.8444005964159874,-0.9316506700125418,0.38842011600923165,13.48769,-0.9825138,0.046522714,-0.09539984,4.9009013,-5.4246693,1.7789949,0.45662224,-0.1626261,0.22344661,0.8456477,-7.683479,9.365081,-0.26485813,-0.9825138,0.046522714,-0.09539984,1
1.440000000000001,13.021817161348364,-0.8444005964159874,-0.9316506700125418,0.38842011600923165,13.49203,-1.0576376,-0.4565569,-0.06872852,4.824017,-5.330664,1.7764275,0.45616916,-0.1651706,0.21931824,0.8464794,-7.6934857,9.43586,-0.24858241,-0.9825138,0.046522714,-0.09539984,1
1.450000000000001,13.021817161348364,-0.8444005964159874,-0.9316506700125418,0.38842011600923165,13.49203,-1.0576376,-0.4565569,-0.06872852,4.7470274,-5.2359548,1.7740247,0.45607963,-0.16572319,0.21374018,0.84784544,-7.7045465,9.505863,-0.23187605,-1.0576376,-0.4565569,-0.06872852,1
1.460000000000001,13.021817161348364,-0.8444005964159874,-0.9316506700125418,0.38842011600923165,13.49203,-1.0576376,-0.4565569,-0.06872852,4.6699224,-5.140551,1.771792,0.45597497,-0.16627027,0.208155,0.8491832,-7.7164855,9.574731,-0.21457304,-1.0576376,-0.4565569,-0.06872852,1
1.470000000000001,13.021817161348364,-0.8444005964159874,-0.9316506700125418,0.38842011600923165,13.49203,-1.0576376,-0.4565569,-0.06872852,4.5926943,-5.044464,1.7697352,0.4558551,-0.16681181,0.2025629,0.8504927,-7.7293034,9.642456,-0.1966891,-1.0576376,-0.4565569,-0.06872852,1
1.480000000000001,13.037383064875456,-0.8506719553164906,-0.6367727247535151,0.4265316055463347,13.60433,-1.001002,-0.6214175,-0.12326372,4.5153337,-4.9477057,1.7678602,0.45572004,-0.16734779,0.19696406,0.85177386,-7.7429986,9.709029,-0.17824,-1.0576376,-0.4565569,-0.06872852,1
1.490000000000001,13.037383064875456,-0.8506719553164906,-0.6367727247535151,0.4265316055463347,13.60433,-1.001002,-0.6214175,-0.12326372,4.437831,-4.8502846,1.7661774,0.4560114,-0.1671006,0.1911784,0.85298383,-7.7576222,9.774941,-0.15823323,-1.001002,-0.6214175,-0.12326372,1
1.500000000000001,13.037383064875456,-0.8506719553164906,-0.6367727247535151,0.4265316055463347,13.60433,-1.001002,-0.6214175,-0.12326372,4.360179,-4.7522106,1.7646978,0.4562868,-0.16684754,0.18538603,0.8541638,-7.772946,9.839556,-0.13759932,-1.001002,-0.6214175,-0.12326372,1
1.5100000000000011,13.037383064875456,-0.8506719553164906,-0.6367727247535151,0.4265316055463347,13.60433,-1.001002,-0.6214175,-0.12326372,4.2823696,-4.6534977,1.7634275,0.45654616,-0.16658862,0.17958716,0.8553139,-7.788969,9.902864,-0.11635537,-1.001002,-0.6214175,-0.12326372,1
1.5200000000000011,12.379316084299605,-0.7337748128757169,-1.6580899132272597,0.5476014726224895,13.632966,-0.99547637,-1.1277319,-0.09398651,4.204397,-4.5541587,1.7623727,0.45678952,-0.16632386,0.17378196,0.856434,-7.8056912,9.964857,-0.09451852,-1.001002,-0.6214175,-0.12326372,0
1.5300000000000011,12.379316084299605,-0.7337748128757169,-1.6580899132272597,0.5476014726224895,13.632966,-0.99547637,-1.1277319,-0.09398651,4.1262627,-4.4542336,1.7614856,0.45525464,-0.16041635,0.16730052,0.8596627,-7.821183,10.019779,-0.0827644,-0.73377484,-1.6580899,0.54760146,0
1.5400000000000011,12.379316084299605,-0.7337748128757169,-1.6580899132272597,0.5476014726224895,13.632966,-0.99547637,-1.1277319,-0.09398651,4.0479746,-4.3537693,1.760721,0.45367894,-0.15449445,0.16080408,0.86281425,-7.836341,10.072726,-0.06999844,-0.73377484,-1.6580899,0.54760146,0
1.5500000000000012,12.379316084299605,-0.7337748128757169,-1.6580899132272597,0.5476014726224895,13.632966,-0.99547637,-1.1277319,-0.09398651,3.969537,-4.252786,1.7600889,0.45206255,-0.14855869,0.15429321,0.8658885,-7.8511477,10.123681,-0.056256548,-0.73377484,-1.6580899,0.54760146,0
1.5600000000000012,12.3025910874208,-0.7644395281918412,-0.48519903190665326,0.5422118810593723,14.217868,-1.0755194,-2.1809225,-0.14618942,3.8909533,-4.151303,1.7595992,0.4504056,-0.14260961,0.14776851,0.86888504,-7.8655863,10.172631,-0.041575003,-0.73377484,-1.6580899,0.54760146,0
1.5700000000000012,12.3025910874208,-0.7644395281918412,-0.48519903190665326,0.5422118810593723,14.217868,-1.0755194,-2.1809225,-0.14618942,3.8122265,-4.0493402,1.7592566,0.44785714,-0.14182064,0.14373939,0.8710048,-7.8798647,10.219667,-0.026896162,-0.7644395,-0.48519903,0.5422119,0
1.5800000000000012,12.3025910874208,-0.7644395281918412,-0.48519903190665326,0.5422118810593723,14.217868,-1.0755194,-2.1809225,-0.14618942,3.7333548,-3.9469125,1.7590624,0.4452962,-0.14102772,0.13970624,0.8731003,-7.8945827,10.265738,-0.011876014,-0.7644395,-0.48519903,0.5422119,0
1.5900000000000012,12.3025910874208,-0.7644395281918412,-0.48519903190665326,0.5422118810593723,14.217868,-1.0755194,-2.1809225,-0.14618942,3.6543336,-3.8440287,1.7590201,0.44272286,-0.14023088,0.13566922,0.8751714,-7.909734,10.310838,0.00347768,-0.7644395,-0.48519903,0.5422119,0
1.6000000000000012,11.811263991001171,-0.7543774820102878,-1.4858697368326916,0.5667186016251836,13.315279,-1.192167,-2.6042569,-0.1128791,3.5751588,-3.740699,1.7591331,0.4401372,-0.13943014,0.1316284,0.87721825,-7.925311,10.354961,0.019157125,-0.7644395,-0.48519903,0.5422119,0
1.6100000000000012,11.811263991001171,-0.7543774820102878,-1.4858697368326916,0.5667186016251836,13.315279,-1.192167,-2.6042569,-0.1128791,3.4958298,-3.6369426,1.759382,0.43808654,-0.1341948,0.12543978,0.8799638,-7.940409,10.396057,0.030754667,-0.7543775,-1.4858698,0.5667186,0
1.6200000000000012,11.811263991001171,-0.7543774820102878,-1.4858697368326916,0.5667186016251836,13.315279,-1.192167,-2.6042569,-0.1128791,3.4163513,-3.5327842,1.7597506,0.43600187,-0.1289491,0.11924143,0.8826412,-7.955208,10.435338,0.043055236,-0.7543775,-1.4858698,0.5667186,0
1.6300000000000012,11.811263991001171,-0.7543774820102878,-1.4858697368326916,0.5667186016251836,13.315279,-1.192167,-2.6042569,-0.1128791,3.3367264,-3.4282422,1.7602453,0.4338835,-0.1236934,0.113033846,0.8852502,-7.9696927,10.472796,0.056028884,-0.7543775,-1.4858698,0.5667186,0
1.6400000000000012,11.811263991001171,-0.7543774820102878,-1.4858697368326916,0.5667186016251836,13.0162115,-1.2132652,-2.5357556,-0.007664535,3.2569587,-3.3233347,1.7608732,0.43173146,-0.11842812,0.10681751,0.88779056,-7.983848,10.508424,0.069645464,-0.7543775,-1.4858698,0.5667186,0
1.6500000000000012,11.811263991001171,-0.7543774820102878,-1.4858697368326916,0.5667186016251836,13.0162115,-1.2132652,-2.5357556,-0.007664535,3.1770508,-3.21808,1.7616403,0.429546,-0.11315366,0.100592904,0.89026225,-7.997659,10.5422125,0.08387463,-0.7543775,-1.4858698,0.5667186,0
1.6600000000000013,11.811263991001171,-0.7543774820102878,-1.4858697368326916,0.5667186016251836,13.0162115,-1.2132652,-2.5357556,-0.007664535,3.0970068,-3.1124966,1.7625526,0.4273273,-0.10787044,0.09436051,0.89266497,-8.011112,10.574155,0.098685816,-0.7543775,-1.4858698,0.5667186,0
1.6700000000000013,11.811263991001171,-0.7543774820102878,-1.4858697368326916,0.5667186016251836,13.0162115,-1.2132652,-2.5357556,-0.007664535,3.01683,-3.0066032,1.7636158,0.4250755,-0.10257886,0.0881208,0.8949986,-8.024191,10.604247,0.11404833,-0.7543775,-1.4858698,0.5667186,0
1.6800000000000013,11.786494344475402,-0.7498387396847914,0.05091833045481669,0.527534619546125,14.062884,-1.1188432,-2.1222222,-0.084480695,2.9365244,-2.9004178,1.7648355,0.4227908,-0.09727935,0.081874266,0.8972629,-8.036882,10.63248,0.12993127,-0.7543775,-1.4858698,0.5667186,0
1.6900000000000013,11.786494344475402,-0.7498387396847914,0.05091833045481669,0.527534619546125,14.062884,-1.1188432,-2.1222222,-0.084480695,2.8560927,-2.7939584,1.7662146,0.42003408,-0.09887592,0.07887363,0.89865077,-8.049568,10.6593,0.1459006,-0.74983877,0.05091833,0.5275346,0
1.7000000000000013,11.786494344475402,-0.7498387396847914,0.05091833045481669,0.527534619546125,14.062884,-1.1188432,-2.1222222,-0.084480695,2.7755306,-2.6872334,1.7677536,0.41726854,-0.10047041,0.075871326,0.90001976,-8.062975,10.685605,0.16190785,-0.74983877,0.05091833,0.5275346,0
1.7100000000000013,11.786494344475402,-0.7498387396847914,0.05091833045481669,0.527534619546125,14.062884,-1.1188432,-2.1222222,-0.084480695,2.6948307,-2.5802479,1.7694529,0.41449422,-0.10206278,0.07286742,0.9013697,-8.077095,10.711388,0.1779477,-0.74983877,0.05091833,0.5275346,0
1.7200000000000013,11.30824446414507,-0.6715925876824749,-0.6645587803852961,0.536396194794331,13.3785715,-1.4735224,-3.9195786,0.48018467,2.613986,-2.4730074,1.7713127,0.41171113,-0.103653,0.06986199,0.9027008,-8.0919285,10.736645,0.19401486,-0.74983877,0.05091833,0.5275346,0
1.7300000000000013,11.30824446414507,-0.6715925876824749,-0.6645587803852961,0.536396194794331,13.3785715,-1.4735224,-3.9195786,0.48018467,2.5329933,-2.3655226,1.7733103,0.40916812,-0.10184713,0.065739706,0.90437067,-8.106619,10.760168,0.20554315,-0.6715926,-0.66455877,0.5363962,0
1.7400000000000013,11.30824446414507,-0.6715925876824749,-0.6645587803852961,0.536396194794331,13.3785715,-1.4735224,-3.9195786,0.48018467,2.4518533,-2.2578077,1.7754242,0.40661305,-0.10003826,0.061615486,0.90601385,-8.121399,10.782648,0.21727842,-0.6715926,-0.66455877,0.5363962,0
1.7500000000000013,11.30824446414507,-0.6715925876824749,-0.6645587803852961,0.536396194794331,13.3785715,-1.4735224,-3.9195786,0.48018467,2.3705654,-2.1498733,1.7776566,0.40404594,-0.098226435,0.057489447,0.9076303,-8.136261,10.80408,0.2292117,-0.6715926,-0.66455877,0.5363962,0
1.7600000000000013,11.11532613180352,-0.5892698877827146,-0.023720838752185145,0.49814809883856515,13.410757,-1.0752707,-2.5723722,0.2356273,2.289128,-2.0417297,1.7800092,0.4014669,-0.09641171,0.05336171,0.90922004,-8.151198,10.824464,0.24133399,-0.6715926,-0.66455877,0.5363962,0
1.7700000000000014,11.11532613180352,-0.5892698877827146,-0.023720838752185145,0.49814809883856515,13.410757,-1.0752707,-2.5723722,0.2356273,2.2075417,-1.9333886,1.7824743,0.39892155,-0.09735311,0.05087496,0.91038185,-8.166099,10.843682,0.2516945,-0.5892699,-0.023720838,0.4981481,0
1.7800000000000014,11.11532613180352,-0.5892698877827146,-0.023720838752185145,0.49814809883856515,13.410757,-1.0752707,-2.5723722,0.2356273,2.125804,-1.8248577,1.7850431,0.39637026,-0.09829305,0.048387453,0.91153014,-8.181463,10.862438,0.26207092,-0.5892699,-0.023720838,0.4981481,0
1.7900000000000014,11.11532613180352,-0.5892698877827146,-0.023720838752185145,0.49814809883856515,13.410757,-1.0752707,-2.5723722,0.2356273,2.0439105,-1.7161415,1.7877158,0.39381304,-0.09923153,0.045899227,0.91266483,-8.19729,10.88073,0.2724602,-0.5892699,-0.023720838,0.4981481,0
1.8000000000000014,10.699569756134865,-0.5294790984135319,-1.2549602885063824,0.4938341256260773,14.115224,-1.9582804,-4.112712,0.8971737,1.9618566,-1.6072446,1.7904924,0.39124998,-0.10016853,0.043410312,0.91378593,-8.213576,10.898554,0.28285927,-0.5892699,-0.023720838,0.4981481,0
1.8100000000000014,10.699569756134865,-0.5294790984135319,-1.2549602885063824,0.4938341256260773,14.115224,-1.9582804,-4.112712,0.8971737,1.8796417,-1.4981762,1.7933531,0.38899067,-0.09536073,0.038782377,0.91547143,-8.229342,10.914927,0.289312,-0.5294791,-1.2549603,0.49383414,0
1.8200000000000014,10.699569756134865,-0.5294790984135319,-1.2549602885063824,0.4938341256260773,14.115224,-1.9582804,-4.112712,0.8971737,1.7972716,-1.3889507,1.7962798,0.3867109,-0.09054793,0.034152407,0.9171089,-8.244606,10.92996,0.29604024,-0.5294791,-1.2549603,0.49383414,0
1.8300000000000014,10.699569756134865,-0.5294790984135319,-1.2549602885063824,0.4938341256260773,14.115224,-1.9582804,-4.112712,0.8971737,1.7147515,-1.2795817,1.7992748,0.3844109,-0.085730374,0.029520642,0.91869825,-8.259357,10.943653,0.30302513,-0.5294791,-1.2549603,0.49383414,0
1.8400000000000014,10.699569756134865,-0.5294790984135319,-1.2549602885063824,0.4938341256260773,13.193947,-2.0053332,-4.176457,0.9135394,1.6320864,-1.1700823,1.802341,0.3820907,-0.08090832,0.02488733,0.9202394,-8.273586,10.956006,0.31024775,-0.5294791,-1.2549603,0.49383414,0
1.8500000000000014,10.699569756134865,-0.5294790984135319,-1.2549602885063824,0.4938341256260773,13.193947,-2.0053332,-4.176457,0.9135394,1.5492816,-1.060466,1.8054805,0.3797504,-0.076082006,0.020252714,0.92173225,-8.287283,10.96702,0.31768915,-0.5294791,-1.2549603,0.49383414,0
1.8600000000000014,10.699569756134865,-0.5294790984135319,-1.2549602885063824,0.4938341256260773,13.193947,-2.0053332,-4.176457,0.9135394,1.4663424,-0.9507464,1.8086953,0.3773902,-0.07125171,0.0156170335,0.9231767,-8.300439,10.976696,0.3253303,-0.5294791,-1.2549603,0.49383414,0
1.8700000000000014,10.699569756134865,-0.5294790984135319,-1.2549602885063824,0.4938341256260773,13.193947,-2.0053332,-4.176457,0.9135394,1.3832747,-0.8409367,1.8119876,0.3750102,-0.066417664,0.010980535,0.92457277,-8.3130455,10.985034,0.33315215,-0.5294791,-1.2549603,0.49383414,0
1.8800000000000014,10.537800707668284,-0.44622499730955323,0.02408445478493912,0.4716926016361028,12.266401,-1.8868554,-3.6787639,0.8883552,1.3000836,-0.7310504,1.8153589,0.3726105,-0.061580133,0.0063434597,0.92592025,-8.325094,10.992036,0.34113565,-0.5294791,-1.2549603,0.49383414,0
1.8900000000000015,10.537800707668284,-0.44622499730955323,0.02408445478493912,0.4716926016361028,12.266401,-1.8868554,-3.6787639,0.8883552,1.2167747,-0.6211,1.8188026,0.37028664,-0.06250769,0.004467691,0.9268009,-8.336741,10.997989,0.3475986,-0.446225,0.024084454,0.4716926,0
1.9000000000000015,10.537800707668284,-0.44622499730955323,0.02408445478493912,0.4716926016361028,12.266401,-1.8868554,-3.6787639,0.8883552,1.1333475,-0.51109177,1.8223108,0.36795884,-0.063434586,0.002591875,0.9276718,-8.34873,11.003618,0.35404092,-0.446225,0.024084454,0.4716926,0
1.9100000000000015,10.537800707668284,-0.44622499730955323,0.02408445478493912,0.4716926016361028,12.266401,-1.8868554,-3.6787639,0.8883552,1.0497988,-0.40102884,1.8258834,0.3656272,-0.064360805,0.0007160313,0.92853284,-8.361058,11.008922,0.3604607,-0.446225,0.024084454,0.4716926,0
1.9200000000000015,10.258457611970517,-0.39765254970688957,-0.16908539408959447,0.4797751596520053,12.736621,-1.6911052,-5.2541394,0.8309405,0.9661252,-0.29091448,1.82952,0.36329165,-0.06528635,-0.0011598198,0.9293841,-8.373724,11.013898,0.36685616,-0.446225,0.024084454,0.4716926,0
1.9300000000000015,10.258457611970517,-0.39765254970688957,-0.16908539408959447,0.4797751596520053,12.736621,-1.6911052,-5.2541394,0.8309405,0.8823251,-0.18075272,1.8332067,0.36092952,-0.06522539,-0.0031581926,0.9303037,-8.386315,11.018387,0.37046602,-0.39765254,-0.1690854,0.47977516,0
1.9400000000000015,10.258457611970517,-0.39765254970688957,-0.16908539408959447,0.4797751596520053,12.736621,-1.6911052,-5.2541394,0.8309405,0.7983984,-0.070548184,1.8369294,0.35856357,-0.06516375,-0.005156533,0.9312135,-8.399054,11.022457,0.37407514,-0.39765254,-0.1690854,0.47977516,0
1.9500000000000015,10.258457611970517,-0.39765254970688957,-0.16908539408959447,0.4797751596520053,12.736621,-1.6911052,-5.2541394,0.8309405,0.71434355,0.039694972,1.8406881,0.35619393,-0.06510142,-0.007154819,0.93211365,-8.411937,11.026108,0.37768188,-0.39765254,-0.1690854,0.47977516,0
1.9600000000000015,10.178676513323623,-0.3730900255706985,0.7209085214273729,0.45040382313998223,11.424165,-1.0160209,-3.2892976,0.5338778,0.6301592,0.14997253,1.844483,0.35382056,-0.06503842,-0.009153031,0.9330041,-8.424963,11.029339,0.38128468,-0.39765254,-0.1690854,0.47977516,0
1.9700000000000015,10.178676513323623,-0.3730900255706985,0.7209085214273729,0.45040382313998223,11.424165,-1.0160209,-3.2892976,0.5338778,0.54584366,0.26028085,1.8483098,0.35162726,-0.0690814,-0.009471575,0.93353933,-8.438272,11.032358,0.38405192,-0.37309003,0.7209085,0.4504038,0
1.9800000000000015,10.178676513323623,-0.3730900255706985,0.7209085214273729,0.45040382313998223,11.424165,-1.0160209,-3.2892976,0.5338778,0.46139103,0.37062037,1.8521636,0.34942642,-0.0731229,-0.009789916,0.93405443,-8.452375,11.035576,0.38670507,-0.37309003,0.7209085,0.4504038,0
1.9900000000000015,10.178676513323623,-0.3730900255706985,0.7209085214273729,0.45040382313998223,11.424165,-1.0160209,-3.2892976,0.5338778,0.3767934,0.48099303,1.8560433,0.34721804,-0.07716283,-0.010108044,0.9345495,-8.467275,11.038988,0.3892375,-0.37309003,0.7209085,0.4504038,0
2.0000000000000013,,,,,11.385951,-1.3481151,-2.497468,0.66275835,0.29204282,0.5914008,1.8599478,0.34500217,-0.08120109,-0.010425955,0.9350243,-8.482968,11.04259,0.39164254,-0.37309003,0.7209085,0.4504038,0
2.010000000000001,,,,,11.385951,-1.3481151,-2.497468,0.66275835,0.20713341,0.70184445,1.8638676,0.34256217,-0.08086337,-0.012721733,0.9359219,-8.498931,11.046062,0.39232233,-0.4437746,-0.24122973,0.48023653,0
2.020000000000001,,,,,11.385951,-1.3481151,-2.497468,0.66275835,0.12206385,0.8123204,1.8677943,0.34011802,-0.08052467,-0.015017357,0.9368081,-8.514996,11.04904,0.39300165,-0.4437746,-0.24122973,0.48023653,0
2.0300000000000007,,,,,11.385951,-1.3481151,-2.497468,0.66275835,0.03683315,0.9228236,1.8717277,0.33766973,-0.08018499,-0.017312799,0.93768287,-8.53116,11.051521,0.39367834,-0.4437746,-0.24122973,0.48023653,0
2.0400000000000005,,,,,11.385951,-1.3481151,-2.497468,0.66275835,-0.048559695,1.0333492,1.8756678,0.33521736,-0.07984433,-0.019608028,0.9385462,-8.547423,11.053507,0.39435032,-0.4437746,-0.24122973,0.48023653,0
2.0500000000000003,,,,,11.507466,-0.82028574,-1.4902776,0.6166627,-0.13411564,1.143892,1.8796146,0.33276087,-0.07950271,-0.021903021,0.9393983,-8.563781,11.054995,0.39501545,-0.4437746,-0.24122973,0.48023653,1
2.06,,,,,11.507466,-0.82028574,-1.4902776,0.6166627,-0.21984698,1.2544469,1.8836418,0.32936156,-0.073932044,-0.027989315,0.9408884,-8.582374,11.055669,0.410475,-0.82028574,-1.4902776,0.6166627,1
2.07,,,,,11.507466,-0.82028574,-1.4902776,0.6166627,-0.30576056,1.3649992,1.8878244,0.32593527,-0.068355314,-0.03407332,0.9423015,-8.6002245,11.054535,0.4260497,-0.82028574,-1.4902776,0.6166627,1
2.0799999999999996,,,,,11.507466,-0.82028574,-1.4902776,0.6166627,-0.39184886,1.4755311,1.8921632,0.32248232,-0.062773004,-0.040154535,0.9436375,-8.617318,11.051598,0.44170845,-0.82028574,-1.4902776,0.6166627,1
2.0899999999999994,,,,,11.790706,-0.70556295,-1.9362046,0.74078614,-0.47810426,1.5860249,1.8966588,0.31900302,-0.05718555,-0.046232466,0.9448962,-8.633639,11.046863,0.45742008,-0.82028574,-1.4902776,0.6166627,1
2.099999999999999,,,,,11.790706,-0.70556295,-1.9362046,0.74078614,-0.5645203,1.6964613,1.9013257,0.3148348,-0.049331345,-0.05243945,0.94641167,-8.649367,11.040096,0.4759754,-0.70556295,-1.9362046,0.74078614,1
2.109999999999999,,,,,11.790706,-0.70556295,-1.9362046,0.74078614,-0.651087,1.8068199,1.9061785,0.31062886,-0.041471224,-0.058640152,0.9478137,-8.663771,11.031294,0.494566,-0.70556295,-1.9362046,0.74078614,1
2.1199999999999988,,,,,11.790706,-0.70556295,-1.9362046,0.74078614,-0.737791,1.9170804,1.9112171,0.30638567,-0.03360613,-0.06483382,0.949102,-8.6768265,11.020469,0.51314485,-0.70556295,-1.9362046,0.74078614,1
2.1299999999999986,,,,,12.082248,-0.80122304,-2.2072432,1.0310001,-0.8246188,2.0272224,1.9164411,0.30210575,-0.025737004,-0.07101972,0.9502765,-8.688518,11.007635,0.53166497,-0.70556295,-1.9362046,0.74078614,1
2.1399999999999983,,,,,12.082248,-0.80122304,-2.2072432,1.0310001,-0.9115577,2.1372242,1.9218644,0.2962955,-0.016824054,-0.07802203,0.95175517,-8.699,10.992337,0.5529532,-0.80122304,-2.2072432,1.0310001,1
2.149999999999998,,,,,12.082248,-0.80122304,-2.2072432,1.0310001,-0.99859315,2.2470613,1.9274997,0.29043654,-0.007908336,-0.08501152,0.9530774,-8.707832,10.974739,0.5740578,-0.80122304,-2.2072432,1.0310001,1
2.159999999999998,,,,,12.082248,-0.80122304,-2.2072432,1.0310001,-1.0857085,2.3567111,1.9333448,0.2845298,0.001008681,-0.09198703,0.9542429,-8.714986,10.954866,0.5949173,-0.80122304,-2.2072432,1.0310001,1
2.1699999999999977,,,,,11.925988,-0.58751357,-2.7881446,1.2662954,-1.1728868,2.466151,1.9393971,0.2785763,0.009925532,-0.09894741,0.9552515,-8.720434,10.932748,0.6154703,-0.80122304,-2.2072432,1.0310001,1
