time-since-start [s],throttle_mpc,roll_mpc,pitch_mpc,yaw_mpc,throttle_nw,roll_nw,pitch_nw,yaw_nw,position_x [m],position_y [m],position_z [m],rotation_w [quaternion],rotation_x [quaternion],rotation_y [quaternion],rotation_z [quaternion],velocity_x [m/s],velocity_y [m/s],velocity_z [m/s],omega_x [rad/s],omega_y [rad/s],omega_z [rad/s],network_used
0.0,6.032144364855323,5.8541399409996036,-5.999999846727628,-3.344993426755005,14.812637,0.89270073,-3.2574232,-0.0090070255,17.151487,-10.2737,1.7575412,-0.0010578381,-0.32650837,0.14685762,0.93371516,-10.417338,-1.7883329,0.8938862,1.4521333,-0.3916349,0.09032289,0
0.01,6.032144364855323,5.8541399409996036,-5.999999846727628,-3.344993426755005,16.405167,2.3019946,-5.3693976,-0.868056,17.047134,-10.291496,1.7662151,0.028512415,-0.3006603,0.16860206,0.938277,-10.4529085,-1.7704566,0.8410841,5.85414,-6.0,-3.3449934,0
0.02,6.032144364855323,5.8541399409996036,-5.999999846727628,-3.344993426755005,16.405167,2.3019946,-5.3693976,-0.868056,16.942442,-10.309096,1.7743664,0.058024608,-0.27420005,0.19000322,0.9409284,-10.485014,-1.7490534,0.78932875,5.85414,-6.0,-3.3449934,0
0.03,6.032144364855323,5.8541399409996036,-5.999999846727628,-3.344993426755005,16.405167,2.3019946,-5.3693976,-0.868056,16.837446,-10.326467,1.7820044,0.08741866,-0.2471815,0.21101749,0.94166386,-10.513353,-1.7243834,0.73839825,5.85414,-6.0,-3.3449934,0
0.04,6.032144364855323,5.8541399409996036,-5.999999846727628,-3.344993426755005,12.049816,-1.4117354,-4.6749086,-0.20166379,16.732187,-10.343575,1.7891363,0.11663471,-0.21965966,0.23160209,0.940482,-10.537656,-1.6967332,0.6880639,5.85414,-6.0,-3.3449934,0
0.05,6.032144364855323,5.8541399409996036,-5.999999846727628,-3.344993426755005,12.049816,-1.4117354,-4.6749086,-0.20166379,16.626709,-10.360393,1.7957668,0.14561327,-0.19169055,0.25171512,0.9373852,-10.557682,-1.6664138,0.6380923,5.85414,-6.0,-3.3449934,0
0.060000000000000005,6.032144364855323,5.8541399409996036,-5.999999846727628,-3.344993426755005,12.049816,-1.4117354,-4.6749086,-0.20166379,16.521051,-10.376896,1.8018985,0.17429535,-0.16333112,0.27131563,0.9323798,-10.57323,-1.6337575,0.58824694,5.85414,-6.0,-3.3449934,0
0.07,6.032144364855323,5.8541399409996036,-5.999999846727628,-3.344993426755005,12.049816,-1.4117354,-4.6749086,-0.20166379,16.41526,-10.393063,1.8075314,0.20262253,-0.13463913,0.2903637,0.92547584,-10.584132,-1.5991162,0.5382905,5.85414,-6.0,-3.3449934,0
0.08,11.857051362918966,4.782242110930781,-5.999999793703447,-1.337633642526964,12.6118355,-1.69058,3.5874116,-0.17759211,16.309383,-10.408874,1.8126631,0.23053715,-0.10567299,0.30882055,0.9166874,-10.59026,-1.5628575,0.4879862,5.85414,-6.0,-3.3449934,0
0.09,11.857051362918966,4.782242110930781,-5.999999793703447,-1.337633642526964,12.6118355,-1.69058,3.5874116,-0.17759211,16.20346,-10.424136,1.8175182,0.24828017,-0.0746531,0.32287905,0.9102379,-10.59298,-1.4894638,0.48293704,4.7822423,-6.0,-1.3376336,0
0.09999999999999999,11.857051362918966,4.782242110930781,-5.999999793703447,-1.337633642526964,12.6118355,-1.69058,3.5874116,-0.17759211,16.097553,-10.43866,1.8223184,0.26564673,-0.043520004,0.33644795,0.90240824,-10.586712,-1.4150879,0.4769318,4.7822423,-6.0,-1.3376336,0
0.10999999999999999,11.857051362918966,4.782242110930781,-5.999999793703447,-1.337633642526964,12.6118355,-1.69058,3.5874116,-0.17759211,15.9917555,-10.452436,1.8270518,0.2826105,-0.012320924,0.34950674,0.8932103,-10.571474,-1.3402617,0.46950355,4.7822423,-6.0,-1.3376336,0
0.11999999999999998,11.857051362918966,4.782242110930781,-5.999999793703447,-1.337633642526964,12.6118355,-1.69058,3.5874116,-0.17759211,15.886155,-10.465466,1.8317019,0.29914576,0.018896837,0.36203554,0.88265795,-10.54734,-1.2655197,0.46019387,4.7822423,-6.0,-1.3376336,0
0.12999999999999998,16.340575125567177,2.003915806821126,-5.999999333075379,0.09987252643216091,15.942101,-1.9844809,3.5210087,0.34881568,15.780839,-10.477749,1.8362476,0.31522745,0.050085947,0.3740154,0.8707673,-10.51444,-1.1913962,0.4485559,4.7822423,-6.0,-1.3376336,0
0.13999999999999999,16.340575125567177,2.003915806821126,-5.999999333075379,0.09987252643216091,15.942101,-1.9844809,3.5210087,0.34881568,15.675969,-10.4891615,1.840826,0.3253518,0.079524204,0.3730713,0.86523986,-10.458123,-1.0916789,0.46698073,2.0039158,-5.9999995,0.09987253,0
0.15,16.340575125567177,2.003915806821126,-5.999999333075379,0.09987252643216091,15.942101,-1.9844809,3.5210087,0.34881568,15.57171,-10.4995985,1.8455831,0.33515066,0.1088829,0.37175393,0.8588467,-10.392526,-0.9963443,0.48421228,2.0039158,-5.9999995,0.09987253,0
0.16,17.032978364625407,0.17449161112115344,-5.334455944645395,0.3494698499145193,15.271908,-2.3679776,2.4174113,-0.33504564,15.46815,-10.509105,1.8505044,0.34461415,0.13813263,0.37006462,0.85159427,-10.317907,-0.9057669,0.49978197,2.0039158,-5.9999995,0.09987253,0
0.17,17.032978364625407,0.17449161112115344,-5.334455944645395,0.3494698499145193,15.271908,-2.3679776,2.4174113,-0.33504564,15.3653965,-10.517714,1.8555974,0.35275185,0.16174167,0.36124328,0.84788513,-10.231894,-0.81694597,0.5188067,0.17449161,-5.334456,0.34946984,0
0.18000000000000002,17.032978364625407,0.17449161112115344,-5.334455944645395,0.3494698499145193,15.271908,-2.3679776,2.4174113,-0.33504564,15.263535,-10.525467,1.8608792,0.3606373,0.18523504,0.35216358,0.8435696,-10.1393585,-0.7344466,0.53748363,0.17449161,-5.334456,0.34946984,0
0.19000000000000003,17.032978364625407,0.17449161112115344,-5.334455944645395,0.3494698499145193,15.271908,-2.3679776,2.4174113,-0.33504564,15.16263,-10.532427,1.8663446,0.36826482,0.20859593,0.34283203,0.83865076,-10.040551,-0.6584874,0.5554572,0.17449161,-5.334456,0.34946984,0
0.20000000000000004,15.424476876913939,-0.47628073388155506,-1.4274041242192919,0.03414924702211858,16.006327,-1.3274685,3.5748894,-0.94397885,15.062744,-10.538661,1.8719846,0.37562892,0.23180763,0.3332553,0.8331321,-9.935739,-0.58926827,0.5723736,0.17449161,-5.334456,0.34946984,0
0.21000000000000005,15.424476876913939,-0.47628073388155506,-1.4274041242192919,0.03414924702211858,16.006327,-1.3274685,3.5748894,-0.94397885,14.963879,-10.544261,1.877735,0.3784065,0.23690948,0.3285414,0.8323118,-9.8371725,-0.5312611,0.5777674,-0.47628072,-1.4274042,0.03414925,0
0.22000000000000006,15.424476876913939,-0.47628073388155506,-1.4274041242192919,0.03414924702211858,16.006327,-1.3274685,3.5748894,-0.94397885,14.866004,-10.549292,1.8835405,0.38116264,0.2419979,0.3238089,0.83144444,-9.737628,-0.47534752,0.58337677,-0.47628072,-1.4274042,0.03414925,0
0.23000000000000007,15.424476876913939,-0.47628073388155506,-1.4274041242192919,0.03414924702211858,16.006327,-1.3274685,3.5748894,-0.94397885,14.76913,-10.553774,1.8894032,0.3838972,0.24707262,0.3190581,0.8305299,-9.637127,-0.42154008,0.58917767,-0.47628072,-1.4274042,0.03414925,0
0.24000000000000007,15.424476876913939,-0.47628073388155506,-1.4274041242192919,0.03414924702211858,16.531178,-0.93527305,3.521553,-0.73100066,14.6732645,-10.55773,1.8953247,0.38661,0.25213337,0.31428918,0.8295684,-9.535692,-0.36985078,0.5951461,-0.47628072,-1.4274042,0.03414925,0
0.25000000000000006,15.424476876913939,-0.47628073388155506,-1.4274041242192919,0.03414924702211858,16.531178,-0.93527305,3.521553,-0.73100066,14.578418,-10.561179,1.9013066,0.3893009,0.25717983,0.3095025,0.8285599,-9.433346,-0.32029116,0.6012579,-0.47628072,-1.4274042,0.03414925,0
0.26000000000000006,15.424476876913939,-0.47628073388155506,-1.4274041242192919,0.03414924702211858,16.531178,-0.93527305,3.521553,-0.73100066,14.4846,-10.564143,1.9073504,0.39196977,0.2622117,0.3046983,0.82750446,-9.330111,-0.27287224,0.60748893,-0.47628072,-1.4274042,0.03414925,0
0.2700000000000001,15.424476876913939,-0.47628073388155506,-1.4274041242192919,0.03414924702211858,16.531178,-0.93527305,3.521553,-0.73100066,14.391819,-10.566644,1.9134569,0.39461643,0.26722875,0.2998768,0.8264021,-9.226009,-0.22760452,0.61381483,-0.47628072,-1.4274042,0.03414925,0
0.2800000000000001,14.151492872166058,-0.6861621382183196,1.0097548374986782,-0.15339621384455487,17.011316,-1.0984138,4.466851,-1.1763084,14.300082,-10.568703,1.919627,0.39724076,0.27223065,0.29503834,0.82525307,-9.121065,-0.18449813,0.6202114,-0.47628072,-1.4274042,0.03414925,0
0.2900000000000001,14.151492872166058,-0.6861621382183196,1.0097548374986782,-0.15339621384455487,17.011316,-1.0984138,4.466851,-1.1763084,14.209354,-10.570355,1.9258192,0.39731058,0.26646987,0.29441583,0.8273194,-9.024778,-0.14594162,0.61838365,-0.6861621,1.0097549,-0.15339622,0
0.3000000000000001,14.151492872166058,-0.6861621382183196,1.0097548374986782,-0.15339621384455487,17.011316,-1.0984138,4.466851,-1.1763084,14.119582,-10.57162,1.931998,0.39736536,0.260699,0.2937822,0.8293544,-8.9297495,-0.10671716,0.61753213,-0.6861621,1.0097549,-0.15339622,0
0.3100000000000001,14.151492872166058,-0.6861621382183196,1.0097548374986782,-0.15339621384455487,17.011316,-1.0984138,4.466851,-1.1763084,14.030754,-10.572489,1.9381732,0.39740512,0.25491825,0.29313743,0.83135796,-8.835994,-0.06682831,0.6176412,-0.6861621,1.0097549,-0.15339622,0
0.3200000000000001,12.801356693635297,-1.0913468919988658,5.369247971497757,-0.4114386325255837,16.915936,-1.6915442,5.084282,-2.1839468,13.942857,-10.572955,1.9443542,0.39742982,0.2491279,0.29248157,0.83333004,-8.743525,-0.026278684,0.6186951,-0.6861621,1.0097549,-0.15339622,0
0.3300000000000001,12.801356693635297,-1.0913468919988658,5.369247971497757,-0.4114386325255837,16.915936,-1.6915442,5.084282,-2.1839468,13.855832,-10.573028,1.950504,0.39250216,0.22389491,0.29900512,0.8404812,-8.662352,0.01257802,0.6116148,-1.0913469,5.369248,-0.41143864,0
0.34000000000000014,12.801356693635297,-1.0913468919988658,5.369247971497757,-0.4114386325255837,16.915936,-1.6915442,5.084282,-2.1839468,13.769595,-10.572688,1.956593,0.3872783,0.19849296,0.30530304,0.84699804,-8.58595,0.056185182,0.60649216,-1.0913469,5.369248,-0.41143864,0
0.35000000000000014,12.801356693635297,-1.0913468919988658,5.369247971497757,-0.4114386325255837,16.915936,-1.6915442,5.084282,-2.1839468,13.684096,-10.571889,1.9626393,0.38176215,0.17294122,0.31137052,0.8528757,-8.514538,0.10443096,0.6030298,-1.0913469,5.369248,-0.41143864,0
0.36000000000000015,12.303597851929378,-0.9542465973458648,5.7313099665177685,-0.574955795269278,17.853277,-1.684238,4.9092064,-1.8101076,13.599286,-10.570585,1.9686582,0.37595788,0.14725897,0.31720302,0.8581097,-8.4483185,0.1571895,0.6009252,-1.0913469,5.369248,-0.41143864,0
0.37000000000000016,12.303597851929378,-0.9542465973458648,5.7313099665177685,-0.574955795269278,17.853277,-1.684238,4.9092064,-1.8101076,13.515099,-10.568741,1.9746425,0.36987805,0.11990397,0.3241696,0.862396,-8.389923,0.21225454,0.5960546,-0.9542466,5.73131,-0.5749558,0
0.38000000000000017,12.303597851929378,-0.9542465973458648,5.7313099665177685,-0.574955795269278,17.853277,-1.684238,4.9092064,-1.8101076,13.431468,-10.566324,1.9805812,0.36348304,0.09244679,0.33085993,0.8659474,-8.337083,0.27178016,0.59175456,-0.9542466,5.73131,-0.5749558,0
0.3900000000000002,12.303597851929378,-0.9542465973458648,5.7313099665177685,-0.574955795269278,17.853277,-1.684238,4.9092064,-1.8101076,13.348338,-10.563291,1.9864783,0.35677826,0.06491083,0.3372683,0.8687608,-8.289956,0.33559123,0.58768207,-0.9542466,5.73131,-0.5749558,0
0.4000000000000002,12.156887268671577,-0.8068455713132004,5.108180187649451,-0.6826887627871169,15.734643,-2.0210218,3.3527818,-1.0728878,13.265651,-10.559599,1.9923344,0.34976947,0.037319556,0.3433893,0.87083393,-8.248685,0.40349787,0.58349323,-0.9542466,5.73131,-0.5749558,0
0.4100000000000002,12.156887268671577,-0.8068455713132004,5.108180187649451,-0.6826887627871169,15.734643,-2.0210218,3.3527818,-1.0728878,13.183345,-10.555212,1.998141,0.34400377,0.012484605,0.34881955,0.87168217,-8.213555,0.47430038,0.5777451,-0.80684555,5.10818,-0.6826888,0
0.4200000000000002,12.156887268671577,-0.8068455713132004,5.108180187649451,-0.6826887627871169,15.734643,-2.0210218,3.3527818,-1.0728878,13.101363,-10.550101,2.003887,0.33800408,-0.012358839,0.35401252,0.8719375,-8.183734,0.5483915,0.5712811,-0.80684555,5.10818,-0.6826888,0
0.4300000000000002,12.156887268671577,-0.8068455713132004,5.108180187649451,-0.6826887627871169,15.734643,-2.0210218,3.3527818,-1.0728878,13.019652,-10.544233,2.0095634,0.33177447,-0.037193872,0.35896468,0.8715997,-8.159282,0.62559927,0.5638285,-0.80684555,5.10818,-0.6826888,0
0.4400000000000002,12.156887268671577,-0.8068455713132004,5.108180187649451,-0.6826887627871169,14.387078,-1.3933231,2.2093081,-1.1777388,12.938159,-10.53758,2.0151594,0.32531917,-0.062003613,0.36367267,0.870669,-8.140243,0.7057431,0.55511767,-0.80684555,5.10818,-0.6826888,0
0.45000000000000023,12.156887268671577,-0.8068455713132004,5.108180187649451,-0.6826887627871169,14.387078,-1.3933231,2.2093081,-1.1777388,12.85683,-10.530109,2.0206606,0.3186426,-0.08677117,0.36813328,0.86914605,-8.126647,0.78863436,0.54488176,-0.80684555,5.10818,-0.6826888,0
0.46000000000000024,12.156887268671577,-0.8068455713132004,5.108180187649451,-0.6826887627871169,14.387078,-1.3933231,2.2093081,-1.1777388,12.775608,-10.521797,2.0260508,0.31174922,-0.11147971,0.37234348,0.86703193,-8.11851,0.8740772,0.53285867,-0.80684555,5.10818,-0.6826888,0
0.47000000000000025,12.156887268671577,-0.8068455713132004,5.108180187649451,-0.6826887627871169,14.387078,-1.3933231,2.2093081,-1.1777388,12.694441,-10.512619,2.0313108,0.3046438,-0.13611242,0.3763004,0.86432797,-8.115834,0.9618686,0.5187908,-0.80684555,5.10818,-0.6826888,0
0.48000000000000026,11.890071527676364,-0.3984714766663955,2.4226700627141793,-0.7446953979739155,12.268832,-1.1410664,2.1704087,-0.8534209,12.613274,-10.502552,2.0364187,0.29733118,-0.16065253,0.38000134,0.86103606,-8.118604,1.0517993,0.50242627,-0.80684555,5.10818,-0.6826888,1
0.49000000000000027,11.890071527676364,-0.3984714766663955,2.4226700627141793,-0.7446953979739155,12.268832,-1.1410664,2.1704087,-0.8534209,12.532053,-10.491574,2.0413566,0.29593995,-0.17330052,0.377598,0.86011934,-8.125924,1.1439108,0.4850331,-1.1410664,2.1704087,-0.8534209,1
0.5000000000000002,11.890071527676364,-0.3984714766663955,2.4226700627141793,-0.7446953979739155,12.268832,-1.1410664,2.1704087,-0.8534209,12.450744,-10.479673,2.0461175,0.29449886,-0.1859193,0.375131,0.8590577,-8.136178,1.2362787,0.4670251,-1.1410664,2.1704087,-0.8534209,1
0.5100000000000002,11.890071527676364,-0.3984714766663955,2.4226700627141793,-0.7446953979739155,12.268832,-1.1410664,2.1704087,-0.8534209,12.369319,-10.466848,2.0506947,0.2930081,-0.19850674,0.37260082,0.8578514,-8.149355,1.3288642,0.44833553,-1.1410664,2.1704087,-0.8534209,1
0.5200000000000002,11.912842414329633,0.11789565228842007,0.7666278754291356,-0.7023583356948265,14.241934,-1.4047444,1.4377961,-0.41577372,12.287746,-10.453096,2.0550816,0.29146796,-0.21106075,0.37000787,0.85650045,-8.165439,1.4216285,0.42889804,-1.1410664,2.1704087,-0.8534209,0
0.5300000000000002,11.912842414329633,0.11789565228842007,0.7666278754291356,-0.7023583356948265,14.241934,-1.4047444,1.4377961,-0.41577372,12.206005,-10.438429,2.059259,0.29317793,-0.2154685,0.37088373,0.854438,-8.183032,1.5119383,0.40646878,0.117895655,0.76662785,-0.70235837,0
0.5400000000000003,11.912842414329633,0.11789565228842007,0.7666278754291356,-0.7023583356948265,14.241934,-1.4047444,1.4377961,-0.41577372,12.124084,-10.422856,2.0632088,0.29487988,-0.21987033,0.37174943,0.8523522,-8.201205,1.6026379,0.38343427,0.117895655,0.76662785,-0.70235837,0
0.5500000000000003,11.912842414329633,0.11789565228842007,0.7666278754291356,-0.7023583356948265,14.241934,-1.4047444,1.4377961,-0.41577372,12.041979,-10.406375,2.0669253,0.2965738,-0.22426617,0.37260497,0.85024303,-8.219952,1.6937246,0.35978734,0.117895655,0.76662785,-0.70235837,0
0.5600000000000003,11.653693134146579,0.6388190674635683,-0.8734940637083521,-0.6536949066163503,13.231515,-0.30994472,0.1967425,-0.30601668,11.959683,-10.38898,2.0704021,0.2982596,-0.22865587,0.37345028,0.8481106,-8.239267,1.7851964,0.33552086,0.117895655,0.76662785,-0.70235837,0
0.5700000000000003,11.653693134146579,0.6388190674635683,-0.8734940637083521,-0.6536949066163503,13.231515,-0.30994472,0.1967425,-0.30601668,11.877195,-10.370679,2.0736263,0.30338702,-0.2252152,0.37410176,0.8469246,-8.258041,1.8749347,0.3093603,0.63881904,-0.8734941,-0.6536949,0
0.5800000000000003,11.653693134146579,0.6388190674635683,-0.8734940637083521,-0.6536949066163503,13.231515,-0.30994472,0.1967425,-0.30601668,11.794526,-10.351481,2.0765903,0.30850232,-0.2217655,0.3747383,0.8457048,-8.275579,1.9647222,0.28344938,0.63881904,-0.8734941,-0.6536949,0
0.5900000000000003,11.653693134146579,0.6388190674635683,-0.8734940637083521,-0.6536949066163503,13.231515,-0.30994472,0.1967425,-0.30601668,11.711689,-10.331385,2.0792964,0.3136053,-0.21830693,0.37535986,0.8444512,-8.291882,2.0545435,0.25778595,0.63881904,-0.8734941,-0.6536949,0
0.6000000000000003,11.809697253907999,0.6388146406540525,-0.3878699608485537,-0.5911962429873393,11.692165,-0.41463223,-0.87985677,-0.00065273605,11.628694,-10.31039,2.081747,0.31869572,-0.21483964,0.3759664,0.8431638,-8.306948,2.1443827,0.23236772,0.63881904,-0.8734941,-0.6536949,0
0.6100000000000003,11.809697253907999,0.6388146406540525,-0.3878699608485537,-0.5911962429873393,11.692165,-0.41463223,-0.87985677,-0.00065273605,11.545552,-10.288491,2.083949,0.32259983,-0.21329543,0.37740216,0.84142786,-8.321114,2.2355082,0.20803949,0.6388146,-0.38786995,-0.59119624,0
0.6200000000000003,11.809697253907999,0.6388146406540525,-0.3878699608485537,-0.5911962429873393,11.692165,-0.41463223,-0.87985677,-0.00065273605,11.462274,-10.265679,2.0859072,0.3264966,-0.21174638,0.37882933,0.83967286,-8.334427,2.3268423,0.18361187,0.6388146,-0.38786995,-0.59119624,0
0.6300000000000003,11.809697253907999,0.6388146406540525,-0.3878699608485537,-0.5911962429873393,11.692165,-0.41463223,-0.87985677,-0.00065273605,11.378866,-10.241952,2.0876207,0.33038595,-0.21019253,0.38024792,0.8378988,-8.346886,2.4183772,0.15908483,0.6388146,-0.38786995,-0.59119624,0
0.6400000000000003,11.809697253907999,0.6388146406540525,-0.3878699608485537,-0.5911962429873393,11.761068,-0.7441176,-0.31370574,0.09632105,11.295338,-10.217309,2.0890884,0.3342678,-0.2086339,0.38165784,0.83610576,-8.35849,2.5101037,0.13445829,0.6388146,-0.38786995,-0.59119624,0
0.6500000000000004,11.809697253907999,0.6388146406540525,-0.3878699608485537,-0.5911962429873393,11.761068,-0.7441176,-0.31370574,0.09632105,11.211699,-10.191749,2.0903096,0.3381421,-0.20707053,0.3830591,0.8342938,-8.369237,2.6020143,0.10973218,0.6388146,-0.38786995,-0.59119624,0
0.6600000000000004,11.809697253907999,0.6388146406540525,-0.3878699608485537,-0.5911962429873393,11.761068,-0.7441176,-0.31370574,0.09632105,11.127956,-10.165268,2.0912828,0.34200868,-0.20550247,0.3844517,0.83246285,-8.379126,2.6941006,0.08490646,0.6388146,-0.38786995,-0.59119624,0
0.6700000000000004,11.809697253907999,0.6388146406540525,-0.3878699608485537,-0.5911962429873393,11.761068,-0.7441176,-0.31370574,0.09632105,11.044121,-10.137865,2.0920074,0.3458675,-0.20392974,0.38583553,0.830613,-8.388153,2.7863545,0.059981078,0.6388146,-0.38786995,-0.59119624,0
0.6800000000000004,11.73621122590502,0.625939190936281,-1.0229976566214516,-0.5654935525583276,11.323658,-0.9140334,-0.32145226,0.024843216,10.960197,-10.109539,2.092482,0.34971848,-0.20235237,0.3872106,0.82874435,-8.396318,2.8787677,0.034956012,0.6388146,-0.38786995,-0.59119624,0
0.6900000000000004,11.73621122590502,0.625939190936281,-1.0229976566214516,-0.5654935525583276,11.323658,-0.9140334,-0.32145226,0.024843216,10.876198,-10.080292,2.0927043,0.35466787,-0.19810927,0.38743487,0.82756054,-8.40339,2.9706342,0.00954893,0.6259392,-1.0229976,-0.5654935,0
0.7000000000000004,11.73621122590502,0.625939190936281,-1.0229976566214516,-0.5654935525583276,11.323658,-0.9140334,-0.32145226,0.024843216,10.792134,-10.050126,2.0926743,0.35960165,-0.19385743,0.3876421,0.8263403,-8.409113,3.0623114,-0.015501797,0.6259392,-1.0229976,-0.5654935,0
0.7100000000000004,11.73621122590502,0.625939190936281,-1.0229976566214516,-0.5654935525583276,11.323658,-0.9140334,-0.32145226,0.024843216,10.708019,-10.019044,2.0923955,0.36451966,-0.18959707,0.38783228,0.82508385,-8.413489,3.153782,-0.040200777,0.6259392,-1.0229976,-0.5654935,0
0.7200000000000004,11.871430814130031,0.527374411289951,-0.7451789556307526,-0.5058846347562482,11.159167,-1.0008216,-0.8406024,-0.058377218,10.623867,-9.98705,2.0918713,0.36942166,-0.1853284,0.38800544,0.82379115,-8.41652,3.2450273,-0.06455268,0.6259392,-1.0229976,-0.5654935,0
0.7300000000000004,11.871430814130031,0.527374411289951,-0.7451789556307526,-0.5058846347562482,11.159167,-1.0008216,-0.8406024,-0.058377218,10.539692,-9.954139,2.0911098,0.37343466,-0.18226385,0.38832718,0.82251287,-8.418342,3.337118,-0.08775948,0.5273744,-0.74517894,-0.50588465,0
0.7400000000000004,11.871430814130031,0.527374411289951,-0.7451789556307526,-0.5058846347562482,11.159167,-1.0008216,-0.8406024,-0.058377218,10.455503,-9.920308,2.0901172,0.3774375,-0.17919433,0.38863835,0.82121223,-8.41911,3.4290545,-0.110758916,0.5273744,-0.74517894,-0.50588465,0
0.7500000000000004,11.871430814130031,0.527374411289951,-0.7451789556307526,-0.5058846347562482,11.159167,-1.0008216,-0.8406024,-0.058377218,10.371313,-9.885559,2.0888956,0.3814301,-0.17611994,0.38893893,0.81988925,-8.418828,3.5208259,-0.13355313,0.5273744,-0.74517894,-0.50588465,0
0.7600000000000005,11.998370774425066,0.3974238890082304,-0.8840370264445744,-0.46644875163544813,12.726912,-0.6683986,0.06855672,-0.24832594,10.28713,-9.849892,2.087447,0.38541228,-0.17304076,0.38922894,0.8185439,-8.417496,3.6124206,-0.15614429,0.5273744,-0.74517894,-0.50588465,0
0.7700000000000005,11.998370774425066,0.3974238890082304,-0.8840370264445744,-0.46644875163544813,12.726912,-0.6683986,0.06855672,-0.24832594,10.202967,-9.813305,2.0857775,0.38938004,-0.16956209,0.3887427,0.8176246,-8.415094,3.7047513,-0.17765927,0.3974239,-0.884037,-0.46644875,0
0.7800000000000005,11.998370774425066,0.3974238890082304,-0.8840370264445744,-0.46644875163544813,12.726912,-0.6683986,0.06855672,-0.24832594,10.118832,-9.775797,2.083895,0.39333653,-0.16607851,0.38824517,0.8166817,-8.411648,3.7967358,-0.19879876,0.3974239,-0.884037,-0.46644875,0
0.7900000000000005,11.998370774425066,0.3974238890082304,-0.8840370264445744,-0.46644875163544813,12.726912,-0.6683986,0.06855672,-0.24832594,10.034737,-9.737371,2.0818028,0.39728165,-0.1625901,0.38773644,0.81571513,-8.407159,3.888363,-0.2195662,0.3974239,-0.884037,-0.46644875,0
0.8000000000000005,12.147425164569006,0.2948879930566045,-0.5455183565932211,-0.400564434510843,12.605042,-0.67748666,0.23386538,-0.33338156,9.950692,-9.698031,2.079505,0.40121529,-0.159097,0.3872165,0.814725,-8.401631,3.9796207,-0.2399651,0.3974239,-0.884037,-0.46644875,1
0.8100000000000005,12.147425164569006,0.2948879930566045,-0.5455183565932211,-0.400564434510843,12.605042,-0.67748666,0.23386538,-0.33338156,9.866708,-9.657757,2.0770247,0.40157852,-0.16205297,0.38465762,0.8151754,-8.395461,4.075181,-0.2560975,-0.67748666,0.23386538,-0.33338156,1
0.8200000000000005,12.147425164569006,0.2948879930566045,-0.5455183565932211,-0.400564434510843,12.605042,-0.67748666,0.23386538,-0.33338156,9.782781,-9.616528,2.0743842,0.4019355,-0.16500641,0.3820927,0.81561315,-8.390141,4.1705728,-0.27197367,-0.67748666,0.23386538,-0.33338156,1
0.8300000000000005,12.147425164569006,0.2948879930566045,-0.5455183565932211,-0.400564434510843,12.605042,-0.67748666,0.23386538,-0.33338156,9.698901,-9.574346,2.0715861,0.40228614,-0.16795729,0.37952185,0.8160382,-8.385671,4.2657924,-0.28759992,-0.67748666,0.23386538,-0.33338156,1
0.8400000000000005,12.147425164569006,0.2948879930566045,-0.5455183565932211,-0.400564434510843,12.23828,-0.31616178,0.042070456,-0.29205492,9.615064,-9.531212,2.068633,0.40263054,-0.17090555,0.37694505,0.8164504,-8.382054,4.3608365,-0.30298263,-0.67748666,0.23386538,-0.33338156,1
0.8500000000000005,12.147425164569006,0.2948879930566045,-0.5455183565932211,-0.400564434510843,12.23828,-0.31616178,0.042070456,-0.29205492,9.531259,-9.487143,2.0655155,0.4034724,-0.17226382,0.37548864,0.8164204,-8.379186,4.452961,-0.32056937,-0.31616178,0.042070456,-0.29205492,1
0.8600000000000005,12.147425164569006,0.2948879930566045,-0.5455183565932211,-0.400564434510843,12.23828,-0.31616178,0.042070456,-0.29205492,9.447479,-9.442153,2.0622227,0.40431234,-0.17362128,0.3740305,0.8163865,-8.376653,4.544961,-0.33800253,-0.31616178,0.042070456,-0.29205492,1
0.8700000000000006,12.147425164569006,0.2948879930566045,-0.5455183565932211,-0.400564434510843,12.23828,-0.31616178,0.042070456,-0.29205492,9.363724,-9.396244,2.058756,0.40515038,-0.17497794,0.3725706,0.81634885,-8.374459,4.636836,-0.3552837,-0.31616178,0.042070456,-0.29205492,1
0.8800000000000006,12.292453735934714,0.6274317383143111,-1.1387131454682275,-0.34282118268347417,12.284547,0.28492543,0.006313419,-0.25806347,9.279989,-9.349417,2.0551174,0.40598652,-0.17633377,0.37110895,0.81630737,-8.3726015,4.728586,-0.3724144,-0.31616178,0.042070456,-0.29205492,0
0.8900000000000006,12.292453735934714,0.6274317383143111,-1.1387131454682275,-0.34282118268347417,12.284547,0.28492543,0.006313419,-0.25806347,9.196273,-9.301671,2.0513103,0.41004264,-0.1710446,0.37104768,0.8154328,-8.3704,4.820496,-0.38891864,0.62743175,-1.1387131,-0.34282118,0
0.9000000000000006,12.292453735934714,0.6274317383143111,-1.1387131454682275,-0.34282118268347417,12.284547,0.28492543,0.006313419,-0.25806347,9.112587,-9.253008,2.0473404,0.4140803,-0.16574772,0.37096965,0.8145213,-8.366737,4.9119496,-0.40496373,0.62743175,-1.1387131,-0.34282118,0
0.9100000000000006,12.292453735934714,0.6274317383143111,-1.1387131454682275,-0.34282118268347417,12.284547,0.28492543,0.006313419,-0.25806347,9.028945,-9.203433,2.0432124,0.4180992,-0.16044332,0.37087482,0.81357306,-8.361616,5.0029283,-0.42055982,0.62743175,-1.1387131,-0.34282118,0
0.9200000000000006,12.458699050580293,0.7377956464758095,-1.4622718386681774,-0.25473764010299876,12.297019,0.8609214,-0.08731718,-0.23760326,8.945361,-9.152951,2.0389307,0.4220992,-0.15513167,0.37076327,0.81258804,-8.355041,5.093413,-0.43571705,0.62743175,-1.1387131,-0.34282118,0
0.9300000000000006,12.458699050580293,0.7377956464758095,-1.4622718386681774,-0.25473764010299876,12.297019,0.8609214,-0.08731718,-0.23760326,8.861851,-9.101561,2.0345054,0.42640272,-0.14810042,0.37046444,0.811789,-8.346773,5.1845336,-0.449258,0.73779565,-1.4622718,-0.25473765,0
0.9400000000000006,12.458699050580293,0.7377956464758095,-1.4622718386681774,-0.25473764010299876,12.297019,0.8609214,-0.08731718,-0.23760326,8.778432,-9.049263,2.0299478,0.43067694,-0.14105898,0.3701402,0.8109342,-8.336689,5.274929,-0.46221974,0.73779565,-1.4622718,-0.25473765,0
0.9500000000000006,12.458699050580293,0.7377956464758095,-1.4622718386681774,-0.25473764010299876,12.297019,0.8609214,-0.08731718,-0.23760326,8.695124,-8.996065,2.025263,0.43492156,-0.13400789,0.36979052,0.8100237,-8.324792,5.364572,-0.47462156,0.73779565,-1.4622718,-0.25473765,0
0.9600000000000006,12.905595469231438,0.292566749733366,-0.6786103089111977,-0.21624271565608888,11.847585,0.67261,0.113203086,-0.19591933,8.611942,-8.941975,2.020457,0.4391363,-0.12694757,0.36941543,0.8090576,-8.311089,5.453435,-0.48648298,0.73779565,-1.4622718,-0.25473765,0
0.9700000000000006,12.905595469231438,0.292566749733366,-0.6786103089111977,-0.21624271565608888,11.847585,0.67261,0.113203086,-0.19591933,8.528909,-8.886982,2.0155504,0.44144696,-0.12395849,0.36896893,0.80846715,-8.295422,5.544813,-0.49480584,0.29256675,-0.6786103,-0.21624272,0
0.9800000000000006,12.905595469231438,0.292566749733366,-0.6786103089111977,-0.21624271565608888,11.847585,0.67261,0.113203086,-0.19591933,8.446036,-8.831079,2.0105622,0.44375107,-0.12096758,0.36851698,0.8078647,-8.278944,5.6357746,-0.50285137,0.29256675,-0.6786103,-0.21624272,0
0.9900000000000007,12.905595469231438,0.292566749733366,-0.6786103089111977,-0.21624271565608888,11.847585,0.67261,0.113203086,-0.19591933,8.363333,-8.774267,2.0054946,0.4460486,-0.11797488,0.36805958,0.8072503,-8.261655,5.7263136,-0.5106231,0.29256675,-0.6786103,-0.21624272,0
1.0000000000000007,12.97882398363615,0.021933824880227614,-0.720331789777886,-0.12670084095974618,12.064964,0.4556531,0.3484509,-0.18940382,8.280806,-8.716553,2.0003507,0.44833952,-0.11498043,0.3675967,0.806624,-8.24356,5.8164234,-0.51812464,0.29256675,-0.6786103,-0.21624272,0
1.0100000000000007,12.97882398363615,0.021933824880227614,-0.720331789777886,-0.12670084095974618,12.064964,0.4556531,0.3484509,-0.18940382,8.198463,-8.657938,1.9951359,0.45018408,-0.11225819,0.36599508,0.8067084,-8.224645,5.9065514,-0.5247691,0.021933826,-0.7203318,-0.12670085,0
1.0200000000000007,12.97882398363615,0.021933824880227614,-0.720331789777886,-0.12670084095974618,12.064964,0.4556531,0.3484509,-0.18940382,8.116314,-8.598424,1.989857,0.4520226,-0.10953444,0.36438859,0.806782,-8.205175,5.9960866,-0.5309496,0.021933826,-0.7203318,-0.12670085,0
1.0300000000000007,12.97882398363615,0.021933824880227614,-0.720331789777886,-0.12670084095974618,12.064964,0.4556531,0.3484509,-0.18940382,8.034361,-8.538018,1.9845185,0.4538551,-0.10680923,0.3627772,0.8068448,-8.185152,6.085025,-0.5366703,0.021933826,-0.7203318,-0.12670085,0
1.0400000000000007,12.97882398363615,0.021933824880227614,-0.720331789777886,-0.12670084095974618,12.351573,0.19390525,0.16309364,-0.1817273,7.9526114,-8.476726,1.9791251,0.4556815,-0.104082584,0.36116096,0.80689675,-8.164576,6.1733603,-0.5419353,0.021933826,-0.7203318,-0.12670085,1
1.0500000000000007,12.97882398363615,0.021933824880227614,-0.720331789777886,-0.12670084095974618,12.351573,0.19390525,0.16309364,-0.1817273,7.871065,-8.414574,1.9736582,0.4562205,-0.104626834,0.36221987,0.8060468,-8.144637,6.2571454,-0.5514993,0.19390525,0.16309364,-0.1817273,1
1.0600000000000007,12.97882398363615,0.021933824880227614,-0.720331789777886,-0.12670084095974618,12.351573,0.19390525,0.16309364,-0.1817273,7.7897186,-8.3515835,1.9680946,0.4567584,-0.105170816,0.36327785,0.8051947,-8.124618,6.3411403,-0.5612807,0.19390525,0.16309364,-0.1817273,1
1.0700000000000007,12.97882398363615,0.021933824880227614,-0.720331789777886,-0.12670084095974618,12.351573,0.19390525,0.16309364,-0.1817273,7.708573,-8.287751,1.962432,0.45729518,-0.10571455,0.364335,0.80434066,-8.104517,6.4253445,-0.5712801,0.19390525,0.16309364,-0.1817273,1
1.0800000000000007,13.377762921834506,-0.36830800781440065,0.03495833462403933,-0.09232144212596749,12.845714,0.0028515193,0.12553325,-0.23755719,7.627629,-8.223076,1.9566684,0.45783088,-0.10625803,0.36539122,0.80348474,-8.084333,6.509757,-0.5814981,0.19390525,0.16309364,-0.1817273,1
1.0900000000000007,13.377762921834506,-0.36830800781440065,0.03495833462403933,-0.09232144212596749,12.845714,0.0028515193,0.12553325,-0.23755719,7.5468907,-8.157538,1.950819,0.458557,-0.10718973,0.36556348,0.8028683,-8.063322,6.597722,-0.58837384,0.0028515193,0.12553325,-0.23755719,1
1.1000000000000008,13.377762921834506,-0.36830800781440065,0.03495833462403933,-0.09232144212596749,12.845714,0.0028515193,0.12553325,-0.23755719,7.4663625,-8.091121,1.9449005,0.4592823,-0.10812124,0.3657351,0.80225044,-8.0423975,6.685794,-0.5953331,0.0028515193,0.12553325,-0.23755719,1
1.1100000000000008,13.377762921834506,-0.36830800781440065,0.03495833462403933,-0.09232144212596749,12.845714,0.0028515193,0.12553325,-0.23755719,7.3860426,-8.023822,1.9389122,0.46000677,-0.109052554,0.36590606,0.80163115,-8.02156,6.7739735,-0.6023762,0.0028515193,0.12553325,-0.23755719,1
1.1200000000000008,13.479468511060563,-0.7224753692885378,-0.9909178976271972,0.021787092077930396,13.41831,-0.48631603,0.13064334,-0.2571176,7.305931,-7.9556413,1.9328529,0.4607304,-0.109983675,0.36607635,0.80101043,-8.000808,6.862261,-0.6095036,0.0028515193,0.12553325,-0.23755719,0
1.1300000000000008,13.479468511060563,-0.7224753692885378,-0.9909178976271972,0.021787092077930396,13.41831,-0.48631603,0.13064334,-0.2571176,7.2260313,-7.886556,1.9267455,0.46205094,-0.107637405,0.3609052,0.8029129,-7.9791117,6.9545307,-0.6117654,-0.72247535,-0.9909179,0.021787092,0
1.1400000000000008,13.479468511060563,-0.7224753692885378,-0.9909178976271972,0.021787092077930396,13.41831,-0.48631603,0.13064334,-0.2571176,7.1463485,-7.816554,1.9206214,0.46335408,-0.10528708,0.35572046,0.80478513,-7.957479,7.0456104,-0.6128815,-0.72247535,-0.9909179,0.021787092,0
1.1500000000000008,13.479468511060563,-0.7224753692885378,-0.9909178976271972,0.021787092077930396,13.41831,-0.48631603,0.13064334,-0.2571176,7.0668817,-7.745648,1.9144918,0.4646398,-0.1029328,0.35052234,0.8066271,-7.9359126,7.135487,-0.6128665,-0.72247535,-0.9909179,0.021787092,0
1.1600000000000008,13.870974829480545,-1.0615863647091084,-0.09021989155056882,0.05875818389491501,13.431777,-0.8300849,0.050793923,-0.056504812,6.98763,-7.673848,1.908368,0.46590805,-0.10057464,0.34531105,0.8084388,-7.9144154,7.224146,-0.6117352,-0.72247535,-0.9909179,0.021787092,1
1.1700000000000008,13.870974829480545,-1.0615863647091084,-0.09021989155056882,0.05875818389491501,13.431777,-0.8300849,0.050793923,-0.056504812,6.9085917,-7.601169,1.9022585,0.46562725,-0.10281036,0.34204262,0.80970776,-7.893397,7.3116074,-0.6100857,-0.8300849,0.050793923,-0.056504812,1
1.1800000000000008,13.870974829480545,-1.0615863647091084,-0.09021989155056882,0.05875818389491501,13.431777,-0.8300849,0.050793923,-0.056504812,6.8297586,-7.527617,1.8961679,0.46533835,-0.10504429,0.33876824,0.8109627,-7.8733344,7.398745,-0.6079576,-0.8300849,0.050793923,-0.056504812,1
1.1900000000000008,13.870974829480545,-1.0615863647091084,-0.09021989155056882,0.05875818389491501,13.431777,-0.8300849,0.050793923,-0.056504812,6.7511215,-7.453195,1.890101,0.46504146,-0.107276395,0.335488,0.8122035,-7.85423,7.485554,-0.60535806,-0.8300849,0.050793923,-0.056504812,1
1.2000000000000008,13.63379314668232,-1.0846242853104342,-0.9001018897680066,0.15612023842219808,13.506485,-1.1208754,0.14365171,-0.13975997,6.6726704,-7.377907,1.8840623,0.46473646,-0.10950664,0.33220187,0.81343025,-7.8360853,7.572029,-0.60229445,-0.8300849,0.050793923,-0.056504812,0
1.2100000000000009,13.63379314668232,-1.0846242853104342,-0.9001018897680066,0.15612023842219808,13.506485,-1.1208754,0.14365171,-0.13975997,6.5943975,-7.30175,1.8780651,0.46499103,-0.10810405,0.32577616,0.81606704,-7.818486,7.65908,-0.5969532,-1.0846243,-0.9001019,0.15612024,0
1.2200000000000009,13.63379314668232,-1.0846242853104342,-0.9001018897680066,0.15612023842219808,13.506485,-1.1208754,0.14365171,-0.13975997,6.5162983,-7.22473,1.8721274,0.46522224,-0.10669603,0.3193341,0.81866276,-7.8014455,7.7447634,-0.5903835,-1.0846243,-0.9001019,0.15612024,0
1.2300000000000009,13.63379314668232,-1.0846242853104342,-0.9001018897680066,0.15612023842219808,13.506485,-1.1208754,0.14365171,-0.13975997,6.438367,-7.14686,1.8662615,0.46543008,-0.10528265,0.31287596,0.8212173,-7.784964,7.8290606,-0.58260596,-1.0846243,-0.9001019,0.15612024,0
1.2400000000000009,13.63379314668232,-1.0846242853104342,-0.9001018897680066,0.15612023842219808,13.7199335,-1.1519738,0.28857258,0.030291136,6.3605976,-7.068154,1.8604794,0.46561444,-0.10386397,0.3064021,0.8237305,-7.769042,7.9119544,-0.5736412,-1.0846243,-0.9001019,0.15612024,0
1.2500000000000009,13.63379314668232,-1.0846242853104342,-0.9001018897680066,0.15612023842219808,13.7199335,-1.1519738,0.28857258,0.030291136,6.2829843,-6.988626,1.8547927,0.46577543,-0.102440074,0.2999128,0.82620233,-7.7536798,7.9934273,-0.56351024,-1.0846243,-0.9001019,0.15612024,0
1.260000000000001,13.63379314668232,-1.0846242853104342,-0.9001018897680066,0.15612023842219808,13.7199335,-1.1519738,0.28857258,0.030291136,6.2055216,-6.9082904,1.8492131,0.465913,-0.10101102,0.29340848,0.82863265,-7.7388773,8.073462,-0.5522343,-1.0846243,-0.9001019,0.15612024,0
1.270000000000001,13.63379314668232,-1.0846242853104342,-0.9001018897680066,0.15612023842219808,13.7199335,-1.1519738,0.28857258,0.030291136,6.128204,-6.8271613,1.8437519,0.46602714,-0.09957689,0.2868894,0.8310213,-7.724635,8.1520405,-0.5398349,-1.0846243,-0.9001019,0.15612024,0
1.280000000000001,13.910708925025894,-1.1003314027762305,0.44290400020197007,0.16683253296002906,13.868434,-1.0588329,0.4451326,-0.09970267,6.051027,-6.745254,1.8384203,0.46611786,-0.09813775,0.2803559,0.8333682,-7.7109528,8.229149,-0.5263337,-1.0846243,-0.9001019,0.15612024,1
1.290000000000001,13.910708925025894,-1.1003314027762305,0.44290400020197007,0.16683253296002906,13.868434,-1.0588329,0.4451326,-0.09970267,5.9739833,-6.6625752,1.8332378,0.46538204,-0.102598354,0.27692777,0.8343878,-7.697976,8.306582,-0.5101149,-1.0588329,0.4451326,-0.09970267,1
1.300000000000001,13.910708925025894,-1.1003314027762305,0.44290400020197007,0.16683253296002906,13.868434,-1.0588329,0.4451326,-0.09970267,5.897062,-6.579123,1.8282189,0.46463072,-0.10705555,0.27349043,0.8353797,-7.68656,8.383855,-0.4936206,-1.0588329,0.4451326,-0.09970267,1
1.310000000000001,13.910708925025894,-1.1003314027762305,0.44290400020197007,0.16683253296002906,13.868434,-1.0588329,0.4451326,-0.09970267,5.8202467,-6.4948993,1.8233663,0.463864,-0.1115092,0.27004403,0.8363438,-7.676706,8.460956,-0.47686666,-1.0588329,0.4451326,-0.09970267,1
1.320000000000001,13.5117128568638,-0.9966007323617023,0.028789740142155393,0.24778187108551314,14.047958,-1.0538524,0.41431698,-0.24779524,5.743522,-6.409905,1.8186826,0.46308184,-0.11595912,0.26658863,0.8372802,-7.6684155,8.537878,-0.45986915,-1.0588329,0.4451326,-0.09970267,1
1.330000000000001,13.5117128568638,-0.9966007323617023,0.028789740142155393,0.24778187108551314,14.047958,-1.0538524,0.41431698,-0.24779524,5.6668735,-6.324137,1.8141774,0.46294814,-0.120462045,0.26298794,0.83785695,-7.661593,8.615595,-0.44114503,-1.0538524,0.41431698,-0.24779524,1
1.340000000000001,13.5117128568638,-0.9966007323617023,0.028789740142155393,0.24778187108551314,14.047958,-1.0538524,0.41431698,-0.24779524,5.590285,-6.2375937,1.8098605,0.4627989,-0.12496092,0.25937846,0.8384055,-7.6563277,8.693085,-0.42219073,-1.0538524,0.41431698,-0.24779524,1
1.350000000000001,13.5117128568638,-0.9966007323617023,0.028789740142155393,0.24778187108551314,14.047958,-1.0538524,0.41431698,-0.24779524,5.5137415,-6.1502767,1.8057343,0.46263412,-0.12945558,0.25576022,0.83892584,-7.6526217,8.770344,-0.4030233,-1.0538524,0.41431698,-0.24779524,1
1.360000000000001,13.60894916138238,-1.0083576645701227,0.38037929221525957,0.2863710549028544,13.79732,-1.2455106,0.4708655,-0.10749026,5.437227,-6.0621886,1.8018007,0.46245378,-0.13394591,0.2521334,0.83941805,-7.650476,8.8473625,-0.3836599,-1.0538524,0.41431698,-0.24779524,1
1.370000000000001,13.60894916138238,-1.0083576645701227,0.38037929221525957,0.2863710549028544,13.79732,-1.2455106,0.4708655,-0.10749026,5.3607254,-5.9733377,1.7980512,0.46146685,-0.13893461,0.24791706,0.8404056,-7.6500015,8.922744,-0.36620086,-1.2455106,0.4708655,-0.10749026,1
1.380000000000001,13.60894916138238,-1.0083576645701227,0.38037929221525957,0.2863710549028544,13.79732,-1.2455106,0.4708655,-0.10749026,5.28422,-5.8837347,1.7944773,0.46045935,-0.14391711,0.24368966,0.8413556,-7.6513267,8.997809,-0.34854373,-1.2455106,0.4708655,-0.10749026,1
1.390000000000001,13.60894916138238,-1.0083576645701227,0.38037929221525957,0.2863710549028544,13.79732,-1.2455106,0.4708655,-0.10749026,5.2076926,-5.793382,1.791081,0.45943135,-0.1488932,0.2394514,0.8422681,-7.654451,9.072549,-0.33071017,-1.2455106,0.4708655,-0.10749026,1
1.400000000000001,13.027755365817917,-0.844669199179882,-0.8798405753057491,0.3893788604314021,13.457312,-0.9882624,0.15271048,-0.09253475,5.131125,-5.7022843,1.7878637,0.45838284,-0.15386266,0.23520245,0.84314305,-7.6593738,9.146951,-0.3127217,-1.2455106,0.4708655,-0.10749026,0
1.410000000000001,13.027755365817917,-0.844669199179882,-0.8798405753057491,0.3893788604314021,13.457312,-0.9882624,0.15271048,-0.09253475,5.0545025,-5.610466,1.7847953,0.45711684,-0.15162836,0.2299198,0.8456884,-7.6652036,9.216501,-0.30081844,-0.8446692,-0.87984055,0.38937885,0
1.420000000000001,13.027755365817917,-0.844669199179882,-0.8798405753057491,0.3893788604314021,13.457312,-0.9882624,0.15271048,-0.09253475,4.9778194,-5.517959,1.7818501,0.4558321,-0.14938784,0.22462775,0.84819907,-7.671347,9.284723,-0.28810292,-0.8446692,-0.87984055,0.38937885,0
1.430000000000001,13.027755365817917,-0.844669199179882,-0.8798405753057491,0.3893788604314021,13.457312,-0.9882624,0.15271048,-0.09253475,4.9010744,-5.424776,1.7790359,0.4545287,-0.1471412,0.21932648,0.85067505,-7.6777973,9.351605,-0.27459082,-0.8446692,-0.87984055,0.38937885,0
1.440000000000001,13.027755365817917,-0.844669199179882,-0.8798405753057491,0.3893788604314021,13.654368,-1.0904087,-0.34742945,-0.047819994,4.8242626,-5.330931,1.7763609,0.4532066,-0.14488854,0.21401623,0.8531161,-7.684548,9.417136,-0.2602978,-0.8446692,-0.87984055,0.38937885,1
1.450000000000001,13.027755365817917,-0.844669199179882,-0.8798405753057491,0.3893788604314021,13.654368,-1.0904087,-0.34742945,-0.047819994,4.7473793,-5.2364225,1.7738594,0.452985,-0.14592625,0.2085396,0.85441226,-7.692184,9.484524,-0.23988785,-1.0904087,-0.34742945,-0.047819994,1
1.460000000000001,13.027755365817917,-0.844669199179882,-0.8798405753057491,0.3893788604314021,13.654368,-1.0904087,-0.34742945,-0.047819994,4.6704144,-5.141245,1.771565,0.45274854,-0.14695917,0.20305613,0.8556804,-7.700804,9.550825,-0.21893425,-1.0904087,-0.34742945,-0.047819994,1
1.470000000000001,13.027755365817917,-0.844669199179882,-0.8798405753057491,0.3893788604314021,13.654368,-1.0904087,-0.34742945,-0.047819994,4.5933595,-5.0454097,1.7694825,0.45249718,-0.14798726,0.19756599,0.8569205,-7.7104077,9.616034,-0.19745287,-1.0904087,-0.34742945,-0.047819994,1
1.480000000000001,13.137697978220348,-0.9037601652246304,0.06682303553791633,0.3783983955588318,13.8658,-1.0511632,-0.51487505,-0.16430268,4.5162034,-4.9489284,1.7676175,0.45223105,-0.14901051,0.19206937,0.8581325,-7.7209935,9.68014,-0.17545964,-1.0904087,-0.34742945,-0.047819994,1
1.490000000000001,13.137697978220348,-0.9037601652246304,0.06682303553791633,0.3783983955588318,13.8658,-1.0511632,-0.51487505,-0.16430268,4.4389353,-4.8518066,1.7659844,0.4526394,-0.14933339,0.18626924,0.8591391,-7.732676,9.744059,-0.15107001,-1.0511632,-0.51487505,-0.16430268,1
1.500000000000001,13.137697978220348,-0.9037601652246304,0.06682303553791633,0.3783983955588318,13.8658,-1.0511632,-0.51487505,-0.16430268,4.3615465,-4.7540517,1.7645981,0.45303193,-0.14965104,0.1804626,0.86011565,-7.7451835,9.806704,-0.12610516,-1.0511632,-0.51487505,-0.16430268,1
1.5100000000000011,13.137697978220348,-0.9037601652246304,0.06682303553791633,0.3783983955588318,13.8658,-1.0511632,-0.51487505,-0.16430268,4.2840285,-4.655677,1.7634643,0.45340866,-0.14996348,0.17464966,0.86106217,-7.7585163,9.868067,-0.100582734,-1.0511632,-0.51487505,-0.16430268,1
1.5200000000000011,12.399355134139142,-0.7893798319145532,-0.8023007742889425,0.4952151597232691,13.76744,-1.1051975,-0.99829894,-0.041549534,4.206373,-4.5566945,1.7625883,0.45376956,-0.15027069,0.16883062,0.86197865,-7.7726755,9.928142,-0.07452048,-1.0511632,-0.51487505,-0.16430268,0
1.5300000000000011,12.399355134139142,-0.7893798319145532,-0.8023007742889425,0.4952151597232691,13.76744,-1.1051975,-0.99829894,-0.041549534,4.1285806,-4.4571495,1.7619098,0.45171082,-0.14818299,0.1639771,0.8643551,-7.7859006,9.980673,-0.061086208,-0.78937984,-0.80230075,0.49521515,0
1.5400000000000011,12.399355134139142,-0.7893798319145532,-0.8023007742889425,0.4952151597232691,13.76744,-1.1051975,-0.99829894,-0.041549534,4.0506544,-4.3570857,1.7613685,0.44963503,-0.14608967,0.15911739,0.86669886,-7.799394,10.031949,-0.047101695,-0.78937984,-0.80230075,0.49521515,0
1.5500000000000012,12.399355134139142,-0.7893798319145532,-0.8023007742889425,0.4952151597232691,13.76744,-1.1051975,-0.99829894,-0.041549534,3.972592,-4.2565155,1.7609696,0.44754225,-0.14399084,0.15425165,0.86900985,-7.8131466,10.081964,-0.03257992,-0.78937984,-0.80230075,0.49521515,0
1.5600000000000012,12.283524727750798,-0.8027114624631855,0.14993386512172263,0.48954281866397614,13.741832,-1.0922883,-1.5089703,-0.06417799,3.8943908,-4.1554513,1.7607187,0.44543254,-0.14188656,0.1493801,0.87128794,-7.82715,10.130709,-0.017533954,-0.78937984,-0.80230075,0.49521515,0
1.5700000000000012,12.283524727750798,-0.8027114624631855,0.14993386512172263,0.48954281866397614,13.741832,-1.0922883,-1.5089703,-0.06417799,3.8160481,-4.053908,1.760615,0.44261342,-0.14396025,0.14656268,0.8728615,-7.841515,10.178053,-0.003203855,-0.8027115,0.14993386,0.4895428,0
1.5800000000000012,12.283524727750798,-0.8027114624631855,0.14993386512172263,0.48954281866397614,13.741832,-1.0922883,-1.5089703,-0.06417799,3.7375574,-3.9518924,1.7606548,0.4397843,-0.14603068,0.14374195,0.87441534,-7.856788,10.224977,0.011183381,-0.8027115,0.14993386,0.4895428,0
1.5900000000000012,12.283524727750798,-0.8027114624631855,0.14993386512172263,0.48954281866397614,13.741832,-1.0922883,-1.5089703,-0.06417799,3.6589096,-3.8494098,1.7608387,0.43694514,-0.14809781,0.14091794,0.8759493,-7.8729672,10.27147,0.025622208,-0.8027115,0.14993386,0.4895428,0
1.6000000000000012,11.757077706075028,-0.7897721191197311,-1.299791530405375,0.5152648765662287,12.820965,-1.059915,-3.0282872,-0.17225328,3.5800953,-3.7464643,1.7611673,0.43409607,-0.15016156,0.13809074,0.87746346,-7.8900476,10.317527,0.040107075,-0.8027115,0.14993386,0.4895428,0
1.6100000000000012,11.757077706075028,-0.7897721191197311,-1.299791530405375,0.5152648765662287,12.820965,-1.059915,-3.0282872,-0.17225328,3.5011103,-3.6430717,1.7616175,0.43212596,-0.14581257,0.13218707,0.8800747,-7.906882,10.360728,0.05004792,-0.7897721,-1.2997916,0.51526487,0
1.6200000000000012,11.757077706075028,-0.7897721191197311,-1.299791530405375,0.5152648765662287,12.820965,-1.059915,-3.0282872,-0.17225328,3.421958,-3.5392556,1.7621707,0.43012798,-0.1414542,0.12627487,0.8826292,-7.923567,10.402279,0.060657594,-0.7897721,-1.2997916,0.51526487,0
1.6300000000000012,11.757077706075028,-0.7897721191197311,-1.299791530405375,0.5152648765662287,12.820965,-1.059915,-3.0282872,-0.17225328,3.3426397,-3.435032,1.762833,0.42810225,-0.1370867,0.12035453,0.8851268,-7.94009,10.44217,0.07191187,-0.7897721,-1.2997916,0.51526487,0
1.6400000000000012,11.757077706075028,-0.7897721191197311,-1.299791530405375,0.5152648765662287,12.773244,-1.1283317,-2.1359646,-0.09184879,3.2631571,-3.3304176,1.763611,0.42604893,-0.13271037,0.114426434,0.88756734,-7.9564395,10.480392,0.083786376,-0.7897721,-1.2997916,0.51526487,0
1.6500000000000012,11.757077706075028,-0.7897721191197311,-1.299791530405375,0.5152648765662287,12.773244,-1.1283317,-2.1359646,-0.09184879,3.1835117,-3.2254295,1.7645106,0.42396814,-0.12832548,0.10849096,0.8899507,-7.972601,10.51694,0.096256554,-0.7897721,-1.2997916,0.51526487,0
1.6600000000000013,11.757077706075028,-0.7897721191197311,-1.299791530405375,0.5152648765662287,12.773244,-1.1283317,-2.1359646,-0.09184879,3.1037056,-3.1200843,1.7655379,0.42186,-0.12393232,0.102548495,0.89227664,-7.988562,10.551805,0.109297715,-0.7897721,-1.2997916,0.51526487,0
1.6700000000000013,11.757077706075028,-0.7897721191197311,-1.299791530405375,0.5152648765662287,12.773244,-1.1283317,-2.1359646,-0.09184879,3.023741,-3.014399,1.7666984,0.41972467,-0.11953118,0.09659942,0.8945451,-8.004311,10.584979,0.12288502,-0.7897721,-1.2997916,0.51526487,0
1.6800000000000013,11.759417255821846,-0.773060976912317,0.017393986524550095,0.4821320250147759,13.73363,-1.1269329,-2.5478535,-0.21710394,2.94362,-2.9083905,1.7679974,0.4175623,-0.115122326,0.09064411,0.8967558,-8.019834,10.616459,0.13699345,-0.7897721,-1.2997916,0.51526487,0
1.6900000000000013,11.759417255821846,-0.773060976912317,0.017393986524550095,0.4821320250147759,13.73363,-1.1269329,-2.5478535,-0.21710394,2.863344,-2.8020744,1.7694396,0.41494334,-0.11659461,0.08749079,0.89809346,-8.035479,10.646669,0.15145813,-0.773061,0.017393986,0.48213202,0
1.7000000000000013,11.759417255821846,-0.773060976912317,0.017393986524550095,0.4821320250147759,13.73363,-1.1269329,-2.5478535,-0.21710394,2.782908,-2.695459,1.7710266,0.41231573,-0.11806448,0.08433564,0.8994125,-8.051833,10.676314,0.16597262,-0.773061,0.017393986,0.48213202,0
1.7100000000000013,11.759417255821846,-0.773060976912317,0.017393986524550095,0.4821320250147759,13.73363,-1.1269329,-2.5478535,-0.21710394,2.7023046,-2.58855,1.7727591,0.4096796,-0.11953189,0.08117875,0.90071285,-8.0688925,10.705388,0.18053143,-0.773061,0.017393986,0.48213202,0
1.7200000000000013,11.27310897360348,-0.6943362707387618,-0.8906426413128665,0.4991756861471669,13.011713,-1.4360538,-3.8003483,0.45466772,2.6215274,-2.481353,1.7746373,0.40703493,-0.12099681,0.07802016,0.90199447,-8.086654,10.733884,0.19512907,-0.773061,0.017393986,0.48213202,0
1.7300000000000013,11.27310897360348,-0.6943362707387618,-0.8906426413128665,0.4991756861471669,13.011713,-1.4360538,-3.8003483,0.45466772,2.5405736,-2.3738806,1.7766387,0.40470332,-0.118196115,0.07337664,0.9038029,-8.10408,10.760392,0.20520401,-0.6943363,-0.89064264,0.4991757,0
1.7400000000000013,11.27310897360348,-0.6943362707387618,-0.8906426413128665,0.4991756861471669,13.011713,-1.4360538,-3.8003483,0.45466772,2.459446,-2.2661493,1.7787424,0.40235627,-0.11539091,0.06873033,0.9055768,-8.121447,10.785666,0.21558365,-0.6943363,-0.89064264,0.4991757,0
1.7500000000000013,11.27310897360348,-0.6943362707387618,-0.8906426413128665,0.4991756861471669,13.011713,-1.4360538,-3.8003483,0.45466772,2.378145,-2.1581714,1.7809514,0.3999939,-0.11258131,0.0640814,0.90731627,-8.138744,10.809703,0.22625501,-0.6943363,-0.89064264,0.4991757,0
1.7600000000000013,11.1024727733695,-0.6052193116118928,-0.3000197297123467,0.4694016604989223,12.71781,-1.0242125,-1.8893721,0.11860053,2.2966712,-2.0499594,1.7832685,0.39761627,-0.10976742,0.05943003,0.90902114,-8.155965,10.8324995,0.23720512,-0.6943363,-0.89064264,0.4991757,0
1.7700000000000014,11.1024727733695,-0.6052193116118928,-0.3000197297123467,0.4694016604989223,12.71781,-1.0242125,-1.8893721,0.11860053,2.2150266,-1.9415269,1.7856879,0.39523637,-0.10946661,0.05633991,0.9102912,-8.172977,10.853928,0.24670573,-0.6052193,-0.30001974,0.46940166,0
1.7800000000000014,11.1024727733695,-0.6052193116118928,-0.3000197297123467,0.4694016604989223,12.71781,-1.0242125,-1.8893721,0.11860053,2.1332107,-1.8328834,1.7882029,0.3928498,-0.109163955,0.053248838,0.91154575,-8.19026,10.874662,0.25629884,-0.6052193,-0.30001974,0.46940166,0
1.7900000000000014,11.1024727733695,-0.6052193116118928,-0.3000197297123467,0.4694016604989223,12.71781,-1.0242125,-1.8893721,0.11860053,2.0512204,-1.7240361,1.7908143,0.39045662,-0.10885945,0.050156865,0.91278493,-8.20781,10.894702,0.26598033,-0.6052193,-0.30001974,0.46940166,0
1.8000000000000014,10.694556424783038,-0.5429571954907315,-1.4612551748659164,0.47316972828656734,13.988828,-2.1069164,-4.8734183,0.90864813,1.9690535,-1.6149918,1.793523,0.3880568,-0.108553104,0.047064044,0.91400874,-8.225623,10.914044,0.27574596,-0.6052193,-0.30001974,0.46940166,0
1.8100000000000014,10.694556424783038,-0.5429571954907315,-1.4612551748659164,0.47316972828656734,13.988828,-2.1069164,-4.8734183,0.90864813,1.8867114,-1.505762,1.79631,0.38593072,-0.10281371,0.04200277,0.9158173,-8.242698,10.931695,0.28173268,-0.5429572,-1.4612552,0.4731697,0
1.8200000000000014,10.694556424783038,-0.5429571954907315,-1.4612551748659164,0.47316972828656734,13.988828,-2.1069164,-4.8734183,0.90864813,1.8042016,-1.3963631,1.7991587,0.38377902,-0.0970675,0.03693871,0.91756517,-8.259126,10.947848,0.28806603,-0.5429572,-1.4612552,0.4731697,0
1.8300000000000014,10.694556424783038,-0.5429571954907315,-1.4612551748659164,0.47316972828656734,13.988828,-2.1069164,-4.8734183,0.90864813,1.721531,-1.2868102,1.8020724,0.38160187,-0.091314845,0.031872194,0.9192522,-8.274896,10.962504,0.29472125,-0.5429572,-1.4612552,0.4731697,0
1.8400000000000014,10.694556424783038,-0.5429571954907315,-1.4612551748659164,0.47316972828656734,12.905913,-2.0412524,-4.9021297,0.87031424,1.6387061,-1.1771183,1.8050542,0.37939942,-0.085556135,0.026803568,0.92087823,-8.289996,10.975662,0.30167353,-0.5429572,-1.4612552,0.4731697,0
1.8500000000000014,10.694556424783038,-0.5429571954907315,-1.4612551748659164,0.47316972828656734,12.905913,-2.0412524,-4.9021297,0.87031424,1.5557336,-1.0673022,1.8081069,0.37717175,-0.079791754,0.021733161,0.92244315,-8.304417,10.987324,0.3088979,-0.5429572,-1.4612552,0.4731697,0
1.8600000000000014,10.694556424783038,-0.5429571954907315,-1.4612551748659164,0.47316972828656734,12.905913,-2.0412524,-4.9021297,0.87031424,1.4726201,-0.957377,1.8112329,0.3749191,-0.07402208,0.016661316,0.92394686,-8.318145,10.997487,0.3163694,-0.5429572,-1.4612552,0.4731697,0
1.8700000000000014,10.694556424783038,-0.5429571954907315,-1.4612551748659164,0.47316972828656734,12.905913,-2.0412524,-4.9021297,0.87031424,1.389373,-0.8473577,1.814435,0.37264153,-0.06824749,0.011588365,0.92538923,-8.331173,11.006154,0.324063,-0.5429572,-1.4612552,0.4731697,0
1.8800000000000014,10.542245220561767,-0.4536497920845935,-0.12084965260253547,0.4572017032377353,12.471914,-1.873751,-4.322428,0.8628113,1.3059992,-0.73725915,1.817715,0.37033927,-0.06246837,0.0065146443,0.92677027,-8.343489,11.013327,0.33195353,-0.5429572,-1.4612552,0.4731697,0
1.8900000000000015,10.542245220561767,-0.4536497920845935,-0.12084965260253547,0.4572017032377353,12.471914,-1.873751,-4.322428,0.8628113,1.2225055,-0.6270956,1.8210672,0.3680809,-0.062733166,0.004331494,0.92766446,-8.355276,11.019314,0.33844367,-0.4536498,-0.120849654,0.4572017,0
1.9000000000000015,10.542245220561767,-0.4536497920845935,-0.12084965260253547,0.4572017032377353,12.471914,-1.873751,-4.322428,0.8628113,1.1388928,-0.5168744,1.8244842,0.36581862,-0.06299729,0.0021482974,0.92854863,-8.367297,11.024866,0.34493104,-0.4536498,-0.120849654,0.4572017,0
1.9100000000000015,10.542245220561767,-0.4536497920845935,-0.12084965260253547,0.4572017032377353,12.471914,-1.873751,-4.322428,0.8628113,1.0551586,-0.4065998,1.8279661,0.3635524,-0.063260734,-3.4922617e-05,0.92942286,-8.379552,11.029982,0.35141364,-0.4536498,-0.120849654,0.4572017,0
1.9200000000000015,10.272482078697777,-0.4007487516699861,-0.22992106363284476,0.469882076269454,12.72053,-1.841611,-5.524137,0.72913337,0.97130084,-0.29627624,1.8315128,0.3612823,-0.06352349,-0.0022181424,0.9302871,-8.392038,11.034659,0.35788944,-0.4536498,-0.120849654,0.4572017,0
1.9300000000000015,10.272482078697777,-0.4007487516699861,-0.22992106363284476,0.469882076269454,12.72053,-1.841611,-5.524137,0.72913337,0.88731885,-0.1859087,1.8351105,0.35896486,-0.063182816,-0.004348273,0.93119943,-8.404383,11.038777,0.36168662,-0.40074876,-0.22992106,0.46988207,0
1.9400000000000015,10.272482078697777,-0.4007487516699861,-0.22992106363284476,0.469882076269454,12.72053,-1.841611,-5.524137,0.72913337,0.8032129,-0.0755023,1.8387464,0.35664353,-0.06284145,-0.006478356,0.9321016,-8.416829,11.042431,0.36548904,-0.40074876,-0.22992106,0.46988207,0
1.9500000000000015,10.272482078697777,-0.4007487516699861,-0.22992106363284476,0.469882076269454,12.72053,-1.841611,-5.524137,0.72913337,0.7189819,0.03493832,1.8424205,0.35431835,-0.062499408,-0.008608369,0.9329937,-8.429375,11.045621,0.3692949,-0.40074876,-0.22992106,0.46988207,0
1.9600000000000015,10.194226831934131,-0.3709934032765637,0.7115569133229058,0.44362351503001907,11.286773,-1.0542431,-2.448085,0.6046366,0.634625,0.14540851,1.8461326,0.35198936,-0.06215668,-0.010738288,0.9338757,-8.442018,11.0483465,0.37310222,-0.40074876,-0.22992106,0.46988207,0
1.9700000000000015,10.194226831934131,-0.3709934032765637,0.7115569133229058,0.44362351503001907,11.286773,-1.0542431,-2.448085,0.6046366,0.550141,0.25590426,1.8498787,0.34983712,-0.066155285,-0.01108031,0.93440557,-8.454918,11.050835,0.37609398,-0.3709934,0.7115569,0.4436235,0
1.9800000000000015,10.194226831934131,-0.3709934032765637,0.7115569133229058,0.44362351503001907,11.286773,-1.0542431,-2.448085,0.6046366,0.46552396,0.36642587,1.853654,0.34767753,-0.07015249,-0.011422098,0.9349158,-8.468607,11.053514,0.37897715,-0.3709934,0.7115569,0.4436235,0
1.9900000000000015,10.194226831934131,-0.3709934032765637,0.7115569133229058,0.44362351503001907,11.286773,-1.0542431,-2.448085,0.6046366,0.3807661,0.47697514,1.8574578,0.34551063,-0.07414824,-0.011763646,0.9354064,-8.483085,11.056378,0.38174522,-0.3709934,0.7115569,0.4436235,0
2.0000000000000013,,,,,12.032031,-1.4984691,-2.8864431,0.77007514,0.29585952,0.58755404,1.8612885,0.34333646,-0.07814242,-0.012104948,0.9358773,-8.49835,11.059426,0.3843917,-0.3709934,0.7115569,0.4436235,0
2.010000000000001,,,,,12.032031,-1.4984691,-2.8864431,0.77007514,0.21079837,0.6981633,1.8651373,0.34092528,-0.07782853,-0.014384927,0.93675226,-8.513895,11.062352,0.38534468,-0.4407688,-0.23482473,0.47500753,0
2.020000000000001,,,,,12.032031,-1.4984691,-2.8864431,0.77007514,0.12558125,0.8087993,1.8689957,0.33851004,-0.07751371,-0.016664736,0.9376161,-8.529544,11.064788,0.3862946,-0.4407688,-0.23482473,0.47500753,0
2.0300000000000007,,,,,12.032031,-1.4984691,-2.8864431,0.77007514,0.040207144,0.9194573,1.8728635,0.33609074,-0.07719798,-0.018944347,0.9384688,-8.545293,11.066733,0.38723934,-0.4407688,-0.23482473,0.47500753,0
2.0400000000000005,,,,,12.032031,-1.4984691,-2.8864431,0.77007514,-0.04532495,1.0301323,1.8767405,0.3336675,-0.07688132,-0.021223733,0.9393104,-8.561141,11.068187,0.3881768,-0.4407688,-0.23482473,0.47500753,0
2.0500000000000003,,,,,12.041974,-0.91748,-1.9895866,0.6831896,-0.131016,1.1408193,1.8806269,0.33124027,-0.07656375,-0.023502868,0.9401407,-8.577085,11.069149,0.3891049,-0.4407688,-0.23482473,0.47500753,1
2.06,,,,,12.041974,-0.91748,-1.9895866,0.6831896,-0.21688162,1.2515122,1.8846221,0.32742205,-0.068806246,-0.030847577,0.94186413,-8.595858,11.06905,0.40994984,-0.91748,-1.9895866,0.6831896,1
2.07,,,,,12.041974,-0.91748,-1.9895866,0.6831896,-0.3029291,1.3621923,1.8888265,0.32356074,-0.061039675,-0.038188227,0.94346344,-8.613451,11.066597,0.43094975,-0.91748,-1.9895866,0.6831896,1
2.0799999999999996,,,,,12.041974,-0.91748,-1.9895866,0.6831896,-0.3891465,1.4728361,1.8932414,0.31965682,-0.05326507,-0.045523852,0.9449386,-8.629842,11.061798,0.45205003,-0.91748,-1.9895866,0.6831896,1
2.0899999999999994,,,,,11.68334,-0.58745396,-1.6672249,0.55706024,-0.4755217,1.5834203,1.8978676,0.31571078,-0.04548345,-0.05285348,0.94628936,-8.645004,11.054665,0.4731959,-0.91748,-1.9895866,0.6831896,1
2.099999999999999,,,,,11.68334,-0.58745396,-1.6672249,0.55706024,-0.56204027,1.6939232,1.9026875,0.31248736,-0.038667746,-0.058135763,0.947352,-8.658529,11.04569,0.49079472,-0.58745396,-1.6672249,0.55706024,1
2.109999999999999,,,,,11.68334,-0.58745396,-1.6672249,0.55706024,-0.6486883,1.8043282,1.9076834,0.30923712,-0.031848725,-0.063413054,0.94833326,-8.670898,11.035005,0.5083776,-0.58745396,-1.6672249,0.55706024,1
2.1199999999999988,,,,,11.68334,-0.58745396,-1.6672249,0.55706024,-0.7354542,1.9146175,1.9128547,0.30596033,-0.02502697,-0.0686849,0.94923306,-8.6820965,11.022617,0.52590996,-0.58745396,-1.6672249,0.55706024,1
2.1299999999999986,,,,,12.040389,-0.7461236,-2.286013,1.055361,-0.8223261,2.0247746,1.9182011,0.30265725,-0.018203065,-0.07395084,0.9500513,-8.692113,11.008539,0.5433574,-0.58745396,-1.6672249,0.55706024,1
2.1399999999999983,,,,,12.040389,-0.7461236,-2.286013,1.055361,-0.9092932,2.1347795,1.9237391,0.29670492,-0.008861939,-0.08085188,0.9514986,-8.701015,10.992083,0.564196,-0.7461236,-2.286013,1.055361,1
2.149999999999998,,,,,12.040389,-0.7461236,-2.286013,1.055361,-0.99634045,2.2446082,1.9294844,0.29070145,0.00048071425,-0.08773898,0.95278186,-8.708159,10.973336,0.58481395,-0.7461236,-2.286013,1.055361,1
2.159999999999998,,,,,12.040389,-0.7461236,-2.286013,1.055361,-1.0834503,2.3542383,1.9354345,0.28464782,0.009823285,-0.09461096,0.9539009,-8.713517,10.952329,0.6051472,-0.7461236,-2.286013,1.055361,1
2.1699999999999977,,,,,11.89889,-0.48433068,-2.3873112,1.2032744,-1.1706047,2.4636471,1.9415863,0.27854517,0.019164162,-0.10146662,0.9548554,-8.717063,10.929091,0.6251315,-0.7461236,-2.286013,1.055361,1
