t,px,py,pz,qx,qy,qz,qw,vx,vy,vz,wx,wy,wz,throttle_mpc,roll_mpc,pitch_mpc,yaw_mpc,throttle_nw,roll_nw,pitch_nw,yaw_nw,network_used
-2.0,18.355885,-9.814914,1.9594383000000002,0.48129898,-0.20184672,-0.84557986,0.11226715,-11.745883000000001,-6.44068,0.09428011,1.8713328000000002,-0.18862069,-0.27076226,10.621900586705564,-5.999999470335799,-6.0,5.999999931523004,11.655851,-1.4608642,-4.7686720000000005,-1.4982619,0
-1.99,18.237494,-9.879064,1.9603831999999999,0.48200014,-0.20905610000000002,-0.84409225,0.10714297,-11.93163,-6.3888764,0.09404483400000001,1.7096977,-0.028782126,-0.06552194,10.621900586705564,-5.999999470335799,-6.0,5.999999931523004,13.35704,-1.6605302,-5.5350194,-1.3115421999999999,0
-1.98,18.117268,-9.942685,1.9613055,0.48299697,-0.21603382,-0.8422329,0.10337752,-12.112656,-6.335066,0.08980453,1.5741733,0.10702783,0.13463527,10.621900586705564,-5.999999470335799,-6.0,5.999999931523004,13.35704,-1.6605302,-5.5350194,-1.3115421999999999,0
-1.97,17.99525,-10.005758,1.9621679,0.4841858,-0.22286378,-0.84007084,0.10087908,-12.29045,-6.27936,0.08222849,1.4442772,0.20613796,0.32845294,10.621900586705564,-5.999999470335799,-6.0,5.999999931523004,13.35704,-1.6605302,-5.5350194,-1.3115421999999999,0
-1.96,17.871468,-10.068265,1.9629401000000002,0.48539108,-0.22954114,-0.8377286,0.09958349,-12.466009,-6.221897,0.07177099,1.3066443,0.26176575,0.5152604000000001,10.621900586705564,-5.999999470335799,-6.0,5.999999931523004,9.732567,-1.2330642,-5.2562739999999994,0.18133959,0
-1.95,17.74594,-10.130191,1.9635933999999997,0.48644274,-0.23604153,-0.8353264000000001,0.09943613,-12.639292,-6.163079,0.058445375,1.1614373,0.27963390000000005,0.69549644,10.621900586705564,-5.999999470335799,-6.0,5.999999931523004,9.732567,-1.2330642,-5.2562739999999994,0.18133959,0
-1.94,17.618689,-10.191524000000001,1.9640993999999998,0.4871928,-0.24233907,-0.8329689,0.10038701,-12.81024,-6.1032753,0.042344436,1.0089774,0.2647603,0.8695613999999999,10.621900586705564,-5.999999470335799,-6.0,5.999999931523004,9.732567,-1.2330642,-5.2562739999999994,0.18133959,0
-1.93,17.489742,-10.2522545,1.9644311999999997,0.48751247,-0.24840772,-0.8307474,0.10239005,-12.978788,-6.0428267,0.023627829,0.84969914,0.22154582,1.0378213,10.621900586705564,-5.999999470335799,-6.0,5.999999931523004,9.732567,-1.2330642,-5.2562739999999994,0.18133959,0
-1.92,17.359121,-10.312379,1.9645636000000002,0.48728928,-0.25422195,-0.82874036,0.105402485,-13.144863,-5.9820437,0.0025105416,0.6841138000000001,0.15385282,1.2006108999999998,12.534925826650214,5.999999968107597,-6.0,-4.237196439516164,11.896725,-2.959395,-7.177303,2.315915,0
-1.91,17.226778,-10.371867,1.9645089,0.48665565,-0.25961968,-0.8270398999999999,0.108484186,-13.323688500000001,-5.9154860000000005,-0.013753983000000001,0.65632045,0.050950177,1.0103951999999998,12.534925826650214,5.999999968107597,-6.0,-4.237196439516164,11.896725,-2.959395,-7.177303,2.315915,0
-1.9,17.092657,-10.430689,1.9642818,0.48578686,-0.26456988,-0.825691,0.110671885,-13.500020999999998,-5.8487587,-0.03196331,0.6626021,-0.065635085,0.82685417,12.534925826650214,5.999999968107597,-6.0,-4.237196439516164,11.896725,-2.959395,-7.177303,2.315915,0
-1.89,16.956787,-10.488842,1.9638634,0.4846474,-0.26923072,-0.82468826,0.11189725,-13.673678,-5.7818227,-0.051965907,0.6984342,-0.19457681,0.64958924,12.534925826650214,5.999999968107597,-6.0,-4.237196439516164,11.896725,-2.959395,-7.177303,2.315915,0
-1.8800000000000001,16.819193,-10.546325,1.9632367,0.48320332,-0.2737397,-0.82402325,0.112101555,-13.844476,-5.7145743,-0.073625974,0.75985146,-0.33460575,0.47823444,12.534925826650214,5.999999968107597,-6.0,-4.237196439516164,11.896725,-2.959395,-7.177303,2.315915,0
-1.87,16.679907,-10.603132,1.9623857,0.48142168,-0.27821597,-0.82368433,0.11123456,-14.012227,-5.6468587,-0.096822515,0.8433759,-0.48451585,0.31245387,16.961683045128787,6.0,-6.0,-4.466767303174253,11.344057000000001,0.440726,-7.5968575,0.409273,0
-1.8599999999999999,16.538805,-10.659195,1.9613639999999999,0.47912586,-0.282945,-0.8237046999999998,0.10904637,-14.207362,-5.5657277,-0.10776434,1.0334651,-0.73068404,0.13285878,16.961683045128787,6.0,-6.0,-4.466767303174253,11.344057000000001,0.440726,-7.5968575,0.409273,0
-1.85,16.395775,-10.714442,1.9602244999999998,0.47614667,-0.2881817,-0.82410365,0.105303705,-14.398063,-5.483457,-0.120381445,1.2355621,-0.9802103000000001,-0.041651655,16.961683045128787,6.0,-6.0,-4.466767303174253,11.344057000000001,0.440726,-7.5968575,0.409273,0
-1.84,16.25086,-10.768858999999999,1.9589509999999999,0.47246054,-0.29397652,-0.82483983,0.099990495,-14.584014000000002,-5.3995414,-0.13453501,1.4476434,-1.2324197000000001,-0.21131337,20.99999994288427,6.0,-6.0,-4.188852441164218,12.59667,2.6198240000000004,-6.8781314,-0.33779886,0
-1.83,16.104001999999998,-10.822372999999999,1.9575791,0.4677655,-0.30071282,-0.825926,0.09280829,-14.786745999999999,-5.3030376,-0.14011629999999997,1.8157641,-1.6345762,-0.37591493,20.99999994288427,6.0,-6.0,-4.188852441164218,12.59667,2.6198240000000004,-6.8781314,-0.33779886,0
-1.82,15.955148000000001,-10.874908999999999,1.9561429,0.46177375,-0.3087152,-0.8273389000000001,0.08348760000000001,-14.98271,-5.203511,-0.14736053,2.1786234,-2.0263147,-0.5371085999999999,20.99999994288427,6.0,-6.0,-4.188852441164218,12.59667,2.6198240000000004,-6.8781314,-0.33779886,0
-1.81,15.804371,-10.926431,1.9546265999999999,0.45447250000000006,-0.31792924,-0.828965,0.0720596,-15.171339000000001,-5.1001325,-0.1561165,2.5359666,-2.4081740000000003,-0.69496495,20.99999994288427,6.0,-6.0,-4.188852441164218,12.59667,2.6198240000000004,-6.8781314,-0.33779886,0
-1.8,15.651748000000001,-10.976896,1.9530157,0.44583926,-0.32829183,-0.83067614,0.058556385,-15.352029000000002,-4.9922037,-0.16626923,2.8876009999999996,-2.7806330000000004,-0.8495531,21.0,6.0,-6.0,-4.011232095651331,14.153142,3.7622644999999997,-7.520461,-0.07996097,0
-1.79,15.497370000000002,-11.026263,1.9512922,0.4357884,-0.33979368,-0.83233505,0.04297687,-15.522302999999999,-4.880362,-0.17865987,3.258178,-3.1689154999999998,-0.9944405000000001,21.0,6.0,-6.0,-4.011232095651331,14.153142,3.7622644999999997,-7.520461,-0.07996097,0
-1.7799999999999998,15.341334,-11.074485000000001,1.9494381,0.4242322,-0.35240412,-0.8337844999999999,0.02532969,-15.683268,-4.763079,-0.19235782,3.6199157,-3.5457132000000007,-1.1366,21.0,6.0,-6.0,-4.011232095651331,14.153142,3.7622644999999997,-7.520461,-0.07996097,0
-1.77,15.18374,-11.121506,1.9474406000000002,0.41113532,-0.3660145,-0.8348466,0.005666649,-15.834185999999999,-4.64005,-0.20734066,3.9730425000000005,-3.9116583,-1.2760625,21.0,6.0,-6.0,-4.011232095651331,14.153142,3.7622644999999997,-7.520461,-0.07996097,0
-1.7599999999999998,15.024682,-11.16726,1.9452909,0.39650443,-0.38046378,-0.8353313,-0.015907023,-15.976134,-4.509416000000001,-0.22253206,4.2885056,-4.23797,-1.4102780000000001,21.0,6.0,-6.0,-4.011232095651331,14.807079000000002,4.651281,-8.025484,-0.8043589,0
-1.75,14.864248000000002,-11.211664,1.9429913,0.38046733,-0.3954778,-0.83505005,-0.039157823,-16.10918,-4.369969,-0.23732270000000003,4.554785,-4.513380000000001,-1.5379076,21.0,6.0,-6.0,-4.011232095651331,14.807079000000002,4.651281,-8.025484,-0.8043589,0
-1.7399999999999998,14.702532999999999,-11.254629,1.9405453000000001,0.36315855,-0.41079906,-0.83383626,-0.063852094,-16.23216,-4.221743599999999,-0.25181693,4.779558,-4.7458205,-1.6592743000000003,21.0,6.0,-6.0,-4.011232095651331,14.807079000000002,4.651281,-8.025484,-0.8043589,0
-1.73,14.539642,-11.29607,1.9379554,0.34469998,-0.42620584,-0.8315471,-0.08977714,-16.343966,-4.0650067000000005,-0.26614672,4.9693027,-4.9419875,-1.7746857,21.0,6.0,-6.0,-4.011232095651331,14.807079000000002,4.651281,-8.025484,-0.8043589,0
-1.72,14.375694000000001,-11.335901,1.9352223999999998,0.3252035,-0.44150730000000005,-0.8280617,-0.116737776,-16.443533,-3.9002364000000003,-0.28046483,5.1294837,-5.1075349999999995,-1.8844337,21.0,6.0,-6.0,-3.826118693861969,16.704649,3.580167,-9.806910499999999,-1.5678922,0
-1.71,14.210816000000001,-11.374048,1.9323456,0.30476296,-0.45654659999999997,-0.8232826999999999,-0.14453477,-16.529884,-3.7280986000000005,-0.29493824,5.2647433,-5.247207,-1.9797126,21.0,6.0,-6.0,-3.826118693861969,16.704649,3.580167,-9.806910499999999,-1.5678922,0
-1.7,14.045144,-11.41044,1.9293224999999998,0.28346586,-0.47118909999999997,-0.81713206,-0.17298308,-16.602133,-3.5494282,-0.30974296,5.378938,-5.3650694,-2.0703163,21.0,6.0,-6.0,-3.826118693861969,16.704649,3.580167,-9.806910499999999,-1.5678922,0
-1.69,13.878824,-11.445018,1.9261490000000001,0.26140457,-0.48531216,-0.80954593,-0.20192838,-16.659485,-3.3652074,-0.3250595,5.4753513,-5.464524,-2.1564744,21.0,6.0,-6.0,-3.826118693861969,16.704649,3.580167,-9.806910499999999,-1.5678922,0
-1.68,13.712007999999999,-11.477729,1.9228189999999998,0.23866658,-0.49881026,-0.80047554,-0.23122600000000001,-16.701276999999997,-3.1765447,-0.34106842,5.5567565000000005,-5.548441400000001,-2.2384042999999996,21.0,5.801214337818017,-5.9999999084898805,-3.666594166381973,18.017457999999998,2.9188306,-9.894799,-0.9724883,0
-1.67,13.544854999999998,-11.508536,1.9193248,0.21534486,-0.5115348,-0.789931,-0.26070604,-16.726965,-2.9846575,-0.35794088,5.594519999999999,-5.6191726,-2.3084857000000003,21.0,5.801214337818017,-5.9999999084898805,-3.666594166381973,18.017457999999998,2.9188306,-9.894799,-0.9724883,0
-1.66,13.377525,-11.5374155,1.9156568999999999,0.19152881,-0.5233665,-0.7779326999999999,-0.2902152,-16.736172,-2.7908623,-0.37581134,5.6264176,-5.678855,-2.3751285,21.0,5.801214337818017,-5.9999999084898805,-3.666594166381973,18.017457999999998,2.9188306,-9.894799,-0.9724883,0
-1.65,13.210189000000002,-11.564352,1.9118047999999999,0.16729398,-0.53426105,-0.7644641,-0.3196443,-16.728662,-2.5965362,-0.39479813,5.6533628,-5.7292128,-2.4385011000000003,21.0,5.801214337818017,-5.9999999084898805,-3.666594166381973,18.017457999999998,2.9188306,-9.894799,-0.9724883,0
-1.64,13.043012,-11.589349,1.9077567,0.14271197,-0.5441803000000001,-0.74951816,-0.34888887,-16.704344,-2.4030932999999997,-0.41501224,5.676126,-5.7717013,-2.498764,20.999998410428237,2.8246235113086087,-5.427399230067789,-0.2571995153456648,18.788598999999998,3.1325032999999998,-9.914767999999999,-1.8742778000000002,0
-1.63,12.876161,-11.612423,1.9035001,0.11822327,-0.5523633000000001,-0.73388934,-0.37725896,-16.663353,-2.2119744,-0.43648770000000003,5.2319345,-5.7169075,-2.3887696,20.999998410428237,2.8246235113086087,-5.427399230067789,-0.2571995153456648,18.788598999999998,3.1325032999999998,-9.914767999999999,-1.8742778000000002,0
-1.6199999999999999,12.709800999999999,-11.633602,1.8990238000000002,0.09419691599999999,-0.55829483,-0.7183517,-0.40423304,-16.606464000000003,-2.0245971999999997,-0.45886895,4.8569736,-5.670843,-2.2841728,20.999998410428237,2.8246235113086087,-5.427399230067789,-0.2571995153456648,18.788598999999998,3.1325032999999998,-9.914767999999999,-1.8742778000000002,0
-1.6099999999999999,12.544085,-11.652931,1.8943211,0.070589475,-0.5622684,-0.70286584,-0.42994258,-16.53465,-1.8422179,-0.48172283,4.5404525,-5.632112,-2.1847086,20.999998410428237,2.8246235113086087,-5.427399230067789,-0.2571995153456648,18.788598999999998,3.1325032999999998,-9.914767999999999,-1.8742778000000002,0
-1.5999999999999999,12.379157000000001,-11.670467,1.8893889,0.04735804,-0.56452525,-0.68738914,-0.45449340000000005,-16.44886,-1.6659302,-0.50468826,4.273261,-5.5995426,-2.0901253,21.0,1.636179348612285,-3.405393116778037,-0.09941532757266827,19.85771,5.070109400000001,-8.972122,-1.7117832,0
-1.5899999999999999,12.215152999999999,-11.6862755,1.8842279,0.025224136,-0.5653275999999999,-0.67213905,-0.47749043,-16.350094,-1.4966449,-0.5274804,3.8628123,-5.2565599999999995,-1.9924403000000002,21.0,1.636179348612285,-3.405393116778037,-0.09941532757266827,19.85771,5.070109400000001,-8.972122,-1.7117832,0
-1.5799999999999998,12.052196,-11.700426,1.8788406000000002,0.004751895999999999,-0.56496453,-0.65735817,-0.4986705,-16.2397,-1.3348538,-0.54992646,3.516247,-4.9672074,-1.8995490000000002,21.0,1.636179348612285,-3.405393116778037,-0.09941532757266827,19.85771,5.070109400000001,-8.972122,-1.7117832,0
-1.5699999999999998,11.890394,-11.712999,1.873231,-0.014312334,-0.5636422,-0.6430265000000001,-0.51828486,-16.119020000000003,-1.1808158000000002,-0.571896,3.2236261,-4.723095,-1.811216,21.0,1.636179348612285,-3.405393116778037,-0.09941532757266827,19.85771,5.070109400000001,-8.972122,-1.7117832,0
-1.5599999999999998,11.729846,-11.724071499999999,1.8674047999999999,-0.03218761,-0.5615206,-0.629112,-0.53654104,-15.989203,-1.0346975,-0.59327525,2.9765553,-4.517144,-1.7272174,21.0,1.636179348612285,-3.405393116778037,-0.09941532757266827,20.319847,4.547086,-8.002212,-1.0450598,0
-1.5499999999999998,11.570639,-11.733722,1.8613681,-0.04906175,-0.55872434,-0.61557704,-0.5536105,-15.851261,-0.8966033999999999,-0.6139673000000001,2.7679465,-4.3433876,-1.6473408,21.0,1.636179348612285,-3.405393116778037,-0.09941532757266827,20.319847,4.547086,-8.002212,-1.0450598,0
-1.5399999999999998,11.4128475,-11.742030999999999,1.8551282,-0.06509482,-0.5553507,-0.60238165,-0.5696351,-15.706078,-0.7665979,-0.63389206,2.5918136,-4.19679,-1.5713836,21.0,1.636179348612285,-3.405393116778037,-0.09941532757266827,20.319847,4.547086,-8.002212,-1.0450598,0
-1.5299999999999998,11.25654,-11.749082000000001,1.848693,-0.08042256,-0.55147576,-0.5894865,-0.5847324,-15.554435,-0.64472014,-0.65298533,2.4431016,-4.0731044,-1.4991537,21.0,1.636179348612285,-3.405393116778037,-0.09941532757266827,20.319847,4.547086,-8.002212,-1.0450598,0
-1.5199999999999998,11.101778,-11.754953,1.8420714,-0.09515949,-0.5471589,-0.5768539,-0.59900004,-15.397029000000002,-0.53099364,-0.6711978,2.3175423,-3.9687483,-1.4304681000000001,21.0,0.5481112419842561,-1.665874936089711,0.4197290171919215,19.29127,2.9644494,-4.554672,-0.65991104,0
-1.5099999999999998,10.948617,-11.759729,1.8352723000000002,-0.10877686,-0.54261845,-0.5648014,-0.6121534000000001,-15.234525,-0.42536694,-0.6884986,2.04215,-3.6092386,-1.3396784,21.0,0.5481112419842561,-1.665874936089711,0.4197290171919215,19.29127,2.9644494,-4.554672,-0.65991104,0
-1.4999999999999998,10.797103,-11.763487,1.8283044999999998,-0.12087329,-0.5380665,-0.55361706,-0.6240047,-15.067727,-0.3274017,-0.7048929,1.8096069,-3.3058665,-1.2533438000000001,21.0,0.5481112419842561,-1.665874936089711,0.4197290171919215,19.29127,2.9644494,-4.554672,-0.65991104,0
-1.4899999999999998,10.647274000000001,-11.766301,1.8211773999999998,-0.13170844,-0.5335281,-0.5432198,-0.63475394,-14.897372,-0.23656376,-0.72039056,1.6132503999999999,-3.0498636,-1.1712457,21.0,0.5481112419842561,-1.665874936089711,0.4197290171919215,19.29127,2.9644494,-4.554672,-0.65991104,0
-1.4799999999999998,10.499166,-11.768241,1.8138995999999998,-0.14150035,-0.5290151999999999,-0.53353226,-0.6445645000000001,-14.724060999999999,-0.1523745,-0.73499626,1.4474523000000001,-2.833831,-1.093176,21.0,-0.3472957387328519,-0.12182192403534654,1.0713025055371832,19.234198000000003,2.2932956,-2.8969388,-0.36598098,0
-1.4699999999999998,10.352802,-11.76937,1.8064803,-0.14991567,-0.5247339,-0.5248165,-0.65325856,-14.548307000000001,-0.07434844,-0.74871767,1.1680323000000001,-2.410614,-0.98696446,21.0,-0.3472957387328519,-0.12182192403534654,1.0713025055371832,19.234198000000003,2.2932956,-2.8969388,-0.36598098,0
-1.4599999999999997,10.208206,-11.769746000000001,1.7989281000000004,-0.15671049,-0.520863,-0.51729685,-0.660717,-14.370666,-0.0016992446,-0.7615903,0.93208396,-2.0534644,-0.88596475,21.0,-0.3472957387328519,-0.12182192403534654,1.0713025055371832,19.234198000000003,2.2932956,-2.8969388,-0.36598098,0
-1.4499999999999997,10.065394,-11.76942,1.7912512999999999,-0.16217157,-0.51736087,-0.51084834,-0.6671368000000001,-14.191610999999998,0.066381946,-0.7736496999999999,0.7328498999999999,-1.7520642,-0.78992105,21.0,-0.3472957387328519,-0.12182192403534654,1.0713025055371832,19.234198000000003,2.2932956,-2.8969388,-0.36598098,0
-1.4399999999999997,9.924377,-11.768433,1.7834578999999997,-0.16653794,-0.5141836,-0.5053565,-0.67267716,-14.011509,0.13059442,-0.78492206,0.5646229,-1.4977082,-0.6985901999999999,21.0,-0.9708179427549852,1.0564572444445617,1.4275266772717816,20.416939000000003,1.4517554,-1.2772393999999998,-0.20214617,0
-1.4299999999999997,9.785166,-11.766819,1.7755556000000001,-0.16962592,-0.51147443,-0.50095594,-0.6772469,-13.830657999999998,0.19158721,-0.79543316,0.32542935,-1.0992556999999998,-0.5942609999999999,21.0,-0.9708179427549852,1.0564572444445617,1.4275266772717816,20.416939000000003,1.4517554,-1.2772393999999998,-0.20214617,0
-1.4199999999999997,9.647766,-11.764608,1.7675518,-0.17130335,-0.5093464,-0.49775183,-0.6807816999999999,-13.649360999999999,0.25019243,-0.8052361,0.1234611,-0.7629864000000001,-0.49505123,21.0,-0.9708179427549852,1.0564572444445617,1.4275266772717816,20.416939000000003,1.4517554,-1.2772393999999998,-0.20214617,0
-1.4099999999999997,9.512178,-11.76182,1.7594531999999998,-0.17182097,-0.5077145000000001,-0.49560429999999994,-0.6834319000000001,-13.467876,0.30721468,-0.8143861,-0.047069232999999995,-0.47919255,-0.40070975,21.0,-0.9708179427549852,1.0564572444445617,1.4275266772717816,20.416939000000003,1.4517554,-1.2772393999999998,-0.20214617,0
-1.3999999999999997,9.378407000000001,-11.758467,1.7512662,-0.17138726,-0.5065014,-0.49438855,-0.6853189000000001,-13.28641,0.36333752,-0.8229303,-0.19104978,-0.23968214,-0.31099766,21.0,-1.3678430259807488,1.7212497045714246,1.588732571046386,21.241518,0.7810792,-0.33221248,-0.4175202,0
-1.3899999999999997,9.246449,-11.754553999999999,1.7429966000000001,-0.16994531,-0.50573856,-0.4941339,-0.68642414,-13.105132000000001,0.41916800000000004,-0.83091205,-0.37451088,0.0661391,-0.21777737,21.0,-1.3678430259807488,1.7212497045714246,1.588732571046386,21.241518,0.7810792,-0.33221248,-0.4175202,0
-1.3799999999999997,9.116303,-11.750081,1.7346496999999999,-0.16745797,-0.5054443000000001,-0.49485454,-0.686733,-12.924228,0.47537988,-0.8383832,-0.5294018,0.32424468,-0.12913139999999998,21.0,-1.3678430259807488,1.7212497045714246,1.588732571046386,21.241518,0.7810792,-0.33221248,-0.4175202,0
-1.3699999999999997,8.987964,-11.745042,1.7262305,-0.16411057,-0.5055350000000001,-0.49642593,-0.6863401,-12.743869,0.5325959,-0.8453958,-0.66016716,0.5420819,-0.044835307000000005,21.0,-1.3678430259807488,1.7212497045714246,1.588732571046386,21.241518,0.7810792,-0.33221248,-0.4175202,0
-1.3599999999999997,8.861424000000001,-11.739424,1.7177432000000001,-0.16005772,-0.505938,-0.49873886,-0.6853227,-12.564211,0.5913385999999999,-0.8519986999999999,-0.77056074,0.7259356,0.035324357,21.0,-1.3678430259807488,1.7212497045714246,1.588732571046386,21.771303,0.4169638,0.68756115,-0.42059842,0
-1.3499999999999996,8.736677,-11.733209,1.7091917,-0.15542838,-0.50659055,-0.50169796,-0.68374455,-12.385392999999999,0.6520451999999999,-0.85823786,-0.86375326,0.8811094,0.111550555,21.0,-1.3678430259807488,1.7212497045714246,1.588732571046386,21.771303,0.4169638,0.68756115,-0.42059842,0
-1.3399999999999996,8.613713,-11.726374,1.7005795,-0.15033022,-0.50743884,-0.50522023,-0.68165874,-12.207548,0.71507967,-0.8641573,-0.9424225,1.0120784999999999,0.18403629999999999,21.0,-1.3678430259807488,1.7212497045714246,1.588732571046386,21.771303,0.4169638,0.68756115,-0.42059842,0
-1.3299999999999996,8.492523,-11.718897,1.6919096000000002,-0.14485309999999998,-0.5084372,-0.50923306,-0.67911,-12.030802,0.7807435,-0.8697985999999999,-1.0088301,1.1226201999999998,0.25296515,21.0,-1.3678430259807488,1.7212497045714246,1.588732571046386,21.771303,0.4169638,0.68756115,-0.42059842,0
-1.3199999999999996,8.373095,-11.710749,1.6831845,-0.13907208,-0.5095469,-0.51367337,-0.67613614,-11.85528,0.8492846,-0.8752013000000001,-1.064885,1.2159213,0.3185116,21.0,-1.4952923994081486,1.8304270901397013,1.5916041200560669,19.405918,0.019334413,1.5865656000000001,-0.3581765,0
-1.3099999999999996,8.255414,-11.7019005,1.6744063000000002,-0.13299294,-0.5107384,-0.51851815,-0.6727538000000001,-11.681102000000001,0.92091066,-0.8804015,-1.1320798,1.3116932,0.38098259999999995,21.0,-1.4952923994081486,1.8304270901397013,1.5916041200560669,19.405918,0.019334413,1.5865656000000001,-0.3581765,0
-1.2999999999999996,8.139467,-11.692319,1.6655769,-0.12662259,-0.5119853,-0.5237436,-0.6689768,-11.508403999999999,0.9958207,-0.8854270000000001,-1.1887963,1.3925294,0.44038814,21.0,-1.4952923994081486,1.8304270901397013,1.5916041200560669,19.405918,0.019334413,1.5865656000000001,-0.3581765,0
-1.2899999999999996,8.02524,-11.681971,1.6566982,-0.12002012,-0.51326233,-0.5292972,-0.6648314999999999,-11.337328,1.0741842,-0.89030296,-1.2366674,1.46076,0.49687862,21.0,-1.4952923994081486,1.8304270901397013,1.5916041200560669,19.405918,0.019334413,1.5865656000000001,-0.3581765,0
-1.2799999999999996,7.9127149999999995,-11.670823,1.6477712,-0.11323483,-0.5145483000000001,-0.5351329,-0.6603409,-11.16801,1.1561347,-0.89505404,-1.2770714,1.5183517,0.5505972,21.0,-1.4718111834190677,1.6415294690045108,1.4848906206184884,19.603813,-0.7910351999999999,2.1329333999999998,-0.2541636,0
-1.2699999999999996,7.801873700000001,-11.658836,1.6387973999999998,-0.10634794,-0.51578265,-0.54118884,-0.65557027,-11.000583,1.2417684,-0.8997011999999999,-1.3074938,1.5375111000000001,0.59644324,21.0,-1.4718111834190677,1.6415294690045108,1.4848906206184884,19.603813,-0.7910351999999999,2.1329333999999998,-0.2541636,0
-1.2599999999999996,7.6926966,-11.645974,1.6297776000000002,-0.09942516,-0.5169182,-0.54741305,-0.6505755999999999,-10.835168,1.3311198,-0.9042453000000001,-1.3331695,1.553685,0.6400395999999999,21.0,-1.4718111834190677,1.6415294690045108,1.4848906206184884,19.603813,-0.7910351999999999,2.1329333999999998,-0.2541636,0
-1.2499999999999996,7.5851630000000005,-11.632201,1.6207128,-0.09248328,-0.5179569,-0.5537810999999999,-0.64536303,-10.671880999999999,1.4241959,-0.90868264,-1.3548385,1.5673385,0.6814967,21.0,-1.4718111834190677,1.6415294690045108,1.4848906206184884,19.603813,-0.7910351999999999,2.1329333999999998,-0.2541636,0
-1.2399999999999995,7.479252000000001,-11.617477000000001,1.6116042,-0.085536,-0.51890075,-0.5602712,-0.6399385000000001,-10.510834,1.5209919,-0.91301167,-1.3731261000000001,1.5788652,0.72091943,21.0,-1.345695445354214,1.2860816837889344,1.319628134531537,21.439579000000002,-1.0707053999999998,2.1821444,-0.30261573,0
-1.2299999999999995,7.374939,-11.601768,1.6024528999999998,-0.078696184,-0.51969135,-0.56681335,-0.6343894,-10.352132000000001,1.6214805,-0.9172281999999999,-1.3688563999999999,1.5331815,0.75029826,21.0,-1.345695445354214,1.2860816837889344,1.319628134531537,21.439579000000002,-1.0707053999999998,2.1821444,-0.30261573,0
-1.2199999999999995,7.2722014999999995,-11.585035000000001,1.5932600000000001,-0.07205292,-0.5202862,-0.57335174,-0.6287908,-10.195841999999999,1.7255563999999999,-0.92130476,-1.3652528999999998,1.4946235,0.7782355,21.0,-1.345695445354214,1.2860816837889344,1.319628134531537,21.439579000000002,-1.0707053999999998,2.1821444,-0.30261573,0
-1.2099999999999995,7.1710142999999995,-11.567245,1.5840273,-0.06558413,-0.52070796,-0.5798869000000001,-0.6231312,-10.042022,1.8330984000000001,-0.9252093000000001,-1.362212,1.4620798000000002,0.8048018,21.0,-1.345695445354214,1.2860816837889344,1.319628134531537,21.439579000000002,-1.0707053999999998,2.1821444,-0.30261573,0
-1.1999999999999995,7.071353,-11.548363,1.5747565000000001,-0.05927067,-0.52097565,-0.5864184,-0.6174012,-9.890727,1.9439952,-0.9289148000000002,-1.3596454,1.434612,0.83006454,21.0,-1.1553304325377602,0.9260410970728772,1.078416782281875,21.156538,-2.4462826,3.6008847,-0.61942697,0
-1.1899999999999995,6.9731913,-11.528356,1.5654496999999998,-0.05321217,-0.52106357,-0.5928791999999999,-0.611682,-9.742003,2.0581311999999996,-0.93239546,-1.3277506000000001,1.3553072,0.8422511999999999,21.0,-1.1553304325377602,0.9260410970728772,1.078416782281875,21.156538,-2.4462826,3.6008847,-0.61942697,0
-1.1799999999999995,6.876504,-11.507191,1.5561094,-0.04748485,-0.5209559,-0.59921646,-0.6060438,-9.595851,2.175328,-0.9356123,-1.3008349,1.2883681,0.8538398000000001,21.0,-1.1553304325377602,0.9260410970728772,1.078416782281875,21.156538,-2.4462826,3.6008847,-0.61942697,0
-1.1699999999999995,6.781265299999999,-11.484839,1.5467385,-0.042041607,-0.52067983,-0.6054476,-0.60046434,-9.452254,2.2954044,-0.9385258,-1.2781209999999998,1.2318666999999999,0.8648598,21.0,-1.1553304325377602,0.9260410970728772,1.078416782281875,21.156538,-2.4462826,3.6008847,-0.61942697,0
-1.1599999999999995,6.6874504,-11.461273,1.5373402,-0.03684229,-0.5202578,-0.61158663,-0.59492475,-9.311205000000001,2.4182017000000005,-0.9411018,-1.2589531999999999,1.1841757,0.8753390999999999,21.0,-1.1553304325377602,0.9260410970728772,1.078416782281875,21.331373000000003,-2.3253009999999996,3.9790888,-0.94114876,0
-1.1499999999999995,6.595032700000001,-11.436466000000001,1.5279178999999998,-0.031852685,-0.51970834,-0.61764467,-0.5894089,-9.172699,2.5435803,-0.94331056,-1.2427778,1.1439209,0.8853040999999999,21.0,-1.1553304325377602,0.9260410970728772,1.078416782281875,21.331373000000003,-2.3253009999999996,3.9790888,-0.94114876,0
-1.1399999999999995,6.5039873,-11.410393,1.5184753999999998,-0.027043627999999997,-0.5190469,-0.6236305999999999,-0.58390325,-9.036735,2.6714165000000003,-0.94512624,-1.2291279,1.1099430000000001,0.8947801999999999,21.0,-1.1553304325377602,0.9260410970728772,1.078416782281875,21.331373000000003,-2.3253009999999996,3.9790888,-0.94114876,0
-1.1299999999999994,6.414289,-11.38303,1.5090168,-0.022390265,-0.5182861,-0.62955135,-0.57839644,-8.903316,2.8015995,-0.94652647,-1.2176088,1.0812631000000001,0.9037913000000001,21.0,-1.1553304325377602,0.9260410970728772,1.078416782281875,21.331373000000003,-2.3253009999999996,3.9790888,-0.94114876,0
-1.1199999999999994,6.325912000000001,-11.354353,1.4995463,-0.017871415,-0.5174364,-0.6354125,-0.572879,-8.772447999999999,2.9340286,-0.94749177,-1.2078882,1.0570551000000001,0.91236025,21.0,-0.9251635032938458,0.5548196179994228,0.8483651453593051,21.414548999999997,-1.9950249,3.116622,-0.73506016,0
-1.1099999999999994,6.238830999999999,-11.324342,1.4900686,-0.013601616,-0.5164812,-0.64115256,-0.56743693,-8.64413,3.0686011000000004,-0.9480028,-1.163749,0.97876036,0.90922,21.0,-0.9251635032938458,0.5548196179994228,0.8483651453593051,21.414548999999997,-1.9950249,3.116622,-0.73506016,0
-1.0999999999999994,6.1530213,-11.292974000000001,1.480588,-0.009668912,-0.51541144,-0.64672375,-0.56214327,-8.518298,3.2051557999999996,-0.94803065,-1.1265007,0.9126713,0.9062338,21.0,-0.9251635032938458,0.5548196179994228,0.8483651453593051,21.414548999999997,-1.9950249,3.116622,-0.73506016,0
-1.0899999999999994,6.0684569999999995,-11.260233,1.4711097,-0.0060208812,-0.51424396,-0.65214807,-0.5569729,-8.3948765,3.3435302000000005,-0.94754606,-1.0950678999999999,0.85688514,0.90339416,21.0,-0.9251635032938458,0.5548196179994228,0.8483651453593051,21.414548999999997,-1.9950249,3.116622,-0.73506016,0
-1.0799999999999994,5.9851160000000005,-11.226098,1.461639,-0.0026131643,-0.5129924,-0.65744394,-0.5519044,-8.273804,3.4835839999999996,-0.94652355,-1.0685424,0.8097958000000001,0.9006939,21.0,-0.725270636806653,0.2274850000005299,0.6172479470344642,21.275131,-2.1009881,2.9756436,-0.6925228,0
-1.0699999999999994,5.9029737,-11.190555,1.4521812,0.00047603092,-0.51164913,-0.6625699,-0.5470055,-8.155013,3.6251857000000003,-0.944939,-1.0149493,0.7190254,0.88678515,21.0,-0.725270636806653,0.2274850000005299,0.6172479470344642,21.275131,-2.1009881,2.9756436,-0.6925228,0
-1.0599999999999994,5.822008599999999,-11.153589,1.4427421999999999,0.0031884501000000003,-0.5102109,-0.66749406,-0.5423332,-8.038392,3.7681658,-0.9427612,-0.96972424,0.64240444,0.8735589,21.0,-0.725270636806653,0.2274850000005299,0.6172479470344642,21.275131,-2.1009881,2.9756436,-0.6925228,0
-1.0499999999999994,5.742198999999999,-11.115188,1.4333281999999998,0.005585564,-0.50869286,-0.6722428,-0.5378556999999999,-7.923822400000001,3.9123607000000002,-0.9399596,-0.9315602,0.57772744,0.86098164,21.0,-0.725270636806653,0.2274850000005299,0.6172479470344642,21.275131,-2.1009881,2.9756436,-0.6925228,0
-1.0399999999999994,5.663525,-11.075338,1.4239452,0.007719215,-0.50710773,-0.6768382,-0.5335456000000001,-7.811203,4.0576315,-0.936508,-0.8993546999999998,0.5231323,0.8490215,21.0,-0.5841218633132631,-0.02844412848217344,0.3809957034694765,19.758129999999998,-1.8651366000000003,2.2398567000000003,-0.27705565,0
-1.0299999999999994,5.5859685,-11.034032,1.4146001,0.009548365999999999,-0.5054493,-0.6812557,-0.5294518,-7.700438,4.2038519999999995,-0.9323826,-0.85014015,0.43715420000000005,0.82605535,21.0,-0.5841218633132631,-0.02844412848217344,0.3809957034694765,19.758129999999998,-1.8651366000000003,2.2398567000000003,-0.27705565,0
-1.0199999999999994,5.5095105,-10.99126,1.4052997999999999,0.011044491000000002,-0.5037143,-0.68547595,-0.52561516,-7.5914,4.350876,-0.9275533000000001,-0.8086105,0.36457822,0.80421615,21.0,-0.5841218633132631,-0.02844412848217344,0.3809957034694765,19.758129999999998,-1.8651366000000003,2.2398567000000003,-0.27705565,0
-1.0099999999999993,5.4341345,-10.947013,1.3960515,0.012264644,-0.5019154,-0.68952304,-0.52200294,-7.4839635,4.498562000000001,-0.92199177,-0.7735655,0.3033155,0.7834485999999999,21.0,-0.5841218633132631,-0.02844412848217344,0.3809957034694765,19.758129999999998,-1.8651366000000003,2.2398567000000003,-0.27705565,0
-0.9999999999999991,5.3598256,-10.901287,1.3868625,0.013256792,-0.5000629,-0.6934173,-0.5185867999999999,-7.3780193,4.646793,-0.9156741,-0.74399215,0.2516022,0.76370007,21.0,-0.3426398375753889,-0.13398533766631915,0.18481419757106096,19.957826999999998,-2.5120957,2.3592477,-0.18646207,0
-0.9899999999999991,5.286569,-10.854076,1.3777406,0.01399402,-0.4982101,-0.6971159,-0.5153821,-7.2734666,4.795466,-0.90858465,-0.68136793,0.19151388,0.735294,21.0,-0.3426398375753889,-0.13398533766631915,0.18481419757106096,19.957826999999998,-2.5120957,2.3592477,-0.18646207,0
-0.9799999999999991,5.2143517,-10.805377,1.3686935,0.014458759,-0.49640065,-0.70058525,-0.51240224,-7.17017,4.944476,-0.9007338,-0.6285166999999999,0.14078888,0.70828176,21.0,-0.3426398375753889,-0.13398533766631915,0.18481419757106096,19.957826999999998,-2.5120957,2.3592477,-0.18646207,0
-0.9699999999999993,5.143162,-10.755186,1.3597285,0.014700521000000001,-0.49462860000000003,-0.70385367,-0.5096222,-7.0679965,5.0937295,-0.8921388000000001,-0.5839129,0.09796831,0.682595,21.0,-0.3426398375753889,-0.13398533766631915,0.18481419757106096,19.957826999999998,-2.5120957,2.3592477,-0.18646207,0
-0.9599999999999993,5.0729885,-10.703501,1.3508531000000001,0.014760745,-0.49288859999999995,-0.70694524,-0.50702035,-6.9668339999999995,5.2431483,-0.8828144,-0.54626936,0.061820757000000004,0.6581688,21.0,-0.3426398375753889,-0.13398533766631915,0.18481419757106096,19.673063,-2.9068093,2.3154347,0.013251927,0
-0.9499999999999993,5.0038222999999995,-10.650319999999999,1.3420746000000001,0.014674069,-0.4911758,-0.70988053,-0.50457793,-6.866586,5.392666999999999,-0.87277365,-0.51449996,0.031306222,0.63494116,21.0,-0.3426398375753889,-0.13398533766631915,0.18481419757106096,19.673063,-2.9068093,2.3154347,0.013251927,0
-0.9399999999999993,4.9356545999999994,-10.595644,1.3334001,0.014469408000000001,-0.489486,-0.71267706,-0.50227857,-6.767171,5.542229,-0.86202794,-0.48768770000000006,0.005547254000000001,0.6128533,21.0,-0.3426398375753889,-0.13398533766631915,0.18481419757106096,19.673063,-2.9068093,2.3154347,0.013251927,0
-0.9299999999999993,4.8684764000000005,-10.539473,1.3248364,0.014170861000000002,-0.48781549999999996,-0.7153499,-0.50010806,-6.668517,5.691789,-0.85058725,-0.46505928,-0.01619731,0.5918493,21.0,-0.3426398375753889,-0.13398533766631915,0.18481419757106096,19.673063,-2.9068093,2.3154347,0.013251927,0
-0.9199999999999993,4.802281400000001,-10.481806,1.3163906,0.013798471999999999,-0.48616102,-0.7179121,-0.498054,-6.5705667000000005,5.841307,-0.83846045,-0.44596142,-0.034553363999999996,0.57187605,21.0,-0.13081006667122044,-0.24505914714051755,0.04864817327851943,19.49703,-2.8598578,1.7309866000000003,-0.050079737,0
-0.9099999999999993,4.7370625,-10.422645,1.3080693,0.013302962,-0.48455846,-0.7203258000000001,-0.49614042,-6.473260400000001,5.990746499999999,-0.8256585,-0.3968026,-0.06735667,0.5462011,21.0,-0.13081006667122044,-0.24505914714051755,0.04864817327851943,19.49703,-2.8598578,1.7309866000000003,-0.050079737,0
-0.8999999999999992,4.672814,-10.361991,1.2998796000000001,0.012647086,-0.4830366,-0.72256154,-0.49438742,-6.376503,6.140061,-0.8122105,-0.35531294,-0.09504873,0.5217861,21.0,-0.13081006667122044,-0.24505914714051755,0.04864817327851943,19.49703,-2.8598578,1.7309866000000003,-0.050079737,0
-0.8899999999999992,4.609531,-10.299845,1.2918273,0.011862195,-0.48158324,-0.7246404000000001,-0.49277937,-6.280198599999999,6.289208,-0.79814804,-0.32029578,-0.11842602,0.4985691,21.0,-0.13081006667122044,-0.24505914714051755,0.04864817327851943,19.49703,-2.8598578,1.7309866000000003,-0.050079737,0
-0.8799999999999992,4.547209,-10.236208,1.2839186000000002,0.01097442,-0.48018786,-0.7265805999999999,-0.49130255,-6.184264,6.438151,-0.7834983,-0.29074124,-0.13816045,0.47649133,21.0,0.1905885842157095,-0.3851710999302724,0.009361862533640759,18.272598000000002,-3.4403796000000004,1.2700223,0.11419472,0
-0.8699999999999992,4.485844,-10.171083,1.2761592,0.009903947,-0.47890747,-0.7283341999999999,-0.48997676,-6.0886190000000004,6.586856,-0.7682903,-0.21566868,-0.17665523,0.45356914,21.0,0.1905885842157095,-0.3851710999302724,0.009361862533640759,18.272598000000002,-3.4403796000000004,1.2700223,0.11419472,0
-0.8599999999999992,4.425435500000001,-10.104472,1.2685544,0.00858876,-0.47778729999999997,-0.7298642,-0.48881720000000006,-5.9931297,6.735278999999999,-0.7525821999999999,-0.15230632,-0.20915212,0.43177179,21.0,0.1905885842157095,-0.3851710999302724,0.009361862533640759,18.272598000000002,-3.4403796000000004,1.2700223,0.11419472,0
-0.8499999999999992,4.3659816,-10.036378,1.261109,0.0070727294999999996,-0.47680277,-0.7311996000000001,-0.487806,-5.8976593,6.883377,-0.7364353,-0.098827645,-0.23658586,0.41104397,21.0,0.1905885842157095,-0.3851710999302724,0.009361862533640759,18.272598000000002,-3.4403796000000004,1.2700223,0.11419472,0
-0.8399999999999992,4.3074827,-9.9668045,1.2538271,0.005392579399999999,-0.47593302,-0.7323651,-0.48692772,-5.8020926,7.0311136,-0.71990216,-0.053690337000000005,-0.25974464,0.39133328,21.0,0.3349011388640808,-0.4676113259686424,-0.0577707303165126,16.757832999999998,-3.2856059999999996,1.3685641000000002,0.74281466,0
-0.8299999999999992,4.2499404,-9.895756,1.2467122,0.0035307005,-0.47518649999999996,-0.73335,-0.48619103,-5.7063265,7.178458,-0.7030305,0.006914400500000001,-0.2921459,0.36929563,21.0,0.3349011388640808,-0.4676113259686424,-0.0577707303165126,16.757832999999998,-3.2856059999999996,1.3685641000000002,0.74281466,0
-0.8199999999999992,4.193357,-9.823236,1.2397676000000002,0.001475028,-0.47456887,-0.7341466,-0.4856023,-5.6102433,7.325373,-0.6858747,0.058065995999999995,-0.31949824,0.34833938,21.0,0.3349011388640808,-0.4676113259686424,-0.0577707303165126,16.757832999999998,-3.2856059999999996,1.3685641000000002,0.74281466,0
-0.8099999999999992,4.137737,-9.74925,1.2329956,-0.000738783,-0.47406006,-0.7347779000000001,-0.48514584,-5.5137324,7.4718246,-0.6684865,0.10123915,-0.3425878,0.32841143,21.0,0.3349011388640808,-0.4676113259686424,-0.0577707303165126,16.757832999999998,-3.2856059999999996,1.3685641000000002,0.74281466,0
-0.7999999999999992,4.083084599999999,-9.673801,1.2263986,-0.0030809082,-0.47364290000000003,-0.7352635999999999,-0.48480812,-5.4167013,7.617783,-0.6509107,0.13767839999999998,-0.36207885,0.30946133,20.99999987740373,-0.22220198245974887,-0.12122022812482253,-0.19837777698448286,16.853302,-3.2569385,2.5247986,0.9548668,0
-0.7899999999999991,4.029405000000001,-9.596896000000001,1.2199781,-0.005308203399999999,-0.47320625,-0.73571813,-0.48452553,-5.319093,7.7632318,-0.6331777,0.081542425,-0.32452995,0.28454152,20.99999987740373,-0.22220198245974887,-0.12122022812482253,-0.19837777698448286,16.853302,-3.2569385,2.5247986,0.9548668,0
-0.7799999999999991,3.9767044,-9.51854,1.2137358,-0.0072257845,-0.47266167,-0.7362333000000001,-0.4842496,-5.2209864,7.908199300000001,-0.6152633000000001,0.034163386000000004,-0.29283342,0.26084453,20.99999987740373,-0.22220198245974887,-0.12122022812482253,-0.19837777698448286,16.853302,-3.2569385,2.5247986,0.9548668,0
-0.7699999999999991,3.9249867999999997,-9.438736,1.2076737,-0.00887584,-0.47202626,-0.7367937,-0.4839895,-5.122489,8.052725,-0.5971291999999999,-0.0058250073,-0.26607716,0.23831035,20.99999987740373,-0.22220198245974887,-0.12122022812482253,-0.19837777698448286,16.853302,-3.2569385,2.5247986,0.9548668,0
-0.7599999999999991,3.8742557,-9.357488,1.201794,-0.010294295,-0.47131434,-0.7373865,-0.4837523,-5.023691,8.196841000000001,-0.5787426999999999,-0.03957577,-0.24349163,0.21688193,20.99999987740373,-0.22220198245974887,-0.12122022812482253,-0.19837777698448286,16.338514,-3.8618650000000003,2.3522315,1.2203285,0
-0.7499999999999991,3.8245137000000002,-9.2748,1.1960998,-0.011511763999999999,-0.47053802,-0.73800105,-0.48354352,-4.9246707,8.340578,-0.5600757,-0.06806169,-0.2244266,0.19650501,20.99999987740373,-0.22220198245974887,-0.12122022812482253,-0.19837777698448286,16.338514,-3.8618650000000003,2.3522315,1.2203285,0
-0.7399999999999989,3.7757628,-9.190679,1.1905936000000001,-0.012554371000000002,-0.46970740000000005,-0.73862845,-0.48336715,-4.825491400000001,8.483957,-0.5411044,-0.09210439,-0.20833358,0.17712799,20.99999987740373,-0.22220198245974887,-0.12122022812482253,-0.19837777698448286,16.338514,-3.8618650000000003,2.3522315,1.2203285,0
-0.7299999999999989,3.7280042,-9.1051235,1.1852787,-0.013444436,-0.46883109999999995,-0.73926145,-0.48322615,-4.726207700000001,8.626999,-0.52180856,-0.112396955,-0.19474943,0.15870179999999998,20.99999987740373,-0.22220198245974887,-0.12122022812482253,-0.19837777698448286,16.338514,-3.8618650000000003,2.3522315,1.2203285,0
-0.7199999999999989,3.681239,-9.018139,1.1801584999999999,-0.014201051999999999,-0.46791634,-0.7398942,-0.48312262,-4.626867,8.769719,-0.50217104,-0.12952437,-0.18328297,0.14117981,20.99999956975461,-1.1977924637670545,0.0826534064530953,-0.29285545346740405,13.265357,-4.72978,0.28940722,2.0157797,0
-0.7099999999999989,3.6354667999999997,-8.929729,1.1752366,-0.014586131,-0.46671966,-0.7407,-0.48303396,-4.5275364,8.912133,-0.48215482,-0.2961259,-0.14182167,0.11988159,20.99999956975461,-1.1977924637670545,0.0826534064530953,-0.29285545346740405,13.265357,-4.72978,0.28940722,2.0157797,0
-0.6999999999999991,3.5906870000000004,-8.839897,1.1705173,-0.014411257,-0.46504754,-0.7418137,-0.48294282,-4.428446,9.054266,-0.46159914,-0.43674466,-0.1068202,0.09962846,20.99999956975461,-1.1977924637670545,0.0826534064530953,-0.29285545346740405,13.265357,-4.72978,0.28940722,2.0157797,0
-0.6899999999999991,3.546896,-8.748644,1.1660072,-0.013758564,-0.4629723,-0.7431789000000001,-0.48285678,-4.3298483,9.196139,-0.44032466,-0.5554325,-0.0772728,0.080369174,20.99999956975461,-1.1977924637670545,0.0826534064530953,-0.29285545346740405,13.265357,-4.72978,0.28940722,2.0157797,0
-0.679999999999999,3.5040877,-8.655974,1.161714,-0.01269766,-0.46055457,-0.7447474000000001,-0.48278126,-4.2319593,9.3377695,-0.41818175,-0.65561014,-0.05232979,0.062054932,20.999997576212948,-2.7299424410882427,0.35327538733941244,-0.20612939833425029,14.079101999999999,-5.252547,-0.051559467000000005,2.3199427000000004,0
-0.669999999999999,3.4622536,-8.56189,1.1576471000000002,-0.0109157795,-0.45743957,-0.74676555,-0.48266894,-4.135008999999999,9.479168,-0.39501083,-0.9791036,0.010919212,0.048895065,20.999997576212948,-2.7299424410882427,0.35327538733941244,-0.20612939833425029,14.079101999999999,-5.252547,-0.051559467000000005,2.3199427000000004,0
-0.659999999999999,3.4213824,-8.4663925,1.1538184999999999,-0.008168815,-0.45334348,-0.7494185,-0.48247597,-4.0394597,9.620344000000001,-0.3704765,-1.2521472,0.06431083,0.036380943,20.999997576212948,-2.7299424410882427,0.35327538733941244,-0.20612939833425029,14.079101999999999,-5.252547,-0.051559467000000005,2.3199427000000004,0
-0.649999999999999,3.3814578,-8.369485000000001,1.1502435,-0.004603864,-0.44840735,-0.752584,-0.48220867,-3.9458032,9.761294,-0.34423578,-1.4826087,0.10938060000000001,0.024480905,20.999997576212948,-2.7299424410882427,0.35327538733941244,-0.20612939833425029,14.079101999999999,-5.252547,-0.051559467000000005,2.3199427000000004,0
-0.639999999999999,3.3424584999999998,-8.271169,1.1469407,-0.00034545919999999996,-0.442749,-0.75615627,-0.48187035,-3.8544629999999995,9.902001,-0.31601265,-1.6771291000000002,0.14742512,0.013164788,20.134748751092673,-4.26358299987933,0.4195294350248233,0.1502008661040376,15.040729,-5.5373573,0.5628946,2.0842168,0
-0.629999999999999,3.3043407999999994,-8.171475,1.1439044,0.0047971504,-0.4360134,-0.76033354,-0.48141494,-3.7695019999999997,10.03664,-0.29084970000000004,-2.0804863,0.18984695,0.01988919,20.134748751092673,-4.26358299987933,0.4195294350248233,0.1502008661040376,15.040729,-5.5373573,0.5628946,2.0842168,0
-0.619999999999999,3.2670574,-8.070436500000001,1.1411322,0.010966446000000001,-0.42791378,-0.7652518,-0.48078823,-3.6877437000000004,10.170916,-0.26315236,-2.4209406,0.22565126,0.026283617999999998,20.134748751092673,-4.26358299987933,0.4195294350248233,0.1502008661040376,15.040729,-5.5373573,0.5628946,2.0842168,0
-0.6099999999999992,3.2305727,-7.968058,1.1386513999999999,0.017999675,-0.41863236,-0.77074057,-0.47997916,-3.6097862999999997,10.304701,-0.23255520000000002,-2.7083009999999996,0.2558708,0.032364264,20.134748751092673,-4.26358299987933,0.4195294350248233,0.1502008661040376,15.040729,-5.5373573,0.5628946,2.0842168,0
-0.5999999999999992,3.1948462,-7.864345,1.136492,0.025758674,-0.40832227,-0.7766523,-0.47897673,-3.5361571000000005,10.437849,-0.19878908,-2.9508482999999996,0.28137717,0.038146547999999995,18.935136079765503,-4.7101616613003285,0.4945625904498486,1.245160325567063,16.794628,-5.8829709999999995,0.75844,2.8473485,0
-0.5899999999999992,3.159812,-7.759342999999999,1.1346469,0.03417982,-0.3969914,-0.7829946,-0.47764736,-3.4714346,10.562306,-0.16971758,-3.2252252,0.31449255,0.097375065,18.935136079765503,-4.7101616613003285,0.4945625904498486,1.245160325567063,16.794628,-5.8829709999999995,0.75844,2.8473485,0
-0.5799999999999992,3.1254003,-7.6531020000000005,1.1331091,0.043199327,-0.38465106,-0.7897656,-0.47586320000000004,-3.4117045,10.685821,-0.13732907,-3.4568144999999997,0.34243315,0.15369722,18.935136079765503,-4.7101616613003285,0.4945625904498486,1.245160325567063,16.794628,-5.8829709999999995,0.75844,2.8473485,0
-0.5699999999999992,3.0915593999999995,-7.545631,1.1319121,0.052708477000000004,-0.37142658,-0.79683334,-0.47362322,-3.3574085,10.808183999999999,-0.10152709,-3.6522883999999998,0.36601093,0.20725565,18.935136079765503,-4.7101616613003285,0.4945625904498486,1.245160325567063,16.794628,-5.8829709999999995,0.75844,2.8473485,0
-0.5599999999999992,3.0582325,-7.436942999999999,1.1310904,0.06261503,-0.35742566,-0.80408424,-0.4709278,-3.3089322999999995,10.929166,-0.062282935,-3.8172786,0.3859097,0.25818592,18.935136079765503,-4.7101616613003285,0.4945625904498486,1.245160325567063,18.022076000000002,-6.0107254999999995,0.63262033,3.1476164,0
-0.5499999999999992,3.0253598999999998,-7.327053500000001,1.1306782,0.07284062,-0.34274134,-0.8114209,-0.46777868,-3.266612,11.048524,-0.01962659,-3.9565384,0.402706,0.30661705,18.935136079765503,-4.7101616613003285,0.4945625904498486,1.245160325567063,18.022076000000002,-6.0107254999999995,0.63262033,3.1476164,0
-0.5399999999999991,2.9928782000000003,-7.215978999999999,1.1307094,0.08331860599999999,-0.32745463,-0.81875974,-0.4641791,-3.230737,11.166001,0.026361335,-4.074081,0.41688549999999996,0.35267165,18.935136079765503,-4.7101616613003285,0.4945625904498486,1.245160325567063,18.022076000000002,-6.0107254999999995,0.63262033,3.1476164,0
-0.5299999999999991,2.960722,-7.1037407,1.1312166000000001,0.09399222,-0.31163615,-0.8260290000000001,-0.46013343,-3.2015536,11.281334,0.07555666,-4.173292,0.4288575,0.39646634,18.935136079765503,-4.7101616613003285,0.4945625904498486,1.245160325567063,18.022076000000002,-6.0107254999999995,0.63262033,3.1476164,0
-0.5199999999999991,2.9288232000000005,-6.990361,1.1322311999999999,0.10481302,-0.29534802,-0.8331671999999999,-0.45564732,-3.1792675999999997,11.39425,0.12779781,-4.257031400000001,0.43896723,0.438112,17.779670509784157,-5.118484957125312,0.4480072210421758,1.4387810745927343,19.2506,-6.143956,-0.5689423000000001,3.0688037999999995,0
-0.5099999999999991,2.8971071,-6.8758993,1.1337358999999998,0.11579094,-0.27850187,-0.8401799000000001,-0.45069396,-3.1649861,11.49774,0.17354852,-4.3913894,0.44019833,0.48721509999999996,17.779670509784157,-5.118484957125312,0.4480072210421758,1.4387810745927343,19.2506,-6.143956,-0.5689423000000001,3.0688037999999995,0
-0.4999999999999991,2.8654997000000004,-6.760416,1.1357110000000001,0.12692843,-0.2610298,-0.8470584999999999,-0.44524455,-3.157538,11.598386999999999,0.22180913,-4.504793,0.44124309999999994,0.5339086999999999,17.779670509784157,-5.118484957125312,0.4480072210421758,1.4387810745927343,19.2506,-6.143956,-0.5689423000000001,3.0688037999999995,0
-0.4899999999999989,2.8339322,-6.643942,1.1381801,0.13817695,-0.24301164,-0.8537346,-0.43930393,-3.1570888,11.695871,0.27238,-4.600511,0.44213155,0.578311,17.779670509784157,-5.118484957125312,0.4480072210421758,1.4387810745927343,19.2506,-6.143956,-0.5689423000000001,3.0688037999999995,0
-0.47999999999999887,2.8023336,-6.5265102,1.1411656000000001,0.14949484,-0.22451773,-0.8601496,-0.43287867,-3.1637614,11.789877,0.3250275,-4.681301,0.44288862,0.6205345999999999,16.983712351320552,-5.261886095601619,0.4325317169341676,1.5921100110708342,19.655458,-6.0138664,-1.0346488999999999,2.895753,0
-0.46999999999999886,2.7706351000000002,-6.408178299999999,1.1446528,0.16086137,-0.20556092,-0.8662742,-0.42595264,-3.1770196,11.876047999999999,0.3726609,-4.771856,0.44108862,0.6682100000000001,16.983712351320552,-5.261886095601619,0.4325317169341676,1.5921100110708342,19.655458,-6.0138664,-1.0346488999999999,2.895753,0
-0.45999999999999885,2.7387693,-6.289003,1.1486239999999999,0.17225626,-0.18615706,-0.87207806,-0.4185109,-3.1972237,11.958283,0.42176276,-4.848288,0.43957782,0.7135461,16.983712351320552,-5.261886095601619,0.4325317169341676,1.5921100110708342,19.655458,-6.0138664,-1.0346488999999999,2.895753,0
-0.44999999999999885,2.7066667,-6.1690264,1.1530923,0.18364687,-0.16636929,-0.87751377,-0.41056412,-3.2244031000000004,12.036277,0.4720460999999999,-4.9128003,0.43831116,0.7566575,16.983712351320552,-5.261886095601619,0.4325317169341676,1.5921100110708342,19.655458,-6.0138664,-1.0346488999999999,2.895753,0
-0.43999999999999884,2.6742573,-6.0482926,1.158068,0.19500497,-0.1462539,-0.8825403,-0.40212402,-3.2585487,12.109729,0.52320415,-4.9672513,0.43725035,0.7976534000000001,16.474020259245858,-5.1118126799916785,0.7479845315813042,2.312610876513736,19.34821,-6.2792845,-0.9291744000000001,2.5014484,0
-0.4299999999999988,2.6414777999999997,-5.926858999999999,1.1635357,0.2063811,-0.12598248,-0.88712513,-0.39311895,-3.2983842000000005,12.176304,0.57041377,-4.9898443,0.48545548,0.8719928,16.474020259245858,-5.1118126799916785,0.7479845315813042,2.312610876513736,19.34821,-6.2792845,-0.9291744000000001,2.5014484,0
-0.4199999999999988,2.6082668,-5.8047832999999995,1.1694768999999998,0.21781544,-0.105699375,-0.8912457,-0.38348845,-3.344872,12.238000999999999,0.6178005999999999,-5.0089125999999995,0.52615523,0.94268435,16.474020259245858,-5.1118126799916785,0.7479845315813042,2.312610876513736,19.34821,-6.2792845,-0.9291744000000001,2.5014484,0
-0.4099999999999988,2.5745577999999996,-5.682116000000001,1.1758912000000001,0.22927083,-0.085415676,-0.8948822,-0.37326014,-3.3979209999999997,12.294632,0.6650020999999999,-5.0250053,0.56051946,1.0099069999999999,16.474020259245858,-5.1118126799916785,0.7479845315813042,2.312610876513736,19.34821,-6.2792845,-0.9291744000000001,2.5014484,0
-0.3999999999999988,2.5402862999999996,-5.558909,1.182775,0.24071488,-0.06514319,-0.8980165000000001,-0.3624599,-3.4574087,12.346017,0.7116595,-5.0385865999999995,0.58953565,1.0738311000000003,16.771667316613808,-5.241245641187638,2.5139707601703813,4.898398474523077,18.058159,-5.560671,-0.36361888,1.9941113000000001,0
-0.3899999999999988,2.5053508,-5.435188,1.1902039,0.25254434,-0.04468225,-0.900673,-0.35072932,-3.5305296999999998,12.397089,0.77341133,-5.2207669999999995,0.73854494,1.2472165000000002,16.771667316613808,-5.241245641187638,2.5139707601703813,4.898398474523077,18.058159,-5.560671,-0.36361888,1.9941113000000001,0
-0.3799999999999988,2.4696548,-5.3109910000000005,1.1982312,0.26508066,-0.023932135,-0.9028229999999999,-0.3377397,-3.6096597000000004,12.441252,0.8315218000000001,-5.358268700000001,0.8806296999999998,1.4143769,16.771667316613808,-5.241245641187638,2.5139707601703813,4.898398474523077,18.058159,-5.560671,-0.36361888,1.9941113000000001,0
-0.3699999999999988,2.433137,-5.1863866,1.2068212,0.27822399999999997,-0.00309886,-0.9043667,-0.3235749,-3.6948227999999994,12.478505,0.88582754,-5.4527197,1.0222266,1.5752676,16.771667316613808,-5.241245641187638,2.5139707601703813,4.898398474523077,18.058159,-5.560671,-0.36361888,1.9941113000000001,0
-0.35999999999999877,2.3957384,-5.0614443,1.2159328,0.29189682,0.017629178,-0.90521926,-0.30832059999999994,-3.7857594,12.508785000000001,0.93577796,-5.510066,1.1641858,1.7302653000000001,16.771667316613808,-5.241245641187638,2.5139707601703813,4.898398474523077,17.597998,-5.165476,-0.18922664,2.0649815,0
-0.34999999999999876,2.3574033,-4.9362345,1.2255200000000002,0.30603778,0.038085807,-0.9053106,-0.29206344,-3.882129,12.532092,0.9808566999999999,-5.535454,1.3070948,1.8797162,16.771667316613808,-5.241245641187638,2.5139707601703813,4.898398474523077,17.597998,-5.165476,-0.18922664,2.0649815,0
-0.33999999999999875,2.3180788,-4.8108262999999996,1.2355317,0.32059875,0.058125272,-0.90458345,-0.27489042,-3.9835267,12.548484,1.0205892,-5.533343,1.4513319,2.0239396000000003,16.771667316613808,-5.241245641187638,2.5139707601703813,4.898398474523077,17.597998,-5.165476,-0.18922664,2.0649815,0
-0.32999999999999874,2.2777168999999997,-4.6852884,1.2459120000000001,0.33554232,0.077620625,-0.90299094,-0.25688878,-4.089501,12.558078,1.0545485,-5.507601999999999,1.5971096000000002,2.1632295,16.771667316613808,-5.241245641187638,2.5139707601703813,4.898398474523077,17.597998,-5.165476,-0.18922664,2.0649815,0
-0.31999999999999873,2.2362737999999998,-4.559687599999999,1.2566024,0.35083476,0.096470565,-0.9004968000000001,-0.23814304,-4.1999307,12.56104,1.0827638000000002,-5.4675035,1.7385827,2.297343,15.546192097002507,-4.705693229999914,1.6374219494217657,5.098868756925053,17.169119,-4.3598795,-0.37410882,1.8740621,0
-0.3099999999999987,2.1937351,-4.434089,1.2675141,0.36600098,0.11461815,-0.8972575,-0.21870781,-4.308314299999999,12.557706,1.0986067,-5.3678207,1.703459,2.4330976000000004,15.546192097002507,-4.705693229999914,1.6374219494217657,5.098868756925053,17.169119,-4.3598795,-0.37410882,1.8740621,0
-0.2999999999999987,2.1500967,-4.308554,1.2785541999999999,0.3806872,0.13198382,-0.89341867,-0.19864218,-4.4198904,12.548336,1.1086023,-5.266561,1.6909977999999999,2.5637333,15.546192097002507,-4.705693229999914,1.6374219494217657,5.098868756925053,17.169119,-4.3598795,-0.37410882,1.8740621,0
-0.2899999999999987,2.1053243,-4.183143,1.2896694,0.39496553,0.14857036,-0.888957,-0.17799601,-4.535139599999999,12.532915,1.1136648999999998,-5.179216,1.6823682,2.6881332000000002,15.546192097002507,-4.705693229999914,1.6374219494217657,5.098868756925053,17.169119,-4.3598795,-0.37410882,1.8740621,0
-0.2799999999999987,2.0593824,-4.0579160000000005,1.3008104999999999,0.40886259999999996,0.1644303,-0.8838587,-0.15679908,-4.653688400000001,12.511439999999999,1.1137879,-5.105487,1.6750938000000002,2.8064287,14.058438773745197,-4.05629534894652,0.4085888586026492,5.476408788599109,16.593954,-3.518445,-0.9629376000000001,0.87478536,0
-0.2699999999999989,2.0122936,-3.9329227999999996,1.3118867,0.4219087,0.17947017,-0.8783754999999999,-0.13504864,-4.7641983,12.486377000000001,1.1005825,-4.9520483,1.4670068,2.9364993999999998,14.058438773745197,-4.05629534894652,0.4085888586026492,5.476408788599109,16.593954,-3.518445,-0.9629376000000001,0.87478536,0
-0.2599999999999989,1.9640945,-3.8082068,1.3228046,0.43378457,0.19355977,-0.87272424,-0.11276526,-4.8758550000000005,12.456027,1.0823305,-4.812288,1.3016816,3.0611205000000004,14.058438773745197,-4.05629534894652,0.4085888586026492,5.476408788599109,16.593954,-3.518445,-0.9629376000000001,0.87478536,0
-0.2499999999999989,1.9147718,-3.6838212,1.3335185,0.44467047,0.20674469,-0.8668478000000001,-0.089986995,-4.988862,12.420258,1.0597961,-4.694204,1.1622763999999999,3.1796396000000002,14.058438773745197,-4.05629534894652,0.4085888586026492,5.476408788599109,16.593954,-3.518445,-0.9629376000000001,0.87478536,0
-0.23999999999999888,1.8643143,-3.5598202000000003,1.3439865,0.45469803,0.21908674,-0.8606940999999999,-0.0667413,-5.1027116999999995,12.379108,1.0331489999999999,-4.5945563,1.0446072,3.2923427000000003,12.77452601951226,-3.59546048661596,-1.368712125147706,5.999996587303223,15.768822,-3.0024676,-1.229065,0.33535728,0
-0.22999999999999865,1.8127412,-3.4362473,1.3541533000000001,0.46349009999999996,0.23035912,-0.8545504999999999,-0.04304778,-5.21157,12.334822,0.99943334,-4.379119,0.7273592,3.4193800000000003,12.77452601951226,-3.59546048661596,-1.368712125147706,5.999996587303223,15.768822,-3.0024676,-1.229065,0.33535728,0
-0.21999999999999864,1.7600894,-3.313138,1.3639603999999999,0.47073895,0.24041228,-0.8486745000000001,-0.018882057,-5.318431400000001,12.286386,0.9613493000000001,-4.2143807,0.44243422,3.5422468,12.77452601951226,-3.59546048661596,-1.368712125147706,5.999996587303223,15.768822,-3.0024676,-1.229065,0.33535728,0
-0.20999999999999863,1.7063802,-3.1905334,1.3733674999999999,0.47660217,0.24942504,-0.8429721,0.0058061965,-5.423018,12.233972999999999,0.91953444,-4.0958185,0.18139674,3.6609144000000002,12.77452601951226,-3.59546048661596,-1.368712125147706,5.999996587303223,15.768822,-3.0024676,-1.229065,0.33535728,0
-0.19999999999999862,1.6516381999999998,-3.0684714,1.38234,0.48119676,0.25754794,-0.8373484,0.031058576,-5.5250449999999995,12.177731,0.8745290000000001,-4.014319,-0.057552524,3.7754252,12.927604276709461,-4.006697925393033,-4.077745312337125,5.999999726174082,15.884955999999999,-3.0065470000000003,-2.143082,0.5650106,0
-0.18999999999999884,1.5958416000000002,-2.9470196,1.3908732,0.48395503,0.26477018,-0.83212453,0.057020247,-5.6336403,12.112113,0.8316443000000001,-3.917265,-0.5900011,3.8761134,12.927604276709461,-4.006697925393033,-4.077745312337125,5.999999726174082,15.884955999999999,-3.0065470000000003,-2.143082,0.5650106,0
-0.17999999999999883,1.5389803999999998,-2.826241,1.3989642,0.48439464,0.27109367,-0.8275503000000001,0.08383778,-5.737921,12.043096,0.78621334,-3.8633699999999997,-1.0674569999999999,3.9743597999999998,12.927604276709461,-4.006697925393033,-4.077745312337125,5.999999726174082,15.884955999999999,-3.0065470000000003,-2.143082,0.5650106,0
-0.16999999999999882,1.4810996,-2.7061687,1.4065913,0.48271707,0.27663013,-0.8234208000000001,0.11151834,-5.837448,11.970921,0.7389861999999999,-3.8454367999999994,-1.4980277,4.0702424,12.927604276709461,-4.006697925393033,-4.077745312337125,5.999999726174082,15.884955999999999,-3.0065470000000003,-2.143082,0.5650106,0
-0.1599999999999988,1.4222488000000002,-2.5868328,1.41374,0.47907700000000003,0.28146696,-0.81953907,0.14005552,-5.9318433,11.895852,0.6906180000000001,-3.8573977999999998,-1.8885647,4.163838,12.927604276709461,-4.006697925393033,-4.077745312337125,5.999999726174082,15.485566,-3.2331061,-2.9362662,0.6595258,0
-0.1499999999999988,1.362478,-2.4682636000000002,1.4204036,0.47361693,0.28565490000000004,-0.81571287,0.16940807,-6.021719999999999,11.817347,0.64220434,-3.8796253,-2.2302554,4.2539387,12.927604276709461,-4.006697925393033,-4.077745312337125,5.999999726174082,15.485566,-3.2331061,-2.9362662,0.6595258,0
-0.1399999999999988,1.3018285,-2.3504994,1.4265872,0.4665317,0.28918126,-0.8117503,0.19945452,-6.107487,11.734924000000001,0.59470123,-3.898504,-2.5186412000000002,4.339618700000001,12.927604276709461,-4.006697925393033,-4.077745312337125,5.999999726174082,15.485566,-3.2331061,-2.9362662,0.6595258,0
-0.12999999999999878,1.2403437,-2.2335777,1.4323021,0.45800254,0.29202816,-0.80747926,0.23006256,-6.188734999999999,11.648849,0.5485552,-3.9145434,-2.7620367999999997,4.4210944,12.927604276709461,-4.006697925393033,-4.077745312337125,5.999999726174082,15.485566,-3.2331061,-2.9362662,0.6595258,0
-0.11999999999999877,1.1780707000000001,-2.117534,1.4375641000000001,0.44818205,0.2941861,-0.80275065,0.26110747,-6.2651005,11.559443,0.5041599,-3.9281745000000003,-2.9674592,4.498572,14.399778807533085,-3.6271437655170553,-5.262553928201898,5.999999656028748,15.452107999999999,-4.266446,-2.5028194999999998,0.9692965,0
-0.10999999999999877,1.1150187,-2.0024514,1.442424,0.43686053,0.29540023,-0.79768986,0.29254186,-6.344363700000001,11.456575,0.46824396,-3.8800216,-3.3254247,4.572247,14.399778807533085,-3.6271437655170553,-5.262553928201898,5.999999656028748,15.452107999999999,-4.266446,-2.5028194999999998,0.9692965,0
-0.09999999999999876,1.0512046,-1.8884119,1.446939,0.42388279999999995,0.29545373,-0.79237163,0.32430825,-6.417482,11.350978999999999,0.43521309999999996,-3.8395214,-3.627575,4.6423078,14.399778807533085,-3.6271437655170553,-5.262553928201898,5.999999656028748,15.452107999999999,-4.266446,-2.5028194999999998,0.9692965,0
-0.08999999999999875,0.9866912,-1.7754391,1.4511399999999999,0.40944109999999995,0.29440045,-0.786608,0.3562758,-6.4841633000000005,11.243279,0.40556088,-3.8054626000000003,-3.8826125,4.7089300000000005,14.399778807533085,-3.6271437655170553,-5.262553928201898,5.999999656028748,15.452107999999999,-4.266446,-2.5028194999999998,0.9692965,0
-0.07999999999999874,0.9215441999999999,-1.6635511000000003,1.4550633,0.3936986,0.2922937,-0.78023857,0.38831928,-6.5441837,11.134144000000001,0.37969205,-3.7768254,-4.0978827,4.7722836,15.305629891610687,-2.8848363017691767,-5.895472058091975,5.999999611913832,15.485259,-3.921881,-2.2271252,0.6695904,0
-0.06999999999999873,0.85581386,-1.5527933999999999,1.458772,0.37671754,0.28885370000000005,-0.77331316,0.42027664,-6.600743,11.017374,0.36274847,-3.6366785000000004,-4.3779254000000005,4.832528,15.305629891610687,-2.8848363017691767,-5.895472058091975,5.999999611913832,15.485259,-3.921881,-2.2271252,0.6695904,0
-0.05999999999999872,0.78955424,-1.4432033000000002,1.4623346000000002,0.35857046,0.28386208,-0.7658589,0.4520044,-6.6500416,10.900716000000001,0.35055885,-3.5185134,-4.614347,4.8898163,15.305629891610687,-2.8848363017691767,-5.895472058091975,5.999999611913832,15.485259,-3.921881,-2.2271252,0.6695904,0
-0.04999999999999871,0.72283775,-1.3347756000000002,1.4658004999999998,0.3393987,0.27745518,-0.757721,0.4834090999999999,-6.692147,10.785078,0.34342578,-3.4188855000000005,-4.8139434,4.9442935,15.305629891610687,-2.8848363017691767,-5.895472058091975,5.999999611913832,15.485259,-3.921881,-2.2271252,0.6695904,0
-0.0399999999999987,0.6557356,-1.2274953000000002,1.4692211000000002,0.31932288,0.26975682,-0.74877083,0.5143975000000001,-6.727189999999999,10.671356,0.34154975,-3.3348901,-4.98245,4.9960976,15.017049918722954,-2.024662267610086,-5.7358886551534525,5.999999584384412,15.659557000000001,-3.1312518,-1.8503511000000001,0.84810394,0
