time-since-start [s],throttle_mpc,roll_mpc,pitch_mpc,yaw_mpc,throttle_nw,roll_nw,pitch_nw,yaw_nw,position_x [m],position_y [m],position_z [m],rotation_w [quaternion],rotation_x [quaternion],rotation_y [quaternion],rotation_z [quaternion],velocity_x [m/s],velocity_y [m/s],velocity_z [m/s],omega_x [rad/s],omega_y [rad/s],omega_z [rad/s],network_used
0.0,11.586461978868904,5.999999730361018,-5.999999917004621,-3.939365517118509,10.610323,-1.1152272,-2.3758035,-0.8227217,17.107893,-10.418956,2.5647836,0.062529005,-0.4285124,0.28448647,0.85529804,-10.223792,-4.586938,-0.15919648,1.5559855,0.0016125233,-0.4509335,0
0.01,11.586461978868904,5.999999730361018,-5.999999917004621,-3.939365517118509,13.242548,-2.6895778,-5.0209513,0.6651496,17.00506,-10.46436,2.5631027,0.06843903,-0.42793486,0.29023406,0.8532011,-10.342337,-4.493954,-0.17737453,1.6795453,-0.36515656,-0.57119,0
0.02,11.586461978868904,5.999999730361018,-5.999999917004621,-3.939365517118509,13.242548,-2.6895778,-5.0209513,0.6651496,16.901058,-10.508833,2.5612278,0.0756487,-0.42593175,0.2961442,0.8515622,-10.457173,-4.4004664,-0.19795081,1.8192242,-0.71018595,-0.6887134,0
0.03,11.586461978868904,5.999999730361018,-5.999999917004621,-3.939365517118509,13.242548,-2.6895778,-5.0209513,0.6651496,16.795929,-10.552368,2.5591369,0.084153034,-0.42257136,0.30227134,0.8502846,-10.567912,-4.306309,-0.22053356,1.9718769,-1.0362307,-0.8035809,0
0.04,11.586461978868904,5.999999730361018,-5.999999917004621,-3.939365517118509,8.531816,-2.2805898,-5.042164,0.6561373,16.689716,-10.594957,2.5568116,0.0939419,-0.41790643,0.3086541,0.84927136,-10.674187,-4.211335,-0.24478738,2.1348562,-1.345624,-0.9158666,0
0.05,11.586461978868904,5.999999730361018,-5.999999917004621,-3.939365517118509,8.531816,-2.2805898,-5.042164,0.6561373,16.582462,-10.636592,2.5542367,0.10500028,-0.41197667,0.3153172,0.8484252,-10.775649,-4.115424,-0.27042654,2.3059354,-1.6403426,-1.0256419,0
0.060000000000000005,11.586461978868904,5.999999730361018,-5.999999917004621,-3.939365517118509,8.531816,-2.2805898,-5.042164,0.6561373,16.474218,-10.677262,2.5513992,0.11730833,-0.40481073,0.3222734,0.84764796,-10.871961,-4.0184865,-0.29720932,2.4832423,-1.9220619,-1.1329751,0
0.07,11.586461978868904,5.999999730361018,-5.999999917004621,-3.939365517118509,8.531816,-2.2805898,-5.042164,0.6561373,16.36504,-10.716958,2.5482895,0.13084148,-0.39642835,0.3295248,0.84684044,-10.962799,-3.92047,-0.32493326,2.6652036,-2.192204,-1.237932,0
0.08,13.854376605789481,5.999999855283063,-5.999999950551941,-3.631153898142629,12.560161,-1.8074789,-6.297876,0.17634806,16.254982,-10.755668,2.5448985,0.14557034,-0.38684186,0.33706412,0.84590226,-11.04785,-3.821362,-0.35343128,2.8504977,-2.451975,-1.3405756,0
0.09,13.854376605789481,5.999999855283063,-5.999999950551941,-3.631153898142629,12.560161,-1.8074789,-6.297876,0.17634806,16.144068,-10.793338,2.5412493,0.16163847,-0.3757874,0.34506333,0.8447416,-11.133693,-3.7124205,-0.376532,3.1422057,-2.8067627,-1.4351575,0
0.09999999999999999,13.854376605789481,5.999999855283063,-5.999999950551941,-3.631153898142629,12.560161,-1.8074789,-6.297876,0.17634806,16.032331,-10.829913,2.5373652,0.17916015,-0.3630157,0.35365084,0.8432393,-11.212207,-3.6026175,-0.40038,3.4260578,-3.1439059,-1.5284655,0
0.10999999999999999,13.854376605789481,5.999999855283063,-5.999999950551941,-3.631153898142629,12.560161,-1.8074789,-6.297876,0.17634806,15.91985,-10.865387,2.5332396,0.19805442,-0.34855264,0.36274368,0.84125066,-11.282962,-3.4919965,-0.4248418,3.7021403,-3.4650128,-1.62046,0
0.11999999999999998,13.854376605789481,5.999999855283063,-5.999999950551941,-3.631153898142629,12.560161,-1.8074789,-6.297876,0.17634806,15.806701,-10.899752,2.5288668,0.21823522,-0.33241948,0.37225464,0.83862823,-11.345557,-3.3806913,-0.4498287,3.9705846,-3.7715,-1.7111087,0
0.12999999999999998,18.16641602644031,5.999999899096787,-5.999999963123969,-3.224386343155553,12.119663,-0.9419141,-5.893264,-0.007533226,15.692968,-10.933001,2.5242417,0.23961073,-0.31463507,0.3820923,0.8352227,-11.399624,-3.2689242,-0.4752945,4.231556,-4.0646186,-1.8003856,0
0.13999999999999999,18.16641602644031,5.999999899096787,-5.999999963123969,-3.224386343155553,12.119663,-0.9419141,-5.893264,-0.007533226,15.578671,-10.964969,2.519463,0.26209342,-0.2951253,0.39221504,0.8308884,-11.457984,-3.1243603,-0.48018655,4.5067916,-4.3669677,-1.8702618,0
0.15,18.16641602644031,5.999999899096787,-5.999999963123969,-3.224386343155553,12.119663,-0.9419141,-5.893264,-0.007533226,15.463845,-10.995476,2.5146432,0.28549728,-0.2739471,0.40250537,0.82549006,-11.505542,-2.9768186,-0.48362407,4.7391467,-4.6221256,-1.936709,0
0.16,20.68742264049427,4.647422249084074,-5.9999951958493725,-1.4900017365779128,14.674301,-0.44809464,-5.4903207,-0.24650398,15.348601,-11.024496,2.5097954,0.3095942,-0.25130093,0.4127766,0.8189108,-11.541479,-2.8268933,-0.48569775,4.935306,-4.837455,-1.9998957,0
0.17,20.68742264049427,4.647422249084074,-5.9999951958493725,-1.4900017365779128,14.674301,-0.44809464,-5.4903207,-0.24650398,15.23304,-11.051903,2.5050008,0.3338746,-0.22745363,0.4224853,0.8113562,-11.56842,-2.6543047,-0.47303566,4.890257,-5.018614,-1.9748751,0
0.18000000000000002,20.68742264049427,4.647422249084074,-5.9999951958493725,-1.4900017365779128,14.674301,-0.44809464,-5.4903207,-0.24650398,15.117281,-11.077579,2.5003395,0.35791814,-0.20264648,0.43121645,0.80304515,-11.580983,-2.480952,-0.45901367,4.85227,-5.171536,-1.9510821,0
0.19000000000000003,20.68742264049427,4.647422249084074,-5.9999951958493725,-1.4900017365779128,14.674301,-0.44809464,-5.4903207,-0.24650398,15.00147,-11.101522,2.495825,0.38165215,-0.17701289,0.43899658,0.7939082,-11.578968,-2.3080003,-0.44369575,4.8202386,-5.300622,-1.9284568,0
0.20000000000000004,19.64538899226097,3.422651965318122,-4.6314953430344685,-1.0882251174644881,13.623739,-1.4104751,-4.510824,0.9253879,14.885753,-11.123744,2.4914696,0.4050077,-0.15067206,0.44584915,0.78389114,-11.562288,-2.1366193,-0.42720932,4.793227,-5.4095874,-1.9069417,0
0.21000000000000005,19.64538899226097,3.422651965318122,-4.6314953430344685,-1.0882251174644881,13.623739,-1.4104751,-4.510824,0.9253879,14.7702675,-11.144307,2.487255,0.42757356,-0.12434135,0.45165434,0.773129,-11.532608,-1.9764535,-0.41556057,4.5797763,-5.2878585,-1.8667669,0
0.22000000000000006,19.64538899226097,3.422651965318122,-4.6314953430344685,-1.0882251174644881,13.623739,-1.4104751,-4.510824,0.9253879,14.655146,-11.163284,2.4831607,0.4490519,-0.09861073,0.45637116,0.76180947,-11.4896145,-1.8198341,-0.40319976,4.399577,-5.18517,-1.8285636,0
0.23000000000000007,19.64538899226097,3.422651965318122,-4.6314953430344685,-1.0882251174644881,13.623739,-1.4104751,-4.510824,0.9253879,14.540518,-11.180718,2.4791927,0.46953368,-0.073404014,0.4601203,0.74995947,-11.433967,-1.6676044,-0.39034995,4.24745,-5.098543,-1.792235,0
0.24000000000000007,19.64538899226097,3.422651965318122,-4.6314953430344685,-1.0882251174644881,13.430828,-1.3983568,-2.3407812,0.59186167,14.426507,-11.196654,2.4753547,0.4890927,-0.048655786,0.46300045,0.73759836,-11.366305,-1.520525,-0.37722626,4.1190214,-5.025465,-1.757689,0
0.25000000000000006,19.64538899226097,3.422651965318122,-4.6314953430344685,-1.0882251174644881,13.430828,-1.3983568,-2.3407812,0.59186167,14.31323,-11.211148,2.4716485,0.50778866,-0.024310788,0.46509236,0.7247404,-11.28726,-1.3792862,-0.36403826,4.0106,-4.9638157,-1.7248383,0
0.26000000000000006,19.64538899226097,3.422651965318122,-4.6314953430344685,-1.0882251174644881,13.430828,-1.3983568,-2.3407812,0.59186167,14.200797,-11.224262,2.4680736,0.5256692,-0.00032308558,0.46646202,0.7113963,-11.197449,-1.2445182,-0.3509919,3.919068,-4.911808,-1.6935995,0
0.2700000000000001,19.64538899226097,3.422651965318122,-4.6314953430344685,-1.0882251174644881,13.430828,-1.3983568,-2.3407812,0.59186167,14.089315,-11.236064,2.4646273,0.54277277,0.023344822,0.4671636,0.6975748,-11.097485,-1.116798,-0.33829063,3.841795,-4.867934,-1.6638936,0
0.2800000000000001,18.60948762300817,1.919695350390182,-2.7844458342386886,-0.7010484118042654,13.472231,-1.7325054,-0.114069,0.68898135,13.978881,-11.246625,2.4613056,0.55912966,0.04672288,0.46724156,0.6832833,-10.987974,-0.99665564,-0.32613626,3.776559,-4.830921,-1.6356453,0
0.2900000000000001,18.60948762300817,1.919695350390182,-2.7844458342386886,-0.7010484118042654,13.472231,-1.7325054,-0.114069,0.68898135,13.869555,-11.256054,2.458073,0.5744291,0.069016956,0.46674892,0.6688894,-10.875831,-0.89043254,-0.3204958,3.4874578,-4.511362,-1.5897843,0
0.3000000000000001,18.60948762300817,1.919695350390182,-2.7844458342386886,-0.7010484118042654,13.472231,-1.7325054,-0.114069,0.68898135,13.76139,-11.264459,2.4548926,0.5884796,0.089608304,0.46578425,0.65475714,-10.756207,-0.79183304,-0.31568137,3.243366,-4.241705,-1.5461736,0
0.3100000000000001,18.60948762300817,1.919695350390182,-2.7844458342386886,-0.7010484118042654,13.472231,-1.7325054,-0.114069,0.68898135,13.654454,-11.271915,2.451756,0.60145754,0.10875685,0.46443343,0.64087605,-10.630021,-0.700753,-0.31177396,3.037278,-4.0141563,-1.504703,0
0.3200000000000001,17.395900313396115,-0.2814731517643307,-0.6461278527464525,1.022185048991895,14.457867,-2.6632588,1.7526203,1.0279213,13.54881,-11.2785,2.4486537,0.6135066,0.12668343,0.46276054,0.6272267,-10.49806,-0.61707705,-0.3088315,2.8632782,-3.8221395,-1.4652674,0
0.3300000000000001,17.395900313396115,-0.2814731517643307,-0.6461278527464525,1.022185048991895,14.457867,-2.6632588,1.7526203,1.0279213,13.444467,-11.2843075,2.4455433,0.62434363,0.14259945,0.46077487,0.6144483,-10.370002,-0.5455978,-0.31339654,2.3735955,-3.3261838,-1.3432075,0
0.34000000000000014,17.395900313396115,-0.2814731517643307,-0.6461278527464525,1.022185048991895,14.457867,-2.6632588,1.7526203,1.0279213,13.341423,-11.289433,2.4423833,0.6337927,0.15591545,0.4585275,0.60311645,-10.238147,-0.48025882,-0.31874374,1.9601265,-2.907719,-1.2271371,0
0.35000000000000014,17.395900313396115,-0.2814731517643307,-0.6461278527464525,1.022185048991895,14.457867,-2.6632588,1.7526203,1.0279213,13.239713,-11.293932,2.4391663,0.642093,0.16707058,0.45610365,0.5931047,-10.103319,-0.42036232,-0.32468596,1.6110176,-2.5546288,-1.1167623,0
0.36000000000000015,18.312356823254774,-3.0075538579221353,2.658982392812531,2.200688203519097,16.841822,-4.3358917,3.7363157,1.2470683,13.139363,-11.297856,2.4358878,0.6494332,0.17643322,0.4535599,0.58428663,-9.96617,-0.36528188,-0.33104607,1.3162568,-2.2566938,-1.0118035,0
0.37000000000000016,18.312356823254774,-3.0075538579221353,2.658982392812531,2.200688203519097,16.841822,-4.3358917,3.7363157,1.2470683,13.040431,-11.301239,2.4325686,0.65548277,0.18290004,0.45114106,0.57737446,-9.819956,-0.31166318,-0.33281544,0.6426237,-1.4895831,-0.8541656,0
0.38000000000000017,18.312356823254774,-3.0075538579221353,2.658982392812531,2.200688203519097,16.841822,-4.3358917,3.7363157,1.2470683,12.942967,-11.304101,2.429232,0.66000366,0.18562864,0.44906288,0.57295674,-9.672723,-0.26107767,-0.33449328,0.07382643,-0.84229,-0.7042631,0
0.3900000000000002,18.312356823254774,-3.0075538579221353,2.658982392812531,2.200688203519097,16.841822,-4.3358917,3.7363157,1.2470683,12.846978,-11.306466,2.4258804,0.6632313,0.18524626,0.44729844,0.5707293,-9.525223,-0.21213004,-0.335732,-0.4064324,-0.2960836,-0.5617164,0
0.4000000000000002,20.610827250650885,-4.7916936521903475,5.109803295920724,2.422898750614049,18.08811,-5.5067854,5.052956,-0.040363822,12.752461,-11.308345,2.4225202,0.66533643,0.1822726,0.44580242,0.5704069,-9.378059,-0.16362591,-0.3362383,-0.81191933,0.1648356,-0.42616445,0
0.4100000000000002,20.610827250650885,-4.7916936521903475,5.109803295920724,2.422898750614049,18.08811,-5.5067854,5.052956,-0.040363822,12.659505,-11.309706,2.4192212,0.6661174,0.1761155,0.44476056,0.5722401,-9.213413,-0.108290635,-0.3233892,-1.4324301,0.9360453,-0.28636009,0
0.4200000000000002,20.610827250650885,-4.7916936521903475,5.109803295920724,2.422898750614049,18.08811,-5.5067854,5.052956,-0.040363822,12.568186,-11.310502,2.4160573,0.665381,0.16631676,0.4442928,0.57637703,-9.050541,-0.050583646,-0.30914128,-1.9563183,1.5868711,-0.15341595,0
0.4300000000000002,20.610827250650885,-4.7916936521903475,5.109803295920724,2.422898750614049,18.08811,-5.5067854,5.052956,-0.040363822,12.478484,-11.310703,2.4130437,0.6632351,0.15345082,0.44424853,0.5824216,-8.890259,0.01104809,-0.29327166,-2.3986118,2.1361187,-0.026995448,0
0.4400000000000002,20.610827250650885,-4.7916936521903475,5.109803295920724,2.422898750614049,18.283611,-5.4095554,5.8864636,-1.0143044,12.390369,-11.310263,2.4101977,0.65974927,0.13799883,0.44448555,0.5900166,-8.733346,0.07787661,-0.27566084,-2.772005,2.5996537,0.093221575,0
0.45000000000000023,20.610827250650885,-4.7916936521903475,5.109803295920724,2.422898750614049,18.283611,-5.4095554,5.8864636,-1.0143044,12.303804,-11.309124,2.4075365,0.6549693,0.120367035,0.44487464,0.5988434,-8.580574,0.1509218,-0.25628653,-3.0872192,2.9908624,0.2075395,0
0.46000000000000024,20.610827250650885,-4.7916936521903475,5.109803295920724,2.422898750614049,18.283611,-5.4095554,5.8864636,-1.0143044,12.218741,-11.30722,2.4050777,0.6489272,0.100900926,0.44530147,0.60862046,-8.432712,0.23097646,-0.23521468,-3.3533096,3.3210375,0.3162478,0
0.47000000000000025,20.610827250650885,-4.7916936521903475,5.109803295920724,2.422898750614049,18.283611,-5.4095554,5.8864636,-1.0143044,12.13513,-11.304479,2.4028375,0.641648,0.07989651,0.445667,0.6191002,-8.290531,0.31862813,-0.21258916,-3.5779238,3.599708,0.41962174,0
0.48000000000000026,20.465548239052957,-5.0915642392984655,5.547608618113223,2.237195000835671,19.736502,-4.3115993,5.7653966,-0.80855554,12.052908,-11.300819,2.4008307,0.63315314,0.057609066,0.44588682,0.63006586,-8.154802,0.41427806,-0.18862136,-3.7675197,3.8349142,0.5179231,0
0.49000000000000027,20.465548239052957,-5.0915642392984655,5.547608618113223,2.237195000835671,19.736502,-4.3115993,5.7653966,-0.80855554,11.972003,-11.296166,2.3990648,0.62340367,0.034063004,0.44592386,0.6413729,-8.027205,0.5174414,-0.16444904,-3.974318,4.10172,0.6022883,0
0.5000000000000002,20.465548239052957,-5.0915642392984655,5.547608618113223,2.237195000835671,19.736502,-4.3115993,5.7653966,-0.80855554,11.892336,-11.290441,2.3975444,0.6123628,0.009292847,0.4457351,0.65287465,-7.90761,0.6289672,-0.13953839,-4.148866,4.3269205,0.68251365,0
0.5100000000000002,20.465548239052957,-5.0915642392984655,5.547608618113223,2.237195000835671,19.736502,-4.3115993,5.7653966,-0.80855554,11.813821,-11.283558,2.3962753,0.60005635,-0.01647878,0.44524813,0.6643904,-7.796841,0.7488919,-0.11426863,-4.296188,4.517008,0.7588023,0
0.5200000000000002,19.02104971101582,-4.469301856048771,4.7968949274651465,1.9410534710411471,19.165659,-3.5709279,5.339059,-0.23169896,11.736365,-11.2754345,2.3952587,0.5865119,-0.043055605,0.44440353,0.67576265,-7.695694,0.87709147,-0.08906038,-4.4205265,4.6774592,0.83134747,0
0.5300000000000002,19.02104971101582,-4.469301856048771,4.7968949274651465,1.9410534710411471,19.165659,-3.5709279,5.339059,-0.23169896,11.659838,-11.266035,2.3944488,0.57193553,-0.069931485,0.4431501,0.68674374,-7.6113014,1.0036625,-0.07302923,-4.42831,4.695924,0.8858011,0
0.5400000000000003,19.02104971101582,-4.469301856048771,4.7968949274651465,1.9410534710411471,19.165659,-3.5709279,5.339059,-0.23169896,11.584104,-11.255337,2.3937953,0.55653,-0.09669425,0.44146907,0.697158,-7.5369964,1.1371601,-0.057880193,-4.4348702,4.711517,0.93758255,0
0.5500000000000003,19.02104971101582,-4.469301856048771,4.7968949274651465,1.9410534710411471,19.165659,-3.5709279,5.339059,-0.23169896,11.509061,-11.243271,2.393287,0.54031926,-0.123309,0.43935964,0.7069743,-7.4731526,1.2769978,-0.044008877,-4.4403996,4.7246857,0.9868232,0
0.5600000000000003,16.335071403421914,-3.2349443791922066,3.164095209118216,1.5840204012398205,19.420435,-3.1750917,3.547732,0.031732526,11.434604,-11.229776,2.3929093,0.5233281,-0.14974223,0.43682215,0.71616405,-7.420101,1.4225518,-0.03180133,-4.445059,4.735808,1.0336477,0
0.5700000000000003,16.335071403421914,-3.2349443791922066,3.164095209118216,1.5840204012398205,19.420435,-3.1750917,3.547732,0.031732526,11.360591,-11.214908,2.3925674,0.50598586,-0.17525832,0.43387622,0.7245784,-7.3840027,1.5518713,-0.03690492,-4.256256,4.490752,1.0606546,0
0.5800000000000003,16.335071403421914,-3.2349443791922066,3.164095209118216,1.5840204012398205,19.420435,-3.1750917,3.547732,0.031732526,11.286892,-11.198727,2.392165,0.48868927,-0.19928853,0.4305832,0.7321643,-7.3572216,1.6847796,-0.043934226,-4.096912,4.283902,1.0863364,0
0.5900000000000003,16.335071403421914,-3.2349443791922066,3.164095209118216,1.5840204012398205,19.420435,-3.1750917,3.547732,0.031732526,11.213414,-11.181202,2.3916817,0.4714118,-0.22202906,0.4269946,0.73901916,-7.339509,1.8205692,-0.053018466,-3.9624305,4.1093006,1.1107578,0
0.6000000000000003,14.44013410581767,-1.5935255497980096,1.3113195269914497,1.2427045784740567,16.99554,-2.8921928,3.239773,-0.35464028,11.14007,-11.162308,2.3910968,0.45412695,-0.24364582,0.42314884,0.7452182,-7.330631,1.9586068,-0.064264596,-3.848933,3.96192,1.1339809,0
0.6100000000000003,14.44013410581767,-1.5935255497980096,1.3113195269914497,1.2427045784740567,16.99554,-2.8921928,3.239773,-0.35464028,11.0667715,-11.142106,2.3903394,0.43732664,-0.26345256,0.41923046,0.7507221,-7.3303375,2.082102,-0.08755799,-3.4969108,3.5488079,1.1393158,0
0.6200000000000003,14.44013410581767,-1.5935255497980096,1.3113195269914497,1.2427045784740567,16.99554,-2.8921928,3.239773,-0.35464028,10.99344,-11.120664,2.3893394,0.42144185,-0.2809409,0.41542697,0.75556546,-7.3370194,2.2065556,-0.11275643,-3.199831,3.2000823,1.1443893,0
0.6300000000000003,14.44013410581767,-1.5935255497980096,1.3113195269914497,1.2427045784740567,16.99554,-2.8921928,3.239773,-0.35464028,10.920009,-11.097974,2.3880785,0.40635726,-0.29647735,0.41175848,0.759888,-7.350052,2.3315425,-0.13974321,-2.9491189,2.905708,1.1492136,0
0.6400000000000003,14.44013410581767,-1.5935255497980096,1.3113195269914497,1.2427045784740567,15.807388,-2.3984444,2.687362,-0.5454179,10.846418,-11.074033,2.3865392,0.3919653,-0.3103691,0.4082314,0.7637939,-7.3688946,2.4567294,-0.16840088,-2.7375371,2.6572144,1.1538012,0
0.6500000000000004,14.44013410581767,-1.5935255497980096,1.3113195269914497,1.2427045784740567,15.807388,-2.3984444,2.687362,-0.5454179,10.772614,-11.0488405,2.3847053,0.3781683,-0.32287347,0.4048432,0.76736116,-7.3930836,2.5818539,-0.19861674,-2.5589788,2.4474497,1.1581638,0
0.6600000000000004,14.44013410581767,-1.5935255497980096,1.3113195269914497,1.2427045784740567,15.807388,-2.3984444,2.687362,-0.5454179,10.698541,-11.022397,2.3825617,0.36487886,-0.33420575,0.4015858,0.7706481,-7.42222,2.7067049,-0.23028582,-2.4082897,2.2703779,1.1623123,0
0.6700000000000004,14.44013410581767,-1.5935255497980096,1.3113195269914497,1.2427045784740567,15.807388,-2.3984444,2.687362,-0.5454179,10.624153,-10.994708,2.3800948,0.3520198,-0.3445461,0.39844778,0.7736984,-7.4559627,2.831111,-0.26331228,-2.28112,2.1209035,1.1662571,0
0.6800000000000004,14.620296477437764,-0.08492998169455482,-0.3706239196133623,0.8548861858387875,15.495981,-2.2968678,1.6665384,-0.42287365,10.549406,-10.965777,2.3772914,0.33952352,-0.35404536,0.39541617,0.7765446,-7.4940176,2.9549305,-0.29760978,-2.1737988,1.9947251,1.1700084,0
0.6900000000000004,14.620296477437764,-0.08492998169455482,-0.3706239196133623,0.8548861858387875,15.495981,-2.2968678,1.6665384,-0.42287365,10.474256,-10.935604,2.3741426,0.32785267,-0.36212596,0.39270756,0.7792034,-7.5366035,3.0795882,-0.33229873,-1.8477434,1.6261173,1.1545453,0
0.7000000000000004,14.620296477437764,-0.08492998169455482,-0.3706239196133623,0.8548861858387875,15.495981,-2.2968678,1.6665384,-0.42287365,10.398663,-10.904188,2.370642,0.3173879,-0.36835536,0.39051017,0.7817166,-7.5826697,3.2034996,-0.3679629,-1.5725869,1.3149486,1.1398408,0
0.7100000000000004,14.620296477437764,-0.08492998169455482,-0.3706239196133623,0.8548861858387875,15.495981,-2.2968678,1.6665384,-0.42287365,10.322594,-10.871537,2.3667808,0.30796003,-0.37304077,0.38876656,0.7841311,-7.631627,3.3266757,-0.40437368,-1.340383,1.0522691,1.1258581,0
0.7200000000000004,14.893213409583899,1.1813493705055134,-1.9078445438144047,0.5253298448294009,14.8908825,-1.659141,0.6521894,-0.59177876,10.246023,-10.837657,2.3625526,0.29942122,-0.37643677,0.38742152,0.7864774,-7.68298,3.4491484,-0.44133338,-1.1444259,0.8305234,1.1125613,0
0.7300000000000004,14.893213409583899,1.1813493705055134,-1.9078445438144047,0.5253298448294009,14.8908825,-1.659141,0.6521894,-0.59177876,10.168923,-10.802546,2.3579583,0.29210567,-0.3781373,0.38662615,0.7888006,-7.737262,3.573247,-0.47751787,-0.78140545,0.40375426,1.0837457,0
0.7400000000000004,14.893213409583899,1.1813493705055134,-1.9078445438144047,0.5253298448294009,14.8908825,-1.659141,0.6521894,-0.59177876,10.091273,-10.766193,2.3530016,0.2862765,-0.37783656,0.38650113,0.7911396,-7.7928457,3.6968105,-0.51378614,-0.47505966,0.043486662,1.0563442,0
0.7500000000000004,14.893213409583899,1.1813493705055134,-1.9078445438144047,0.5253298448294009,14.8908825,-1.659141,0.6521894,-0.59177876,10.013063,-10.728609,2.347683,0.28171593,-0.3758597,0.38695207,0.79349446,-7.849076,3.8199854,-0.5498628,-0.21653846,-0.2606408,1.030287,0
0.7600000000000005,15.557645998163995,2.02531120566721,-3.1218335505148724,0.19985234977817892,13.787468,-0.8657148,-0.5323602,-0.6720955,9.934292,-10.689795,2.3420055,0.27823603,-0.3724755,0.38789272,0.7958553,-7.905397,3.9429078,-0.58552223,0.0016254634,-0.5173749,1.0055085,0
0.7700000000000005,15.557645998163995,2.02531120566721,-3.1218335505148724,0.19985234977817892,13.787468,-0.8657148,-0.5323602,-0.6720955,9.854945,-10.649725,2.3359885,0.27602088,-0.36744153,0.38936475,0.79824436,-7.9637976,4.071183,-0.61775273,0.3174607,-0.9233398,0.9659748,0
0.7800000000000005,15.557645998163995,2.02531120566721,-3.1218335505148724,0.19985234977817892,13.787468,-0.8657148,-0.5323602,-0.6720955,9.77502,-10.608372,2.3296535,0.27520734,-0.36057335,0.39139104,0.80066264,-8.021103,4.199483,-0.64907736,0.5839839,-1.26604,0.9283809,0
0.7900000000000005,15.557645998163995,2.02531120566721,-3.1218335505148724,0.19985234977817892,13.787468,-0.8657148,-0.5323602,-0.6720955,9.69453,-10.565735,2.323011,0.27558023,-0.352152,0.39387107,0.8030628,-8.076674,4.327945,-0.67925954,0.80889714,-1.5553327,0.8926318,0
0.8000000000000005,16.542713876807785,2.262457971823196,-3.7430316696745862,-0.13282697144023048,14.295336,-0.7911855,-1.1044457,-0.85299426,9.613494,-10.5218115,2.316073,0.27695498,-0.34241155,0.3967154,0.8053986,-8.129957,4.4566717,-0.7081223,0.9986985,-1.7995394,0.858637,0
0.8100000000000005,16.542713876807785,2.262457971823196,-3.7430316696745862,-0.13282697144023048,14.295336,-0.7911855,-1.1044457,-0.85299426,9.531923,-10.476558,2.308876,0.27933717,-0.33133692,0.39983845,0.8076606,-8.183654,4.5938997,-0.73105377,1.1958842,-2.1025531,0.8099856,0
0.8200000000000005,16.542713876807785,2.262457971823196,-3.7430316696745862,-0.13282697144023048,14.295336,-0.7911855,-1.1044457,-0.85299426,9.449833,-10.429931,2.3014581,0.28272343,-0.3189243,0.40316093,0.80982447,-8.233836,4.731512,-0.7522815,1.3622799,-2.3583379,0.76372147,0
0.8300000000000005,16.542713876807785,2.262457971823196,-3.7430316696745862,-0.13282697144023048,14.295336,-0.7911855,-1.1044457,-0.85299426,9.367261,-10.381926,2.2938366,0.28695437,-0.30536994,0.406618,0.81183,-8.279989,4.869502,-0.77168524,1.5026962,-2.574253,0.7197275,0
0.8400000000000005,16.542713876807785,2.262457971823196,-3.7430316696745862,-0.13282697144023048,14.712427,-0.6000043,-1.0710776,-1.0768856,9.284248,-10.33254,2.2860305,0.29189327,-0.29083967,0.41015336,0.8136244,-8.321661,5.0078254,-0.789198,1.6211914,-2.7565122,0.6778924,0
0.8500000000000005,16.542713876807785,2.262457971823196,-3.7430316696745862,-0.13282697144023048,14.712427,-0.6000043,-1.0710776,-1.0768856,9.200845,-10.281768,2.278059,0.2974227,-0.27547443,0.4137187,0.8151627,-8.358457,5.146403,-0.8047984,1.7211893,-2.9103596,0.63811016,0
0.8600000000000005,16.542713876807785,2.262457971823196,-3.7430316696745862,-0.13282697144023048,14.712427,-0.6000043,-1.0710776,-1.0768856,9.117099,-10.229611,2.2699409,0.30344188,-0.25939453,0.41727272,0.81640726,-8.390035,5.2851253,-0.81850374,1.805579,-3.0402236,0.60028005,0
0.8700000000000006,16.542713876807785,2.262457971823196,-3.7430316696745862,-0.13282697144023048,14.712427,-0.6000043,-1.0710776,-1.0768856,9.033065,-10.176066,2.2616954,0.30986416,-0.24270293,0.42078048,0.81732684,-8.416097,5.423858,-0.83036405,1.876798,-3.149842,0.56430626,0
0.8800000000000006,16.63249989135617,1.870840486296105,-3.8071458654814307,-0.3249904285018366,13.52559,-0.3199564,-0.99431753,-1.0676605,8.948797,-10.121135,2.25334,0.31661502,-0.22548822,0.42421252,0.8178959,-8.436388,5.5624447,-0.8404573,1.9369034,-3.2423708,0.5300978,0
0.8900000000000006,16.63249989135617,1.870840486296105,-3.8071458654814307,-0.3249904285018366,13.52559,-0.3199564,-0.99431753,-1.0676605,8.864357,-10.0648155,2.2448945,0.32362634,-0.20786601,0.42740282,0.81815916,-8.450777,5.701455,-0.84839034,1.9265403,-3.3305035,0.48813838,0
0.9000000000000006,16.63249989135617,1.870840486296105,-3.8071458654814307,-0.3249904285018366,13.52559,-0.3199564,-0.99431753,-1.0676605,8.779803,-10.007109,2.2363777,0.33084667,-0.18993692,0.43021983,0.81815356,-8.459016,5.8399086,-0.8547103,1.9177891,-3.4048884,0.4482379,0
0.9100000000000006,16.63249989135617,1.870840486296105,-3.8071458654814307,-0.3249904285018366,13.52559,-0.3199564,-0.99431753,-1.0676605,8.695198,-9.94802,2.2278056,0.33823776,-0.17175151,0.43268746,0.8178497,-8.461003,5.9775624,-0.85949326,1.9104002,-3.4676697,0.4102954,0
0.9200000000000006,16.917502324597674,0.9540454904928256,-3.353982002126745,-0.44322119914538727,13.7927,-0.62525165,-0.9880824,-0.8106807,8.610604,-9.887561,2.2191927,0.34576526,-0.15335351,0.43482652,0.81722385,-8.456662,6.114174,-0.8628355,1.9041623,-3.5206575,0.3742147,0
0.9300000000000006,16.917502324597674,0.9540454904928256,-3.353982002126745,-0.44322119914538727,13.7927,-0.62525165,-0.9880824,-0.8106807,8.526087,-9.825729,2.2105618,0.35327896,-0.13506368,0.4364184,0.8163887,-8.445782,6.251815,-0.86319417,1.7558945,-3.494747,0.33410287,0
0.9400000000000006,16.917502324597674,0.9540454904928256,-3.353982002126745,-0.44322119914538727,13.7927,-0.62525165,-0.9880824,-0.8106807,8.44171,-9.762529,2.2019334,0.3606716,-0.11714518,0.43730092,0.81545115,-8.428589,6.3878746,-0.8622543,1.6307558,-3.4728625,0.29595938,0
0.9500000000000006,16.917502324597674,0.9540454904928256,-3.353982002126745,-0.44322119914538727,13.7927,-0.62525165,-0.9880824,-0.8106807,8.357536,-9.697977,2.193321,0.36797062,-0.09955415,0.43756658,0.8143843,-8.40528,6.5220985,-0.86006695,1.5251377,-3.4543798,0.25968757,0
0.9600000000000006,16.77051211473109,-0.25420414817458653,-2.579899413291064,-0.39443826967131057,13.613821,-1.4103589,-0.3669758,-0.6602977,8.273624,-9.632093,2.184736,0.375196,-0.08225271,0.4372934,0.8131646,-8.376034,6.654252,-0.85669243,1.4359963,-3.43877,0.22519565,0
0.9700000000000006,16.77051211473109,-0.25420414817458653,-2.579899413291064,-0.39443826967131057,13.613821,-1.4103589,-0.3669758,-0.6602977,8.190033,-9.564906,2.1761863,0.38218683,-0.065640315,0.43627435,0.8119661,-8.341353,6.78299,-0.85307807,1.1723251,-3.3048918,0.19479002,0
0.9800000000000006,16.77051211473109,-0.25420414817458653,-2.579899413291064,-0.39443826967131057,13.613821,-1.4103589,-0.3669758,-0.6602977,8.106815,-9.496443,2.1676784,0.388831,-0.05003551,0.43436104,0.8109483,-8.3014,6.909273,-0.84832495,0.9497838,-3.191876,0.16587642,0
0.9900000000000007,16.77051211473109,-0.25420414817458653,-2.579899413291064,-0.39443826967131057,13.613821,-1.4103589,-0.3669758,-0.6602977,8.024021,-9.426729,2.1592238,0.39520365,-0.035297338,0.4316916,0.81006813,-8.256611,7.0329432,-0.84239453,0.76195663,-3.0964725,0.13838163,0
1.0000000000000007,16.50481244428904,-1.5033691757190937,-1.5013843095012713,-0.22710544629998483,14.115074,-2.0296013,-0.0018729158,-0.48646387,7.9416976,-9.355794,2.1508348,0.40136373,-0.021304756,0.42838064,0.8092856,-8.207358,7.1538653,-0.8352573,0.60342824,-3.015938,0.112236015,0
1.0100000000000007,16.50481244428904,-1.5033691757190937,-1.5013843095012713,-0.22710544629998483,14.115074,-2.0296013,-0.0018729158,-0.48646387,7.859884,-9.283672,2.1425147,0.4071497,-0.008496058,0.424296,0.8087829,-8.154858,7.270062,-0.82856685,0.27482685,-2.7797716,0.09558442,0
1.0200000000000007,16.50481244428904,-1.5033691757190937,-1.5013843095012713,-0.22710544629998483,14.115074,-2.0296013,-0.0018729158,-0.48646387,7.7786126,-9.2104025,2.1342683,0.41244692,0.0027861872,0.4193468,0.8087199,-8.098903,7.3834114,-0.8205531,-0.002520986,-2.5804253,0.07974994,0
1.0300000000000007,16.50481244428904,-1.5033691757190937,-1.5013843095012713,-0.22710544629998483,14.115074,-2.0296013,-0.0018729158,-0.48646387,7.697916,-9.136013,2.126109,0.41735598,0.012768103,0.41367397,0.80902696,-8.040068,7.49391,-0.81109774,-0.23660995,-2.4121592,0.06469246,0
1.0400000000000007,16.50481244428904,-1.5033691757190937,-1.5013843095012713,-0.22710544629998483,14.782659,-2.9733703,0.5915861,-0.020188186,7.6178193,-9.0605345,2.1180515,0.421956,0.021642383,0.4073928,0.8096392,-7.978838,7.601556,-0.8000976,-0.43418756,-2.2701287,0.05037385,0
1.0500000000000007,16.50481244428904,-1.5033691757190937,-1.5013843095012713,-0.22710544629998483,14.782659,-2.9733703,0.5915861,-0.020188186,7.5383453,-8.983992,2.1101122,0.42630917,0.029573046,0.4005983,0.8104978,-7.915624,7.706352,-0.7874658,-0.600949,-2.1502435,0.036757864,0
1.0600000000000007,16.50481244428904,-1.5033691757190937,-1.5013843095012713,-0.22710544629998483,14.782659,-2.9733703,0.5915861,-0.020188186,7.4595118,-8.906416,2.1023078,0.43046436,0.036699586,0.39336902,0.81155044,-7.8507752,7.808299,-0.773132,-0.74170077,-2.0490515,0.023810022,0
1.0700000000000007,16.50481244428904,-1.5033691757190937,-1.5013843095012713,-0.22710544629998483,14.782659,-2.9733703,0.5915861,-0.020188186,7.3813343,-8.827835,2.0946555,0.43446,0.043140583,0.38577017,0.8127512,-7.7845893,7.9073935,-0.75704116,-0.8604997,-1.963638,0.011497526,0
1.0800000000000007,16.401619445838595,-2.375290532885769,-0.5099029856879636,-0.012231836765816332,15.314819,-3.420519,1.5436366,0.21782753,7.303824,-8.748278,2.087173,0.43832636,0.048996806,0.37785608,0.8140601,-7.7173214,8.003631,-0.7391526,-0.9607697,-1.891543,-0.00021080207,0
1.0900000000000007,16.401619445838595,-2.375290532885769,-0.5099029856879636,-0.012231836765816332,15.314819,-3.420519,1.5436366,0.21782753,7.2269883,-8.667775,2.079875,0.44193462,0.053887375,0.3695614,0.81560653,-7.6496525,8.096431,-0.7201659,-1.1813642,-1.6760767,-0.00080068747,0
1.1000000000000008,16.401619445838595,-2.375290532885769,-0.5099029856879636,-0.012231836765816332,15.314819,-3.420519,1.5436366,0.21782753,7.150832,-8.586358,2.072776,0.44518656,0.05751458,0.3608382,0.81749403,-7.58158,8.186474,-0.6992756,-1.3675568,-1.4942119,-0.0013616228,0
1.1100000000000008,16.401619445838595,-2.375290532885769,-0.5099029856879636,-0.012231836765816332,15.314819,-3.420519,1.5436366,0.21782753,7.075357,-8.504055,2.065896,0.44814205,0.060069874,0.35175025,0.8196535,-7.5135307,8.273851,-0.67640066,-1.5247126,-1.3407089,-0.0018950272,0
1.1200000000000008,16.32366359769462,-2.996642604577035,0.48712151448003443,0.20527414908988578,15.473087,-4.342861,2.2079573,0.67023486,7.0005608,-8.420891,2.059255,0.4508482,0.061715465,0.34235004,0.82202387,-7.4458675,8.358634,-0.6514802,-1.6573598,-1.2111444,-0.002402255,0
1.1300000000000008,16.32366359769462,-2.996642604577035,0.48712151448003443,0.20527414908988578,15.473087,-4.342861,2.2079573,0.67023486,6.926436,-8.336893,2.0528703,0.45320025,0.06215734,0.33265495,0.8246735,-7.379248,8.440501,-0.6250617,-1.8662136,-0.94631284,0.007788486,0
1.1400000000000008,16.32366359769462,-2.996642604577035,0.48712151448003443,0.20527414908988578,15.473087,-4.342861,2.2079573,0.67023486,6.852972,-8.252089,2.0467608,0.45511565,0.061169114,0.32268003,0.82765055,-7.3138146,8.520006,-0.5965019,-2.0425,-0.72278327,0.01747916,0
1.1500000000000008,16.32366359769462,-2.996642604577035,0.48712151448003443,0.20527414908988578,15.473087,-4.342861,2.2079573,0.67023486,6.7801547,-8.166501,2.0409477,0.45665592,0.05896907,0.31246108,0.83087647,-7.2500224,8.597298,-0.5657546,-2.191297,-0.534114,0.026694307,0
1.1600000000000008,16.14002489009126,-3.2571499484948356,1.1840703953398677,0.4204871054595548,16.872992,-4.9487705,2.232124,1.3761125,6.7079654,-8.080151,2.0354533,0.4578697,0.055742074,0.30202737,0.8342824,-7.1882606,8.672495,-0.53279704,-2.3168907,-0.3748684,0.03545727,0
1.1700000000000008,16.14002489009126,-3.2571499484948356,1.1840703953398677,0.4204871054595548,16.872992,-4.9487705,2.232124,1.3761125,6.636379,-7.9930625,2.0302918,0.45869547,0.05137196,0.2914422,0.8378666,-7.129552,8.744875,-0.4991273,-2.4635274,-0.13178636,0.054350805,0
1.1800000000000008,16.14002489009126,-3.2571499484948356,1.1840703953398677,0.4204871054595548,16.872992,-4.9487705,2.232124,1.3761125,6.5653653,-7.9052596,2.0254781,0.45908263,0.045774817,0.28075564,0.8416197,-7.0736027,8.815435,-0.463288,-2.5873003,0.073386185,0.07231721,0
1.1900000000000008,16.14002489009126,-3.2571499484948356,1.1840703953398677,0.4204871054595548,16.872992,-4.9487705,2.232124,1.3761125,6.494896,-7.816759,2.0210335,0.45908,0.0391391,0.26997215,0.84547514,-7.020793,8.8843155,-0.42531672,-2.6917737,0.24656194,0.08940199,0
1.2000000000000008,16.04260881189522,-3.135298857036855,1.5990524486752724,0.5771447316040907,17.071302,-5.1355705,3.143344,2.093396,6.4249377,-7.7275777,2.016979,0.45872664,0.03162475,0.25909555,0.8493755,-6.9714513,8.951619,-0.3852712,-2.7799566,0.39273125,0.10564843,0
1.2100000000000009,16.04260881189522,-3.135298857036855,1.5990524486752724,0.5771447316040907,17.071302,-5.1355705,3.143344,2.093396,6.3554525,-7.6377335,2.0133307,0.45799375,0.023253722,0.24824636,0.8532727,-6.9261417,9.017035,-0.34407753,-2.8353937,0.5808098,0.1287849,0
1.2200000000000009,16.04260881189522,-3.135298857036855,1.5990524486752724,0.5771447316040907,17.071302,-5.1355705,3.143344,2.093396,6.2864013,-7.5472417,2.0101037,0.45685947,0.014050987,0.23752114,0.85712606,-6.88484,9.081091,-0.30101913,-2.8821874,0.73955894,0.15078604,0
1.2300000000000009,16.04260881189522,-3.135298857036855,1.5990524486752724,0.5771447316040907,17.071302,-5.1355705,3.143344,2.093396,6.217742,-7.4561157,2.007316,0.45536128,0.0041465154,0.2268909,0.8609,-6.847788,9.143898,-0.25623077,-2.921685,0.8735528,0.17170759,0
1.2400000000000009,16.04260881189522,-3.135298857036855,1.5990524486752724,0.5771447316040907,17.287552,-4.7634478,3.2396383,2.812328,6.1494308,-7.364368,2.0049844,0.4535299,-0.006349014,0.21633165,0.86456364,-6.815196,9.205535,-0.20985544,-2.9550235,0.98665196,0.1916025,0
1.2500000000000009,16.04260881189522,-3.135298857036855,1.5990524486752724,0.5771447316040907,17.287552,-4.7634478,3.2396383,2.812328,6.081422,-7.27201,2.003124,0.4513906,-0.017341249,0.20582372,0.8680908,-6.787243,9.266056,-0.16204327,-2.9831626,1.0821152,0.21052116,0
1.260000000000001,16.04260881189522,-3.135298857036855,1.5990524486752724,0.5771447316040907,17.287552,-4.7634478,3.2396383,2.812328,6.0136695,-7.1790514,2.0017483,0.4489644,-0.028749652,0.19535127,0.8714595,-6.764083,9.325492,-0.11295114,-3.0069127,1.1626928,0.22851148,0
1.270000000000001,16.04260881189522,-3.135298857036855,1.5990524486752724,0.5771447316040907,17.287552,-4.7634478,3.2396383,2.812328,5.9461236,-7.085504,2.000869,0.44626895,-0.040505394,0.1849016,0.8746508,-6.7458453,9.383853,-0.062741436,-3.026958,1.2307061,0.24561903,0
1.280000000000001,15.239444851918824,-2.685114324225407,1.4443693706264307,0.6396774403971279,16.22072,-3.6353002,2.6716027,2.818392,5.878735,-6.9913783,2.0004966,0.44331914,-0.05254957,0.17446469,0.8776492,-6.7326393,9.441136,-0.011581451,-3.0438764,1.2881145,0.26188707,0
1.290000000000001,15.239444851918824,-2.685114324225407,1.4443693706264307,0.6396774403971279,16.22072,-3.6353002,2.6716027,2.818392,5.811451,-6.8966994,2.0006022,0.4401426,-0.06469643,0.16416451,0.8804193,-6.7249465,9.494515,0.032844067,-2.987948,1.3124558,0.28042537,0
1.300000000000001,15.239444851918824,-2.685114324225407,1.4443693706264307,0.6396774403971279,16.22072,-3.6353002,2.6716027,2.818392,5.7442193,-6.8014917,2.0011554,0.43676654,-0.076796405,0.15410188,0.8829435,-6.722093,9.546857,0.077832356,-2.94074,1.3330022,0.29805398,0
1.310000000000001,15.239444851918824,-2.685114324225407,1.4443693706264307,0.6396774403971279,16.22072,-3.6353002,2.6716027,2.818392,5.6769924,-6.7057657,2.00216,0.43320173,-0.08885153,0.14423831,0.8852323,-6.7240396,9.59816,0.12321206,-2.9008934,1.3503457,0.31481752,0
1.320000000000001,14.460955653022035,-2.140356116141975,0.7403795964683284,0.6676761298133342,17.265997,-3.2272062,1.681009,3.1982877,5.6097217,-6.6095324,2.0036201,0.42945728,-0.100863084,0.1345415,0.8872942,-6.7307477,9.648412,0.16881995,-2.86726,1.3649857,0.33075848,0
1.330000000000001,14.460955653022035,-2.140356116141975,0.7403795964683284,0.6676761298133342,17.265997,-3.2272062,1.681009,3.1982877,5.5423636,-6.512814,2.0054998,0.42559907,-0.11248818,0.1250582,0.88914096,-6.7415733,9.695078,0.20715822,-2.7538927,1.2675735,0.34729114,0
1.340000000000001,14.460955653022035,-2.140356116141975,0.7403795964683284,0.6676761298133342,17.265997,-3.2272062,1.681009,3.1982877,5.4748755,-6.4156346,2.007763,0.42168456,-0.12345664,0.11582764,0.8907996,-6.7566776,9.740673,0.24545266,-2.6582055,1.1853523,0.36301252,0
1.350000000000001,14.460955653022035,-2.140356116141975,0.7403795964683284,0.6676761298133342,17.265997,-3.2272062,1.681009,3.1982877,5.407216,-6.3180046,2.0104084,0.41770905,-0.13386713,0.106814094,0.89229417,-6.775858,9.78514,0.28360757,-2.5774417,1.1159531,0.37796247,0
1.360000000000001,13.441184696739203,-1.5520337907878607,-0.4237921802018967,0.6020896755063144,17.172663,-3.3535156,-2.0323043,3.0178323,5.3393455,-6.219936,2.0134344,0.41366827,-0.14380291,0.09798689,0.8936427,-6.798938,9.828429,0.32153732,-2.5092738,1.0573761,0.39217883,0
1.370000000000001,13.441184696739203,-1.5520337907878607,-0.4237921802018967,0.6020896755063144,17.172663,-3.3535156,-2.0323043,3.0178323,5.271234,-6.121455,2.0167902,0.4096463,-0.15282185,0.08933742,0.89490426,-6.8238444,9.8675165,0.3496014,-2.3599393,0.82641107,0.40247926,0
1.380000000000001,13.441184696739203,-1.5520337907878607,-0.4237921802018967,0.6020896755063144,17.172663,-3.3535156,-2.0323043,3.0178323,5.2028575,-6.02259,2.020425,0.4057133,-0.16057959,0.08086055,0.8961427,-6.8518972,9.905348,0.3773883,-2.2339,0.6314614,0.4122742,0
1.390000000000001,13.441184696739203,-1.5520337907878607,-0.4237921802018967,0.6020896755063144,17.172663,-3.3535156,-2.0323043,3.0178323,5.1341863,-5.923353,2.0243368,0.40184656,-0.16727224,0.07253563,0.8973724,-6.882777,9.941813,0.4049167,-2.1275222,0.46691075,0.42158848,0
1.400000000000001,12.423048119185134,-1.0640053207764542,-1.6690226637730592,0.47759037982592933,17.04046,-2.81151,-2.2111447,2.82167,5.065193,-5.823759,2.0285225,0.3980263,-0.17306508,0.06434414,0.89860034,-6.916213,9.976822,0.4322054,-2.037739,0.32801896,0.43044573,0
1.410000000000001,12.423048119185134,-1.0640053207764542,-1.6690226637730592,0.47759037982592933,17.04046,-2.81151,-2.2111447,2.82167,4.9958673,-5.723835,2.0329325,0.39431491,-0.17757314,0.056245066,0.89989954,-6.9492393,10.0077505,0.4498009,-1.8857985,0.016621105,0.43275914,0
1.420000000000001,12.423048119185134,-1.0640053207764542,-1.6690226637730592,0.47759037982592933,17.04046,-2.81151,-2.2111447,2.82167,4.9262023,-5.623609,2.0375178,0.39076102,-0.18049924,0.048206594,0.901333,-6.9840393,10.037113,0.46728432,-1.7575659,-0.24622038,0.43495902,0
1.430000000000001,12.423048119185134,-1.0640053207764542,-1.6690226637730592,0.47759037982592933,17.04046,-2.81151,-2.2111447,2.82167,4.856182,-5.523098,2.0422778,0.3873296,-0.18208945,0.040225036,0.9028845,-7.020267,10.064776,0.48474863,-1.649342,-0.4680773,0.437051,0
1.440000000000001,12.423048119185134,-1.0640053207764542,-1.6690226637730592,0.47759037982592933,16.803133,-2.4894671,-3.4034455,2.7096272,4.7857933,-5.42232,2.047213,0.38399044,-0.18255073,0.032296214,0.9045345,-7.0576267,10.090629,0.502272,-1.5580051,-0.65534014,0.43904027,0
1.450000000000001,12.423048119185134,-1.0640053207764542,-1.6690226637730592,0.47759037982592933,16.803133,-2.4894671,-3.4034455,2.7096272,4.7150264,-5.3212924,2.052324,0.3807178,-0.18205728,0.024415832,0.90626276,-7.0958657,10.114576,0.5199181,-1.4809201,-0.813403,0.44093192,0
1.460000000000001,12.423048119185134,-1.0640053207764542,-1.6690226637730592,0.47759037982592933,16.803133,-2.4894671,-3.4034455,2.7096272,4.6438737,-5.220035,2.0576122,0.37749025,-0.18075581,0.016579697,0.90804887,-7.134768,10.136541,0.5377364,-1.415863,-0.94681937,0.44273078,0
1.470000000000001,12.423048119185134,-1.0640053207764542,-1.6690226637730592,0.47759037982592933,16.803133,-2.4894671,-3.4034455,2.7096272,4.5723295,-5.1185684,2.0630794,0.37428987,-0.17876996,0.008783851,0.9098738,-7.174145,10.156458,0.5557638,-1.3609574,-1.0594323,0.44444135,0
1.480000000000001,11.647687030094197,-0.7084628562691343,-2.5946236238975033,0.35994843016868217,16.386505,-1.9935329,-4.3486023,2.047002,4.50039,-5.0169134,2.068728,0.371102,-0.17620404,0.0010246423,0.91172004,-7.213837,10.1742735,0.57402545,-1.314619,-1.1544856,0.446068,0
1.490000000000001,11.647687030094197,-0.7084628562691343,-2.5946236238975033,0.35994843016868217,16.386505,-1.9935329,-4.3486023,2.047002,4.4280643,-4.9150953,2.0745242,0.36795208,-0.17275526,-0.0067109517,0.9136306,-7.2511964,10.188955,0.5852655,-1.2200278,-1.3790436,0.44184205,0
1.500000000000001,11.647687030094197,-0.7084628562691343,-2.5946236238975033,0.35994843016868217,16.386505,-1.9935329,-4.3486023,2.047002,4.3553658,-4.8131413,2.0804343,0.36485645,-0.16818705,-0.014432182,0.9156329,-7.288467,10.20153,0.5967979,-1.1401992,-1.5685868,0.43782353,0
1.5100000000000011,11.647687030094197,-0.7084628562691343,-2.5946236238975033,0.35994843016868217,16.386505,-1.9935329,-4.3486023,2.047002,4.282296,-4.711072,2.0864613,0.3617921,-0.16266972,-0.022137275,0.9176895,-7.3254113,10.211912,0.6086696,-1.0728288,-1.7285748,0.43400216,0
1.5200000000000011,10.367085462219075,-0.49831673661664994,-3.5426584716699225,0.22151119354309914,14.918644,-1.3377674,-4.323682,1.409885,4.20886,-4.60891,2.0926087,0.35874003,-0.15634695,-0.029824961,0.9197667,-7.361823,10.220031,0.62090856,-1.0159723,-1.8636162,0.43036833,0
1.5300000000000011,10.367085462219075,-0.49831673661664994,-3.5426584716699225,0.22151119354309914,14.918644,-1.3377674,-4.323682,1.409885,4.1350822,-4.5066824,2.0988197,0.35570043,-0.14896,-0.037555087,0.92188764,-7.3935814,10.225183,0.62135845,-0.93518484,-2.125433,0.42011964,0
1.5400000000000011,10.367085462219075,-0.49831673661664994,-3.5426584716699225,0.22151119354309914,14.918644,-1.3377674,-4.323682,1.409885,4.0609913,-4.4044137,2.105037,0.3526678,-0.14030811,-0.04537335,0.9240559,-7.4244514,10.228158,0.6221793,-0.86700976,-2.3464243,0.41037387,0
1.5500000000000012,10.367085462219075,-0.49831673661664994,-3.5426584716699225,0.22151119354309914,14.918644,-1.3377674,-4.323682,1.409885,3.9865968,-4.3021264,2.1112642,0.3496207,-0.13058172,-0.05325982,0.92621607,-7.454194,10.228858,0.6233867,-0.8094776,-2.5329564,0.4011063,0
1.5600000000000012,9.536771290019713,-0.4138279516752581,-4.076024174262899,0.10217416321668692,11.701057,-0.6106347,-4.5031095,0.79761904,3.9119117,-4.199844,2.1175058,0.34654137,-0.119942196,-0.061197527,0.9283194,-7.4826007,10.227201,0.6249728,-0.76092654,-2.6904018,0.3922935,0
1.5700000000000012,9.536771290019713,-0.4138279516752581,-4.076024174262899,0.10217416321668692,11.701057,-0.6106347,-4.5031095,0.79761904,3.8369608,-4.097589,2.1237247,0.343419,-0.108315416,-0.06921583,0.9303437,-7.507327,10.223446,0.6188996,-0.70676833,-2.9064684,0.37805727,0
1.5800000000000012,9.536771290019713,-0.4138279516752581,-4.076024174262899,0.10217416321668692,11.701057,-0.6106347,-4.5031095,0.79761904,3.7617705,-3.9953828,2.1298845,0.3402417,-0.09564917,-0.07733557,0.932258,-7.530448,10.217379,0.6131194,-0.66106665,-3.088843,0.36451963,0
1.5900000000000012,9.536771290019713,-0.4138279516752581,-4.076024174262899,0.10217416321668692,11.701057,-0.6106347,-4.5031095,0.79761904,3.6863582,-3.8932493,2.135988,0.33699554,-0.08210019,-0.085531615,0.9340112,-7.5517735,10.208932,0.6075836,-0.6225004,-3.242779,0.35164624,0
1.6000000000000012,9.142210473895506,-0.5061269001326008,-4.0550368625824404,0.06072391119369362,12.004379,-1.1116436,-4.4505258,0.66176087,3.610742,-3.7912126,2.1420372,0.33366945,-0.0678022,-0.093782246,0.93555945,-7.5711374,10.198052,0.6022244,-0.58995533,-3.372711,0.33940458,0
1.6100000000000012,9.142210473895506,-0.5061269001326008,-4.0550368625824404,0.06072391119369362,12.004379,-1.1116436,-4.4505258,0.66176087,3.5349462,-3.689294,2.1480138,0.33025807,-0.052889198,-0.10210073,0.93686014,-7.587681,10.185253,0.5931171,-0.57688963,-3.479111,0.32572964,0
1.6200000000000012,9.142210473895506,-0.5061269001326008,-4.0550368625824404,0.06072391119369362,12.004379,-1.1116436,-4.4505258,0.66176087,3.4589953,-3.5875158,2.1538997,0.32675904,-0.037474535,-0.11049612,0.93787736,-7.6020894,10.1700535,0.5840032,-0.56586546,-3.5689194,0.31272575,0
1.6300000000000012,9.142210473895506,-0.5061269001326008,-4.0550368625824404,0.06072391119369362,12.004379,-1.1116436,-4.4505258,0.66176087,3.3829117,-3.4859016,2.1596937,0.32316843,-0.021636613,-0.118945025,0.9385868,-7.614266,10.152435,0.57477635,-0.5565632,-3.644723,0.30035996,0
1.6400000000000012,9.142210473895506,-0.5061269001326008,-4.0550368625824404,0.06072391119369362,11.270393,-1.3212324,-4.398859,0.5674612,3.3067179,-3.3844757,2.1653943,0.3194835,-0.0054430827,-0.1274271,0.93896854,-7.624127,10.132391,0.5653223,-0.5487135,-3.7087052,0.28860095,0
1.6500000000000012,9.142210473895506,-0.5061269001326008,-4.0550368625824404,0.06072391119369362,11.270393,-1.3212324,-4.398859,0.5674612,3.230437,-3.2832623,2.1709988,0.31570232,0.0110475095,-0.13592462,0.93900657,-7.631599,10.109924,0.55552006,-0.54208934,-3.7627103,0.27741894,0
1.6600000000000013,9.142210473895506,-0.5061269001326008,-4.0550368625824404,0.06072391119369362,11.270393,-1.3212324,-4.398859,0.5674612,3.154094,-3.1822855,2.176503,0.31182367,0.027784342,-0.14442201,0.938688,-7.6366205,10.085049,0.545244,-0.53649896,-3.8082938,0.26678568,0
1.6700000000000013,9.142210473895506,-0.5061269001326008,-4.0550368625824404,0.06072391119369362,11.270393,-1.3212324,-4.398859,0.5674612,3.0777133,-3.0815697,2.1819015,0.30784696,0.044723146,-0.15290558,0.9380025,-7.6391406,10.057786,0.5343644,-0.53178114,-3.846769,0.25667417,0
1.6800000000000013,8.879186614161895,-0.5565520804770934,-3.24995824423759,0.08501181647567291,10.716124,-0.73541546,-3.7452657,0.19942293,3.0013201,-2.981138,2.1871874,0.30377203,0.061825223,-0.1613632,0.93694234,-7.6391177,10.028164,0.5227491,-0.5277992,-3.8792443,0.24705882,0
1.6900000000000013,8.879186614161895,-0.5565520804770934,-3.24995824423759,0.08501181647567291,10.716124,-0.73541546,-3.7452657,0.19942293,2.9249396,-2.8810098,2.192341,0.29965165,0.078748554,-0.1697065,0.9355245,-7.636604,9.997148,0.507804,-0.53231865,-3.7811055,0.23910713,0
1.7000000000000013,8.879186614161895,-0.5565520804770934,-3.24995824423759,0.08501181647567291,10.716124,-0.73541546,-3.7452657,0.19942293,2.8485966,-2.7812026,2.1973403,0.2955359,0.09522113,-0.17786874,0.9337843,-7.631645,9.963965,0.49190786,-0.5361291,-3.6982713,0.23154563,0
1.7100000000000013,8.879186614161895,-0.5565520804770934,-3.24995824423759,0.08501181647567291,10.716124,-0.73541546,-3.7452657,0.19942293,2.7723153,-2.6817377,2.2021754,0.29142028,0.111305945,-0.18586884,0.93173873,-7.6243076,9.928707,0.4749634,-0.5393417,-3.6283553,0.22435515,0
1.7200000000000013,8.608450774862849,-0.5679877216833721,-2.0847223849113656,0.16728680022460266,9.865356,-0.7535193,-2.9554255,0.2416862,2.6961188,-2.5826354,2.2068355,0.28730017,0.12705573,-0.19372226,0.92940104,-7.6146474,9.8914585,0.45687842,-0.5420503,-3.5693424,0.21751752,0
1.7300000000000013,8.608450774862849,-0.5679877216833721,-2.0847223849113656,0.16728680022460266,9.865356,-0.7535193,-2.9554255,0.2416862,2.6200287,-2.4839091,2.2112968,0.2832554,0.142079,-0.20131502,0.9268502,-7.6030955,9.8535,0.43516925,-0.5461333,-3.3378162,0.21505268,0
1.7400000000000013,8.608450774862849,-0.5679877216833721,-2.0847223849113656,0.16728680022460266,9.865356,-0.7535193,-2.9554255,0.2416862,2.5440645,-2.3855715,2.2155347,0.279357,0.15607142,-0.20856376,0.92417616,-7.5894995,9.813823,0.41224062,-0.5495735,-3.1423967,0.21270879,0
1.7500000000000013,8.608450774862849,-0.5679877216833721,-2.0847223849113656,0.16728680022460266,9.865356,-0.7535193,-2.9554255,0.2416862,2.4682457,-2.2876384,2.2195375,0.2755873,0.16919114,-0.21552072,0.9213988,-7.574008,9.772551,0.38807708,-0.5524723,-2.9774525,0.21047993,0
1.7600000000000013,8.507829634556574,-0.467185691082573,-0.6212851926402297,0.2673343214149412,8.579415,-0.7604958,-1.2466323,0.47126743,2.3925908,-2.1901257,2.2232924,0.2719296,0.1815714,-0.22222926,0.9185311,-7.55675,9.729791,0.36266682,-0.55491495,-2.8382313,0.20836043,1
1.7700000000000014,8.507829634556574,-0.467185691082573,-0.6212851926402297,0.2673343214149412,8.579415,-0.7604958,-1.2466323,0.47126743,2.3171163,-2.093047,2.2267854,0.26842418,0.19298798,-0.22871275,0.91563845,-7.5379095,9.685787,0.3357638,-0.58698696,-2.5900316,0.22126135,1
1.7800000000000014,8.507829634556574,-0.467185691082573,-0.6212851926402297,0.2673343214149412,8.579415,-0.7604958,-1.2466323,0.47126743,2.2418377,-1.9964147,2.2300034,0.26510262,0.2032708,-0.23499618,0.9127856,-7.5176,9.640496,0.3076391,-0.6140567,-2.3805382,0.2335292,1
1.7900000000000014,8.507829634556574,-0.467185691082573,-0.6212851926402297,0.2673343214149412,8.579415,-0.7604958,-1.2466323,0.47126743,2.1667688,-1.9002413,2.232934,0.26193744,0.2125958,-0.24111395,0.9099753,-7.495988,9.594007,0.2783282,-0.63690376,-2.2037148,0.24519506,1
1.8000000000000014,8.587223574162358,-0.21183860289467543,1.0059550550863563,0.34576596226386275,8.585265,-0.74368083,-0.041885633,0.7006532,2.0919218,-1.8045385,2.235566,0.25890383,0.22111107,-0.24709414,0.9072058,-7.473214,9.5463915,0.24786386,-0.65618676,-2.0544662,0.2562885,0
1.8100000000000014,8.587223574162358,-0.21183860289467543,1.0059550550863563,0.34576596226386275,8.585265,-0.74368083,-0.041885633,0.7006532,2.017308,-1.7093172,2.2378876,0.2561706,0.22818577,-0.2525264,0.9047307,-7.449397,9.497688,0.21635714,-0.5869659,-1.5771853,0.26067922,0
1.8200000000000014,8.587223574162358,-0.21183860289467543,1.0059550550863563,0.34576596226386275,8.585265,-0.74368083,-0.041885633,0.7006532,1.9429367,-1.6145875,2.2398896,0.25388047,0.2333334,-0.25709417,0.9027747,-7.4247994,9.4481125,0.18391679,-0.5285301,-1.1743375,0.26485443,0
1.8300000000000014,8.587223574162358,-0.21183860289467543,1.0059550550863563,0.34576596226386275,8.585265,-0.74368083,-0.041885633,0.7006532,1.8688139,-1.5203574,2.2415633,0.25197414,0.23686077,-0.26094207,0.90128493,-7.399665,9.397839,0.15073822,-0.47919866,-0.8343148,0.26882482,0
1.8400000000000014,8.587223574162358,-0.21183860289467543,1.0059550550863563,0.34576596226386275,9.237966,-0.5776205,1.3668082,0.790942,1.7949443,-1.4266328,2.2429023,0.25039807,0.23902446,-0.26418912,0.9002063,-7.3741975,9.347008,0.11699328,-0.437553,-0.5473194,0.27260035,1
1.8500000000000014,8.587223574162358,-0.21183860289467543,1.0059550550863563,0.34576596226386275,9.237966,-0.5776205,1.3668082,0.790942,1.7213401,-1.3334382,2.243926,0.2491284,0.23985822,-0.26704243,0.8994946,-7.3466334,9.291845,0.08767763,-0.4594451,-0.24882382,0.29803553,1
1.8600000000000014,8.587223574162358,-0.21183860289467543,1.0059550550863563,0.34576596226386275,9.237966,-0.5776205,1.3668082,0.790942,1.6480114,-1.2407972,2.2446551,0.24813549,0.23939645,-0.26967138,0.89910764,-7.3191104,9.236288,0.058060177,-0.4779231,0.003121987,0.32222262,1
1.8700000000000014,8.587223574162358,-0.21183860289467543,1.0059550550863563,0.34576596226386275,9.237966,-0.5776205,1.3668082,0.790942,1.574957,-1.1487135,2.2450871,0.24736716,0.23783775,-0.27211508,0.8989967,-7.2918196,9.180401,0.028266728,-0.4935184,0.21577743,0.34522283,1
1.8800000000000014,8.955280530269727,0.07393512952048917,2.376644564534841,0.37848779419970435,9.654419,-0.63508403,2.2919538,1.0095743,1.5021737,-1.0571901,2.2452204,0.2467786,0.23534891,-0.27440512,0.89911735,-7.264922,9.124237,-0.0015974175,-0.50667995,0.39526978,0.3670944,1
1.8900000000000015,8.955280530269727,0.07393512952048917,2.376644564534841,0.37848779419970435,9.654419,-0.63508403,2.2919538,1.0095743,1.4296627,-0.9662422,2.2450707,0.24641429,0.23172407,-0.27650273,0.8995161,-7.2373805,9.065304,-0.028359892,-0.52678907,0.6910409,0.39862108,1
1.9000000000000015,8.955280530269727,0.07393512952048917,2.376644564534841,0.37848779419970435,9.654419,-0.63508403,2.2919538,1.0095743,1.3574234,-0.87588453,2.244654,0.24630351,0.22680482,-0.2783775,0.9002217,-7.2106133,9.006202,-0.054967243,-0.54376036,0.9406873,0.4286007,1
1.9100000000000015,8.955280530269727,0.07393512952048917,2.376644564534841,0.37848779419970435,9.654419,-0.63508403,2.2919538,1.0095743,1.2854471,-0.78611845,2.2439725,0.24639003,0.22078417,-0.28006333,0.9011714,-7.1848245,8.947,-0.081299,-0.5580822,1.1514022,0.45710924,1
1.9200000000000015,9.229541489424275,0.4582178226453515,3.305594227516985,0.3402763523385794,10.150465,-0.5178282,3.1342945,1.088255,1.2137231,-0.69694465,2.2430294,0.24662583,0.21382473,-0.28158748,0.9023094,-7.160188,8.887757,-0.10726041,-0.5701669,1.3292569,0.48421887,1
1.9300000000000015,9.229541489424275,0.4582178226453515,3.305594227516985,0.3402763523385794,10.150465,-0.5178282,3.1342945,1.088255,1.1422449,-0.60837847,2.2418473,0.24704625,0.20576796,-0.28284806,0.90367234,-7.135665,8.825492,-0.12904128,-0.5621242,1.6107433,0.51385903,1
1.9400000000000015,9.229541489424275,0.4582178226453515,3.305594227516985,0.3402763523385794,10.150465,-0.5178282,3.1342945,1.088255,1.0710044,-0.5204344,2.2404504,0.24767496,0.19649313,-0.2837626,0.9052764,-7.1127315,8.763343,-0.15023623,-0.5553294,1.8483325,0.5420449,1
1.9500000000000015,9.229541489424275,0.4582178226453515,3.305594227516985,0.3402763523385794,10.150465,-0.5178282,3.1342945,1.088255,0.99998426,-0.43311083,2.2388446,0.2484583,0.18617806,-0.2843767,0.90704745,-7.091589,8.701408,-0.1707473,-0.5495875,2.04887,0.5688476,1
1.9600000000000015,9.250943999917245,0.9539367970745952,3.5849556285214406,0.23708730799666303,9.489687,-0.07704272,3.3658159,0.517605,0.92916584,-0.34640515,2.2370377,0.24935052,0.17497335,-0.28472775,0.9089212,-7.072413,8.639782,-0.1905069,-0.54473394,2.2181344,0.5943351,0
1.9700000000000015,9.250943999917245,0.9539367970745952,3.5849556285214406,0.23708730799666303,9.489687,-0.07704272,3.3658159,0.517605,0.858521,-0.26028663,2.235002,0.25035906,0.16301964,-0.28424755,0.9110144,-7.0568614,8.583993,-0.21647274,-0.31107193,2.4313836,0.5768048,0
1.9800000000000015,9.250943999917245,0.9539367970745952,3.5849556285214406,0.23708730799666303,9.489687,-0.07704272,3.3658159,0.517605,0.7880217,-0.17472328,2.2327108,0.25150898,0.15043995,-0.28248367,0.9134073,-7.0433083,8.528785,-0.2415939,-0.113833874,2.6113582,0.56013477,0
1.9900000000000015,9.250943999917245,0.9539367970745952,3.5849556285214406,0.23708730799666303,9.489687,-0.07704272,3.3658159,0.517605,0.71764773,-0.08970817,2.2301733,0.25278527,0.13732846,-0.27962026,0.9159978,-7.0318065,8.474378,-0.26576746,0.052657437,2.7632506,0.54428273,0
2.0000000000000013,,,,,8.862301,0.64787036,3.410542,0.24596477,0.6473783,-0.005232284,2.2273989,0.25417218,0.1237651,-0.27581275,0.9186974,-7.022405,8.420969,-0.2889239,0.19319437,2.891443,0.52920854,1
2.010000000000001,,,,,8.862301,0.64787036,3.410542,0.24596477,0.57719064,0.07872625,2.2243824,0.25564858,0.1098507,-0.2713234,0.9213898,-7.015455,8.370923,-0.31421897,0.26409987,2.9724183,0.51530963,1
2.020000000000001,,,,,8.862301,0.64787036,3.410542,0.24596477,0.50706196,0.16219044,2.2211182,0.25719395,0.09566976,-0.26636878,0.9239834,-7.0106015,8.322115,-0.33850992,0.32395196,3.040761,0.5020928,1
2.0300000000000007,,,,,8.862301,0.64787036,3.410542,0.24596477,0.4369712,0.24517316,2.2176158,0.25879452,0.08126343,-0.2610089,0.9264422,-7.0078816,8.274647,-0.36182466,0.37447345,3.0984418,0.48952448,1
2.0400000000000005,,,,,8.862301,0.64787036,3.410542,0.24596477,0.36689687,0.32768828,2.2138848,0.26043758,0.066667214,-0.255295,0.92873645,-7.0073266,8.228609,-0.3842035,0.41711852,3.147124,0.47757298,1
2.0500000000000003,,,,,8.597504,1.021789,2.6901097,0.3003895,0.29681712,0.40975055,2.2099347,0.26211175,0.05191186,-0.249271,0.93084145,-7.0089626,8.184087,-0.4056973,0.45311505,3.1882117,0.4662079,1
2.06,,,,,8.597504,1.021789,2.6901097,0.3003895,0.22671056,0.49138194,2.2057621,0.26372278,0.03733039,-0.2429118,0.9327646,-7.012684,8.142439,-0.42867935,0.5418397,3.110557,0.45807114,1
2.07,,,,,8.597504,1.021789,2.6901097,0.3003895,0.15655635,0.5726048,2.2013636,0.2652014,0.023189789,-0.23620279,0.93452543,-7.018474,8.102396,-0.4509228,0.6167226,3.045008,0.45033365,1
2.0799999999999996,,,,,8.597504,1.021789,2.6901097,0.3003895,0.08633424,0.6534355,2.196746,0.2665705,0.00942545,-0.22919278,0.9361202,-7.0262527,8.064013,-0.4724895,0.6799231,2.9896772,0.44297585,1
2.0899999999999994,,,,,9.765297,1.1641026,1.832597,0.22056404,0.016024701,0.73389095,2.1919162,0.26784799,-0.004017219,-0.22192311,0.93754494,-7.0359507,8.027334,-0.4934412,0.73326373,2.9429717,0.4359791,1
2.099999999999999,,,,,9.765297,1.1641026,1.832597,0.22056404,-0.05439878,0.8139644,2.1869323,0.26898298,-0.016844962,-0.21446832,0.9388114,-7.0490637,7.9876547,-0.503286,0.80052114,2.769823,0.4254086,1
2.109999999999999,,,,,9.765297,1.1641026,1.832597,0.22056404,-0.12496327,0.89365095,2.1818526,0.2699432,-0.028827237,-0.2068925,0.9399438,-7.0641227,7.9499583,-0.5125733,0.8572792,2.6236734,0.4153568,1
2.1199999999999988,,,,,9.765297,1.1641026,1.832597,0.22056404,-0.19568738,0.9729704,2.1766825,0.27076507,-0.040091462,-0.19921382,0.94095266,-7.080971,7.914237,-0.52136666,0.9051771,2.5003128,0.4057983,1
2.1299999999999986,,,,,9.671227,1.4218162,1.2125804,0.27387747,-0.26658836,1.0519425,2.1714268,0.27147734,-0.05074561,-0.19144723,0.941845,-7.0994754,7.880484,-0.5297232,0.94559807,2.3961878,0.39670876,1
2.1399999999999983,,,,,9.671227,1.4218162,1.2125804,0.27387747,-0.33768117,1.1305884,2.166085,0.27205575,-0.06062068,-0.18357536,0.94266117,-7.1193185,7.8489976,-0.5385617,1.0199205,2.2116203,0.39068142,1
2.149999999999998,,,,,9.671227,1.4218162,1.2125804,0.27387747,-0.40897933,1.2089292,2.1606567,0.27248493,-0.06958787,-0.17558597,0.9434396,-7.140509,7.819433,-0.54705304,1.0826432,2.0558324,0.3849498,1
2.159999999999998,,,,,9.671227,1.4218162,1.2125804,0.27387747,-0.48049542,1.2869837,2.1551452,0.2727966,-0.07778585,-0.1674972,0.9441797,-7.162882,7.7917686,-0.5552252,1.135577,1.924337,0.37949944,1
2.1699999999999977,,,,,8.56663,1.1757264,0.90449095,0.2974773,-0.5522405,1.364771,2.1495535,0.27301574,-0.085331894,-0.15932406,0.9448788,-7.186297,7.7659864,-0.5631035,1.1802496,1.8133459,0.37431654,1
2.1799999999999975,,,,,8.56663,1.1757264,0.90449095,0.2974773,-0.6242107,1.4423236,2.143833,0.2731314,-0.09223605,-0.15120572,0.9455305,-7.207854,7.744798,-0.5810485,1.1795828,1.6716073,0.370546,1
2.1899999999999973,,,,,8.56663,1.1757264,0.90449095,0.2974773,-0.6964001,1.5196724,2.1379335,0.27313587,-0.09851184,-0.14325365,0.9461342,-7.2301245,7.7252107,-0.5987816,1.1790138,1.5519729,0.36696053,1
2.199999999999997,,,,,8.56663,1.1757264,0.90449095,0.2974773,-0.76881534,1.5968331,2.1318576,0.27305073,-0.104255505,-0.13544196,0.9466937,-7.253018,7.707172,-0.61632735,1.1785285,1.4509957,0.363551,1
