time-since-start [s],throttle_mpc,roll_mpc,pitch_mpc,yaw_mpc,throttle_nw,roll_nw,pitch_nw,yaw_nw,position_x [m],position_y [m],position_z [m],rotation_w [quaternion],rotation_x [quaternion],rotation_y [quaternion],rotation_z [quaternion],velocity_x [m/s],velocity_y [m/s],velocity_z [m/s],omega_x [rad/s],omega_y [rad/s],omega_z [rad/s],network_used
0.0,11.586461978868904,5.999999730361018,-5.999999917004621,-3.9393655171185107,10.655149,-1.1577705,-2.3783345,-0.84399825,17.107893,-10.418956,2.5647836,0.062529005,-0.4285124,0.28448647,0.85529804,-10.223792,-4.586938,-0.15919648,1.5559855,0.0016125233,-0.4509335,0
0.01,11.586461978868904,5.999999730361018,-5.999999917004621,-3.9393655171185107,13.394556,-2.6042013,-5.112895,0.42498216,17.00506,-10.46436,2.5631027,0.06843903,-0.42793486,0.29023406,0.8532011,-10.342337,-4.493954,-0.17737453,1.6795453,-0.36515656,-0.57119,0
0.02,11.586461978868904,5.999999730361018,-5.999999917004621,-3.9393655171185107,13.394556,-2.6042013,-5.112895,0.42498216,16.901058,-10.508833,2.5612278,0.0756487,-0.42593175,0.2961442,0.8515622,-10.457173,-4.4004664,-0.19795081,1.8192242,-0.71018595,-0.6887134,0
0.03,11.586461978868904,5.999999730361018,-5.999999917004621,-3.9393655171185107,13.394556,-2.6042013,-5.112895,0.42498216,16.795929,-10.552368,2.5591369,0.084153034,-0.42257136,0.30227134,0.8502846,-10.567912,-4.306309,-0.22053356,1.9718769,-1.0362307,-0.8035809,0
0.04,11.586461978868904,5.999999730361018,-5.999999917004621,-3.9393655171185107,8.333824,-2.4060411,-4.9151783,0.7015744,16.689716,-10.594957,2.5568116,0.0939419,-0.41790643,0.3086541,0.84927136,-10.674187,-4.211335,-0.24478738,2.1348562,-1.345624,-0.9158666,0
0.05,11.586461978868904,5.999999730361018,-5.999999917004621,-3.9393655171185107,8.333824,-2.4060411,-4.9151783,0.7015744,16.582462,-10.636592,2.5542367,0.10500028,-0.41197667,0.3153172,0.8484252,-10.775649,-4.115424,-0.27042654,2.3059354,-1.6403426,-1.0256419,0
0.060000000000000005,11.586461978868904,5.999999730361018,-5.999999917004621,-3.9393655171185107,8.333824,-2.4060411,-4.9151783,0.7015744,16.474218,-10.677262,2.5513992,0.11730833,-0.40481073,0.3222734,0.84764796,-10.871961,-4.0184865,-0.29720932,2.4832423,-1.9220619,-1.1329751,0
0.07,11.586461978868904,5.999999730361018,-5.999999917004621,-3.9393655171185107,8.333824,-2.4060411,-4.9151783,0.7015744,16.36504,-10.716958,2.5482895,0.13084148,-0.39642835,0.3295248,0.84684044,-10.962799,-3.92047,-0.32493326,2.6652036,-2.192204,-1.237932,0
0.08,13.85437660578948,5.999999855283063,-5.999999950551941,-3.631153898142629,13.164646,-1.750875,-6.4613905,0.25099787,16.254982,-10.755668,2.5448985,0.14557034,-0.38684186,0.33706412,0.84590226,-11.04785,-3.821362,-0.35343128,2.8504977,-2.451975,-1.3405756,0
0.09,13.85437660578948,5.999999855283063,-5.999999950551941,-3.631153898142629,13.164646,-1.750875,-6.4613905,0.25099787,16.144068,-10.793338,2.5412493,0.16163847,-0.3757874,0.34506333,0.8447416,-11.133693,-3.7124205,-0.376532,3.1422057,-2.8067627,-1.4351575,0
0.09999999999999999,13.85437660578948,5.999999855283063,-5.999999950551941,-3.631153898142629,13.164646,-1.750875,-6.4613905,0.25099787,16.032331,-10.829913,2.5373652,0.17916015,-0.3630157,0.35365084,0.8432393,-11.212207,-3.6026175,-0.40038,3.4260578,-3.1439059,-1.5284655,0
0.10999999999999999,13.85437660578948,5.999999855283063,-5.999999950551941,-3.631153898142629,13.164646,-1.750875,-6.4613905,0.25099787,15.91985,-10.865387,2.5332396,0.19805442,-0.34855264,0.36274368,0.84125066,-11.282962,-3.4919965,-0.4248418,3.7021403,-3.4650128,-1.62046,0
0.11999999999999998,13.85437660578948,5.999999855283063,-5.999999950551941,-3.631153898142629,13.164646,-1.750875,-6.4613905,0.25099787,15.806701,-10.899752,2.5288668,0.21823522,-0.33241948,0.37225464,0.83862823,-11.345557,-3.3806913,-0.4498287,3.9705846,-3.7715,-1.7111087,0
0.12999999999999998,18.166416026440313,5.999999899096787,-5.999999963123969,-3.224386343155554,12.864499,-0.8819641,-5.9460316,0.045436945,15.692968,-10.933001,2.5242417,0.23961073,-0.31463507,0.3820923,0.8352227,-11.399624,-3.2689242,-0.4752945,4.231556,-4.0646186,-1.8003856,0
0.13999999999999999,18.166416026440313,5.999999899096787,-5.999999963123969,-3.224386343155554,12.864499,-0.8819641,-5.9460316,0.045436945,15.578671,-10.964969,2.519463,0.26209342,-0.2951253,0.39221504,0.8308884,-11.457984,-3.1243603,-0.48018655,4.5067916,-4.3669677,-1.8702618,0
0.15,18.166416026440313,5.999999899096787,-5.999999963123969,-3.224386343155554,12.864499,-0.8819641,-5.9460316,0.045436945,15.463845,-10.995476,2.5146432,0.28549728,-0.2739471,0.40250537,0.82549006,-11.505542,-2.9768186,-0.48362407,4.7391467,-4.6221256,-1.936709,0
0.16,20.68742264049427,4.647422249084075,-5.9999951958493725,-1.490001736577914,14.733315,-0.39684084,-5.513467,-0.33031276,15.348601,-11.024496,2.5097954,0.3095942,-0.25130093,0.4127766,0.8189108,-11.541479,-2.8268933,-0.48569775,4.935306,-4.837455,-1.9998957,0
0.17,20.68742264049427,4.647422249084075,-5.9999951958493725,-1.490001736577914,14.733315,-0.39684084,-5.513467,-0.33031276,15.23304,-11.051903,2.5050008,0.3338746,-0.22745363,0.4224853,0.8113562,-11.56842,-2.6543047,-0.47303566,4.890257,-5.018614,-1.9748751,0
0.18000000000000002,20.68742264049427,4.647422249084075,-5.9999951958493725,-1.490001736577914,14.733315,-0.39684084,-5.513467,-0.33031276,15.117281,-11.077579,2.5003395,0.35791814,-0.20264648,0.43121645,0.80304515,-11.580983,-2.480952,-0.45901367,4.85227,-5.171536,-1.9510821,0
0.19000000000000003,20.68742264049427,4.647422249084075,-5.9999951958493725,-1.490001736577914,14.733315,-0.39684084,-5.513467,-0.33031276,15.00147,-11.101522,2.495825,0.38165215,-0.17701289,0.43899658,0.7939082,-11.578968,-2.3080003,-0.44369575,4.8202386,-5.300622,-1.9284568,0
0.20000000000000004,19.645388992260973,3.4226519653181215,-4.6314953430344685,-1.0882251174644868,13.948088,-1.5461197,-4.8142476,1.0472785,14.885753,-11.123744,2.4914696,0.4050077,-0.15067206,0.44584915,0.78389114,-11.562288,-2.1366193,-0.42720932,4.793227,-5.4095874,-1.9069417,0
0.21000000000000005,19.645388992260973,3.4226519653181215,-4.6314953430344685,-1.0882251174644868,13.948088,-1.5461197,-4.8142476,1.0472785,14.7702675,-11.144307,2.487255,0.42757356,-0.12434135,0.45165434,0.773129,-11.532608,-1.9764535,-0.41556057,4.5797763,-5.2878585,-1.8667669,0
0.22000000000000006,19.645388992260973,3.4226519653181215,-4.6314953430344685,-1.0882251174644868,13.948088,-1.5461197,-4.8142476,1.0472785,14.655146,-11.163284,2.4831607,0.4490519,-0.09861073,0.45637116,0.76180947,-11.4896145,-1.8198341,-0.40319976,4.399577,-5.18517,-1.8285636,0
0.23000000000000007,19.645388992260973,3.4226519653181215,-4.6314953430344685,-1.0882251174644868,13.948088,-1.5461197,-4.8142476,1.0472785,14.540518,-11.180718,2.4791927,0.46953368,-0.073404014,0.4601203,0.74995947,-11.433967,-1.6676044,-0.39034995,4.24745,-5.098543,-1.792235,0
0.24000000000000007,19.645388992260973,3.4226519653181215,-4.6314953430344685,-1.0882251174644868,13.911324,-1.3719227,-2.5462716,0.6780476,14.426507,-11.196654,2.4753547,0.4890927,-0.048655786,0.46300045,0.73759836,-11.366305,-1.520525,-0.37722626,4.1190214,-5.025465,-1.757689,0
0.25000000000000006,19.645388992260973,3.4226519653181215,-4.6314953430344685,-1.0882251174644868,13.911324,-1.3719227,-2.5462716,0.6780476,14.31323,-11.211148,2.4716485,0.50778866,-0.024310788,0.46509236,0.7247404,-11.28726,-1.3792862,-0.36403826,4.0106,-4.9638157,-1.7248383,0
0.26000000000000006,19.645388992260973,3.4226519653181215,-4.6314953430344685,-1.0882251174644868,13.911324,-1.3719227,-2.5462716,0.6780476,14.200797,-11.224262,2.4680736,0.5256692,-0.00032308558,0.46646202,0.7113963,-11.197449,-1.2445182,-0.3509919,3.919068,-4.911808,-1.6935995,0
0.2700000000000001,19.645388992260973,3.4226519653181215,-4.6314953430344685,-1.0882251174644868,13.911324,-1.3719227,-2.5462716,0.6780476,14.089315,-11.236064,2.4646273,0.54277277,0.023344822,0.4671636,0.6975748,-11.097485,-1.116798,-0.33829063,3.841795,-4.867934,-1.6638936,0
0.2800000000000001,18.60948762300817,1.9196953503901815,-2.784445834238688,-0.7010484118042707,13.843613,-1.6380826,-0.33805397,0.6492465,13.978881,-11.246625,2.4613056,0.55912966,0.04672288,0.46724156,0.6832833,-10.987974,-0.99665564,-0.32613626,3.776559,-4.830921,-1.6356453,0
0.2900000000000001,18.60948762300817,1.9196953503901815,-2.784445834238688,-0.7010484118042707,13.843613,-1.6380826,-0.33805397,0.6492465,13.869555,-11.256054,2.458073,0.5744291,0.069016956,0.46674892,0.6688894,-10.875831,-0.89043254,-0.3204958,3.4874578,-4.511362,-1.5897843,0
0.3000000000000001,18.60948762300817,1.9196953503901815,-2.784445834238688,-0.7010484118042707,13.843613,-1.6380826,-0.33805397,0.6492465,13.76139,-11.264459,2.4548926,0.5884796,0.089608304,0.46578425,0.65475714,-10.756207,-0.79183304,-0.31568137,3.243366,-4.241705,-1.5461736,0
0.3100000000000001,18.60948762300817,1.9196953503901815,-2.784445834238688,-0.7010484118042707,13.843613,-1.6380826,-0.33805397,0.6492465,13.654454,-11.271915,2.451756,0.60145754,0.10875685,0.46443343,0.64087605,-10.630021,-0.700753,-0.31177396,3.037278,-4.0141563,-1.504703,0
0.3200000000000001,17.395900313396115,-0.2814731517643342,-0.6461278527464508,1.0221850489918973,14.946591,-2.4893458,1.4610443,0.9875079,13.54881,-11.2785,2.4486537,0.6135066,0.12668343,0.46276054,0.6272267,-10.49806,-0.61707705,-0.3088315,2.8632782,-3.8221395,-1.4652674,0
0.3300000000000001,17.395900313396115,-0.2814731517643342,-0.6461278527464508,1.0221850489918973,14.946591,-2.4893458,1.4610443,0.9875079,13.444467,-11.2843075,2.4455433,0.62434363,0.14259945,0.46077487,0.6144483,-10.370002,-0.5455978,-0.31339654,2.3735955,-3.3261838,-1.3432075,0
0.34000000000000014,17.395900313396115,-0.2814731517643342,-0.6461278527464508,1.0221850489918973,14.946591,-2.4893458,1.4610443,0.9875079,13.341423,-11.289433,2.4423833,0.6337927,0.15591545,0.4585275,0.60311645,-10.238147,-0.48025882,-0.31874374,1.9601265,-2.907719,-1.2271371,0
0.35000000000000014,17.395900313396115,-0.2814731517643342,-0.6461278527464508,1.0221850489918973,14.946591,-2.4893458,1.4610443,0.9875079,13.239713,-11.293932,2.4391663,0.642093,0.16707058,0.45610365,0.5931047,-10.103319,-0.42036232,-0.32468596,1.6110176,-2.5546288,-1.1167623,0
0.36000000000000015,18.312356823254774,-3.007553857922133,2.6589823928125274,2.200688203519098,17.298925,-4.611851,3.5315306,1.1790932,13.139363,-11.297856,2.4358878,0.6494332,0.17643322,0.4535599,0.58428663,-9.96617,-0.36528188,-0.33104607,1.3162568,-2.2566938,-1.0118035,0
0.37000000000000016,18.312356823254774,-3.007553857922133,2.6589823928125274,2.200688203519098,17.298925,-4.611851,3.5315306,1.1790932,13.040431,-11.301239,2.4325686,0.65548277,0.18290004,0.45114106,0.57737446,-9.819956,-0.31166318,-0.33281544,0.6426237,-1.4895831,-0.8541656,0
0.38000000000000017,18.312356823254774,-3.007553857922133,2.6589823928125274,2.200688203519098,17.298925,-4.611851,3.5315306,1.1790932,12.942967,-11.304101,2.429232,0.66000366,0.18562864,0.44906288,0.57295674,-9.672723,-0.26107767,-0.33449328,0.07382643,-0.84229,-0.7042631,0
0.3900000000000002,18.312356823254774,-3.007553857922133,2.6589823928125274,2.200688203519098,17.298925,-4.611851,3.5315306,1.1790932,12.846978,-11.306466,2.4258804,0.6632313,0.18524626,0.44729844,0.5707293,-9.525223,-0.21213004,-0.335732,-0.4064324,-0.2960836,-0.5617164,0
0.4000000000000002,20.610827250650882,-4.791693652190347,5.109803295920721,2.4228987506140487,18.413189,-5.786826,4.881997,-0.048171315,12.752461,-11.308345,2.4225202,0.66533643,0.1822726,0.44580242,0.5704069,-9.378059,-0.16362591,-0.3362383,-0.81191933,0.1648356,-0.42616445,0
0.4100000000000002,20.610827250650882,-4.791693652190347,5.109803295920721,2.4228987506140487,18.413189,-5.786826,4.881997,-0.048171315,12.659505,-11.309706,2.4192212,0.6661174,0.1761155,0.44476056,0.5722401,-9.213413,-0.108290635,-0.3233892,-1.4324301,0.9360453,-0.28636009,0
0.4200000000000002,20.610827250650882,-4.791693652190347,5.109803295920721,2.4228987506140487,18.413189,-5.786826,4.881997,-0.048171315,12.568186,-11.310502,2.4160573,0.665381,0.16631676,0.4442928,0.57637703,-9.050541,-0.050583646,-0.30914128,-1.9563183,1.5868711,-0.15341595,0
0.4300000000000002,20.610827250650882,-4.791693652190347,5.109803295920721,2.4228987506140487,18.413189,-5.786826,4.881997,-0.048171315,12.478484,-11.310703,2.4130437,0.6632351,0.15345082,0.44424853,0.5824216,-8.890259,0.01104809,-0.29327166,-2.3986118,2.1361187,-0.026995448,0
0.4400000000000002,20.610827250650882,-4.791693652190347,5.109803295920721,2.4228987506140487,18.844501,-5.647356,5.761456,-1.1158853,12.390369,-11.310263,2.4101977,0.65974927,0.13799883,0.44448555,0.5900166,-8.733346,0.07787661,-0.27566084,-2.772005,2.5996537,0.093221575,0
0.45000000000000023,20.610827250650882,-4.791693652190347,5.109803295920721,2.4228987506140487,18.844501,-5.647356,5.761456,-1.1158853,12.303804,-11.309124,2.4075365,0.6549693,0.120367035,0.44487464,0.5988434,-8.580574,0.1509218,-0.25628653,-3.0872192,2.9908624,0.2075395,0
0.46000000000000024,20.610827250650882,-4.791693652190347,5.109803295920721,2.4228987506140487,18.844501,-5.647356,5.761456,-1.1158853,12.218741,-11.30722,2.4050777,0.6489272,0.100900926,0.44530147,0.60862046,-8.432712,0.23097646,-0.23521468,-3.3533096,3.3210375,0.3162478,0
0.47000000000000025,20.610827250650882,-4.791693652190347,5.109803295920721,2.4228987506140487,18.844501,-5.647356,5.761456,-1.1158853,12.13513,-11.304479,2.4028375,0.641648,0.07989651,0.445667,0.6191002,-8.290531,0.31862813,-0.21258916,-3.5779238,3.599708,0.41962174,0
0.48000000000000026,20.465548239052957,-5.091564239298463,5.547608618113224,2.2371950008356762,19.340506,-4.6234517,6.306867,-0.6935213,12.052908,-11.300819,2.4008307,0.63315314,0.057609066,0.44588682,0.63006586,-8.154802,0.41427806,-0.18862136,-3.7675197,3.8349142,0.5179231,0
0.49000000000000027,20.465548239052957,-5.091564239298463,5.547608618113224,2.2371950008356762,19.340506,-4.6234517,6.306867,-0.6935213,11.972003,-11.296166,2.3990648,0.62340367,0.034063004,0.44592386,0.6413729,-8.027205,0.5174414,-0.16444904,-3.974318,4.10172,0.6022883,0
0.5000000000000002,20.465548239052957,-5.091564239298463,5.547608618113224,2.2371950008356762,19.340506,-4.6234517,6.306867,-0.6935213,11.892336,-11.290441,2.3975444,0.6123628,0.009292847,0.4457351,0.65287465,-7.90761,0.6289672,-0.13953839,-4.148866,4.3269205,0.68251365,0
0.5100000000000002,20.465548239052957,-5.091564239298463,5.547608618113224,2.2371950008356762,19.340506,-4.6234517,6.306867,-0.6935213,11.813821,-11.283558,2.3962753,0.60005635,-0.01647878,0.44524813,0.6643904,-7.796841,0.7488919,-0.11426863,-4.296188,4.517008,0.7588023,0
0.5200000000000002,19.021049711015827,-4.46930185604877,4.79689492746515,1.9410534710411513,19.005144,-3.7668161,5.972992,-0.01828662,11.736365,-11.2754345,2.3952587,0.5865119,-0.043055605,0.44440353,0.67576265,-7.695694,0.87709147,-0.08906038,-4.4205265,4.6774592,0.83134747,0
0.5300000000000002,19.021049711015827,-4.46930185604877,4.79689492746515,1.9410534710411513,19.005144,-3.7668161,5.972992,-0.01828662,11.659838,-11.266035,2.3944488,0.57193553,-0.069931485,0.4431501,0.68674374,-7.6113014,1.0036625,-0.07302923,-4.42831,4.695924,0.8858011,0
0.5400000000000003,19.021049711015827,-4.46930185604877,4.79689492746515,1.9410534710411513,19.005144,-3.7668161,5.972992,-0.01828662,11.584104,-11.255337,2.3937953,0.55653,-0.09669425,0.44146907,0.697158,-7.5369964,1.1371601,-0.057880193,-4.4348702,4.711517,0.93758255,0
0.5500000000000003,19.021049711015827,-4.46930185604877,4.79689492746515,1.9410534710411513,19.005144,-3.7668161,5.972992,-0.01828662,11.509061,-11.243271,2.393287,0.54031926,-0.123309,0.43935964,0.7069743,-7.4731526,1.2769978,-0.044008877,-4.4403996,4.7246857,0.9868232,0
0.5600000000000003,16.33507140342191,-3.2349443791921986,3.164095209118211,1.5840204012398207,18.871614,-3.1325963,3.5413818,-0.06774911,11.434604,-11.229776,2.3929093,0.5233281,-0.14974223,0.43682215,0.71616405,-7.420101,1.4225518,-0.03180133,-4.445059,4.735808,1.0336477,0
0.5700000000000003,16.33507140342191,-3.2349443791921986,3.164095209118211,1.5840204012398207,18.871614,-3.1325963,3.5413818,-0.06774911,11.360591,-11.214908,2.3925674,0.50598586,-0.17525832,0.43387622,0.7245784,-7.3840027,1.5518713,-0.03690492,-4.256256,4.490752,1.0606546,0
0.5800000000000003,16.33507140342191,-3.2349443791921986,3.164095209118211,1.5840204012398207,18.871614,-3.1325963,3.5413818,-0.06774911,11.286892,-11.198727,2.392165,0.48868927,-0.19928853,0.4305832,0.7321643,-7.3572216,1.6847796,-0.043934226,-4.096912,4.283902,1.0863364,0
0.5900000000000003,16.33507140342191,-3.2349443791921986,3.164095209118211,1.5840204012398207,18.871614,-3.1325963,3.5413818,-0.06774911,11.213414,-11.181202,2.3916817,0.4714118,-0.22202906,0.4269946,0.73901916,-7.339509,1.8205692,-0.053018466,-3.9624305,4.1093006,1.1107578,0
0.6000000000000003,14.440134105817666,-1.593525549798007,1.3113195269914486,1.242704578474059,17.35747,-3.0788698,2.8720207,-0.24695203,11.14007,-11.162308,2.3910968,0.45412695,-0.24364582,0.42314884,0.7452182,-7.330631,1.9586068,-0.064264596,-3.848933,3.96192,1.1339809,0
0.6100000000000003,14.440134105817666,-1.593525549798007,1.3113195269914486,1.242704578474059,17.35747,-3.0788698,2.8720207,-0.24695203,11.0667715,-11.142106,2.3903394,0.43732664,-0.26345256,0.41923046,0.7507221,-7.3303375,2.082102,-0.08755799,-3.4969108,3.5488079,1.1393158,0
0.6200000000000003,14.440134105817666,-1.593525549798007,1.3113195269914486,1.242704578474059,17.35747,-3.0788698,2.8720207,-0.24695203,10.99344,-11.120664,2.3893394,0.42144185,-0.2809409,0.41542697,0.75556546,-7.3370194,2.2065556,-0.11275643,-3.199831,3.2000823,1.1443893,0
0.6300000000000003,14.440134105817666,-1.593525549798007,1.3113195269914486,1.242704578474059,17.35747,-3.0788698,2.8720207,-0.24695203,10.920009,-11.097974,2.3880785,0.40635726,-0.29647735,0.41175848,0.759888,-7.350052,2.3315425,-0.13974321,-2.9491189,2.905708,1.1492136,0
0.6400000000000003,14.440134105817666,-1.593525549798007,1.3113195269914486,1.242704578474059,16.081223,-2.489665,2.1407218,-0.40380654,10.846418,-11.074033,2.3865392,0.3919653,-0.3103691,0.4082314,0.7637939,-7.3688946,2.4567294,-0.16840088,-2.7375371,2.6572144,1.1538012,0
0.6500000000000004,14.440134105817666,-1.593525549798007,1.3113195269914486,1.242704578474059,16.081223,-2.489665,2.1407218,-0.40380654,10.772614,-11.0488405,2.3847053,0.3781683,-0.32287347,0.4048432,0.76736116,-7.3930836,2.5818539,-0.19861674,-2.5589788,2.4474497,1.1581638,0
0.6600000000000004,14.440134105817666,-1.593525549798007,1.3113195269914486,1.242704578474059,16.081223,-2.489665,2.1407218,-0.40380654,10.698541,-11.022397,2.3825617,0.36487886,-0.33420575,0.4015858,0.7706481,-7.42222,2.7067049,-0.23028582,-2.4082897,2.2703779,1.1623123,0
0.6700000000000004,14.440134105817666,-1.593525549798007,1.3113195269914486,1.242704578474059,16.081223,-2.489665,2.1407218,-0.40380654,10.624153,-10.994708,2.3800948,0.3520198,-0.3445461,0.39844778,0.7736984,-7.4559627,2.831111,-0.26331228,-2.28112,2.1209035,1.1662571,0
0.6800000000000004,14.620296477437766,-0.08492998169455346,-0.37062391961336244,0.854886185838787,15.39109,-2.429248,1.4310807,-0.28673813,10.549406,-10.965777,2.3772914,0.33952352,-0.35404536,0.39541617,0.7765446,-7.4940176,2.9549305,-0.29760978,-2.1737988,1.9947251,1.1700084,0
0.6900000000000004,14.620296477437766,-0.08492998169455346,-0.37062391961336244,0.854886185838787,15.39109,-2.429248,1.4310807,-0.28673813,10.474256,-10.935604,2.3741426,0.32785267,-0.36212596,0.39270756,0.7792034,-7.5366035,3.0795882,-0.33229873,-1.8477434,1.6261173,1.1545453,0
0.7000000000000004,14.620296477437766,-0.08492998169455346,-0.37062391961336244,0.854886185838787,15.39109,-2.429248,1.4310807,-0.28673813,10.398663,-10.904188,2.370642,0.3173879,-0.36835536,0.39051017,0.7817166,-7.5826697,3.2034996,-0.3679629,-1.5725869,1.3149486,1.1398408,0
0.7100000000000004,14.620296477437766,-0.08492998169455346,-0.37062391961336244,0.854886185838787,15.39109,-2.429248,1.4310807,-0.28673813,10.322594,-10.871537,2.3667808,0.30796003,-0.37304077,0.38876656,0.7841311,-7.631627,3.3266757,-0.40437368,-1.340383,1.0522691,1.1258581,0
0.7200000000000004,14.893213409583897,1.1813493705055127,-1.907844543814403,0.5253298448294009,15.0368805,-1.7375209,0.5100616,-0.47757182,10.246023,-10.837657,2.3625526,0.29942122,-0.37643677,0.38742152,0.7864774,-7.68298,3.4491484,-0.44133338,-1.1444259,0.8305234,1.1125613,0
0.7300000000000004,14.893213409583897,1.1813493705055127,-1.907844543814403,0.5253298448294009,15.0368805,-1.7375209,0.5100616,-0.47757182,10.168923,-10.802546,2.3579583,0.29210567,-0.3781373,0.38662615,0.7888006,-7.737262,3.573247,-0.47751787,-0.78140545,0.40375426,1.0837457,0
0.7400000000000004,14.893213409583897,1.1813493705055127,-1.907844543814403,0.5253298448294009,15.0368805,-1.7375209,0.5100616,-0.47757182,10.091273,-10.766193,2.3530016,0.2862765,-0.37783656,0.38650113,0.7911396,-7.7928457,3.6968105,-0.51378614,-0.47505966,0.043486662,1.0563442,0
0.7500000000000004,14.893213409583897,1.1813493705055127,-1.907844543814403,0.5253298448294009,15.0368805,-1.7375209,0.5100616,-0.47757182,10.013063,-10.728609,2.347683,0.28171593,-0.3758597,0.38695207,0.79349446,-7.849076,3.8199854,-0.5498628,-0.21653846,-0.2606408,1.030287,0
0.7600000000000005,15.557645998163993,2.025311205667211,-3.121833550514872,0.1998523497781807,13.466952,-0.80883956,-0.25242308,-0.61999637,9.934292,-10.689795,2.3420055,0.27823603,-0.3724755,0.38789272,0.7958553,-7.905397,3.9429078,-0.58552223,0.0016254634,-0.5173749,1.0055085,0
0.7700000000000005,15.557645998163993,2.025311205667211,-3.121833550514872,0.1998523497781807,13.466952,-0.80883956,-0.25242308,-0.61999637,9.854945,-10.649725,2.3359885,0.27602088,-0.36744153,0.38936475,0.79824436,-7.9637976,4.071183,-0.61775273,0.3174607,-0.9233398,0.9659748,0
0.7800000000000005,15.557645998163993,2.025311205667211,-3.121833550514872,0.1998523497781807,13.466952,-0.80883956,-0.25242308,-0.61999637,9.77502,-10.608372,2.3296535,0.27520734,-0.36057335,0.39139104,0.80066264,-8.021103,4.199483,-0.64907736,0.5839839,-1.26604,0.9283809,0
0.7900000000000005,15.557645998163993,2.025311205667211,-3.121833550514872,0.1998523497781807,13.466952,-0.80883956,-0.25242308,-0.61999637,9.69453,-10.565735,2.323011,0.27558023,-0.352152,0.39387107,0.8030628,-8.076674,4.327945,-0.67925954,0.80889714,-1.5553327,0.8926318,0
0.8000000000000005,16.542713876807788,2.262457971823196,-3.743031669674584,-0.13282697144023264,14.282871,-0.7912853,-0.8644564,-0.8744924,9.613494,-10.5218115,2.316073,0.27695498,-0.34241155,0.3967154,0.8053986,-8.129957,4.4566717,-0.7081223,0.9986985,-1.7995394,0.858637,0
0.8100000000000005,16.542713876807788,2.262457971823196,-3.743031669674584,-0.13282697144023264,14.282871,-0.7912853,-0.8644564,-0.8744924,9.531923,-10.476558,2.308876,0.27933717,-0.33133692,0.39983845,0.8076606,-8.183654,4.5938997,-0.73105377,1.1958842,-2.1025531,0.8099856,0
0.8200000000000005,16.542713876807788,2.262457971823196,-3.743031669674584,-0.13282697144023264,14.282871,-0.7912853,-0.8644564,-0.8744924,9.449833,-10.429931,2.3014581,0.28272343,-0.3189243,0.40316093,0.80982447,-8.233836,4.731512,-0.7522815,1.3622799,-2.3583379,0.76372147,0
0.8300000000000005,16.542713876807788,2.262457971823196,-3.743031669674584,-0.13282697144023264,14.282871,-0.7912853,-0.8644564,-0.8744924,9.367261,-10.381926,2.2938366,0.28695437,-0.30536994,0.406618,0.81183,-8.279989,4.869502,-0.77168524,1.5026962,-2.574253,0.7197275,0
0.8400000000000005,16.542713876807788,2.262457971823196,-3.743031669674584,-0.13282697144023264,14.537057,-0.5689422,-0.82385373,-1.1404513,9.284248,-10.33254,2.2860305,0.29189327,-0.29083967,0.41015336,0.8136244,-8.321661,5.0078254,-0.789198,1.6211914,-2.7565122,0.6778924,0
0.8500000000000005,16.542713876807788,2.262457971823196,-3.743031669674584,-0.13282697144023264,14.537057,-0.5689422,-0.82385373,-1.1404513,9.200845,-10.281768,2.278059,0.2974227,-0.27547443,0.4137187,0.8151627,-8.358457,5.146403,-0.8047984,1.7211893,-2.9103596,0.63811016,0
0.8600000000000005,16.542713876807788,2.262457971823196,-3.743031669674584,-0.13282697144023264,14.537057,-0.5689422,-0.82385373,-1.1404513,9.117099,-10.229611,2.2699409,0.30344188,-0.25939453,0.41727272,0.81640726,-8.390035,5.2851253,-0.81850374,1.805579,-3.0402236,0.60028005,0
0.8700000000000006,16.542713876807788,2.262457971823196,-3.743031669674584,-0.13282697144023264,14.537057,-0.5689422,-0.82385373,-1.1404513,9.033065,-10.176066,2.2616954,0.30986416,-0.24270293,0.42078048,0.81732684,-8.416097,5.423858,-0.83036405,1.876798,-3.149842,0.56430626,0
0.8800000000000006,16.63249989135617,1.8708404862961032,-3.80714586548143,-0.32499042850183524,13.191274,-0.4711896,-0.94266284,-1.0696055,8.948797,-10.121135,2.25334,0.31661502,-0.22548822,0.42421252,0.8178959,-8.436388,5.5624447,-0.8404573,1.9369034,-3.2423708,0.5300978,0
0.8900000000000006,16.63249989135617,1.8708404862961032,-3.80714586548143,-0.32499042850183524,13.191274,-0.4711896,-0.94266284,-1.0696055,8.864357,-10.0648155,2.2448945,0.32362634,-0.20786601,0.42740282,0.81815916,-8.450777,5.701455,-0.84839034,1.9265403,-3.3305035,0.48813838,0
0.9000000000000006,16.63249989135617,1.8708404862961032,-3.80714586548143,-0.32499042850183524,13.191274,-0.4711896,-0.94266284,-1.0696055,8.779803,-10.007109,2.2363777,0.33084667,-0.18993692,0.43021983,0.81815356,-8.459016,5.8399086,-0.8547103,1.9177891,-3.4048884,0.4482379,0
0.9100000000000006,16.63249989135617,1.8708404862961032,-3.80714586548143,-0.32499042850183524,13.191274,-0.4711896,-0.94266284,-1.0696055,8.695198,-9.94802,2.2278056,0.33823776,-0.17175151,0.43268746,0.8178497,-8.461003,5.9775624,-0.85949326,1.9104002,-3.4676697,0.4102954,0
0.9200000000000006,16.91750232459768,0.9540454904928255,-3.353982002126744,-0.4432211991453854,13.39242,-0.8489541,-0.9161453,-0.8026249,8.610604,-9.887561,2.2191927,0.34576526,-0.15335351,0.43482652,0.81722385,-8.456662,6.114174,-0.8628355,1.9041623,-3.5206575,0.3742147,0
0.9300000000000006,16.91750232459768,0.9540454904928255,-3.353982002126744,-0.4432211991453854,13.39242,-0.8489541,-0.9161453,-0.8026249,8.526087,-9.825729,2.2105618,0.35327896,-0.13506368,0.4364184,0.8163887,-8.445782,6.251815,-0.86319417,1.7558945,-3.494747,0.33410287,0
0.9400000000000006,16.91750232459768,0.9540454904928255,-3.353982002126744,-0.4432211991453854,13.39242,-0.8489541,-0.9161453,-0.8026249,8.44171,-9.762529,2.2019334,0.3606716,-0.11714518,0.43730092,0.81545115,-8.428589,6.3878746,-0.8622543,1.6307558,-3.4728625,0.29595938,0
0.9500000000000006,16.91750232459768,0.9540454904928255,-3.353982002126744,-0.4432211991453854,13.39242,-0.8489541,-0.9161453,-0.8026249,8.357536,-9.697977,2.193321,0.36797062,-0.09955415,0.43756658,0.8143843,-8.40528,6.5220985,-0.86006695,1.5251377,-3.4543798,0.25968757,0
0.9600000000000006,16.770512114731087,-0.2542041481745872,-2.5798994132910655,-0.39443826967131407,13.77957,-1.2389343,-0.5035542,-0.74167943,8.273624,-9.632093,2.184736,0.375196,-0.08225271,0.4372934,0.8131646,-8.376034,6.654252,-0.85669243,1.4359963,-3.43877,0.22519565,0
0.9700000000000006,16.770512114731087,-0.2542041481745872,-2.5798994132910655,-0.39443826967131407,13.77957,-1.2389343,-0.5035542,-0.74167943,8.190033,-9.564906,2.1761863,0.38218683,-0.065640315,0.43627435,0.8119661,-8.341353,6.78299,-0.85307807,1.1723251,-3.3048918,0.19479002,0
0.9800000000000006,16.770512114731087,-0.2542041481745872,-2.5798994132910655,-0.39443826967131407,13.77957,-1.2389343,-0.5035542,-0.74167943,8.106815,-9.496443,2.1676784,0.388831,-0.05003551,0.43436104,0.8109483,-8.3014,6.909273,-0.84832495,0.9497838,-3.191876,0.16587642,0
0.9900000000000007,16.770512114731087,-0.2542041481745872,-2.5798994132910655,-0.39443826967131407,13.77957,-1.2389343,-0.5035542,-0.74167943,8.024021,-9.426729,2.1592238,0.39520365,-0.035297338,0.4316916,0.81006813,-8.256611,7.0329432,-0.84239453,0.76195663,-3.0964725,0.13838163,0
1.0000000000000007,16.50481244428904,-1.503369175719093,-1.501384309501271,-0.22710544629998353,14.384705,-2.0061727,-0.051609058,-0.57316047,7.9416976,-9.355794,2.1508348,0.40136373,-0.021304756,0.42838064,0.8092856,-8.207358,7.1538653,-0.8352573,0.60342824,-3.015938,0.112236015,0
1.0100000000000007,16.50481244428904,-1.503369175719093,-1.501384309501271,-0.22710544629998353,14.384705,-2.0061727,-0.051609058,-0.57316047,7.859884,-9.283672,2.1425147,0.4071497,-0.008496058,0.424296,0.8087829,-8.154858,7.270062,-0.82856685,0.27482685,-2.7797716,0.09558442,0
1.0200000000000007,16.50481244428904,-1.503369175719093,-1.501384309501271,-0.22710544629998353,14.384705,-2.0061727,-0.051609058,-0.57316047,7.7786126,-9.2104025,2.1342683,0.41244692,0.0027861872,0.4193468,0.8087199,-8.098903,7.3834114,-0.8205531,-0.002520986,-2.5804253,0.07974994,0
1.0300000000000007,16.50481244428904,-1.503369175719093,-1.501384309501271,-0.22710544629998353,14.384705,-2.0061727,-0.051609058,-0.57316047,7.697916,-9.136013,2.126109,0.41735598,0.012768103,0.41367397,0.80902696,-8.040068,7.49391,-0.81109774,-0.23660995,-2.4121592,0.06469246,0
1.0400000000000007,16.50481244428904,-1.503369175719093,-1.501384309501271,-0.22710544629998353,15.060377,-3.0009913,0.5895394,-0.17181006,7.6178193,-9.0605345,2.1180515,0.421956,0.021642383,0.4073928,0.8096392,-7.978838,7.601556,-0.8000976,-0.43418756,-2.2701287,0.05037385,0
1.0500000000000007,16.50481244428904,-1.503369175719093,-1.501384309501271,-0.22710544629998353,15.060377,-3.0009913,0.5895394,-0.17181006,7.5383453,-8.983992,2.1101122,0.42630917,0.029573046,0.4005983,0.8104978,-7.915624,7.706352,-0.7874658,-0.600949,-2.1502435,0.036757864,0
1.0600000000000007,16.50481244428904,-1.503369175719093,-1.501384309501271,-0.22710544629998353,15.060377,-3.0009913,0.5895394,-0.17181006,7.4595118,-8.906416,2.1023078,0.43046436,0.036699586,0.39336902,0.81155044,-7.8507752,7.808299,-0.773132,-0.74170077,-2.0490515,0.023810022,0
1.0700000000000007,16.50481244428904,-1.503369175719093,-1.501384309501271,-0.22710544629998353,15.060377,-3.0009913,0.5895394,-0.17181006,7.3813343,-8.827835,2.0946555,0.43446,0.043140583,0.38577017,0.8127512,-7.7845893,7.9073935,-0.75704116,-0.8604997,-1.963638,0.011497526,0
1.0800000000000007,16.401619445838595,-2.3752905328857685,-0.5099029856879655,-0.012231836765816842,15.351793,-3.6320944,1.5278481,0.16983625,7.303824,-8.748278,2.087173,0.43832636,0.048996806,0.37785608,0.8140601,-7.7173214,8.003631,-0.7391526,-0.9607697,-1.891543,-0.00021080207,0
1.0900000000000007,16.401619445838595,-2.3752905328857685,-0.5099029856879655,-0.012231836765816842,15.351793,-3.6320944,1.5278481,0.16983625,7.2269883,-8.667775,2.079875,0.44193462,0.053887375,0.3695614,0.81560653,-7.6496525,8.096431,-0.7201659,-1.1813642,-1.6760767,-0.00080068747,0
1.1000000000000008,16.401619445838595,-2.3752905328857685,-0.5099029856879655,-0.012231836765816842,15.351793,-3.6320944,1.5278481,0.16983625,7.150832,-8.586358,2.072776,0.44518656,0.05751458,0.3608382,0.81749403,-7.58158,8.186474,-0.6992756,-1.3675568,-1.4942119,-0.0013616228,0
1.1100000000000008,16.401619445838595,-2.3752905328857685,-0.5099029856879655,-0.012231836765816842,15.351793,-3.6320944,1.5278481,0.16983625,7.075357,-8.504055,2.065896,0.44814205,0.060069874,0.35175025,0.8196535,-7.5135307,8.273851,-0.67640066,-1.5247126,-1.3407089,-0.0018950272,0
1.1200000000000008,16.32366359769462,-2.9966426045770373,0.48712151448003377,0.20527414908988606,15.516347,-4.563756,2.1937287,0.61001414,7.0005608,-8.420891,2.059255,0.4508482,0.061715465,0.34235004,0.82202387,-7.4458675,8.358634,-0.6514802,-1.6573598,-1.2111444,-0.002402255,0
1.1300000000000008,16.32366359769462,-2.9966426045770373,0.48712151448003377,0.20527414908988606,15.516347,-4.563756,2.1937287,0.61001414,6.926436,-8.336893,2.0528703,0.45320025,0.06215734,0.33265495,0.8246735,-7.379248,8.440501,-0.6250617,-1.8662136,-0.94631284,0.007788486,0
1.1400000000000008,16.32366359769462,-2.9966426045770373,0.48712151448003377,0.20527414908988606,15.516347,-4.563756,2.1937287,0.61001414,6.852972,-8.252089,2.0467608,0.45511565,0.061169114,0.32268003,0.82765055,-7.3138146,8.520006,-0.5965019,-2.0425,-0.72278327,0.01747916,0
1.1500000000000008,16.32366359769462,-2.9966426045770373,0.48712151448003377,0.20527414908988606,15.516347,-4.563756,2.1937287,0.61001414,6.7801547,-8.166501,2.0409477,0.45665592,0.05896907,0.31246108,0.83087647,-7.2500224,8.597298,-0.5657546,-2.191297,-0.534114,0.026694307,0
1.1600000000000008,16.14002489009126,-3.257149948494834,1.1840703953398675,0.4204871054595544,16.892595,-4.561867,2.2191296,1.2697322,6.7079654,-8.080151,2.0354533,0.4578697,0.055742074,0.30202737,0.8342824,-7.1882606,8.672495,-0.53279704,-2.3168907,-0.3748684,0.03545727,0
1.1700000000000008,16.14002489009126,-3.257149948494834,1.1840703953398675,0.4204871054595544,16.892595,-4.561867,2.2191296,1.2697322,6.636379,-7.9930625,2.0302918,0.45869547,0.05137196,0.2914422,0.8378666,-7.129552,8.744875,-0.4991273,-2.4635274,-0.13178636,0.054350805,0
1.1800000000000008,16.14002489009126,-3.257149948494834,1.1840703953398675,0.4204871054595544,16.892595,-4.561867,2.2191296,1.2697322,6.5653653,-7.9052596,2.0254781,0.45908263,0.045774817,0.28075564,0.8416197,-7.0736027,8.815435,-0.463288,-2.5873003,0.073386185,0.07231721,0
1.1900000000000008,16.14002489009126,-3.257149948494834,1.1840703953398675,0.4204871054595544,16.892595,-4.561867,2.2191296,1.2697322,6.494896,-7.816759,2.0210335,0.45908,0.0391391,0.26997215,0.84547514,-7.020793,8.8843155,-0.42531672,-2.6917737,0.24656194,0.08940199,0
1.2000000000000008,16.042608811895217,-3.1352988570368567,1.5990524486752704,0.5771447316040915,16.572655,-5.07234,2.9591606,1.9598676,6.4249377,-7.7275777,2.016979,0.45872664,0.03162475,0.25909555,0.8493755,-6.9714513,8.951619,-0.3852712,-2.7799566,0.39273125,0.10564843,0
1.2100000000000009,16.042608811895217,-3.1352988570368567,1.5990524486752704,0.5771447316040915,16.572655,-5.07234,2.9591606,1.9598676,6.3554525,-7.6377335,2.0133307,0.45799375,0.023253722,0.24824636,0.8532727,-6.9261417,9.017035,-0.34407753,-2.8353937,0.5808098,0.1287849,0
1.2200000000000009,16.042608811895217,-3.1352988570368567,1.5990524486752704,0.5771447316040915,16.572655,-5.07234,2.9591606,1.9598676,6.2864013,-7.5472417,2.0101037,0.45685947,0.014050987,0.23752114,0.85712606,-6.88484,9.081091,-0.30101913,-2.8821874,0.73955894,0.15078604,0
1.2300000000000009,16.042608811895217,-3.1352988570368567,1.5990524486752704,0.5771447316040915,16.572655,-5.07234,2.9591606,1.9598676,6.217742,-7.4561157,2.007316,0.45536128,0.0041465154,0.2268909,0.8609,-6.847788,9.143898,-0.25623077,-2.921685,0.8735528,0.17170759,0
1.2400000000000009,16.042608811895217,-3.1352988570368567,1.5990524486752704,0.5771447316040915,16.801607,-4.6943135,2.998743,2.6812074,6.1494308,-7.364368,2.0049844,0.4535299,-0.006349014,0.21633165,0.86456364,-6.815196,9.205535,-0.20985544,-2.9550235,0.98665196,0.1916025,0
1.2500000000000009,16.042608811895217,-3.1352988570368567,1.5990524486752704,0.5771447316040915,16.801607,-4.6943135,2.998743,2.6812074,6.081422,-7.27201,2.003124,0.4513906,-0.017341249,0.20582372,0.8680908,-6.787243,9.266056,-0.16204327,-2.9831626,1.0821152,0.21052116,0
1.260000000000001,16.042608811895217,-3.1352988570368567,1.5990524486752704,0.5771447316040915,16.801607,-4.6943135,2.998743,2.6812074,6.0136695,-7.1790514,2.0017483,0.4489644,-0.028749652,0.19535127,0.8714595,-6.764083,9.325492,-0.11295114,-3.0069127,1.1626928,0.22851148,0
1.270000000000001,16.042608811895217,-3.1352988570368567,1.5990524486752704,0.5771447316040915,16.801607,-4.6943135,2.998743,2.6812074,5.9461236,-7.085504,2.000869,0.44626895,-0.040505394,0.1849016,0.8746508,-6.7458453,9.383853,-0.062741436,-3.026958,1.2307061,0.24561903,0
1.280000000000001,15.239444851918828,-2.6851143242254056,1.4443693706264331,0.6396774403971285,16.05817,-3.3695066,2.8882399,2.4662337,5.878735,-6.9913783,2.0004966,0.44331914,-0.05254957,0.17446469,0.8776492,-6.7326393,9.441136,-0.011581451,-3.0438764,1.2881145,0.26188707,0
1.290000000000001,15.239444851918828,-2.6851143242254056,1.4443693706264331,0.6396774403971285,16.05817,-3.3695066,2.8882399,2.4662337,5.811451,-6.8966994,2.0006022,0.4401426,-0.06469643,0.16416451,0.8804193,-6.7249465,9.494515,0.032844067,-2.987948,1.3124558,0.28042537,0
1.300000000000001,15.239444851918828,-2.6851143242254056,1.4443693706264331,0.6396774403971285,16.05817,-3.3695066,2.8882399,2.4662337,5.7442193,-6.8014917,2.0011554,0.43676654,-0.076796405,0.15410188,0.8829435,-6.722093,9.546857,0.077832356,-2.94074,1.3330022,0.29805398,0
1.310000000000001,15.239444851918828,-2.6851143242254056,1.4443693706264331,0.6396774403971285,16.05817,-3.3695066,2.8882399,2.4662337,5.6769924,-6.7057657,2.00216,0.43320173,-0.08885153,0.14423831,0.8852323,-6.7240396,9.59816,0.12321206,-2.9008934,1.3503457,0.31481752,0
1.320000000000001,14.460955653022035,-2.1403561161419766,0.7403795964683254,0.6676761298133345,16.726934,-2.8249912,2.1728256,2.5636194,5.6097217,-6.6095324,2.0036201,0.42945728,-0.100863084,0.1345415,0.8872942,-6.7307477,9.648412,0.16881995,-2.86726,1.3649857,0.33075848,0
1.330000000000001,14.460955653022035,-2.1403561161419766,0.7403795964683254,0.6676761298133345,16.726934,-2.8249912,2.1728256,2.5636194,5.5423636,-6.512814,2.0054998,0.42559907,-0.11248818,0.1250582,0.88914096,-6.7415733,9.695078,0.20715822,-2.7538927,1.2675735,0.34729114,0
1.340000000000001,14.460955653022035,-2.1403561161419766,0.7403795964683254,0.6676761298133345,16.726934,-2.8249912,2.1728256,2.5636194,5.4748755,-6.4156346,2.007763,0.42168456,-0.12345664,0.11582764,0.8907996,-6.7566776,9.740673,0.24545266,-2.6582055,1.1853523,0.36301252,0
1.350000000000001,14.460955653022035,-2.1403561161419766,0.7403795964683254,0.6676761298133345,16.726934,-2.8249912,2.1728256,2.5636194,5.407216,-6.3180046,2.0104084,0.41770905,-0.13386713,0.106814094,0.89229417,-6.775858,9.78514,0.28360757,-2.5774417,1.1159531,0.37796247,0
1.360000000000001,13.441184696739205,-1.5520337907878616,-0.42379218020189685,0.6020896755063151,16.15784,-3.339583,-1.9359188,3.067612,5.3393455,-6.219936,2.0134344,0.41366827,-0.14380291,0.09798689,0.8936427,-6.798938,9.828429,0.32153732,-2.5092738,1.0573761,0.39217883,0
1.370000000000001,13.441184696739205,-1.5520337907878616,-0.42379218020189685,0.6020896755063151,16.15784,-3.339583,-1.9359188,3.067612,5.271234,-6.121455,2.0167902,0.4096463,-0.15282185,0.08933742,0.89490426,-6.8238444,9.8675165,0.3496014,-2.3599393,0.82641107,0.40247926,0
1.380000000000001,13.441184696739205,-1.5520337907878616,-0.42379218020189685,0.6020896755063151,16.15784,-3.339583,-1.9359188,3.067612,5.2028575,-6.02259,2.020425,0.4057133,-0.16057959,0.08086055,0.8961427,-6.8518972,9.905348,0.3773883,-2.2339,0.6314614,0.4122742,0
1.390000000000001,13.441184696739205,-1.5520337907878616,-0.42379218020189685,0.6020896755063151,16.15784,-3.339583,-1.9359188,3.067612,5.1341863,-5.923353,2.0243368,0.40184656,-0.16727224,0.07253563,0.8973724,-6.882777,9.941813,0.4049167,-2.1275222,0.46691075,0.42158848,0
1.400000000000001,12.423048119185136,-1.064005320776459,-1.6690226637730612,0.47759037982592945,17.786587,-3.0681968,-2.7435029,3.0970256,5.065193,-5.823759,2.0285225,0.3980263,-0.17306508,0.06434414,0.89860034,-6.916213,9.976822,0.4322054,-2.037739,0.32801896,0.43044573,0
1.410000000000001,12.423048119185136,-1.064005320776459,-1.6690226637730612,0.47759037982592945,17.786587,-3.0681968,-2.7435029,3.0970256,4.9958673,-5.723835,2.0329325,0.39431491,-0.17757314,0.056245066,0.89989954,-6.9492393,10.0077505,0.4498009,-1.8857985,0.016621105,0.43275914,0
1.420000000000001,12.423048119185136,-1.064005320776459,-1.6690226637730612,0.47759037982592945,17.786587,-3.0681968,-2.7435029,3.0970256,4.9262023,-5.623609,2.0375178,0.39076102,-0.18049924,0.048206594,0.901333,-6.9840393,10.037113,0.46728432,-1.7575659,-0.24622038,0.43495902,0
1.430000000000001,12.423048119185136,-1.064005320776459,-1.6690226637730612,0.47759037982592945,17.786587,-3.0681968,-2.7435029,3.0970256,4.856182,-5.523098,2.0422778,0.3873296,-0.18208945,0.040225036,0.9028845,-7.020267,10.064776,0.48474863,-1.649342,-0.4680773,0.437051,0
1.440000000000001,12.423048119185136,-1.064005320776459,-1.6690226637730612,0.47759037982592945,17.756716,-2.709174,-3.8236814,3.0011356,4.7857933,-5.42232,2.047213,0.38399044,-0.18255073,0.032296214,0.9045345,-7.0576267,10.090629,0.502272,-1.5580051,-0.65534014,0.43904027,0
1.450000000000001,12.423048119185136,-1.064005320776459,-1.6690226637730612,0.47759037982592945,17.756716,-2.709174,-3.8236814,3.0011356,4.7150264,-5.3212924,2.052324,0.3807178,-0.18205728,0.024415832,0.90626276,-7.0958657,10.114576,0.5199181,-1.4809201,-0.813403,0.44093192,0
1.460000000000001,12.423048119185136,-1.064005320776459,-1.6690226637730612,0.47759037982592945,17.756716,-2.709174,-3.8236814,3.0011356,4.6438737,-5.220035,2.0576122,0.37749025,-0.18075581,0.016579697,0.90804887,-7.134768,10.136541,0.5377364,-1.415863,-0.94681937,0.44273078,0
1.470000000000001,12.423048119185136,-1.064005320776459,-1.6690226637730612,0.47759037982592945,17.756716,-2.709174,-3.8236814,3.0011356,4.5723295,-5.1185684,2.0630794,0.37428987,-0.17876996,0.008783851,0.9098738,-7.174145,10.156458,0.5557638,-1.3609574,-1.0594323,0.44444135,0
1.480000000000001,11.647687030094197,-0.7084628562691374,-2.5946236238975056,0.35994843016868217,16.742233,-2.1817238,-4.4549804,2.2227926,4.50039,-5.0169134,2.068728,0.371102,-0.17620404,0.0010246423,0.91172004,-7.213837,10.1742735,0.57402545,-1.314619,-1.1544856,0.446068,0
1.490000000000001,11.647687030094197,-0.7084628562691374,-2.5946236238975056,0.35994843016868217,16.742233,-2.1817238,-4.4549804,2.2227926,4.4280643,-4.9150953,2.0745242,0.36795208,-0.17275526,-0.0067109517,0.9136306,-7.2511964,10.188955,0.5852655,-1.2200278,-1.3790436,0.44184205,0
1.500000000000001,11.647687030094197,-0.7084628562691374,-2.5946236238975056,0.35994843016868217,16.742233,-2.1817238,-4.4549804,2.2227926,4.3553658,-4.8131413,2.0804343,0.36485645,-0.16818705,-0.014432182,0.9156329,-7.288467,10.20153,0.5967979,-1.1401992,-1.5685868,0.43782353,0
1.5100000000000011,11.647687030094197,-0.7084628562691374,-2.5946236238975056,0.35994843016868217,16.742233,-2.1817238,-4.4549804,2.2227926,4.282296,-4.711072,2.0864613,0.3617921,-0.16266972,-0.022137275,0.9176895,-7.3254113,10.211912,0.6086696,-1.0728288,-1.7285748,0.43400216,0
1.5200000000000011,10.367085462219073,-0.4983167366166453,-3.5426584716699194,0.22151119354309945,14.932442,-1.7960474,-4.515042,1.7126775,4.20886,-4.60891,2.0926087,0.35874003,-0.15634695,-0.029824961,0.9197667,-7.361823,10.220031,0.62090856,-1.0159723,-1.8636162,0.43036833,0
1.5300000000000011,10.367085462219073,-0.4983167366166453,-3.5426584716699194,0.22151119354309945,14.932442,-1.7960474,-4.515042,1.7126775,4.1350822,-4.5066824,2.0988197,0.35570043,-0.14896,-0.037555087,0.92188764,-7.3935814,10.225183,0.62135845,-0.93518484,-2.125433,0.42011964,0
1.5400000000000011,10.367085462219073,-0.4983167366166453,-3.5426584716699194,0.22151119354309945,14.932442,-1.7960474,-4.515042,1.7126775,4.0609913,-4.4044137,2.105037,0.3526678,-0.14030811,-0.04537335,0.9240559,-7.4244514,10.228158,0.6221793,-0.86700976,-2.3464243,0.41037387,0
1.5500000000000012,10.367085462219073,-0.4983167366166453,-3.5426584716699194,0.22151119354309945,14.932442,-1.7960474,-4.515042,1.7126775,3.9865968,-4.3021264,2.1112642,0.3496207,-0.13058172,-0.05325982,0.92621607,-7.454194,10.228858,0.6233867,-0.8094776,-2.5329564,0.4011063,0
1.5600000000000012,9.536771290019713,-0.4138279516752581,-4.0760241742629,0.10217416321668728,10.078713,-1.2108746,-5.2123713,0.95222837,3.9119117,-4.199844,2.1175058,0.34654137,-0.119942196,-0.061197527,0.9283194,-7.4826007,10.227201,0.6249728,-0.76092654,-2.6904018,0.3922935,0
1.5700000000000012,9.536771290019713,-0.4138279516752581,-4.0760241742629,0.10217416321668728,10.078713,-1.2108746,-5.2123713,0.95222837,3.8369608,-4.097589,2.1237247,0.343419,-0.108315416,-0.06921583,0.9303437,-7.507327,10.223446,0.6188996,-0.70676833,-2.9064684,0.37805727,0
1.5800000000000012,9.536771290019713,-0.4138279516752581,-4.0760241742629,0.10217416321668728,10.078713,-1.2108746,-5.2123713,0.95222837,3.7617705,-3.9953828,2.1298845,0.3402417,-0.09564917,-0.07733557,0.932258,-7.530448,10.217379,0.6131194,-0.66106665,-3.088843,0.36451963,0
1.5900000000000012,9.536771290019713,-0.4138279516752581,-4.0760241742629,0.10217416321668728,10.078713,-1.2108746,-5.2123713,0.95222837,3.6863582,-3.8932493,2.135988,0.33699554,-0.08210019,-0.085531615,0.9340112,-7.5517735,10.208932,0.6075836,-0.6225004,-3.242779,0.35164624,0
1.6000000000000012,9.142210473895505,-0.506126900132605,-4.055036862582434,0.060723911193696724,11.565155,-1.3040786,-4.5267944,0.34628102,3.610742,-3.7912126,2.1420372,0.33366945,-0.0678022,-0.093782246,0.93555945,-7.5711374,10.198052,0.6022244,-0.58995533,-3.372711,0.33940458,0
1.6100000000000012,9.142210473895505,-0.506126900132605,-4.055036862582434,0.060723911193696724,11.565155,-1.3040786,-4.5267944,0.34628102,3.5349462,-3.689294,2.1480138,0.33025807,-0.052889198,-0.10210073,0.93686014,-7.587681,10.185253,0.5931171,-0.57688963,-3.479111,0.32572964,0
1.6200000000000012,9.142210473895505,-0.506126900132605,-4.055036862582434,0.060723911193696724,11.565155,-1.3040786,-4.5267944,0.34628102,3.4589953,-3.5875158,2.1538997,0.32675904,-0.037474535,-0.11049612,0.93787736,-7.6020894,10.1700535,0.5840032,-0.56586546,-3.5689194,0.31272575,0
1.6300000000000012,9.142210473895505,-0.506126900132605,-4.055036862582434,0.060723911193696724,11.565155,-1.3040786,-4.5267944,0.34628102,3.3829117,-3.4859016,2.1596937,0.32316843,-0.021636613,-0.118945025,0.9385868,-7.614266,10.152435,0.57477635,-0.5565632,-3.644723,0.30035996,0
1.6400000000000012,9.142210473895505,-0.506126900132605,-4.055036862582434,0.060723911193696724,10.760141,-1.3566512,-4.4264708,0.2503731,3.3067179,-3.3844757,2.1653943,0.3194835,-0.0054430827,-0.1274271,0.93896854,-7.624127,10.132391,0.5653223,-0.5487135,-3.7087052,0.28860095,0
1.6500000000000012,9.142210473895505,-0.506126900132605,-4.055036862582434,0.060723911193696724,10.760141,-1.3566512,-4.4264708,0.2503731,3.230437,-3.2832623,2.1709988,0.31570232,0.0110475095,-0.13592462,0.93900657,-7.631599,10.109924,0.55552006,-0.54208934,-3.7627103,0.27741894,0
1.6600000000000013,9.142210473895505,-0.506126900132605,-4.055036862582434,0.060723911193696724,10.760141,-1.3566512,-4.4264708,0.2503731,3.154094,-3.1822855,2.176503,0.31182367,0.027784342,-0.14442201,0.938688,-7.6366205,10.085049,0.545244,-0.53649896,-3.8082938,0.26678568,0
1.6700000000000013,9.142210473895505,-0.506126900132605,-4.055036862582434,0.060723911193696724,10.760141,-1.3566512,-4.4264708,0.2503731,3.0777133,-3.0815697,2.1819015,0.30784696,0.044723146,-0.15290558,0.9380025,-7.6391406,10.057786,0.5343644,-0.53178114,-3.846769,0.25667417,0
1.6800000000000013,8.879186614161897,-0.5565520804770907,-3.2499582442375896,0.08501181647567194,10.158715,-0.8402153,-4.1765985,0.54399735,3.0013201,-2.981138,2.1871874,0.30377203,0.061825223,-0.1613632,0.93694234,-7.6391177,10.028164,0.5227491,-0.5277992,-3.8792443,0.24705882,0
1.6900000000000013,8.879186614161897,-0.5565520804770907,-3.2499582442375896,0.08501181647567194,10.158715,-0.8402153,-4.1765985,0.54399735,2.9249396,-2.8810098,2.192341,0.29965165,0.078748554,-0.1697065,0.9355245,-7.636604,9.997148,0.507804,-0.53231865,-3.7811055,0.23910713,0
1.7000000000000013,8.879186614161897,-0.5565520804770907,-3.2499582442375896,0.08501181647567194,10.158715,-0.8402153,-4.1765985,0.54399735,2.8485966,-2.7812026,2.1973403,0.2955359,0.09522113,-0.17786874,0.9337843,-7.631645,9.963965,0.49190786,-0.5361291,-3.6982713,0.23154563,0
1.7100000000000013,8.879186614161897,-0.5565520804770907,-3.2499582442375896,0.08501181647567194,10.158715,-0.8402153,-4.1765985,0.54399735,2.7723153,-2.6817377,2.2021754,0.29142028,0.111305945,-0.18586884,0.93173873,-7.6243076,9.928707,0.4749634,-0.5393417,-3.6283553,0.22435515,0
1.7200000000000013,8.608450774862845,-0.5679877216833686,-2.084722384911364,0.1672868002246017,9.15634,-0.8783214,-3.2069333,0.6030142,2.6961188,-2.5826354,2.2068355,0.28730017,0.12705573,-0.19372226,0.92940104,-7.6146474,9.8914585,0.45687842,-0.5420503,-3.5693424,0.21751752,0
1.7300000000000013,8.608450774862845,-0.5679877216833686,-2.084722384911364,0.1672868002246017,9.15634,-0.8783214,-3.2069333,0.6030142,2.6200287,-2.4839091,2.2112968,0.2832554,0.142079,-0.20131502,0.9268502,-7.6030955,9.8535,0.43516925,-0.5461333,-3.3378162,0.21505268,0
1.7400000000000013,8.608450774862845,-0.5679877216833686,-2.084722384911364,0.1672868002246017,9.15634,-0.8783214,-3.2069333,0.6030142,2.5440645,-2.3855715,2.2155347,0.279357,0.15607142,-0.20856376,0.92417616,-7.5894995,9.813823,0.41224062,-0.5495735,-3.1423967,0.21270879,0
1.7500000000000013,8.608450774862845,-0.5679877216833686,-2.084722384911364,0.1672868002246017,9.15634,-0.8783214,-3.2069333,0.6030142,2.4682457,-2.2876384,2.2195375,0.2755873,0.16919114,-0.21552072,0.9213988,-7.574008,9.772551,0.38807708,-0.5524723,-2.9774525,0.21047993,0
1.7600000000000013,8.507829634556572,-0.4671856910825744,-0.6212851926402337,0.2673343214149408,8.842631,-0.8482356,-1.2603345,0.33751127,2.3925908,-2.1901257,2.2232924,0.2719296,0.1815714,-0.22222926,0.9185311,-7.55675,9.729791,0.36266682,-0.55491495,-2.8382313,0.20836043,1
1.7700000000000014,8.507829634556572,-0.4671856910825744,-0.6212851926402337,0.2673343214149408,8.842631,-0.8482356,-1.2603345,0.33751127,2.317119,-2.0930533,2.2267964,0.26844463,0.1929872,-0.22874339,0.9156249,-7.537332,9.684438,0.33794758,-0.60068065,-2.5921679,0.21469791,1
1.7800000000000014,8.507829634556572,-0.4671856910825744,-0.6212851926402337,0.2673343214149408,8.842631,-0.8482356,-1.2603345,0.33751127,2.2418492,-1.9964414,2.230047,0.26518255,0.20326853,-0.2351114,0.9127332,-7.5164046,9.637748,0.31196502,-0.63930637,-2.3844771,0.2207244,1
1.7900000000000014,8.507829634556572,-0.4671856910825744,-0.6212851926402337,0.2673343214149408,8.842631,-0.8482356,-1.2603345,0.33751127,2.1667953,-1.9003025,2.2330315,0.2621133,0.2125925,-0.24135794,0.90986073,-7.494145,9.589805,0.2847513,-0.67190564,-2.2091749,0.22645517,1
1.8000000000000014,8.526191204825595,-0.20463088955453182,1.0124246280030689,0.3485233395966513,8.531931,-0.672645,0.09230445,0.71845335,2.0919702,-1.8046492,2.2357378,0.25920954,0.221108,-0.24750285,0.9070078,-7.470702,9.540679,0.25633612,-0.69941866,-2.0612102,0.23190473,1
1.8100000000000014,8.526191204825595,-0.20463088955453182,1.0124246280030689,0.3485233395966513,8.531931,-0.672645,0.09230445,0.71845335,2.0173807,-1.709484,2.2381418,0.25652438,0.22845694,-0.25337023,0.90432596,-7.4470773,9.492204,0.22435066,-0.69526684,-1.725381,0.2557798,1
1.8200000000000014,8.526191204825595,-0.20463088955453182,1.0124246280030689,0.3485233395966513,8.531931,-0.672645,0.09230445,0.71845335,1.9430315,-1.6148084,2.240221,0.25409788,0.23436391,-0.25882798,0.9019508,-7.422643,9.44276,0.19134669,-0.69176453,-1.4419235,0.27848333,1
1.8300000000000014,8.526191204825595,-0.20463088955453182,1.0124246280030689,0.3485233395966513,8.531931,-0.672645,0.09230445,0.71845335,1.86893,-1.5206317,2.2419655,0.25188807,0.23905468,-0.26394853,0.89985317,-7.3975906,9.392454,0.1574407,-0.6888092,-1.2026707,0.3000728,1
1.8400000000000014,8.526191204825595,-0.20463088955453182,1.0124246280030689,0.3485233395966513,9.317922,-0.40964368,1.3353157,1.1010906,1.7950814,-1.426962,2.243367,0.2498578,0.24271859,-0.26879135,0.8980029,-7.3720794,9.34137,0.1227354,-0.6863144,-1.0007287,0.32060286,1
1.8500000000000014,8.526191204825595,-0.20463088955453182,1.0124246280030689,0.3485233395966513,9.317922,-0.40964368,1.3353157,1.1010906,1.7215015,-1.3338305,2.2444465,0.24804123,0.245082,-0.27319893,0.8965333,-7.3438773,9.284815,0.093108386,-0.6432276,-0.63643104,0.3589016,1
1.8600000000000014,8.526191204825595,-0.20463088955453182,1.0124246280030689,0.3485233395966513,9.317922,-0.40964368,1.3353157,1.1010906,1.6482043,-1.2412679,2.2452269,0.24646014,0.24593517,-0.2770522,0.8955527,-7.315543,9.227622,0.06289363,-0.6068639,-0.32894433,0.395321,1
1.8700000000000014,8.526191204825595,-0.20463088955453182,1.0124246280030689,0.3485233395966513,9.317922,-0.40964368,1.3353157,1.1010906,1.5751904,-1.14928,2.245703,0.24506655,0.24550964,-0.2804461,0.89499533,-7.287277,9.16991,0.032267537,-0.5761724,-0.0694092,0.4299533,1
1.8800000000000014,8.928188051893619,0.1606577768568781,2.5074717918628835,0.37660476437861506,9.289742,-0.55965436,2.6709354,1.1947405,1.502458,-1.0578711,2.2458713,0.24381855,0.2439996,-0.2834588,0.8948,-7.25925,9.111779,0.0013801851,-0.5502666,0.14965217,0.4628862,1
1.8900000000000015,8.928188051893619,0.1606577768568781,2.5074717918628835,0.37660476437861506,9.289742,-0.55965436,2.6709354,1.1947405,1.4300035,-0.9670446,2.2457292,0.24283604,0.24107173,-0.28608075,0.8950264,-7.2317085,9.053492,-0.029833272,-0.55186117,0.5428315,0.49879852,1
1.9000000000000015,8.928188051893619,0.1606577768568781,2.5074717918628835,0.37660476437861506,9.289742,-0.55965436,2.6709354,1.1947405,1.3578213,-0.87680215,2.245275,0.24221052,0.23646802,-0.288306,0.8957097,-7.2048097,8.99497,-0.060988147,-0.5532033,0.8746954,0.5329486,1
1.9100000000000015,8.928188051893619,0.1606577768568781,2.5074717918628835,0.37660476437861506,9.289742,-0.55965436,2.6709354,1.1947405,1.2859039,-0.7871457,2.2445104,0.24186903,0.23043947,-0.2901965,0.8967621,-7.178799,8.936311,-0.091913596,-0.55433065,1.154806,0.56542295,1
1.9200000000000015,9.291891409148148,0.6118593306666735,3.5718815338087904,0.3180664738747898,9.696059,-0.4017276,3.5602832,1.2203246,1.2142414,-0.6980761,2.2434382,0.24174865,0.223197,-0.29180226,0.8981043,-7.1538877,8.877596,-0.12247306,-0.5552758,1.3912339,0.59630376,0
1.9300000000000015,9.291891409148148,0.6118593306666735,3.5718815338087904,0.3180664738747898,9.696059,-0.4017276,3.5602832,1.2203246,1.1428217,-0.60959375,2.2420628,0.24189472,0.21473902,-0.29263097,0.89985573,-7.1302524,8.818901,-0.15252842,-0.37337855,1.7313787,0.58265054,0
1.9400000000000015,9.291891409148148,0.6118593306666735,3.5718815338087904,0.3180664738747898,9.696059,-0.4017276,3.5602832,1.2203246,1.0716312,-0.5216974,2.24039,0.2423575,0.20507644,-0.29228845,0.9020937,-7.108063,8.760428,-0.18190946,-0.21982327,2.0184643,0.56966734,0
1.9500000000000015,9.291891409148148,0.6118593306666735,3.5718815338087904,0.3180664738747898,9.696059,-0.4017276,3.5602832,1.2203246,1.0006549,-0.43438378,2.2384274,0.24309134,0.19438964,-0.29094324,0.9046935,-7.0874667,8.702381,-0.21044062,-0.09019464,2.260768,0.55732113,0
1.9600000000000015,9.533292799574552,1.076007194121445,3.8111102865467226,0.19664070781434273,9.821442,0.06067536,3.3337255,0.2963368,0.929876,-0.34764773,2.2361846,0.24405484,0.18283074,-0.2887365,0.9075464,-7.0685935,8.6449375,-0.23798893,0.01923496,2.4652753,0.54558086,0
1.9700000000000015,9.533292799574552,1.076007194121445,3.8111102865467226,0.19664070781434273,9.821442,0.06067536,3.3337255,0.2963368,0.859279,-0.26148978,2.2336807,0.24521863,0.17049105,-0.28559187,0.91062444,-7.051117,8.586793,-0.26259246,0.18399312,2.675214,0.5284583,0
1.9800000000000015,9.533292799574552,1.076007194121445,3.8111102865467226,0.19664070781434273,9.821442,0.06067536,3.3337255,0.2963368,0.78884685,-0.17590846,2.2309368,0.24655905,0.15745,-0.28145286,0.9138935,-7.0356283,8.529638,-0.2859847,0.32307136,2.852401,0.512176,0
1.9900000000000015,9.533292799574552,1.076007194121445,3.8111102865467226,0.19664070781434273,9.821442,0.06067536,3.3337255,0.2963368,0.7185593,-0.09089294,2.2279656,0.24804819,0.14381091,-0.2764561,0.91725767,-7.0222163,8.473665,-0.3080919,0.44047168,3.001946,0.49669254,0
2.0000000000000013,,,,,9.303311,0.56278205,3.323764,0.34111413,0.6483951,-0.006430492,2.2247798,0.24966036,0.12966186,-0.27071732,0.9206349,-7.0109606,8.419049,-0.3288739,0.53957236,3.1281617,0.4819689,1
2.010000000000001,,,,,9.303311,0.56278205,3.323764,0.34111413,0.5783313,0.07749967,2.2213833,0.25132963,0.11520222,-0.26457596,0.92388326,-7.0021486,8.367221,-0.35022336,0.5431965,3.1586647,0.47505713,1
2.020000000000001,,,,,9.303311,0.56278205,3.323764,0.34111413,0.5083446,0.16091925,2.2177796,0.25299937,0.10059586,-0.25831065,0.92690146,-6.9955554,8.316941,-0.37032986,0.54625654,3.1844106,0.4684845,1
2.0300000000000007,,,,,9.303311,0.56278205,3.323764,0.34111413,0.43841255,0.24384402,2.2139804,0.2546606,0.085864805,-0.2519303,0.92968017,-6.991216,8.268266,-0.38926965,0.54884,3.206141,0.46223438,1
2.0400000000000005,,,,,9.303311,0.56278205,3.323764,0.34111413,0.36851245,0.32629028,2.2099977,0.25630563,0.07102838,-0.24544288,0.93221194,-6.9891615,8.221247,-0.40712357,0.55102116,3.2244828,0.45629096,1
2.0500000000000003,,,,,9.015953,0.72984266,2.7824912,0.3357853,0.2986214,0.40827483,2.2058413,0.2579278,0.05610363,-0.23885548,0.93449056,-6.989416,8.175934,-0.42397633,0.55286264,3.239964,0.4506392,1
2.06,,,,,9.015953,0.72984266,2.7824912,0.3357853,0.2287165,0.48982176,2.2015085,0.25946778,0.041325793,-0.23216845,0.9365177,-6.991912,8.133718,-0.44245437,0.5804951,3.1686275,0.4450033,1
2.07,,,,,9.015953,0.72984266,2.7824912,0.3357853,0.15877557,0.57095516,2.196995,0.26088333,0.026883628,-0.22538494,0.9383058,-6.9966135,8.093228,-0.46013904,0.6038142,3.1084142,0.43964395,1
2.0799999999999996,,,,,9.015953,0.72984266,2.7824912,0.3357853,0.08877683,0.65169233,2.1923084,0.26219127,0.012728295,-0.21851473,0.93986386,-7.003466,8.054489,-0.47711903,0.6234929,3.0575902,0.4345476,1
2.0899999999999994,,,,,9.773144,1.0213273,1.8800671,0.29662317,0.018699013,0.732051,2.187455,0.26340517,-0.0011813496,-0.21156615,0.94119877,-7.0124216,8.017523,-0.4934794,0.64009976,3.0146914,0.4297013,1
2.099999999999999,,,,,9.773144,1.0213273,1.8800671,0.29662317,-0.05148314,0.81203413,2.182475,0.26446632,-0.014508095,-0.20453249,0.9423442,-7.0243464,7.9793897,-0.50239193,0.69961375,2.837761,0.42317113,1
2.109999999999999,,,,,9.773144,1.0213273,1.8800671,0.29662317,-0.12179503,0.8916455,2.1774087,0.26533696,-0.02698594,-0.19741185,0.94334275,-7.038342,7.9431877,-0.5108014,0.74983686,2.6884198,0.4169614,1
2.1199999999999988,,,,,9.773144,1.0213273,1.8800671,0.29662317,-0.19225655,0.9709044,2.1722603,0.26605365,-0.038743187,-0.19021699,0.9442091,-7.054252,7.9089036,-0.5187773,0.79221976,2.562366,0.4110564,1
2.1299999999999986,,,,,9.3928585,1.2123044,1.2012357,0.3188556,-0.2628862,1.0498301,2.1670341,0.26664555,-0.049888533,-0.18295836,0.94495314,-7.0719433,7.8765254,-0.52638113,0.8279865,2.4559681,0.40544114,1
2.1399999999999983,,,,,9.3928585,1.2123044,1.2012357,0.3188556,-0.33369747,1.1284474,2.161716,0.26708883,-0.060237434,-0.17564498,0.9456124,-7.0905385,7.847224,-0.5372011,0.8879786,2.2603066,0.40119234,1
2.149999999999998,,,,,9.3928585,1.2123044,1.2012357,0.3188556,-0.40470192,1.2067808,2.156291,0.26736942,-0.069648854,-0.16828558,0.94622487,-7.1105595,7.8197093,-0.5477553,0.9386056,2.0951557,0.397152,1
2.159999999999998,,,,,9.3928585,1.2123044,1.2012357,0.3188556,-0.475913,1.2848479,2.1507618,0.26752043,-0.07826645,-0.16088742,0.9467953,-7.1318426,7.7939463,-0.5580744,0.9813296,1.955758,0.39330998,1
2.1699999999999977,,,,,8.393503,1.1925175,0.608267,0.27767846,-0.54734266,1.3626658,2.1451304,0.26756808,-0.086211726,-0.15345629,0.94732517,-7.1542516,7.769905,-0.5681849,1.0173846,1.8380976,0.3896565,1
2.1799999999999975,,,,,8.393503,1.1925175,0.608267,0.27767846,-0.6189891,1.4402639,2.1393518,0.26750177,-0.09336397,-0.14606844,0.94783384,-7.1751704,7.7499347,-0.58749133,1.0447512,1.6463094,0.3841617,1
2.1899999999999973,,,,,8.393503,1.1925175,0.608267,0.27767846,-0.6908487,1.5176696,2.1333811,0.26731706,-0.09963325,-0.1387853,0.94834197,-7.196848,7.7314243,-0.60664606,1.0678408,1.4844292,0.37893656,1
2.199999999999997,,,,,8.393503,1.1925175,0.608267,0.27767846,-0.7629283,1.5948973,2.1272194,0.26704016,-0.10515576,-0.13159089,0.9488492,-7.2191553,7.7143207,-0.62565905,1.0873221,1.3477935,0.37396777,1
