time-since-start [s],throttle_mpc,roll_mpc,pitch_mpc,yaw_mpc,throttle_nw,roll_nw,pitch_nw,yaw_nw,position_x [m],position_y [m],position_z [m],rotation_w [quaternion],rotation_x [quaternion],rotation_y [quaternion],rotation_z [quaternion],velocity_x [m/s],velocity_y [m/s],velocity_z [m/s],omega_x [rad/s],omega_y [rad/s],omega_z [rad/s],network_used
0.0,10.847136648851215,5.999974380867106,-5.999999694697936,-0.4087543805152542,11.110909,1.030519,-4.8757806,0.08136667,16.577387,-10.622947,1.8996298,0.25891384,-0.35263568,0.26719597,0.858614,-8.715702,-0.7173131,-0.12364658,0.5041457,-0.3972897,0.29469863,0
0.01,10.847136648851215,5.999974380867106,-5.999999694697936,-0.4087543805152542,13.087025,1.0116798,-5.2529354,-0.24694726,16.489925,-10.629699,1.898302,0.2600947,-0.34806708,0.2702967,0.85915065,-8.776168,-0.63359207,-0.14236489,1.1350064,-1.0445926,0.28045392,0
0.02,10.847136648851215,5.999974380867106,-5.999999694697936,-0.4087543805152542,13.087025,1.0116798,-5.2529354,-0.24694726,16.401876,-10.635626,1.8967742,0.2632239,-0.34003827,0.27514863,0.85987234,-8.832795,-0.55235094,-0.16352306,1.7179456,-1.6414592,0.26239273,0
0.03,10.847136648851215,5.999974380867106,-5.999999694697936,-0.4087543805152542,13.087025,1.0116798,-5.2529354,-0.24694726,16.313284,-10.640753,1.8950247,0.26814228,-0.328783,0.28158283,0.86064667,-8.884912,-0.47314325,-0.18667038,2.2572358,-2.1925561,0.24098848,0
0.04,10.847136648851215,5.999974380867106,-5.999999694697936,-0.4087543805152542,12.7799425,1.4831882,-5.529707,0.20603338,16.224194,-10.645096,1.8930353,0.27469128,-0.3145011,0.28943184,0.8613148,-8.931962,-0.3956275,-0.21146779,2.7567568,-2.702095,0.21666709,0
0.05,10.847136648851215,5.999974380867106,-5.999999694697936,-0.4087543805152542,12.7799425,1.4831882,-5.529707,0.20603338,16.134663,-10.64867,1.8907906,0.28271362,-0.29736623,0.29853034,0.86169964,-8.973484,-0.31956282,-0.23768003,3.2200315,-3.1738775,0.18981135,0
0.060000000000000005,10.847136648851215,5.999974380867106,-5.999999694697936,-0.4087543805152542,12.7799425,1.4831882,-5.529707,0.20603338,16.044744,-10.651491,1.8882775,0.29205176,-0.27753505,0.30871418,0.8616124,-9.009175,-0.24461289,-0.26498756,3.6472213,-3.6082976,0.16102588,0
0.07,10.847136648851215,5.999974380867106,-5.999999694697936,-0.4087543805152542,12.7799425,1.4831882,-5.529707,0.20603338,15.954497,-10.65356,1.8854939,0.3024987,-0.2552398,0.31977996,0.8608648,-9.039429,-0.16887198,-0.2915931,4.0140986,-3.981316,0.1330666,0
0.08,12.452885653721406,5.519630989689718,-5.999999716800846,-0.45238449060181346,13.685999,1.2943946,-4.7701135,0.13126858,15.8639765,-10.654864,1.8824492,0.31380096,-0.2307979,0.33148932,0.85928833,-9.06382,-0.09199746,-0.31717902,4.323748,-4.2961764,0.10647929,0
0.09,12.452885653721406,5.519630989689718,-5.999999716800846,-0.45238449060181346,13.685999,1.2943946,-4.7701135,0.13126858,15.773229,-10.655338,1.8792073,0.32569513,-0.2045579,0.3434654,0.8568025,-9.084456,-0.0026500747,-0.33105376,4.5101824,-4.561954,0.079055674,0
0.09999999999999999,12.452885653721406,5.519630989689718,-5.999999716800846,-0.45238449060181346,13.685999,1.2943946,-4.7701135,0.13126858,15.682313,-10.654914,1.8758307,0.3379643,-0.17682756,0.3553978,0.85334915,-9.097231,0.08746681,-0.34419465,4.6675353,-4.786288,0.052977744,0
0.10999999999999999,12.452885653721406,5.519630989689718,-5.999999716800846,-0.45238449060181346,13.685999,1.2943946,-4.7701135,0.13126858,15.591311,-10.653586,1.872325,0.35045934,-0.14782053,0.36718002,0.84882647,-9.1017475,0.17796022,-0.3568989,4.8003454,-4.9756384,0.028179474,0
0.11999999999999998,12.452885653721406,5.519630989689718,-5.999999716800846,-0.45238449060181346,13.685999,1.2943946,-4.7701135,0.13126858,15.500308,-10.651355,1.8686929,0.3630486,-0.11772863,0.3787194,0.84315336,-9.097694,0.26839203,-0.3695169,4.9124417,-5.1354604,0.004598062,0
0.12999999999999998,15.325390751247252,2.8926967172280853,-5.999999563498962,0.12463528722475102,13.831654,-0.5265703,-3.4860623,-0.28094828,15.409388,-10.648221,1.8649334,0.37561586,-0.08672521,0.3899354,0.8362668,-9.0848465,0.3582882,-0.38244152,5.0070558,-5.2703576,-0.017826209,0
0.13999999999999999,15.325390751247252,2.8926967172280853,-5.999999563498962,0.12463528722475102,13.831654,-0.5265703,-3.4860623,-0.28094828,15.318665,-10.644091,1.861139,0.387925,-0.055340312,0.39989433,0.82857496,-9.058092,0.46761674,-0.37657657,4.6773458,-5.3841195,-0.010835578,0
0.15,15.325390751247252,2.8926967172280853,-5.999999563498962,0.12463528722475102,13.831654,-0.5265703,-3.4860623,-0.28094828,15.228263,-10.638877,1.857398,0.39983603,-0.024025206,0.40788677,0.82047707,-9.020648,0.57483506,-0.37181854,4.399054,-5.480144,-0.0041879956,0
0.16,16.61029715605478,-0.05233974689676646,-5.9999989391172495,0.7477394947262607,13.777416,-2.4657707,-1.7887076,0.011574462,15.138287,-10.632605,1.8536983,0.41137475,0.00718411,0.4141493,0.8119112,-8.9728985,0.6791502,-0.36835048,4.164161,-5.5611973,0.0021334032,0
0.17,16.61029715605478,-0.05233974689676646,-5.9999989391172495,0.7477394947262607,13.777416,-2.4657707,-1.7887076,0.011574462,15.048861,-10.625264,1.8500681,0.42251736,0.0377996,0.4179331,0.803357,-8.9104595,0.78826046,-0.35793096,3.5067346,-5.6295447,0.038720526,0
0.18000000000000002,16.61029715605478,-0.05233974689676646,-5.9999989391172495,0.7477394947262607,13.777416,-2.4657707,-1.7887076,0.011574462,14.96011,-10.616857,1.846535,0.43329373,0.06742449,0.4186867,0.7952435,-8.838145,0.89255506,-0.34891298,2.9518294,-5.6872635,0.0735123,0
0.19000000000000003,16.61029715605478,-0.05233974689676646,-5.9999989391172495,0.7477394947262607,13.777416,-2.4657707,-1.7887076,0.011574462,14.8721285,-10.607433,1.8430859,0.44377056,0.0961575,0.416853,0.7874359,-8.756808,0.9912479,-0.34106258,2.4834569,-5.7360024,0.10659683,0
0.20000000000000004,16.126722790433266,-2.186383521002792,-4.447818792216169,0.8476420151832169,13.121827,-4.499456,0.93609285,0.3212595,14.785002,-10.597054,1.8397101,0.453985,0.124085136,0.41279978,0.77980584,-8.667223,1.0836692,-0.3342122,2.0881221,-5.7771564,0.13805789,0
0.21000000000000005,16.126722790433266,-2.186383521002792,-4.447818792216169,0.8476420151832169,13.121827,-4.499456,0.93609285,0.3212595,14.698795,-10.585796,1.8363833,0.46380958,0.1504159,0.40645877,0.7726884,-8.572991,1.1667733,-0.3312491,1.4216236,-5.5698743,0.17287737,0
0.22000000000000006,16.126722790433266,-2.186383521002792,-4.447818792216169,0.8476420151832169,13.121827,-4.499456,0.93609285,0.3212595,14.613564,-10.573743,1.8330833,0.473189,0.17453341,0.39782712,0.76639694,-8.472536,1.2429246,-0.32879916,0.85905397,-5.394934,0.20598826,0
0.23000000000000007,16.126722790433266,-2.186383521002792,-4.447818792216169,0.8476420151832169,13.121827,-4.499456,0.93609285,0.3212595,14.529364,-10.560964,1.8298067,0.48221952,0.19674414,0.38726598,0.76077694,-8.366867,1.3119102,-0.326519,0.3842076,-5.2472873,0.23747438,0
0.24000000000000007,16.126722790433266,-2.186383521002792,-4.447818792216169,0.8476420151832169,12.9625845,-5.032438,3.8362448,0.8788028,14.446242,-10.547531,1.8265532,0.49096316,0.21730836,0.37507075,0.7556815,-8.256856,1.3735638,-0.3241301,-0.016593672,-5.122672,0.2674155,0
0.25000000000000006,16.126722790433266,-2.186383521002792,-4.447818792216169,0.8476420151832169,12.9625845,-5.032438,3.8362448,0.8788028,14.364239,-10.533519,1.8233252,0.49945727,0.23644641,0.36148444,0.75097597,-8.143266,1.4277512,-0.32141867,-0.35489616,-5.017494,0.29588738,0
0.26000000000000006,16.126722790433266,-2.186383521002792,-4.447818792216169,0.8476420151832169,12.9625845,-5.032438,3.8362448,0.8788028,14.283387,-10.519002,1.8201264,0.50772166,0.2543443,0.34670836,0.7465396,-8.026772,1.474362,-0.31823286,-0.6404456,-4.9287195,0.32296214,0
0.2700000000000001,16.126722790433266,-2.186383521002792,-4.447818792216169,0.8476420151832169,12.9625845,-5.032438,3.8362448,0.8788028,14.2037115,-10.504058,1.8169622,0.515764,0.27115875,0.33091,0.74226636,-7.907981,1.5133051,-0.31447825,-0.881468,-4.853789,0.34870833,0
0.2800000000000001,14.975897743959177,-4.004029398679952,0.513160847442482,1.240702771662525,12.821032,-4.8931527,5.0401864,0.5585839,14.125234,-10.488763,1.8138388,0.5235835,0.28702152,0.31422982,0.7380643,-7.787442,1.5445056,-0.31011263,-1.0849067,-4.7905416,0.37319115,0
0.2900000000000001,14.975897743959177,-4.004029398679952,0.513160847442482,1.240702771662525,12.821032,-4.8931527,5.0401864,0.5585839,14.047925,-10.473203,1.8107256,0.5307517,0.30022082,0.2972883,0.7347041,-7.6744146,1.5663489,-0.31244382,-1.5402321,-3.9635854,0.4157602,0
0.3000000000000001,14.975897743959177,-4.004029398679952,0.513160847442482,1.240702771662525,12.821032,-4.8931527,5.0401864,0.5585839,13.971747,-10.457458,1.8075933,0.5370174,0.30943722,0.28062576,0.7328781,-7.5611277,1.5817792,-0.31383365,-1.9245616,-3.2655935,0.45624036,0
0.3100000000000001,14.975897743959177,-4.004029398679952,0.513160847442482,1.240702771662525,12.821032,-4.8931527,5.0401864,0.5585839,13.896701,-10.4415865,1.8044536,0.54258466,0.31529304,0.26422638,0.73237747,-7.448376,1.591638,-0.31387627,-2.2489605,-2.6764512,0.49473414,0
0.3200000000000001,14.228006188208822,-4.985351919500661,5.999997145388139,1.567945087228973,12.312929,-5.519945,5.94346,0.8459627,13.822777,-10.425641,1.8013216,0.5475968,0.31830534,0.24806172,0.7329973,-7.3368077,1.5966384,-0.31221107,-2.52277,-2.179181,0.531339,0
0.3300000000000001,14.228006188208822,-4.985351919500661,5.999997145388139,1.567945087228973,12.312929,-5.519945,5.94346,0.8459627,13.749931,-10.409668,1.7981911,0.5517202,0.31709084,0.23300418,0.7353689,-7.2324905,1.5974699,-0.31356746,-2.907217,-0.90387154,0.58220553,0
0.34000000000000014,14.228006188208822,-4.985351919500661,5.999997145388139,1.567945087228973,12.312929,-5.519945,5.94346,0.8459627,13.678118,-10.393702,1.795059,0.5547153,0.31056646,0.2197454,0.7399672,-7.130572,1.5956948,-0.3124124,-3.2317123,0.17255875,0.6305761,0
0.35000000000000014,14.228006188208822,-4.985351919500661,5.999997145388139,1.567945087228973,12.312929,-5.519945,5.94346,0.8459627,13.607309,-10.37776,1.7919533,0.556756,0.29951704,0.20799442,0.7463583,-7.0317597,1.5926598,-0.3081959,-3.5055954,1.0811276,0.67657304,0
0.36000000000000015,13.26434429439835,-5.999962197345206,5.99999967146646,0.038317082233374045,12.402893,-6.0947804,6.2213373,1.144429,13.53747,-10.361849,1.7889069,0.5579409,0.28458977,0.19748987,0.7541275,-6.936699,1.5894889,-0.30049118,-3.7367523,1.848015,0.72031295,0
0.37000000000000016,13.26434429439835,-5.999962197345206,5.99999967146646,0.038317082233374045,12.402893,-6.0947804,6.2213373,1.144429,13.468529,-10.345965,1.7859194,0.5585734,0.26605996,0.18774739,0.76286215,-6.8521647,1.5872694,-0.29641184,-4.0899487,2.4954376,0.6868472,0
0.38000000000000017,13.26434429439835,-5.999962197345206,5.99999967146646,0.038317082233374045,12.402893,-6.0947804,6.2213373,1.144429,13.40041,-10.330098,1.7829916,0.5588761,0.2441658,0.17836304,0.77215743,-6.7723975,1.5864608,-0.2885528,-4.387996,3.0419295,0.6550236,0
0.3900000000000002,13.26434429439835,-5.999962197345206,5.99999967146646,0.038317082233374045,12.402893,-6.0947804,6.2213373,1.144429,13.333062,-10.31423,1.7801619,0.55878085,0.21936163,0.16923453,0.7816674,-6.698092,1.5876033,-0.27680066,-4.6395097,3.503223,0.6247616,0
0.4000000000000002,13.953440085771378,-5.579372746296802,5.999999763128707,-0.5503608786896242,13.194474,-5.761875,6.18452,1.1938797,13.266427,-10.298337,1.7774689,0.55821866,0.19204155,0.16027579,0.7910901,-6.6299186,1.5911359,-0.26119357,-4.851757,3.8925982,0.5959846,0
0.4100000000000002,13.953440085771378,-5.579372746296802,5.999999763128707,-0.5503608786896242,13.194474,-5.761875,6.18452,1.1938797,13.200457,-10.282394,1.7749809,0.5571522,0.16263394,0.15156335,0.8000999,-6.565318,1.5977371,-0.23581508,-4.965202,4.221384,0.5397331,0
0.4200000000000002,13.953440085771378,-5.579372746296802,5.999999763128707,-0.5503608786896242,13.194474,-5.761875,6.18452,1.1938797,13.135095,-10.266372,1.7727647,0.55556583,0.13151135,0.14315906,0.8084285,-6.5084047,1.6075313,-0.20691855,-5.0609226,4.498901,0.4862419,0
0.4300000000000002,13.953440085771378,-5.579372746296802,5.999999763128707,-0.5503608786896242,13.194474,-5.761875,6.18452,1.1938797,13.070261,-10.250233,1.770853,0.5534259,0.098924324,0.13497782,0.8159134,-6.459689,1.6207571,-0.17496255,-5.1416917,4.733141,0.43537548,0
0.4400000000000002,13.953440085771378,-5.579372746296802,5.999999763128707,-0.5503608786896242,14.209474,-4.6324277,6.673506,0.590613,13.005871,-10.233944,1.7692741,0.55070186,0.06509873,0.12694922,0.8224192,-6.4196315,1.6375837,-0.14049348,-5.2098484,4.930852,0.38700512,0
0.45000000000000023,13.953440085771378,-5.579372746296802,5.999999763128707,-0.5503608786896242,14.209474,-4.6324277,6.673506,0.590613,12.941837,-10.217469,1.7680497,0.54736674,0.030239359,0.119015545,0.8278348,-6.3886366,1.6581165,-0.104133114,-5.267365,5.0977283,0.34100834,0
0.46000000000000024,13.953440085771378,-5.579372746296802,5.999999763128707,-0.5503608786896242,14.209474,-4.6324277,6.673506,0.590613,12.878067,-10.20077,1.7671957,0.5433976,-0.0054670935,0.11112987,0.8320692,-6.367044,1.6824028,-0.06656632,-5.3159046,5.2385783,0.2972686,0
0.47000000000000025,13.953440085771378,-5.579372746296802,5.999999763128707,-0.5503608786896242,14.209474,-4.6324277,6.673506,0.590613,12.814465,-10.183809,1.7667202,0.5387753,-0.041849565,0.10325458,0.8350498,-6.355125,1.7104367,-0.0285292,-5.3568707,5.3574586,0.2556752,0
0.48000000000000026,15.674625759625323,-3.606853976040884,5.9999997054560685,0.1818869658113352,14.631964,-4.2193418,7.104894,0.25944728,12.750931,-10.166549,1.7666241,0.53348446,-0.07875066,0.095359966,0.8367192,-6.3530803,1.7421631,0.00920262,-5.391446,5.4577956,0.21612278,0
0.49000000000000027,15.674625759625323,-3.606853976040884,5.9999997054560685,0.1818869658113352,14.631964,-4.2193418,7.104894,0.25944728,12.687364,-10.1489315,1.7669837,0.52751666,-0.11559832,0.08809288,0.8370202,-6.361965,1.7818619,0.06244102,-5.113146,5.5423965,0.2144428,0
0.5000000000000002,15.674625759625323,-3.606853976040884,5.9999997054560685,0.1818869658113352,14.631964,-4.2193418,7.104894,0.25944728,12.623652,-10.130897,1.7678655,0.5209169,-0.15193269,0.08197593,0.83596766,-6.38176,1.8256187,0.11351236,-4.8782444,5.6137977,0.21284527,0
0.5100000000000002,15.674625759625323,-3.606853976040884,5.9999997054560685,0.1818869658113352,14.631964,-4.2193418,7.104894,0.25944728,12.559691,-10.112404,1.7692435,0.5137384,-0.18776909,0.07681847,0.8336153,-6.4120717,1.8734266,0.16154404,-4.6799746,5.674058,0.21132614,0
0.5200000000000002,17.330540982913494,-1.2646452690191996,5.999999479932302,0.6863954546049936,16.665634,-2.2114305,6.994461,0.14358455,12.495377,-10.093413,1.7710832,0.5060194,-0.2231144,0.07245818,0.8300085,-6.4525003,1.9252255,0.20571652,-4.512624,5.7249155,0.20988154,1
0.5300000000000002,17.330540982913494,-1.2646452690191996,5.999999479932302,0.6863954546049936,16.665634,-2.2114305,6.994461,0.14358455,12.4305935,-10.073868,1.7733859,0.49792624,-0.25768942,0.06921938,0.8251511,-6.5057693,1.984449,0.25396544,-4.153748,5.767873,0.20662832,1
0.5400000000000003,17.330540982913494,-1.2646452690191996,5.999999479932302,0.6863954546049936,16.665634,-2.2114305,6.994461,0.14358455,12.365228,-10.05371,1.7761433,0.48962593,-0.29128066,0.06734937,0.8190764,-6.5686398,2.0478013,0.29656845,-3.8508377,5.8041215,0.20353478,1
0.5500000000000003,17.330540982913494,-1.2646452690191996,5.999999479932302,0.6863954546049936,16.665634,-2.2114305,6.994461,0.14358455,12.29919,-10.032898,1.7792957,0.4811362,-0.32397333,0.066616066,0.8118569,-6.6403933,2.1152532,0.3328768,-3.595166,5.834709,0.200593,1
0.5600000000000003,17.963130299015106,0.9250732956417361,5.999997963017418,0.8095408968506942,19.216932,0.29043084,5.4994307,0.7015639,12.232391,-10.011392,1.7827772,0.47246274,-0.35583442,0.066822335,0.8035519,-6.7203517,2.1867268,0.3623008,-3.3793662,5.8605213,0.19779557,0
0.5700000000000003,17.963130299015106,0.9250732956417361,5.999997963017418,0.8095408968506942,19.216932,0.29043084,5.4994307,0.7015639,12.164723,-9.989122,1.7865635,0.46400273,-0.38632518,0.06883667,0.7941763,-6.8146033,2.268023,0.3936764,-2.7082093,5.882305,0.2278141,0
0.5800000000000003,17.963130299015106,0.9250732956417361,5.999997963017418,0.8095408968506942,19.216932,0.29043084,5.4994307,0.7015639,12.096077,-9.966017,1.7906221,0.45612067,-0.41504613,0.073333785,0.7837812,-6.915735,2.3537788,0.41671884,-2.1417131,5.9007025,0.25635958,0
0.5900000000000003,17.963130299015106,0.9250732956417361,5.999997963017418,0.8095408968506942,19.216932,0.29043084,5.4994307,0.7015639,12.026388,-9.942031,1.7948685,0.44875136,-0.44222397,0.07989759,0.7724485,-7.0225406,2.444232,0.43117312,-1.6635568,5.9162374,0.28350434,0
0.6000000000000003,17.29656046003766,2.69831862762209,3.3500811289720294,0.9013493134393235,20.105568,2.2085657,6.355623,0.93069565,11.955608,-9.917116,1.7992154,0.44181955,-0.46804014,0.08817569,0.7602362,-7.1339536,2.5395353,0.4368153,-1.2599636,5.929353,0.30931708,0
0.6100000000000003,17.29656046003766,2.69831862762209,3.3500811289720294,0.9013493134393235,20.105568,2.2085657,6.355623,0.93069565,11.883718,-9.891242,1.8035562,0.4356828,-0.49153543,0.09794792,0.74764955,-7.244697,2.6360269,0.4300073,-0.64269596,5.527229,0.33836824,0
0.6200000000000003,17.29656046003766,2.69831862762209,3.3500811289720294,0.9013493134393235,20.105568,2.2085657,6.355623,0.93069565,11.810707,-9.864379,1.8077873,0.43067378,-0.51201236,0.10903088,0.73517066,-7.3577466,2.7371716,0.4149723,-0.121685594,5.187816,0.3659939,0
0.6300000000000003,17.29656046003766,2.69831862762209,3.3500811289720294,0.9013493134393235,20.105568,2.2085657,6.355623,0.93069565,11.736559,-9.836483,1.811829,0.4266682,-0.5299464,0.12119885,0.72278774,-7.472028,2.84288,0.39221567,0.3180765,4.9013324,0.39226398,0
0.6400000000000003,17.29656046003766,2.69831862762209,3.3500811289720294,0.9013493134393235,19.64609,3.2346108,4.7862744,1.1193941,11.661266,-9.807507,1.8156065,0.42354017,-0.5457261,0.13426125,0.7104723,-7.5866413,2.9530716,0.36218318,0.6892595,4.6595216,0.41724494,0
0.6500000000000004,17.29656046003766,2.69831862762209,3.3500811289720294,0.9013493134393235,19.64609,3.2346108,4.7862744,1.1193941,11.584829,-9.777406,1.819049,0.421168,-0.5596699,0.14805731,0.69818795,-7.700826,3.0676637,0.32525924,1.0025574,4.4554157,0.4410001,0
0.6600000000000004,17.29656046003766,2.69831862762209,3.3500811289720294,0.9013493134393235,19.64609,3.2346108,4.7862744,1.1193941,11.507255,-9.746139,1.8220892,0.41943735,-0.5720387,0.16245131,0.6858964,-7.8139305,3.186565,0.2817692,1.2669966,4.2831335,0.46358958,0
0.6700000000000004,17.29656046003766,2.69831862762209,3.3500811289720294,0.9013493134393235,19.64609,3.2346108,4.7862744,1.1193941,11.4285555,-9.713661,1.8246629,0.4182431,-0.58304685,0.17732859,0.6735606,-7.9253907,3.3096693,0.23198473,1.4901963,4.1377125,0.48507056,0
0.6800000000000004,16.11506927716005,3.5174946346678,-1.2535211329381417,1.2407589923201183,17.334356,2.2463653,1.5911608,1.6376437,11.348753,-9.679933,1.8267083,0.41748995,-0.5928706,0.19259213,0.66114676,-8.034715,3.4368548,0.17613031,1.6785874,4.0149636,0.50549746,0
0.6900000000000004,16.11506927716005,3.5174946346678,-1.2535211329381417,1.2407589923201183,17.334356,2.2463653,1.5911608,1.6376437,11.267907,-9.644956,1.828153,0.41763312,-0.6003119,0.20763588,0.64968896,-8.134167,3.5589974,0.11203723,1.9655582,3.1934867,0.541577,0
0.7000000000000004,16.11506927716005,3.5174946346678,-1.2535211329381417,1.2407589923201183,17.334356,2.2463653,1.5911608,1.6376437,11.186081,-9.608742,1.8289341,0.41908497,-0.60449094,0.22198984,0.64006186,-8.230808,3.684486,0.043603893,2.2077694,2.5001125,0.575886,0
0.7100000000000004,16.11506927716005,3.5174946346678,-1.2535211329381417,1.2407589923201183,17.334356,2.2463653,1.5911608,1.6376437,11.103303,-9.571258,1.8290138,0.42168823,-0.60594857,0.2357576,0.63199985,-8.324298,3.8130457,-0.028047526,2.4121983,1.9148629,0.6085115,0
0.7200000000000004,15.516709446034945,3.41607452468868,-5.999979837514424,1.5539834783403181,16.345171,4.327006,-4.0121922,1.6292349,11.019607,-9.532473,1.8283652,0.42528936,-0.60511965,0.24902268,0.6252575,-8.414361,3.9444675,-0.101968125,2.5847354,1.4208753,0.63953614,0
0.7300000000000004,15.516709446034945,3.41607452468868,-5.999979837514424,1.5539834783403181,16.345171,4.327006,-4.0121922,1.6292349,10.935044,-9.492385,1.8269655,0.4301788,-0.6011825,0.26104218,0.62079203,-8.497573,4.07357,-0.17807695,2.7148542,0.26373032,0.68440825,0
0.7400000000000004,15.516709446034945,3.41607452468868,-5.999979837514424,1.5539834783403181,16.345171,4.327006,-4.0121922,1.6292349,10.8496685,-9.4509945,1.8248043,0.4365919,-0.5935032,0.27122256,0.6193382,-8.577183,4.2048926,-0.25399488,2.8246624,-0.71296453,0.7270786,0
0.7500000000000004,15.516709446034945,3.41607452468868,-5.999979837514424,1.5539834783403181,16.345171,4.327006,-4.0121922,1.6292349,10.7635145,-9.408281,1.8218914,0.44429284,-0.5826284,0.27981636,0.6203635,-8.653114,4.3380837,-0.32822803,2.9173222,-1.5373508,0.767655,0
0.7600000000000005,15.255762502648563,2.916118159509165,-5.999999306312733,1.2172169039602063,14.848099,3.7585716,-6.4972186,0.7152301,10.676619,-9.364228,1.81825,0.45305112,-0.5689886,0.28702495,0.6233885,-8.725263,4.4728093,-0.3995298,2.9955056,-2.2331815,0.8062404,1
0.7700000000000005,15.255762502648563,2.916118159509165,-5.999999306312733,1.2172169039602063,14.848099,3.7585716,-6.4972186,0.7152301,10.589036,-9.3188505,1.813908,0.46279016,-0.55289567,0.2930369,0.62790203,-8.790538,4.602873,-0.4681941,3.1148055,-2.8205614,0.8017745,1
0.7800000000000005,15.255762502648563,2.916118159509165,-5.999999306312733,1.2172169039602063,14.848099,3.7585716,-6.4972186,0.7152301,10.500822,-9.272168,1.8089019,0.4734256,-0.53460646,0.29799736,0.6334522,-8.851824,4.733749,-0.5322536,3.21545,-3.3163495,0.79752773,1
0.7900000000000005,15.255762502648563,2.916118159509165,-5.999999306312733,1.2172169039602063,14.848099,3.7585716,-6.4972186,0.7152301,10.412015,-9.224175,1.803281,0.4847408,-0.514367,0.3019972,0.63972694,-8.908856,4.865072,-0.5910574,3.3003569,-3.7348278,0.7934894,1
0.8000000000000005,15.653070342799081,1.9123931660541025,-5.999999507249973,0.9532156784871348,15.5207615,3.5345855,-6.1616583,0.5701496,10.32266,-9.174867,1.7971005,0.4965421,-0.4923863,0.30511203,0.64645827,-8.961357,4.996433,-0.64410216,3.3719876,-4.0880513,0.78964925,0
0.8100000000000005,15.653070342799081,1.9123931660541025,-5.999999507249973,0.9532156784871348,15.5207615,3.5345855,-6.1616583,0.5701496,10.23279,-9.124211,1.7904336,0.5082841,-0.46920958,0.30694297,0.6536633,-9.011675,5.134466,-0.68824726,3.1445408,-4.3863187,0.7976755,0
0.8200000000000005,15.653070342799081,1.9123931660541025,-5.999999507249973,0.9532156784871348,15.5207615,3.5345855,-6.1616583,0.5701496,10.142443,-9.07218,1.7833587,0.5195516,-0.44530666,0.30718338,0.6613672,-9.056993,5.271447,-0.72569525,2.9525416,-4.6380563,0.80530787,0
0.8300000000000005,15.653070342799081,1.9123931660541025,-5.999999507249973,0.9532156784871348,15.5207615,3.5345855,-6.1616583,0.5701496,10.051667,-9.018788,1.7759434,0.5303551,-0.42074174,0.30601823,0.66936743,-9.097396,5.406758,-0.75630724,2.7904654,-4.850522,0.8125658,0
0.8400000000000005,15.653070342799081,1.9123931660541025,-5.999999507249973,0.9532156784871348,15.661167,1.9163533,-6.19146,0.7535249,9.960511,-8.964054,1.7682563,0.54069585,-0.39557114,0.3036066,0.67749137,-9.132934,5.5398,-0.7800262,2.6536477,-5.0298424,0.81946754,1
0.8500000000000005,15.653070342799081,1.9123931660541025,-5.999999507249973,0.9532156784871348,15.661167,1.9163533,-6.19146,0.7535249,9.869025,-8.908003,1.7603668,0.55058604,-0.36985216,0.3000774,0.6855785,-9.163638,5.6700644,-0.79682857,2.538737,-5.1812043,0.8162317,1
0.8600000000000005,15.653070342799081,1.9123931660541025,-5.999999507249973,0.9532156784871348,15.661167,1.9163533,-6.19146,0.7535249,9.777255,-8.850665,1.7523432,0.56003296,-0.3436379,0.2955424,0.69349176,-9.189485,5.7969236,-0.8068409,2.441734,-5.3089514,0.81315464,1
0.8700000000000006,15.653070342799081,1.9123931660541025,-5.999999507249973,0.9532156784871348,15.661167,1.9163533,-6.19146,0.7535249,9.685252,-8.792078,1.7442528,0.569023,-0.31697163,0.29010695,0.7011275,-9.210451,5.9198384,-0.8102153,2.3598483,-5.416768,0.8102286,1
0.8800000000000006,16.020904631957876,0.7919477202050329,-5.999999299837111,0.9363900634453662,16.316166,1.0909908,-6.097928,0.86917585,9.593063,-8.732284,1.7361609,0.5775415,-0.28989446,0.28386313,0.7083988,-9.226508,6.03829,-0.80716276,2.2907236,-5.507763,0.8074461,1
0.8900000000000006,16.020904631957876,0.7919477202050329,-5.999999299837111,0.9363900634453662,16.316166,1.0909908,-6.097928,0.86917585,9.500736,-8.671306,1.7281529,0.58547145,-0.262634,0.27666146,0.71533567,-9.238111,6.156524,-0.79345787,2.1036775,-5.584621,0.81047523,1
0.9000000000000006,16.020904631957876,0.7919477202050329,-5.999999299837111,0.9363900634453662,16.316166,1.0909908,-6.097928,0.86917585,9.4083185,-8.609173,1.7203127,0.5927312,-0.23538202,0.2683907,0.7219637,-9.244709,6.26907,-0.77364224,1.9457946,-5.6494784,0.81335574,1
0.9100000000000006,16.020904631957876,0.7919477202050329,-5.999999299837111,0.9363900634453662,16.316166,1.0909908,-6.097928,0.86917585,9.315858,-8.545945,1.7126998,0.5993505,-0.20812726,0.25917843,0.72820926,-9.24645,6.37544,-0.74806255,1.8125277,-5.70421,0.8160948,1
0.9200000000000006,16.066385295251937,-0.23518173500104433,-5.999998420193647,0.8078178669545728,16.0257,0.37672317,-5.6431193,0.8069568,9.223405,-8.481688,1.70537,0.6053507,-0.1808632,0.24913551,0.73401004,-9.243462,6.4751825,-0.71710116,1.7000387,-5.750395,0.81869954,1
0.9300000000000006,16.066385295251937,-0.23518173500104433,-5.999998420193647,0.8078178669545728,16.0257,0.37672317,-5.6431193,0.8069568,9.131004,-8.416474,1.698363,0.6106703,-0.1538688,0.23823452,0.7393583,-9.23601,6.566237,-0.6835623,1.4936575,-5.7337756,0.8181233,1
0.9400000000000006,16.066385295251937,-0.23518173500104433,-5.999998420193647,0.8078178669545728,16.0257,0.37672317,-5.6431193,0.8069568,9.0387,-8.350388,1.6917139,0.6152805,-0.12737331,0.22646493,0.7442578,-9.224282,6.6500444,-0.6455957,1.3194627,-5.7197313,0.81757534,1
0.9500000000000006,16.066385295251937,-0.23518173500104433,-5.999998420193647,0.8078178669545728,16.0257,0.37672317,-5.6431193,0.8069568,8.946533,-8.283499,1.6854647,0.619235,-0.10130739,0.21393965,0.7486754,-9.208535,6.7263184,-0.6036609,1.1724347,-5.707862,0.8170543,1
0.9600000000000006,15.501170246692373,-0.9576559459228524,-5.440823043808907,0.652417158107486,16.006367,-0.2261784,-5.0924325,0.61131334,8.854543,-8.215887,1.6796527,0.6225745,-0.07561382,0.20075652,0.7525826,-9.1889925,6.7948055,-0.558223,1.0483367,-5.6978316,0.8165588,1
0.9700000000000006,15.501170246692373,-0.9576559459228524,-5.440823043808907,0.652417158107486,16.006367,-0.2261784,-5.0924325,0.61131334,8.762765,-8.147631,1.6743098,0.62529206,-0.05056759,0.18695529,0.7559767,-9.1659,6.855222,-0.5099322,0.84949,-5.603532,0.8064873,1
0.9800000000000006,15.501170246692373,-0.9576559459228524,-5.440823043808907,0.652417158107486,16.006367,-0.2261784,-5.0924325,0.61131334,8.671234,-8.07881,1.6694629,0.6274059,-0.026388587,0.17257813,0.7588693,-9.139542,6.907541,-0.45909613,0.68166375,-5.523918,0.7969101,1
0.9900000000000007,15.501170246692373,-0.9576559459228524,-5.440823043808907,0.652417158107486,16.006367,-0.2261784,-5.0924325,0.61131334,8.579982,-8.009508,1.665135,0.6289747,-0.0029587601,0.15770723,0.7612561,-9.110227,6.9516964,-0.4061824,0.5400189,-5.456705,0.7878028,1
1.0000000000000007,14.328161057225772,-1.5845180867020738,-1.587519474379055,0.6606332843533205,15.1853285,-1.0361989,-3.3541086,0.505335,8.4890375,-7.9398055,1.6613446,0.63004327,0.019821368,0.14241365,0.7631326,-9.078225,6.98764,-0.35164428,0.4204713,-5.3999605,0.7791424,0
1.0100000000000007,14.328161057225772,-1.5845180867020738,-1.587519474379055,0.6606332843533205,15.1853285,-1.0361989,-3.3541086,0.505335,8.398408,-7.8697996,1.6580254,0.6304787,0.040622897,0.12723055,0.7646301,-9.047438,7.012515,-0.3120536,0.107474424,-4.8055716,0.7733271,0
1.0200000000000007,14.328161057225772,-1.5845180867020738,-1.587519474379055,0.6606332843533205,15.1853285,-1.0361989,-3.3541086,0.505335,8.308094,-7.799579,1.6551057,0.63026816,0.058399167,0.11259537,0.76594675,-9.015035,7.0306168,-0.27177534,-0.15665911,-4.30385,0.7677972,0
1.0300000000000007,14.328161057225772,-1.5845180867020738,-1.587519474379055,0.6606332843533205,15.1853285,-1.0361989,-3.3541086,0.505335,8.218109,-7.7292085,1.6525912,0.6295843,0.07361142,0.09843139,0.76714844,-8.981551,7.042564,-0.23108417,-0.37955815,-3.8803504,0.76253855,0
1.0400000000000007,14.328161057225772,-1.5845180867020738,-1.587519474379055,0.6606332843533205,13.64322,-1.5591311,0.5204466,0.6974445,8.128465,-7.6587467,1.6504848,0.62855285,0.086652376,0.08467011,0.76827353,-8.947437,7.0488906,-0.19017516,-0.56766003,-3.5228763,0.757538,0
1.0500000000000007,14.328161057225772,-1.5845180867020738,-1.587519474379055,0.6606332843533205,13.64322,-1.5591311,0.5204466,0.6974445,8.039163,-7.5882483,1.648788,0.6272648,0.09785543,0.071251445,0.76934195,-8.913065,7.050051,-0.14918914,-0.72639734,-3.2211344,0.7527829,0
1.0600000000000007,14.328161057225772,-1.5845180867020738,-1.587519474379055,0.6606332843533205,13.64322,-1.5591311,0.5204466,0.6974445,7.950203,-7.5177627,1.647501,0.6257857,0.107503,0.058123443,0.770362,-8.878748,7.046433,-0.10823071,-0.8603542,-2.9664361,0.74826103,0
1.0700000000000007,14.328161057225772,-1.5845180867020738,-1.587519474379055,0.6606332843533205,13.64322,-1.5591311,0.5204466,0.6974445,7.8615856,-7.4473352,1.646623,0.6241627,0.11583404,0.0452416,0.7713348,-8.8447485,7.038363,-0.06738084,-0.9733997,-2.7514472,0.74396116,0
1.0800000000000007,13.452152650774096,-1.4684041392405405,2.1100213998836335,0.7006075303729487,13.356799,-1.198204,3.0755336,0.5707596,7.773306,-7.37701,1.6461529,0.62242883,0.12305053,0.0325681,0.7722571,-8.811284,7.0261188,-0.026705652,-1.0687982,-2.5699766,0.7398722,1
1.0900000000000007,13.452152650774096,-1.4684041392405405,2.1100213998836335,0.7006075303729487,13.356799,-1.198204,3.0755336,0.5707596,7.6853466,-7.306821,1.6460414,0.62055254,0.1279785,0.021352034,0.773357,-8.780771,7.0111403,0.0043617785,-1.0894123,-1.6895661,0.7315738,1
1.1000000000000008,13.452152650774096,-1.4684041392405405,2.1100213998836335,0.7006075303729487,13.356799,-1.198204,3.0755336,0.5707596,7.5976877,-7.236796,1.6462398,0.6185578,0.12969993,0.0125785265,0.7748592,-8.75117,6.993503,0.03530714,-1.1067373,-0.94645387,0.72368264,1
1.1100000000000008,13.452152650774096,-1.4684041392405405,2.1100213998836335,0.7006075303729487,13.356799,-1.198204,3.0755336,0.5707596,7.5103197,-7.1669564,1.6467476,0.6165164,0.12871423,0.0058619743,0.7767281,-8.722699,6.97418,0.066266224,-1.1212984,-0.3192284,0.71617866,1
1.1200000000000008,12.861653286801523,-0.9495528529936581,5.9996738585034555,0.691229854047633,13.010679,-0.8237611,5.6575284,0.5261876,7.4232297,-7.0973153,1.6475656,0.61446446,0.12544003,0.00087678584,0.7789083,-8.69555,6.9539866,0.09737654,-1.1335379,0.2101824,0.7090429,1
1.1300000000000008,12.861653286801523,-0.9495528529936581,5.9996738585034555,0.691229854047633,13.010679,-0.8237611,5.6575284,0.5261876,7.3364,-7.0278745,1.6486793,0.6124004,0.11951454,-0.0018999279,0.78145957,-8.670556,6.934192,0.1254158,-1.0856146,1.0597216,0.70007014,1
1.1400000000000008,12.861653286801523,-0.9495528529936581,5.9996738585034555,0.691229854047633,13.010679,-0.8237611,5.6575284,0.5261876,7.2498126,-6.9586287,1.6500753,0.6103066,0.11066219,-0.0021056072,0.7843953,-8.647199,6.915226,0.15389393,-1.0450957,1.7767713,0.6915377,1
1.1500000000000008,12.861653286801523,-0.9495528529936581,5.9996738585034555,0.691229854047633,13.010679,-0.8237611,5.6575284,0.5261876,7.1634493,-6.889564,1.651759,0.6081586,0.099323764,-0.00014703214,0.7875776,-8.625653,6.8980083,0.18294118,-1.0108389,2.381994,0.6834239,1
1.1600000000000008,12.438918423803592,-0.08411960482173897,5.999996470452451,0.42982586601550804,12.487859,-0.5684757,6.2108927,0.70973885,7.077292,-6.8206596,1.6537365,0.6059171,0.08587128,0.0036328204,0.7908716,-8.606091,6.8833184,0.21262342,-0.981877,2.8928297,0.6757082,1
1.1700000000000008,12.438918423803592,-0.08411960482173897,5.999996470452451,0.42982586601550804,12.487859,-0.5684757,6.2108927,0.70973885,6.9913163,-6.7518845,1.655988,0.6035095,0.07057374,0.009106157,0.79417455,-8.589372,6.8722863,0.23778,-0.9176242,3.3774185,0.6773781,1
1.1800000000000008,12.438918423803592,-0.08411960482173897,5.999996470452451,0.42982586601550804,12.487859,-0.5684757,6.2108927,0.70973885,6.905497,-6.6832013,1.6584939,0.60086274,0.05366254,0.016156003,0.7973856,-8.57484,6.864914,0.26348418,-0.8633588,3.7864313,0.6789661,1
1.1900000000000008,12.438918423803592,-0.08411960482173897,5.999996470452451,0.42982586601550804,12.487859,-0.5684757,6.2108927,0.70973885,6.8198123,-6.6145716,1.661259,0.59793293,0.03538094,0.02452864,0.80038947,-8.562611,6.8617163,0.28961343,-0.81752855,4.131655,0.6804762,1
1.2000000000000008,12.30867993777019,0.7022766479746386,5.999996232159017,0.29038630987796665,12.492653,0.42205,5.9569125,0.4629225,6.734237,-6.5459514,1.6642871,0.5946793,0.015938971,0.03400807,0.8030856,-8.552799,6.863122,0.3159889,-0.77882206,4.4230385,0.6819121,1
1.2100000000000009,12.30867993777019,0.7022766479746386,5.999996232159017,0.29038630987796665,12.492653,0.42205,5.9569125,0.4629225,6.648748,-6.477293,1.6675793,0.59108746,-0.0042331466,0.044718795,0.80535614,-8.545491,6.8694906,0.34242854,-0.5916204,4.6623325,0.6711663,1
1.2200000000000009,12.30867993777019,0.7022766479746386,5.999996232159017,0.29038630987796665,12.492653,0.42205,5.9569125,0.4629225,6.563319,-6.408544,1.6711347,0.58715934,-0.0247823,0.056748085,0.8070998,-8.540653,6.88114,0.3686054,-0.43359488,4.8642936,0.6609477,1
1.2300000000000009,12.30867993777019,0.7022766479746386,5.999996232159017,0.29038630987796665,12.492653,0.42205,5.9569125,0.4629225,6.477927,-6.339651,1.6749494,0.5828803,-0.045641873,0.06987373,0.8082609,-8.5382185,6.898334,0.39420703,-0.30019903,5.034746,0.6512305,1
1.2400000000000009,12.30867993777019,0.7022766479746386,5.999996232159017,0.29038630987796665,12.0274,1.5783964,6.0630736,0.698909,6.3925476,-6.2705574,1.6790158,0.5782361,-0.06675103,0.083904915,0.80879414,-8.538136,6.9212723,0.41889676,-0.18759438,5.1786065,0.6419901,1
1.2500000000000009,12.30867993777019,0.7022766479746386,5.999996232159017,0.29038630987796665,12.0274,1.5783964,6.0630736,0.698909,6.3071575,-6.2012105,1.6833004,0.5732222,-0.08779865,0.099063784,0.8086376,-8.540258,6.9490314,0.43779105,0.08774763,5.306818,0.64478314,1
1.260000000000001,12.30867993777019,0.7022766479746386,5.999996232159017,0.29038630987796665,12.0274,1.5783964,6.0630736,0.698909,6.2217355,-6.131556,1.6877661,0.56784004,-0.10853277,0.11551511,0.8077347,-8.544401,6.9826097,0.4550944,0.3201587,5.4150176,0.6474391,1
1.270000000000001,12.30867993777019,0.7022766479746386,5.999996232159017,0.29038630987796665,12.0274,1.5783964,6.0630736,0.698909,6.136263,-6.0615373,1.6923953,0.562082,-0.12897913,0.13302769,0.80606,-8.550366,7.022112,0.47042486,0.5163326,5.5063286,0.64996475,1
1.280000000000001,12.089314155364868,1.4572230559318764,5.2619004273285785,0.2627505339065743,12.242191,1.9374214,5.487275,0.37333328,6.050722,-5.9910936,1.6971663,0.5559386,-0.149155,0.15140212,0.80359405,-8.557985,7.0675874,0.4833935,0.6819196,5.5833874,0.6523664,1
1.290000000000001,12.089314155364868,1.4572230559318764,5.2619004273285785,0.2627505339065743,12.242191,1.9374214,5.487275,0.37333328,5.965097,-5.920161,1.7020633,0.54948896,-0.16883337,0.17046219,0.8003129,-8.56727,7.1199474,0.4955461,0.8777704,5.5684743,0.6386742,1
1.300000000000001,12.089314155364868,1.4572230559318764,5.2619004273285785,0.2627505339065743,12.242191,1.9374214,5.487275,0.37333328,5.879372,-5.8486743,1.7070664,0.54281384,-0.18783718,0.19005705,0.79620945,-8.577888,7.178287,0.50453067,1.043075,5.5558715,0.6256538,1
1.310000000000001,12.089314155364868,1.4572230559318764,5.2619004273285785,0.2627505339065743,12.242191,1.9374214,5.487275,0.37333328,5.793535,-5.7765746,1.712142,0.53590363,-0.20624211,0.21006022,0.79129446,-8.589648,7.24247,0.5099955,1.1825969,5.545222,0.6132723,1
1.320000000000001,11.887787491166115,1.6985132253349153,1.8361112655836638,0.3267757458368892,11.079987,1.860459,2.476658,0.3966917,5.7075753,-5.7038045,1.7172532,0.5287478,-0.22410922,0.23036171,0.7855794,-8.602386,7.31233,0.51159793,1.3003573,5.536222,0.6014984,1
1.330000000000001,11.887787491166115,1.6985132253349153,1.8361112655836638,0.3267757458368892,11.079987,1.860459,2.476658,0.3966917,5.621491,-5.6303444,1.7223139,0.5216232,-0.2405637,0.25021368,0.7793793,-8.614656,7.3804817,0.49997586,1.387925,5.05911,0.59144855,1
1.340000000000001,11.887787491166115,1.6985132253349153,1.8361112655836638,0.3267757458368892,11.079987,1.860459,2.476658,0.3966917,5.5352807,-5.5561795,1.7272396,0.51481634,-0.25494167,0.26904804,0.77303475,-8.627432,7.453097,0.4845678,1.4618006,4.6563983,0.5818918,1
1.350000000000001,11.887787491166115,1.6985132253349153,1.8361112655836638,0.3267757458368892,11.079987,1.860459,2.476658,0.3966917,5.4489417,-5.4812684,1.7319926,0.50831723,-0.26757073,0.28701642,0.7665779,-8.640479,7.5296974,0.46543965,1.5241256,4.316483,0.572804,1
1.360000000000001,11.745765100157774,1.5210021224189298,-3.0863675270629973,0.44554888777085494,11.118112,1.7531478,-2.0955112,0.24702218,5.362471,-5.4055734,1.736536,0.50210536,-0.27872536,0.30424476,0.7600251,-8.653603,7.609879,0.44266114,1.5767064,4.029574,0.564162,1
1.370000000000001,11.745765100157774,1.5210021224189298,-3.0863675270629973,0.44554888777085494,11.118112,1.7531478,-2.0955112,0.24702218,5.2758694,-5.329058,1.7408355,0.49673128,-0.28728676,0.31989098,0.7539196,-8.666664,7.6935973,0.4166723,1.6037381,3.0752304,0.54868096,1
1.380000000000001,11.745765100157774,1.5210021224189298,-3.0863675270629973,0.44554888777085494,11.118112,1.7531478,-2.0955112,0.24702218,5.1891394,-5.2516923,1.7448592,0.4926983,-0.2924052,0.3333286,0.7487592,-8.67927,7.7798166,0.3876201,1.6273488,2.268849,0.53387845,1
1.390000000000001,11.745765100157774,1.5210021224189298,-3.0863675270629973,0.44554888777085494,11.118112,1.7531478,-2.0955112,0.24702218,5.102287,-5.1734543,1.74858,0.4898842,-0.29465613,0.3449298,0.74445647,-8.691096,7.8680086,0.35617495,1.6472186,1.5882214,0.51980233,1
1.400000000000001,12.258207422751962,0.8567055982725632,-5.9999934899520175,0.503077370988972,11.398622,1.8451618,-5.3211217,0.12466409,5.0153213,-5.094327,1.7519765,0.488158,-0.29451355,0.35499638,0.7409061,-8.701861,7.9577055,0.32287776,1.6639419,1.0137365,0.5064169,1
1.410000000000001,12.258207422751962,0.8567055982725632,-5.9999934899520175,0.503077370988972,11.398622,1.8451618,-5.3211217,0.12466409,4.928252,-5.014283,1.7550422,0.4878659,-0.29141584,0.36316526,0.73836,-8.711565,8.051013,0.29000512,1.6898532,0.02848263,0.48793444,1
1.420000000000001,12.258207422751962,0.8567055982725632,-5.9999934899520175,0.503077370988972,11.398622,1.8451618,-5.3211217,0.12466409,4.8410954,-4.9333053,1.7577742,0.48928875,-0.28490734,0.36915767,0.7369855,-8.719517,8.144691,0.25635418,1.7143294,-0.8057972,0.47010866,1
1.430000000000001,12.258207422751962,0.8567055982725632,-5.9999934899520175,0.503077370988972,11.398622,1.8451618,-5.3211217,0.12466409,4.753869,-4.8513894,1.7601696,0.4921756,-0.27551967,0.37329447,0.7365488,-8.725365,8.238451,0.22280972,1.7349317,-1.5099725,0.4531576,1
1.440000000000001,12.258207422751962,0.8567055982725632,-5.9999934899520175,0.503077370988972,12.447376,2.0998876,-5.8542523,-0.038531043,4.6665964,-4.768537,1.7622328,0.4962897,-0.26369232,0.37583238,0.73682684,-8.728787,8.3318405,0.18996906,1.7522756,-2.1043322,0.43703833,0
1.450000000000001,12.258207422751962,0.8567055982725632,-5.9999934899520175,0.503077370988972,12.447376,2.0998876,-5.8542523,-0.038531043,4.579303,-4.68472,1.7639982,0.50137925,-0.24976875,0.3765646,0.737858,-8.729574,8.431424,0.16333899,1.6127903,-2.7118945,0.4402789,0
1.460000000000001,12.258207422751962,0.8567055982725632,-5.9999934899520175,0.503077370988972,12.447376,2.0998876,-5.8542523,-0.038531043,4.492017,-4.599913,1.7655058,0.50722116,-0.23403546,0.3753307,0.7396498,-8.727304,8.529661,0.1385149,1.4950329,-3.2247026,0.44336042,0
1.470000000000001,12.258207422751962,0.8567055982725632,-5.9999934899520175,0.503077370988972,12.447376,2.0998876,-5.8542523,-0.038531043,4.404769,-4.5141325,1.7667761,0.5136474,-0.21675178,0.37238318,0.7419681,-8.721867,8.626062,0.11592701,1.395618,-3.6575336,0.44629076,0
1.480000000000001,12.674477666808896,0.07408831619063304,-5.999998189599464,0.4878937539605117,12.178076,0.71638554,-5.909674,0.5277938,4.317591,-4.427399,1.767833,0.5205057,-0.19813669,0.3679328,0.7446085,-8.713164,8.7201605,0.09589141,1.3116882,-4.022861,0.44907728,1
1.490000000000001,12.674477666808896,0.07408831619063304,-5.999998189599464,0.4878937539605117,12.178076,0.71638554,-5.909674,0.5277938,4.230517,-4.339741,1.7687008,0.52763426,-0.17843227,0.36213487,0.74741095,-8.701201,8.810917,0.07809401,1.2189481,-4.3171325,0.4529399,1
1.500000000000001,12.674477666808896,0.07408831619063304,-5.999998189599464,0.4878937539605117,12.178076,0.71638554,-5.909674,0.5277938,4.143579,-4.251191,1.7694049,0.5348947,-0.15784413,0.3551238,0.75024045,-8.6858835,8.898527,0.063168004,1.140658,-4.565509,0.45661303,1
1.5100000000000011,12.674477666808896,0.07408831619063304,-5.999998189599464,0.4878937539605117,12.178076,0.71638554,-5.909674,0.5277938,4.056811,-4.1617827,1.7699742,0.5421918,-0.1364972,0.3470363,0.7529695,-8.667197,8.982594,0.051159102,1.0745659,-4.7751474,0.4601059,1
1.5200000000000011,13.224725540273976,-0.7177319347732557,-5.999997420684483,0.4959297032731314,13.9036045,-0.5016037,-5.757655,1.2742395,3.9702468,-4.0715528,1.7704381,0.5494419,-0.11450094,0.33799025,0.7554909,-8.645139,9.062734,0.042045932,1.0187715,-4.952091,0.46342734,1
1.5300000000000011,13.224725540273976,-0.7177319347732557,-5.999997420684483,0.4959297032731314,13.9036045,-0.5016037,-5.757655,1.2742395,3.8839374,-3.980488,1.7708896,0.5564304,-0.09223585,0.3277634,0.7579245,-8.616148,9.149334,0.04876548,0.781839,-5.0777693,0.5032141,1
1.5400000000000011,13.224725540273976,-0.7177319347732557,-5.999997420684483,0.4959297032731314,13.9036045,-0.5016037,-5.757655,1.2742395,3.797936,-3.888584,1.7714242,0.56298965,-0.07001388,0.31618878,0.7603722,-8.583571,9.230638,0.05862588,0.5818493,-5.183848,0.54104865,1
1.5500000000000012,13.224725540273976,-0.7177319347732557,-5.999997420684483,0.4959297032731314,13.9036045,-0.5016037,-5.757655,1.2742395,3.7122772,-3.7958949,1.7720726,0.569111,-0.047832254,0.30343583,0.7627267,-8.547666,9.306271,0.071508765,0.41304052,-5.2733827,0.5770265,1
1.5600000000000012,13.361712965036126,-1.2897083586152636,-5.999949862337841,0.572344914419082,14.673152,-1.2286451,-5.903724,1.3935053,3.6269932,-3.7024791,1.7728642,0.5747833,-0.025691276,0.2896502,0.7648971,-8.508665,9.375892,0.08724504,0.27054992,-5.348952,0.6112389,0
1.5700000000000012,13.361712965036126,-1.2897083586152636,-5.999949862337841,0.572344914419082,14.673152,-1.2286451,-5.903724,1.3935053,3.5421057,-3.6084113,1.7738041,0.5800815,-0.0037264843,0.27465796,0.76684755,-8.468436,9.436712,0.101090945,0.02726217,-5.450571,0.6093303,0
1.5800000000000012,13.361712965036126,-1.2897083586152636,-5.999949862337841,0.572344914419082,14.673152,-1.2286451,-5.903724,1.3935053,3.457633,-3.5137668,1.7748941,0.58507437,0.017947892,0.2583302,0.7685259,-8.425752,9.4911175,0.117303066,-0.17809111,-5.536328,0.6075154,0
1.5900000000000012,13.361712965036126,-1.2897083586152636,-5.999949862337841,0.572344914419082,14.673152,-1.2286451,-5.903724,1.3935053,3.373598,-3.418612,1.7761574,0.58973825,0.039356586,0.24084564,0.7698402,-8.380912,9.538799,0.13567245,-0.35142487,-5.608698,0.6057895,0
1.6000000000000012,12.989418575500466,-1.6846181320131346,-2.8387415846373556,0.7334612058719002,14.230453,-1.5955206,-5.5784874,1.3924074,3.2900212,-3.3230152,1.7776142,0.594049,0.06051791,0.22235924,0.7707143,-8.334197,9.579481,0.15594406,-0.49773154,-5.6697702,0.6041483,0
1.6100000000000012,12.989418575500466,-1.6846181320131346,-2.8387415846373556,0.7334612058719002,14.230453,-1.5955206,-5.5784874,1.3924074,3.206913,-3.2270522,1.7792653,0.597718,0.080381155,0.20364048,0.77123487,-8.287242,9.612059,0.17447354,-0.6829778,-5.2283483,0.6104938,0
1.6200000000000012,12.989418575500466,-1.6846181320131346,-2.8387415846373556,0.7334612058719002,14.230453,-1.5955206,-5.5784874,1.3924074,3.1242805,-3.1307971,1.7811079,0.6005942,0.098119274,0.18533121,0.7715647,-8.239163,9.63792,0.19422354,-0.8393119,-4.855756,0.6165278,0
1.6300000000000012,12.989418575500466,-1.6846181320131346,-2.8387415846373556,0.7334612058719002,14.230453,-1.5955206,-5.5784874,1.3924074,3.0421324,-3.0343153,1.7831529,0.60282797,0.114048384,0.16737857,0.771736,-8.190368,9.657433,0.21489972,-0.971246,-4.5412602,0.6222658,0
1.6400000000000012,12.989418575500466,-1.6846181320131346,-2.8387415846373556,0.7334612058719002,13.711218,-2.1018305,-2.5904298,1.3584069,2.9604745,-2.937669,1.7854081,0.60453445,0.1284375,0.14973411,0.77176565,-8.141197,9.670916,0.23625775,-1.0825883,-4.2758026,0.6277222,1
1.6500000000000012,12.989418575500466,-1.6846181320131346,-2.8387415846373556,0.7334612058719002,13.711218,-2.1018305,-2.5904298,1.3584069,2.8793225,-2.8409142,1.7879128,0.6057505,0.14134869,0.1322756,0.7717452,-8.0892105,9.679085,0.26475805,-1.2415518,-4.013063,0.66357714,1
1.6600000000000013,12.989418575500466,-1.6846181320131346,-2.8387415846373556,0.7334612058719002,13.711218,-2.1018305,-2.5904298,1.3584069,2.7986891,-2.7441072,1.7907045,0.6064998,0.15284353,0.11490009,0.7717483,-8.037462,9.681473,0.293598,-1.3757229,-3.791293,0.6976726,1
1.6700000000000013,12.989418575500466,-1.6846181320131346,-2.8387415846373556,0.7334612058719002,13.711218,-2.1018305,-2.5904298,1.3584069,2.7185712,-2.6473043,1.7937856,0.60684264,0.16313195,0.09759327,0.7717552,-7.986246,9.678331,0.32263765,-1.4889674,-3.6041021,0.730095,1
1.6800000000000013,12.48839452424484,-1.6002507959304768,0.7236268664305184,0.9032117581727697,13.964467,-2.1183152,0.1952267,1.8453267,2.6389616,-2.5505593,1.7971574,0.60682476,0.172391,0.08034265,0.77174526,-7.935807,9.669878,0.35174626,-1.5845486,-3.4460976,0.76092654,0
1.6900000000000013,12.48839452424484,-1.6002507959304768,0.7236268664305184,0.9032117581727697,13.964467,-2.1183152,0.1952267,1.8453267,2.5598295,-2.4539187,1.8007635,0.606399,0.1798662,0.06410781,0.7718932,-7.8907685,9.657584,0.36946842,-1.5873065,-2.79584,0.76790845,0
1.7000000000000013,12.48839452424484,-1.6002507959304768,0.7236268664305184,0.9032117581727697,13.964467,-2.1183152,0.1952267,1.8453267,2.4811423,-2.3574212,1.8045465,0.60558844,0.18497765,0.049652938,0.7723866,-7.846817,9.641332,0.3871221,-1.5895898,-2.2469893,0.77454776,0
1.7100000000000013,12.48839452424484,-1.6002507959304768,0.7236268664305184,0.9032117581727697,13.964467,-2.1183152,0.1952267,1.8453267,2.402889,-2.2611032,1.8085058,0.6045032,0.18809634,0.03670253,0.77320707,-7.8041096,9.621798,0.40473574,-1.5914785,-1.7837307,0.7808613,0
1.7200000000000013,11.919493039429211,-1.2117065881109004,4.577325447880992,0.9447910158857974,13.478248,-1.4417872,3.8439648,1.8011696,2.3250558,-2.1649945,1.8126411,0.6032202,0.1895334,0.025021901,0.7743235,-7.762775,9.599547,0.4223585,-1.5930399,-1.3927166,0.7868651,0
1.7300000000000013,11.919493039429211,-1.2117065881109004,4.577325447880992,0.9447910158857974,13.478248,-1.4417872,3.8439648,1.8011696,2.2476194,-2.069114,1.8169267,0.6017298,0.18844952,0.015460616,0.77599585,-7.724743,9.576252,0.43479314,-1.5340455,-0.46166956,0.7946146,0
1.7400000000000013,11.919493039429211,-1.2117065881109004,4.577325447880992,0.9447910158857974,13.478248,-1.4417872,3.8439648,1.8011696,2.1705556,-1.9734731,1.8213378,0.60004056,0.18419059,0.008678683,0.77842814,-7.6882744,9.551798,0.44750488,-1.4841847,0.32417768,0.80198383,0
1.7500000000000013,11.919493039429211,-1.2117065881109004,4.577325447880992,0.9447910158857974,13.478248,-1.4417872,3.8439648,1.8011696,2.0938478,-1.8780787,1.8258785,0.59820294,0.17724203,0.0042372295,0.78148645,-7.6535163,9.527097,0.46071017,-1.4420425,0.9874692,0.8089915,0
1.7600000000000013,11.670583778681554,-0.6801115525532091,5.999989904729385,0.8279583579413958,12.4862175,-1.0451646,6.0875077,1.5782857,2.0174787,-1.7829292,1.8305544,0.5962343,0.16800892,0.0017661464,0.78503186,-7.620606,9.5029125,0.47458822,-1.406423,1.547318,0.81565523,1
1.7700000000000014,11.670583778681554,-0.6801115525532091,5.999989904729385,0.8279583579413958,12.4862175,-1.0451646,6.0875077,1.5782857,1.9414363,-1.6880218,1.8353999,0.5940568,0.15642242,0.0013318677,0.7890674,-7.58821,9.478826,0.49464175,-1.3505074,2.241708,0.8530777,1
1.7800000000000014,11.670583778681554,-0.6801115525532091,5.999989904729385,0.8279583579413958,12.4862175,-1.0451646,6.0875077,1.5782857,1.8657067,-1.5933458,1.8404506,0.5915773,0.14243941,0.0029693344,0.79356104,-7.5580583,9.456761,0.5156789,-1.3032795,2.8278077,0.8886639,1
1.7900000000000014,11.670583778681554,-0.6801115525532091,5.999989904729385,0.8279583579413958,12.4862175,-1.0451646,6.0875077,1.5782857,1.7902666,-1.4988772,1.8457171,0.5887658,0.12640928,0.006348654,0.79833317,-7.530328,9.437436,0.5377736,-1.2633855,3.3225045,0.92250377,1
1.8000000000000014,11.29232289538846,-0.3040858412534823,5.999994774279865,0.6588928853205446,12.732755,-0.47553617,5.675076,1.4932703,1.715091,-1.4045855,1.8512099,0.5855866,0.108629644,0.011191279,0.8032206,-7.5051947,9.421457,0.56092495,-1.2296828,3.740053,0.9546831,0
1.8100000000000014,11.29232289538846,-0.3040858412534823,5.999994774279865,0.6588928853205446,12.732755,-0.47553617,5.675076,1.4932703,1.6401422,-1.3104285,1.8568807,0.582065,0.08952789,0.017512241,0.8080093,-7.484961,9.4105,0.57337147,-1.0855169,4.09259,0.9401686,0
1.8200000000000014,11.29232289538846,-0.3040858412534823,5.999994774279865,0.6588928853205446,12.732755,-0.47553617,5.675076,1.4932703,1.5653831,-1.2163619,1.8626798,0.5782391,0.069459155,0.025310963,0.8125115,-7.467288,9.403455,0.58657205,-0.9637958,4.390132,0.9263664,0
1.8300000000000014,11.29232289538846,-0.3040858412534823,5.999994774279865,0.6588928853205446,12.732755,-0.47553617,5.675076,1.4932703,1.4907876,-1.1223447,1.8686142,0.5740901,0.04856445,0.034347314,0.81662905,-7.4522223,9.400681,0.60034204,-0.8610263,4.6412587,0.9132414,0
1.8400000000000014,11.29232289538846,-0.3040858412534823,5.999994774279865,0.6588928853205446,12.519324,0.41762397,5.2998967,1.3306181,1.4163295,-1.0283326,1.8746881,0.5695993,0.026968056,0.044416074,0.82027876,-7.43982,9.402472,0.6144576,-0.77425826,4.853211,0.9007604,0
1.8500000000000014,11.29232289538846,-0.3040858412534823,5.999994774279865,0.6588928853205446,12.519324,0.41762397,5.2998967,1.3306181,1.3419819,-0.9342786,1.8809037,0.5647491,0.00478017,0.055341445,0.8233915,-7.430141,9.409063,0.628661,-0.70100105,5.0320997,0.88889194,0
1.8600000000000014,11.29232289538846,-0.3040858412534823,5.999994774279865,0.6588928853205446,12.519324,0.41762397,5.2998967,1.3306181,1.267717,-0.840134,1.8872606,0.55952424,-0.01790097,0.06697244,0.82591015,-7.4232473,9.420637,0.64266604,-0.6391515,5.183083,0.87760586,0
1.8700000000000014,11.29232289538846,-0.3040858412534823,5.999994774279865,0.6588928853205446,12.519324,0.41762397,5.2998967,1.3306181,1.1935071,-0.7458482,1.8937552,0.5539114,-0.040987357,0.07917906,0.82778835,-7.4191995,9.437326,0.65616345,-0.5869338,5.310514,0.86687356,0
1.8800000000000014,11.101858531514196,-0.158399991394583,5.564090656713525,0.5017184770178736,12.181788,-0.0111584775,4.706722,0.70525354,1.1193231,-0.6513695,1.900381,0.5478998,-0.0643998,0.09184907,0.828989,-7.418053,9.459218,0.6688257,-0.54284847,5.418067,0.85666794,0
1.8900000000000015,11.101858531514196,-0.158399991394583,5.564090656713525,0.5017184770178736,12.181788,-0.0111584775,4.706722,0.70525354,1.0451361,-0.556648,1.9071186,0.5415201,-0.087892324,0.1048375,0.8294821,-7.4198227,9.48589,0.6784651,-0.48284495,5.4408784,0.83925045,0
1.9000000000000015,11.101858531514196,-0.158399991394583,5.564090656713525,0.5017184770178736,12.181788,-0.0111584775,4.706722,0.70525354,0.97091687,-0.46163413,1.9139452,0.5348106,-0.11126415,0.11802417,0.82925797,-7.424489,9.5176735,0.68662095,-0.4321994,5.460126,0.8226876,0
1.9100000000000015,11.101858531514196,-0.158399991394583,5.564090656713525,0.5017184770178736,12.181788,-0.0111584775,4.706722,0.70525354,0.8966365,-0.3662772,1.9208447,0.5277733,-0.13450894,0.13135186,0.8283175,-7.4320397,9.554491,0.6929703,-0.3894531,5.4763656,0.8069376,0
1.9200000000000015,10.6879396020235,-0.25163356164998507,2.3648323839895378,0.45728465013255587,10.835141,0.019789362,1.5138344,0.510797,0.8222663,-0.27052736,1.9277972,0.52040994,-0.15761831,0.14477041,0.8266632,-7.442458,9.596246,0.6971945,-0.3533741,5.490068,0.79196036,1
1.9300000000000015,10.6879396020235,-0.25163356164998507,2.3648323839895378,0.45728465013255587,10.835141,0.019789362,1.5138344,0.510797,0.7477792,-0.1743414,1.9347681,0.5129896,-0.17921093,0.15746029,0.82457983,-7.455372,9.641638,0.6966154,-0.29481575,4.8700094,0.7781636,1
1.9400000000000015,10.6879396020235,-0.25163356164998507,2.3648323839895378,0.45728465013255587,10.835141,0.019789362,1.5138344,0.510797,0.6731503,-0.07768046,1.9417213,0.50580555,-0.1982146,0.16880007,0.82242256,-7.470777,9.691146,0.6936453,-0.24545054,4.346643,0.76504385,1
1.9500000000000015,10.6879396020235,-0.25163356164998507,2.3648323839895378,0.45728465013255587,10.835141,0.019789362,1.5138344,0.510797,0.5983561,0.01949374,1.9486331,0.49887586,-0.21503724,0.17901301,0.8202663,-7.4883876,9.744212,0.6883475,-0.20383447,3.90489,0.7525679,1
1.9600000000000015,10.28940152214255,-0.6455396157432771,-2.4505287644516853,0.479229541063239,11.192644,-0.5455446,-4.484295,0.17393893,0.52337587,0.11721443,1.9554805,0.4922013,-0.230023,0.18828456,0.8181546,-7.5079603,9.800378,0.6808077,-0.16875052,3.5320246,0.7407042,0
1.9700000000000015,10.28940152214255,-0.6455396157432771,-2.4505287644516853,0.479229541063239,11.192644,-0.5455446,-4.484295,0.17393893,0.44819626,0.21549578,1.9622195,0.48602423,-0.24229941,0.19577627,0.8165439,-7.5281963,9.856238,0.6667108,-0.24263348,2.5990145,0.7278735,0
1.9800000000000015,10.28940152214255,-0.6455396157432771,-2.4505287644516853,0.479229541063239,11.192644,-0.5455446,-4.484295,0.17393893,0.37280726,0.3143456,1.9688091,0.48056296,-0.25120324,0.2008516,0.81585276,-7.5497932,9.913956,0.6510061,-0.30507854,1.8115139,0.7156725,0
1.9900000000000015,10.28940152214255,-0.6455396157432771,-2.4505287644516853,0.479229541063239,11.192644,-0.5455446,-4.484295,0.17393893,0.2971967,0.41377908,1.9752356,0.4757564,-0.2572765,0.20391594,0.8160171,-7.572471,9.972885,0.6341468,-0.35785478,1.1468288,0.70407015,0
2.0000000000000013,,,,,11.11393,-0.61602193,-6.024638,0.16676913,0.22135493,0.5138056,1.9814895,0.4715324,-0.26096886,0.2053021,0.8169483,-7.595993,10.032503,0.6165433,-0.4024575,0.5858052,0.6930372,1
2.010000000000001,,,,,11.11393,-0.61602193,-6.024638,0.16676913,0.14526257,0.61446005,1.9876057,0.46811256,-0.26156625,0.2045979,0.81889826,-7.6224146,10.097994,0.6061758,-0.4502339,-0.42633954,0.66858166,1
2.020000000000001,,,,,11.11393,-0.61602193,-6.024638,0.16676913,0.06890666,0.71576154,1.9936105,0.46570358,-0.25840104,0.20151575,0.8220349,-7.648781,10.162169,0.59489816,-0.47573012,-1.2955523,0.6439576,1
2.0300000000000007,,,,,11.11393,-0.61602193,-6.024638,0.16676913,-0.007712653,0.8176996,1.9995065,0.4641406,-0.25201273,0.19643152,0.8261227,-7.675035,10.225221,0.58447295,-0.4973314,-2.0292096,0.6205418,1
2.0400000000000005,,,,,11.11393,-0.61602193,-6.024638,0.16676913,-0.08459241,0.9202601,2.0053043,0.46325433,-0.24287534,0.18964627,0.8309285,-7.7008157,10.286568,0.575386,-0.515629,-2.6484523,0.598275,1
2.0500000000000003,,,,,10.226579,-1.4128771,-6.3594093,0.70147,-0.16172622,1.0234233,2.01102,0.4628897,-0.2313848,0.18140878,0.83623326,-7.725799,10.345698,0.5680084,-0.5311251,-3.171123,0.57710093,1
2.06,,,,,10.226579,-1.4128771,-6.3594093,0.70147,-0.23909506,1.1271422,2.0166345,0.4627798,-0.21800986,0.17167427,0.8419237,-7.7477946,10.39764,0.5552054,-0.6684537,-3.612339,0.58320373,1
2.07,,,,,10.226579,-1.4128771,-6.3594093,0.70147,-0.31667814,1.2313662,2.0221307,0.46269575,-0.20313868,0.1604161,0.84788847,-7.7686305,10.446687,0.5443835,-0.7843897,-3.9847405,0.5890071,1
2.0799999999999996,,,,,10.226579,-1.4128771,-6.3594093,0.70147,-0.3944632,1.3360646,2.027529,0.46255988,-0.18697242,0.14785174,0.853944,-7.788171,10.4924345,0.5356267,-0.88226604,-4.29906,0.59452564,1
2.0899999999999994,,,,,10.82848,-2.2398906,-6.054782,1.6319621,-0.47243667,1.4412023,2.0328503,0.46230426,-0.16968477,0.13416702,0.85993135,-7.806283,10.534521,0.528945,-0.9648964,-4.564356,0.59977347,1
2.099999999999999,,,,,10.82848,-2.2398906,-6.054782,1.6319621,-0.5505885,1.5467526,2.038142,0.4617167,-0.15156424,0.11925538,0.8658088,-7.823825,10.574855,0.52978456,-1.1634858,-4.788359,0.6504233,1
2.109999999999999,,,,,10.82848,-2.2398906,-6.054782,1.6319621,-0.6289073,1.6526835,2.0434527,0.46061486,-0.13285077,0.10304138,0.8715319,-7.8396854,10.610593,0.53265285,-1.3311146,-4.977427,0.6985877,1
2.1199999999999988,,,,,10.82848,-2.2398906,-6.054782,1.6319621,-0.7073763,1.7589474,2.0488017,0.45898443,-0.113620974,0.08571679,0.87697035,-7.853834,10.641394,0.5373838,-1.472612,-5.137005,0.7443887,1
2.1299999999999986,,,,,12.14269,-3.4905229,-6.4573736,2.697845,-0.785978,1.8654934,2.0542061,0.45681337,-0.09394476,0.06744787,0.8820133,-7.8662276,10.666963,0.5437611,-1.592054,-5.2716913,0.7879422,1
2.1399999999999983,,,,,12.14269,-3.4905229,-6.4573736,2.697845,-0.86470354,1.9722849,2.0597675,0.45394406,-0.07415767,0.04810762,0.8866351,-7.8785224,10.6902485,0.5683739,-1.8454316,-5.34317,0.8778565,1
2.149999999999998,,,,,12.14269,-3.4905229,-6.4573736,2.697845,-0.94354093,2.0792742,2.0655699,0.45023677,-0.05449866,0.027493753,0.89082074,-7.88862,10.706559,0.59191024,-2.0839372,-5.4281707,0.9655626,1
2.159999999999998,,,,,12.14269,-3.4905229,-6.4573736,2.697845,-1.0224692,2.186392,2.0716023,0.4457024,-0.03490296,0.0056559853,0.8944831,-7.896724,10.715905,0.61465544,-2.3022854,-5.516964,1.0505058,1
2.1699999999999977,,,,,13.005067,-3.9997349,-6.698501,3.132394,-1.1014694,2.2935684,2.0778642,0.440354,-0.015353996,-0.017256591,0.8975276,-7.9030256,10.718254,0.63777864,-2.4872444,-5.5925503,1.1313412,1
2.1799999999999975,,,,,13.005067,-3.9997349,-6.698501,3.132394,-1.1805255,2.4007308,2.0844057,0.43415856,0.004038032,-0.041210923,0.8998847,-7.9079123,10.713045,0.6701719,-2.7161388,-5.649857,1.2289283,1
2.1899999999999973,,,,,13.005067,-3.9997349,-6.698501,3.132394,-1.2596213,2.507802,2.0912642,0.42708224,0.023198076,-0.06622082,0.90148664,-7.9109454,10.699953,0.70140594,-2.9159236,-5.704798,1.3223319,1
2.199999999999997,,,,,13.005067,-3.9997349,-6.698501,3.132394,-1.3387383,2.614702,2.0984302,0.41914293,0.042138226,-0.09210645,0.90225315,-7.9122,10.678815,0.7315996,-3.0845704,-5.751158,1.4111521,1
2.209999999999997,,,,,14.305538,-3.2227528,-6.3233995,2.9265764,-1.4178591,2.7213502,2.1058908,0.41035885,0.060858555,-0.11869667,0.9021163,-7.9116917,10.649553,0.76019216,-3.2269351,-5.7902727,1.4956138,1
2.2199999999999966,,,,,14.305538,-3.2227528,-6.3233995,2.9265764,-1.496965,2.827647,2.113689,0.4007517,0.079482935,-0.1455576,0.9010518,-7.9091716,10.608437,0.7990623,-3.2259846,-5.8231263,1.5658317,1
2.2299999999999964,,,,,14.305538,-3.2227528,-6.3233995,2.9265764,-1.5760354,2.9334884,2.1218615,0.39034548,0.09810248,-0.17233214,0.8990599,-7.9045625,10.5585375,0.834927,-3.2251978,-5.8508496,1.6326038,1
2.239999999999996,,,,,14.305538,-3.2227528,-6.3233995,2.9265764,-1.6550485,3.038788,2.1303751,0.37916282,0.11666599,-0.19898134,0.89612037,-7.8977084,10.500085,0.8671879,-3.2245486,-5.874243,1.6960994,1
