time-since-start [s],throttle_mpc,roll_mpc,pitch_mpc,yaw_mpc,throttle_nw,roll_nw,pitch_nw,yaw_nw,position_x [m],position_y [m],position_z [m],rotation_w [quaternion],rotation_x [quaternion],rotation_y [quaternion],rotation_z [quaternion],velocity_x [m/s],velocity_y [m/s],velocity_z [m/s],omega_x [rad/s],omega_y [rad/s],omega_z [rad/s],network_used
0.0,10.528983957824567,5.999999785388381,-5.99999995724551,-5.345664665644712,13.720253,-0.65448254,-4.613996,-1.0219793,19.514679,-9.035022,1.4488914,-0.16590787,-0.39752057,0.17128308,0.8860666,-11.196371,-6.319476,0.3520152,1.8980899,-0.13700616,-0.6045165,0
0.01,10.528983957824567,5.999999785388381,-5.99999995724551,-5.345664665644712,11.615478,-1.112157,-5.5362535,-1.5427413,19.402037,-9.098061,1.4524764,-0.15901494,-0.39865318,0.17822687,0.88545185,-11.331752,-6.287832,0.36455473,1.7836491,-0.29744768,-0.76974463,0
0.02,10.528983957824567,5.999999785388381,-5.99999995724551,-5.345664665644712,11.615478,-1.112157,-5.5362535,-1.5427413,19.288048,-9.160769,1.4561738,-0.15142989,-0.39910802,0.18454745,0.8852818,-11.465455,-6.2536125,0.37453106,1.7119079,-0.45774823,-0.9290887,0
0.03,10.528983957824567,5.999999785388381,-5.99999995724551,-5.345664665644712,11.615478,-1.112157,-5.5362535,-1.5427413,19.172733,-9.2231245,1.4599591,-0.1430941,-0.3989161,0.19042432,0.88551027,-11.597171,-6.2169213,0.3821546,1.6769326,-0.6186646,-1.0829024,0
0.04,10.528983957824567,5.999999785388381,-5.99999995724551,-5.345664665644712,12.70377,-0.04274527,-3.7361732,-2.8670757,19.056112,-9.285101,1.4638097,-0.133957,-0.39809588,0.1960111,0.88608956,-11.726614,-6.1778097,0.38761258,1.6735895,-0.7807071,-1.2315106,0
0.05,10.528983957824567,5.999999785388381,-5.99999995724551,-5.345664665644712,12.70377,-0.04274527,-3.7361732,-2.8670757,18.93821,-9.346673,1.4677047,-0.123975426,-0.39665547,0.20143858,0.8869706,-11.853522,-6.1362906,0.39107144,1.6974308,-0.9441906,-1.3752123,0
0.060000000000000005,10.528983957824567,5.999999785388381,-5.99999995724551,-5.345664665644712,12.70377,-0.04274527,-3.7361732,-2.8670757,18.819052,-9.407818,1.4716249,-0.11311297,-0.39459455,0.20681761,0.88810295,-11.977644,-6.092347,0.39267954,1.7446003,-1.1092758,-1.5142823,0
0.07,10.528983957824567,5.999999785388381,-5.99999995724551,-5.345664665644712,12.70377,-0.04274527,-3.7361732,-2.8670757,18.69867,-9.468512,1.4755523,-0.101339445,-0.39190575,0.21224129,0.8894344,-12.098736,-6.045943,0.39256927,1.8117489,-1.2760042,-1.648974,0
0.08,13.222720995573864,5.999999901359498,-5.999999985062785,-5.114126052411166,13.7421465,-0.6033401,-5.4769387,-1.5952448,18.577091,-9.5287285,1.4794707,-0.08863047,-0.388576,0.21778692,0.89091074,-12.216557,-5.99703,0.3908589,1.8959664,-1.4443258,-1.7795202,0
0.09,13.222720995573864,5.999999901359498,-5.999999985062785,-5.114126052411166,13.7421465,-0.6033401,-5.4769387,-1.5952448,18.45429,-9.588416,1.4834157,-0.07480995,-0.38436994,0.22377859,0.8925168,-12.343116,-5.940012,0.39783603,2.099666,-1.7193226,-1.9041599,0
0.09999999999999999,13.222720995573864,5.999999901359498,-5.999999985062785,-5.114126052411166,13.7421465,-0.6033401,-5.4769387,-1.5952448,18.330244,-9.647518,1.4874214,-0.059720807,-0.37906227,0.23049097,0.89421415,-12.465085,-5.8800783,0.40301797,2.3070214,-1.9869212,-2.0258532,0
0.10999999999999999,13.222720995573864,5.999999901359498,-5.999999985062785,-5.114126052411166,13.7421465,-0.6033401,-5.4769387,-1.5952448,18.205004,-9.706006,1.4914705,-0.043374248,-0.3726475,0.23791017,0.89590794,-12.582113,-5.8170075,0.40655273,2.5169175,-2.2477257,-2.1446955,0
0.11999999999999998,13.222720995573864,5.999999901359498,-5.999999985062785,-5.114126052411166,13.7421465,-0.6033401,-5.4769387,-1.5952448,18.07862,-9.763847,1.4955472,-0.025785357,-0.36511505,0.24601518,0.8974979,-12.693837,-5.750634,0.40856352,2.728407,-2.5022414,-2.2607775,0
0.12999999999999998,17.538785860531448,5.99999996879594,-6.0,-4.111591734870261,14.854199,3.3216343,-4.2310114,-3.6872368,17.951147,-9.821007,1.4996368,-0.00697345,-0.35645038,0.2547783,0.8988784,-12.799887,-5.680848,0.40914947,2.9406872,-2.7508903,-2.3741846,0
0.13999999999999999,17.538785860531448,5.99999996879594,-6.0,-4.111591734870261,14.854199,3.3216343,-4.2310114,-3.6872368,17.822582,-9.877408,1.5037838,0.013374044,-0.3460299,0.26476926,0.8999897,-12.911772,-5.598806,0.42001095,3.406509,-3.2481637,-2.4584854,0
0.15,17.538785860531448,5.99999996879594,-6.0,-4.111591734870261,14.854199,3.3216343,-4.2310114,-3.6872368,17.692932,-9.932963,1.5080383,0.03545753,-0.33335114,0.27636585,0.9006895,-13.017561,-5.511282,0.4310126,3.8100815,-3.6781576,-2.5396037,0
0.16,20.767468897485333,5.9999999780357385,-6.0,-3.29579447457725,15.364368,1.5508128,-4.804901,-2.3192177,17.562254,-9.987613,1.5124068,0.059031412,-0.31864896,0.28919515,0.90074646,-13.11683,-5.417391,0.44283926,4.1507964,-4.041019,-2.6167414,0
0.17,20.767468897485333,5.9999999780357385,-6.0,-3.29579447457725,15.364368,1.5508128,-4.804901,-2.3192177,17.430534,-10.041199,1.5169997,0.08377513,-0.30211067,0.3029587,0.8999594,-13.225395,-5.29847,0.47584304,4.4385633,-4.3471074,-2.6500626,0
0.18000000000000002,20.767468897485333,5.9999999780357385,-6.0,-3.29579447457725,15.364368,1.5508128,-4.804901,-2.3192177,17.29778,-10.093555,1.5219266,0.109395444,-0.28390098,0.31740192,0.89815855,-13.323783,-5.1718574,0.5096685,4.6815286,-4.6053915,-2.6817489,0
0.19000000000000003,20.767468897485333,5.9999999780357385,-6.0,-3.29579447457725,15.364368,1.5508128,-4.804901,-2.3192177,17.164097,-10.144609,1.5271951,0.13571087,-0.2641956,0.33227676,0.89519566,-13.410857,-5.037836,0.5441204,4.886669,-4.823334,-2.7118802,0
0.20000000000000004,20.999999892208372,5.999999925939198,-5.999999967516161,-2.561334348924228,16.544027,4.1661124,-4.74183,-4.3523865,17.029606,-10.194288,1.5328102,0.16255498,-0.24315512,0.34736967,0.8909465,-13.485567,-4.8968964,0.57893646,5.0598745,-5.007235,-2.7405329,0
0.21000000000000005,20.999999892208372,5.999999925939198,-5.999999967516161,-2.561334348924228,16.544027,4.1661124,-4.74183,-4.3523865,16.894428,-10.242517,1.5387814,0.18969382,-0.22089607,0.36251855,0.88532555,-13.547647,-4.748064,0.61528724,5.2062397,-5.1622877,-2.7317395,0
0.22000000000000006,20.999999892208372,5.999999925939198,-5.999999967516161,-2.561334348924228,16.544027,4.1661124,-4.74183,-4.3523865,16.758701,-10.28923,1.5451148,0.21691155,-0.19752541,0.37758374,0.878273,-13.59541,-4.5937595,0.65131366,5.3298225,-5.293119,-2.723378,0
0.23000000000000007,20.999999892208372,5.999999925939198,-5.999999967516161,-2.561334348924228,16.544027,4.1661124,-4.74183,-4.3523865,16.622572,-10.334377,1.5518051,0.24408677,-0.17317323,0.39242387,0.8697333,-13.628131,-4.4349627,0.68660456,5.4341693,-5.403514,-2.7154262,0
0.24000000000000007,20.999999892208372,5.999999925939198,-5.999999967516161,-2.561334348924228,17.723925,2.3730733,-4.5835247,-2.8843932,16.486195,-10.377917,1.558843,0.27110732,-0.14796168,0.40691647,0.85966676,-13.645216,-4.2727675,0.7207177,5.5222726,-5.496664,-2.7078648,0
0.25000000000000006,20.999999892208372,5.999999925939198,-5.999999967516161,-2.561334348924228,17.723925,2.3730733,-4.5835247,-2.8843932,16.349726,-10.419825,1.566214,0.2978694,-0.12200588,0.42095527,0.8480477,-13.646216,-4.108363,0.75318927,5.596661,-5.575264,-2.7006745,0
0.26000000000000006,20.999999892208372,5.999999925939198,-5.999999967516161,-2.561334348924228,17.723925,2.3730733,-4.5835247,-2.8843932,16.213327,-10.460082,1.5738995,0.32427675,-0.09541474,0.43444794,0.83486253,-13.630829,-3.943011,0.7835424,5.6594706,-5.6415863,-2.6938372,0
0.2700000000000001,20.999999892208372,5.999999925939198,-5.999999967516161,-2.561334348924228,17.723925,2.3730733,-4.5835247,-2.8843932,16.077166,-10.498687,1.5818759,0.35024,-0.068291545,0.4473143,0.82010853,-13.598903,-3.7780278,0.8112956,5.7125015,-5.6975493,-2.6873353,0
0.2800000000000001,21.0,4.672389957390142,-5.453024104667361,-0.35338144189397946,17.374315,0.13226184,-4.350743,-1.1250594,15.941406,-10.535649,1.5901148,0.37567598,-0.040734503,0.45948458,0.8037923,-13.550436,-3.6147652,0.8359706,5.757277,-5.7447715,-2.6811523,0
0.2900000000000001,21.0,4.672389957390142,-5.453024104667361,-0.35338144189397946,17.374315,0.13226184,-4.350743,-1.1250594,15.806213,-10.570992,1.5985831,0.40017703,-0.013090723,0.47057632,0.7862854,-13.485624,-3.454593,0.8571261,5.588594,-5.698562,-2.566928,0
0.3000000000000001,21.0,4.672389957390142,-5.453024104667361,-0.35338144189397946,17.374315,0.13226184,-4.350743,-1.1250594,15.671748,-10.604754,1.6072444,0.42342624,0.014361434,0.48032266,0.76798046,-13.405066,-3.2988544,0.8744986,5.446178,-5.659646,-2.4583085,0
0.3100000000000001,21.0,4.672389957390142,-5.453024104667361,-0.35338144189397946,17.374315,0.13226184,-4.350743,-1.1250594,15.538164,-10.636988,1.6160594,0.4454747,0.041629516,0.48882008,0.74891526,-13.309512,-3.1487942,0.8878912,5.3259373,-5.6268716,-2.355019,0
0.3200000000000001,20.999999988790613,3.2358175294284655,-3.04758008568467,-0.13339940815189089,16.72086,-1.1498343,-3.1520894,-0.45707572,15.405607,-10.667754,1.6249878,0.46636462,0.0687168,0.49614763,0.7291223,-13.199765,-3.0055554,0.8971132,5.2244177,-5.5992694,-2.2567983,0
0.3300000000000001,20.999999988790613,3.2358175294284655,-3.04758008568467,-0.13339940815189089,16.72086,-1.1498343,-3.1520894,-0.45707572,15.274215,-10.697126,1.6339868,0.48568892,0.09467088,0.502423,0.70902365,-13.076749,-2.8701186,0.90199167,4.915237,-5.200545,-2.1526027,0
0.34000000000000014,20.999999988790613,3.2358175294284655,-3.04758008568467,-0.13339940815189089,16.72086,-1.1498343,-3.1520894,-0.45707572,15.144113,-10.725184,1.6430125,0.5031865,0.11875744,0.5078275,0.6890652,-12.9418335,-2.7429602,0.90243924,4.654119,-4.8641233,-2.05352,0
0.35000000000000014,20.999999988790613,3.2358175294284655,-3.04758008568467,-0.13339940815189089,16.72086,-1.1498343,-3.1520894,-0.45707572,15.015413,-10.752014,1.6520202,0.5190835,0.14127178,0.51249385,0.6692864,-12.7963915,-2.6243062,0.8984301,4.433597,-4.5802665,-1.9592991,0
0.36000000000000015,20.999999750045422,1.2520909058260656,-0.6493809113705443,0.4607075185011352,16.05704,-1.807377,-2.2648396,-0.66920733,14.888217,-10.7777,1.6609658,0.5335688,0.16246411,0.51652193,0.6497034,-12.641626,-2.5143077,0.88996655,4.247364,-4.340759,-1.8697017,0
0.37000000000000016,20.999999750045422,1.2520909058260656,-0.6493809113705443,0.4607075185011352,16.05704,-1.807377,-2.2648396,-0.66920733,14.76261,-10.802331,1.6698045,0.54640335,0.1815429,0.5199942,0.6309446,-12.478666,-2.4129782,0.8771007,3.7812371,-3.7642388,-1.7553478,0
0.38000000000000017,20.999999750045422,1.2520909058260656,-0.6493809113705443,0.4607075185011352,16.05704,-1.807377,-2.2648396,-0.66920733,14.638668,-10.82599,1.6784935,0.5574623,0.19792296,0.5230461,0.6135835,-12.308873,-2.3197799,0.8600883,3.387608,-3.2777867,-1.6466054,0
0.3900000000000002,20.999999750045422,1.2520909058260656,-0.6493809113705443,0.4607075185011352,16.05704,-1.807377,-2.2648396,-0.66920733,14.516453,-10.848754,1.686993,0.567034,0.21207392,0.52579945,0.59752125,-12.133467,-2.2340062,0.83924216,3.0552099,-2.8673246,-1.5431988,0
0.4000000000000002,20.999918156382048,-0.8994497474844936,1.6464858562125801,1.2854630470713981,14.947234,-3.049834,-0.3365613,0.4165498,14.396015,-10.870694,1.6952661,0.57535154,0.22438845,0.52833784,0.5826484,-11.953413,-2.154997,0.8148495,2.774525,-2.5209765,-1.4448665,0
0.4100000000000002,20.999918156382048,-0.8994497474844936,1.6464858562125801,1.2854630470713981,14.947234,-3.049834,-0.3365613,0.4165498,14.277398,-10.891875,1.7032787,0.5822631,0.23422274,0.53073615,0.5695859,-11.769535,-2.0820563,0.7872073,2.202349,-1.8703294,-1.3108885,0
0.4200000000000002,20.999918156382048,-0.8994497474844936,1.6464858562125801,1.2854630470713981,14.947234,-3.049834,-0.3365613,0.4165498,14.160635,-10.912352,1.7110008,0.5876807,0.24110602,0.5330865,0.55885386,-11.582771,-2.0139933,0.75681204,1.719206,-1.3213265,-1.1834848,0
0.4300000000000002,20.999918156382048,-0.8994497474844936,1.6464858562125801,1.2854630470713981,14.947234,-3.049834,-0.3365613,0.4165498,14.04575,-10.932166,1.7184072,0.59184885,0.24556512,0.5354444,0.5501924,-11.393928,-1.9495598,0.72416914,1.3112547,-0.85807806,-1.0623329,0
0.4400000000000002,20.999918156382048,-0.8994497474844936,1.6464858562125801,1.2854630470713981,17.348543,-3.635206,2.3345149,2.3032217,13.932761,-10.95135,1.7254778,0.59495735,0.24803461,0.5378355,0.5433575,-11.203616,-1.8876665,0.6897046,0.96680367,-0.46718055,-0.9471259,0
0.45000000000000023,20.999918156382048,-0.8994497474844936,1.6464858562125801,1.2854630470713981,17.348543,-3.635206,2.3345149,2.3032217,13.821681,-10.969924,1.7321962,0.59715503,0.24887325,0.54026693,0.5381258,-11.012309,-1.8273704,0.65377265,0.6759769,-0.13732654,-0.8375721,0
0.46000000000000024,20.999918156382048,-0.8994497474844936,1.6464858562125801,1.2854630470713981,17.348543,-3.635206,2.3345149,2.3032217,13.712517,-10.987901,1.7385492,0.59856033,0.2483774,0.54273456,0.5342969,-10.820376,-1.7678614,0.6166652,0.4304333,0.14102203,-0.73339415,0
0.47000000000000025,20.999918156382048,-0.8994497474844936,1.6464858562125801,1.2854630470713981,17.348543,-3.635206,2.3345149,2.3032217,13.605274,-11.005282,1.7445264,0.5992684,0.24679218,0.5452281,0.5316926,-10.628119,-1.7084472,0.57862073,0.22312745,0.37591252,-0.6343282,0
0.48000000000000026,20.99999892541429,-3.3317703474239817,4.480243132666403,1.8290078149696196,16.503819,-4.4559345,3.38104,2.0759387,13.499954,-11.022068,1.7501192,0.5993569,0.24432059,0.5477343,0.5301563,-10.435785,-1.6485387,0.5398328,0.04810944,0.5741335,-0.54012346,0
0.49000000000000027,20.99999892541429,-3.3317703474239817,4.480243132666403,1.8290078149696196,16.503819,-4.4559345,3.38104,2.0759387,13.396557,-11.03825,1.7553211,0.59846634,0.23998252,0.5503848,0.53039867,-10.243632,-1.5875117,0.50049466,-0.478854,1.1834407,-0.4238695,0
0.5000000000000002,20.99999892541429,-3.3317703474239817,4.480243132666403,1.8290078149696196,16.503819,-4.4559345,3.38104,2.0759387,13.295078,-11.053811,1.7601285,0.5962863,0.23300774,0.5532643,0.53296185,-10.052191,-1.5241215,0.4609705,-0.92374307,1.6976333,-0.31332016,0
0.5100000000000002,20.99999892541429,-3.3317703474239817,4.480243132666403,1.8290078149696196,16.503819,-4.4559345,3.38104,2.0759387,13.195508,-11.068721,1.7645413,0.59293,0.22382788,0.5562841,0.53747815,-9.862052,-1.4570823,0.42161718,-1.2993296,2.131569,-0.20819552,0
0.5200000000000002,20.99999964026809,-5.1430634862520215,5.57312375829965,1.7949121130775478,17.776577,-6.0521364,5.03504,2.096961,13.09783,-11.082938,1.7685624,0.58848184,0.21280095,0.55935663,0.5436219,-9.673781,-1.3853316,0.382709,-1.6163992,2.4977822,-0.10822938,0
0.5300000000000002,20.99999964026809,-5.1430634862520215,5.57312375829965,1.7949121130775478,17.776577,-6.0521364,5.03504,2.096961,13.002023,-11.09641,1.7721977,0.58291054,0.19955741,0.562257,0.5515967,-9.48798,-1.3079481,0.34449008,-2.1665263,2.9772887,-0.014841683,0
0.5400000000000003,20.99999964026809,-5.1430634862520215,5.57312375829965,1.7949121130775478,17.776577,-6.0521364,5.03504,2.096961,12.908058,-11.109075,1.7754561,0.57615614,0.18381096,0.56476593,0.5615128,-9.305475,-1.2238746,0.30736583,-2.630906,3.3819616,0.07396345,0
0.5500000000000003,20.99999964026809,-5.1430634862520215,5.57312375829965,1.7949121130775478,17.776577,-6.0521364,5.03504,2.096961,12.815899,-11.12086,1.7783502,0.56823677,0.16594934,0.5668098,0.5729695,-9.127189,-1.1321824,0.27171206,-3.022896,3.7234879,0.15841089,0
0.5600000000000003,20.99999980625636,-5.916800311249092,5.300579796350447,1.536618524804895,20.22556,-7.1131177,5.4049873,1.6080227,12.725496,-11.131689,1.7808963,0.5591647,0.1463016,0.5683196,0.5856136,-8.954063,-1.0321852,0.23779474,-3.3537738,4.011729,0.23871447,0
0.5700000000000003,20.99999980625636,-5.916800311249092,5.300579796350447,1.536618524804895,20.22556,-7.1131177,5.4049873,1.6080227,12.636796,-11.141473,1.7831128,0.5490738,0.12502314,0.56899405,0.5992769,-8.7870655,-0.92341965,0.20581336,-3.753682,4.2125077,0.302403,0
0.5800000000000003,20.99999980625636,-5.916800311249092,5.300579796350447,1.536618524804895,20.22556,-7.1131177,5.4049873,1.6080227,12.549731,-11.1501255,1.7850204,0.53806484,0.10225863,0.5685816,0.61379504,-8.627235,-0.805633,0.17604399,-4.091225,4.381965,0.36296636,0
0.5900000000000003,20.99999980625636,-5.916800311249092,5.300579796350447,1.536618524804895,20.22556,-7.1131177,5.4049873,1.6080227,12.464224,-11.157555,1.7866422,0.5261066,0.078256436,0.5670939,0.6288817,-8.47563,-0.6787687,0.14871232,-4.376126,4.5249915,0.42055777,0
0.6000000000000003,20.99999987863998,-5.751031488873388,4.217160592437094,1.209908524444871,21.848843,-7.580605,5.585419,2.1325493,12.380186,-11.16367,1.7880034,0.5131793,0.05323285,0.56454325,0.6442856,-8.333285,-0.54295075,0.12394124,-4.616592,4.6457143,0.4753232,0
0.6100000000000003,20.99999987863998,-5.751031488873388,4.217160592437094,1.209908524444871,21.848843,-7.580605,5.585419,2.1325493,12.297522,-11.168384,1.7891301,0.4995451,0.027670417,0.5607724,0.6597144,-8.2011795,-0.39849836,0.10178015,-4.7935944,4.5787144,0.5113695,0
0.6200000000000003,20.99999987863998,-5.751031488873388,4.217160592437094,1.209908524444871,21.848843,-7.580605,5.585419,2.1325493,12.216124,-11.171613,1.7900484,0.48543903,0.00197226,0.5556865,0.67494994,-8.080105,-0.24603456,0.08229589,-4.9429884,4.52217,0.545647,0
0.6300000000000003,20.99999987863998,-5.751031488873388,4.217160592437094,1.209908524444871,21.848843,-7.580605,5.585419,2.1325493,12.135879,-11.173279,1.7907853,0.47081846,-0.023793556,0.5493829,0.68988556,-7.970744,-0.08631071,0.06551575,-5.0690804,4.474452,0.57824254,0
0.6400000000000003,20.99999987863998,-5.751031488873388,4.217160592437094,1.209908524444871,21.715754,-7.0789037,4.9283476,1.6355788,12.056666,-11.173317,1.7913678,0.45565367,-0.049566552,0.54194754,0.7044257,-7.8737183,0.07987165,0.051401183,-5.175504,4.434183,0.60923856,0
0.6500000000000004,20.99999987863998,-5.751031488873388,4.217160592437094,1.209908524444871,21.715754,-7.0789037,4.9283476,1.6355788,11.97836,-11.171663,1.7918221,0.4399258,-0.075292416,0.5334565,0.71848476,-7.7895823,0.2516659,0.039856415,-5.2653284,4.400202,0.63871366,0
0.6600000000000004,20.99999987863998,-5.751031488873388,4.217160592437094,1.209908524444871,21.715754,-7.0789037,4.9283476,1.6355788,11.900829,-11.168267,1.7921733,0.4236251,-0.10092187,0.5239776,0.7319862,-7.718822,0.42818588,0.030736076,-5.341141,4.3715277,0.6667423,0
0.6700000000000004,20.99999987863998,-5.751031488873388,4.217160592437094,1.209908524444871,21.715754,-7.0789037,4.9283476,1.6355788,11.823937,-11.163086,1.7924445,0.40674955,-0.12640975,0.51357174,0.7448619,-7.66185,0.6085115,0.02385202,-5.405128,4.3473325,0.6933956,0
0.6800000000000004,20.9999998505015,-4.796449016248035,2.73910683775209,0.7961067408034488,20.92282,-6.8563695,4.2326975,1.354918,11.747544,-11.156086,1.7926573,0.3893034,-0.15171432,0.5022941,0.75705093,-7.6190033,0.7916949,0.018979425,-5.4591336,4.3269176,0.71874106,0
0.6900000000000004,20.9999998505015,-4.796449016248035,2.73910683775209,0.7961067408034488,20.92282,-6.8563695,4.2326975,1.354918,11.671507,-11.147244,1.7928302,0.37169677,-0.17622826,0.49025878,0.76839525,-7.590479,0.9767515,0.015874624,-5.3556824,4.0793343,0.72253746,0
0.7000000000000004,20.9999998505015,-4.796449016248035,2.73910683775209,0.7961067408034488,20.92282,-6.8563695,4.2326975,1.354918,11.595685,-11.136548,1.79298,0.35429135,-0.19947954,0.4776056,0.7788313,-7.5760384,1.1626269,0.014348404,-5.268381,3.8703554,0.72614753,0
0.7100000000000004,20.9999998505015,-4.796449016248035,2.73910683775209,0.7961067408034488,20.92282,-6.8563695,4.2326975,1.354918,11.519938,-11.123993,1.7931218,0.33702773,-0.22161597,0.4644103,0.78842974,-7.5753,1.3483251,0.014233683,-5.1947083,3.6939611,0.7295804,0
0.7200000000000004,20.999999699092257,-3.3067282341107838,1.0243909177768291,0.30447669255472665,21.1007,-6.45692,2.071652,0.45288044,11.444133,-11.109587,1.7932689,0.31985557,-0.24276282,0.45073354,0.7972438,-7.587886,1.5329381,0.015359978,-5.132537,3.5450706,0.7328449,0
0.7300000000000004,20.999999699092257,-3.3067282341107838,1.0243909177768291,0.30447669255472665,21.1007,-6.45692,2.071652,0.45288044,11.368136,-11.093341,1.7934328,0.30324218,-0.26232138,0.4368788,0.8052133,-7.613334,1.715636,0.017565269,-4.8475723,3.1521745,0.71182483,0
0.7400000000000004,20.999999699092257,-3.3067282341107838,1.0243909177768291,0.30447669255472665,21.1007,-6.45692,2.071652,0.45288044,11.291825,-11.075282,1.7936237,0.28758597,-0.27984905,0.42313105,0.8123661,-7.650721,1.8957158,0.02076949,-4.6070876,2.8205194,0.6918362,0
0.7500000000000004,20.999999699092257,-3.3067282341107838,1.0243909177768291,0.30447669255472665,21.1007,-6.45692,2.071652,0.45288044,11.215085,-11.055438,1.7938515,0.2727498,-0.29565266,0.40949997,0.8188447,-7.69906,2.07262,0.02493714,-4.4041395,2.5405602,0.6728283,0
0.7600000000000005,20.999998670466905,-1.4471218805635357,-0.6871700198677321,-0.20267468629893537,21.041328,-5.8859153,0.918343,-0.42563808,11.13781,-11.033843,1.7941257,0.2586129,-0.30999032,0.39598373,0.82475567,-7.7574873,2.2459006,0.030043466,-4.2328677,2.3042395,0.6547532,0
0.7700000000000005,20.999998670466905,-1.4471218805635357,-0.6871700198677321,-0.20267468629893537,21.041328,-5.8859153,0.918343,-0.42563808,11.059903,-11.010535,1.7944555,0.24562772,-0.3223533,0.38300094,0.8300996,-7.825157,2.4152203,0.03608031,-3.7981822,1.8380212,0.61267895,0
0.7800000000000005,20.999998670466905,-1.4471218805635357,-0.6871700198677321,-0.20267468629893537,21.041328,-5.8859153,0.918343,-0.42563808,10.981279,-10.985554,1.7948508,0.23416589,-0.3323758,0.37090796,0.8349369,-7.900825,2.5804904,0.04312119,-3.4313405,1.4444551,0.57266927,0
0.7900000000000005,20.999998670466905,-1.4471218805635357,-0.6871700198677321,-0.20267468629893537,21.041328,-5.8859153,0.918343,-0.42563808,10.901863,-10.95894,1.7953221,0.22401547,-0.3404451,0.3596014,0.83940494,-7.9832716,2.7417588,0.051278412,-3.121751,1.1122227,0.5346229,0
0.8000000000000005,20.01664130806981,0.3890602736742202,-2.0184021287517164,-0.531741102506624,19.587475,-4.4747443,0.4268171,-1.4255104,10.821593,-10.930733,1.7958807,0.21499161,-0.34688267,0.34898186,0.8436008,-8.071477,2.899119,0.06066731,-2.860476,0.8317671,0.4984435,0
0.8100000000000005,20.01664130806981,0.3890602736742202,-2.0184021287517164,-0.531741102506624,19.587475,-4.4747443,0.4268171,-1.4255104,10.740438,-10.901007,1.7965145,0.20741072,-0.35136628,0.3394533,0.847522,-8.160158,3.0455341,0.06630906,-2.3535547,0.38752794,0.44789207,0
0.8200000000000005,20.01664130806981,0.3890602736742202,-2.0184021287517164,-0.531741102506624,19.587475,-4.4747443,0.4268171,-1.4255104,10.658379,-10.869833,1.7972119,0.20152059,-0.35366493,0.33133847,0.8511903,-8.252303,3.188757,0.07338316,-1.9257349,0.012510531,0.39982116,0
0.8300000000000005,20.01664130806981,0.3890602736742202,-2.0184021287517164,-0.531741102506624,19.587475,-4.4747443,0.4268171,-1.4255104,10.575384,-10.837241,1.7979877,0.19707781,-0.35414124,0.32443473,0.8546847,-8.346827,3.3292308,0.082043886,-1.56467,-0.30406782,0.35410917,0
0.8400000000000005,20.01664130806981,0.3890602736742202,-2.0184021287517164,-0.531741102506624,17.34366,-2.3906088,-0.2611638,-1.8694527,10.491436,-10.803257,1.7988586,0.19387296,-0.3530937,0.318562,0.85805357,-8.442831,3.4673586,0.09243254,-1.259941,-0.57131076,0.31064022,0
0.8500000000000005,20.01664130806981,0.3890602736742202,-2.0184021287517164,-0.531741102506624,17.34366,-2.3906088,-0.2611638,-1.8694527,10.406525,-10.767901,1.7998427,0.1917268,-0.35076907,0.31356215,0.8613247,-8.539563,3.6034975,0.10467303,-1.0027555,-0.7969042,0.2693043,0
0.8600000000000005,20.01664130806981,0.3890602736742202,-2.0184021287517164,-0.531741102506624,17.34366,-2.3906088,-0.2611638,-1.8694527,10.320644,-10.731193,1.8009589,0.19048649,-0.3473718,0.30929777,0.8645127,-8.636394,3.737956,0.11887001,-0.7856941,-0.98733777,0.22999677,0
0.8700000000000006,20.01664130806981,0.3890602736742202,-2.0184021287517164,-0.531741102506624,17.34366,-2.3906088,-0.2611638,-1.8694527,10.233798,-10.693147,1.8022271,0.19002192,-0.34307194,0.30565012,0.86762375,-8.732793,3.8709972,0.13510887,-0.6024954,-1.1480892,0.19261809,0
0.8800000000000006,19.201757813869644,1.8462844880931866,-2.7767578637600008,-0.8751269678885175,14.983078,-1.1922766,-0.3742648,-2.0100117,10.145991,-10.653776,1.8036683,0.19022255,-0.33801135,0.3025172,0.87065876,-8.828307,4.002841,0.15345658,-0.44787538,-1.2837839,0.15707356,0
0.8900000000000006,19.201757813869644,1.8462844880931866,-2.7767578637600008,-0.8751269678885175,14.983078,-1.1922766,-0.3742648,-2.0100117,10.057256,-10.61312,1.8052796,0.19131897,-0.33194563,0.3002479,0.87353307,-8.918673,4.1283765,0.1691329,-0.09012813,-1.5165722,0.10642319,0
0.9000000000000006,19.201757813869644,1.8462844880931866,-2.7767578637600008,-0.8751269678885175,14.983078,-1.1922766,-0.3742648,-2.0100117,9.967626,-10.571212,1.8070581,0.193488,-0.3246845,0.2991114,0.87617034,-9.007164,4.253334,0.186899,0.2118146,-1.7130827,0.05825825,0
0.9100000000000006,19.201757813869644,1.8462844880931866,-2.7767578637600008,-0.8751269678885175,14.983078,-1.1922766,-0.3742648,-2.0100117,9.877123,-10.528054,1.8090248,0.19656992,-0.3164087,0.29891816,0.87857467,-9.093167,4.3780723,0.2067551,0.46665984,-1.878966,0.01245677,0
0.9200000000000006,18.370144162030527,2.9358898258079127,-3.1487757380946424,-1.1020376266030623,12.821596,0.42698666,-1.0751735,-2.1729224,9.785773,-10.48365,1.8112004,0.20042884,-0.30726933,0.29950598,0.8807438,-9.17615,4.5028777,0.2286839,0.68175554,-2.0189934,-0.031097203,0
0.9300000000000006,18.370144162030527,2.9358898258079127,-3.1487757380946424,-1.1020376266030623,12.821596,0.42698666,-1.0751735,-2.1729224,9.693628,-10.438023,1.8135791,0.20515071,-0.29718173,0.3010818,0.8825789,-9.252184,4.6225753,0.24735802,1.0332081,-2.195224,-0.08364855,0
0.9400000000000006,18.370144162030527,2.9358898258079127,-3.1487757380946424,-1.1020376266030623,12.821596,0.42698666,-1.0751735,-2.1729224,9.600743,-10.391195,1.8161539,0.21079333,-0.28608063,0.3037975,0.8839857,-9.32429,4.7428813,0.26788187,1.329846,-2.3439887,-0.1336212,0
0.9500000000000006,18.370144162030527,2.9358898258079127,-3.1487757380946424,-1.1020376266030623,12.821596,0.42698666,-1.0751735,-2.1729224,9.507158,-10.343162,1.8189428,0.21721154,-0.27410924,0.3074501,0.88496184,-9.391913,4.864071,0.29013276,1.5802202,-2.469565,-0.18114169,0
0.9600000000000006,17.671378983542354,3.4957279861491606,-3.1456538208322677,-1.2933174961829044,12.409475,0.7493618,-1.6951804,-1.9520226,9.412922,-10.29391,1.8219624,0.22428155,-0.26138896,0.31186655,0.8855013,-9.454566,4.9863367,0.31397364,1.7915479,-2.5755646,-0.22633033,0
0.9700000000000006,17.671378983542354,3.4957279861491606,-3.1456538208322677,-1.2933174961829044,12.409475,0.7493618,-1.6951804,-1.9520226,9.318097,-10.243453,1.8252039,0.23197542,-0.24798062,0.31709185,0.8855199,-9.509633,5.1051145,0.33455262,2.05721,-2.6645784,-0.2786877,0
0.9800000000000006,17.671378983542354,3.4957279861491606,-3.1456538208322677,-1.2933174961829044,12.409475,0.7493618,-1.6951804,-1.9520226,9.222749,-10.191803,1.8286574,0.24026245,-0.23393683,0.32315052,0.88494116,-9.559069,5.22519,0.35629752,2.2814436,-2.7397163,-0.32847586,0
0.9900000000000007,17.671378983542354,3.4957279861491606,-3.1456538208322677,-1.2933174961829044,12.409475,0.7493618,-1.6951804,-1.9520226,9.126936,-10.138945,1.8323331,0.24904065,-0.21934326,0.32987863,0.8837687,-9.602478,5.3466516,0.37897533,2.4707108,-2.803139,-0.3758209,0
1.0000000000000007,17.708082514379523,3.6322833242219397,-2.7062921071194306,-1.5054658431058758,12.815751,0.5567327,-1.7664962,-1.8153484,9.030721,-10.084865,1.8362392,0.25822258,-0.2042742,0.33713663,0.88200444,-9.639513,5.4695206,0.4023485,2.6304648,-2.85667,-0.42084274,0
1.0100000000000007,17.708082514379523,3.6322833242219397,-2.7062921071194306,-1.5054658431058758,12.815751,0.5567327,-1.7664962,-1.8153484,8.934169,-10.029548,1.8403828,0.26770768,-0.18894437,0.3448951,0.8795907,-9.669949,5.5940266,0.42641968,2.786606,-2.8333578,-0.4740655,0
1.0200000000000007,17.708082514379523,3.6322833242219397,-2.7062921071194306,-1.5054658431058758,12.815751,0.5567327,-1.7664962,-1.8153484,8.837346,-9.97298,1.844768,0.27741286,-0.17353071,0.3531268,0.87648755,-9.693501,5.7198787,0.4506315,2.9184022,-2.8136787,-0.5246766,0
1.0300000000000007,17.708082514379523,3.6322833242219397,-2.7062921071194306,-1.5054658431058758,12.815751,0.5567327,-1.7664962,-1.8153484,8.740323,-9.915146,1.8493948,0.28729203,-0.1580431,0.36172467,0.87272024,-9.7100115,5.8470106,0.47467276,3.0296493,-2.7970648,-0.57280415,0
1.0400000000000007,17.708082514379523,3.6322833242219397,-2.7062921071194306,-1.5054658431058758,12.311868,-0.047849335,-1.7935927,-1.5013688,8.64317,-9.856036,1.8542598,0.29730502,-0.1424918,0.3705973,0.8683105,-9.719346,5.975314,0.498247,3.123552,-2.783037,-0.6185701,0
1.0500000000000007,17.708082514379523,3.6322833242219397,-2.7062921071194306,-1.5054658431058758,12.311868,-0.047849335,-1.7935927,-1.5013688,8.545961,-9.795637,1.8593572,0.30741665,-0.12688728,0.3796667,0.8632772,-9.721398,6.104645,0.52107114,3.2028143,-2.7711914,-0.6620903,0
1.0600000000000007,17.708082514379523,3.6322833242219397,-2.7062921071194306,-1.5054658431058758,12.311868,-0.047849335,-1.7935927,-1.5013688,8.448769,-9.73394,1.8646779,0.31759605,-0.11124014,0.38886628,0.8576369,-9.716083,6.2348294,0.5428746,3.2697194,-2.7611876,-0.70347506,0
1.0700000000000007,17.708082514379523,3.6322833242219397,-2.7062921071194306,-1.5054658431058758,12.311868,-0.047849335,-1.7935927,-1.5013688,8.3516655,-9.6709385,1.8702104,0.32781568,-0.09556103,0.39813912,0.8514047,-9.703337,6.365669,0.56339824,3.326194,-2.7527378,-0.74282897,0
1.0800000000000007,17.124422933389294,3.1246212917005987,-2.0508102213747885,-1.5325283290986271,13.535567,-0.30945125,-2.026423,-1.0377634,8.254727,-9.6066265,1.8759407,0.3380509,-0.07986051,0.40743652,0.84459406,-9.683122,6.4969425,0.5823945,3.373865,-2.7455997,-0.7802518,0
1.0900000000000007,17.124422933389294,3.1246212917005987,-2.0508102213747885,-1.5325283290986271,13.535567,-0.30945125,-2.026423,-1.0377634,8.158025,-9.541021,1.8818332,0.34816098,-0.06444107,0.41663706,0.837284,-9.65636,6.6240826,0.5958271,3.3349867,-2.6373086,-0.8171662,0
1.1000000000000008,17.124422933389294,3.1246212917005987,-2.0508102213747885,-1.5325283290986271,13.535567,-0.30945125,-2.026423,-1.0377634,8.0616255,-9.474145,1.8878508,0.35803953,-0.049545698,0.42565405,0.8295609,-9.622548,6.751201,0.607354,3.3021705,-2.5459027,-0.85226923,0
1.1100000000000008,17.124422933389294,3.1246212917005987,-2.0508102213747885,-1.5325283290986271,13.535567,-0.30945125,-2.026423,-1.0377634,7.965598,-9.405998,1.8939732,0.36771154,-0.03510355,0.43449488,0.8214438,-9.581893,6.8780956,0.61679757,3.2744708,-2.4687493,-0.8856497,0
1.1200000000000008,16.569996590098114,2.176061008441722,-1.3298029028447198,-1.4562978564833293,13.510536,-1.1159347,-1.7586765,-0.4752603,7.8700113,-9.336584,1.900179,0.3771968,-0.021055028,0.44316444,0.8129479,-9.534582,7.0045643,0.623998,3.2510893,-2.4036257,-0.91739213,0
1.1300000000000008,16.569996590098114,2.176061008441722,-1.3298029028447198,-1.4562978564833293,13.510536,-1.1159347,-1.7586765,-0.4752603,7.7749205,-9.265929,1.9064282,0.38637048,-0.0077242237,0.4514711,0.8042586,-9.482564,7.126336,0.62549096,3.0835004,-2.2361171,-0.9438364,0
1.1400000000000008,16.569996590098114,2.176061008441722,-1.3298029028447198,-1.4562978564833293,13.510536,-1.1159347,-1.7586765,-0.4752603,7.68038,-9.19406,1.9126807,0.39514494,0.004633984,0.45927995,0.7955506,-9.424679,7.247351,0.6246444,2.942038,-2.0947392,-0.96898305,0
1.1500000000000008,16.569996590098114,2.176061008441722,-1.3298029028447198,-1.4562978564833293,13.510536,-1.1159347,-1.7586765,-0.4752603,7.586446,-9.120985,1.918913,0.4035829,0.016159896,0.4666675,0.786817,-9.361315,7.3674808,0.62145245,2.8226287,-1.9754167,-0.9928957,0
1.1600000000000008,15.800385586632975,0.8758133148539583,-0.6110297530621521,-1.2333522303833366,13.181955,-1.7723149,-1.0929627,0.054726083,7.493171,-9.046713,1.9251018,0.41173545,0.026972756,0.4736958,0.778048,-9.292803,7.4866123,0.61591446,2.7218342,-1.8747087,-1.015635,0
1.1700000000000008,15.800385586632975,0.8758133148539583,-0.6110297530621521,-1.2333522303833366,13.181955,-1.7723149,-1.0929627,0.054726083,7.40059,-8.971283,1.9312024,0.4195041,0.036748324,0.48013344,0.76950485,-9.222876,7.599169,0.6038637,2.4340668,-1.6774654,-1.0263184,0
1.1800000000000008,15.800385586632975,0.8758133148539583,-0.6110297530621521,-1.2333522303833366,13.181955,-1.7723149,-1.0929627,0.054726083,7.308728,-8.894732,1.9371719,0.42682254,0.045236617,0.48581633,0.7614189,-9.14882,7.7106423,0.5897456,2.191159,-1.5110078,-1.0364777,0
1.1900000000000008,15.800385586632975,0.8758133148539583,-0.6110297530621521,-1.2333522303833366,13.181955,-1.7723149,-1.0929627,0.054726083,7.2176266,-8.817074,1.9429908,0.43376973,0.052631836,0.49087757,0.75373274,-9.071099,7.8210263,0.5737358,1.9861176,-1.370531,-1.0461384,0
1.2000000000000008,15.093661377416955,-0.5140192008347355,-0.06429882090847303,-0.8822703657250678,13.62695,-2.425544,-0.9320387,0.63996387,7.1273184,-8.738317,1.9486406,0.4404095,0.05909877,0.4954251,0.74639195,-8.990102,7.9303265,0.55599093,1.8130394,-1.2519801,-1.055325,0
1.2100000000000009,15.093661377416955,-0.5140192008347355,-0.06429882090847303,-0.8822703657250678,13.62695,-2.425544,-0.9320387,0.63996387,7.037816,-8.658495,1.9540874,0.44668818,0.06438979,0.49922937,0.7396579,-8.909937,8.033721,0.53315145,1.4502692,-1.0665045,-1.0468333,0
1.2200000000000009,15.093661377416955,-0.5140192008347355,-0.06429882090847303,-0.8822703657250678,13.62695,-2.425544,-0.9320387,0.63996387,6.949127,-8.577644,1.9592994,0.4525687,0.068318225,0.5021225,0.73374885,-8.827444,8.136164,0.5090913,1.1440508,-0.9099963,-1.038758,0
1.2300000000000009,15.093661377416955,-0.5140192008347355,-0.06429882090847303,-0.8822703657250678,13.62695,-2.425544,-0.9320387,0.63996387,6.8612733,-8.495773,1.9642662,0.4581182,0.07109536,0.50426406,0.7285542,-8.743069,8.237738,0.48410168,0.885569,-0.77793103,-1.0310792,0
1.2400000000000009,15.093661377416955,-0.5140192008347355,-0.06429882090847303,-0.8822703657250678,13.89556,-3.3668816,-0.5592926,1.2126403,6.774271,-8.412891,1.9689794,0.4633902,0.07289986,0.50578344,0.7239741,-8.657181,8.338529,0.45843208,0.6673821,-0.6664908,-1.023777,0
1.2500000000000009,15.093661377416955,-0.5140192008347355,-0.06429882090847303,-0.8822703657250678,13.89556,-3.3668816,-0.5592926,1.2126403,6.6881337,-8.329004,1.9734333,0.46842772,0.07388276,0.50678617,0.7199201,-8.570088,8.43862,0.4322951,0.48320848,-0.57245433,-1.0168333,0
1.260000000000001,15.093661377416955,-0.5140192008347355,-0.06429882090847303,-0.8822703657250678,13.89556,-3.3668816,-0.5592926,1.2126403,6.602873,-8.244121,1.9776243,0.47326544,0.0741717,0.50735855,0.71631426,-8.482052,8.538087,0.40587097,0.32774606,-0.4931034,-1.0102303,0
1.270000000000001,15.093661377416955,-0.5140192008347355,-0.06429882090847303,-0.8822703657250678,13.89556,-3.3668816,-0.5592926,1.2126403,6.518496,-8.158245,1.9815502,0.47793165,0.07387462,0.5075714,0.71308875,-8.393287,8.637004,0.37931165,0.19651899,-0.4261445,-1.0039512,0
1.280000000000001,14.907207317148902,-1.7323218792617208,0.29781260627541256,-0.4186275522642292,14.000997,-3.3942971,-0.039153535,1.5040298,6.435009,-8.0713825,1.9852104,0.48244956,0.07308275,0.50748295,0.71018505,-8.303976,8.735433,0.35274476,0.0857492,-0.3696421,-0.9979803,0
1.290000000000001,14.907207317148902,-1.7323218792617208,0.29781260627541256,-0.4186275522642292,14.000997,-3.3942971,-0.039153535,1.5040298,6.3524117,-7.983544,1.9886011,0.48675963,0.07156346,0.50686175,0.7078384,-8.215407,8.83223,0.32541418,-0.19770518,-0.2653721,-0.96955127,0
1.300000000000001,14.907207317148902,-1.7323218792617208,0.29781260627541256,-0.4186275522642292,14.000997,-3.3942971,-0.039153535,1.5040298,6.270701,-7.8947387,1.99172,0.49080887,0.06913856,0.5055275,0.70623565,-8.126771,8.928708,0.29843485,-0.43696904,-0.1774002,-0.9425173,0
1.310000000000001,14.907207317148902,-1.7323218792617208,0.29781260627541256,-0.4186275522642292,14.000997,-3.3942971,-0.039153535,1.5040298,6.189875,-7.8049703,1.9945718,0.4946229,0.065952554,0.5035911,0.7052622,-8.038369,9.024966,0.27204067,-0.6389311,-0.1031778,-0.91680986,0
1.320000000000001,14.29251578661164,-2.824708777709145,0.30789859353576615,0.10731858555577294,13.883352,-4.042461,0.14167671,2.2558494,6.1099315,-7.7142396,1.9971634,0.49822226,0.062127452,0.5011441,0.7048189,-7.950459,9.121095,0.2464232,-0.8094066,-0.040554695,-0.89236397,0
1.330000000000001,14.29251578661164,-2.824708777709145,0.30789859353576615,0.10731858555577294,13.883352,-4.042461,0.14167671,2.2558494,6.0308456,-7.622568,1.9994885,0.5016019,0.0575774,0.4979517,0.70507085,-7.8668756,9.213202,0.21873191,-1.1236604,0.013933574,-0.8433092,0
1.340000000000001,14.29251578661164,-2.824708777709145,0.30789859353576615,0.10731858555577294,13.883352,-4.042461,0.14167671,2.2558494,5.9525905,-7.5299754,2.0015423,0.50474656,0.052242044,0.49382722,0.70614207,-7.7843027,9.305317,0.19221365,-1.3889146,0.05988112,-0.7966617,0
1.350000000000001,14.29251578661164,-2.824708777709145,0.30789859353576615,0.10731858555577294,13.883352,-4.042461,0.14167671,2.2558494,5.8751545,-7.4364614,2.0033376,0.50765777,0.046250764,0.48890418,0.7078964,-7.7030454,9.397486,0.16711667,-1.6128085,0.09862918,-0.75230306,0
1.360000000000001,13.720618525916269,-3.63145728655628,0.28042093594157297,0.6000525645747585,14.789619,-4.6301627,-0.40602157,2.497563,5.7985234,-7.3420258,2.0048902,0.5103362,0.039712735,0.48329374,0.71021634,-7.623374,9.489743,0.14363776,-1.8017911,0.13130787,-0.71012115,0
1.370000000000001,13.720618525916269,-3.63145728655628,0.28042093594157297,0.6000525645747585,14.789619,-4.6301627,-0.40602157,2.497563,5.7226653,-7.246685,2.0062015,0.5127556,0.032592118,0.47685057,0.71318525,-7.5486574,9.578413,0.11888741,-2.087122,0.15460713,-0.6458305,0
1.380000000000001,13.720618525916269,-3.63145728655628,0.28042093594157297,0.6000525645747585,14.789619,-4.6301627,-0.40602157,2.497563,5.6475434,-7.150457,2.0072749,0.5148818,0.024867894,0.46945897,0.716859,-7.476005,9.667189,0.09605622,-2.3279588,0.17423666,-0.5846946,0
1.390000000000001,13.720618525916269,-3.63145728655628,0.28042093594157297,0.6000525645747585,14.789619,-4.6301627,-0.40602157,2.497563,5.573137,-7.0533404,2.00813,0.5167052,0.016645093,0.46124452,0.72110504,-7.405711,9.756055,0.07532642,-2.5312397,0.19077784,-0.52655876,0
1.400000000000001,13.030392663180917,-3.982604959631846,0.020988133215819226,1.0407054597934864,14.909358,-5.0685964,-0.6090329,2.7447534,5.49942,-6.955335,2.008789,0.51821816,0.0080123935,0.45231304,0.7258092,-7.3380404,9.844983,0.05683114,-2.7028205,0.2047193,-0.47127566,0
1.410000000000001,13.030392663180917,-3.982604959631846,0.020988133215819226,1.0407054597934864,14.909358,-5.0685964,-0.6090329,2.7447534,5.42635,-6.856463,2.0092542,0.5194221,-0.0009281745,0.44259745,0.7309635,-7.2764955,9.929451,0.036547992,-2.9024196,0.1759879,-0.3970823,0
1.420000000000001,13.030392663180917,-3.982604959631846,0.020988133215819226,1.0407054597934864,14.909358,-5.0685964,-0.6090329,2.7447534,5.3538804,-6.7567463,2.0095282,0.52030784,-0.010088578,0.4320474,0.7365552,-7.217901,10.013845,0.018586604,-3.070887,0.15171853,-0.32652962,0
1.430000000000001,13.030392663180917,-3.982604959631846,0.020988133215819226,1.0407054597934864,14.909358,-5.0685964,-0.6090329,2.7447534,5.2819815,-6.6561866,2.0096343,0.5208565,-0.019418802,0.42076892,0.742486,-7.1624722,10.098062,0.0030277153,-3.2130795,0.13122113,-0.259439,0
1.440000000000001,13.030392663180917,-3.982604959631846,0.020988133215819226,1.0407054597934864,15.4705515,-5.2861867,-0.62809044,3.2583447,5.21062,-6.554786,2.0095968,0.5210541,-0.028876908,0.4088528,0.7486713,-7.1104035,10.181989,-0.0100854095,-3.3330941,0.11391215,-0.19564052,0
1.450000000000001,13.030392663180917,-3.982604959631846,0.020988133215819226,1.0407054597934864,15.4705515,-5.2861867,-0.62809044,3.2583447,5.1397614,-6.4525485,2.009441,0.52089024,-0.038427744,0.39637697,0.7550381,-7.061871,10.26551,-0.020741682,-3.434391,0.09929796,-0.13497268,0
1.460000000000001,13.030392663180917,-3.982604959631846,0.020988133215819226,1.0407054597934864,15.4705515,-5.2861867,-0.62809044,3.2583447,5.0693703,-6.3494782,2.0091906,0.5203581,-0.04804186,0.3834087,0.7615233,-7.017034,10.348503,-0.028957546,-3.5198889,0.08696083,-0.07728182,0
1.470000000000001,13.030392663180917,-3.982604959631846,0.020988133215819226,1.0407054597934864,15.4705515,-5.2861867,-0.62809044,3.2583447,4.999408,-6.245581,2.0088704,0.5194534,-0.057694614,0.3700062,0.76807255,-6.976034,10.430845,-0.034773085,-3.5920525,0.07654767,-0.02242187,0
1.480000000000001,12.05561101367852,-3.8845314356398974,-0.38408973332495155,1.341756905852697,15.803068,-5.453961,-0.5484602,3.6659188,4.929836,-6.1408644,2.0085034,0.5181744,-0.06736538,0.35622007,0.7746386,-6.938998,10.512404,-0.038248576,-3.6529615,0.06775988,0.029746085,0
1.490000000000001,12.05561101367852,-3.8845314356398974,-0.38408973332495155,1.341756905852697,15.803068,-5.453961,-0.5484602,3.6659188,4.860602,-6.035367,2.008077,0.5165523,-0.07687754,0.3420436,0.78119797,-6.9084983,10.587012,-0.046706468,-3.6890736,-0.0028612502,0.094126835,0
1.500000000000001,12.05561101367852,-3.8845314356398974,-0.38408973332495155,1.341756905852697,15.803068,-5.453961,-0.5484602,3.6659188,4.791653,-5.929128,2.0075762,0.51460767,-0.08608823,0.32747734,0.7877353,-6.881815,10.660607,-0.053132236,-3.719549,-0.062463798,0.1553484,0
1.5100000000000011,12.05561101367852,-3.8845314356398974,-0.38408973332495155,1.341756905852697,15.803068,-5.453961,-0.5484602,3.6659188,4.7229524,-5.8221593,2.007021,0.51232743,-0.09502753,0.3125718,0.7942228,-6.8589816,10.733018,-0.05759739,-3.7452683,-0.11276593,0.21356583,0
1.5200000000000011,11.08194709996851,-3.6324881559095226,-1.0384613840738668,1.6046276592664979,16.36501,-5.604675,-1.2105428,3.6874876,4.654461,-5.714473,2.0064306,0.50970256,-0.10372151,0.2973707,0.80063504,-6.840025,10.804083,-0.06018595,-3.766975,-0.15521763,0.2689265,0
1.5300000000000011,11.08194709996851,-3.6324881559095226,-1.0384613840738668,1.6046276592664979,16.36501,-5.604675,-1.2105428,3.6874876,4.586133,-5.606111,2.0057843,0.50678915,-0.11192176,0.28186345,0.8069646,-6.826173,10.868022,-0.06884619,-3.7459655,-0.29311544,0.33446974,0
1.5400000000000011,11.08194709996851,-3.6324881559095226,-1.0384613840738668,1.6046276592664979,16.36501,-5.604675,-1.2105428,3.6874876,4.5179257,-5.497118,2.005059,0.5036273,-0.11943138,0.26604813,0.8132125,-6.8158383,10.930383,-0.075930476,-3.7282271,-0.40949932,0.3967968,0
1.5500000000000012,11.08194709996851,-3.6324881559095226,-1.0384613840738668,1.6046276592664979,16.36501,-5.604675,-1.2105428,3.6874876,4.449805,-5.38751,2.0042708,0.50019157,-0.1263413,0.24997117,0.8193664,-6.808948,10.990973,-0.08150596,-3.7132518,-0.5077253,0.45606542,0
1.5600000000000012,11.149244877527439,-3.3932510734743184,-1.3202022714852835,1.8017340981640393,17.011053,-5.4690127,-2.041683,3.6078591,4.3817353,-5.277305,2.003434,0.4964626,-0.13272937,0.23367201,0.8254125,-6.8054366,11.049621,-0.08564923,-3.7006106,-0.5906255,0.51242566,0
1.5700000000000012,11.149244877527439,-3.3932510734743184,-1.3202022714852835,1.8017340981640393,17.011053,-5.4690127,-2.041683,3.6078591,4.3136845,-5.166523,2.0025654,0.49244517,-0.138516,0.21721128,0.8313429,-6.8052316,11.106502,-0.08786502,-3.6526115,-0.70453733,0.5756924,0
1.5800000000000012,11.149244877527439,-3.3932510734743184,-1.3202022714852835,1.8017340981640393,17.011053,-5.4690127,-2.041683,3.6078591,4.24562,-5.0551834,2.001681,0.4881414,-0.14364226,0.20064172,0.837155,-6.808247,11.161095,-0.08880677,-3.612097,-0.80067647,0.63585466,0
1.5900000000000012,11.149244877527439,-3.3932510734743184,-1.3202022714852835,1.8017340981640393,17.011053,-5.4690127,-2.041683,3.6078591,4.1775093,-4.94331,2.0007932,0.48353565,-0.14819792,0.18398362,0.84284127,-6.81437,11.213246,-0.08856018,-3.5779018,-0.8818157,0.6930647,0
1.6000000000000012,11.497753278852052,-3.1722746810758458,-1.4942388548768213,1.941038359428717,18.916666,-5.47016,-3.466972,4.6218657,4.1093225,-4.830927,1.9999135,0.47861692,-0.15225957,0.16725422,0.84839237,-6.823495,11.262814,-0.08721627,-3.5490413,-0.9502948,0.7474674,0
1.6100000000000012,11.497753278852052,-3.1722746810758458,-1.4942388548768213,1.941038359428717,18.916666,-5.47016,-3.466972,4.6218657,4.041028,-4.718055,1.999068,0.47338852,-0.15578853,0.150513,0.85380316,-6.8358927,11.311132,-0.08173016,-3.4902043,-1.0352274,0.80603623,0
1.6200000000000012,11.497753278852052,-3.1722746810758458,-1.4942388548768213,1.941038359428717,18.916666,-5.47016,-3.466972,4.6218657,3.9725952,-4.6047144,1.9982821,0.46785283,-0.15875867,0.13380994,0.8590722,-6.8511424,11.356527,-0.075306535,-3.4405458,-1.1069089,0.8617311,0
1.6300000000000012,11.497753278852052,-3.1722746810758458,-1.4942388548768213,1.941038359428717,18.916666,-5.47016,-3.466972,4.6218657,3.903996,-4.4909353,1.9975647,0.4620028,-0.16124757,0.117145665,0.8641934,-6.8691063,11.398886,-0.06804251,-3.3986351,-1.1674068,0.91469306,0
1.6400000000000012,11.497753278852052,-3.1722746810758458,-1.4942388548768213,1.941038359428717,19.09384,-4.9671197,-3.2993467,4.482721,3.8352041,-4.376748,1.9969236,0.45583457,-0.16332123,0.1005207,0.86915886,-6.8896546,11.438103,-0.060037713,-3.363264,-1.2184654,0.9650561,0
1.6500000000000012,11.497753278852052,-3.1722746810758458,-1.4942388548768213,1.941038359428717,19.09384,-4.9671197,-3.2993467,4.482721,3.7661946,-4.262185,1.996366,0.44934675,-0.16503584,0.083935626,0.87395996,-6.912666,11.474086,-0.051394127,-3.3334131,-1.2615575,1.0129478,0
1.6600000000000013,11.497753278852052,-3.1722746810758458,-1.4942388548768213,1.941038359428717,19.09384,-4.9671197,-3.2993467,4.482721,3.6969428,-4.147279,1.9958975,0.44253996,-0.16643925,0.06739115,0.8785871,-6.938022,11.506749,-0.042215887,-3.3082213,-1.2979255,1.0584894,0
1.6700000000000013,11.497753278852052,-3.1722746810758458,-1.4942388548768213,1.941038359428717,19.09384,-4.9671197,-3.2993467,4.482721,3.6274264,-4.032062,1.9955231,0.43541655,-0.1675722,0.050888192,0.8830305,-6.96561,11.5360155,-0.03260885,-3.286962,-1.3286188,1.1017964,0
1.6800000000000013,12.031556570473244,-2.950175828604279,-1.408644043464399,2.054377737759147,19.102125,-4.54777,-2.666175,3.6851182,3.5576234,-3.9165702,1.9952465,0.4279803,-0.16846941,0.034427915,0.8872802,-6.99532,11.561817,-0.022680474,-3.2690217,-1.3545221,1.1429783,0
1.6900000000000013,12.031556570473244,-2.950175828604279,-1.408644043464399,2.054377737759147,19.102125,-4.54777,-2.666175,3.6851182,3.487506,-3.8008327,1.9950955,0.420238,-0.16915284,0.018107703,0.8913248,-7.028513,11.585127,-0.007514233,-3.2192519,-1.3630193,1.187701,0
1.7000000000000013,12.031556570473244,-2.950175828604279,-1.408644043464399,2.054377737759147,19.102125,-4.54777,-2.666175,3.6851182,3.4170465,-3.6848807,1.9950967,0.41219747,-0.16964355,0.0020057708,0.8951596,-7.063682,11.604718,0.007760216,-3.1772459,-1.3701901,1.2302291,0
1.7100000000000013,12.031556570473244,-2.950175828604279,-1.408644043464399,2.054377737759147,19.102125,-4.54777,-2.666175,3.6851182,3.3462257,-3.5687513,1.9952507,0.40386516,-0.16996743,-0.013902342,0.89878315,-7.1006975,11.620573,0.02303116,-3.141793,-1.3762416,1.2706703,0
1.7200000000000013,12.413431061025673,-2.5967976275469162,-1.3691712101001108,2.037066724986014,19.293245,-4.367136,-2.226102,3.151545,3.2750263,-3.4524825,1.995557,0.39524785,-0.17014624,-0.029637,0.9021926,-7.139435,11.632674,0.03818962,-3.1118717,-1.3813481,1.309127,0
1.7300000000000013,12.413431061025673,-2.5967976275469162,-1.3691712101001108,2.037066724986014,19.293245,-4.367136,-2.226102,3.151545,3.2034254,-3.3361096,1.9960316,0.38637978,-0.17015746,-0.045081493,0.9053868,-7.181049,11.641278,0.056718092,-3.0315156,-1.3794514,1.3448472,0
1.7400000000000013,12.413431061025673,-2.5967976275469162,-1.3691712101001108,2.037066724986014,19.293245,-4.367136,-2.226102,3.151545,3.1314,-3.21967,1.9966902,0.37729257,-0.16998659,-0.06014386,0.9083711,-7.224157,11.6460285,0.07492438,-2.9636924,-1.3778546,1.3788145,0
1.7500000000000013,12.413431061025673,-2.5967976275469162,-1.3691712101001108,2.037066724986014,19.293245,-4.367136,-2.226102,3.151545,3.0589373,-3.103202,1.9975287,0.36798963,-0.16966102,-0.07487304,0.91114944,-7.2686057,11.646961,0.09271859,-2.9064476,-1.3765103,1.4111152,0
1.7600000000000013,12.819829436743621,-2.2409910174528562,-1.1703168866729277,1.9621518171377963,19.998594,-4.2707543,-2.4166546,3.100595,2.986024,-2.986744,1.9985427,0.35847482,-0.16920355,-0.08931026,0.91372323,-7.3142524,11.644111,0.1100149,-2.8581312,-1.3753786,1.4418308,0
1.7700000000000014,12.819829436743621,-2.2409910174528562,-1.1703168866729277,1.9621518171377963,19.998594,-4.2707543,-2.4166546,3.100595,2.912641,-2.870334,1.9997457,0.348793,-0.16865487,-0.10333339,0.91609037,-7.36249,11.6373,0.13049091,-2.7618961,-1.3433552,1.4673631,0
1.7800000000000014,12.819829436743621,-2.2409910174528562,-1.1703168866729277,1.9621518171377963,19.998594,-4.2707543,-2.4166546,3.100595,2.8387709,-2.7540107,2.0011501,0.33898586,-0.16805054,-0.11684871,0.91825616,-7.41168,11.626709,0.15029672,-2.6806662,-1.316335,1.4916425,0
1.7900000000000014,12.819829436743621,-2.2409910174528562,-1.1703168866729277,1.9621518171377963,19.998594,-4.2707543,-2.4166546,3.100595,2.7644045,-2.637812,2.002749,0.32905275,-0.1674005,-0.12992634,0.9202287,-7.4616876,11.612437,0.1693686,-2.6121018,-1.2935363,1.5147305,0
1.8000000000000014,13.33966228958501,-1.9167266151410047,-1.0885737805470779,1.8299603232482509,20.042526,-3.9730442,-2.3367867,2.6234136,2.6895347,-2.521774,2.0045347,0.31899357,-0.16671251,-0.14262535,0.9220132,-7.512387,11.594569,0.18764733,-2.554228,-1.2743,1.5366856,0
1.8100000000000014,13.33966228958501,-1.9167266151410047,-1.0885737805470779,1.8299603232482509,20.042526,-3.9730442,-2.3367867,2.6234136,2.6141446,-2.405937,2.0065227,0.30885074,-0.16597973,-0.15486823,0.9236223,-7.5657372,11.572317,0.20976429,-2.454827,-1.2452599,1.5510767,0
1.8200000000000014,13.33966228958501,-1.9167266151410047,-1.0885737805470779,1.8299603232482509,20.042526,-3.9730442,-2.3367867,2.6234136,2.5382183,-2.2903402,2.008727,0.29866242,-0.16519831,-0.16659725,0.9250708,-7.619552,11.546522,0.23096304,-2.3709245,-1.2207614,1.5647616,0
1.8300000000000014,13.33966228958501,-1.9167266151410047,-1.0885737805470779,1.8299603232482509,20.042526,-3.9730442,-2.3367867,2.6234136,2.4617522,-2.1750185,2.011139,0.28842345,-0.16437735,-0.17788473,0.9263636,-7.673707,11.5173,0.25121418,-2.3001037,-1.2000942,1.5777749,0
1.8400000000000014,13.33966228958501,-1.9167266151410047,-1.0885737805470779,1.8299603232482509,19.142092,-3.6552417,-1.7920338,1.8942511,2.3847432,-2.0600057,2.0137484,0.27812955,-0.16352373,-0.18879159,0.9275032,-7.728089,11.484753,0.27048984,-2.2403245,-1.1826593,1.5901498,0
1.8500000000000014,13.33966228958501,-1.9167266151410047,-1.0885737805470779,1.8299603232482509,19.142092,-3.6552417,-1.7920338,1.8942511,2.30719,-1.9453347,2.0165453,0.2677775,-0.16264272,-0.19936898,0.92849076,-7.782592,11.448969,0.2887633,-2.1898658,-1.1679512,1.6019174,0
1.8600000000000014,13.33966228958501,-1.9167266151410047,-1.0885737805470779,1.8299603232482509,19.142092,-3.6552417,-1.7920338,1.8942511,2.2290912,-1.8310373,2.01952,0.25736496,-0.16173822,-0.20965993,0.9293263,-7.8371177,11.41003,0.30600828,-2.1472743,-1.1555436,1.6131076,0
1.8700000000000014,13.33966228958501,-1.9167266151410047,-1.0885737805470779,1.8299603232482509,19.142092,-3.6552417,-1.7920338,1.8942511,2.1504476,-1.7171446,2.022662,0.2468903,-0.16081312,-0.21970047,0.93000895,-7.8915744,11.368007,0.32219884,-2.1113234,-1.1450765,1.6237487,0
1.8800000000000014,13.671826536643788,-1.5998285402627026,-0.9607790649430308,1.5982568616001398,18.253405,-3.5827053,-1.3939661,1.4433385,2.0712605,-1.6036874,2.0259604,0.23635268,-0.1598695,-0.2295208,0.93053746,-7.945874,11.322965,0.33730924,-2.0809782,-1.1362466,1.6338676,0
1.8900000000000015,13.671826536643788,-1.5998285402627026,-0.9607790649430308,1.5982568616001398,18.253405,-3.5827053,-1.3939661,1.4433385,1.9915245,-1.4907013,2.0294185,0.22581087,-0.15892057,-0.23902112,0.930926,-8.00128,11.273776,0.3541086,-2.0059733,-1.1088003,1.6321203,0
1.9000000000000015,13.671826536643788,-1.5998285402627026,-0.9607790649430308,1.5982568616001398,18.253405,-3.5827053,-1.3939661,1.4433385,1.9112359,-1.3782219,2.0330386,0.2153172,-0.1579776,-0.24812576,0.93119055,-8.0563545,11.22167,0.3697749,-1.9426612,-1.085647,1.6304586,0
1.9100000000000015,13.671826536643788,-1.5998285402627026,-0.9607790649430308,1.5982568616001398,18.253405,-3.5827053,-1.3939661,1.4433385,1.8303986,-1.2662777,2.03681,0.20486249,-0.15703888,-0.2568903,0.9313314,-8.111023,11.166755,0.38431093,-1.8892184,-1.0661154,1.6288784,0
1.9200000000000015,13.74361131335352,-1.0721755352679276,-0.7560267873487311,1.2709913343970274,17.640858,-3.4516504,-0.93841773,1.0314928,1.749017,-1.1548961,2.040721,0.19443889,-0.1561025,-0.26536137,0.9313482,-8.165215,11.10913,0.3977176,-1.8441068,-1.0496384,1.6273757,0
1.9300000000000015,13.74361131335352,-1.0721755352679276,-0.7560267873487311,1.2709913343970274,17.640858,-3.4516504,-0.93841773,1.0314928,1.6670948,-1.0441056,2.0447633,0.18413274,-0.15519205,-0.27337262,0.9312779,-8.219146,11.048575,0.41058013,-1.7237847,-1.0037025,1.6098877,0
1.9400000000000015,13.74361131335352,-1.0721755352679276,-0.7560267873487311,1.2709913343970274,17.640858,-3.4516504,-0.93841773,1.0314928,1.5846363,-0.933933,2.048929,0.1740193,-0.15432742,-0.2807978,0.931157,-8.272475,10.985554,0.42235383,-1.6222178,-0.9649535,1.5932579,0
1.9500000000000015,13.74361131335352,-1.0721755352679276,-0.7560267873487311,1.2709913343970274,17.640858,-3.4516504,-0.93841773,1.0314928,1.5016477,-0.82440245,2.053207,0.1640769,-0.15350094,-0.28772652,0.9309834,-8.325157,10.920223,0.4330873,-1.5364825,-0.93226665,1.5774441,0
1.9600000000000015,13.832397917288741,-0.6878588206870053,-0.6093963047074247,0.9122503311100595,16.951315,-3.3671315,-0.6891021,0.5358351,1.4181356,-0.7155361,2.0575871,0.15428652,-0.15270543,-0.29423404,0.93075424,-8.377151,10.852722,0.4428229,-1.4641113,-0.9046935,1.5624063,0
1.9700000000000015,13.832397917288741,-0.6878588206870053,-0.6093963047074247,0.9122503311100595,16.951315,-3.3671315,-0.6891021,0.5358351,1.3341055,-0.6073574,2.0620635,0.144714,-0.15195286,-0.30023867,0.9304974,-8.428753,10.782728,0.45229286,-1.3431199,-0.85849077,1.5305029,0
1.9800000000000015,13.832397917288741,-0.6878588206870053,-0.6093963047074247,0.9122503311100595,16.951315,-3.3671315,-0.6891021,0.5358351,1.2495631,-0.49988815,2.06663,0.13541684,-0.15125202,-0.30568156,0.9302389,-8.479606,10.710838,0.4608659,-1.2409873,-0.81951797,1.5001651,0
1.9900000000000015,13.832397917288741,-0.6878588206870053,-0.6093963047074247,0.9122503311100595,16.951315,-3.3671315,-0.6891021,0.5358351,1.1645161,-0.39314663,2.0712779,0.12636796,-0.15059201,-0.31065133,0.9299728,-8.529693,10.637206,0.46860906,-1.1547741,-0.78664356,1.471316,0
2.0000000000000013,,,,,16.311768,-3.3693273,-0.71494263,0.18157269,1.078972,-0.28714955,2.0759993,0.11754355,-0.14996316,-0.31522235,0.92969346,-8.579003,10.561961,0.47558045,-1.0819991,-0.75891274,1.4438825,0
2.010000000000001,,,,,16.311768,-3.3693273,-0.71494263,0.18157269,0.99295074,-0.1818938,2.0807614,0.108985975,-0.14930888,-0.3193196,0.92944306,-8.625153,10.4889765,0.47673362,-0.9591262,-0.74171966,1.3987124,0
2.020000000000001,,,,,16.311768,-3.3693273,-0.71494263,0.18157269,0.9064717,-0.07737444,2.085532,0.10073337,-0.14858317,-0.3228884,0.9292574,-8.670531,10.414706,0.47728765,-0.8554108,-0.7272333,1.3557589,0
2.0300000000000007,,,,,16.311768,-3.3693273,-0.71494263,0.18157269,0.8195429,0.026396357,2.0903053,0.09275997,-0.14779201,-0.3260132,0.9291226,-8.71512,10.339282,0.47732422,-0.76786596,-0.7150268,1.3149132,0
2.0400000000000005,,,,,16.311768,-3.3693273,-0.71494263,0.18157269,0.73217213,0.12940761,2.095077,0.08504285,-0.14694014,-0.328765,0.9290265,-8.7589035,10.262814,0.4769137,-0.6939707,-0.7047408,1.2760717,0
2.0500000000000003,,,,,15.345598,-3.0089185,-0.9717155,-0.29533166,0.6443676,0.23164935,2.0998425,0.07756164,-0.14603135,-0.33120337,0.9289584,-8.801871,10.185393,0.47611627,-0.63159657,-0.69607276,1.2391362,1
2.06,,,,,15.345598,-3.0089185,-0.9717155,-0.29533166,0.55610234,0.33304733,2.1046789,0.070190586,-0.144996,-0.33441123,0.92855746,-8.851022,10.094015,0.4910767,-1.00234,-0.7393101,1.1638395,1
2.07,,,,,15.345598,-3.0089185,-0.9717155,-0.29533166,0.4673506,0.43352494,2.1096616,0.06284162,-0.14376281,-0.3392454,0.9275215,-8.899156,10.001257,0.505348,-1.3152733,-0.77573025,1.0922375,1
2.0799999999999996,,,,,15.345598,-3.0089185,-0.9717155,-0.29533166,0.37812293,0.5330665,2.114782,0.05554721,-0.14233398,-0.34544548,0.92591757,-8.946205,9.906752,0.51861864,-1.5794102,-0.80641234,1.0241492,1
2.0899999999999994,,,,,14.136819,-3.361571,-1.5120757,-0.54244363,0.28843048,0.63165295,2.1200294,0.04833275,-0.14071272,-0.35278946,0.9237986,-8.992095,9.810205,0.53061384,-1.802359,-0.8322643,0.95940185,1
2.099999999999999,,,,,14.136819,-3.361571,-1.5120757,-0.54244363,0.19830295,0.7293015,2.1253462,0.041149374,-0.13869874,-0.361232,0.9211847,-9.0332155,9.719158,0.5325327,-2.045496,-0.93833476,0.8857058,1
2.109999999999999,,,,,14.136819,-3.361571,-1.5120757,-0.54244363,0.107770674,0.82602805,2.1306744,0.03395978,-0.13613158,-0.37072206,0.9180852,-9.07302,9.625782,0.53282267,-2.2507324,-1.0278255,0.8156261,1
2.1199999999999988,,,,,14.136819,-3.361571,-1.5120757,-0.54244363,0.01684771,0.9218084,2.1359963,0.026797146,-0.13306904,-0.38107657,0.9145248,-9.111328,9.529892,0.5312708,-2.4239748,-1.1033312,0.7489852,1
2.1299999999999986,,,,,13.080349,-2.5913937,-2.1844873,-0.8210987,-0.07445017,1.0166167,2.1412928,0.019688265,-0.12956117,-0.39213967,0.9105236,-9.147976,9.431357,0.5276788,-2.5702093,-1.1670401,0.6856144,1
2.1399999999999983,,,,,13.080349,-2.5913937,-2.1844873,-0.8210987,-0.16609243,1.1104639,2.1465077,0.012619083,-0.12538815,-0.40350795,0.9062562,-9.180193,9.337672,0.5149808,-2.5735059,-1.325588,0.61167955,1
2.149999999999998,,,,,13.080349,-2.5913937,-2.1844873,-0.8210987,-0.25804746,1.2033615,2.151585,0.005577939,-0.12038145,-0.41485628,0.9018713,-9.2105,9.241497,0.50018823,-2.5763085,-1.4594159,0.5413728,1
2.159999999999998,,,,,13.080349,-2.5913937,-2.1844873,-0.8210987,-0.3502951,1.2952852,2.1565042,-0.0014119939,-0.114650145,-0.4261671,0.89734906,-9.238677,9.142895,0.48327795,-2.5786893,-1.5723788,0.47451591,1
2.1699999999999977,,,,,12.207925,-1.2306484,-2.177944,-1.2768679,-0.44281304,1.3862112,2.1612434,-0.008331567,-0.1082868,-0.43742496,0.89267254,-9.264538,9.041939,0.46421853,-2.58071,-1.6677305,0.41093975,1
2.1799999999999975,,,,,12.207925,-1.2306484,-2.177944,-1.2768679,-0.5355694,1.4761505,2.1657553,-0.015055915,-0.10135413,-0.44813892,0.8880723,-9.286365,8.945618,0.4378688,-2.3702416,-1.7471131,0.32811856,1
2.1899999999999973,,,,,12.207925,-1.2306484,-2.177944,-1.2768679,-0.62853205,1.5651171,2.1699939,-0.021483554,-0.093908206,-0.45793003,0.88375336,-9.305774,8.847399,0.40961602,-2.1926014,-1.8141499,0.24936143,1
2.199999999999997,,,,,12.207925,-1.2306484,-2.177944,-1.2768679,-0.7216763,1.6530929,2.1739414,-0.02763165,-0.08601205,-0.46693486,0.87966496,-9.322688,8.747494,0.37960085,-2.0426674,-1.8707587,0.17446893,1
2.209999999999997,,,,,11.505197,0.5525053,-1.9925672,-1.9087695,-0.814977,1.7400619,2.1775806,-0.033515237,-0.07771862,-0.4752672,0.8757612,-9.337043,8.646091,0.3479388,-1.916117,-1.9185604,0.10325143,1
2.2199999999999966,,,,,11.505197,0.5525053,-1.9925672,-1.9087695,-0.9084081,1.8260114,2.1808946,-0.038931955,-0.06928413,-0.48257086,0.87224394,-9.348745,8.543911,0.31440702,-1.59752,-1.8637154,0.01046315,1
