time-since-start [s],throttle_mpc,roll_mpc,pitch_mpc,yaw_mpc,throttle_nw,roll_nw,pitch_nw,yaw_nw,position_x [m],position_y [m],position_z [m],rotation_w [quaternion],rotation_x [quaternion],rotation_y [quaternion],rotation_z [quaternion],velocity_x [m/s],velocity_y [m/s],velocity_z [m/s],omega_x [rad/s],omega_y [rad/s],omega_z [rad/s],network_used
0.0,10.151367558040858,-0.12148644421844755,-3.5228236085065223,0.14265411608153428,9.928603,-0.53443384,0.120106205,-0.4503011,13.379829,-12.318168,1.0022167,0.3482836,-0.2474378,0.09690111,0.8989345,-0.21687509,0.23625554,0.23112573,-0.1356641,-1.2976099,-1.4091462,0
0.01,10.151367558040858,-0.12148644421844755,-3.5228236085065223,0.14265411608153428,10.461342,0.31796685,0.13837047,-0.62266415,13.377471,-12.315632,1.0044752,0.3491447,-0.23170863,0.090382114,0.90346014,-0.2543567,0.27062348,0.22087786,-0.12148645,-3.5228236,0.14265412,0
0.02,10.151367558040858,-0.12148644421844755,-3.5228236085065223,0.14265411608153428,10.461342,0.31796685,0.13837047,-0.62266415,13.374749,-12.312763,1.0066401,0.34989715,-0.21590735,0.08383499,0.90770465,-0.28960732,0.30279878,0.21236674,-0.12148645,-3.5228236,0.14265412,0
0.03,10.151367558040858,-0.12148644421844755,-3.5228236085065223,0.14265411608153428,10.461342,0.31796685,0.13837047,-0.62266415,13.371687,-12.309584,1.0087281,0.35054076,-0.2000389,0.0772618,0.91166675,-0.32257956,0.3327451,0.20548119,-0.12148645,-3.5228236,0.14265412,0
0.04,10.151367558040858,-0.12148644421844755,-3.5228236085065223,0.14265411608153428,10.236244,0.2792913,0.8755172,-0.6642788,13.368306,-12.306116,1.010755,0.35107535,-0.18410821,0.07066456,0.9153452,-0.353229,0.36042896,0.20010789,-0.12148645,-3.5228236,0.14265412,0
0.05,10.151367558040858,-0.12148644421844755,-3.5228236085065223,0.14265411608153428,10.236244,0.2792913,0.8755172,-0.6642788,13.364631,-12.302384,1.012735,0.3515007,-0.16812025,0.06404534,0.9187389,-0.38151395,0.3858196,0.19613175,-0.12148645,-3.5228236,0.14265412,0
0.060000000000000005,10.151367558040858,-0.12148644421844755,-3.5228236085065223,0.14265411608153428,10.236244,0.2792913,0.8755172,-0.6642788,13.360684,-12.2984085,1.0146819,0.35181665,-0.15207998,0.057406187,0.9218467,-0.4073958,0.40888923,0.19343589,-0.12148645,-3.5228236,0.14265412,0
0.07,10.151367558040858,-0.12148644421844755,-3.5228236085065223,0.14265411608153428,10.236244,0.2792913,0.8755172,-0.6642788,13.356491,-12.294213,1.0166078,0.35202318,-0.13599242,0.050749175,0.9246677,-0.43083885,0.42961282,0.19190185,-0.12148645,-3.5228236,0.14265412,0
0.08,10.93320851691904,-0.06474846232360416,0.5444240451017782,0.17612369593389468,9.888071,0.08463982,2.9179804,-0.48591083,13.352076,-12.289823,1.0185235,0.35212016,-0.11986252,0.044076376,0.9272011,-0.45181042,0.4479683,0.19140969,-0.12148645,-3.5228236,0.14265412,0
0.09,10.93320851691904,-0.06474846232360416,0.5444240451017782,0.17612369593389468,9.888071,0.08463982,2.9179804,-0.48591083,13.347452,-12.285253,1.0204756,0.3511434,-0.12246115,0.044840086,0.92719537,-0.47289738,0.46625692,0.19901845,-0.064748466,0.54442406,0.1761237,0
0.09999999999999999,10.93320851691904,-0.06474846232360416,0.5444240451017782,0.17612369593389468,9.888071,0.08463982,2.9179804,-0.48591083,13.342615,-12.280498,1.0225033,0.35016373,-0.12505877,0.045603424,0.92718196,-0.4944618,0.4848737,0.20647348,-0.064748466,0.54442406,0.1761237,0
0.10999999999999999,10.93320851691904,-0.06474846232360416,0.5444240451017782,0.17612369593389468,9.888071,0.08463982,2.9179804,-0.48591083,13.337561,-12.275555,1.0246046,0.3491812,-0.12765536,0.046366386,0.92716074,-0.5165037,0.50381726,0.21377166,-0.064748466,0.54442406,0.1761237,0
0.11999999999999998,10.93320851691904,-0.06474846232360416,0.5444240451017782,0.17612369593389468,9.888071,0.08463982,2.9179804,-0.48591083,13.332283,-12.27042,1.0267781,0.3481957,-0.13025087,0.04712896,0.9271319,-0.5390229,0.52308613,0.2209098,-0.064748466,0.54442406,0.1761237,0
0.12999999999999998,11.951816108224099,0.030338677614799685,4.3722543220693435,0.18198528285538831,9.316429,-0.54107344,3.0389962,-0.28310853,13.326778,-12.265092,1.0290222,0.34720734,-0.13284531,0.047891144,0.9270954,-0.56201947,0.54267883,0.22788484,-0.064748466,0.54442406,0.1761237,0
0.13999999999999999,11.951816108224099,0.030338677614799685,4.3722543220693435,0.18198528285538831,9.316429,-0.54107344,3.0389962,-0.28310853,13.321027,-12.259553,1.0313827,0.345254,-0.15298313,0.05573096,0.9242782,-0.5888887,0.5655589,0.24396454,0.030338679,4.3722544,0.18198529,0
0.15,11.951816108224099,0.030338677614799685,4.3722543220693435,0.18198528285538831,9.316429,-0.54107344,3.0389962,-0.28310853,13.314988,-12.253769,1.0338959,0.34313533,-0.17304772,0.0635441,0.9210185,-0.619475,0.5917187,0.25839275,0.030338679,4.3722544,0.18198529,0
0.16,12.902745308428674,0.08348958126123295,4.6382744936752385,0.19001598963020377,7.826511,-0.92065036,4.029043,-0.1778062,13.308624,-12.247708,1.0365441,0.3408524,-0.19302946,0.071326815,0.9173178,-0.65372616,0.621101,0.27095437,0.030338679,4.3722544,0.18198529,0
0.17,12.902745308428674,0.08348958126123295,4.6382744936752385,0.19001598963020377,7.826511,-0.92065036,4.029043,-0.1778062,13.301885,-12.241323,1.039351,0.33831567,-0.21403939,0.07977799,0.91288847,-0.69466645,0.6563271,0.29002222,0.08348958,4.6382747,0.19001599,0
0.18000000000000002,12.902745308428674,0.08348958126123295,4.6382744936752385,0.19001598963020377,7.826511,-0.92065036,4.029043,-0.1778062,13.294716,-12.234569,1.0423356,0.33559662,-0.23493394,0.08818619,0.90796715,-0.7396129,0.6951376,0.30645975,0.08348958,4.6382747,0.19001599,0
0.19000000000000003,12.902745308428674,0.08348958126123295,4.6382744936752385,0.19001598963020377,7.826511,-0.92065036,4.029043,-0.1778062,13.287079,-12.227407,1.0454704,0.33269674,-0.2557019,0.09654685,0.90255654,-0.78847617,0.7374405,0.3200205,0.08348958,4.6382747,0.19001599,0
0.20000000000000004,13.523983493782461,0.09384146419782408,3.2304787287239547,0.17787472002518528,8.500395,-0.776399,2.6968389,0.0979802,13.278934,-12.219807,1.0487254,0.32961756,-0.27633205,0.10485549,0.89665955,-0.84115875,0.7831364,0.3304641,0.08348958,4.6382747,0.19001599,0
0.21000000000000005,13.523983493782461,0.09384146419782408,3.2304787287239547,0.17787472002518528,8.500395,-0.776399,2.6968389,0.0979802,13.270231,-12.211722,1.0520949,0.32721302,-0.29053053,0.110832095,0.89232284,-0.8998238,0.83410645,0.34303832,0.09384146,3.2304788,0.17787471,0
0.22000000000000006,13.523983493782461,0.09384146419782408,3.2304787287239547,0.17787472002518528,8.500395,-0.776399,2.6968389,0.0979802,13.260928,-12.203116,1.0555774,0.3247228,-0.3046529,0.11677967,0.8877524,-0.9611094,0.88745034,0.35304394,0.09384146,3.2304788,0.17787471,0
0.23000000000000007,13.523983493782461,0.09384146419782408,3.2304787287239547,0.17787472002518528,8.500395,-0.776399,2.6968389,0.0979802,13.250999,-12.193966,1.0591466,0.32214755,-0.3186955,0.12269665,0.88294953,-1.0249567,0.94310665,0.36036798,0.09384146,3.2304788,0.17787471,0
0.24000000000000007,13.523983493782461,0.09384146419782408,3.2304787287239547,0.17787472002518528,9.064095,-0.73995554,1.6581236,0.13413423,13.24042,-12.184246,1.0627751,0.3194879,-0.3326546,0.12858151,0.8779154,-1.0913042,1.0010114,0.36490026,0.09384146,3.2304788,0.17787471,0
0.25000000000000006,13.523983493782461,0.09384146419782408,3.2304787287239547,0.17787472002518528,9.064095,-0.73995554,1.6581236,0.13413423,13.229165,-12.173936,1.0664346,0.31674457,-0.3465266,0.13443269,0.8726513,-1.1600877,1.0610982,0.36653355,0.09384146,3.2304788,0.17787471,0
0.26000000000000006,13.523983493782461,0.09384146419782408,3.2304787287239547,0.17787472002518528,9.064095,-0.73995554,1.6581236,0.13413423,13.217211,-12.163015,1.0700955,0.3139183,-0.3603078,0.14024866,0.86715865,-1.2312405,1.1232985,0.36516365,0.09384146,3.2304788,0.17787471,0
0.2700000000000001,13.523983493782461,0.09384146419782408,3.2304787287239547,0.17787472002518528,9.064095,-0.73995554,1.6581236,0.13413423,13.204534,-12.1514635,1.0737273,0.31100976,-0.37399468,0.14602791,0.86143893,-1.3046936,1.1875416,0.36068952,0.09384146,3.2304788,0.17787471,0
0.2800000000000001,14.594218118424205,0.10063123581692898,2.0558399529128644,0.16687556096520387,9.356501,-0.984812,0.30883253,0.082349,13.191109,-12.139257,1.0772983,0.30801982,-0.38758364,0.1517689,0.85549355,-1.3803751,1.2537546,0.3530133,0.09384146,3.2304788,0.17787471,0
0.2900000000000001,14.594218118424205,0.10063123581692898,2.0558399529128644,0.16687556096520387,9.356501,-0.984812,0.30883253,0.082349,13.176888,-12.126356,1.0808122,0.3059246,-0.396075,0.15568076,0.85164464,-1.4640464,1.326997,0.3494282,0.10063124,2.05584,0.16687556,0
0.3000000000000001,14.594218118424205,0.10063123581692898,2.0558399529128644,0.16687556096520387,9.356501,-0.984812,0.30883253,0.082349,13.161823,-12.112715,1.0842788,0.30379674,-0.40452415,0.15957603,0.8477049,-1.5491244,1.4015495,0.34353486,0.10063124,2.05584,0.16687556,0
0.3100000000000001,14.594218118424205,0.10063123581692898,2.0558399529128644,0.16687556096520387,9.356501,-0.984812,0.30883253,0.082349,13.145901,-12.098321,1.0876749,0.3016365,-0.41293016,0.16345431,0.8436748,-1.6355764,1.4773766,0.33529416,0.10063124,2.05584,0.16687556,0
0.3200000000000001,15.342310691399316,0.09098421301928582,0.23479295857524815,0.14575460983752228,9.235048,-0.6404476,-0.9646319,0.1963113,13.129107,-12.083163,1.0909766,0.29944408,-0.42129213,0.16731514,0.83955467,-1.7233692,1.5544428,0.32466796,0.10063124,2.05584,0.16687556,0
0.3300000000000001,15.342310691399316,0.09098421301928582,0.23479295857524815,0.14575460983752228,9.235048,-0.6404476,-0.9646319,0.1963113,13.111409,-12.067209,1.0941844,0.29882714,-0.42201912,0.16835545,0.83920133,-1.8165559,1.6363441,0.31682917,0.09098421,0.23479296,0.1457546,0
0.34000000000000014,15.342310691399316,0.09098421301928582,0.23479295857524815,0.14575460983752228,9.235048,-0.6404476,-0.9646319,0.1963113,13.092776,-12.050436,1.0973121,0.2982096,-0.42274523,0.1693954,0.8388462,-1.9098201,1.7184817,0.30869484,0.09098421,0.23479296,0.1457546,0
0.35000000000000014,15.342310691399316,0.09098421301928582,0.23479295857524815,0.14575460983752228,9.235048,-0.6404476,-0.9646319,0.1963113,13.073212,-12.032839,1.100357,0.29759142,-0.42347044,0.170435,0.8384893,-2.003162,1.8008548,0.30026424,0.09098421,0.23479296,0.1457546,0
0.36000000000000015,16.43919831608599,0.08821310872699745,-0.45370932830074057,0.1220437364773288,9.210035,-0.18764994,-1.9062514,0.25653106,13.052713,-12.014418,1.1033162,0.2969726,-0.42419475,0.17147423,0.8381306,-2.0965812,1.8834625,0.29153666,0.09098421,0.23479296,0.1457546,0
0.37000000000000016,16.43919831608599,0.08821310872699745,-0.45370932830074057,0.1220437364773288,9.210035,-0.18764994,-1.9062514,0.25653106,13.031248,-11.995139,1.1062194,0.2970364,-0.42205656,0.17142858,0.83919615,-2.1965663,1.9720759,0.2892247,0.08821311,-0.45370933,0.12204374,0
0.38000000000000017,16.43919831608599,0.08821310872699745,-0.45370932830074057,0.1220437364773288,9.210035,-0.18764994,-1.9062514,0.25653106,13.008784,-11.974975,1.1091026,0.29709852,-0.41991597,0.17138194,0.84025675,-2.29611,2.0605364,0.28751194,0.08821311,-0.45370933,0.12204374,0
0.3900000000000002,16.43919831608599,0.08821310872699745,-0.45370932830074057,0.1220437364773288,9.210035,-0.18764994,-1.9062514,0.25653106,12.985327,-11.953928,1.1119717,0.29715893,-0.417773,0.17133431,0.8413126,-2.3952093,2.1488428,0.28639618,0.08821311,-0.45370933,0.12204374,0
0.4000000000000002,16.835574796952496,0.0847826147006105,-0.5378489968682362,0.09815539074689114,11.100011,-0.36587188,-1.4336704,0.07796174,12.960881,-11.931998,1.1148326,0.29721764,-0.41562766,0.17128572,0.84236366,-2.4938622,2.2369943,0.2858751,0.08821311,-0.45370933,0.12204374,0
0.4100000000000002,16.835574796952496,0.0847826147006105,-0.5378489968682362,0.09815539074689114,11.100011,-0.36587188,-1.4336704,0.07796174,12.935439,-11.909177,1.1177032,0.2974399,-0.4131507,0.17104685,0.8435514,-2.5944095,2.32709,0.28835624,0.084782615,-0.537849,0.098155394,0
0.4200000000000002,16.835574796952496,0.0847826147006105,-0.5378489968682362,0.09815539074689114,11.100011,-0.36587188,-1.4336704,0.07796174,12.908994,-11.885455,1.1206023,0.2976599,-0.41067055,0.17080668,0.8447327,-2.6944292,2.416969,0.29155493,0.084782615,-0.537849,0.098155394,0
0.4300000000000002,16.835574796952496,0.0847826147006105,-0.5378489968682362,0.09815539074689114,11.100011,-0.36587188,-1.4336704,0.07796174,12.881552,-11.860837,1.1235367,0.2978776,-0.4081873,0.17056519,0.8459075,-2.793918,2.5066292,0.29546803,0.084782615,-0.537849,0.098155394,0
0.4400000000000002,16.835574796952496,0.0847826147006105,-0.5378489968682362,0.09815539074689114,11.55521,-0.41178676,-1.1939903,0.0053570904,12.853117,-11.835323,1.126514,0.29809305,-0.4057009,0.17032239,0.8470759,-2.892872,2.5960684,0.30009243,0.084782615,-0.537849,0.098155394,0
0.45000000000000023,16.835574796952496,0.0847826147006105,-0.5378489968682362,0.09815539074689114,11.55521,-0.41178676,-1.1939903,0.0053570904,12.823696,-11.808916,1.1295412,0.2983062,-0.40321139,0.17007828,0.84823775,-2.9912884,2.6852846,0.30542487,0.084782615,-0.537849,0.098155394,0
0.46000000000000024,16.835574796952496,0.0847826147006105,-0.5378489968682362,0.09815539074689114,11.55521,-0.41178676,-1.1939903,0.0053570904,12.793293,-11.781618,1.132625,0.29851708,-0.40071878,0.16983289,0.8493931,-3.0891635,2.7742763,0.31146213,0.084782615,-0.537849,0.098155394,0
0.47000000000000025,16.835574796952496,0.0847826147006105,-0.5378489968682362,0.09815539074689114,11.55521,-0.41178676,-1.1939903,0.0053570904,12.761914,-11.753431,1.1357728,0.29872566,-0.39822313,0.16958618,0.850542,-3.1864939,2.8630412,0.318201,0.084782615,-0.537849,0.098155394,0
0.48000000000000026,17.551268812810942,0.09511826054637983,-0.15747228798860746,0.0793352387139774,12.175191,-0.36738166,-0.9002868,0.13748962,12.729565,-11.7243595,1.1389915,0.29893196,-0.39572445,0.16933818,0.8516844,-3.2832763,2.9515774,0.32563818,0.084782615,-0.537849,0.098155394,0
0.49000000000000027,17.551268812810942,0.09511826054637983,-0.15747228798860746,0.0793352387139774,12.175191,-0.36738166,-0.9002868,0.13748962,12.696229,-11.694383,1.14231,0.2989155,-0.39484432,0.16966476,0.85203356,-3.3837214,3.0437367,0.3380923,0.09511826,-0.15747228,0.079335235,0
0.5000000000000002,17.551268812810942,0.09511826054637983,-0.15747228798860746,0.0793352387139774,12.175191,-0.36738166,-0.9002868,0.13748962,12.661891,-11.663485,1.145754,0.29889873,-0.39396378,0.16999117,0.8523819,-3.4839177,3.1359198,0.3507516,0.09511826,-0.15747228,0.079335235,0
0.5100000000000002,17.551268812810942,0.09511826054637983,-0.15747228798860746,0.0793352387139774,12.175191,-0.36738166,-0.9002868,0.13748962,12.626552,-11.631664,1.1493256,0.29888168,-0.3930829,0.1703174,0.8527294,-3.583866,3.2281265,0.36361563,0.09511826,-0.15747228,0.079335235,0
0.5200000000000002,17.651774229001333,0.09582366568611056,-0.09658500704456888,0.059340912056894214,12.746514,-0.36267337,-0.6573321,0.22432154,12.590214,-11.598922,1.1530269,0.2988643,-0.39220157,0.17064346,0.853076,-3.683565,3.3203566,0.3766839,0.09511826,-0.15747228,0.079335235,0
0.5300000000000002,17.651774229001333,0.09582366568611056,-0.09658500704456888,0.059340912056894214,12.746514,-0.36267337,-0.6573321,0.22432154,12.552877,-11.565254,1.1568631,0.2988814,-0.3915957,0.17102419,0.8532721,-3.7836044,3.4131544,0.39056253,0.09582367,-0.096585006,0.059340913,0
0.5400000000000003,17.651774229001333,0.09582366568611056,-0.09658500704456888,0.059340912056894214,12.746514,-0.36267337,-0.6573321,0.22432154,12.514542,-11.530658,1.1608386,0.29889837,-0.39098957,0.17140481,0.8534677,-3.8834474,3.506017,0.4045628,0.09582367,-0.096585006,0.059340913,0
0.5500000000000003,17.651774229001333,0.09582366568611056,-0.09658500704456888,0.059340912056894214,12.746514,-0.36267337,-0.6573321,0.22432154,12.475208,-11.495133,1.1649547,0.29891515,-0.3903832,0.17178534,0.85366285,-3.9830935,3.5989444,0.41868442,0.09582367,-0.096585006,0.059340913,0
0.5600000000000003,17.95631305562203,0.09856917995354668,0.0005011297624698654,0.04411305557333148,13.145681,-0.5917406,-0.62716514,0.2004146,12.43488,-11.458678,1.1692127,0.29893178,-0.38977668,0.17216577,0.8538575,-4.0825424,3.6919367,0.43292707,0.09582367,-0.096585006,0.059340913,0
0.5700000000000003,17.95631305562203,0.09856917995354668,0.0005011297624698654,0.04411305557333148,13.145681,-0.5917406,-0.62716514,0.2004146,12.39355,-11.421287,1.1736232,0.2989351,-0.38959345,0.17267329,0.8538375,-4.1835394,3.7866251,0.44918042,0.09856918,0.0005011298,0.044113055,0
0.5800000000000003,17.95631305562203,0.09856917995354668,0.0005011297624698654,0.04411305557333148,13.145681,-0.5917406,-0.62716514,0.2004146,12.351211,-11.382946,1.1781963,0.2989383,-0.3894101,0.17318076,0.8538172,-4.284422,3.8814485,0.46542215,0.09856918,0.0005011298,0.044113055,0
0.5900000000000003,17.95631305562203,0.09856917995354668,0.0005011297624698654,0.04411305557333148,13.145681,-0.5917406,-0.62716514,0.2004146,12.307863,-11.343657,1.1829315,0.2989414,-0.38922668,0.17368817,0.8537967,-4.385192,3.9764068,0.48165208,0.09856918,0.0005011298,0.044113055,0
0.6000000000000003,17.66674849534938,0.08787685132477122,-0.23046434376493732,0.029833824836782256,12.649457,-0.86161363,-0.74680895,0.3168593,12.263509,-11.303417,1.1878294,0.29894444,-0.38904312,0.17419553,0.853776,-4.4858475,4.0715003,0.49787003,0.09856918,0.0005011298,0.044113055,0
0.6100000000000003,17.66674849534938,0.08787685132477122,-0.23046434376493732,0.029833824836782256,12.649457,-0.86161363,-0.74680895,0.3168593,12.218156,-11.262234,1.1928803,0.29918852,-0.38790166,0.17428407,0.85419166,-4.584693,4.16513,0.5123505,0.08787685,-0.23046434,0.029833825,0
0.6200000000000003,17.66674849534938,0.08787685132477122,-0.23046434376493732,0.029833824836782256,12.649457,-0.86161363,-0.74680895,0.3168593,12.171816,-11.220115,1.1980774,0.29943213,-0.3867596,0.17437236,0.85460603,-4.683226,4.258725,0.52713317,0.08787685,-0.23046434,0.029833825,0
0.6300000000000003,17.66674849534938,0.08787685132477122,-0.23046434376493732,0.029833824836782256,12.649457,-0.86161363,-0.74680895,0.3168593,12.124493,-11.177059,1.203424,0.29967526,-0.38561696,0.17446037,0.8550191,-4.7814474,4.352285,0.5422173,0.08787685,-0.23046434,0.029833825,0
0.6400000000000003,17.66674849534938,0.08787685132477122,-0.23046434376493732,0.029833824836782256,12.726137,-0.91555727,-0.87843376,0.38005036,12.076188,-11.133069,1.2089227,0.2999179,-0.3844737,0.17454812,0.85543084,-4.8793545,4.4458084,0.5576021,0.08787685,-0.23046434,0.029833825,0
0.6500000000000004,17.66674849534938,0.08787685132477122,-0.23046434376493732,0.029833824836782256,12.726137,-0.91555727,-0.87843376,0.38005036,12.026906,-11.088143,1.214577,0.30016014,-0.38332987,0.17463559,0.8558413,-4.9769483,4.5392957,0.5732869,0.08787685,-0.23046434,0.029833825,0
0.6600000000000004,17.66674849534938,0.08787685132477122,-0.23046434376493732,0.029833824836782256,12.726137,-0.91555727,-0.87843376,0.38005036,11.97665,-11.042283,1.2203896,0.30040196,-0.38218543,0.1747228,0.8562504,-5.0742273,4.632746,0.58927095,0.08787685,-0.23046434,0.029833825,0
0.6700000000000004,17.66674849534938,0.08787685132477122,-0.23046434376493732,0.029833824836782256,12.726137,-0.91555727,-0.87843376,0.38005036,11.925423,-10.995488,1.2263634,0.3006433,-0.3810404,0.17480974,0.85665816,-5.171191,4.7261596,0.6055535,0.08787685,-0.23046434,0.029833825,0
0.6800000000000004,17.55964311312899,0.07606283848379321,-0.2029778008742551,0.018485419350306745,12.597597,-0.6777735,-0.7798861,0.5975042,11.873227,-10.94776,1.2325016,0.30088416,-0.3798948,0.1748964,0.85706466,-5.267839,4.819535,0.62213385,0.08787685,-0.23046434,0.029833825,0
0.6900000000000004,17.55964311312899,0.07606283848379321,-0.2029778008742551,0.018485419350306745,12.597597,-0.6777735,-0.7798861,0.5975042,11.820069,-10.8991,1.2388036,0.30112675,-0.37889415,0.17495199,0.85741097,-5.363601,4.9123073,0.638301,0.076062836,-0.2029778,0.01848542,0
0.7000000000000004,17.55964311312899,0.07606283848379321,-0.2029778008742551,0.018485419350306745,12.597597,-0.6777735,-0.7798861,0.5975042,11.765956,-10.849514,1.2452686,0.30136898,-0.3778931,0.17500739,0.8577563,-5.459087,5.0050445,0.6547278,0.076062836,-0.2029778,0.01848542,0
0.7100000000000004,17.55964311312899,0.07606283848379321,-0.2029778008742551,0.018485419350306745,12.597597,-0.6777735,-0.7798861,0.5975042,11.710889,-10.799,1.2518991,0.30161086,-0.37689155,0.17506257,0.8581007,-5.5542965,5.0977454,0.6714136,0.076062836,-0.2029778,0.01848542,0
0.7200000000000004,17.128810237381877,0.0544742847005222,-0.3279953975016094,0.0056524727797502465,12.643607,-0.57911587,-0.93614715,0.6000679,11.654871,-10.747559,1.2586977,0.30185238,-0.37588954,0.17511755,0.8584439,-5.6492286,5.19041,0.6883579,0.076062836,-0.2029778,0.01848542,0
0.7300000000000004,17.128810237381877,0.0544742847005222,-0.3279953975016094,0.0056524727797502465,12.643607,-0.57911587,-0.93614715,0.6000679,11.597918,-10.695203,1.265653,0.30221727,-0.37439403,0.17486674,0.85902005,-5.741527,5.2807236,0.7027924,0.054474283,-0.3279954,0.005652473,0
0.7400000000000004,17.128810237381877,0.0544742847005222,-0.3279953975016094,0.0056524727797502465,12.643607,-0.57911587,-0.93614715,0.6000679,11.540042,-10.641944,1.2727548,0.30258134,-0.37289748,0.17461544,0.8595938,-5.833463,5.3708897,0.71764094,0.054474283,-0.3279954,0.005652473,0
0.7500000000000004,17.128810237381877,0.0544742847005222,-0.3279953975016094,0.0056524727797502465,12.643607,-0.57911587,-0.93614715,0.6000679,11.48125,-10.587785,1.2800072,0.30294457,-0.37139988,0.17436364,0.8601652,-5.925036,5.460908,0.73290217,0.054474283,-0.3279954,0.005652473,0
0.7600000000000005,16.60579997087345,0.024798711729560264,-0.426917982070456,-0.004182816535462962,12.732243,-1.0813581,-0.9621573,0.6796009,11.421543,-10.532725,1.2874143,0.30330697,-0.3699013,0.17411134,0.86073416,-6.016245,5.550776,0.7485749,0.054474283,-0.3279954,0.005652473,0
0.7700000000000005,16.60579997087345,0.024798711729560264,-0.426917982070456,-0.004182816535462962,12.732243,-1.0813581,-0.9621573,0.6796009,11.36094,-10.476782,1.2949628,0.30374178,-0.36802918,0.1735625,0.8614938,-6.104294,5.637717,0.7612184,0.024798712,-0.42691797,-0.0041828165,0
0.7800000000000005,16.60579997087345,0.024798711729560264,-0.426917982070456,-0.004182816535462962,12.732243,-1.0813581,-0.9621573,0.6796009,11.2994585,-10.419971,1.3026403,0.30417523,-0.3661554,0.17301287,0.8622496,-6.191929,5.724408,0.77438337,0.024798712,-0.42691797,-0.0041828165,0
0.7900000000000005,16.60579997087345,0.024798711729560264,-0.426917982070456,-0.004182816535462962,12.732243,-1.0813581,-0.9621573,0.6796009,11.2371025,-10.362295,1.3104521,0.3046073,-0.36427993,0.17246243,0.8630014,-6.27915,5.810848,0.7880677,0.024798712,-0.42691797,-0.0041828165,0
0.8000000000000005,16.115078917903784,0.006426191968139438,-0.46093401081021673,-0.014911022768440859,12.694128,-0.92243874,-0.94647634,0.63400835,11.173876,-10.303755,1.3184034,0.30503795,-0.3624028,0.17191121,0.8637493,-6.3659554,5.8970366,0.8022694,0.024798712,-0.42691797,-0.0041828165,0
0.8100000000000005,16.115078917903784,0.006426191968139438,-0.46093401081021673,-0.014911022768440859,12.694128,-0.92243874,-0.94647634,0.63400835,11.109798,-10.244368,1.3264825,0.3055094,-0.36041415,0.17120847,0.864554,-6.449786,5.9804144,0.8136684,0.006426192,-0.460934,-0.014911023,0
0.8200000000000005,16.115078917903784,0.006426191968139438,-0.46093401081021673,-0.014911022768440859,12.694128,-0.92243874,-0.94647634,0.63400835,11.044883,-10.184147,1.3346785,0.3059792,-0.3584236,0.17050484,0.865354,-6.5331993,6.0634995,0.8256075,0.006426192,-0.460934,-0.014911023,0
0.8300000000000005,16.115078917903784,0.006426191968139438,-0.46093401081021673,-0.014911022768440859,12.694128,-0.92243874,-0.94647634,0.63400835,10.9791355,-10.123097,1.3429966,0.30644736,-0.35643113,0.16980028,0.8661495,-6.616193,6.1462903,0.83808446,0.006426192,-0.460934,-0.014911023,0
0.8400000000000005,16.115078917903784,0.006426191968139438,-0.46093401081021673,-0.014911022768440859,12.710927,-0.8018633,-1.0210258,0.6200376,10.912561,-10.061223,1.351442,0.3069139,-0.35443676,0.16909483,0.8669403,-6.6987658,6.228784,0.8510968,0.006426192,-0.460934,-0.014911023,0
0.8500000000000005,16.115078917903784,0.006426191968139438,-0.46093401081021673,-0.014911022768440859,12.710927,-0.8018633,-1.0210258,0.6200376,10.845163,-9.998525,1.3600203,0.30737883,-0.3524406,0.16838847,0.8677265,-6.7809153,6.3109803,0.86464226,0.006426192,-0.460934,-0.014911023,0
0.8600000000000005,16.115078917903784,0.006426191968139438,-0.46093401081021673,-0.014911022768440859,12.710927,-0.8018633,-1.0210258,0.6200376,10.776945,-9.935005,1.3687366,0.3078421,-0.35044253,0.16768122,0.86850816,-6.862641,6.392876,0.87871844,0.006426192,-0.460934,-0.014911023,0
0.8700000000000006,16.115078917903784,0.006426191968139438,-0.46093401081021673,-0.014911022768440859,12.710927,-0.8018633,-1.0210258,0.6200376,10.7079115,-9.870668,1.3775965,0.30830374,-0.34844255,0.16697307,0.86928517,-6.9439397,6.47447,0.893323,0.006426192,-0.460934,-0.014911023,0
0.8800000000000006,15.367079960524856,-0.02626381012385822,-0.6055296587024718,-0.022460980540009317,12.543727,-0.608299,-1.3136674,0.5617475,10.638066,-9.805517,1.3866048,0.30876377,-0.3464408,0.16626404,0.8700575,-7.0248113,6.5557613,0.90845346,0.006426192,-0.460934,-0.014911023,0
0.8900000000000006,15.367079960524856,-0.02626381012385822,-0.6055296587024718,-0.022460980540009317,12.543727,-0.608299,-1.3136674,0.5617475,10.567434,-9.739573,1.3957409,0.30931798,-0.3438642,0.16517529,0.8710896,-7.101485,6.632938,0.9188875,-0.02626381,-0.60552967,-0.02246098,0
0.9000000000000006,15.367079960524856,-0.02626381012385822,-0.6055296587024718,-0.022460980540009317,12.543727,-0.608299,-1.3136674,0.5617475,10.496038,-9.672859,1.4049846,0.30986932,-0.34128442,0.16408502,0.87211365,-7.177652,6.7096887,0.92997766,-0.02626381,-0.60552967,-0.02246098,0
0.9100000000000006,15.367079960524856,-0.02626381012385822,-0.6055296587024718,-0.022460980540009317,12.543727,-0.608299,-1.3136674,0.5617475,10.423883,-9.605381,1.4143425,0.3104178,-0.33870152,0.16299322,0.87312967,-7.253311,6.7860107,0.94171983,-0.02626381,-0.60552967,-0.02246098,0
0.9200000000000006,14.806284851647197,-0.047576761042667684,-0.5530954304971069,-0.03457285515127261,12.3718815,-0.55801105,-1.3387336,0.594544,10.350974,-9.537141,1.4238211,0.31096342,-0.3361155,0.16189994,0.87413764,-7.3284593,6.861901,0.9541101,-0.02626381,-0.60552967,-0.02246098,0
0.9300000000000006,14.806284851647197,-0.047576761042667684,-0.5530954304971069,-0.03457285515127261,12.3718815,-0.55801105,-1.3387336,0.594544,10.277329,-9.468158,1.4334065,0.3114811,-0.33379877,0.1607733,0.8750485,-7.4003944,6.9346066,0.9630696,-0.047576763,-0.55309546,-0.034572855,0
0.9400000000000006,14.806284851647197,-0.047576761042667684,-0.5530954304971069,-0.03457285515127261,12.3718815,-0.55801105,-1.3387336,0.594544,10.202968,-9.39845,1.4430844,0.31199637,-0.33147943,0.15964544,0.8759527,-7.4718986,7.006901,0.9725951,-0.047576763,-0.55309546,-0.034572855,0
0.9500000000000006,14.806284851647197,-0.047576761042667684,-0.5530954304971069,-0.03457285515127261,12.3718815,-0.55801105,-1.3387336,0.594544,10.127893,-9.328021,1.4528604,0.31250927,-0.32915756,0.15851632,0.87685,-7.542969,7.0787816,0.9826833,-0.047576763,-0.55309546,-0.034572855,0
0.9600000000000006,13.804082057815071,-0.09123429460195258,-0.8463762398900301,-0.0419307242275776,11.9669485,-0.4106228,-1.7648029,0.55680734,10.05211,-9.256875,1.4627401,0.31301966,-0.32683313,0.15738599,0.8777406,-7.6136045,7.150246,0.99333084,-0.047576763,-0.55309546,-0.034572855,0
0.9700000000000006,13.804082057815071,-0.09123429460195258,-0.8463762398900301,-0.0419307242275776,11.9669485,-0.4106228,-1.7648029,0.55680734,9.975646,-9.185041,1.4726924,0.31371775,-0.32329148,0.155591,0.87912196,-7.678976,7.216398,0.9972391,-0.0912343,-0.84637624,-0.041930724,0
0.9800000000000006,13.804082057815071,-0.09123429460195258,-0.8463762398900301,-0.0419307242275776,11.9669485,-0.4106228,-1.7648029,0.55680734,9.898532,-9.112549,1.4826876,0.31441018,-0.31974396,0.15379316,0.8804873,-7.743736,7.281928,1.0019354,-0.0912343,-0.84637624,-0.041930724,0
0.9900000000000007,13.804082057815071,-0.09123429460195258,-0.8463762398900301,-0.0419307242275776,11.9669485,-0.4106228,-1.7648029,0.55680734,9.820773,-9.039405,1.4927337,0.31509694,-0.3161906,0.15199253,0.88183665,-7.80788,7.3468323,1.0074122,-0.0912343,-0.84637624,-0.041930724,0
1.0000000000000007,13.435162616068883,-0.08808485231891473,-0.5388592173270652,-0.05446068134942864,11.493618,-0.45842394,-1.968991,0.5996534,9.742375,-8.965614,1.5028385,0.315778,-0.3126315,0.15018913,0.88317,-7.8714037,7.411105,1.0136621,-0.0912343,-0.84637624,-0.041930724,0
1.0100000000000007,13.435162616068883,-0.08808485231891473,-0.5388592173270652,-0.05446068134942864,11.493618,-0.45842394,-1.968991,0.5996534,9.663354,-8.891193,1.5129952,0.3162842,-0.31043077,0.14886367,0.8839891,-7.9327154,7.473114,1.0177683,-0.088084854,-0.5388592,-0.054460682,0
1.0200000000000007,13.435162616068883,-0.08808485231891473,-0.5388592173270652,-0.05446068134942864,11.493618,-0.45842394,-1.968991,0.5996534,9.583722,-8.816154,1.5231955,0.31678805,-0.30822772,0.1475371,0.8848015,-7.9936647,7.534696,1.0223482,-0.088084854,-0.5388592,-0.054460682,0
1.0300000000000007,13.435162616068883,-0.08808485231891473,-0.5388592173270652,-0.05446068134942864,11.493618,-0.45842394,-1.968991,0.5996534,9.503482,-8.7405,1.5334438,0.3172895,-0.30602235,0.1462094,0.88560724,-8.05425,7.5958486,1.0273988,-0.088084854,-0.5388592,-0.054460682,0
1.0400000000000007,13.435162616068883,-0.08808485231891473,-0.5388592173270652,-0.05446068134942864,11.360837,-0.4236339,-1.9420738,0.5888856,9.422638,-8.664238,1.5437449,0.31778857,-0.30381465,0.14488061,0.8864063,-8.114469,7.6565695,1.0329171,-0.088084854,-0.5388592,-0.054460682,0
1.0500000000000007,13.435162616068883,-0.08808485231891473,-0.5388592173270652,-0.05446068134942864,11.360837,-0.4236339,-1.9420738,0.5888856,9.341193,-8.58737,1.5541036,0.31828526,-0.3016047,0.14355072,0.88719887,-8.174321,7.716858,1.0389001,-0.088084854,-0.5388592,-0.054460682,0
1.0600000000000007,13.435162616068883,-0.08808485231891473,-0.5388592173270652,-0.05446068134942864,11.360837,-0.4236339,-1.9420738,0.5888856,9.259152,-8.509902,1.5645245,0.31877956,-0.29939246,0.14221975,0.8879846,-8.233807,7.7767105,1.0453445,-0.088084854,-0.5388592,-0.054460682,0
1.0700000000000007,13.435162616068883,-0.08808485231891473,-0.5388592173270652,-0.05446068134942864,11.360837,-0.4236339,-1.9420738,0.5888856,9.176518,-8.431836,1.5750122,0.31927148,-0.29717797,0.14088771,0.8887636,-8.292922,7.8361254,1.052247,-0.088084854,-0.5388592,-0.054460682,0
1.0800000000000007,12.39724319985429,-0.11987198417873961,-1.355503832948185,-0.06051960156290997,11.769974,-0.27032086,-2.2078571,0.5260746,9.093295,-8.35318,1.5855712,0.319761,-0.29496124,0.13955462,0.88953596,-8.351666,7.8951006,1.0596048,-0.088084854,-0.5388592,-0.054460682,1
1.0900000000000007,12.39724319985429,-0.11987198417873961,-1.355503832948185,-0.06051960156290997,11.769974,-0.27032086,-2.2078571,0.5260746,9.009523,-8.273974,1.5961417,0.31854227,-0.28518748,0.13558923,0.8937636,-8.402394,7.945959,1.0547401,-0.27032086,-2.2078571,0.5260746,1
1.1000000000000008,12.39724319985429,-0.11987198417873961,-1.355503832948185,-0.06051960156290997,11.769974,-0.27032086,-2.2078571,0.5260746,8.925251,-8.194267,1.6066715,0.31728193,-0.27537644,0.13160613,0.89787453,-8.451683,7.9952984,1.0514497,-0.27032086,-2.2078571,0.5260746,1
1.1100000000000008,12.39724319985429,-0.11987198417873961,-1.355503832948185,-0.06051960156290997,11.769974,-0.27032086,-2.2078571,0.5260746,8.840495,-8.114074,1.6171759,0.31598014,-0.26552945,0.12760583,0.9018682,-8.499499,8.043105,1.0496868,-0.27032086,-2.2078571,0.5260746,1
1.1200000000000008,12.102184543243318,-0.07715646058779763,-0.7525400656995244,-0.10482273015357395,12.069035,-0.5305916,-2.3010142,0.53092366,8.755268,-8.03341,1.6276702,0.31463706,-0.25564778,0.12358887,0.90574414,-8.545809,8.089364,1.049404,-0.27032086,-2.2078571,0.5260746,0
1.1300000000000008,12.102184543243318,-0.07715646058779763,-0.7525400656995244,-0.10482273015357395,12.069035,-0.5305916,-2.3010142,0.53092366,8.669577,-7.9522843,1.6381819,0.31547588,-0.25242403,0.12192067,0.9065822,-8.592235,8.135726,1.0529963,-0.07715646,-0.75254005,-0.10482273,0
1.1400000000000008,12.102184543243318,-0.07715646058779763,-0.7525400656995244,-0.10482273015357395,12.069035,-0.5305916,-2.3010142,0.53092366,8.5834255,-7.8706975,1.6487318,0.31631008,-0.24919662,0.1202507,0.9074071,-8.638107,8.181553,1.0570818,-0.07715646,-0.75254005,-0.10482273,0
1.1500000000000008,12.102184543243318,-0.07715646058779763,-0.7525400656995244,-0.10482273015357395,12.069035,-0.5305916,-2.3010142,0.53092366,8.496818,-7.788655,1.659325,0.3171397,-0.24596556,0.11857898,0.9082187,-8.683424,8.226839,1.0616549,-0.07715646,-0.75254005,-0.10482273,0
1.1600000000000008,11.095098009775946,-0.08020419486444343,-1.682551258519863,-0.13782232819214357,11.48146,0.28063735,-1.9808761,0.29783732,8.409759,-7.706162,1.6699665,0.31796467,-0.2427309,0.116905525,0.90901715,-8.728182,8.271583,1.0667096,-0.07715646,-0.75254005,-0.10482273,1
1.1700000000000008,11.095098009775946,-0.08020419486444343,-1.682551258519863,-0.13782232819214357,11.48146,0.28063735,-1.9808761,0.29783732,8.322268,-7.623236,1.6806351,0.31809318,-0.23309512,0.11538732,0.9116842,-8.769654,8.313355,1.0671849,0.28063735,-1.9808761,0.29783732,1
1.1800000000000008,11.095098009775946,-0.08020419486444343,-1.682551258519863,-0.13782232819214357,11.48146,0.28063735,-1.9808761,0.29783732,8.234371,-7.539898,1.6913142,0.31818914,-0.2234355,0.113857314,0.91425794,-8.809359,8.35418,1.0687788,0.28063735,-1.9808761,0.29783732,1
1.1900000000000008,11.095098009775946,-0.08020419486444343,-1.682551258519863,-0.13782232819214357,11.48146,0.28063735,-1.9808761,0.29783732,8.146087,-7.4561563,1.7020146,0.3182526,-0.21375306,0.112315655,0.9167382,-8.847274,8.394049,1.0714505,0.28063735,-1.9808761,0.29783732,1
1.2000000000000008,10.841020354490654,-0.18621736945974002,-0.29999299637416904,-0.18694794611691617,10.658204,0.1220378,-2.9084177,0.2952028,8.057431,-7.3720202,1.7127469,0.31828347,-0.20404875,0.110762514,0.9191247,-8.883382,8.432949,1.0751587,0.28063735,-1.9808761,0.29783732,0
1.2100000000000009,10.841020354490654,-0.18621736945974002,-0.29999299637416904,-0.18694794611691617,10.658204,0.1220378,-2.9084177,0.2952028,7.968432,-7.2875104,1.7234917,0.31911814,-0.20306957,0.10923836,0.91923463,-8.916362,8.46898,1.0738412,-0.18621737,-0.299993,-0.18694794,0
1.2200000000000009,10.841020354490654,-0.18621736945974002,-0.29999299637416904,-0.18694794611691617,10.658204,0.1220378,-2.9084177,0.2952028,7.879104,-7.202642,1.7342243,0.31995153,-0.20208958,0.107713774,0.9193408,-8.949239,8.504678,1.0726823,-0.18621737,-0.299993,-0.18694794,0
1.2300000000000009,10.841020354490654,-0.18621736945974002,-0.29999299637416904,-0.18694794611691617,10.658204,0.1220378,-2.9084177,0.2952028,7.7894483,-7.1174183,1.744946,0.32078364,-0.20110878,0.10618876,0.9194433,-8.98201,8.540044,1.0716808,-0.18621737,-0.299993,-0.18694794,0
1.2400000000000009,10.841020354490654,-0.18621736945974002,-0.29999299637416904,-0.18694794611691617,10.065673,0.030583229,-2.889383,0.19377893,7.699465,-7.031843,1.7556584,0.32161447,-0.20012718,0.10466331,0.9195422,-9.014677,8.575074,1.0708351,-0.18621737,-0.299993,-0.18694794,0
1.2500000000000009,10.841020354490654,-0.18621736945974002,-0.29999299637416904,-0.18694794611691617,10.065673,0.030583229,-2.889383,0.19377893,7.609155,-6.945919,1.7663631,0.32244402,-0.19914478,0.10313745,0.9196373,-9.04724,8.609773,1.0701442,-0.18621737,-0.299993,-0.18694794,0
1.260000000000001,10.841020354490654,-0.18621736945974002,-0.29999299637416904,-0.18694794611691617,10.065673,0.030583229,-2.889383,0.19377893,7.5185204,-6.8596487,1.7770618,0.3232723,-0.19816159,0.10161118,0.9197289,-9.0796995,8.644135,1.0696063,-0.18621737,-0.299993,-0.18694794,0
1.270000000000001,10.841020354490654,-0.18621736945974002,-0.29999299637416904,-0.18694794611691617,10.065673,0.030583229,-2.889383,0.19377893,7.4275618,-6.773037,1.7877558,0.32409924,-0.1971776,0.100084506,0.9198167,-9.112055,8.678163,1.0692205,-0.18621737,-0.299993,-0.18694794,0
1.280000000000001,10.14288193415376,-0.1521892196919045,-2.1352201344041335,-0.174764029907227,8.938744,-0.5064454,-3.2063909,0.2465573,7.33628,-6.6860867,1.7984468,0.32492492,-0.19619283,0.098557435,0.91990083,-9.144307,8.711854,1.0689855,-0.18621737,-0.299993,-0.18694794,0
1.290000000000001,10.14288193415376,-0.1521892196919045,-2.1352201344041335,-0.174764029907227,8.938744,-0.5064454,-3.2063909,0.2465573,7.244688,-6.5988126,1.8091053,0.3266129,-0.18669413,0.094211474,0.9217334,-9.17388,8.742677,1.0628791,-0.15218922,-2.13522,-0.17476404,0
1.300000000000001,10.14288193415376,-0.1521892196919045,-2.1352201344041335,-0.174764029907227,8.938744,-0.5064454,-3.2063909,0.2465573,7.152807,-6.5112376,1.8197074,0.3282632,-0.17717387,0.08985464,0.92345965,-9.202,8.772155,1.0576648,-0.15218922,-2.13522,-0.17476404,0
1.310000000000001,10.14288193415376,-0.1521892196919045,-2.1352201344041335,-0.174764029907227,8.938744,-0.5064454,-3.2063909,0.2465573,7.0606527,-6.4233747,1.8302617,0.32987568,-0.1676332,0.085487455,0.9250794,-9.228656,8.800272,1.0532998,-0.15218922,-2.13522,-0.17476404,0
1.320000000000001,10.175494882680129,-0.02838414376114013,-0.9105193949379701,-0.15913543843304293,9.08606,-0.48223928,-3.443865,0.14334959,6.968239,-6.335237,1.8407763,0.33145007,-0.1580732,0.0811104,0.9265924,-9.253839,8.827014,1.0497413,-0.15218922,-2.13522,-0.17476404,0
1.330000000000001,10.175494882680129,-0.02838414376114013,-0.9105193949379701,-0.15913543843304293,9.08606,-0.48223928,-3.443865,0.14334959,6.8755794,-6.2468376,1.8512602,0.33253065,-0.15396471,0.07934331,0.92704993,-9.277928,8.852758,1.0470923,-0.028384143,-0.9105194,-0.15913543,0
1.340000000000001,10.175494882680129,-0.02838414376114013,-0.9105193949379701,-0.15913543843304293,9.08606,-0.48223928,-3.443865,0.14334959,6.782682,-6.158183,1.8617193,0.33360407,-0.14985292,0.077574514,0.9274876,-9.301359,8.877933,1.044759,-0.028384143,-0.9105194,-0.15913543,0
1.350000000000001,10.175494882680129,-0.02838414376114013,-0.9105193949379701,-0.15913543843304293,9.08606,-0.48223928,-3.443865,0.14334959,6.6895537,-6.06928,1.8721566,0.33467034,-0.14573792,0.07580406,0.92790544,-9.32413,8.902533,1.0427334,-0.028384143,-0.9105194,-0.15913543,0
1.360000000000001,9.880969001657554,0.04742413492518846,-1.3820729510705656,-0.1566293025752199,8.8250675,-0.2739925,-4.671932,0.17071766,6.5962014,-5.9801345,1.882575,0.33572945,-0.1416198,0.07403199,0.9283035,-9.34624,8.926558,1.0410078,-0.028384143,-0.9105194,-0.15913543,0
1.370000000000001,9.880969001657554,0.04742413492518846,-1.3820729510705656,-0.1566293025752199,8.8250675,-0.2739925,-4.671932,0.17071766,6.502635,-5.8907547,1.8929639,0.3369935,-0.13517988,0.07181941,0.92897916,-9.36692,8.949239,1.0368284,0.047424134,-1.3820729,-0.15662931,0
1.380000000000001,9.880969001657554,0.04742413492518846,-1.3820729510705656,-0.1566293025752199,8.8250675,-0.2739925,-4.671932,0.17071766,6.4088664,-5.8011527,1.903313,0.3382412,-0.12873341,0.06960336,0.9296099,-9.386566,8.9711275,1.0330583,0.047424134,-1.3820729,-0.15662931,0
1.390000000000001,9.880969001657554,0.04742413492518846,-1.3820729510705656,-0.1566293025752199,8.8250675,-0.2739925,-4.671932,0.17071766,6.314907,-5.711335,1.9136264,0.33947253,-0.1222807,0.06738393,0.93019557,-9.405174,8.992219,1.0296795,0.047424134,-1.3820729,-0.15662931,0
1.400000000000001,10.15604632638685,0.12834207398287656,0.6437365141299388,-0.12980585835000402,9.134109,-0.40463683,-4.641233,0.74685186,6.220767,-5.621311,1.9239079,0.34068742,-0.11582207,0.065161236,0.9307362,-9.422741,9.012507,1.0266743,0.047424134,-1.3820729,-0.15662931,0
1.410000000000001,10.15604632638685,0.12834207398287656,0.6437365141299388,-0.12980585835000402,9.134109,-0.40463683,-4.641233,0.74685186,6.1264515,-5.5310836,1.934174,0.34115413,-0.11864082,0.066779524,0.9300952,-9.440277,9.033029,1.0264813,0.12834208,0.64373654,-0.12980586,0
1.420000000000001,10.15604632638685,0.12834207398287656,0.6437365141299388,-0.12980585835000402,9.134109,-0.40463683,-4.641233,0.74685186,6.0319595,-5.4406486,1.9444369,0.34161702,-0.12145825,0.06839706,0.9294439,-9.458214,9.054053,1.026109,0.12834208,0.64373654,-0.12980586,0
1.430000000000001,10.15604632638685,0.12834207398287656,0.6437365141299388,-0.12980585835000402,9.134109,-0.40463683,-4.641233,0.74685186,5.9372864,-5.350001,1.9546953,0.3420761,-0.12427432,0.070013836,0.92878217,-9.476547,9.075582,1.0255533,0.12834208,0.64373654,-0.12980586,0
1.440000000000001,10.15604632638685,0.12834207398287656,0.6437365141299388,-0.12980585835000402,9.691497,0.039126065,-4.623477,0.3075449,5.8424273,-5.2591352,1.9649473,0.34253135,-0.12708901,0.07162983,0.92810994,-9.4952755,9.097613,1.0248101,0.12834208,0.64373654,-0.12980586,0
1.450000000000001,10.15604632638685,0.12834207398287656,0.6437365141299388,-0.12980585835000402,9.691497,0.039126065,-4.623477,0.3075449,5.7473793,-5.168047,1.975191,0.3429828,-0.12990229,0.07324502,0.9274275,-9.514399,9.120149,1.023875,0.12834208,0.64373654,-0.12980586,0
1.460000000000001,10.15604632638685,0.12834207398287656,0.6437365141299388,-0.12980585835000402,9.691497,0.039126065,-4.623477,0.3075449,5.6521378,-5.0767307,1.9854243,0.34343043,-0.13271408,0.074859396,0.9267345,-9.533914,9.143184,1.022744,0.12834208,0.64373654,-0.12980586,0
1.470000000000001,10.15604632638685,0.12834207398287656,0.6437365141299388,-0.12980585835000402,9.691497,0.039126065,-4.623477,0.3075449,5.5566998,-4.985182,1.9956452,0.34387425,-0.1355244,0.07647293,0.9260313,-9.553821,9.166721,1.021413,0.12834208,0.64373654,-0.12980586,0
1.480000000000001,10.045374620559546,0.19055228286555906,-0.6810446536925248,-0.124610429256952,9.275961,0.69171214,-2.7219555,0.58558613,5.46106,-4.8933945,2.0058515,0.34431413,-0.13833322,0.07808561,0.9253176,-9.574117,9.19076,1.0198776,0.12834208,0.64373654,-0.12980586,0
1.490000000000001,10.045374620559546,0.19055228286555906,-0.6810446536925248,-0.124610429256952,9.275961,0.69171214,-2.7219555,0.58558613,5.365218,-4.801367,2.0160372,0.34528613,-0.13490202,0.07770806,0.9254938,-9.594198,9.214741,1.0172371,0.19055228,-0.68104464,-0.12461043,0
1.500000000000001,10.045374620559546,0.19055228286555906,-0.6810446536925248,-0.124610429256952,9.275961,0.69171214,-2.7219555,0.58558613,5.2691784,-4.7091002,2.0261972,0.34625366,-0.13146909,0.0773295,0.92565805,-9.613658,9.238443,1.0147951,0.19055228,-0.68104464,-0.12461043,0
1.5100000000000011,10.045374620559546,0.19055228286555906,-0.6810446536925248,-0.124610429256952,9.275961,0.69171214,-2.7219555,0.58558613,5.172947,-4.6165986,2.0363338,0.34721676,-0.12803446,0.076949954,0.9258104,-9.632494,9.261864,1.0125468,0.19055228,-0.68104464,-0.12461043,0
1.5200000000000011,10.279495288549626,0.25468971185700273,0.02709570672643626,-0.08379515972648537,9.717746,0.8616419,-2.0896454,0.6700465,5.0765305,-4.5238643,2.046449,0.34817535,-0.12459817,0.076569416,0.92595077,-9.650707,9.285002,1.0104876,0.19055228,-0.68104464,-0.12461043,0
1.5300000000000011,10.279495288549626,0.25468971185700273,0.02709570672643626,-0.08379515972648537,9.717746,0.8616419,-2.0896454,0.6700465,4.979933,-4.4308968,2.0565553,0.34871128,-0.1243122,0.07774346,0.92568964,-9.668888,9.308577,1.010777,0.25468972,0.027095707,-0.08379516,0
1.5400000000000011,10.279495288549626,0.25468971185700273,0.02709570672643626,-0.08379515972648537,9.717746,0.8616419,-2.0896454,0.6700465,4.8831534,-4.3376923,2.0666645,0.34924656,-0.12402601,0.07891737,0.92542684,-9.686916,9.332365,1.0110435,0.25468972,0.027095707,-0.08379516,0
1.5500000000000012,10.279495288549626,0.25468971185700273,0.02709570672643626,-0.08379515972648537,9.717746,0.8616419,-2.0896454,0.6700465,4.786195,-4.2442484,2.0767763,0.34978122,-0.123739585,0.08009113,0.9251624,-9.704788,9.356363,1.0112867,0.25468972,0.027095707,-0.08379516,0
1.5600000000000012,10.237456768126824,0.3293276925955655,-0.7296116062014041,-0.07298826654422541,9.851933,0.48220655,-3.3970613,0.23705298,4.6890583,-4.1505637,2.0868902,0.35031524,-0.12345295,0.08126475,0.92489624,-9.722507,9.380575,1.011506,0.25468972,0.027095707,-0.08379516,0
1.5700000000000012,10.237456768126824,0.3293276925955655,-0.7296116062014041,-0.07298826654422541,9.851933,0.48220655,-3.3970613,0.23705298,4.591747,-4.056637,2.0970044,0.3511497,-0.1195307,0.08146405,0.9250775,-9.73977,9.4047365,1.0113791,0.3293277,-0.72961164,-0.072988264,0
1.5800000000000012,10.237456768126824,0.3293276925955655,-0.7296116062014041,-0.07298826654422541,9.851933,0.48220655,-3.3970613,0.23705298,4.4942665,-3.9624693,2.1071184,0.35197845,-0.11560652,0.081662014,0.9252438,-9.756266,9.428678,1.0114385,0.3293277,-0.72961164,-0.072988264,0
1.5900000000000012,10.237456768126824,0.3293276925955655,-0.7296116062014041,-0.07298826654422541,9.851933,0.48220655,-3.3970613,0.23705298,4.396625,-3.8680637,2.1172338,0.35280156,-0.11168047,0.081858665,0.92539513,-9.771993,9.4523945,1.0116777,0.3293277,-0.72961164,-0.072988264,0
1.6000000000000012,10.31632544368821,0.3445900180988976,0.1272745064072056,-0.030766400969789543,10.61138,0.14257947,-2.6030426,0.21901435,4.29883,-3.7734222,2.1273527,0.35361898,-0.10775263,0.082054004,0.92553157,-9.786952,9.475887,1.0120908,0.3293277,-0.72961164,-0.072988264,0
1.6100000000000012,10.31632544368821,0.3445900180988976,0.1272745064072056,-0.030766400969789543,10.61138,0.14257947,-2.6030426,0.21901435,4.2008877,-3.678545,2.13748,0.35389417,-0.107744776,0.08385697,0.92526567,-9.801488,9.499547,1.0133463,0.34459,0.12727451,-0.030766401,0
1.6200000000000012,10.31632544368821,0.3445900180988976,0.1272745064072056,-0.030766400969789543,10.61138,0.14257947,-2.6030426,0.21901435,4.1028013,-3.5834298,2.1476195,0.35416818,-0.107736565,0.085659645,0.9249966,-9.815881,9.523553,1.0145401,0.34459,0.12727451,-0.030766401,0
1.6300000000000012,10.31632544368821,0.3445900180988976,0.1272745064072056,-0.030766400969789543,10.61138,0.14257947,-2.6030426,0.21901435,4.004571,-3.4880729,2.1577709,0.354441,-0.107728,0.08746203,0.9247244,-9.830129,9.547903,1.0156707,0.34459,0.12727451,-0.030766401,0
1.6400000000000012,10.31632544368821,0.3445900180988976,0.1272745064072056,-0.030766400969789543,11.441283,0.46428958,-3.6141753,0.06782609,3.906199,-3.3924708,2.167933,0.3547126,-0.10771905,0.08926412,0.924449,-9.844232,9.5725975,1.0167367,0.34459,0.12727451,-0.030766401,0
1.6500000000000012,10.31632544368821,0.3445900180988976,0.1272745064072056,-0.030766400969789543,11.441283,0.46428958,-3.6141753,0.06782609,3.8076868,-3.2966197,2.1781054,0.354983,-0.107709736,0.091065906,0.92417055,-9.85819,9.597636,1.0177369,0.34459,0.12727451,-0.030766401,0
1.6600000000000013,10.31632544368821,0.3445900180988976,0.1272745064072056,-0.030766400969789543,11.441283,0.46428958,-3.6141753,0.06782609,3.7090359,-3.2005167,2.1882873,0.35525218,-0.107700065,0.09286738,0.9238889,-9.872003,9.623019,1.0186701,0.34459,0.12727451,-0.030766401,0
1.6700000000000013,10.31632544368821,0.3445900180988976,0.1272745064072056,-0.030766400969789543,11.441283,0.46428958,-3.6141753,0.06782609,3.6102476,-3.1041582,2.1984782,0.35552016,-0.10769003,0.094668545,0.9236042,-9.885671,9.648746,1.0195348,0.34459,0.12727451,-0.030766401,0
1.6800000000000013,10.26725063530903,0.39818301423546476,-0.49838112449278166,-0.005625080181429697,11.4519415,0.008194056,-3.9022977,0.49478406,3.511323,-3.0075407,2.2086778,0.35578695,-0.10767961,0.09646939,0.9233163,-9.899194,9.674813,1.0203298,0.34459,0.12727451,-0.030766401,0
1.6900000000000013,10.26725063530903,0.39818301423546476,-0.49838112449278166,-0.005625080181429697,11.4519415,0.008194056,-3.9022977,0.49478406,3.412265,-2.9106617,2.2188826,0.35626587,-0.10467263,0.097417526,0.9233778,-9.912318,9.700959,1.0206456,0.39818302,-0.49838114,-0.0056250803,0
1.7000000000000013,10.26725063530903,0.39818301423546476,-0.49838112449278166,-0.005625080181429697,11.4519415,0.008194056,-3.9022977,0.49478406,3.3130789,-2.8135214,2.2290912,0.3567412,-0.10166458,0.098364666,0.92343,-9.924796,9.727078,1.0210533,0.39818302,-0.49838114,-0.0056250803,0
1.7100000000000013,10.26725063530903,0.39818301423546476,-0.49838112449278166,-0.005625080181429697,11.4519415,0.008194056,-3.9022977,0.49478406,3.2137713,-2.7161202,2.239304,0.35721287,-0.09865549,0.099310815,0.92347276,-9.9366255,9.753167,1.021549,0.39818302,-0.49838114,-0.0056250803,0
1.7200000000000013,10.145936676190882,0.4008293646248046,-0.42331148652190376,0.03702327927673104,11.573437,-0.092237085,-3.1327627,0.6098735,3.1143486,-2.6184583,2.2495222,0.35768092,-0.095645405,0.10025595,0.92350614,-9.947806,9.779225,1.0221285,0.39818302,-0.49838114,-0.0056250803,0
1.7300000000000013,10.145936676190882,0.4008293646248046,-0.42331148652190376,0.03702327927673104,11.573437,-0.092237085,-3.1327627,0.6098735,3.0148182,-2.5205374,2.2597408,0.35791233,-0.09295494,0.10136702,0.9235699,-9.958233,9.804962,1.0216138,0.40082937,-0.42331147,0.03702328,0
1.7400000000000013,10.145936676190882,0.4008293646248046,-0.42331148652190376,0.03702327927673104,11.573437,-0.092237085,-3.1327627,0.6098735,2.9151862,-2.422359,2.2699547,0.35814068,-0.09026369,0.10247722,0.9236258,-9.968071,9.830717,1.0211552,0.40082937,-0.42331147,0.03702328,0
1.7500000000000013,10.145936676190882,0.4008293646248046,-0.42331148652190376,0.03702327927673104,11.573437,-0.092237085,-3.1327627,0.6098735,2.8154588,-2.323923,2.2801642,0.35836598,-0.08757166,0.103586555,0.92367387,-9.97732,9.85649,1.0207496,0.40082937,-0.42331147,0.03702328,0
1.7600000000000013,10.131678416224057,0.41349342913197,-0.08635963040308875,0.08954016482959849,11.22196,-0.65024805,-3.085016,0.25283843,2.7156417,-2.2252293,2.29037,0.35858822,-0.084878884,0.10469499,0.92371404,-9.985979,9.882279,1.0203935,0.40082937,-0.42331147,0.03702328,0
1.7700000000000014,10.131678416224057,0.41349342913197,-0.08635963040308875,0.08954016482959849,11.22196,-0.65024805,-3.085016,0.25283843,2.615741,-2.1262774,2.3005717,0.3583945,-0.08369159,0.10648766,0.9236926,-9.994129,9.908135,1.0199159,0.41349342,-0.08635963,0.08954016,0
1.7800000000000014,10.131678416224057,0.41349342913197,-0.08635963040308875,0.08954016482959849,11.22196,-0.65024805,-3.085016,0.25283843,2.5157604,-2.0270658,2.3107684,0.35819912,-0.0825039,0.10827983,0.92366683,-10.001929,9.934236,1.0194014,0.41349342,-0.08635963,0.08954016,0
1.7900000000000014,10.131678416224057,0.41349342913197,-0.08635963040308875,0.08954016482959849,11.22196,-0.65024805,-3.085016,0.25283843,2.4157035,-1.9275919,2.3209596,0.35800207,-0.08131583,0.110071495,0.9236368,-10.009381,9.960584,1.0188484,0.41349342,-0.08635963,0.08954016,0
1.8000000000000014,9.84652542431741,0.3583385249069066,-0.5499160591935578,0.12649284376631692,11.456602,-0.3583716,-2.2707834,0.5497981,2.3155742,-1.8278533,2.3311453,0.35780334,-0.08012739,0.11186265,0.92360246,-10.016485,9.987176,1.0182548,0.41349342,-0.08635963,0.08954016,0
1.8100000000000014,9.84652542431741,0.3583385249069066,-0.5499160591935578,0.12649284376631692,11.456602,-0.3583716,-2.2707834,0.5497981,2.2153766,-1.7278516,2.3413112,0.35766834,-0.076875605,0.112583704,0.9238435,-10.022939,10.013132,1.0149175,0.35833853,-0.5499161,0.12649284,0
1.8200000000000014,9.84652542431741,0.3583385249069066,-0.5499160591935578,0.12649284376631692,11.456602,-0.3583716,-2.2707834,0.5497981,2.1151175,-1.627591,2.351444,0.35752934,-0.073622964,0.1133035,0.9240742,-10.028757,10.038994,1.0116473,0.35833853,-0.5499161,0.12649284,0
1.8300000000000014,9.84652542431741,0.3583385249069066,-0.5499160591935578,0.12649284376631692,11.456602,-0.3583716,-2.2707834,0.5497981,2.0148036,-1.5270721,2.3615444,0.35738635,-0.0703695,0.11402203,0.9242946,-10.033938,10.06476,1.00844,0.35833853,-0.5499161,0.12649284,0
1.8400000000000014,9.84652542431741,0.3583385249069066,-0.5499160591935578,0.12649284376631692,11.786833,-0.3362411,-2.5341198,0.6104869,1.9144411,-1.4262961,2.371613,0.35723937,-0.06711525,0.11473929,0.92450464,-10.038484,10.090431,1.0052911,0.35833853,-0.5499161,0.12649284,0
1.8500000000000014,9.84652542431741,0.3583385249069066,-0.5499160591935578,0.12649284376631692,11.786833,-0.3362411,-2.5341198,0.6104869,1.8140363,-1.3252639,2.3816504,0.3570884,-0.063860245,0.11545527,0.9247044,-10.042392,10.116007,1.0021963,0.35833853,-0.5499161,0.12649284,0
1.8600000000000014,9.84652542431741,0.3583385249069066,-0.5499160591935578,0.12649284376631692,11.786833,-0.3362411,-2.5341198,0.6104869,1.7135955,-1.2239763,2.3916574,0.35693344,-0.060604528,0.11616995,0.9248938,-10.045663,10.141486,0.9991514,0.35833853,-0.5499161,0.12649284,0
1.8700000000000014,9.84652542431741,0.3583385249069066,-0.5499160591935578,0.12649284376631692,11.786833,-0.3362411,-2.5341198,0.6104869,1.6131252,-1.1224345,2.4016337,0.35677448,-0.05734814,0.116883345,0.9250729,-10.048297,10.166868,0.9961521,0.35833853,-0.5499161,0.12649284,0
1.8800000000000014,9.860562222941734,0.26916861754729715,0.7050369994459608,0.20272468398958637,12.492996,-0.47635552,-3.309875,0.4328019,1.5126318,-1.0206393,2.4115806,0.35661155,-0.054091107,0.11759543,0.92524165,-10.050293,10.192154,0.99319404,0.35833853,-0.5499161,0.12649284,0
1.8900000000000015,9.860562222941734,0.26916861754729715,0.7050369994459608,0.20272468398958637,12.492996,-0.47635552,-3.309875,0.4328019,1.4121205,-0.9185908,2.4214983,0.35532922,-0.056753196,0.120151706,0.92524713,-10.052017,10.217655,0.9903291,0.26916862,0.705037,0.20272468,0
1.9000000000000015,9.860562222941734,0.26916861754729715,0.7050369994459608,0.20272468398958637,12.492996,-0.47635552,-3.309875,0.4328019,1.3115902,-0.816284,2.4313867,0.3540415,-0.059414417,0.122706145,0.92523843,-10.054081,10.243795,0.9872842,0.26916862,0.705037,0.20272468,0
1.9100000000000015,9.860562222941734,0.26916861754729715,0.7050369994459608,0.20272468398958637,12.492996,-0.47635552,-3.309875,0.4328019,1.2110378,-0.7137127,2.4412434,0.35274833,-0.062074732,0.12525871,0.92521566,-10.056481,10.270573,0.98405397,0.26916862,0.705037,0.20272468,0
1.9200000000000015,9.444900922342159,0.09557843941103401,-0.7186729742433384,0.2701543787889478,11.931174,-0.5850433,-2.7661495,0.34858388,1.1104594,-0.61087036,2.4510667,0.35144982,-0.0647341,0.12780938,0.92517877,-10.059221,10.297983,0.9806332,0.26916862,0.705037,0.20272468,0
1.9300000000000015,9.444900922342159,0.09557843941103401,-0.7186729742433384,0.2701543787889478,11.931174,-0.5850433,-2.7661495,0.34858388,1.0098536,-0.5077578,2.4608357,0.35068765,-0.06106853,0.1270751,0.9258181,-10.061836,10.32448,0.97315127,0.09557844,-0.718673,0.2701544,0
1.9400000000000015,9.444900922342159,0.09557843941103401,-0.7186729742433384,0.2701543787889478,11.931174,-0.5850433,-2.7661495,0.34858388,0.90922457,-0.404382,2.4705305,0.34992024,-0.057402037,0.12633893,0.9264436,-10.063886,10.350611,0.96578985,0.09557844,-0.718673,0.2701544,0
1.9500000000000015,9.444900922342159,0.09557843941103401,-0.7186729742433384,0.2701543787889478,11.931174,-0.5850433,-2.7661495,0.34858388,0.8085779,-0.30074677,2.480152,0.3491476,-0.053734686,0.12560086,0.9270552,-10.065368,10.376379,0.9585438,0.09557844,-0.718673,0.2701544,0
1.9600000000000015,9.334782403111479,-0.15474736696647753,0.3658626667432504,0.3559240423386944,12.132737,-0.78344464,-2.5993903,1.1416509,0.7079192,-0.1968557,2.4897017,0.34836975,-0.050066534,0.12486093,0.9276529,-10.06628,10.401781,0.95140785,0.09557844,-0.718673,0.2701544,0
1.9700000000000015,9.334782403111479,-0.15474736696647753,0.3658626667432504,0.3559240423386944,12.132737,-0.78344464,-2.5993903,1.1416509,0.6072532,-0.09271336,2.4991753,0.3464505,-0.051810667,0.1248691,0.9282746,-10.066961,10.426703,0.94326454,-0.15474737,0.36586267,0.35592404,0
1.9800000000000015,9.334782403111479,-0.15474736696647753,0.3658626667432504,0.3559240423386944,12.132737,-0.78344464,-2.5993903,1.1416509,0.5065787,0.011678748,2.508567,0.3445288,-0.053554427,0.12487639,0.9288896,-10.067997,10.451736,0.93508726,-0.15474737,0.36586267,0.35592404,0
1.9900000000000015,9.334782403111479,-0.15474736696647753,0.3658626667432504,0.3559240423386944,12.132737,-0.78344464,-2.5993903,1.1416509,0.40589207,0.11632174,2.5178769,0.3426046,-0.055297807,0.12488278,0.92949814,-10.069384,10.476877,0.926875,-0.15474737,0.36586267,0.35592404,0
2.0000000000000013,,,,,12.292589,-0.7851814,-3.4522517,0.5227018,0.3051898,0.22121668,2.5271044,0.340678,-0.057040796,0.12488829,0.9301,-10.071125,10.502125,0.91862655,-0.15474737,0.36586267,0.35592404,0
2.010000000000001,,,,,12.292589,-0.7851814,-3.4522517,0.5227018,0.20447104,0.32635772,2.5362334,0.33979717,-0.043542914,0.11777718,0.93207765,-10.072346,10.525776,0.9073027,-0.46258768,-2.9960797,0.5546469,0
2.020000000000001,,,,,12.292589,-0.7851814,-3.4522517,0.5227018,0.103749044,0.43172535,2.5452518,0.33883563,-0.03003469,0.110638104,0.93383396,-10.071774,10.547441,0.89650255,-0.46258768,-2.9960797,0.5546469,0
2.0300000000000007,,,,,12.292589,-0.7851814,-3.4522517,0.5227018,0.003041776,0.53729975,2.5541646,0.33779362,-0.016519334,0.103472754,0.9353685,-10.069397,10.567109,0.8861436,-0.46258768,-2.9960797,0.5546469,0
2.0400000000000005,,,,,12.292589,-0.7851814,-3.4522517,0.5227018,-0.09763266,0.64306074,2.562976,0.33667138,-0.0030000568,0.09628283,0.93668085,-10.065207,10.584773,0.87614256,-0.46258768,-2.9960797,0.5546469,0
2.0500000000000003,,,,,13.132969,-1.028121,-3.7583992,1.4022754,-0.1982561,0.74898833,2.5716887,0.33546925,0.010519931,0.08907005,0.9377709,-10.059196,10.600425,0.86641604,-0.46258768,-2.9960797,0.5546469,1
2.06,,,,,13.132969,-1.028121,-3.7583992,1.4022754,-0.2987926,0.85509306,2.580509,0.3305505,0.027039072,0.07785315,0.940182,-10.047636,10.619885,0.8976724,-1.028121,-3.7583992,1.4022754,1
2.07,,,,,13.132969,-1.028121,-3.7583992,1.4022754,-0.39919847,0.9613718,2.589643,0.32549006,0.04354662,0.06660287,0.94219,-10.033065,10.635217,0.92917967,-1.028121,-3.7583992,1.4022754,1
2.0799999999999996,,,,,13.132969,-1.028121,-3.7583992,1.4022754,-0.4994434,1.0677832,2.5990927,0.32029006,0.060035497,0.05532404,0.9437941,-10.015446,10.646439,0.9607296,-1.028121,-3.7583992,1.4022754,1
2.0899999999999994,,,,,13.831023,-1.0827143,-4.332581,1.2064283,-0.59949684,1.1742865,2.6088572,0.31495276,0.07649864,0.04402149,0.94499356,-9.994751,10.653575,0.9921141,-1.028121,-3.7583992,1.4022754,1
2.099999999999999,,,,,13.831023,-1.0827143,-4.332581,1.2064283,-0.6993209,1.2808412,2.6189682,0.31053632,0.09550831,0.03161079,0.9452217,-9.969473,10.65662,1.0299497,-1.0827143,-4.332581,1.2064283,1
2.109999999999999,,,,,13.831023,-1.0827143,-4.332581,1.2064283,-0.79887295,1.3874027,2.6294541,0.30595377,0.11446688,0.019183178,0.9449442,-9.940339,10.6549015,1.0670347,-1.0827143,-4.332581,1.2064283,1
2.1199999999999988,,,,,13.831023,-1.0827143,-4.332581,1.2064283,-0.89811444,1.4939232,2.6403055,0.30120754,0.13336422,0.006745304,0.94416124,-9.907351,10.64847,1.1030881,-1.0827143,-4.332581,1.2064283,1
2.1299999999999986,,,,,14.500503,-1.455265,-5.7978296,1.8784097,-0.9970068,1.6003561,2.6515112,0.2963002,0.15219021,-0.0056961784,0.94287324,-9.870519,10.637385,1.137831,-1.0827143,-4.332581,1.2064283,1
2.1399999999999983,,,,,14.500503,-1.455265,-5.7978296,1.8784097,-1.0955006,1.7066499,2.6630878,0.28824288,0.17723502,-0.022570144,0.9407404,-9.827387,10.620359,1.1771003,-1.455265,-5.7978296,1.8784097,1
2.149999999999998,,,,,14.500503,-1.455265,-5.7978296,1.8784097,-1.1935362,1.8127419,2.675044,0.2799026,0.2021059,-0.03942196,0.9376843,-9.778931,10.597063,1.2136472,-1.455265,-5.7978296,1.8784097,1
2.159999999999998,,,,,14.500503,-1.455265,-5.7978296,1.8784097,-1.2910609,1.9185702,2.6873496,0.27128768,0.22677842,-0.05623509,0.9337079,-9.725204,10.567691,1.2469682,-1.455265,-5.7978296,1.8784097,1
