time-since-start [s],throttle_mpc,roll_mpc,pitch_mpc,yaw_mpc,throttle_nw,roll_nw,pitch_nw,yaw_nw,position_x [m],position_y [m],position_z [m],rotation_w [quaternion],rotation_x [quaternion],rotation_y [quaternion],rotation_z [quaternion],velocity_x [m/s],velocity_y [m/s],velocity_z [m/s],omega_x [rad/s],omega_y [rad/s],omega_z [rad/s],network_used
0.0,10.26819414366912,5.999999549813319,-5.999999817882816,-2.4552501119794865,11.8599415,2.1128955,0.6376733,-1.858637,14.639783,-11.364639,2.5943658,-0.2731518,0.32165623,-0.36064142,-0.8317831,-9.3537445,-1.5256376,1.1111474,1.1815052,-0.4159298,-0.28763238,0
0.01,10.26819414366912,5.999999549813319,-5.999999817882816,-2.4552501119794865,11.422623,1.746557,-0.25222546,-0.49623477,14.546005,-11.379337,2.6053693,-0.2778144,0.3177077,-0.36483994,-0.8299234,-9.401432,-1.4143804,1.0891844,1.5132151,-0.8672824,-0.35645702,0
0.02,10.26819414366912,5.999999549813319,-5.999999817882816,-2.4552501119794865,11.422623,1.746557,-0.25222546,-0.49623477,14.451767,-11.392934,2.6161425,-0.28405192,0.3115997,-0.36964518,-0.8279992,-9.445717,-1.3051307,1.0651554,1.8324863,-1.2875968,-0.42542085,0
0.03,10.26819414366912,5.999999549813319,-5.999999817882816,-2.4552501119794865,11.422623,1.746557,-0.25222546,-0.49623477,14.357105,-11.405447,2.6266663,-0.29177612,0.30345204,-0.37501422,-0.8259224,-9.486072,-1.197744,1.0393603,2.1396217,-1.6800714,-0.49437028,0
0.04,10.26819414366912,5.999999549813319,-5.999999817882816,-2.4552501119794865,13.550295,3.3490484,-0.46068138,-0.63412094,14.262061,-11.416894,2.6369245,-0.30089757,0.29336774,-0.38089663,-0.823598,-9.5220375,-1.0921252,1.0120398,2.4349906,-2.0475202,-0.5631696,0
0.05,10.26819414366912,5.999999549813319,-5.999999817882816,-2.4552501119794865,13.550295,3.3490484,-0.46068138,-0.63412094,14.16668,-11.427294,2.6469028,-0.3113257,0.28143585,-0.38723585,-0.8209253,-9.553211,-0.98823035,0.9833806,2.7190092,-2.3924224,-0.63169885,0
0.060000000000000005,10.26819414366912,5.999999549813319,-5.999999817882816,-2.4552501119794865,13.550295,3.3490484,-0.46068138,-0.63412094,14.071014,-11.436665,2.656588,-0.3229684,0.26773447,-0.39397028,-0.8178,-9.5792465,-0.8860677,0.9535203,2.9921231,-2.716966,-0.69985276,0
0.07,10.26819414366912,5.999999549813319,-5.999999817882816,-2.4552501119794865,13.550295,3.3490484,-0.46068138,-0.63412094,13.975115,-11.445023,2.6659694,-0.33573195,0.2523331,-0.40103418,-0.81411505,-9.599844,-0.78569674,0.92255104,3.2547941,-3.0230825,-0.7675387,0
0.08,12.116800660847236,5.999999660844059,-5.999999848858742,-2.6034648773321014,11.151695,2.2243018,-0.42184693,-1.016698,13.879037,-11.452386,2.6750355,-0.3495208,0.23529495,-0.40835822,-0.8097622,-9.614754,-0.68722653,0.8905242,3.5074914,-3.3124838,-0.83467585,0
0.09,12.116800660847236,5.999999660844059,-5.999999848858742,-2.6034648773321014,11.151695,2.2243018,-0.42184693,-1.016698,13.782833,-11.458709,2.6838202,-0.36430353,0.21660317,-0.415897,-0.8046089,-9.624977,-0.5778499,0.866198,3.7798796,-3.6159635,-0.91107684,0
0.09999999999999999,12.116800660847236,5.999999660844059,-5.999999848858742,-2.6034648773321014,11.151695,2.2243018,-0.42184693,-1.016698,13.686561,-11.46395,2.6923556,-0.38003963,0.1962395,-0.42359665,-0.79851466,-9.628292,-0.47101304,0.840685,4.042264,-3.904628,-0.9866343,0
0.10999999999999999,12.116800660847236,5.999999660844059,-5.999999848858742,-2.6034648773321014,11.151695,2.2243018,-0.42184693,-1.016698,13.590291,-11.468138,2.7006295,-0.3966153,0.17426117,-0.4313706,-0.7913587,-9.624523,-0.367,0.81392825,4.295147,-4.1797266,-1.0612948,0
0.11999999999999998,12.116800660847236,5.999999660844059,-5.999999848858742,-2.6034648773321014,11.151695,2.2243018,-0.42184693,-1.016698,13.494096,-11.471301,2.7086296,-0.4139128,0.15072607,-0.43912983,-0.7830215,-9.613559,-0.26614293,0.78583616,4.539013,-4.4423733,-1.1350129,0
0.12999999999999998,15.144165619092242,5.422724846688929,-5.999999618736733,-2.551179349734896,12.307161,1.1215138,0.2634259,-0.6435949,13.398046,-11.473472,2.7163427,-0.43180272,0.12570786,-0.44677925,-0.77339,-9.595221,-0.16817066,0.75674284,4.7656517,-4.6848726,-1.2069951,0
0.13999999999999999,15.144165619092242,5.422724846688929,-5.999999618736733,-2.551179349734896,12.307161,1.1215138,0.2634259,-0.6435949,13.302248,-11.47455,2.7238503,-0.45006815,0.0994841,-0.45402107,-0.7625,-9.562521,-0.048018157,0.7447851,4.867751,-4.8902555,-1.2729546,0
0.15,15.144165619092242,5.422724846688929,-5.999999618736733,-2.551179349734896,12.307161,1.1215138,0.2634259,-0.6435949,13.206827,-11.4744425,2.7312374,-0.46850073,0.0723527,-0.46060598,-0.75040925,-9.519856,0.06916262,0.73255855,4.9539485,-5.063593,-1.3356775,0
0.16,14.974447964781312,3.2741870780945463,-4.964172341661224,-1.0088054507443533,12.126337,-0.2723095,1.6305816,-0.5224085,13.111884,-11.473181,2.7384999,-0.48695037,0.04448452,-0.46649525,-0.7370769,-9.467199,0.18258673,0.71982616,5.0267243,-5.209884,-1.3953226,0
0.17,14.974447964781312,3.2741870780945463,-4.964172341661224,-1.0088054507443533,12.126337,-0.2723095,1.6305816,-0.5224085,13.017513,-11.470813,2.7456264,-0.50492823,0.016672112,-0.47125074,-0.72297436,-9.405393,0.29025885,0.70539904,4.7535157,-5.171258,-1.3763561,0
0.18000000000000002,14.974447964781312,3.2741870780945463,-4.964172341661224,-1.0088054507443533,12.126337,-0.2723095,1.6305816,-0.5224085,12.923807,-11.467394,2.752605,-0.5220865,-0.01044335,-0.4745843,-0.7085802,-9.334399,0.39280403,0.690121,4.522905,-5.138703,-1.3583204,0
0.19000000000000003,14.974447964781312,3.2741870780945463,-4.964172341661224,-1.0088054507443533,12.126337,-0.2723095,1.6305816,-0.5224085,12.830853,-11.462976,2.7594259,-0.53848565,-0.03692878,-0.47666472,-0.69387305,-9.254881,0.48967767,0.67392176,4.3282495,-5.111264,-1.3411696,0
0.20000000000000004,13.722961368567766,1.8313576048886355,-3.2740669570483947,-0.7432940402031968,13.665913,-1.4068882,2.2713811,-0.24808022,12.738736,-11.457621,2.76608,-0.55417067,-0.06284195,-0.47763202,-0.6788321,-9.167474,0.5803999,0.65672386,4.1639433,-5.0881376,-1.3248605,0
0.21000000000000005,13.722961368567766,1.8313576048886355,-3.2740669570483947,-0.7432940402031968,13.665913,-1.4068882,2.2713811,-0.24808022,12.64749,-11.451426,2.7725232,-0.56888086,-0.08747052,-0.47759917,-0.66379386,-9.080745,0.65755117,0.6317792,3.8005114,-4.8048496,-1.2963228,0
0.22000000000000006,13.722961368567766,1.8313576048886355,-3.2740669570483947,-0.7432940402031968,13.665913,-1.4068882,2.2713811,-0.24808022,12.55714,-11.4444895,2.778712,-0.5824625,-0.110264525,-0.47671488,-0.64909315,-8.988176,0.72863185,0.6058268,3.4937057,-4.5658035,-1.2691855,0
0.23000000000000007,13.722961368567766,1.8313576048886355,-3.2740669570483947,-0.7432940402031968,13.665913,-1.4068882,2.2713811,-0.24808022,12.467743,-11.436873,2.7846365,-0.59508306,-0.13149078,-0.47512513,-0.6346986,-8.890529,0.79367375,0.5788731,3.2347038,-4.3640885,-1.2433798,0
0.24000000000000007,13.722961368567766,1.8313576048886355,-3.2740669570483947,-0.7432940402031968,14.626406,-2.2609253,3.7234674,0.048103936,12.379345,-11.428637,2.7902863,-0.606876,-0.15137714,-0.4729443,-0.6205724,-8.788461,0.85272753,0.55093235,3.0160577,-4.1938744,-1.2188405,0
0.25000000000000006,13.722961368567766,1.8313576048886355,-3.2740669570483947,-0.7432940402031968,14.626406,-2.2609253,3.7234674,0.048103936,12.291987,-11.419839,2.795652,-0.61794806,-0.17011741,-0.47026193,-0.60667443,-8.682544,0.9058531,0.5220217,2.83148,-4.050241,-1.1955053,0
0.26000000000000006,13.722961368567766,1.8313576048886355,-3.2740669570483947,-0.7432940402031968,14.626406,-2.2609253,3.7234674,0.048103936,12.205706,-11.410539,2.8007233,-0.6283845,-0.18787585,-0.46714836,-0.59296536,-8.573278,0.9531133,0.49215788,2.6756628,-3.9290369,-1.173315,0
0.2700000000000001,13.722961368567766,1.8313576048886355,-3.2740669570483947,-0.7432940402031968,14.626406,-2.2609253,3.7234674,0.048103936,12.120532,-11.400796,2.8054917,-0.63825357,-0.20479132,-0.46365893,-0.5794076,-8.461113,0.9945705,0.46135506,2.5441246,-3.826759,-1.1522138,0
0.2800000000000001,12.622763388832576,0.28085434695139505,-1.3138382693267827,-0.34829378182129395,14.656971,-2.7001255,4.67144,0.029677637,12.036492,-11.390667,2.8099475,-0.64760995,-0.22098085,-0.45983726,-0.56596667,-8.346446,1.0302844,0.42962414,2.4330828,-3.7404516,-1.1321481,0
0.2900000000000001,12.622763388832576,0.28085434695139505,-1.3138382693267827,-0.34829378182129395,14.656971,-2.7001255,4.67144,0.029677637,11.953563,-11.380221,2.8140552,-0.65625983,-0.23572446,-0.4558759,-0.55311286,-8.239023,1.0579549,0.3917382,2.097808,-3.3617222,-1.0936842,0
0.3000000000000001,12.622763388832576,0.28085434695139505,-1.3138382693267827,-0.34829378182129395,14.656971,-2.7001255,4.67144,0.029677637,11.8717165,-11.369525,2.81778,-0.66409576,-0.24847779,-0.45196557,-0.54125994,-8.13007,1.080835,0.35311416,1.8147556,-3.0421104,-1.0571077,0
0.3100000000000001,12.622763388832576,0.28085434695139505,-1.3138382693267827,-0.34829378182129395,14.656971,-2.7001255,4.67144,0.029677637,11.790965,-11.358621,2.8211155,-0.6712656,-0.25956595,-0.4481263,-0.5302927,-8.0199585,1.0993699,0.31387055,1.5757933,-2.7723868,-1.022326,0
0.3200000000000001,12.102952896176886,-1.8388909035134493,0.9746420568292844,0.36569741023626673,15.930445,-3.691363,5.149285,0.39453244,11.71132,-11.347551,2.8240557,-0.67788535,-0.2692612,-0.44436592,-0.52010405,-7.9089837,1.1139476,0.2741165,1.3740548,-2.5447626,-0.9892511,0
0.3300000000000001,12.102952896176886,-1.8388909035134493,0.9746420568292844,0.36569741023626673,15.930445,-3.691363,5.149285,0.39453244,11.632764,-11.336357,2.8265843,-0.68383265,-0.27678326,-0.44085,-0.5112872,-7.8019905,1.1245145,0.23158696,0.87343925,-1.9955518,-0.9227634,0
0.34000000000000014,12.102952896176886,-1.8388909035134493,0.9746420568292844,0.36569741023626673,15.930445,-3.691363,5.149285,0.39453244,11.555281,-11.325071,2.828687,-0.689039,-0.28154197,-0.43772984,-0.5043326,-7.6946893,1.1323558,0.18891734,0.45079544,-1.5320784,-0.85953826,0
0.35000000000000014,12.102952896176886,-1.8388909035134493,0.9746420568292844,0.36569741023626673,15.930445,-3.691363,5.149285,0.39453244,11.47887,-11.313717,2.830363,-0.6936452,-0.28399688,-0.43497333,-0.49899858,-7.5873137,1.1381799,0.14635558,0.093984544,-1.1409525,-0.7994155,0
0.36000000000000015,13.13969516605008,-4.0503897903918284,3.256841886017115,0.5839960456967547,18.028328,-4.7917175,5.5600185,0.45759082,11.403533,-11.302313,2.831615,-0.6977535,-0.2845287,-0.43253988,-0.49506766,-7.4800367,1.1425916,0.10411449,-0.2072437,-0.81087697,-0.7422431,0
0.37000000000000016,13.13969516605008,-4.0503897903918284,3.256841886017115,0.5839960456967547,18.028328,-4.7917175,5.5600185,0.45759082,11.329314,-11.290867,2.8324711,-0.70128226,-0.2823953,-0.43058,-0.49300724,-7.363834,1.1464752,0.067226656,-0.8062643,-0.1762618,-0.67716414,0
0.38000000000000017,13.13969516605008,-4.0503897903918284,3.256841886017115,0.5839960456967547,18.028328,-4.7917175,5.5600185,0.45759082,11.256255,-11.279383,2.8329625,-0.7041534,-0.27701813,-0.42920467,-0.4931647,-7.2481084,1.15038,0.031234216,-1.311961,0.35930002,-0.61527866,0
0.3900000000000002,13.13969516605008,-4.0503897903918284,3.256841886017115,0.5839960456967547,18.028328,-4.7917175,5.5600185,0.45759082,11.184349,-11.267856,2.8330998,-0.70642245,-0.26890185,-0.42830804,-0.49518734,-7.133075,1.155229,-0.0035519619,-1.7388668,0.8112755,-0.5564299,0
0.4000000000000002,16.267570756887956,-5.781848897105702,5.075381239861838,1.0092064200228865,17.989756,-6.090736,6.4139013,1.2356099,11.11359,-11.256272,2.8328962,-0.7081161,-0.25846496,-0.4277871,-0.49876332,-7.018937,1.1618042,-0.036892675,-2.0992522,1.1927148,-0.50046885,0
0.4100000000000002,16.267570756887956,-5.781848897105702,5.075381239861838,1.0092064200228865,17.989756,-6.090736,6.4139013,1.2356099,11.044101,-11.2446,2.8324459,-0.7090763,-0.24522203,-0.42769775,-0.5041338,-6.8790073,1.1729674,-0.052792367,-2.6734393,1.798274,-0.42638862,0
0.4200000000000002,16.267570756887956,-5.781848897105702,5.075381239861838,1.0092064200228865,17.989756,-6.090736,6.4139013,1.2356099,10.976003,-11.232798,2.8318477,-0.7091233,-0.22879227,-0.42804983,-0.51144,-6.740853,1.1882874,-0.066396825,-3.1581569,2.3093276,-0.35594356,0
0.4300000000000002,16.267570756887956,-5.781848897105702,5.075381239861838,1.0092064200228865,17.989756,-6.090736,6.4139013,1.2356099,10.909276,-11.220817,2.8311262,-0.7082257,-0.20963879,-0.42868477,-0.52028507,-6.604945,1.2088429,-0.077511676,-3.567339,2.7406323,-0.28895524,0
0.4400000000000002,16.267570756887956,-5.781848897105702,5.075381239861838,1.0092064200228865,18.232653,-6.7637672,6.39939,1.0056192,10.843895,-11.2086,2.8303065,-0.70634377,-0.18815465,-0.4294596,-0.5303208,-6.471801,1.2355236,-0.086059816,-3.9127502,3.1046383,-0.22525412,0
0.45000000000000023,16.267570756887956,-5.781848897105702,5.075381239861838,1.0092064200228865,18.232653,-6.7637672,6.39939,1.0056192,10.779829,-11.196082,2.8294137,-0.7034369,-0.16467717,-0.43024823,-0.54124284,-6.3419795,1.2690469,-0.09207013,-4.204324,3.411852,-0.16467878,0
0.46000000000000024,16.267570756887956,-5.781848897105702,5.075381239861838,1.0092064200228865,18.232653,-6.7637672,6.39939,1.0056192,10.717042,-11.183192,2.828473,-0.6994686,-0.13949873,-0.43094137,-0.5527863,-6.2160788,1.3099726,-0.09566591,-4.4504476,3.6711383,-0.107075885,0
0.47000000000000025,16.267570756887956,-5.781848897105702,5.075381239861838,1.0092064200228865,18.232653,-6.7637672,6.39939,1.0056192,10.655492,-11.169854,2.8275077,-0.69440836,-0.112874985,-0.43144578,-0.5647213,-6.0947237,1.3587148,-0.09705351,-4.658202,3.8899777,-0.052299596,0
0.48000000000000026,18.743418064010225,-5.99999589926052,5.713772238374521,1.590172523857296,17.67718,-6.0228734,6.1608973,1.0503755,10.59513,-11.15599,2.8265383,-0.68823296,-0.08503133,-0.4316828,-0.57684875,-5.978557,1.4155515,-0.09651123,-4.833566,4.074683,-0.0002111923,0
0.49000000000000027,18.743418064010225,-5.99999589926052,5.713772238374521,1.590172523857296,17.67718,-6.0228734,6.1608973,1.0503755,10.535986,-11.141466,2.825659,-0.6807777,-0.055990208,-0.43170366,-0.5890994,-5.8514423,1.49056,-0.07913038,-5.01569,4.3300433,0.077829406,0
0.5000000000000002,18.743418064010225,-5.99999589926052,5.713772238374521,1.590172523857296,17.67718,-6.0228734,6.1608973,1.0503755,10.478076,-11.126145,2.8249605,-0.67189246,-0.025790548,-0.43153626,-0.6013911,-5.731855,1.5752586,-0.06042247,-5.169422,4.5455775,0.15204051,0
0.5100000000000002,18.743418064010225,-5.99999589926052,5.713772238374521,1.590172523857296,17.67718,-6.0228734,6.1608973,1.0503755,10.421321,-11.109929,2.8244534,-0.66158515,0.0053540943,-0.43108967,-0.61354506,-5.620597,1.6696926,-0.040955096,-5.299185,4.7275004,0.22261007,0
0.5200000000000002,19.456359793675542,-5.566875438537996,4.747596707332398,1.2243890452756638,18.150656,-5.996999,5.9881105,1.801663,10.365633,-11.092718,2.824142,-0.64986926,0.037251316,-0.43028906,-0.6254064,-5.5184526,1.7737461,-0.021339998,-5.408711,4.881057,0.28971675,0
0.5300000000000002,19.456359793675542,-5.566875438537996,4.747596707332398,1.2243890452756638,18.150656,-5.996999,5.9881105,1.801663,10.310936,-11.074399,2.8240473,-0.6369726,0.06939166,-0.42893496,-0.63676137,-5.422646,1.8914394,0.002250827,-5.433518,4.860077,0.33558142,0
0.5400000000000003,19.456359793675542,-5.566875438537996,4.747596707332398,1.2243890452756638,18.150656,-5.996999,5.9881105,1.801663,10.257143,-11.054857,2.8241837,-0.62311924,0.101355,-0.42689124,-0.64746654,-5.3376656,2.0182204,0.024749653,-5.454449,4.842376,0.37919545,0
0.5500000000000003,19.456359793675542,-5.566875438537996,4.747596707332398,1.2243890452756638,18.150656,-5.996999,5.9881105,1.801663,10.204144,-11.034005,2.824537,-0.60832244,0.13309973,-0.42418674,-0.65749025,-5.2640142,2.153374,0.04559584,-5.472109,4.8274436,0.42066935,0
0.5600000000000003,18.022473459652236,-4.1288285355287835,3.1172775337943075,1.0149361773773644,19.357431,-5.783174,4.9657817,2.4872253,10.151822,-11.011763,2.825088,-0.5925987,0.16458525,-0.42084748,-0.6668024,-5.2021337,2.2961397,0.06423495,-5.487008,4.8148465,0.4601081,0
0.5700000000000003,18.022473459652236,-4.1288285355287835,3.1172775337943075,1.0149361773773644,19.357431,-5.783174,4.9657817,2.4872253,10.1000395,-10.988113,2.8257701,-0.5763712,0.19501159,-0.41690373,-0.6752463,-5.1560106,2.4346573,0.07174456,-5.275202,4.550081,0.4873337,0
0.5800000000000003,18.022473459652236,-4.1288285355287835,3.1172775337943075,1.0149361773773644,19.357431,-5.783174,4.9657817,2.4872253,10.048663,-10.963051,2.8265133,-0.56004685,0.22376116,-0.41243172,-0.6827724,-5.1209903,2.578473,0.07640412,-5.0964284,4.3266068,0.51322323,0
0.5900000000000003,18.022473459652236,-4.1288285355287835,3.1172775337943075,1.0149361773773644,19.357431,-5.783174,4.9657817,2.4872253,9.9975815,-10.936528,2.8272877,-0.54361296,0.25104487,-0.4075088,-0.6894908,-5.0968437,2.7266345,0.07797891,-4.945535,4.137984,0.53784245,0
0.6000000000000003,15.419560072678435,-2.332826331225357,1.1429936433494658,0.7262095399310831,18.557259,-6.514011,3.6673322,2.801616,9.946689,-10.908506,2.8280616,-0.5270538,0.27704135,-0.40219522,-0.6954862,-5.0833416,2.8782835,0.07626865,-4.8181753,3.978776,0.56125355,0
0.6100000000000003,15.419560072678435,-2.332826331225357,1.1429936433494658,0.7262095399310831,18.557259,-6.514011,3.6673322,2.801616,9.895875,-10.8790655,2.8287337,-0.5109097,0.30099595,-0.3966258,-0.700757,-5.080638,3.010327,0.057709284,-4.430444,3.5366554,0.569348,0
0.6200000000000003,15.419560072678435,-2.332826331225357,1.1429936433494658,0.7262095399310831,18.557259,-6.514011,3.6673322,2.801616,9.845048,-10.848295,2.8292058,-0.4956632,0.32235345,-0.39095414,-0.70537984,-5.0861716,3.1439548,0.036314834,-4.103199,3.1634657,0.5770452,0
0.6300000000000003,15.419560072678435,-2.332826331225357,1.1429936433494658,0.7262095399310831,18.557259,-6.514011,3.6673322,2.801616,9.794127,-10.816183,2.8294506,-0.4812073,0.34151953,-0.38523766,-0.7095037,-5.099276,3.2785563,0.012257199,-3.8270056,2.8484597,0.5843647,0
0.6400000000000003,15.419560072678435,-2.332826331225357,1.1429936433494658,0.7262095399310831,16.798603,-5.0987086,2.120791,2.4114542,9.74304,-10.782722,2.8294423,-0.4674385,0.35883456,-0.37951332,-0.7132379,-5.1193705,3.4136457,-0.0142930355,-3.5939,2.5825653,0.59132504,0
0.6500000000000004,15.419560072678435,-2.332826331225357,1.1429936433494658,0.7262095399310831,16.798603,-5.0987086,2.120791,2.4114542,9.691719,-10.74791,2.8291564,-0.4542601,0.37458372,-0.3738037,-0.7166626,-5.1459494,3.5488312,-0.04317417,-3.3971603,2.358126,0.5979439,0
0.6600000000000004,15.419560072678435,-2.332826331225357,1.1429936433494658,0.7262095399310831,16.798603,-5.0987086,2.120791,2.4114542,9.6401005,-10.711746,2.828571,-0.44158423,0.38900587,-0.36812153,-0.71983606,-5.1785765,3.6837935,-0.07423747,-3.2311132,2.1686783,0.6042379,0
0.6700000000000004,15.419560072678435,-2.332826331225357,1.1429936433494658,0.7262095399310831,16.798603,-5.0987086,2.120791,2.4114542,9.588128,-10.674236,2.8276649,-0.42933226,0.40230092,-0.36247277,-0.7228007,-5.216873,3.8182685,-0.10734902,-3.0909708,2.0087667,0.61022305,0
0.6800000000000004,13.583424082196657,-0.6558819841656786,-0.6783616992761331,0.44008318715723715,16.630075,-4.134172,1.3218073,2.306771,9.535746,-10.635385,2.8264177,-0.41743472,0.41463622,-0.3568588,-0.725587,-5.2605124,3.9520335,-0.14239012,-2.972692,1.8737856,0.6159145,0
0.6900000000000004,13.583424082196657,-0.6558819841656786,-0.6783616992761331,0.44008318715723715,16.630075,-4.134172,1.3218073,2.306771,9.482929,-10.595279,2.8247743,-0.40640068,0.4253618,-0.35145316,-0.7282762,-5.303361,4.069081,-0.18651527,-2.6112187,1.4759395,0.6072864,0
0.7000000000000004,13.583424082196657,-0.6558819841656786,-0.6783616992761331,0.44008318715723715,16.630075,-4.134172,1.3218073,2.306771,9.429666,-10.554008,2.8226829,-0.3966511,0.43399283,-0.34641278,-0.7309692,-5.3500705,4.18523,-0.23191372,-2.3061461,1.1401106,0.5990817,0
0.7100000000000004,13.583424082196657,-0.6558819841656786,-0.6783616992761331,0.44008318715723715,16.630075,-4.134172,1.3218073,2.306771,9.375917,-10.511579,2.8201325,-0.38800478,0.4408753,-0.34170637,-0.7337013,-5.400087,4.300423,-0.27825442,-2.0486734,0.8566319,0.5912796,0
0.7200000000000004,12.487094890619268,1.0053256139322708,-2.123832331233691,0.185035036481898,16.458258,-3.8873825,-0.20758586,1.7181668,9.321654,-10.468002,2.8171153,-0.38030222,0.44629565,-0.33730015,-0.7364907,-5.4529457,4.414636,-0.32524967,-1.8313733,0.61734295,0.5838604,0
0.7300000000000004,12.487094890619268,1.0053256139322708,-2.123832331233691,0.185035036481898,16.458258,-3.8873825,-0.20758586,1.7181668,9.266872,-10.423334,2.8136053,-0.37392145,0.4498263,-0.3334195,-0.73937136,-5.5037518,4.5187364,-0.3767195,-1.3888265,0.19004449,0.5642899,0
0.7400000000000004,12.487094890619268,1.0053256139322708,-2.123832331233691,0.185035036481898,16.458258,-3.8873825,-0.20758586,1.7181668,9.211574,-10.377629,2.8095803,-0.36915997,0.45114747,-0.33024558,-0.7423774,-5.556197,4.6220193,-0.42818642,-1.0153291,-0.17065346,0.54567975,0
0.7500000000000004,12.487094890619268,1.0053256139322708,-2.123832331233691,0.185035036481898,16.458258,-3.8873825,-0.20758586,1.7181668,9.155744,-10.330895,2.8050427,-0.36577582,0.4506165,-0.32768148,-0.7455046,-5.6097183,4.72459,-0.47930333,-0.7001063,-0.47513053,0.5279828,0
0.7600000000000005,11.918056661246087,2.164706865895735,-3.3261976773378987,-0.057896531195548294,16.676767,-2.378592,-1.3562287,0.6060865,9.099376,-10.283139,2.7999969,-0.36355898,0.44852766,-0.32563832,-0.74873686,-5.6638403,4.826547,-0.5297775,-0.4340647,-0.73214823,0.51115423,0
0.7700000000000005,11.918056661246087,2.164706865895735,-3.3261976773378987,-0.057896531195548294,16.676767,-2.378592,-1.3562287,0.6060865,9.0424795,-10.234389,2.7944393,-0.36271456,0.4446042,-0.3241959,-0.75210476,-5.715657,4.9233623,-0.58155626,-0.02867335,-1.136553,0.4832307,0
0.7800000000000005,11.918056661246087,2.164706865895735,-3.3261976773378987,-0.057896531195548294,16.676767,-2.378592,-1.3562287,0.6060865,8.985065,-10.184673,2.7883697,-0.36339062,0.43863204,-0.3234076,-0.75561625,-5.767114,5.0197945,-0.6321511,0.31346518,-1.4779243,0.45667747,0
0.7900000000000005,11.918056661246087,2.164706865895735,-3.3261976773378987,-0.057896531195548294,16.676767,-2.378592,-1.3562287,0.6060865,8.927141,-10.133993,2.7818012,-0.36534,0.43091592,-0.32316044,-0.7592132,-5.817706,5.1159434,-0.68126553,0.6022222,-1.7660855,0.43142718,0
0.8000000000000005,12.019300663275533,2.651091269258913,-3.83354745289593,-0.23356799309854934,16.437109,-2.129668,-2.1430335,0.05068416,8.868716,-10.082354,2.7747502,-0.36835018,0.42170858,-0.3233545,-0.76283747,-5.8669934,5.211878,-0.7286621,0.845928,-2.0093288,0.40741593,0
0.8100000000000005,12.019300663275533,2.651091269258913,-3.83354745289593,-0.23356799309854934,16.437109,-2.129668,-2.1430335,0.05068416,8.809805,-10.029752,2.7672367,-0.37240204,0.41100016,-0.32396626,-0.7664467,-5.9149857,5.3084536,-0.7737007,1.127471,-2.2937627,0.37596264,0
0.8200000000000005,12.019300663275533,2.651091269258913,-3.83354745289593,-0.23356799309854934,16.437109,-2.129668,-2.1430335,0.05068416,8.750423,-9.976185,2.7592833,-0.37746575,0.39878815,-0.32496613,-0.76998943,-5.9608407,5.4048805,-0.816622,1.3650883,-2.5338593,0.34605283,0
0.8300000000000005,12.019300663275533,2.651091269258913,-3.83354745289593,-0.23356799309854934,16.437109,-2.129668,-2.1430335,0.05068416,8.690596,-9.921656,2.7509122,-0.3833575,0.38527718,-0.32626432,-0.773401,-6.004158,5.5011535,-0.8572725,1.565635,-2.7365286,0.31761065,0
0.8400000000000005,12.019300663275533,2.651091269258913,-3.83354745289593,-0.23356799309854934,15.658638,-2.3803725,-2.1464512,-0.027279608,8.630349,-9.866165,2.742146,-0.38992015,0.37064058,-0.3277833,-0.7766241,-6.044585,5.5972357,-0.89554745,1.7348957,-2.9076035,0.29056412,0
0.8500000000000005,12.019300663275533,2.651091269258913,-3.83354745289593,-0.23356799309854934,15.658638,-2.3803725,-2.1464512,-0.027279608,8.5697155,-9.809713,2.7330093,-0.39701948,0.3550259,-0.32945666,-0.7796085,-6.08181,5.693061,-0.9313842,1.8777523,-3.0520084,0.2648448,0
0.8600000000000005,12.019300663275533,2.651091269258913,-3.83354745289593,-0.23356799309854934,15.658638,-2.3803725,-2.1464512,-0.027279608,8.508726,-9.752305,2.7235267,-0.40454087,0.33855963,-0.33122787,-0.7823114,-6.1155577,5.788541,-0.9647573,1.9983246,-3.1739,0.24038753,0
0.8700000000000006,12.019300663275533,2.651091269258913,-3.83354745289593,-0.23356799309854934,15.658638,-2.3803725,-2.1464512,-0.027279608,8.447417,-9.693944,2.7137225,-0.41238648,0.3213507,-0.3330489,-0.7846964,-6.145585,5.883564,-0.99567354,2.1000896,-3.2767873,0.2171304,0
0.8800000000000006,12.128262119330984,2.3231924682152307,-3.6696176278023867,-0.3090410077965867,13.899477,-2.7492633,-2.038199,0.31037635,8.385828,-9.634637,2.7036214,-0.42047274,0.30349338,-0.33487928,-0.78673327,-6.1716805,5.9780025,-1.0241678,2.185982,-3.3636332,0.1950145,0
0.8900000000000006,12.128262119330984,2.3231924682152307,-3.6696176278023867,-0.3090410077965867,13.899477,-2.7492633,-2.038199,0.31037635,8.3239975,-9.574384,2.6932504,-0.42867523,0.28518045,-0.33660707,-0.7884188,-6.1938653,6.0725636,-1.0496477,2.2073312,-3.4113843,0.17028035,0
0.9000000000000006,12.128262119330984,2.3231924682152307,-3.6696176278023867,-0.3090410077965867,13.899477,-2.7492633,-2.038199,0.31037635,8.261966,-9.513188,2.6826363,-0.43689758,0.2665751,-0.33814463,-0.78975654,-6.2117944,6.1662292,-1.0728287,2.225351,-3.4516876,0.14675991,0
0.9100000000000006,12.128262119330984,2.3231924682152307,-3.6696176278023867,-0.3090410077965867,13.899477,-2.7492633,-2.038199,0.31037635,8.199777,-9.451062,2.6718016,-0.44511086,0.24771343,-0.3394934,-0.79073226,-6.225391,6.2588334,-1.0938107,2.240562,-3.485705,0.12439363,0
0.9200000000000006,12.292150347575493,1.466169638102151,-2.9851421125078015,-0.28021214108997106,13.303122,-3.3598561,-1.8142824,0.6109009,8.137473,-9.388017,2.6607673,-0.4532897,0.22862755,-0.34065503,-0.7913349,-6.2345924,6.3502073,-1.1127048,2.2534018,-3.5144157,0.10312486,0
0.9300000000000006,12.292150347575493,1.466169638102151,-2.9851421125078015,-0.28021214108997106,13.303122,-3.3598561,-1.8142824,0.6109009,8.075099,-9.324057,2.6495595,-0.4612417,0.2097193,-0.34148753,-0.79161805,-6.2394357,6.4414024,-1.1285385,2.130586,-3.4319103,0.08431439,0
0.9400000000000006,12.292150347575493,1.466169638102151,-2.9851421125078015,-0.28021214108997106,13.303122,-3.3598561,-1.8142824,0.6109009,8.012699,-9.259193,2.6382027,-0.46882948,0.19131745,-0.34188905,-0.7916485,-6.2399173,6.5310326,-1.1425319,2.0269275,-3.3622665,0.06642696,0
0.9500000000000006,12.292150347575493,1.466169638102151,-2.9851421125078015,-0.28021214108997106,13.303122,-3.3598561,-1.8142824,0.6109009,7.9503155,-9.193441,2.6267145,-0.4761045,0.17334856,-0.34191465,-0.7914342,-6.236191,6.6189666,-1.1548319,1.9394385,-3.3034794,0.049417283,0
0.9600000000000006,11.996941035856626,0.26722707260927464,-2.125316959206161,-0.12979092084975563,14.369406,-4.1823707,-0.59821993,0.58669776,7.8879895,-9.12682,2.6151114,-0.48310792,0.15574984,-0.34161052,-0.7909804,-6.2283916,6.7050824,-1.1655751,1.8655965,-3.2538571,0.033242278,0
0.9700000000000006,11.996941035856626,0.26722707260927464,-2.125316959206161,-0.12979092084975563,14.369406,-4.1823707,-0.59821993,0.58669776,7.8257604,-9.059357,2.6033974,-0.48967165,0.13896732,-0.34080803,-0.7904168,-6.2169557,6.787252,-1.1770233,1.6163117,-3.077876,0.025242204,0
0.9800000000000006,11.996941035856626,0.26722707260927464,-2.125316959206161,-0.12979092084975563,14.369406,-4.1823707,-0.59821993,0.58669776,7.763663,-8.991081,2.5915754,-0.495682,0.12335687,-0.3393867,-0.7898722,-6.2020063,6.867479,-1.1871936,1.4059058,-2.9293354,0.017634684,0
0.9900000000000007,11.996941035856626,0.26722707260927464,-2.125316959206161,-0.12979092084975563,14.369406,-4.1823707,-0.59821993,0.58669776,7.701731,-8.922014,2.5796576,-0.5012387,0.1087455,-0.337445,-0.78934413,-6.1838737,6.9457216,-1.1961827,1.2283151,-2.803957,0.010400454,0
1.0000000000000007,11.748398301567592,-0.9625699131517805,-1.0801252185735006,0.11683433689199035,14.444609,-4.7977424,0.07512714,0.82501006,7.6399956,-8.852175,2.5676553,-0.5064217,0.09498496,-0.33506435,-0.78882563,-6.1628375,7.0219507,-1.2040708,1.078421,-2.6981292,0.0035212121,0
1.0100000000000007,11.748398301567592,-0.9625699131517805,-1.0801252185735006,0.11683433689199035,14.444609,-4.7977424,0.07512714,0.82501006,7.5784817,-8.7815895,2.5555701,-0.51108927,0.08251873,-0.33214113,-0.78845406,-6.1396604,7.094615,-1.2128158,0.7601379,-2.4458,0.009081523,0
1.0200000000000007,11.748398301567592,-0.9625699131517805,-1.0801252185735006,0.11683433689199035,14.444609,-4.7977424,0.07512714,0.82501006,7.51721,-8.710287,2.5434024,-0.5151441,0.071692914,-0.3286039,-0.788356,-6.114319,7.1653414,-1.2205976,0.49148914,-2.2328236,0.014368984,0
1.0300000000000007,11.748398301567592,-0.9625699131517805,-1.0801252185735006,0.11683433689199035,14.444609,-4.7977424,0.07512714,0.82501006,7.456201,-8.638288,2.5311615,-0.5186998,0.06225788,-0.32455555,-0.78850317,-6.087225,7.2341986,-1.2274476,0.26473454,-2.0530622,0.01939698,0
1.0400000000000007,11.748398301567592,-0.9625699131517805,-1.0801252185735006,0.11683433689199035,15.6008415,-5.319099,0.6359197,1.1539874,7.3954706,-8.56561,2.5188565,-0.5218466,0.05400101,-0.32008013,-0.788865,-6.0587254,7.30125,-1.2333853,0.07334125,-1.9013354,0.024178244,0
1.0500000000000007,11.748398301567592,-0.9625699131517805,-1.0801252185735006,0.11683433689199035,15.6008415,-5.319099,0.6359197,1.1539874,7.33503,-8.49227,2.5064967,-0.5246563,0.046741623,-0.3152465,-0.78941107,-6.029111,7.366554,-1.2384236,-0.08820525,-1.7732707,0.02872492,0
1.0600000000000007,11.748398301567592,-0.9625699131517805,-1.0801252185735006,0.11683433689199035,15.6008415,-5.319099,0.6359197,1.1539874,7.2748914,-8.418285,2.494091,-0.5271863,0.04032634,-0.31011134,-0.790113,-5.9986267,7.4301605,-1.2425716,-0.22455934,-1.6651783,0.033048477,0
1.0700000000000007,11.748398301567592,-0.9625699131517805,-1.0801252185735006,0.11683433689199035,15.6008415,-5.319099,0.6359197,1.1539874,7.2150607,-8.343673,2.4816482,-0.52948254,0.03462509,-0.30472156,-0.79094446,-5.96748,7.4921145,-1.2458363,-0.33964935,-1.5739429,0.037159886,0
1.0800000000000007,11.772688468530399,-1.9887874754575574,-0.06793579370296293,0.44493475911191527,16.567448,-4.7051635,0.9065449,0.75884956,7.155544,-8.268449,2.4691772,-0.5315821,0.029527659,-0.29911616,-0.791882,-5.935847,7.552453,-1.2482244,-0.43679166,-1.4969357,0.041069537,0
1.0900000000000007,11.772688468530399,-1.9887874754575574,-0.06793579370296293,0.44493475911191527,16.567448,-4.7051635,0.9065449,0.75884956,7.0963454,-8.192628,2.4566877,-0.5333516,0.02546813,-0.29321927,-0.79303783,-5.9038353,7.6113405,-1.2495416,-0.6788138,-1.2740989,0.06088733,0
1.1000000000000008,11.772688468530399,-1.9887874754575574,-0.06793579370296293,0.44493475911191527,16.567448,-4.7051635,0.9065449,0.75884956,7.0374675,-8.116225,2.4441895,-0.53468704,0.022785433,-0.28697315,-0.79450375,-5.87182,7.6687574,-1.2499803,-0.8830973,-1.0860171,0.07973265,0
1.1100000000000008,11.772688468530399,-1.9887874754575574,-0.06793579370296293,0.44493475911191527,16.567448,-4.7051635,0.9065449,0.75884956,6.978908,-8.039256,2.4316914,-0.53565305,0.021264933,-0.28043088,-0.7962294,-5.8401155,7.7248163,-1.2495329,-1.0555263,-0.92726916,0.09765322,0
1.1200000000000008,12.13629919457067,-2.8889483572799155,0.8293416720897222,0.7638830300868069,17.098026,-4.931324,1.241488,0.8462767,6.9206634,-7.9617333,2.419202,-0.536301,0.02072506,-0.27363616,-0.7981692,-5.808988,7.779611,-1.2481946,-1.2010674,-0.7932791,0.11469443,0
1.1300000000000008,12.13629919457067,-2.8889483572799155,0.8293416720897222,0.7638830300868069,17.098026,-4.931324,1.241488,0.8462767,6.8627305,-7.8836603,2.4067461,-0.53653514,0.021481618,-0.26653045,-0.8003932,-5.7777514,7.834885,-1.2428646,-1.464299,-0.540282,0.14655028,0
1.1400000000000008,12.13629919457067,-2.8889483572799155,0.8293416720897222,0.7638830300868069,17.098026,-4.931324,1.241488,0.8462767,6.8051043,-7.80504,2.3943481,-0.5362753,0.023776425,-0.25906694,-0.8029489,-5.7477303,7.8890815,-1.2366087,-1.6864859,-0.32674414,0.17684297,0
1.1500000000000008,12.13629919457067,-2.8889483572799155,0.8293416720897222,0.7638830300868069,17.098026,-4.931324,1.241488,0.8462767,6.7477703,-7.7258816,2.3820171,-0.53557783,0.027367854,-0.25129372,-0.80576545,-5.7192836,7.94233,-1.2294282,-1.874027,-0.14650993,0.2056492,0
1.1600000000000008,12.938322441545177,-3.517718544326415,1.3573624264056567,1.066991606359237,17.266645,-5.3333287,1.4382453,1.6824042,6.690712,-7.646196,2.3697627,-0.5344872,0.03205148,-0.24325089,-0.8087795,-5.6927166,7.994732,-1.221336,-2.0323236,0.005616285,0.23304188,0
1.1700000000000008,12.938322441545177,-3.517718544326415,1.3573624264056567,1.066991606359237,17.266645,-5.3333287,1.4382453,1.6824042,6.6339164,-7.565973,2.3576288,-0.53294826,0.03795068,-0.23488192,-0.81200707,-5.6666946,8.049782,-1.2052795,-2.2640078,0.21632515,0.27396405,0
1.1800000000000008,12.938322441545177,-3.517718544326415,1.3573624264056567,1.066991606359237,17.266645,-5.3333287,1.4382453,1.6824042,6.5773683,-7.4852033,2.3456602,-0.5309092,0.045152895,-0.22614105,-0.81544834,-5.64333,8.104114,-1.1883081,-2.459565,0.39417237,0.31287813,0
1.1900000000000008,12.938322441545177,-3.517718544326415,1.3573624264056567,1.066991606359237,17.266645,-5.3333287,1.4382453,1.6824042,6.5210395,-7.4038935,2.333866,-0.52840614,0.05344964,-0.21707407,-0.8190288,-5.622963,8.157804,-1.1704699,-2.6246269,0.54428464,0.34988266,0
1.2000000000000008,13.874388977694549,-3.7659519008201037,1.5559121204194277,1.2880763568683467,18.399931,-5.1851063,1.1919096,1.4336609,6.464898,-7.3220496,2.3222537,-0.5254684,0.06266409,-0.20772026,-0.8226832,-5.6058846,8.210901,-1.1518309,-2.763948,0.6709887,0.3850714,0
1.2100000000000009,13.874388977694549,-3.7659519008201037,1.5559121204194277,1.2880763568683467,18.399931,-5.1851063,1.1919096,1.4336609,6.408915,-7.2396584,2.310874,-0.5220742,0.07275798,-0.19807495,-0.8263838,-5.5913687,8.267233,-1.1239763,-2.9202678,0.80886877,0.42938212,0
1.2200000000000009,13.874388977694549,-3.7659519008201037,1.5559121204194277,1.2880763568683467,18.399931,-5.1851063,1.1919096,1.4336609,6.353057,-7.156707,2.2997763,-0.5182015,0.083691455,-0.1881361,-0.83010054,-5.5809274,8.322973,-1.0954572,-3.0522094,0.9252493,0.4715185,0
1.2300000000000009,13.874388977694549,-3.7659519008201037,1.5559121204194277,1.2880763568683467,18.399931,-5.1851063,1.1919096,1.4336609,6.2972813,-7.073201,2.2889667,-0.51387215,0.095323354,-0.17793939,-0.83377784,-5.574808,8.378118,-1.0663959,-3.163574,1.0234843,0.5115872,0
1.2400000000000009,13.874388977694549,-3.7659519008201037,1.5559121204194277,1.2880763568683467,18.61542,-4.5419173,0.6607849,1.4053191,6.2415447,-6.989147,2.2784498,-0.50910544,0.107533455,-0.16751622,-0.8373682,-5.573217,8.432639,-1.0369306,-3.2575696,1.1064042,0.54968977,0
1.2500000000000009,13.874388977694549,-3.7659519008201037,1.5559121204194277,1.2880763568683467,18.61542,-4.5419173,0.6607849,1.4053191,6.1858006,-6.9045506,2.2682292,-0.50391847,0.120219275,-0.15689449,-0.8408309,-5.5763245,8.486497,-1.0072116,-3.336904,1.1763976,0.5859226,0
1.260000000000001,13.874388977694549,-3.7659519008201037,1.5559121204194277,1.2880763568683467,18.61542,-4.5419173,0.6607849,1.4053191,6.1300015,-6.819419,2.2583063,-0.49832666,0.13329329,-0.14609909,-0.84413123,-5.584268,8.539634,-0.9774,-3.4038641,1.2354808,0.6203775,0
1.270000000000001,13.874388977694549,-3.7659519008201037,1.5559121204194277,1.2880763568683467,18.61542,-4.5419173,0.6607849,1.4053191,6.074098,-6.73376,2.2486808,-0.49234426,0.14668067,-0.13515234,-0.84723955,-5.5971565,8.591979,-0.9476651,-3.4603791,1.2853552,0.6531417,0
1.280000000000001,14.264159083207396,-3.582874660046967,1.4311655570319486,1.3292897051367896,17.660227,-3.3432505,-0.1033514,1.2867742,6.0180407,-6.647582,2.239352,-0.48598456,0.16031727,-0.12407435,-0.8501307,-5.6150723,8.643453,-0.9181828,-3.5080779,1.3274571,0.68429804,0
1.290000000000001,14.264159083207396,-3.582874660046967,1.4311655570319486,1.3292897051367896,17.660227,-3.3432505,-0.1033514,1.2867742,5.961776,-6.5608873,2.2303338,-0.47927427,0.17406967,-0.112922505,-0.85278577,-5.6387134,8.695387,-0.8855605,-3.5197773,1.3435525,0.715948,0
1.300000000000001,14.264159083207396,-3.582874660046967,1.4311655570319486,1.3292897051367896,17.660227,-3.3432505,-0.1033514,1.2867742,5.905248,-6.473679,2.221639,-0.47223845,0.18782955,-0.10174563,-0.8551946,-5.6675777,8.746238,-0.853563,-3.5296504,1.3571419,0.7460449,0
1.310000000000001,14.264159083207396,-3.582874660046967,1.4311655570319486,1.3292897051367896,17.660227,-3.3432505,-0.1033514,1.2867742,5.848407,-6.3859673,2.2132597,-0.46488687,0.20157965,-0.09054922,-0.85734814,-5.70164,8.795907,-0.82236826,-3.537982,1.3686157,0.77466476,0
1.320000000000001,14.743156349152393,-3.110554711693647,0.8120742794034017,1.3012852272489412,17.15156,-2.919662,-0.52052003,1.2935961,5.7911983,-6.2977653,2.205188,-0.45722896,0.21530461,-0.07933871,-0.85923815,-5.7408633,8.844291,-0.79215276,-3.5450125,1.3783039,0.80188036,0
1.330000000000001,14.743156349152393,-3.110554711693647,0.8120742794034017,1.3012852272489412,17.15156,-2.919662,-0.52052003,1.2935961,5.7335644,-6.209078,2.1974342,-0.44933864,0.22869289,-0.0681689,-0.86089873,-5.786671,8.89286,-0.75881314,-3.4772334,1.2899805,0.82638633,0
1.340000000000001,14.743156349152393,-3.110554711693647,0.8120742794034017,1.3012852272489412,17.15156,-2.919662,-0.52052003,1.2935961,5.675447,-6.119913,2.1900074,-0.44128212,0.24150056,-0.05708748,-0.8623734,-5.8375673,8.939851,-0.72677803,-3.4200287,1.21543,0.8496897,0
1.350000000000001,14.743156349152393,-3.110554711693647,0.8120742794034017,1.3012852272489412,17.15156,-2.919662,-0.52052003,1.2935961,5.616796,-6.0302863,2.182894,-0.4330573,0.25380594,-0.046089116,-0.86366606,-5.8933516,8.985127,-0.69614565,-3.3717482,1.1525048,0.87184966,0
1.360000000000001,14.491577439562072,-2.339601770475947,-0.19078702184080817,1.112564731824231,15.523624,-2.0922081,-1.2377112,1.1573203,5.557564,-5.9402165,2.1760793,-0.42466307,0.26567474,-0.035169,-0.8647778,-5.953837,9.028566,-0.6670112,-3.331,1.0993922,0.89292216,0
1.370000000000001,14.491577439562072,-2.339601770475947,-0.19078702184080817,1.112564731824231,15.523624,-2.0922081,-1.2377112,1.1573203,5.4977098,-5.8497257,2.1695375,-0.4162173,0.27668673,-0.024414638,-0.8658007,-6.0177126,9.069339,-0.6415953,-3.1762817,0.89825696,0.90370005,0
1.380000000000001,14.491577439562072,-2.339601770475947,-0.19078702184080817,1.112564731824231,15.523624,-2.0922081,-1.2377112,1.1573203,5.4371953,-5.7588367,2.163242,-0.40782338,0.28651896,-0.013898383,-0.8668294,-6.085671,9.108048,-0.61770284,-3.045707,0.7284776,0.9139491,0
1.390000000000001,14.491577439562072,-2.339601770475947,-0.19078702184080817,1.112564731824231,15.523624,-2.0922081,-1.2377112,1.1573203,5.375983,-5.6675725,2.1571784,-0.39946035,0.29535216,-0.0035945892,-0.86786234,-6.1573606,9.144568,-0.5952789,-2.935509,0.58516556,0.9236952,0
1.400000000000001,14.15945118014052,-1.495322284296416,-1.200885681385109,0.80827140066249,15.465969,-1.4966007,-2.2557797,1.0663882,5.3140364,-5.575954,2.1513314,-0.39111,0.30333796,0.0065197125,-0.8688935,-6.232476,9.178791,-0.5742757,-2.8425078,0.4641948,0.93296313,0
1.410000000000001,14.15945118014052,-1.495322284296416,-1.200885681385109,0.80827140066249,15.465969,-1.4966007,-2.2557797,1.0663882,5.2513313,-5.4840083,2.1456742,-0.38289037,0.3101219,0.0163395,-0.87002975,-6.308931,9.209894,-0.557332,-2.6322563,0.20466457,0.9268445,0
1.420000000000001,14.15945118014052,-1.495322284296416,-1.200885681385109,0.80827140066249,15.465969,-1.4966007,-2.2557797,1.0663882,5.1878486,-5.3917637,2.1401806,-0.37490186,0.31543526,0.025781434,-0.871369,-6.388039,9.238573,-0.5415579,-2.4548197,-0.014413957,0.921026,0
1.430000000000001,14.15945118014052,-1.495322284296416,-1.200885681385109,0.80827140066249,15.465969,-1.4966007,-2.2557797,1.0663882,5.1235633,-5.299245,2.1348395,-0.36710495,0.3195093,0.03489484,-0.8728857,-6.469402,9.264753,-0.52677417,-2.3050766,-0.19934547,0.9154931,0
1.440000000000001,14.15945118014052,-1.495322284296416,-1.200885681385109,0.80827140066249,15.255009,-0.71135354,-3.20078,0.83852077,5.0584545,-5.206477,2.1296422,-0.3594651,0.32253724,0.043722786,-0.87455255,-6.552678,9.288378,-0.5128246,-2.1787043,-0.3554522,0.9102317,0
1.450000000000001,14.15945118014052,-1.495322284296416,-1.200885681385109,0.80827140066249,15.255009,-0.71135354,-3.20078,0.83852077,4.9925046,-5.1134863,2.1245806,-0.3519525,0.324681,0.052302755,-0.87634206,-6.637575,9.309401,-0.49957523,-2.0720546,-0.4872271,0.9052285,0
1.460000000000001,14.15945118014052,-1.495322284296416,-1.200885681385109,0.80827140066249,15.255009,-0.71135354,-3.20078,0.83852077,4.9256988,-5.020298,2.1196485,-0.34454176,0.32607606,0.06066727,-0.8782279,-6.723841,9.327788,-0.48691258,-1.9820497,-0.5984625,0.90047085,0
1.470000000000001,14.15945118014052,-1.495322284296416,-1.200885681385109,0.80827140066249,15.255009,-0.71135354,-3.20078,0.83852077,4.858024,-4.9269395,2.1148407,-0.3372115,0.32683605,0.068844475,-0.8801854,-6.811256,9.3435135,-0.47474173,-1.9060917,-0.69236,0.89594656,0
1.480000000000001,14.185715338010828,-0.6711201643819199,-1.7548668441190207,0.4741832755898586,15.196335,-0.15971161,-3.6893523,0.4322927,4.78947,-4.8334374,2.1101525,-0.3299437,0.3270563,0.07685868,-0.8821924,-6.8996277,9.356555,-0.46298432,-1.8419882,-0.7716215,0.8916443,0
1.490000000000001,14.185715338010828,-0.6711201643819199,-1.7548668441190207,0.4741832755898586,15.196335,-0.15971161,-3.6893523,0.4322927,4.7200284,-4.7398176,2.105581,-0.32285064,0.32651037,0.08452572,-0.8843151,-6.988934,9.366925,-0.45135862,-1.6593153,-0.9248297,0.8711593,0
1.500000000000001,14.185715338010828,-0.6711201643819199,-1.7548668441190207,0.4741832755898586,15.196335,-0.15971161,-3.6893523,0.4322927,4.6496906,-4.646108,2.1011245,-0.31602547,0.32502562,0.09170085,-0.88660955,-7.0787354,9.374637,-0.43991846,-1.5051467,-1.0541669,0.85167956,0
1.5100000000000011,14.185715338010828,-0.6711201643819199,-1.7548668441190207,0.4741832755898586,15.196335,-0.15971161,-3.6893523,0.4322927,4.578453,-4.5523343,2.0967824,-0.3094281,0.32274708,0.09845692,-0.8890411,-7.1687603,9.379743,-0.42850864,-1.3750342,-1.1633519,0.8331557,0
1.5200000000000011,13.2388727518771,0.08381150884465983,-2.3306205058784393,0.11213608173703883,15.290035,0.3556554,-4.146487,0.23302692,4.506315,-4.4585223,2.0925548,-0.30302432,0.31979603,0.10485593,-0.891578,-7.2587733,9.38229,-0.41699982,-1.2652236,-1.255524,0.8155408,0
1.5300000000000011,13.2388727518771,0.08381150884465983,-2.3306205058784393,0.11213608173703883,15.290035,0.3556554,-4.146487,0.23302692,4.433308,-4.364697,2.0884066,-0.2968969,0.31597292,0.11076451,-0.894284,-7.3425617,9.382328,-0.41260153,-1.0547851,-1.4230491,0.78102446,0
1.5400000000000011,13.2388727518771,0.08381150884465983,-2.3306205058784393,0.11213608173703883,15.290035,0.3556554,-4.146487,0.23302692,4.359466,-4.270883,2.084304,-0.29111278,0.31112483,0.11607927,-0.89720654,-7.4258575,9.380105,-0.4078269,-0.8771831,-1.564475,0.7482019,0
1.5500000000000012,13.2388727518771,0.08381150884465983,-2.3306205058784393,0.11213608173703883,15.290035,0.3556554,-4.146487,0.23302692,4.284794,-4.1771026,2.080252,-0.28562355,0.30540714,0.120889485,-0.9002948,-7.5083914,9.375709,-0.40250936,-0.72729254,-1.6838671,0.71698993,0
1.5600000000000012,12.391114095193593,0.6830453049465928,-2.7348802260334737,-0.24877662102618503,14.358778,0.5484272,-4.7960243,0.23271859,4.2093015,-4.0833764,2.0762563,-0.28038794,0.29894996,0.12527078,-0.9035032,-7.589929,9.369212,-0.39651456,-0.60078865,-1.7846571,0.6873096,0
1.5700000000000012,12.391114095193593,0.6830453049465928,-2.7348802260334737,-0.24877662102618503,14.358778,0.5484272,-4.7960243,0.23271859,4.133025,-3.9897225,2.072291,-0.27546185,0.29164365,0.12912847,-0.9068571,-7.6651106,9.36124,-0.39644286,-0.40056682,-1.932742,0.64137566,0
1.5800000000000012,12.391114095193593,0.6830453049465928,-2.7348802260334737,-0.24877662102618503,14.358778,0.5484272,-4.7960243,0.23271859,4.056004,-3.8961575,2.0683305,-0.2708901,0.28340548,0.13239023,-0.91036904,-7.7389126,9.351473,-0.39549106,-0.23158431,-2.0577576,0.59769565,0
1.5900000000000012,12.391114095193593,0.6830453049465928,-2.7348802260334737,-0.24877662102618503,14.358778,0.5484272,-4.7960243,0.23271859,3.9782526,-3.8026989,2.0643845,-0.26662508,0.27437207,0.13514532,-0.9139835,-7.811099,9.340009,-0.39353547,-0.08896573,-2.1632965,0.556159,0
1.6000000000000012,11.864098740220356,0.9666841153248862,-2.940196217168684,-0.5882855499852339,13.825048,0.9590795,-4.9417505,-0.09947663,3.8997884,-3.709363,2.0604634,-0.26262647,0.26465836,0.13746913,-0.91765165,-7.8814616,9.326937,-0.39048377,0.03140346,-2.2523918,0.51666063,0
1.6100000000000012,11.864098740220356,0.9666841153248862,-2.940196217168684,-0.5882855499852339,13.825048,0.9590795,-4.9417505,-0.09947663,3.8206449,-3.6161623,2.0565572,-0.25891662,0.25425026,0.13935333,-0.921357,-7.946903,9.312963,-0.39061853,0.17721279,-2.3596113,0.4624406,0
1.6200000000000012,11.864098740220356,0.9666841153248862,-2.940196217168684,-0.5882855499852339,13.825048,0.9590795,-4.9417505,-0.09947663,3.7408576,-3.5231085,2.0526555,-0.25551474,0.24314027,0.14079443,-0.92507887,-8.010223,9.297616,-0.38957176,0.30027553,-2.450126,0.41088116,0
1.6300000000000012,11.864098740220356,0.9666841153248862,-2.940196217168684,-0.5882855499852339,13.825048,0.9590795,-4.9417505,-0.09947663,3.6604486,-3.4302144,2.0487702,-0.25238466,0.23142704,0.14185749,-0.9287728,-8.071239,9.280982,-0.38729566,0.40414134,-2.526537,0.36185172,0
1.6400000000000012,11.864098740220356,0.9666841153248862,-2.940196217168684,-0.5882855499852339,13.398844,1.2061346,-4.724933,-0.1944567,3.5794413,-3.337493,2.044914,-0.2494954,0.21919428,0.14259732,-0.93240064,-8.129788,9.263135,-0.3837664,0.491806,-2.591041,0.3152282,0
1.6500000000000012,11.864098740220356,0.9666841153248862,-2.940196217168684,-0.5882855499852339,13.398844,1.2061346,-4.724933,-0.1944567,3.4978614,-3.2449555,2.0410993,-0.24682035,0.2065132,0.14305998,-0.93592995,-8.185724,9.244144,-0.3789809,0.5657978,-2.6454926,0.27089253,0
1.6600000000000013,11.864098740220356,0.9666841153248862,-2.940196217168684,-0.5882855499852339,13.398844,1.2061346,-4.724933,-0.1944567,3.415736,-3.1526136,2.0373385,-0.2443366,0.19344462,0.14328423,-0.93933356,-8.238917,9.2240715,-0.37295386,0.62825,-2.6914575,0.22873244,0
1.6700000000000013,11.864098740220356,0.9666841153248862,-2.940196217168684,-0.5882855499852339,13.398844,1.2061346,-4.724933,-0.1944567,3.3330925,-3.0604777,2.033644,-0.24202439,0.18004066,0.1433026,-0.94258845,-8.289251,9.202975,-0.3657152,0.680963,-2.7302582,0.18864115,0
1.6800000000000013,11.47289562621144,1.1412570252392735,-2.4058870218892134,-0.8077346040014214,12.560696,0.99125266,-4.3939915,-0.12850326,3.2499607,-2.9685576,2.030028,-0.23986651,0.16634597,0.14314239,-0.9456756,-8.336621,9.180907,-0.35730785,0.7254565,-2.7630105,0.15051714,0
1.6900000000000013,11.47289562621144,1.1412570252392735,-2.4058870218892134,-0.8077346040014214,12.560696,0.99125266,-4.3939915,-0.12850326,3.1663778,-2.8768592,2.0264843,-0.23791592,0.15258124,0.14271392,-0.9485498,-8.379481,9.158683,-0.3513359,0.7902117,-2.707335,0.103495434,0
1.7000000000000013,11.47289562621144,1.1412570252392735,-2.4058870218892134,-0.8077346040014214,12.560696,0.99125266,-4.3939915,-0.12850326,3.0823812,-2.7853868,2.0230052,-0.23621753,0.13892536,0.14194857,-0.9511838,-8.419363,9.135673,-0.3443555,0.84487605,-2.6603453,0.05878113,0
1.7100000000000013,11.47289562621144,1.1412570252392735,-2.4058870218892134,-0.8077346040014214,12.560696,0.99125266,-4.3939915,-0.12850326,2.9980009,-2.694148,2.0196004,-0.2347462,0.1253576,0.14089562,-0.9535864,-8.456255,9.1119795,-0.33643878,0.8910224,-2.6206856,0.016260955,0
1.7200000000000013,11.064158409776018,1.0847319296354019,-1.759962677820604,-0.9607176259781258,12.497368,1.0041503,-3.911055,-0.2719218,2.9132664,-2.6031497,2.0162792,-0.23348,0.1118607,0.13959646,-0.95576465,-8.490147,9.087692,-0.3276582,0.92997783,-2.587212,-0.024172748,0
1.7300000000000013,11.064158409776018,1.0847319296354019,-1.759962677820604,-0.9607176259781258,12.497368,1.0041503,-3.911055,-0.2719218,2.828214,-2.512392,2.0130308,-0.23245186,0.098670535,0.13804953,-0.9576907,-8.5199375,9.063775,-0.32192487,0.95403975,-2.4582317,-0.07012927,0
1.7400000000000013,11.064158409776018,1.0847319296354019,-1.759962677820604,-0.9607176259781258,12.497368,1.0041503,-3.911055,-0.2719218,2.7428775,-2.4218755,2.009843,-0.2316907,0.08597461,0.13625674,-0.95935434,-8.546903,9.039461,-0.31551343,0.9743589,-2.349366,-0.11383069,0
1.7500000000000013,11.064158409776018,1.0847319296354019,-1.759962677820604,-0.9607176259781258,12.497368,1.0041503,-3.911055,-0.2719218,2.6572852,-2.3316038,2.006723,-0.23117271,0.07369438,0.13425449,-0.96078247,-8.571121,9.014842,-0.3085027,0.9915172,-2.257477,-0.15538767,0
1.7600000000000013,10.779933871199432,0.8779836693405652,-1.028357203651599,-1.0209891992691151,11.467545,0.08963237,-2.8397374,0.074010976,2.5714643,-2.2415793,2.0036752,-0.23087671,0.061763495,0.1320731,-0.9619962,-8.592663,8.989994,-0.30096397,1.0060056,-2.1799173,-0.19490544,0
1.7700000000000014,10.779933871199432,0.8779836693405652,-1.028357203651599,-1.0209891992691151,11.467545,0.08963237,-2.8397374,0.074010976,2.4854436,-2.1518013,2.0006914,-0.23082522,0.050425973,0.12975073,-0.96298516,-8.611112,8.965628,-0.29569027,0.9860104,-2.0003557,-0.2354416,0
1.7800000000000014,10.779933871199432,0.8779836693405652,-1.028357203651599,-1.0209891992691151,11.467545,0.08963237,-2.8397374,0.074010976,2.3992505,-2.0622675,1.9977624,-0.2310375,0.03987297,0.12731987,-0.9637532,-8.627165,8.941179,-0.29003665,0.9691402,-1.8487947,-0.27398863,0
1.7900000000000014,10.779933871199432,0.8779836693405652,-1.028357203651599,-1.0209891992691151,11.467545,0.08963237,-2.8397374,0.074010976,2.3129082,-1.9729781,1.9948918,-0.23149095,0.029981367,0.12479609,-0.9643328,-8.64097,8.916714,-0.28406385,0.95490587,-1.7208681,-0.31064418,0
1.8000000000000014,10.608313548442194,0.5911466275625541,-0.46800132504993835,-1.0038220194343406,12.192322,0.11214123,-2.4667635,-0.3239795,2.2264388,-1.8839331,1.9920821,-0.23216523,0.020647041,0.122192174,-0.96474916,-8.652656,8.892286,-0.2778226,0.9428949,-1.6128904,-0.345501,0
1.8100000000000014,10.608313548442194,0.5911466275625541,-0.46800132504993835,-1.0038220194343406,12.192322,0.11214123,-2.4667635,-0.3239795,2.1398633,-1.7951301,1.9893278,-0.23306556,0.012025386,0.119577445,-0.9650057,-8.662184,8.868329,-0.2730217,0.8880497,-1.4343519,-0.377805,0
1.8200000000000014,10.608313548442194,0.5911466275625541,-0.46800132504993835,-1.0038220194343406,12.192322,0.11214123,-2.4667635,-0.3239795,2.0532014,-1.706566,1.9866223,-0.23419555,0.004235251,0.117007695,-0.9651128,-8.66991,8.844491,-0.26804194,0.84175897,-1.2836555,-0.40852383,0
1.8300000000000014,10.608313548442194,0.5911466275625541,-0.46800132504993835,-1.0038220194343406,12.192322,0.11214123,-2.4667635,-0.3239795,1.9664708,-1.6182395,1.9839675,-0.23553547,-0.0028538527,0.11447436,-0.9650956,-8.676001,8.820803,-0.2629179,0.80268776,-1.1564596,-0.43773526,0
1.8400000000000014,10.608313548442194,0.5911466275625541,-0.46800132504993835,-1.0038220194343406,11.988659,-0.33781663,-2.173606,-0.16316426,1.8796868,-1.5301492,1.9813645,-0.23706752,-0.009352144,0.11197004,-0.96497315,-8.680596,8.797289,-0.25767642,0.7697096,-1.0490996,-0.4655133,0
1.8500000000000014,10.608313548442194,0.5911466275625541,-0.46800132504993835,-1.0038220194343406,11.988659,-0.33781663,-2.173606,-0.16316426,1.7928636,-1.4422932,1.9788144,-0.23877566,-0.015352672,0.10948842,-0.96475995,-8.683813,8.77397,-0.25233862,0.74187356,-0.95848197,-0.49192828,0
1.8600000000000014,10.608313548442194,0.5911466275625541,-0.46800132504993835,-1.0038220194343406,11.988659,-0.33781663,-2.173606,-0.16316426,1.7060148,-1.3546692,1.976318,-0.24064541,-0.02093395,0.10702416,-0.96446687,-8.685752,8.750862,-0.24692152,0.71837777,-0.8819961,-0.51704705,0
1.8700000000000014,10.608313548442194,0.5911466275625541,-0.46800132504993835,-1.0038220194343406,11.988659,-0.33781663,-2.173606,-0.16316426,1.6191525,-1.2672752,1.9738761,-0.2426638,-0.0261622,0.10457276,-0.9641024,-8.686498,8.72798,-0.24143901,0.6985451,-0.817438,-0.54093325,0
1.8800000000000014,10.435051684463277,0.3141957347839577,0.39238954033897966,-0.8778146810777944,11.389967,-0.9914895,-2.0457873,0.15018398,1.5322886,-1.1801089,1.9714893,-0.24481915,-0.031093258,0.10213041,-0.9636728,-8.686119,8.705333,-0.23590279,0.6818042,-0.7629478,-0.56364733,0
1.8900000000000015,10.435051684463277,0.3141957347839577,0.39238954033897966,-0.8778146810777944,11.389967,-0.9914895,-2.0457873,0.15018398,1.4454337,-1.093166,1.9691497,-0.24712463,-0.03541365,0.099716745,-0.96318793,-8.684716,8.683298,-0.23201536,0.62453574,-0.58275884,-0.57906365,0
1.9000000000000015,10.435051684463277,0.3141957347839577,0.39238954033897966,-0.8778146810777944,11.389967,-0.9914895,-2.0457873,0.15018398,1.3585972,-1.0064421,1.9668492,-0.24958788,-0.038877174,0.09734671,-0.9626615,-8.682442,8.661533,-0.22808564,0.57619137,-0.4306722,-0.5937234,0
1.9100000000000015,10.435051684463277,0.3141957347839577,0.39238954033897966,-0.8778146810777944,11.389967,-0.9914895,-2.0457873,0.15018398,1.2717872,-0.9199343,1.9645883,-0.25219125,-0.04161787,0.09501129,-0.9621016,-8.679461,8.640067,-0.22411077,0.5353801,-0.3023054,-0.60766387,0
1.9200000000000015,10.372194987611838,0.04311579970050099,1.010122814560944,-0.714981299938696,11.218271,-1.2918272,-1.8467005,0.2573356,1.1850098,-0.83363956,1.9623674,-0.2549192,-0.04374882,0.092703015,-0.96151304,-8.675911,8.618924,-0.22008644,0.5009277,-0.19395883,-0.62092024,0
1.9300000000000015,10.372194987611838,0.04311579970050099,1.010122814560944,-0.714981299938696,11.218271,-1.2918272,-1.8467005,0.2573356,1.0982702,-0.74755394,1.9601839,-0.2577664,-0.045098174,0.09045758,-0.9609054,-8.671948,8.598253,-0.21662255,0.42960802,-0.0061554685,-0.62553585,0
1.9400000000000015,10.372194987611838,0.04311579970050099,1.010122814560944,-0.714981299938696,11.218271,-1.2918272,-1.8467005,0.2573356,1.0115716,-0.6616732,1.9580352,-0.26072446,-0.045534275,0.08830246,-0.96028703,-8.667728,8.577954,-0.21309392,0.36939967,0.15235604,-0.62992495,0
1.9500000000000015,10.372194987611838,0.04311579970050099,1.010122814560944,-0.714981299938696,11.218271,-1.2918272,-1.8467005,0.2573356,0.9249159,-0.5759935,1.9559221,-0.26377642,-0.04519927,0.086221084,-0.9596583,-8.663428,8.558055,-0.20948969,0.31857145,0.2861443,-0.6340987,0
1.9600000000000015,10.348237000866375,-0.18972573729489825,1.3492460917790317,-0.5286023074051471,11.059971,-1.1815886,-2.2213445,0.34161732,0.8383029,-0.49051064,1.9538455,-0.26690772,-0.044213124,0.08419962,-0.95901775,-8.659194,8.53858,-0.20580062,0.275662,0.39906538,-0.6380676,0
1.9700000000000015,10.348237000866375,-0.18972573729489825,1.3492460917790317,-0.5286023074051471,11.059971,-1.1815886,-2.2213445,0.34161732,0.75173134,-0.40522012,1.9518051,-0.27009907,-0.04252005,0.08228059,-0.9583671,-8.655166,8.519595,-0.20225449,0.20314464,0.5472765,-0.6326961,0
1.9800000000000015,10.348237000866375,-0.18972573729489825,1.3492460917790317,-0.5286023074051471,11.059971,-1.1815886,-2.2213445,0.34161732,0.66519845,-0.32011715,1.9498007,-0.27333063,-0.040080596,0.08049679,-0.9577073,-8.651486,8.501075,-0.19860964,0.14192598,0.6723689,-0.62758815,0
1.9900000000000015,10.348237000866375,-0.18972573729489825,1.3492460917790317,-0.5286023074051471,11.059971,-1.1815886,-2.2213445,0.34161732,0.5786999,-0.23519695,1.9478334,-0.27659005,-0.037010256,0.07882473,-0.95703393,-8.648301,8.483035,-0.19486187,0.09024576,0.777949,-0.6227309,0
2.0000000000000013,,,,,10.337944,-1.9809413,-1.6314172,0.95988804,0.4922302,-0.1504547,1.945904,-0.279867,-0.03340661,0.07724482,-0.9563424,-8.64573,8.465493,-0.19100998,0.046617817,0.8670602,-0.618112,0
2.010000000000001,,,,,10.337944,-1.9809413,-1.6314172,0.95988804,0.4057827,-0.06588477,1.9440103,-0.2831335,-0.029335564,0.07578719,-0.95563084,-8.6438875,8.448573,-0.18772201,-0.009022188,0.94281226,-0.60500276,0
2.020000000000001,,,,,10.337944,-1.9809413,-1.6314172,0.95988804,0.31934965,0.018518532,1.9421499,-0.286364,-0.02485333,0.074475035,-0.9548982,-8.642851,8.432166,-0.1843385,-0.05599061,1.0067464,-0.59253675,0
2.0300000000000007,,,,,10.337944,-1.9809413,-1.6314172,0.95988804,0.23292261,0.10276033,1.9403237,-0.28955397,-0.020023052,0.07328398,-0.95414156,-8.642699,8.416274,-0.18086801,-0.09563859,1.0607067,-0.58068246,0
2.0400000000000005,,,,,10.337944,-1.9809413,-1.6314172,0.95988804,0.14649239,0.18684581,1.9385327,-0.29270002,-0.014898187,0.072193556,-0.9533582,-8.6435,8.400901,-0.17732091,-0.12910709,1.1062491,-0.56940985,0
2.0500000000000003,,,,,10.288931,-2.0136523,-1.6984264,1.2064668,0.060049154,0.27078015,1.9367777,-0.29579964,-0.009524011,0.071186624,-0.9525457,-8.64531,8.38605,-0.1737091,-0.15735915,1.1446868,-0.55869037,1
2.06,,,,,10.288931,-2.0136523,-1.6984264,1.2064668,-0.026419308,0.35455823,1.9351315,-0.29864472,-0.0046318425,0.07077409,-0.9517247,-8.648547,8.3696995,-0.15590322,-0.29929322,0.8490457,-0.4852991,1
2.07,,,,,10.288931,-2.0136523,-1.6984264,1.2064668,-0.11292504,0.43817645,1.9336507,-0.30103752,-0.0008586498,0.07147592,-0.950929,-8.652731,8.354026,-0.1406574,-0.44611603,0.5724406,-0.41309002,1
2.0799999999999996,,,,,10.288931,-2.0136523,-1.6984264,1.2064668,-0.19947645,0.52163994,1.9323097,-0.3029892,0.0018894309,0.07328684,-0.95016944,-8.657654,8.3387,-0.12794569,-0.59632546,0.31264564,-0.34207153,1
2.0899999999999994,,,,,10.266655,-3.3194664,-2.8846064,1.6939232,-0.28608006,0.60495055,1.9310833,-0.30450806,0.0036944067,0.07619721,-0.94944936,-8.663142,8.32342,-0.11773932,-0.748688,0.0677474,-0.2722486,1
2.099999999999999,,,,,10.266655,-3.3194664,-2.8846064,1.6939232,-0.37274498,0.6880963,1.9300231,-0.3055728,0.004609462,0.08030748,-0.94876426,-8.6699,8.305663,-0.09475497,-0.9426515,-0.18569894,-0.1942932,1
2.109999999999999,,,,,10.266655,-3.3194664,-2.8846064,1.6939232,-0.45947927,0.7710618,1.9291784,-0.30615953,0.004675587,0.08570702,-0.9481021,-8.676998,8.287309,-0.07459902,-1.134291,-0.42759073,-0.11766403,1
2.1199999999999988,,,,,10.266655,-3.3194664,-2.8846064,1.6939232,-0.54628575,0.8538394,1.9285213,-0.3062688,0.0039439523,0.0923659,-0.94744456,-8.684317,8.268044,-0.057255585,-1.3232464,-0.6590032,-0.042360894,1
2.1299999999999986,,,,,9.999569,-3.409746,-3.011489,1.9536945,-0.63316596,0.9364186,1.9280236,-0.30589935,0.0024603629,0.10025334,-0.946767,-8.691754,8.247594,-0.042717323,-1.5092423,-0.8808743,0.031619117,1
2.1399999999999983,,,,,9.999569,-3.409746,-3.011489,1.9536945,-0.7201215,1.018784,1.9276682,-0.30503744,0.00031573582,0.10922223,-0.94605577,-8.69937,8.225267,-0.028745256,-1.6544375,-1.0621041,0.11240716,1
2.149999999999998,,,,,9.999569,-3.409746,-3.011489,1.9536945,-0.80715317,1.1009182,1.9274392,-0.30367017,-0.0024094072,0.11914278,-0.94529504,-8.706946,8.201261,-0.017454073,-1.8006938,-1.2388061,0.19135159,1
2.159999999999998,,,,,9.999569,-3.409746,-3.011489,1.9536945,-0.89426005,1.1828032,1.9273098,-0.3017952,-0.005690352,0.13000754,-0.94444925,-8.714409,8.175421,-0.008881351,-1.9474512,-1.4112893,0.2685075,1
2.1699999999999977,,,,,9.984777,-2.1747365,-3.0643697,1.266851,-0.98144066,1.2644199,1.9272522,-0.29940912,-0.009504411,0.14180583,-0.9434798,-8.721686,8.147614,-0.0030737321,-2.0942361,-1.5798156,0.3439273,1
2.1799999999999975,,,,,9.984777,-2.1747365,-3.0643697,1.266851,-1.0686909,1.3457569,1.9272093,-0.29654494,-0.014111289,0.15426207,-0.9423716,-8.728311,8.1193695,-0.00563636,-2.1066852,-1.8113959,0.3892154,1
