time-since-start [s],throttle_mpc,roll_mpc,pitch_mpc,yaw_mpc,throttle_nw,roll_nw,pitch_nw,yaw_nw,position_x [m],position_y [m],position_z [m],rotation_w [quaternion],rotation_x [quaternion],rotation_y [quaternion],rotation_z [quaternion],velocity_x [m/s],velocity_y [m/s],velocity_z [m/s],omega_x [rad/s],omega_y [rad/s],omega_z [rad/s],network_used
0.0,9.266854554202801,5.9999996349568265,-5.999999921622827,-4.901881503874058,8.029401,1.9176894,-3.777413,-2.2008588,18.807838,-9.694801,2.0241354,0.06314813,0.42173484,-0.27745736,-0.86091197,-10.601575,-4.6785994,0.43607044,1.5941268,-0.072918124,-0.63078696,0
0.01,9.266854554202801,5.9999996349568265,-5.999999921622827,-4.901881503874058,13.424895,-1.1985434,-4.77632,-1.2357272,18.7012,-9.741238,2.0284057,0.05658382,0.42247066,-0.28275952,-0.859281,-10.725774,-4.6084113,0.41762605,1.5444833,-0.26073182,-0.7745044,0
0.02,9.266854554202801,5.9999996349568265,-5.999999921622827,-4.901881503874058,13.424895,-1.1985434,-4.77632,-1.2357272,18.59333,-9.786965,2.03248,0.049214605,0.4225663,-0.2876534,-0.85806245,-10.847533,-4.5370555,0.3969294,1.5278792,-0.4445905,-0.91343325,0
0.03,9.266854554202801,5.9999996349568265,-5.999999921622827,-4.901881503874058,13.424895,-1.1985434,-4.77632,-1.2357272,18.484257,-9.831974,2.0363371,0.04099725,0.42203978,-0.29226997,-0.85719305,-10.96662,-4.4645605,0.3742133,1.5395523,-0.6255059,-1.0478433,0
0.04,9.266854554202801,5.9999996349568265,-5.999999921622827,-4.901881503874058,9.884869,-0.24597056,-6.440019,-1.6755127,18.374006,-9.876253,2.039958,0.03189565,0.42089987,-0.29671907,-0.8566117,-11.082812,-4.3909254,0.34968168,1.5753937,-0.80424047,-1.1779833,0
0.05,9.266854554202801,5.9999996349568265,-5.999999921622827,-4.901881503874058,9.884869,-0.24597056,-6.440019,-1.6755127,18.26261,-9.919788,2.0433252,0.021880263,0.41914764,-0.3010921,-0.8562593,-11.195892,-4.3161287,0.32351398,1.6318539,-0.9813549,-1.304082,0
0.060000000000000005,9.266854554202801,5.9999996349568265,-5.999999921622827,-4.901881503874058,9.884869,-0.24597056,-6.440019,-1.6755127,18.150099,-9.96257,2.0464232,0.010927585,0.4167778,-0.30546418,-0.8560774,-11.305648,-4.2401366,0.2958692,1.7058632,-1.1572493,-1.4263508,0
0.07,9.266854554202801,5.9999996349568265,-5.999999921622827,-4.901881503874058,9.884869,-0.24597056,-6.440019,-1.6755127,18.036509,-10.004586,2.049238,-0.0009802652,0.41377985,-0.30989626,-0.856008,-11.411873,-4.1629105,0.26688904,1.7947656,-1.3321942,-1.5449849,0
0.08,11.24007332849943,5.999999811929439,-5.999999952179818,-4.556389503673285,10.520732,0.31322044,-6.1397486,-1.9251341,17.921873,-10.045824,2.0517569,-0.013855871,0.41013885,-0.31443644,-0.855993,-11.514358,-4.084412,0.23670068,1.8962594,-1.5063585,-1.6601645,0
0.09,11.24007332849943,5.999999811929439,-5.999999952179818,-4.556389503673285,10.520732,0.31322044,-6.1397486,-1.9251341,17.806198,-10.086241,2.0539918,-0.027876161,0.40560332,-0.31934437,-0.85599536,-11.619754,-3.9990265,0.21008325,2.1097627,-1.7814574,-1.7641716,0
0.09999999999999999,11.24007332849943,5.999999811929439,-5.999999952179818,-4.556389503673285,10.520732,0.31322044,-6.1397486,-1.9251341,17.689495,-10.125799,2.0559545,-0.043193202,0.39993745,-0.32483324,-0.8559601,-11.720269,-3.912356,0.18221758,2.322913,-2.0466454,-1.8660223,0
0.10999999999999999,11.24007332849943,5.999999811929439,-5.999999952179818,-4.556389503673285,10.520732,0.31322044,-6.1397486,-1.9251341,17.57181,-10.164483,2.0576324,-0.059775803,0.39314327,-0.33086833,-0.85579866,-11.815595,-3.8242614,0.15325013,2.535083,-2.3027825,-1.9657613,0
0.11999999999999998,11.24007332849943,5.999999811929439,-5.999999952179818,-4.556389503673285,10.520732,0.31322044,-6.1397486,-1.9251341,17.453201,-10.202279,2.059016,-0.07758955,0.3852178,-0.3374098,-0.855419,-11.905422,-3.7346587,0.12330867,2.7457592,-2.550609,-2.0634322,0
0.12999999999999998,14.274158652455103,5.999999899688226,-5.999999973760406,-3.9437729349521042,11.587274,0.8021535,-6.2411885,-1.6048993,17.333723,-10.239171,2.0600958,-0.09659635,0.37615436,-0.34441295,-0.8547261,-11.98945,-3.643519,0.09250344,2.9545214,-2.790766,-2.1590781,0
0.13999999999999999,14.274158652455103,5.999999899688226,-5.999999973760406,-3.9437729349521042,11.587274,0.8021535,-6.2411885,-1.6048993,17.213394,-10.275096,2.060898,-0.11702614,0.3655197,-0.35215893,-0.85363,-12.075412,-3.541269,0.0678112,3.3282776,-3.1914816,-2.23764,0
0.15,14.274158652455103,5.999999899688226,-5.999999973760406,-3.9437729349521042,11.587274,0.8021535,-6.2411885,-1.6048993,17.092241,-10.309992,2.061448,-0.13906533,0.3529078,-0.36085844,-0.8519965,-12.153693,-3.4377868,0.042039428,3.6840265,-3.570003,-2.3159487,0
0.16,18.380067047662532,5.999999932074694,-5.999999981137177,-3.258630846302564,12.351631,1.5234822,-6.4195504,-0.88604677,16.970346,-10.343847,2.0617356,-0.16260353,0.33834767,-0.37035733,-0.8496566,-12.223816,-3.3330755,0.015315732,4.0230236,-3.928237,-2.3938787,0
0.17,18.380067047662532,5.999999932074694,-5.999999981137177,-3.258630846302564,12.351631,1.5234822,-6.4195504,-0.88604677,16.8477,-10.3764925,2.0618563,-0.18743393,0.32185888,-0.38051456,-0.8464537,-12.303835,-3.195402,0.008959159,4.3307104,-4.2519264,-2.4363124,0
0.18000000000000002,18.380067047662532,5.999999932074694,-5.999999981137177,-3.258630846302564,12.351631,1.5234822,-6.4195504,-0.88604677,16.724302,-10.407739,2.0619192,-0.21326081,0.30358097,-0.39111856,-0.8422497,-12.373864,-3.053171,0.003803744,4.5904837,-4.52507,-2.4766638,0
0.19000000000000003,18.380067047662532,5.999999932074694,-5.999999981137177,-3.258630846302564,12.351631,1.5234822,-6.4195504,-0.88604677,16.60026,-10.437541,2.0619364,-0.23985314,0.28370684,-0.40193635,-0.83691573,-12.432953,-2.9068115,-0.00017479685,4.809807,-4.755559,-2.5150352,0
0.20000000000000004,20.999998467931338,5.9999999027148405,-5.999999966339332,-2.921790513462741,15.457596,2.778129,-5.2881413,-2.067639,16.475683,-10.465862,2.0619195,-0.26700202,0.26241082,-0.412769,-0.8303445,-12.480255,-2.7569265,-0.0030525997,4.9949813,-4.950051,-2.5515234,0
0.21000000000000005,20.999998467931338,5.9999999027148405,-5.999999966339332,-2.921790513462741,15.457596,2.778129,-5.2881413,-2.067639,16.350668,-10.49256,2.061947,-0.2944834,0.23983502,-0.42345792,-0.82246083,-12.520001,-2.582508,0.008760652,5.1513805,-5.114111,-2.5696926,0
0.22000000000000006,20.999998467931338,5.9999999027148405,-5.999999966339332,-2.921790513462741,15.457596,2.778129,-5.2881413,-2.067639,16.22533,-10.517504,2.0620975,-0.32209328,0.21610986,-0.43386844,-0.81320995,-12.544757,-2.4059236,0.021505121,5.2834315,-5.252545,-2.5869699,0
0.23000000000000007,20.999998467931338,5.9999999027148405,-5.999999966339332,-2.921790513462741,15.457596,2.778129,-5.2881413,-2.067639,16.099827,-10.540676,2.0623796,-0.3496785,0.19137275,-0.44387597,-0.80254304,-12.553978,-2.228293,0.034953024,5.3949256,-5.369356,-2.6033995,0
0.24000000000000007,20.999998467931338,5.9999999027148405,-5.999999966339332,-2.921790513462741,15.345387,1.7514604,-4.838787,-1.5134281,15.974306,-10.562071,2.0627985,-0.3770991,0.16575186,-0.45337468,-0.7904263,-12.547275,-2.0508296,0.04884199,5.489064,-5.4679203,-2.619023,0
0.25000000000000006,20.999998467931338,5.9999999027148405,-5.999999966339332,-2.921790513462741,15.345387,1.7514604,-4.838787,-1.5134281,15.848936,-10.581697,2.063357,-0.40422684,0.1393674,-0.46227473,-0.7768392,-12.524412,-1.8748153,0.06288163,5.5685487,-5.551087,-2.63388,0
0.26000000000000006,20.999998467931338,5.9999999027148405,-5.999999966339332,-2.921790513462741,15.345387,1.7514604,-4.838787,-1.5134281,15.723875,-10.599577,2.0640557,-0.43094406,0.11233243,-0.4705002,-0.7617729,-12.485315,-1.7015791,0.0767598,5.6356606,-5.621261,-2.6480079,0
0.2700000000000001,20.999998467931338,5.9999999027148405,-5.999999966339332,-2.921790513462741,15.345387,1.7514604,-4.838787,-1.5134281,15.599285,-10.615744,2.0648906,-0.45714235,0.0847538,-0.47798693,-0.74522865,-12.430066,-1.5324764,0.09014855,5.6923275,-5.680473,-2.6614425,0
0.2800000000000001,20.99999891845874,4.135653306688803,-5.4581409194519415,-0.7469224434088496,15.581701,-0.015550209,-4.332617,-0.32603297,15.475328,-10.630245,2.0658557,-0.48272198,0.05673266,-0.4846811,-0.7272171,-12.358904,-1.3688685,0.10270984,5.7401743,-5.7304335,-2.674218,0
0.2900000000000001,20.99999891845874,4.135653306688803,-5.4581409194519415,-0.7469224434088496,15.581701,-0.015550209,-4.332617,-0.32603297,15.35216,-10.643144,2.0669408,-0.5072654,0.028758626,-0.49013105,-0.7082555,-12.272282,-1.2120931,0.11413563,5.490376,-5.687195,-2.579645,0
0.3000000000000001,20.99999891845874,4.135653306688803,-5.4581409194519415,-0.7469224434088496,15.581701,-0.015550209,-4.332617,-0.32603297,15.229932,-10.654514,2.068134,-0.53047377,0.001231201,-0.4940329,-0.68885934,-12.171137,-1.063356,0.1243213,5.2795,-5.650809,-2.489713,0
0.3100000000000001,20.99999891845874,4.135653306688803,-5.4581409194519415,-0.7469224434088496,15.581701,-0.015550209,-4.332617,-0.32603297,15.108783,-10.664443,2.0694227,-0.55241996,-0.02588613,-0.49653965,-0.6690367,-12.056552,-0.9237098,0.13322067,5.10148,-5.620188,-2.4041939,0
0.3200000000000001,19.604900023463546,2.321757232954345,-3.2917864017030176,-0.1571593418567419,15.019518,-1.8651477,-3.2292812,0.13981308,14.988843,-10.673024,2.0707936,-0.57316214,-0.052623745,-0.49777782,-0.6487932,-11.929605,-0.7940825,0.1407695,4.9511967,-5.5944185,-2.322871,0
0.3300000000000001,19.604900023463546,2.321757232954345,-3.2917864017030176,-0.1571593418567419,15.019518,-1.8651477,-3.2292812,0.13981308,14.870184,-10.680403,2.0721982,-0.59232855,-0.07806667,-0.49789977,-0.6286078,-11.80062,-0.6831106,0.1399712,4.5420446,-5.234389,-2.2165987,0
0.34000000000000014,19.604900023463546,2.321757232954345,-3.2917864017030176,-0.1571593418567419,15.019518,-1.8651477,-3.2292812,0.13981308,14.752862,-10.686722,2.0735884,-0.6097047,-0.101509415,-0.49711588,-0.60895914,-11.662562,-0.5823381,0.1378222,4.196556,-4.9306645,-2.1155417,0
0.35000000000000014,19.604900023463546,2.321757232954345,-3.2917864017030176,-0.1571593418567419,15.019518,-1.8651477,-3.2292812,0.13981308,14.63696,-10.692084,2.0749502,-0.625538,-0.12326023,-0.49558604,-0.5898329,-11.516776,-0.49168605,0.13433625,3.9048288,-4.674434,-2.0194433,0
0.36000000000000015,16.865799791130502,0.3367529334005737,-0.957676245761452,0.6466617241289158,14.888463,-2.6377525,-1.1669766,0.6312014,14.522549,-10.69659,2.0762706,-0.64003044,-0.1435821,-0.4934314,-0.57120043,-11.364418,-0.41102883,0.12954009,3.6585,-4.458268,-1.9280604,0
0.37000000000000016,16.865799791130502,0.3367529334005737,-0.957676245761452,0.6466617241289158,14.888463,-2.6377525,-1.1669766,0.6312014,14.40958,-10.700389,2.0774722,-0.65296406,-0.16171095,-0.49089456,-0.5536328,-11.228594,-0.3500291,0.11062055,3.1414862,-3.9114425,-1.8017181,0
0.38000000000000017,16.865799791130502,0.3367529334005737,-0.957676245761452,0.6466617241289158,14.888463,-2.6377525,-1.1669766,0.6312014,14.29799,-10.703616,2.0784798,-0.66423833,-0.17708142,-0.4882298,-0.5376435,-11.089013,-0.2967305,0.09073169,2.704903,-3.4500785,-1.6815754,0
0.3900000000000002,16.865799791130502,0.3367529334005737,-0.957676245761452,0.6466617241289158,14.888463,-2.6377525,-1.1669766,0.6312014,14.18781,-10.7063465,2.0792844,-0.6741478,-0.19016485,-0.48551816,-0.5230999,-10.946536,-0.25033432,0.07002178,2.3362465,-3.0608103,-1.5673282,0
0.4000000000000002,15.793465128308668,-2.309690050986649,1.8849688512027278,3.2419863716049666,14.732722,-2.5946522,1.0971543,1.6041718,14.079066,-10.708644,2.0798783,-0.6829253,-0.20135622,-0.48280787,-0.5098673,-10.8018265,-0.21012256,0.048634168,2.0249565,-2.7323654,-1.4586871,0
0.4100000000000002,15.793465128308668,-2.309690050986649,1.8849688512027278,3.2419863716049666,14.732722,-2.5946522,1.0971543,1.6041718,13.971922,-10.710532,2.0803301,-0.690393,-0.20977497,-0.48021424,-0.4987441,-10.627466,-0.16869743,0.041299112,1.3115988,-2.0497284,-1.2680203,0
0.4200000000000002,15.793465128308668,-2.309690050986649,1.8849688512027278,3.2419863716049666,14.732722,-2.5946522,1.0971543,1.6041718,13.866506,-10.712038,2.0806956,-0.6964288,-0.21477555,-0.47787166,-0.49040443,-10.456226,-0.13316242,0.031502713,0.7134155,-1.4696361,-1.0820757,0
0.4300000000000002,15.793465128308668,-2.309690050986649,1.8849688512027278,3.2419863716049666,14.732722,-2.5946522,1.0971543,1.6041718,13.762783,-10.71321,2.0809531,-0.70125395,-0.21697015,-0.47580126,-0.48454037,-10.288673,-0.10177373,0.01970002,0.21151088,-0.97702414,-0.90073633,0
0.4400000000000002,15.793465128308668,-2.309690050986649,1.8849688512027278,3.2419863716049666,14.030613,-4.3927913,4.8605814,1.7628685,13.660717,-10.714083,2.081084,-0.7050297,-0.2168647,-0.4739903,-0.48086926,-10.125171,-0.07310695,0.0062500513,-0.2099419,-0.559058,-0.72388816,0
0.45000000000000023,15.793465128308668,-2.309690050986649,1.8849688512027278,3.2419863716049666,14.030613,-4.3927913,4.8605814,1.7628685,13.560265,-10.714678,2.0810735,-0.7078749,-0.2148776,-0.47240624,-0.47913712,-9.965945,-0.046011668,-0.008570615,-0.5642007,-0.2048043,-0.55142,0
0.46000000000000024,15.793465128308668,-2.309690050986649,1.8849688512027278,3.2419863716049666,14.030613,-4.3927913,4.8605814,1.7628685,13.461383,-10.715006,2.080909,-0.709878,-0.21135536,-0.47100613,-0.47911865,-9.811141,-0.019569162,-0.024553701,-0.8623707,0.095047876,-0.38322318,0
0.47000000000000025,15.793465128308668,-2.309690050986649,1.8849688512027278,3.2419863716049666,14.030613,-4.3927913,4.8605814,1.7628685,13.364026,-10.71507,2.0805793,-0.7111063,-0.20658523,-0.46974254,-0.480616,-9.660846,0.0069448627,-0.04154604,-1.1137549,0.34842712,-0.21919203,0
0.48000000000000026,15.620529099500159,-4.636594728161386,4.472003984551629,3.4269038641490988,13.504496,-3.4588146,4.604213,1.0363957,13.26815,-10.714866,2.080075,-0.7116115,-0.20080578,-0.4685675,-0.48345634,-9.515111,0.03409261,-0.05943781,-1.3261465,0.5620842,-0.05922339,0
0.49000000000000027,15.620529099500159,-4.636594728161386,4.472003984551629,3.4269038641490988,13.504496,-3.4588146,4.604213,1.0363957,13.173726,-10.714381,2.0793974,-0.71115917,-0.193042,-0.46765214,-0.48814777,-9.370592,0.06307985,-0.076216914,-1.8892982,1.1248652,0.100550175,0
0.5000000000000002,15.620529099500159,-4.636594728161386,4.472003984551629,3.4269038641490988,13.504496,-3.4588146,4.604213,1.0363957,13.080722,-10.713597,2.0785484,-0.70952654,-0.18251719,-0.46709928,-0.49505275,-9.231031,0.09419679,-0.09365165,-2.366244,1.5982646,0.25636667,0
0.5100000000000002,15.620529099500159,-4.636594728161386,4.472003984551629,3.4269038641490988,13.504496,-3.4588146,4.604213,1.0363957,12.989088,-10.712486,2.0775235,-0.70674956,-0.16968006,-0.4667712,-0.50382304,-9.096233,0.12844971,-0.111323416,-2.7651975,2.0014544,0.40779638,0
0.5200000000000002,16.12440076134297,-5.683198654979701,5.714000968984795,3.054704899005618,14.072755,-3.5200357,4.967249,0.8630489,12.898784,-10.711014,2.0763242,-0.7028059,-0.15491824,-0.46662274,-0.51412714,-8.9653015,0.16684687,-0.12844054,-3.0828555,2.3608627,0.553649,0
0.5300000000000002,16.12440076134297,-5.683198654979701,5.714000968984795,3.054704899005618,14.072755,-3.5200357,4.967249,0.8630489,12.809784,-10.709129,2.0749674,-0.69748133,-0.13799524,-0.4668193,-0.52588594,-8.8349495,0.21123382,-0.14266975,-3.488794,2.8833592,0.6763765,0
0.5400000000000003,16.12440076134297,-5.683198654979701,5.714000968984795,3.054704899005618,14.072755,-3.5200357,4.967249,0.8630489,12.722074,-10.706768,2.073476,-0.69061375,-0.11871416,-0.46738386,-0.53899086,-8.707872,0.26181102,-0.15539765,-3.8314552,3.3243551,0.7930818,0
0.5500000000000003,16.12440076134297,-5.683198654979701,5.714000968984795,3.054704899005618,14.072755,-3.5200357,4.967249,0.8630489,12.635614,-10.703869,2.0718644,-0.6822248,-0.09744006,-0.46812516,-0.553112,-8.5847225,0.31929606,-0.16675803,-4.120692,3.6965728,0.9040603,0
0.5600000000000003,16.7829648299024,-5.7301767105720165,5.751381193489665,2.7359746668372718,13.416278,-4.6780653,5.651416,1.2893962,12.550364,-10.700357,2.0701451,-0.6723297,-0.07448906,-0.4688788,-0.5679578,-8.466194,0.38420904,-0.17693608,-4.3648233,4.0107465,1.0095931,0
0.5700000000000003,16.7829648299024,-5.7301767105720165,5.751381193489665,2.7359746668372718,13.416278,-4.6780653,5.651416,1.2893962,12.466295,-10.696143,2.0683472,-0.6609589,-0.050097585,-0.4695071,-0.5832546,-8.348385,0.4598578,-0.18253218,-4.5781636,4.2818055,1.0943071,0
0.5800000000000003,16.7829648299024,-5.7301767105720165,5.751381193489665,2.7359746668372718,13.416278,-4.6780653,5.651416,1.2893962,12.383375,-10.691131,2.0664968,-0.6481435,-0.024474401,-0.46989232,-0.5987582,-8.236912,0.54377717,-0.18741676,-4.758219,4.5106077,1.1748642,0
0.5900000000000003,16.7829648299024,-5.7301767105720165,5.751381193489665,2.7359746668372718,13.416278,-4.6780653,5.651416,1.2893962,12.301535,-10.685238,2.0646002,-0.6339013,0.002157556,-0.4699341,-0.6142683,-8.132555,0.6359919,-0.1919044,-4.9101777,4.703745,1.2514683,0
0.6000000000000003,16.361676670297527,-4.854436785866588,4.667154660349783,2.317252619852609,15.59313,-4.830495,5.8409004,0.90818274,12.220697,-10.678383,2.062659,-0.6182546,0.02959957,-0.46954998,-0.62960863,-8.036086,0.73637474,-0.19633824,-5.0384197,4.86678,1.3243135,0
0.6100000000000003,16.361676670297527,-4.854436785866588,4.667154660349783,2.317252619852609,15.59313,-4.830495,5.8409004,0.90818274,12.140772,-10.670497,2.0606606,-0.6014885,0.057208344,-0.46863425,-0.64445317,-7.950426,0.8419129,-0.20342025,-5.0098543,4.835514,1.3730373,0
0.6200000000000003,16.361676670297527,-4.854436785866588,4.667154660349783,2.317252619852609,15.59313,-4.830495,5.8409004,0.90818274,12.06166,-10.661519,2.0585885,-0.5838866,0.08446212,-0.46714005,-0.65857565,-7.8736424,0.95457304,-0.2111199,-4.9857388,4.809129,1.4193703,0
0.6300000000000003,16.361676670297527,-4.854436785866588,4.667154660349783,2.317252619852609,15.59313,-4.830495,5.8409004,0.90818274,11.983269,-10.6513815,2.056435,-0.5654721,0.111360155,-0.465083,-0.6719651,-7.8061185,1.0737092,-0.21973531,-4.9653797,4.7868648,1.4634297,0
0.6400000000000003,16.361676670297527,-4.854436785866588,4.667154660349783,2.317252619852609,15.403743,-5.224686,5.194979,0.9679872,11.905504,-10.640023,2.05419,-0.54626846,0.13789816,-0.4624768,-0.6846089,-7.7481956,1.1986554,-0.22955185,-4.948191,4.7680774,1.5053271,0
0.6500000000000004,16.361676670297527,-4.854436785866588,4.667154660349783,2.317252619852609,15.403743,-5.224686,5.194979,0.9679872,11.828271,-10.62739,2.051839,-0.52629995,0.16406877,-0.4593334,-0.6964925,-7.700172,1.328726,-0.24084207,-4.933678,4.7522244,1.5451684,0
0.6600000000000004,16.361676670297527,-4.854436785866588,4.667154660349783,2.317252619852609,15.403743,-5.224686,5.194979,0.9679872,11.751467,-10.613434,2.0493667,-0.50559175,0.18986201,-0.45566365,-0.707601,-7.6623006,1.4632188,-0.2538652,-4.921424,4.7388487,1.5830549,0
0.6700000000000004,16.361676670297527,-4.854436785866588,4.667154660349783,2.317252619852609,15.403743,-5.224686,5.194979,0.9679872,11.67499,-10.598113,2.0467544,-0.4841699,0.2152656,-0.4514774,-0.7179189,-7.634788,1.6014158,-0.26886675,-4.911076,4.7275634,1.6190822,0
0.6800000000000004,15.664619279905626,-3.624634884253221,3.120100938503299,1.8834423345065678,16.474997,-5.442407,5.171657,1.4973885,11.598736,-10.581394,2.0439816,-0.46206146,0.24026541,-0.44678387,-0.72743046,-7.6177945,1.7425855,-0.28607774,-4.9023385,4.718043,1.6533415,0
0.6900000000000004,15.664619279905626,-3.624634884253221,3.120100938503299,1.8834423345065678,16.474997,-5.442407,5.171657,1.4973885,11.522596,-10.563282,2.0410078,-0.43973935,0.26419836,-0.44166526,-0.73604316,-7.6116533,1.8798655,-0.3090382,-4.7028465,4.4690247,1.6646326,0
0.7000000000000004,15.664619279905626,-3.624634884253221,3.120100938503299,1.8834423345065678,16.474997,-5.442407,5.171657,1.4973885,11.446468,-10.543791,2.0377924,-0.41763017,0.28656387,-0.43623564,-0.74374986,-7.6153655,2.018501,-0.3343605,-4.5345016,4.258811,1.6753696,0
0.7100000000000004,15.664619279905626,-3.624634884253221,3.120100938503299,1.8834423345065678,16.474997,-5.442407,5.171657,1.4973885,11.370256,-10.52291,2.0343122,-0.39569113,0.30756637,-0.43053883,-0.7506443,-7.628561,2.1577806,-0.36204803,-4.392442,4.0813556,1.6855798,0
0.7200000000000004,15.737161551724,-1.8851256507601422,1.2049144884561613,1.4164610083086107,16.940853,-4.937434,3.5143423,0.9223715,11.293866,-10.500636,2.030543,-0.37388235,0.32737762,-0.42460608,-0.7567989,-7.6508927,2.297069,-0.39209428,-4.2725635,3.931553,1.6952889,0
0.7300000000000004,15.737161551724,-1.8851256507601422,1.2049144884561613,1.4164610083086107,16.940853,-4.937434,3.5143423,0.9223715,11.217207,-10.476969,2.0264637,-0.35277513,0.34533602,-0.4186961,-0.762224,-7.682106,2.4364412,-0.4241573,-3.899743,3.506781,1.6816068,0
0.7400000000000004,15.737161551724,-1.8851256507601422,1.2049144884561613,1.4164610083086107,16.940853,-4.937434,3.5143423,0.9223715,11.140196,-10.451913,2.022053,-0.33285904,0.36096478,-0.4130601,-0.76700056,-7.72134,2.574786,-0.45836484,-3.585145,3.1481812,1.6685959,0
0.7500000000000004,15.737161551724,-1.8851256507601422,1.2049144884561613,1.4164610083086107,16.940853,-4.937434,3.5143423,0.9223715,11.062756,-10.425478,2.01729,-0.313981,0.37464118,-0.40769568,-0.77126086,-7.767803,2.7117593,-0.494488,-3.319676,2.845445,1.6562237,0
0.7600000000000005,15.110370393644379,-0.14721972107528117,-0.9233453865942886,0.9061505154234794,15.980426,-3.9921117,1.5945195,-0.14324914,10.9848175,-10.397683,2.0121574,-0.29600185,0.38667905,-0.40258852,-0.77510244,-7.8208165,2.8471076,-0.5323158,-3.095663,2.5898707,1.6444584,0
0.7700000000000005,15.110370393644379,-0.14721972107528117,-0.9233453865942886,0.9061505154234794,15.980426,-3.9921117,1.5945195,-0.14324914,10.90633,-10.368569,2.006627,-0.27946338,0.39650738,-0.3979916,-0.77864236,-7.8773837,2.9753401,-0.57396775,-2.6352198,2.0425422,1.6082295,0
0.7800000000000005,15.110370393644379,-0.14721972107528117,-0.9233453865942886,0.9061505154234794,15.980426,-3.9921117,1.5945195,-0.14324914,10.827253,-10.338182,2.0006747,-0.26480666,0.40371576,-0.3941304,-0.78201747,-7.938709,3.1018398,-0.6166812,-2.2466972,1.5804714,1.5737784,0
0.7900000000000005,15.110370393644379,-0.14721972107528117,-0.9233453865942886,0.9061505154234794,15.980426,-3.9921117,1.5945195,-0.14324914,10.747542,-10.30654,1.9942913,-0.25177297,0.40875217,-0.39093488,-0.7853031,-8.003906,3.2266932,-0.6600817,-1.918859,1.1903797,1.5410177,0
0.8000000000000005,15.067597989076878,1.0824002039225995,-2.678329683977465,0.32346087931410183,13.45187,-1.9288005,-0.05166188,-0.6894983,10.667164,-10.273655,1.9874718,-0.24013482,0.41198468,-0.38833165,-0.7885439,-8.072239,3.3500214,-0.7038482,-1.6422247,0.8610565,1.5098646,0
0.8100000000000005,15.067597989076878,1.0824002039225995,-2.678329683977465,0.32346087931410183,13.45187,-1.9288005,-0.05166188,-0.6894983,10.586089,-10.239544,1.9802144,-0.23021415,0.41309017,-0.38643554,-0.79184884,-8.143002,3.4719057,-0.74771607,-1.2200714,0.3128558,1.4519557,0
0.8200000000000005,15.067597989076878,1.0824002039225995,-2.678329683977465,0.32346087931410183,13.45187,-1.9288005,-0.05166188,-0.6894983,10.504299,-10.204222,1.9725184,-0.22228488,0.4118063,-0.3853499,-0.79530466,-8.215246,3.5924063,-0.7913796,-0.86056626,-0.15324649,1.3965801,0
0.8300000000000005,15.067597989076878,1.0824002039225995,-2.678329683977465,0.32346087931410183,13.45187,-1.9288005,-0.05166188,-0.6894983,10.4217825,-10.167698,1.9643891,-0.21606207,0.4085248,-0.3849639,-0.79889077,-8.288332,3.7120786,-0.8343425,-0.5572219,-0.5467365,1.3439218,0
0.8400000000000005,15.067597989076878,1.0824002039225995,-2.678329683977465,0.32346087931410183,13.185577,-1.4633261,-1.2944201,-1.3381339,10.338534,-10.129982,1.9558349,-0.211298,0.4035694,-0.38517228,-0.80257475,-8.361585,3.8311803,-0.87630105,-0.3012612,-0.8789231,1.2938474,0
0.8500000000000005,15.067597989076878,1.0824002039225995,-2.678329683977465,0.32346087931410183,13.185577,-1.4633261,-1.2944201,-1.3381339,10.254554,-10.091076,1.9468672,-0.20778017,0.397207,-0.38587895,-0.806319,-8.43443,3.9499373,-0.9170135,-0.08527921,-1.1593546,1.2462304,0
0.8600000000000005,15.067597989076878,1.0824002039225995,-2.678329683977465,0.32346087931410183,13.185577,-1.4633261,-1.2944201,-1.3381339,10.169848,-10.050983,1.9374995,-0.20532687,0.38965866,-0.3869979,-0.81008554,-8.506375,4.068541,-0.9562921,0.09697114,-1.3960925,1.2009498,0
0.8700000000000006,15.067597989076878,1.0824002039225995,-2.678329683977465,0.32346087931410183,13.185577,-1.4633261,-1.2944201,-1.3381339,10.084431,-10.009706,1.9277469,-0.20378315,0.3811083,-0.38845304,-0.8138378,-8.576995,4.1871495,-0.99399465,0.25076005,-1.5959432,1.1578913,0
0.8800000000000006,15.996079418205584,1.8637768854640786,-3.6454991420269454,-0.16168273400403982,13.940315,-0.7495759,-0.7589068,-1.5565537,9.998315,-9.96724,1.9176254,-0.20301695,0.37170964,-0.3901779,-0.81754273,-8.645916,4.3058887,-1.0300181,0.38053408,-1.7646531,1.1169455,0
0.8900000000000006,15.996079418205584,1.8637768854640786,-3.6454991420269454,-0.16168273400403982,13.940315,-0.7495759,-0.7589068,-1.5565537,9.911499,-9.923551,1.9071721,-0.20323092,0.36123362,-0.3922694,-0.82117665,-8.716908,4.4321985,-1.0603496,0.6119745,-2.0578263,1.0542028,0
0.9000000000000006,15.996079418205584,1.8637768854640786,-3.6454991420269454,-0.16168273400403982,13.940315,-0.7495759,-0.7589068,-1.5565537,9.823985,-9.878596,1.8964252,-0.20458077,0.3495023,-0.39479408,-0.82470083,-8.785211,4.558916,-1.0887072,0.8072731,-2.3053198,0.99453896,0
0.9100000000000006,15.996079418205584,1.8637768854640786,-3.6454991420269454,-0.16168273400403982,13.940315,-0.7495759,-0.7589068,-1.5565537,9.735804,-9.832371,1.8854051,-0.20689856,0.3367026,-0.39765614,-0.82806575,-8.850307,4.6861706,-1.11501,0.9720771,-2.5142486,0.93780285,0
0.9200000000000006,16.57203829480509,1.9408519922051346,-4.239300408666473,-0.5305571787214513,14.054987,0.045872614,-0.91998404,-1.7327195,9.646991,-9.78487,1.8741322,-0.21004087,0.32299194,-0.4007729,-0.8312274,-8.911747,4.8140435,-1.1392207,1.1111505,-2.6906202,0.88385075,0
0.9300000000000006,16.57203829480509,1.9408519922051346,-4.239300408666473,-0.5305571787214513,14.054987,0.045872614,-0.91998404,-1.7327195,9.557573,-9.736065,1.8626413,-0.21402799,0.30831677,-0.40403333,-0.8341994,-8.971182,4.9472,-1.1585923,1.240549,-2.9321175,0.8144453,0
0.9400000000000006,16.57203829480509,1.9408519922051346,-4.239300408666473,-0.5305571787214513,14.054987,0.045872614,-0.91998404,-1.7327195,9.467583,-9.685924,1.850968,-0.21887209,0.2926414,-0.40733913,-0.8369765,-9.025942,5.081028,-1.1757469,1.3497345,-3.1359718,0.74844563,0
0.9500000000000006,16.57203829480509,1.9408519922051346,-4.239300408666473,-0.5305571787214513,14.054987,0.045872614,-0.91998404,-1.7327195,9.37707,-9.63444,1.8391341,-0.22444777,0.2761133,-0.41064152,-0.8394981,-9.075596,5.2154775,-1.1906698,1.4418678,-3.3080494,0.6856846,0
0.9600000000000006,17.30671116890819,1.5155173546850493,-4.3159012733917,-0.7923519849748246,14.23226,0.100570366,-1.2218317,-1.6805881,9.28609,-9.581611,1.827162,-0.23064682,0.25885847,-0.4138991,-0.841713,-9.119761,5.350458,-1.2033888,1.5196149,-3.4533017,0.6260032,0
0.9700000000000006,17.30671116890819,1.5155173546850493,-4.3159012733917,-0.7923519849748246,14.23226,0.100570366,-1.2218317,-1.6805881,9.194687,-9.5274,1.8150928,-0.23737279,0.24101214,-0.41691852,-0.8436499,-9.159811,5.491841,-1.2100784,1.5188684,-3.587893,0.55640405,0
0.9800000000000006,17.30671116890819,1.5155173546850493,-4.3159012733917,-0.7923519849748246,14.23226,0.100570366,-1.2218317,-1.6805881,9.102915,-9.471774,1.8029679,-0.24455035,0.22269267,-0.41954497,-0.8453307,-9.193522,5.6334314,-1.2145606,1.5182275,-3.701491,0.49022022,0
0.9900000000000007,17.30671116890819,1.5155173546850493,-4.3159012733917,-0.7923519849748246,14.23226,0.100570366,-1.2218317,-1.6805881,9.0108385,-9.414732,1.790809,-0.25211993,0.20397732,-0.42179903,-0.84670734,-9.220681,5.774989,-1.2168877,1.5176798,-3.7973707,0.427284,0
1.0000000000000007,17.233814825375642,0.7280252212758723,-3.8287064738420145,-0.8415539837605028,14.727664,-0.090923384,-1.1174289,-1.5455464,8.918525,-9.356276,1.7786372,-0.26002827,0.18493253,-0.42369902,-0.84774023,-9.241098,5.9162607,-1.2171428,1.517214,-3.8782942,0.36743614,0
1.0100000000000007,17.233814825375642,0.7280252212758723,-3.8287064738420145,-0.8415539837605028,14.727664,-0.090923384,-1.1174289,-1.5455464,8.826041,-9.2964115,1.7664707,-0.26809493,0.16586703,-0.42504597,-0.8484976,-9.254591,6.056385,-1.2158476,1.3939888,-3.8706446,0.30811068,0
1.0200000000000007,17.233814825375642,0.7280252212758723,-3.8287064738420145,-0.8415539837605028,14.727664,-0.090923384,-1.1174289,-1.5455464,8.733457,-9.23515,1.7543266,-0.27618363,0.14703557,-0.42569247,-0.8490513,-9.261292,6.1956463,-1.2126663,1.2899886,-3.864173,0.2516963,0
1.0300000000000007,17.233814825375642,0.7280252212758723,-3.8287064738420145,-0.8415539837605028,14.727664,-0.090923384,-1.1174289,-1.5455464,8.640838,-9.1725025,1.7422235,-0.28430754,0.1284172,-0.42572325,-0.8493745,-9.261305,6.333735,-1.2076737,1.2022151,-3.8586986,0.19805019,0
1.0400000000000007,17.233814825375642,0.7280252212758723,-3.8287064738420145,-0.8415539837605028,14.815063,-0.5476919,-0.43175855,-1.5152668,8.548252,-9.108481,1.730179,-0.29247445,0.109993674,-0.42521033,-0.8494441,-9.254724,6.470361,-1.200957,1.1281366,-3.8540688,0.14703652,0
1.0500000000000007,17.233814825375642,0.7280252212758723,-3.8287064738420145,-0.8415539837605028,14.815063,-0.5476919,-0.43175855,-1.5152668,8.455766,-9.043102,1.7182099,-0.30068782,0.09174915,-0.42421508,-0.8492405,-9.241637,6.6052513,-1.1926142,1.0656174,-3.8501534,0.09852609,0
1.0600000000000007,17.233814825375642,0.7280252212758723,-3.8287064738420145,-0.8415539837605028,14.815063,-0.5476919,-0.43175855,-1.5152668,8.363442,-8.976383,1.7063318,-0.30894786,0.07367003,-0.42278996,-0.848747,-9.222136,6.7381454,-1.1827532,1.0128542,-3.846843,0.05239609,0
1.0700000000000007,17.233814825375642,0.7280252212758723,-3.8287064738420145,-0.8415539837605028,14.815063,-0.5476919,-0.43175855,-1.5152668,8.271344,-8.908346,1.6945595,-0.31725213,0.0557447,-0.42097968,-0.8479497,-9.196306,6.868795,-1.1714902,0.9683253,-3.844044,0.008529702,0
1.0800000000000007,17.498742903021675,-0.15850682767715987,-2.862551401047084,-0.8429538973634229,15.81455,-1.383727,-0.04244986,-1.4777592,8.179536,-8.839016,1.6829064,-0.32559618,0.03796336,-0.41882244,-0.8468368,-9.164239,6.9969625,-1.1589484,0.9307461,-3.8416777,-0.03318415,0
1.0900000000000007,17.498742903021675,-0.15850682767715987,-2.862551401047084,-0.8429538973634229,15.81455,-1.383727,-0.04244986,-1.4777592,8.088082,-8.768407,1.6713932,-0.3338031,0.020761808,-0.4161802,-0.8455397,-9.12548,7.124352,-1.1435293,0.7607852,-3.6889997,-0.07291978,0
1.1000000000000008,17.498742903021675,-0.15850682767715987,-2.862551401047084,-0.8429538973634229,15.81455,-1.383727,-0.04244986,-1.4777592,7.997046,-8.696539,1.6600398,-0.34174624,0.004488007,-0.41295913,-0.84418774,-9.080877,7.248805,-1.1270024,0.61734027,-3.560124,-0.11070557,0
1.1100000000000008,17.498742903021675,-0.15850682767715987,-2.862551401047084,-0.8429538973634229,15.81455,-1.383727,-0.04244986,-1.4777592,7.906483,-8.623442,1.6488569,-0.34948504,-0.0109854685,-0.4092475,-0.84276617,-9.030825,7.3701663,-1.1094142,0.49627435,-3.4513412,-0.14663722,0
1.1200000000000008,17.35704248394125,-1.1297162344520795,-1.737541252342509,-0.7054564528811309,16.562817,-2.2095437,0.70339257,-1.3901421,7.8164463,-8.549146,1.6378549,-0.357066,-0.02576774,-0.4051184,-0.8412597,-8.975662,7.488298,-1.0908104,0.39409545,-3.359519,-0.18080567,0
1.1300000000000008,17.35704248394125,-1.1297162344520795,-1.737541252342509,-0.7054564528811309,16.562817,-2.2095437,0.70339257,-1.3901421,7.7269835,-8.47369,1.6270392,-0.36434305,-0.039440904,-0.4004694,-0.83983445,-8.91622,7.6021576,-1.0721775,0.15643522,-3.1065476,-0.20655042,0
1.1400000000000008,17.35704248394125,-1.1297162344520795,-1.737541252342509,-0.7054564528811309,16.562817,-2.2095437,0.70339257,-1.3901421,7.6381364,-8.397114,1.6164148,-0.37121317,-0.051678926,-0.3952331,-0.8386417,-8.852594,7.712662,-1.052528,-0.04415703,-2.8930242,-0.23103186,0
1.1500000000000008,17.35704248394125,-1.1297162344520795,-1.737541252342509,-0.7054564528811309,16.562817,-2.2095437,0.70339257,-1.3901421,7.549944,-8.319448,1.6059922,-0.377764,-0.06269287,-0.38950998,-0.8376425,-8.785333,7.8198047,-1.0317953,-0.2134636,-2.7127986,-0.254312,0
1.1600000000000008,17.10711718530872,-1.981754733602675,-0.5231039081402656,-0.48502465187329186,17.129622,-3.083903,0.71117884,-0.8574492,7.4624405,-8.240728,1.5957828,-0.3840647,-0.07266244,-0.3833816,-0.83679867,-8.714901,7.9235845,-1.0099196,-0.35636455,-2.560679,-0.2764498,0
1.1700000000000008,17.10711718530872,-1.981754733602675,-0.5231039081402656,-0.48502465187329186,17.129622,-3.083903,0.71117884,-0.8574492,7.37565,-8.1609955,1.5857892,-0.38998887,-0.08121293,-0.37681636,-0.8362545,-8.642791,8.022574,-0.98858356,-0.6098011,-2.2428708,-0.28668463,0
1.1800000000000008,17.10711718530872,-1.981754733602675,-0.5231039081402656,-0.48502465187329186,17.129622,-3.083903,0.71117884,-0.8574492,7.289592,-8.080288,1.5760156,-0.39544412,-0.088056505,-0.36979797,-0.83613306,-8.56859,8.118379,-0.96593654,-0.8237191,-1.974629,-0.29641724,0
1.1900000000000008,17.10711718530872,-1.981754733602675,-0.5231039081402656,-0.48502465187329186,17.129622,-3.083903,0.71117884,-0.8574492,7.204283,-7.998637,1.5664755,-0.4005226,-0.0934516,-0.36240533,-0.8363671,-8.492887,8.211129,-0.9418463,-1.0042812,-1.7482237,-0.30567226,0
1.2000000000000008,17.166801406263858,-2.4322305739504606,0.48177776139409556,-0.24225228962848788,17.201824,-2.5206022,1.4576899,-0.8392502,7.1197376,-7.9160743,1.5571841,-0.40529677,-0.097617045,-0.35470134,-0.83689386,-8.416175,8.300943,-0.9161997,-1.1566885,-1.5571299,-0.31447315,1
1.2100000000000009,17.166801406263858,-2.4322305739504606,0.48177776139409556,-0.24225228962848788,17.201824,-2.5206022,1.4576899,-0.8392502,7.035964,-7.8326254,1.5481608,-0.4096038,-0.09997171,-0.34688386,-0.83779526,-8.3385,8.388442,-0.88820505,-1.3693125,-1.0869039,-0.3402241,1
1.2200000000000009,17.166801406263858,-2.4322305739504606,0.48177776139409556,-0.24225228962848788,17.201824,-2.5206022,1.4576899,-0.8392502,6.952967,-7.748314,1.5394261,-0.41332987,-0.100062236,-0.33911726,-0.8391331,-8.260971,8.4734745,-0.85844463,-1.548779,-0.6900118,-0.36471143,1
1.2300000000000009,17.166801406263858,-2.4322305739504606,0.48177776139409556,-0.24225228962848788,17.201824,-2.5206022,1.4576899,-0.8392502,6.870742,-7.663163,1.5309981,-0.41658777,-0.09823167,-0.33139846,-0.8408205,-8.184267,8.556416,-0.8268261,-1.7002604,-0.35501736,-0.38799718,1
1.2400000000000009,17.166801406263858,-2.4322305739504606,0.48177776139409556,-0.24225228962848788,17.46553,-2.8667812,2.1146777,-0.6951885,6.7892776,-7.577192,1.522896,-0.41946545,-0.09476989,-0.3237203,-0.842776,-8.108961,8.637581,-0.7932796,-1.8281221,-0.072268136,-0.41014028,0
1.2500000000000009,17.166801406263858,-2.4322305739504606,0.48177776139409556,-0.24225228962848788,17.46553,-2.8667812,2.1146777,-0.6951885,6.7085557,-7.4904175,1.5151379,-0.42209172,-0.09029018,-0.31593242,-0.84490937,-8.035675,8.717053,-0.7580297,-1.9223095,0.014149817,-0.40190196,0
1.260000000000001,17.166801406263858,-2.4322305739504606,0.48177776139409556,-0.24225228962848788,17.46553,-2.8667812,2.1146777,-0.6951885,6.6285563,-7.4028554,1.5077424,-0.42455685,-0.08529581,-0.30791223,-0.84715116,-7.9645395,8.795076,-0.7207742,-2.001813,0.08708677,-0.3940679,0
1.270000000000001,17.166801406263858,-2.4322305739504606,0.48177776139409556,-0.24225228962848788,17.46553,-2.8667812,2.1146777,-0.6951885,6.549257,-7.314521,1.5007294,-0.42687327,-0.07986491,-0.2996893,-0.8494623,-7.895762,8.871666,-0.6814967,-2.068921,0.14864579,-0.3866183,0
1.280000000000001,16.697304918106436,-2.4707849449055415,0.9825419105726868,0.022651623360240555,16.762846,-2.2310572,1.8122171,-0.37460837,6.4706326,-7.225427,1.4941194,-0.42905107,-0.07406376,-0.2912888,-0.85180956,-7.8295264,8.946833,-0.6401991,-2.1255667,0.20060208,-0.3795342,1
1.290000000000001,16.697304918106436,-2.4707849449055415,0.9825419105726868,0.022651623360240555,16.762846,-2.2310572,1.8122171,-0.37460837,6.3926497,-7.135597,1.4879158,-0.43095326,-0.06752465,-0.2830308,-0.8541735,-7.7675085,9.018878,-0.6002351,-2.1419559,0.45193627,-0.3792925,1
1.300000000000001,16.697304918106436,-2.4707849449055415,0.9825419105726868,0.022651623360240555,16.762846,-2.2310572,1.8122171,-0.37460837,6.3152723,-7.045053,1.4821211,-0.4324788,-0.059957642,-0.27517155,-0.8565319,-7.708426,9.08979,-0.5584103,-2.1557992,0.6640743,-0.37906265,1
1.310000000000001,16.697304918106436,-2.4707849449055415,0.9825419105726868,0.022651623360240555,16.762846,-2.2310572,1.8122171,-0.37460837,6.23847,-6.953804,1.4767536,-0.43368185,-0.051519845,-0.26764357,-0.85885495,-7.6525555,9.159818,-0.5148319,-2.1674914,0.843129,-0.37884408,1
1.320000000000001,16.060191249496885,-2.3397669259069542,0.8955016382290459,0.303404913213649,16.833199,-2.066156,1.5472344,-0.058735114,6.1622095,-6.861859,1.47183,-0.43460593,-0.042344563,-0.26038936,-0.8611162,-7.6001353,9.229164,-0.46961007,-2.1773672,0.99425983,-0.37863624,1
1.330000000000001,16.060191249496885,-2.3397669259069542,0.8955016382290459,0.303404913213649,16.833199,-2.066156,1.5472344,-0.058735114,6.086456,-6.769221,1.4673696,-0.4352777,-0.032675266,-0.25336924,-0.8632895,-7.551158,9.298283,-0.4222517,-2.1600137,1.0804694,-0.3629386,1
1.340000000000001,16.060191249496885,-2.3397669259069542,0.8955016382290459,0.303404913213649,16.833199,-2.066156,1.5472344,-0.058735114,6.011173,-6.6758943,1.4633898,-0.4357153,-0.02271293,-0.24655034,-0.86536026,-7.505966,9.366995,-0.373482,-2.1453707,1.1532366,-0.34801129,1
1.350000000000001,16.060191249496885,-2.3397669259069542,0.8955016382290459,0.303404913213649,16.833199,-2.066156,1.5472344,-0.058735114,5.936323,-6.581882,1.4599043,-0.4359398,-0.012504824,-0.23989657,-0.8673228,-7.4646482,9.435381,-0.323425,-2.1330147,1.2146578,-0.33381644,1
1.360000000000001,15.270138737753056,-2.159557790381226,0.37566387242856136,0.5632276317016358,16.03958,-1.6881851,0.29482278,0.4425904,5.861866,-6.4871874,1.4569253,-0.43596885,-0.0020911647,-0.23337759,-0.86917245,-7.427281,9.503505,-0.27220276,-2.1225877,1.266502,-0.32031813,1
1.370000000000001,15.270138737753056,-2.159557790381226,0.37566387242856136,0.5632276317016358,16.03958,-1.6881851,0.29482278,0.4425904,5.7877545,-6.3918285,1.4544286,-0.43588084,0.007977588,-0.22688158,-0.8709007,-7.395473,9.568192,-0.22702153,-2.0549018,1.1149049,-0.282882,1
1.380000000000001,15.270138737753056,-2.159557790381226,0.37566387242856136,0.5632276317016358,16.03958,-1.6881851,0.29482278,0.4425904,5.7139435,-6.2958245,1.452388,-0.43573397,0.01726088,-0.22032267,-0.8725222,-7.367316,9.632545,-0.18092898,-1.9977593,0.9869565,-0.24728285,1
1.390000000000001,15.270138737753056,-2.159557790381226,0.37566387242856136,0.5632276317016358,16.03958,-1.6881851,0.29482278,0.4425904,5.6403966,-6.1991796,1.4508128,-0.435515,0.025875758,-0.21371187,-0.87406147,-7.3426237,9.696431,-0.13399547,-1.9495184,0.8789678,-0.21343057,1
1.400000000000001,14.16909913901238,-2.0419111460347086,-0.2353386141705121,0.7867344949372401,15.548169,-1.9827896,-0.66338986,0.6781384,5.567079,-6.101898,1.4497108,-0.4352133,0.033921592,-0.20705824,-0.87553686,-7.32124,9.759734,-0.08628277,-1.908793,0.78782517,-0.18123946,0
1.410000000000001,14.16909913901238,-2.0419111460347086,-0.2353386141705121,0.7867344949372401,15.548169,-1.9827896,-0.66338986,0.6781384,5.4939494,-6.0040236,1.4490043,-0.4348214,0.0413497,-0.2001543,-0.8770165,-7.3051534,9.815039,-0.054928694,-1.9295914,0.6282061,-0.13374068,0
1.420000000000001,14.16909913901238,-2.0419111460347086,-0.2353386141705121,0.7867344949372401,15.548169,-1.9827896,-0.66338986,0.6781384,5.4209666,-5.9056,1.4486145,-0.43432447,0.048124872,-0.19283609,-0.8785554,-7.2917614,9.869553,-0.022933915,-1.9471341,0.49348098,-0.0885727,0
1.430000000000001,14.16909913901238,-2.0419111460347086,-0.2353386141705121,0.7867344949372401,15.548169,-1.9827896,-0.66338986,0.6781384,5.348105,-5.806636,1.4485477,-0.4337059,0.054343317,-0.18516889,-0.8801463,-7.28097,9.923097,0.009703715,-1.9619318,0.3797679,-0.04562112,0
1.440000000000001,14.16909913901238,-2.0419111460347086,-0.2353386141705121,0.7867344949372401,15.829621,-2.1731584,-1.851647,1.3008796,5.275338,-5.7071424,1.4488106,-0.43295288,0.060086716,-0.17720783,-0.88178104,-7.2727003,9.975516,0.042979073,-1.9744152,0.28379017,-0.0047771866,0
1.450000000000001,14.16909913901238,-2.0419111460347086,-0.2353386141705121,0.7867344949372401,15.829621,-2.1731584,-1.851647,1.3008796,5.2026424,-5.6071305,1.4494095,-0.43205607,0.06542442,-0.1689993,-0.88345087,-7.266883,10.026679,0.07688026,-1.9849465,0.20278203,0.034062512,0
1.460000000000001,14.16909913901238,-2.0419111460347086,-0.2353386141705121,0.7867344949372401,15.829621,-2.1731584,-1.851647,1.3008796,5.1299925,-5.5066137,1.4503503,-0.4310088,0.07041535,-0.16058256,-0.8851471,-7.2634597,10.076467,0.11138928,-1.9938318,0.13440914,0.070996344,0
1.470000000000001,14.16909913901238,-2.0419111460347086,-0.2353386141705121,0.7867344949372401,15.829621,-2.1731584,-1.851647,1.3008796,5.057365,-5.405606,1.4516392,-0.4298067,0.075109564,-0.1519907,-0.8868611,-7.2623806,10.124779,0.14648269,-2.0013287,0.07670107,0.10611781,0
1.480000000000001,13.871365314771896,-1.9157225622509095,-0.5917974413106456,1.0339528561524918,16.071838,-2.1444607,-3.1121943,2.3046756,4.984737,-5.304123,1.4532819,-0.42844737,0.07954961,-0.14325173,-0.8885846,-7.263601,10.171526,0.18213227,-2.007655,0.027994467,0.13951586,0
1.490000000000001,13.871365314771896,-1.9157225622509095,-0.5917974413106456,1.0339528561524918,16.071838,-2.1444607,-3.1121943,2.3046756,4.9120855,-5.2021856,1.4552697,-0.42692682,0.083618924,-0.13437572,-0.8903277,-7.267,10.215675,0.215486,-1.9933075,-0.06871744,0.18340614,0
1.500000000000001,13.871365314771896,-1.9157225622509095,-0.5917974413106456,1.0339528561524918,16.071838,-2.1444607,-3.1121943,2.3046756,4.8393893,-5.099815,1.4575934,-0.42523825,0.087226845,-0.12537295,-0.89210105,-7.2725177,10.258111,0.24933136,-1.9811945,-0.15034401,0.22514273,0
1.5100000000000011,13.871365314771896,-1.9157225622509095,-0.5917974413106456,1.0339528561524918,16.071838,-2.1444607,-3.1121943,2.3046756,4.766628,-4.9970293,1.460258,-0.42337766,0.0904419,-0.11626542,-0.8938975,-7.280062,10.2987385,0.28364515,-1.9709685,-0.21923795,0.26483127,0
1.5200000000000011,12.9589791018603,-1.8101329372076675,-1.0993030334893845,1.1843739305207561,16.247732,-2.220673,-4.2058916,2.87772,4.6937814,-4.893847,1.4632679,-0.42134285,0.09332221,-0.10707162,-0.8957096,-7.2895527,10.337472,0.31840032,-1.9623361,-0.27738518,0.30257225,0
1.5300000000000011,12.9589791018603,-1.8101329372076675,-1.0993030334893845,1.1843739305207561,16.247732,-2.220673,-4.2058916,2.87772,4.620834,-4.790299,1.4665836,-0.4191417,0.09571537,-0.09776132,-0.89755243,-7.3001633,10.371814,0.3448035,-1.9385636,-0.4056129,0.34584248,0
1.5400000000000011,12.9589791018603,-1.8101329372076675,-1.0993030334893845,1.1843739305207561,16.247732,-2.220673,-4.2058916,2.87772,4.547772,-4.6864176,1.4701653,-0.41677707,0.09750301,-0.08831221,-0.8994386,-7.312398,10.404204,0.37158015,-1.918497,-0.51384056,0.38698947,0
1.5500000000000012,12.9589791018603,-1.8101329372076675,-1.0993030334893845,1.1843739305207561,16.247732,-2.220673,-4.2058916,2.87772,4.4745803,-4.582222,1.4740163,-0.41424242,0.09877673,-0.07874913,-0.90135664,-7.3261323,10.434537,0.3987171,-1.9015592,-0.6051874,0.42611736,0
1.5600000000000012,12.150768624329222,-1.7459902963011238,-1.4847765778622344,1.288167955123269,15.384733,-2.5834055,-4.714755,2.4705582,4.401244,-4.4777336,1.4781406,-0.41153353,0.09961415,-0.069092825,-0.90329516,-7.34126,10.46272,0.42619532,-1.8872637,-0.68228626,0.46332523,0
1.5700000000000012,12.150768624329222,-1.7459902963011238,-1.4847765778622344,1.288167955123269,15.384733,-2.5834055,-4.714755,2.4705582,4.3277555,-4.372983,1.4825021,-0.40864933,0.0999302,-0.05932187,-0.90526205,-7.356653,10.487049,0.44614092,-1.8651735,-0.8074766,0.5038005,0
1.5800000000000012,12.150768624329222,-1.7459902963011238,-1.4847765778622344,1.288167955123269,15.384733,-2.5834055,-4.714755,2.4705582,4.2541075,-4.2680006,1.4870645,-0.40558606,0.09966078,-0.04942074,-0.90726185,-7.3731337,10.509185,0.4663711,-1.8465295,-0.91314137,0.5422897,0
1.5900000000000012,12.150768624329222,-1.7459902963011238,-1.4847765778622344,1.288167955123269,15.384733,-2.5834055,-4.714755,2.4705582,4.1802897,-4.1628075,1.4918305,-0.4023392,0.09889504,-0.039413348,-0.909279,-7.3905797,10.529032,0.48686832,-1.8307952,-1.0023258,0.57889014,0
1.6000000000000012,12.301977889585043,-1.8546119043695413,-1.3985365259492923,1.441204332899254,17.320812,-3.5859485,-5.5761776,3.5390544,4.106293,-4.0574284,1.4968028,-0.39890632,0.09770856,-0.029319704,-0.91129893,-7.4088855,10.546511,0.5076086,-1.8175172,-1.0776001,0.6136946,0
1.6100000000000012,12.301977889585043,-1.8546119043695413,-1.3985365259492923,1.441204332899254,17.320812,-3.5859485,-5.5761776,3.5390544,4.032109,-3.9518852,1.5019909,-0.39526427,0.09621362,-0.0191325,-0.9133135,-7.4281936,10.561739,0.53004336,-1.8232522,-1.1277006,0.65430075,0
1.6200000000000012,12.301977889585043,-1.8546119043695413,-1.3985365259492923,1.441204332899254,17.320812,-3.5859485,-5.5761776,3.5390544,3.9577272,-3.8462021,1.5074043,-0.39139372,0.09450277,-0.008846751,-0.91531444,-7.448209,10.574438,0.5526555,-1.8280953,-1.1699854,0.69291437,0
1.6300000000000012,12.301977889585043,-1.8546119043695413,-1.3985365259492923,1.441204332899254,17.320812,-3.5859485,-5.5761776,3.5390544,3.8831422,-3.740405,1.5130446,-0.38729972,0.09260868,0.0015188821,-0.9172889,-7.468874,10.584556,0.575402,-1.8321856,-1.2056736,0.72963315,0
1.6400000000000012,12.301977889585043,-1.8546119043695413,-1.3985365259492923,1.441204332899254,17.802847,-3.764376,-5.5145764,3.7658532,3.8083477,-3.63452,1.5189127,-0.3829878,0.090559214,0.011948579,-0.9192254,-7.4901342,10.592047,0.59823656,-1.8356405,-1.2357938,0.76455015,0
1.6500000000000012,12.301977889585043,-1.8546119043695413,-1.3985365259492923,1.441204332899254,17.802847,-3.764376,-5.5145764,3.7658532,3.7333376,-3.5285735,1.5250095,-0.37846386,0.08837811,0.0224289,-0.9211135,-7.511937,10.596874,0.6211102,-1.8385592,-1.2612147,0.7977538,0
1.6600000000000013,12.301977889585043,-1.8546119043695413,-1.3985365259492923,1.441204332899254,17.802847,-3.764376,-5.5145764,3.7658532,3.6581073,-3.4225922,1.5313349,-0.37373397,0.08608564,0.032948397,-0.92294383,-7.534231,10.599006,0.6439717,-1.8410252,-1.2826692,0.8293281,0
1.6700000000000013,12.301977889585043,-1.8546119043695413,-1.3985365259492923,1.441204332899254,17.802847,-3.764376,-5.5145764,3.7658532,3.5826514,-3.316603,1.5378886,-0.3688043,0.08369908,0.043497287,-0.92470783,-7.5569673,10.598415,0.66676825,-1.843109,-1.3007758,0.8593531,0
1.6800000000000013,12.652824600882402,-1.953555552099079,-1.164844789580411,1.5576462212876658,16.218403,-2.60292,-5.4249825,2.6757624,3.506966,-3.2106335,1.5446699,-0.36368117,0.08123322,0.05406717,-0.9263976,-7.580097,10.595083,0.68944556,-1.84487,-1.3160567,0.88790476,0
1.6900000000000013,12.652824600882402,-1.953555552099079,-1.164844789580411,1.5576462212876658,16.218403,-2.60292,-5.4249825,2.6757624,3.4310446,-3.1047118,1.5516942,-0.3583596,0.078802526,0.06465256,-0.9280017,-7.604248,10.5888195,0.7153869,-1.8618052,-1.292525,0.9207692,0
1.7000000000000013,12.652824600882402,-1.953555552099079,-1.164844789580411,1.5576462212876658,16.218403,-2.60292,-5.4249825,2.6757624,3.35488,-2.998867,1.5589767,-0.35283655,0.076498754,0.07524912,-0.9295109,-7.6287465,10.57972,0.7410843,-1.8760996,-1.2726601,0.952021,0
1.7100000000000013,12.652824600882402,-1.953555552099079,-1.164844789580411,1.5576462212876658,16.218403,-2.60292,-5.4249825,2.6757624,3.2784686,-2.8931274,1.5665147,-0.34712034,0.07430303,0.085851505,-0.93092144,-7.6535854,10.567789,0.766473,-1.8881649,-1.2558903,0.9817392,0
1.7200000000000013,13.035091125192288,-2.03212139144165,-1.0664056266209132,1.6533459467071798,16.400305,-2.6233,-4.954801,2.7361853,3.2018075,-2.7875211,1.5743049,-0.3412187,0.07219947,0.09645487,-0.93222964,-7.6787505,10.553032,0.79148966,-1.8983487,-1.2417333,1.0099992,0
1.7300000000000013,13.035091125192288,-2.03212139144165,-1.0664056266209132,1.6533459467071798,16.400305,-2.6233,-4.954801,2.7361853,3.1248891,-2.682079,1.5823616,-0.33512953,0.07022332,0.107069984,-0.93342996,-7.704996,10.5349245,0.8197777,-1.9192033,-1.2144444,1.0415685,0
1.7400000000000013,13.035091125192288,-2.03212139144165,-1.0664056266209132,1.6533459467071798,16.400305,-2.6233,-4.954801,2.7361853,3.0477068,-2.5768328,1.5906986,-0.328851,0.068402,0.11770501,-0.93451715,-7.731557,10.513919,0.84755045,-1.936805,-1.1914077,1.0715886,0
1.7500000000000013,13.035091125192288,-2.03212139144165,-1.0664056266209132,1.6533459467071798,16.400305,-2.6233,-4.954801,2.7361853,2.970257,-2.4718106,1.5993105,-0.32239068,0.06671277,0.12835222,-0.9354881,-7.758427,10.4900255,0.87474096,-1.9516613,-1.1719605,1.1001357,0
1.7600000000000013,13.221164589491595,-1.982052757084562,-0.9331151239170918,1.637215312387601,18.09075,-3.523765,-4.6515875,3.4622061,2.8925374,-2.3670418,1.6081911,-0.31575546,0.065136455,0.13900469,-0.93633974,-7.785593,10.463251,0.90128356,-1.9642003,-1.1555431,1.1272818,0
1.7700000000000014,13.221164589491595,-1.982052757084562,-0.9331151239170918,1.637215312387601,18.09075,-3.523765,-4.6515875,3.4622061,2.8145425,-2.2625575,1.6173425,-0.30896285,0.063700385,0.14962092,-0.937068,-7.8134294,10.433186,0.9288833,-1.9669915,-1.1208897,1.1523043,0
1.7800000000000014,13.221164589491595,-1.982052757084562,-0.9331151239170918,1.637215312387601,18.09075,-3.523765,-4.6515875,3.4622061,2.736268,-2.1583881,1.626766,-0.30202904,0.062425606,0.16016798,-0.9376707,-7.8415365,10.400243,0.955699,-1.9693455,-1.0916389,1.1760991,0
1.7900000000000014,13.221164589491595,-1.982052757084562,-0.9331151239170918,1.637215312387601,18.09075,-3.523765,-4.6515875,3.4622061,2.6577108,-2.0545626,1.6364535,-0.29495853,0.061288763,0.17065145,-0.938147,-7.869899,10.364454,0.98167133,-1.9713304,-1.0669477,1.1987262,0
1.8000000000000014,13.036216360944085,-1.7662002002138464,-0.8173042114851681,1.4775387893020233,17.483412,-3.2646596,-4.211695,3.3804557,2.578869,-1.9511087,1.6463963,-0.28775567,0.060270082,0.18107562,-0.93849576,-7.898497,10.3258505,1.0067424,-1.9730042,-1.0461054,1.220243,0
1.8100000000000014,13.036216360944085,-1.7662002002138464,-0.8173042114851681,1.4775387893020233,17.483412,-3.2646596,-4.211695,3.3804557,2.4997423,-1.8480521,1.6565765,-0.28045714,0.05936817,0.1913508,-0.9387239,-7.9269032,10.285045,1.0291479,-1.9407732,-1.0104142,1.2328684,0
1.8200000000000014,13.036216360944085,-1.7662002002138464,-0.8173042114851681,1.4775387893020233,17.483412,-3.2646596,-4.211695,3.3804557,2.4203303,-1.745417,1.666976,-0.27309668,0.058581155,0.20140691,-0.9388398,-7.9554873,10.241559,1.0505702,-1.9135653,-0.98029196,1.2448745,0
1.8300000000000014,13.036216360944085,-1.7662002002138464,-0.8173042114851681,1.4775387893020233,17.483412,-3.2646596,-4.211695,3.3804557,2.340632,-1.6432298,1.6775845,-0.26567435,0.05789275,0.21127313,-0.93884385,-7.9842176,10.195459,1.0709738,-1.8905973,-0.95486957,1.2562914,0
1.8400000000000014,13.036216360944085,-1.7662002002138464,-0.8173042114851681,1.4775387893020233,17.06559,-2.9397516,-3.8102438,3.0426815,2.2606456,-1.5415167,1.6883919,-0.25819024,0.057289016,0.22097383,-0.9387358,-8.01306,10.146804,1.0903239,-1.8712085,-0.9334138,1.2671479,0
1.8500000000000014,13.036216360944085,-1.7662002002138464,-0.8173042114851681,1.4775387893020233,17.06559,-2.9397516,-3.8102438,3.0426815,2.1803706,-1.4403025,1.6993874,-0.2506447,0.056758,0.23052922,-0.93851507,-8.041981,10.095646,1.108586,-1.8548412,-0.9153056,1.2774718,0
1.8600000000000014,13.036216360944085,-1.7662002002138464,-0.8173042114851681,1.4775387893020233,17.06559,-2.9397516,-3.8102438,3.0426815,2.099806,-1.3396121,1.7105598,-0.24303834,0.056289483,0.23995613,-0.93818086,-8.070945,10.042032,1.1257265,-1.8410245,-0.9000225,1.2872891,0
1.8700000000000014,13.036216360944085,-1.7662002002138464,-0.8173042114851681,1.4775387893020233,17.06559,-2.9397516,-3.8102438,3.0426815,2.0189517,-1.23947,1.721898,-0.2353719,0.05587469,0.24926847,-0.9377322,-8.099915,9.986006,1.1417118,-1.8293612,-0.88712406,1.2966248,0
1.8800000000000014,12.460037611848803,-1.4837417914803317,-0.9710125859684736,1.2136074805396568,15.845399,-2.5309336,-3.26774,2.6524396,1.9378078,-1.1399001,1.73339,-0.22764634,0.055506114,0.25847775,-0.93716806,-8.128854,9.927608,1.1565093,-1.8195152,-0.87623787,1.3055023,0
1.8900000000000015,12.460037611848803,-1.4837417914803317,-0.9710125859684736,1.2136074805396568,15.845399,-2.5309336,-3.26774,2.6524396,1.8563812,-1.0409125,1.7449993,-0.21988367,0.055085834,0.26750326,-0.9365133,-8.156445,9.869563,1.1651534,-1.7671416,-0.89096826,1.3009931,0
1.9000000000000015,12.460037611848803,-1.4837417914803317,-0.9710125859684736,1.2136074805396568,15.845399,-2.5309336,-3.26774,2.6524396,1.7746794,-0.94251627,1.7566891,-0.21210589,0.054535456,0.27628177,-0.9357905,-8.183893,9.809347,1.1726251,-1.7229375,-0.9034089,1.296705,0
1.9100000000000015,12.460037611848803,-1.4837417914803317,-0.9710125859684736,1.2136074805396568,15.845399,-2.5309336,-3.26774,2.6524396,1.6927042,-0.8447329,1.7684476,-0.20431396,0.05387511,0.28484553,-0.9349946,-8.211121,9.747017,1.1789205,-1.6856285,-0.9139157,1.2926273,0
1.9200000000000015,11.411430186112716,-1.0790666484997145,-1.4074317451925482,0.8271618531198491,15.144871,-2.5328453,-3.69745,2.4114866,1.6104581,-0.7475831,1.7802633,-0.1965088,0.053121597,0.2932217,-0.934121,-8.238057,9.682627,1.1840339,-1.6541392,-0.9227894,1.2887498,0
1.9300000000000015,11.411430186112716,-1.0790666484997145,-1.4074317451925482,0.8271618531198491,15.144871,-2.5328453,-3.69745,2.4114866,1.5279555,-0.6510594,1.7920812,-0.18869287,0.052080456,0.30131832,-0.93321407,-8.262392,9.621815,1.1793761,-1.5644082,-0.99827045,1.2660995,0
1.9400000000000015,11.411430186112716,-1.0790666484997145,-1.4074317451925482,0.8271618531198491,15.144871,-2.5328453,-3.69745,2.4114866,1.4452118,-0.5551529,1.8038472,-0.18087316,0.05059745,0.3090631,-0.93231076,-8.286266,9.559223,1.1736562,-1.4886818,-1.0619956,1.2445607,0
1.9500000000000015,11.411430186112716,-1.0790666484997145,-1.4074317451925482,0.8271618531198491,15.144871,-2.5328453,-3.69745,2.4114866,1.3622322,-0.4598809,1.8155508,-0.17305632,0.048739415,0.31650367,-0.9313967,-8.30955,9.494914,1.1669016,-1.4247738,-1.1157954,1.2240788,0
1.9600000000000015,10.50501985220597,-0.6834202835590616,-1.808587432244622,0.38206672263006874,13.893884,-2.1396255,-3.8366368,1.8197023,1.2790232,-0.3652603,1.8271817,-0.16524789,0.0465625,0.32368046,-0.9304593,-8.332132,9.4289465,1.1591344,-1.3708394,-1.1612154,1.2046019,0
1.9700000000000015,10.50501985220597,-0.6834202835590616,-1.808587432244622,0.38206672263006874,13.893884,-2.1396255,-3.8366368,1.8197023,1.195601,-0.27128074,1.8386945,-0.15745868,0.043921057,0.33050895,-0.9295376,-8.352175,9.366742,1.14328,-1.2635908,-1.262055,1.1642399,0
1.9800000000000015,10.50501985220597,-0.6834202835590616,-1.808587432244622,0.38206672263006874,13.893884,-2.1396255,-3.8366368,1.8197023,1.1119827,-0.1779303,1.8500443,-0.14970298,0.040700592,0.33692306,-0.9286625,-8.371332,9.30313,1.1265553,-1.1730826,-1.3471885,1.1258584,0
1.9900000000000015,10.50501985220597,-0.6834202835590616,-1.808587432244622,0.38206672263006874,13.893884,-2.1396255,-3.8366368,1.8197023,1.0281779,-0.08522272,1.8612225,-0.1419895,0.036986426,0.34297934,-0.9278118,-8.389469,9.238181,1.1090032,-1.0967011,-1.4190612,1.0893604,0
2.0000000000000013,,,,,12.3715515,-0.4624396,-4.0092688,-0.17815863,0.9441972,0.006828945,1.8722215,-0.13432519,0.032850426,0.34872547,-0.92696637,-8.406467,9.171959,1.0906582,-1.0322405,-1.4797386,1.0546532,0
2.010000000000001,,,,,12.3715515,-0.4624396,-4.0092688,-0.17815863,0.86005646,0.09822818,1.8830144,-0.12675388,0.028287692,0.35407364,-0.9261553,-8.421481,9.107715,1.0678202,-0.9214797,-1.5433612,1.0024467,0
2.020000000000001,,,,,12.3715515,-0.4624396,-4.0092688,-0.17815863,0.7757719,0.18897957,1.8935755,-0.11931579,0.023296058,0.3589568,-0.9254024,-8.435214,9.042403,1.0443058,-0.8279997,-1.5970815,0.952802,0
2.0300000000000007,,,,,12.3715515,-0.4624396,-4.0092688,-0.17815863,0.6913569,0.27907288,1.9038984,-0.11201073,0.017935023,0.36344007,-0.92468464,-8.447576,8.97611,1.0201621,-0.7491037,-1.6424402,0.9055934,0
2.0400000000000005,,,,,12.3715515,-0.4624396,-4.0092688,-0.17815863,0.6068255,0.3684987,1.9139767,-0.10483787,0.012254823,0.3675782,-0.9239824,-8.458489,8.908914,0.9954273,-0.6825158,-1.680738,0.8607014,0
2.0500000000000003,,,,,10.308878,0.061192676,-3.9300988,-0.7823626,0.52219236,0.4572483,1.9238049,-0.09779577,0.0062979623,0.37141755,-0.92327875,-8.467894,8.840882,0.9701314,-0.6263151,-1.7130736,0.81801224,1
2.06,,,,,10.308878,0.061192676,-3.9300988,-0.7823626,0.43746966,0.54528475,1.9334079,-0.09070822,-0.00055149104,0.37505212,-0.9225541,-8.476338,8.766526,0.9501288,-0.57161903,-2.0061796,0.7442012,1
2.07,,,,,10.308878,0.061192676,-3.9300988,-0.7823626,0.3526729,0.6325814,1.9427999,-0.08341795,-0.008865628,0.3784805,-0.9217992,-8.482661,8.692937,0.9279335,-0.5020147,-2.2770493,0.6719133,1
2.0799999999999996,,,,,10.308878,0.061192676,-3.9300988,-0.7823626,0.26782444,0.7191462,1.9519593,-0.07594794,-0.018547919,0.38160965,-0.92101043,-8.486647,8.620127,0.90364486,-0.42090932,-2.5280654,0.6011691,1
2.0899999999999994,,,,,9.00539,0.024829077,-3.9584308,-0.68769443,0.18294851,0.804983,1.9608696,-0.06832688,-0.029477011,0.3843888,-0.9201663,-8.488132,8.547145,0.87833345,-0.34576136,-2.7466667,0.53327876,1
2.099999999999999,,,,,9.00539,0.024829077,-3.9584308,-0.68769443,0.09807064,0.8901336,1.9694782,-0.060585726,-0.04148137,0.38684723,-0.9192149,-8.487058,8.482909,0.8433355,-0.2880166,-2.935609,0.47336522,1
2.109999999999999,,,,,9.00539,0.024829077,-3.9584308,-0.68769443,0.013216155,0.97463983,1.9777344,-0.052752577,-0.054404482,0.38901603,-0.91810787,-8.483427,8.418274,0.8078317,-0.23929416,-3.0950935,0.4163917,1
2.1199999999999988,,,,,9.00539,0.024829077,-3.9584308,-0.68769443,-0.071588606,1.0584979,1.985633,-0.044864155,-0.06810769,0.39090753,-0.91680866,-8.477091,8.353328,0.77178675,-0.19818166,-3.2297122,0.36221385,1
2.1299999999999986,,,,,8.410084,-0.0048743025,-3.0138836,-0.66789293,-0.15631594,1.1417054,1.9931682,-0.03695125,-0.08247232,0.39253205,-0.9152868,-8.467926,8.288162,0.73515534,-0.16348857,-3.3433416,0.31069455,1
2.1399999999999983,,,,,8.410084,-0.0048743025,-3.0138836,-0.66789293,-0.24094093,1.2242823,2.000314,-0.02918714,-0.09704981,0.39389828,-0.9135491,-8.456645,8.227189,0.6938652,-0.13886635,-3.2919536,0.262675,1
2.149999999999998,,,,,8.410084,-0.0048743025,-3.0138836,-0.66789293,-0.32543954,1.3062491,2.0070436,-0.0217111,-0.11148043,0.39502373,-0.9116224,-8.44266,8.166188,0.6519413,-0.118074544,-3.2485814,0.21701176,1
2.159999999999998,,,,,8.410084,-0.0048743025,-3.0138836,-0.66789293,-0.409785,1.3876063,2.0133507,-0.014500445,-0.12578964,0.39592794,-0.90950876,-8.426021,8.105243,0.60934854,-0.10051715,-3.211975,0.17358923,1
2.1699999999999977,,,,,8.135575,0.43369,-1.6307211,-1.0161003,-0.49395096,1.4683546,2.0192285,-0.007535139,-0.13999817,0.39662704,-0.9072095,-8.406772,8.044426,0.5660506,-0.08569099,-3.1810787,0.13229747,1
2.1799999999999975,,,,,8.135575,0.43369,-1.6307211,-1.0161003,-0.57791513,1.5485055,2.0246606,-0.0010307601,-0.15363978,0.3969685,-0.90488017,-8.385685,7.9857926,0.5202555,-0.0048231613,-2.9392939,0.07594527,1
