time-since-start [s],throttle_mpc,roll_mpc,pitch_mpc,yaw_mpc,throttle_nw,roll_nw,pitch_nw,yaw_nw,position_x [m],position_y [m],position_z [m],rotation_w [quaternion],rotation_x [quaternion],rotation_y [quaternion],rotation_z [quaternion],velocity_x [m/s],velocity_y [m/s],velocity_z [m/s],omega_x [rad/s],omega_y [rad/s],omega_z [rad/s],network_used
0.0,9.266854554202794,5.9999996349568265,-5.999999921622827,-4.901881503874058,8.020284,1.8774596,-3.7486105,-2.295234,18.807838,-9.694801,2.0241354,0.06314813,0.42173484,-0.27745736,-0.86091197,-10.601575,-4.6785994,0.43607044,1.5941268,-0.072918124,-0.63078696,0
0.01,9.266854554202794,5.9999996349568265,-5.999999921622827,-4.901881503874058,13.394799,-1.1188749,-4.7591915,-1.2162131,18.7012,-9.741238,2.0284057,0.05658382,0.42247066,-0.28275952,-0.859281,-10.725774,-4.6084113,0.41762605,1.5444833,-0.26073182,-0.7745044,0
0.02,9.266854554202794,5.9999996349568265,-5.999999921622827,-4.901881503874058,13.394799,-1.1188749,-4.7591915,-1.2162131,18.59333,-9.786965,2.03248,0.049214605,0.4225663,-0.2876534,-0.85806245,-10.847533,-4.5370555,0.3969294,1.5278792,-0.4445905,-0.91343325,0
0.03,9.266854554202794,5.9999996349568265,-5.999999921622827,-4.901881503874058,13.394799,-1.1188749,-4.7591915,-1.2162131,18.484257,-9.831974,2.0363371,0.04099725,0.42203978,-0.29226997,-0.85719305,-10.96662,-4.4645605,0.3742133,1.5395523,-0.6255059,-1.0478433,0
0.04,9.266854554202794,5.9999996349568265,-5.999999921622827,-4.901881503874058,9.48307,-0.32480174,-6.4469914,-1.5911053,18.374006,-9.876253,2.039958,0.03189565,0.42089987,-0.29671907,-0.8566117,-11.082812,-4.3909254,0.34968168,1.5753937,-0.80424047,-1.1779833,0
0.05,9.266854554202794,5.9999996349568265,-5.999999921622827,-4.901881503874058,9.48307,-0.32480174,-6.4469914,-1.5911053,18.26261,-9.919788,2.0433252,0.021880263,0.41914764,-0.3010921,-0.8562593,-11.195892,-4.3161287,0.32351398,1.6318539,-0.9813549,-1.304082,0
0.060000000000000005,9.266854554202794,5.9999996349568265,-5.999999921622827,-4.901881503874058,9.48307,-0.32480174,-6.4469914,-1.5911053,18.150099,-9.96257,2.0464232,0.010927585,0.4167778,-0.30546418,-0.8560774,-11.305648,-4.2401366,0.2958692,1.7058632,-1.1572493,-1.4263508,0
0.07,9.266854554202794,5.9999996349568265,-5.999999921622827,-4.901881503874058,9.48307,-0.32480174,-6.4469914,-1.5911053,18.036509,-10.004586,2.049238,-0.0009802652,0.41377985,-0.30989626,-0.856008,-11.411873,-4.1629105,0.26688904,1.7947656,-1.3321942,-1.5449849,0
0.08,11.240073328499427,5.999999811929439,-5.999999952179818,-4.556389503673285,10.309898,0.28312725,-6.2684937,-1.8184472,17.921873,-10.045824,2.0517569,-0.013855871,0.41013885,-0.31443644,-0.855993,-11.514358,-4.084412,0.23670068,1.8962594,-1.5063585,-1.6601645,0
0.09,11.240073328499427,5.999999811929439,-5.999999952179818,-4.556389503673285,10.309898,0.28312725,-6.2684937,-1.8184472,17.806198,-10.086241,2.0539918,-0.027876161,0.40560332,-0.31934437,-0.85599536,-11.619754,-3.9990265,0.21008325,2.1097627,-1.7814574,-1.7641716,0
0.09999999999999999,11.240073328499427,5.999999811929439,-5.999999952179818,-4.556389503673285,10.309898,0.28312725,-6.2684937,-1.8184472,17.689495,-10.125799,2.0559545,-0.043193202,0.39993745,-0.32483324,-0.8559601,-11.720269,-3.912356,0.18221758,2.322913,-2.0466454,-1.8660223,0
0.10999999999999999,11.240073328499427,5.999999811929439,-5.999999952179818,-4.556389503673285,10.309898,0.28312725,-6.2684937,-1.8184472,17.57181,-10.164483,2.0576324,-0.059775803,0.39314327,-0.33086833,-0.85579866,-11.815595,-3.8242614,0.15325013,2.535083,-2.3027825,-1.9657613,0
0.11999999999999998,11.240073328499427,5.999999811929439,-5.999999952179818,-4.556389503673285,10.309898,0.28312725,-6.2684937,-1.8184472,17.453201,-10.202279,2.059016,-0.07758955,0.3852178,-0.3374098,-0.855419,-11.905422,-3.7346587,0.12330867,2.7457592,-2.550609,-2.0634322,0
0.12999999999999998,14.274158652455103,5.999999899688226,-5.999999973760406,-3.9437729349521042,11.41139,0.7976391,-6.4464874,-1.4511455,17.333723,-10.239171,2.0600958,-0.09659635,0.37615436,-0.34441295,-0.8547261,-11.98945,-3.643519,0.09250344,2.9545214,-2.790766,-2.1590781,0
0.13999999999999999,14.274158652455103,5.999999899688226,-5.999999973760406,-3.9437729349521042,11.41139,0.7976391,-6.4464874,-1.4511455,17.213394,-10.275096,2.060898,-0.11702614,0.3655197,-0.35215893,-0.85363,-12.075412,-3.541269,0.0678112,3.3282776,-3.1914816,-2.23764,0
0.15,14.274158652455103,5.999999899688226,-5.999999973760406,-3.9437729349521042,11.41139,0.7976391,-6.4464874,-1.4511455,17.092241,-10.309992,2.061448,-0.13906533,0.3529078,-0.36085844,-0.8519965,-12.153693,-3.4377868,0.042039428,3.6840265,-3.570003,-2.3159487,0
0.16,18.380067047662536,5.999999932074694,-5.999999981137177,-3.2586308463025597,12.887501,1.249348,-6.465029,-0.84665763,16.970346,-10.343847,2.0617356,-0.16260353,0.33834767,-0.37035733,-0.8496566,-12.223816,-3.3330755,0.015315732,4.0230236,-3.928237,-2.3938787,0
0.17,18.380067047662536,5.999999932074694,-5.999999981137177,-3.2586308463025597,12.887501,1.249348,-6.465029,-0.84665763,16.8477,-10.3764925,2.0618563,-0.18743393,0.32185888,-0.38051456,-0.8464537,-12.303835,-3.195402,0.008959159,4.3307104,-4.2519264,-2.4363124,0
0.18000000000000002,18.380067047662536,5.999999932074694,-5.999999981137177,-3.2586308463025597,12.887501,1.249348,-6.465029,-0.84665763,16.724302,-10.407739,2.0619192,-0.21326081,0.30358097,-0.39111856,-0.8422497,-12.373864,-3.053171,0.003803744,4.5904837,-4.52507,-2.4766638,0
0.19000000000000003,18.380067047662536,5.999999932074694,-5.999999981137177,-3.2586308463025597,12.887501,1.249348,-6.465029,-0.84665763,16.60026,-10.437541,2.0619364,-0.23985314,0.28370684,-0.40193635,-0.83691573,-12.432953,-2.9068115,-0.00017479685,4.809807,-4.755559,-2.5150352,0
0.20000000000000004,20.999998467931338,5.9999999027148405,-5.999999966339332,-2.9217905134627413,15.594562,2.4869816,-5.385568,-1.7212008,16.475683,-10.465862,2.0619195,-0.26700202,0.26241082,-0.412769,-0.8303445,-12.480255,-2.7569265,-0.0030525997,4.9949813,-4.950051,-2.5515234,0
0.21000000000000005,20.999998467931338,5.9999999027148405,-5.999999966339332,-2.9217905134627413,15.594562,2.4869816,-5.385568,-1.7212008,16.350668,-10.49256,2.061947,-0.2944834,0.23983502,-0.42345792,-0.82246083,-12.520001,-2.582508,0.008760652,5.1513805,-5.114111,-2.5696926,0
0.22000000000000006,20.999998467931338,5.9999999027148405,-5.999999966339332,-2.9217905134627413,15.594562,2.4869816,-5.385568,-1.7212008,16.22533,-10.517504,2.0620975,-0.32209328,0.21610986,-0.43386844,-0.81320995,-12.544757,-2.4059236,0.021505121,5.2834315,-5.252545,-2.5869699,0
0.23000000000000007,20.999998467931338,5.9999999027148405,-5.999999966339332,-2.9217905134627413,15.594562,2.4869816,-5.385568,-1.7212008,16.099827,-10.540676,2.0623796,-0.3496785,0.19137275,-0.44387597,-0.80254304,-12.553978,-2.228293,0.034953024,5.3949256,-5.369356,-2.6033995,0
0.24000000000000007,20.999998467931338,5.9999999027148405,-5.999999966339332,-2.9217905134627413,15.549097,1.4006463,-4.808201,-1.0125304,15.974306,-10.562071,2.0627985,-0.3770991,0.16575186,-0.45337468,-0.7904263,-12.547275,-2.0508296,0.04884199,5.489064,-5.4679203,-2.619023,0
0.25000000000000006,20.999998467931338,5.9999999027148405,-5.999999966339332,-2.9217905134627413,15.549097,1.4006463,-4.808201,-1.0125304,15.848936,-10.581697,2.063357,-0.40422684,0.1393674,-0.46227473,-0.7768392,-12.524412,-1.8748153,0.06288163,5.5685487,-5.551087,-2.63388,0
0.26000000000000006,20.999998467931338,5.9999999027148405,-5.999999966339332,-2.9217905134627413,15.549097,1.4006463,-4.808201,-1.0125304,15.723875,-10.599577,2.0640557,-0.43094406,0.11233243,-0.4705002,-0.7617729,-12.485315,-1.7015791,0.0767598,5.6356606,-5.621261,-2.6480079,0
0.2700000000000001,20.999998467931338,5.9999999027148405,-5.999999966339332,-2.9217905134627413,15.549097,1.4006463,-4.808201,-1.0125304,15.599285,-10.615744,2.0648906,-0.45714235,0.0847538,-0.47798693,-0.74522865,-12.430066,-1.5324764,0.09014855,5.6923275,-5.680473,-2.6614425,0
0.2800000000000001,20.99999891845874,4.135653306688804,-5.458140919451941,-0.7469224434088525,15.603233,-0.36603576,-4.3367944,-0.25857243,15.475328,-10.630245,2.0658557,-0.48272198,0.05673266,-0.4846811,-0.7272171,-12.358904,-1.3688685,0.10270984,5.7401743,-5.7304335,-2.674218,0
0.2900000000000001,20.99999891845874,4.135653306688804,-5.458140919451941,-0.7469224434088525,15.603233,-0.36603576,-4.3367944,-0.25857243,15.35216,-10.643144,2.0669408,-0.5072654,0.028758626,-0.49013105,-0.7082555,-12.272282,-1.2120931,0.11413563,5.490376,-5.687195,-2.579645,0
0.3000000000000001,20.99999891845874,4.135653306688804,-5.458140919451941,-0.7469224434088525,15.603233,-0.36603576,-4.3367944,-0.25857243,15.229932,-10.654514,2.068134,-0.53047377,0.001231201,-0.4940329,-0.68885934,-12.171137,-1.063356,0.1243213,5.2795,-5.650809,-2.489713,0
0.3100000000000001,20.99999891845874,4.135653306688804,-5.458140919451941,-0.7469224434088525,15.603233,-0.36603576,-4.3367944,-0.25857243,15.108783,-10.664443,2.0694227,-0.55241996,-0.02588613,-0.49653965,-0.6690367,-12.056552,-0.9237098,0.13322067,5.10148,-5.620188,-2.4041939,0
0.3200000000000001,19.604900023463546,2.3217572329543454,-3.291786401703018,-0.15715934185674382,15.012428,-2.3883295,-3.2376418,0.3581113,14.988843,-10.673024,2.0707936,-0.57316214,-0.052623745,-0.49777782,-0.6487932,-11.929605,-0.7940825,0.1407695,4.9511967,-5.5944185,-2.322871,0
0.3300000000000001,19.604900023463546,2.3217572329543454,-3.291786401703018,-0.15715934185674382,15.012428,-2.3883295,-3.2376418,0.3581113,14.870184,-10.680403,2.0721982,-0.59232855,-0.07806667,-0.49789977,-0.6286078,-11.80062,-0.6831106,0.1399712,4.5420446,-5.234389,-2.2165987,0
0.34000000000000014,19.604900023463546,2.3217572329543454,-3.291786401703018,-0.15715934185674382,15.012428,-2.3883295,-3.2376418,0.3581113,14.752862,-10.686722,2.0735884,-0.6097047,-0.101509415,-0.49711588,-0.60895914,-11.662562,-0.5823381,0.1378222,4.196556,-4.9306645,-2.1155417,0
0.35000000000000014,19.604900023463546,2.3217572329543454,-3.291786401703018,-0.15715934185674382,15.012428,-2.3883295,-3.2376418,0.3581113,14.63696,-10.692084,2.0749502,-0.625538,-0.12326023,-0.49558604,-0.5898329,-11.516776,-0.49168605,0.13433625,3.9048288,-4.674434,-2.0194433,0
0.36000000000000015,16.865799791130524,0.3367529334005918,-0.9576762457614594,0.646661724128877,15.100575,-2.9280772,-1.468567,0.7917799,14.522549,-10.69659,2.0762706,-0.64003044,-0.1435821,-0.4934314,-0.57120043,-11.364418,-0.41102883,0.12954009,3.6585,-4.458268,-1.9280604,0
0.37000000000000016,16.865799791130524,0.3367529334005918,-0.9576762457614594,0.646661724128877,15.100575,-2.9280772,-1.468567,0.7917799,14.40958,-10.700389,2.0774722,-0.65296406,-0.16171095,-0.49089456,-0.5536328,-11.228594,-0.3500291,0.11062055,3.1414862,-3.9114425,-1.8017181,0
0.38000000000000017,16.865799791130524,0.3367529334005918,-0.9576762457614594,0.646661724128877,15.100575,-2.9280772,-1.468567,0.7917799,14.29799,-10.703616,2.0784798,-0.66423833,-0.17708142,-0.4882298,-0.5376435,-11.089013,-0.2967305,0.09073169,2.704903,-3.4500785,-1.6815754,0
0.3900000000000002,16.865799791130524,0.3367529334005918,-0.9576762457614594,0.646661724128877,15.100575,-2.9280772,-1.468567,0.7917799,14.18781,-10.7063465,2.0792844,-0.6741478,-0.19016485,-0.48551816,-0.5230999,-10.946536,-0.25033432,0.07002178,2.3362465,-3.0608103,-1.5673282,0
0.4000000000000002,15.793465128308677,-2.3096900509866525,1.8849688512027307,3.2419863716049617,15.629093,-2.8227406,0.7902184,1.6846315,14.079066,-10.708644,2.0798783,-0.6829253,-0.20135622,-0.48280787,-0.5098673,-10.8018265,-0.21012256,0.048634168,2.0249565,-2.7323654,-1.4586871,0
0.4100000000000002,15.793465128308677,-2.3096900509866525,1.8849688512027307,3.2419863716049617,15.629093,-2.8227406,0.7902184,1.6846315,13.971922,-10.710532,2.0803301,-0.690393,-0.20977497,-0.48021424,-0.4987441,-10.627466,-0.16869743,0.041299112,1.3115988,-2.0497284,-1.2680203,0
0.4200000000000002,15.793465128308677,-2.3096900509866525,1.8849688512027307,3.2419863716049617,15.629093,-2.8227406,0.7902184,1.6846315,13.866506,-10.712038,2.0806956,-0.6964288,-0.21477555,-0.47787166,-0.49040443,-10.456226,-0.13316242,0.031502713,0.7134155,-1.4696361,-1.0820757,0
0.4300000000000002,15.793465128308677,-2.3096900509866525,1.8849688512027307,3.2419863716049617,15.629093,-2.8227406,0.7902184,1.6846315,13.762783,-10.71321,2.0809531,-0.70125395,-0.21697015,-0.47580126,-0.48454037,-10.288673,-0.10177373,0.01970002,0.21151088,-0.97702414,-0.90073633,0
0.4400000000000002,15.793465128308677,-2.3096900509866525,1.8849688512027307,3.2419863716049617,14.053017,-4.574507,4.5729694,1.9098979,13.660717,-10.714083,2.081084,-0.7050297,-0.2168647,-0.4739903,-0.48086926,-10.125171,-0.07310695,0.0062500513,-0.2099419,-0.559058,-0.72388816,0
0.45000000000000023,15.793465128308677,-2.3096900509866525,1.8849688512027307,3.2419863716049617,14.053017,-4.574507,4.5729694,1.9098979,13.560265,-10.714678,2.0810735,-0.7078749,-0.2148776,-0.47240624,-0.47913712,-9.965945,-0.046011668,-0.008570615,-0.5642007,-0.2048043,-0.55142,0
0.46000000000000024,15.793465128308677,-2.3096900509866525,1.8849688512027307,3.2419863716049617,14.053017,-4.574507,4.5729694,1.9098979,13.461383,-10.715006,2.080909,-0.709878,-0.21135536,-0.47100613,-0.47911865,-9.811141,-0.019569162,-0.024553701,-0.8623707,0.095047876,-0.38322318,0
0.47000000000000025,15.793465128308677,-2.3096900509866525,1.8849688512027307,3.2419863716049617,14.053017,-4.574507,4.5729694,1.9098979,13.364026,-10.71507,2.0805793,-0.7111063,-0.20658523,-0.46974254,-0.480616,-9.660846,0.0069448627,-0.04154604,-1.1137549,0.34842712,-0.21919203,0
0.48000000000000026,15.620529099500159,-4.6365947281613815,4.472003984551625,3.4269038641490965,13.604294,-3.5833998,4.712657,1.0154864,13.26815,-10.714866,2.080075,-0.7116115,-0.20080578,-0.4685675,-0.48345634,-9.515111,0.03409261,-0.05943781,-1.3261465,0.5620842,-0.05922339,0
0.49000000000000027,15.620529099500159,-4.6365947281613815,4.472003984551625,3.4269038641490965,13.604294,-3.5833998,4.712657,1.0154864,13.173726,-10.714381,2.0793974,-0.71115917,-0.193042,-0.46765214,-0.48814777,-9.370592,0.06307985,-0.076216914,-1.8892982,1.1248652,0.100550175,0
0.5000000000000002,15.620529099500159,-4.6365947281613815,4.472003984551625,3.4269038641490965,13.604294,-3.5833998,4.712657,1.0154864,13.080722,-10.713597,2.0785484,-0.70952654,-0.18251719,-0.46709928,-0.49505275,-9.231031,0.09419679,-0.09365165,-2.366244,1.5982646,0.25636667,0
0.5100000000000002,15.620529099500159,-4.6365947281613815,4.472003984551625,3.4269038641490965,13.604294,-3.5833998,4.712657,1.0154864,12.989088,-10.712486,2.0775235,-0.70674956,-0.16968006,-0.4667712,-0.50382304,-9.096233,0.12844971,-0.111323416,-2.7651975,2.0014544,0.40779638,0
0.5200000000000002,16.124400761342965,-5.6831986549797,5.714000968984795,3.0547048990056154,14.091867,-3.823719,5.1258764,0.87184536,12.898784,-10.711014,2.0763242,-0.7028059,-0.15491824,-0.46662274,-0.51412714,-8.9653015,0.16684687,-0.12844054,-3.0828555,2.3608627,0.553649,0
0.5300000000000002,16.124400761342965,-5.6831986549797,5.714000968984795,3.0547048990056154,14.091867,-3.823719,5.1258764,0.87184536,12.809784,-10.709129,2.0749674,-0.69748133,-0.13799524,-0.4668193,-0.52588594,-8.8349495,0.21123382,-0.14266975,-3.488794,2.8833592,0.6763765,0
0.5400000000000003,16.124400761342965,-5.6831986549797,5.714000968984795,3.0547048990056154,14.091867,-3.823719,5.1258764,0.87184536,12.722074,-10.706768,2.073476,-0.69061375,-0.11871416,-0.46738386,-0.53899086,-8.707872,0.26181102,-0.15539765,-3.8314552,3.3243551,0.7930818,0
0.5500000000000003,16.124400761342965,-5.6831986549797,5.714000968984795,3.0547048990056154,14.091867,-3.823719,5.1258764,0.87184536,12.635614,-10.703869,2.0718644,-0.6822248,-0.09744006,-0.46812516,-0.553112,-8.5847225,0.31929606,-0.16675803,-4.120692,3.6965728,0.9040603,0
0.5600000000000003,16.7829648299024,-5.7301767105720165,5.751381193489665,2.7359746668372718,13.292916,-5.038825,5.852191,1.2963182,12.550364,-10.700357,2.0701451,-0.6723297,-0.07448906,-0.4688788,-0.5679578,-8.466194,0.38420904,-0.17693608,-4.3648233,4.0107465,1.0095931,0
0.5700000000000003,16.7829648299024,-5.7301767105720165,5.751381193489665,2.7359746668372718,13.292916,-5.038825,5.852191,1.2963182,12.466295,-10.696143,2.0683472,-0.6609589,-0.050097585,-0.4695071,-0.5832546,-8.348385,0.4598578,-0.18253218,-4.5781636,4.2818055,1.0943071,0
0.5800000000000003,16.7829648299024,-5.7301767105720165,5.751381193489665,2.7359746668372718,13.292916,-5.038825,5.852191,1.2963182,12.383375,-10.691131,2.0664968,-0.6481435,-0.024474401,-0.46989232,-0.5987582,-8.236912,0.54377717,-0.18741676,-4.758219,4.5106077,1.1748642,0
0.5900000000000003,16.7829648299024,-5.7301767105720165,5.751381193489665,2.7359746668372718,13.292916,-5.038825,5.852191,1.2963182,12.301535,-10.685238,2.0646002,-0.6339013,0.002157556,-0.4699341,-0.6142683,-8.132555,0.6359919,-0.1919044,-4.9101777,4.703745,1.2514683,0
0.6000000000000003,16.361676670297527,-4.854436785866586,4.667154660349784,2.3172526198526096,15.1729355,-5.2011037,6.410775,1.1548799,12.220697,-10.678383,2.062659,-0.6182546,0.02959957,-0.46954998,-0.62960863,-8.036086,0.73637474,-0.19633824,-5.0384197,4.86678,1.3243135,0
0.6100000000000003,16.361676670297527,-4.854436785866586,4.667154660349784,2.3172526198526096,15.1729355,-5.2011037,6.410775,1.1548799,12.140772,-10.670497,2.0606606,-0.6014885,0.057208344,-0.46863425,-0.64445317,-7.950426,0.8419129,-0.20342025,-5.0098543,4.835514,1.3730373,0
0.6200000000000003,16.361676670297527,-4.854436785866586,4.667154660349784,2.3172526198526096,15.1729355,-5.2011037,6.410775,1.1548799,12.06166,-10.661519,2.0585885,-0.5838866,0.08446212,-0.46714005,-0.65857565,-7.8736424,0.95457304,-0.2111199,-4.9857388,4.809129,1.4193703,0
0.6300000000000003,16.361676670297527,-4.854436785866586,4.667154660349784,2.3172526198526096,15.1729355,-5.2011037,6.410775,1.1548799,11.983269,-10.6513815,2.056435,-0.5654721,0.111360155,-0.465083,-0.6719651,-7.8061185,1.0737092,-0.21973531,-4.9653797,4.7868648,1.4634297,0
0.6400000000000003,16.361676670297527,-4.854436785866586,4.667154660349784,2.3172526198526096,14.583343,-5.5078807,5.6428423,1.1854633,11.905504,-10.640023,2.05419,-0.54626846,0.13789816,-0.4624768,-0.6846089,-7.7481956,1.1986554,-0.22955185,-4.948191,4.7680774,1.5053271,0
0.6500000000000004,16.361676670297527,-4.854436785866586,4.667154660349784,2.3172526198526096,14.583343,-5.5078807,5.6428423,1.1854633,11.828271,-10.62739,2.051839,-0.52629995,0.16406877,-0.4593334,-0.6964925,-7.700172,1.328726,-0.24084207,-4.933678,4.7522244,1.5451684,0
0.6600000000000004,16.361676670297527,-4.854436785866586,4.667154660349784,2.3172526198526096,14.583343,-5.5078807,5.6428423,1.1854633,11.751467,-10.613434,2.0493667,-0.50559175,0.18986201,-0.45566365,-0.707601,-7.6623006,1.4632188,-0.2538652,-4.921424,4.7388487,1.5830549,0
0.6700000000000004,16.361676670297527,-4.854436785866586,4.667154660349784,2.3172526198526096,14.583343,-5.5078807,5.6428423,1.1854633,11.67499,-10.598113,2.0467544,-0.4841699,0.2152656,-0.4514774,-0.7179189,-7.634788,1.6014158,-0.26886675,-4.911076,4.7275634,1.6190822,0
0.6800000000000004,15.664619279905633,-3.624634884253223,3.1201009385033034,1.8834423345065714,15.618433,-4.95887,4.5279503,1.158686,11.598736,-10.581394,2.0439816,-0.46206146,0.24026541,-0.44678387,-0.72743046,-7.6177945,1.7425855,-0.28607774,-4.9023385,4.718043,1.6533415,0
0.6900000000000004,15.664619279905633,-3.624634884253223,3.1201009385033034,1.8834423345065714,15.618433,-4.95887,4.5279503,1.158686,11.522596,-10.563282,2.0410078,-0.43973935,0.26419836,-0.44166526,-0.73604316,-7.6116533,1.8798655,-0.3090382,-4.7028465,4.4690247,1.6646326,0
0.7000000000000004,15.664619279905633,-3.624634884253223,3.1201009385033034,1.8834423345065714,15.618433,-4.95887,4.5279503,1.158686,11.446468,-10.543791,2.0377924,-0.41763017,0.28656387,-0.43623564,-0.74374986,-7.6153655,2.018501,-0.3343605,-4.5345016,4.258811,1.6753696,0
0.7100000000000004,15.664619279905633,-3.624634884253223,3.1201009385033034,1.8834423345065714,15.618433,-4.95887,4.5279503,1.158686,11.370256,-10.52291,2.0343122,-0.39569113,0.30756637,-0.43053883,-0.7506443,-7.628561,2.1577806,-0.36204803,-4.392442,4.0813556,1.6855798,0
0.7200000000000004,15.737161551723993,-1.8851256507601435,1.20491448845616,1.4164610083086127,16.254747,-4.4884663,2.9939988,0.49510136,11.293866,-10.500636,2.030543,-0.37388235,0.32737762,-0.42460608,-0.7567989,-7.6508927,2.297069,-0.39209428,-4.2725635,3.931553,1.6952889,0
0.7300000000000004,15.737161551723993,-1.8851256507601435,1.20491448845616,1.4164610083086127,16.254747,-4.4884663,2.9939988,0.49510136,11.217207,-10.476969,2.0264637,-0.35277513,0.34533602,-0.4186961,-0.762224,-7.682106,2.4364412,-0.4241573,-3.899743,3.506781,1.6816068,0
0.7400000000000004,15.737161551723993,-1.8851256507601435,1.20491448845616,1.4164610083086127,16.254747,-4.4884663,2.9939988,0.49510136,11.140196,-10.451913,2.022053,-0.33285904,0.36096478,-0.4130601,-0.76700056,-7.72134,2.574786,-0.45836484,-3.585145,3.1481812,1.6685959,0
0.7500000000000004,15.737161551723993,-1.8851256507601435,1.20491448845616,1.4164610083086127,16.254747,-4.4884663,2.9939988,0.49510136,11.062756,-10.425478,2.01729,-0.313981,0.37464118,-0.40769568,-0.77126086,-7.767803,2.7117593,-0.494488,-3.319676,2.845445,1.6562237,0
0.7600000000000005,15.110370393644374,-0.14721972107527906,-0.9233453865942906,0.9061505154234821,14.886553,-3.6613288,1.5143868,-0.3418654,10.9848175,-10.397683,2.0121574,-0.29600185,0.38667905,-0.40258852,-0.77510244,-7.8208165,2.8471076,-0.5323158,-3.095663,2.5898707,1.6444584,0
0.7700000000000005,15.110370393644374,-0.14721972107527906,-0.9233453865942906,0.9061505154234821,14.886553,-3.6613288,1.5143868,-0.3418654,10.90633,-10.368569,2.006627,-0.27946338,0.39650738,-0.3979916,-0.77864236,-7.8773837,2.9753401,-0.57396775,-2.6352198,2.0425422,1.6082295,0
0.7800000000000005,15.110370393644374,-0.14721972107527906,-0.9233453865942906,0.9061505154234821,14.886553,-3.6613288,1.5143868,-0.3418654,10.827253,-10.338182,2.0006747,-0.26480666,0.40371576,-0.3941304,-0.78201747,-7.938709,3.1018398,-0.6166812,-2.2466972,1.5804714,1.5737784,0
0.7900000000000005,15.110370393644374,-0.14721972107527906,-0.9233453865942906,0.9061505154234821,14.886553,-3.6613288,1.5143868,-0.3418654,10.747542,-10.30654,1.9942913,-0.25177297,0.40875217,-0.39093488,-0.7853031,-8.003906,3.2266932,-0.6600817,-1.918859,1.1903797,1.5410177,0
0.8000000000000005,15.067597989076882,1.0824002039226004,-2.6783296839774606,0.3234608793140976,12.86026,-1.8262718,-0.18876591,-0.79924643,10.667164,-10.273655,1.9874718,-0.24013482,0.41198468,-0.38833165,-0.7885439,-8.072239,3.3500214,-0.7038482,-1.6422247,0.8610565,1.5098646,0
0.8100000000000005,15.067597989076882,1.0824002039226004,-2.6783296839774606,0.3234608793140976,12.86026,-1.8262718,-0.18876591,-0.79924643,10.586089,-10.239544,1.9802144,-0.23021415,0.41309017,-0.38643554,-0.79184884,-8.143002,3.4719057,-0.74771607,-1.2200714,0.3128558,1.4519557,0
0.8200000000000005,15.067597989076882,1.0824002039226004,-2.6783296839774606,0.3234608793140976,12.86026,-1.8262718,-0.18876591,-0.79924643,10.504299,-10.204222,1.9725184,-0.22228488,0.4118063,-0.3853499,-0.79530466,-8.215246,3.5924063,-0.7913796,-0.86056626,-0.15324649,1.3965801,0
0.8300000000000005,15.067597989076882,1.0824002039226004,-2.6783296839774606,0.3234608793140976,12.86026,-1.8262718,-0.18876591,-0.79924643,10.4217825,-10.167698,1.9643891,-0.21606207,0.4085248,-0.3849639,-0.79889077,-8.288332,3.7120786,-0.8343425,-0.5572219,-0.5467365,1.3439218,0
0.8400000000000005,15.067597989076882,1.0824002039226004,-2.6783296839774606,0.3234608793140976,12.598572,-1.1308967,-1.787643,-1.8623942,10.338534,-10.129982,1.9558349,-0.211298,0.4035694,-0.38517228,-0.80257475,-8.361585,3.8311803,-0.87630105,-0.3012612,-0.8789231,1.2938474,0
0.8500000000000005,15.067597989076882,1.0824002039226004,-2.6783296839774606,0.3234608793140976,12.598572,-1.1308967,-1.787643,-1.8623942,10.254554,-10.091076,1.9468672,-0.20778017,0.397207,-0.38587895,-0.806319,-8.43443,3.9499373,-0.9170135,-0.08527921,-1.1593546,1.2462304,0
0.8600000000000005,15.067597989076882,1.0824002039226004,-2.6783296839774606,0.3234608793140976,12.598572,-1.1308967,-1.787643,-1.8623942,10.169848,-10.050983,1.9374995,-0.20532687,0.38965866,-0.3869979,-0.81008554,-8.506375,4.068541,-0.9562921,0.09697114,-1.3960925,1.2009498,0
0.8700000000000006,15.067597989076882,1.0824002039226004,-2.6783296839774606,0.3234608793140976,12.598572,-1.1308967,-1.787643,-1.8623942,10.084431,-10.009706,1.9277469,-0.20378315,0.3811083,-0.38845304,-0.8138378,-8.576995,4.1871495,-0.99399465,0.25076005,-1.5959432,1.1578913,0
0.8800000000000006,15.996079418205587,1.86377688546408,-3.645499142026946,-0.16168273400404135,12.909296,-0.5454665,-1.0385092,-1.49818,9.998315,-9.96724,1.9176254,-0.20301695,0.37170964,-0.3901779,-0.81754273,-8.645916,4.3058887,-1.0300181,0.38053408,-1.7646531,1.1169455,0
0.8900000000000006,15.996079418205587,1.86377688546408,-3.645499142026946,-0.16168273400404135,12.909296,-0.5454665,-1.0385092,-1.49818,9.911499,-9.923551,1.9071721,-0.20323092,0.36123362,-0.3922694,-0.82117665,-8.716908,4.4321985,-1.0603496,0.6119745,-2.0578263,1.0542028,0
0.9000000000000006,15.996079418205587,1.86377688546408,-3.645499142026946,-0.16168273400404135,12.909296,-0.5454665,-1.0385092,-1.49818,9.823985,-9.878596,1.8964252,-0.20458077,0.3495023,-0.39479408,-0.82470083,-8.785211,4.558916,-1.0887072,0.8072731,-2.3053198,0.99453896,0
0.9100000000000006,15.996079418205587,1.86377688546408,-3.645499142026946,-0.16168273400404135,12.909296,-0.5454665,-1.0385092,-1.49818,9.735804,-9.832371,1.8854051,-0.20689856,0.3367026,-0.39765614,-0.82806575,-8.850307,4.6861706,-1.11501,0.9720771,-2.5142486,0.93780285,0
0.9200000000000006,16.572038294805093,1.9408519922051346,-4.239300408666473,-0.5305571787214503,13.08232,0.12915914,-1.2429405,-1.6507298,9.646991,-9.78487,1.8741322,-0.21004087,0.32299194,-0.4007729,-0.8312274,-8.911747,4.8140435,-1.1392207,1.1111505,-2.6906202,0.88385075,0
0.9300000000000006,16.572038294805093,1.9408519922051346,-4.239300408666473,-0.5305571787214503,13.08232,0.12915914,-1.2429405,-1.6507298,9.557573,-9.736065,1.8626413,-0.21402799,0.30831677,-0.40403333,-0.8341994,-8.971182,4.9472,-1.1585923,1.240549,-2.9321175,0.8144453,0
0.9400000000000006,16.572038294805093,1.9408519922051346,-4.239300408666473,-0.5305571787214503,13.08232,0.12915914,-1.2429405,-1.6507298,9.467583,-9.685924,1.850968,-0.21887209,0.2926414,-0.40733913,-0.8369765,-9.025942,5.081028,-1.1757469,1.3497345,-3.1359718,0.74844563,0
0.9500000000000006,16.572038294805093,1.9408519922051346,-4.239300408666473,-0.5305571787214503,13.08232,0.12915914,-1.2429405,-1.6507298,9.37707,-9.63444,1.8391341,-0.22444777,0.2761133,-0.41064152,-0.8394981,-9.075596,5.2154775,-1.1906698,1.4418678,-3.3080494,0.6856846,0
0.9600000000000006,17.30671116890819,1.515517354685048,-4.3159012733917,-0.7923519849748227,12.880199,0.05317752,-1.2529501,-1.822719,9.28609,-9.581611,1.827162,-0.23064682,0.25885847,-0.4138991,-0.841713,-9.119761,5.350458,-1.2033888,1.5196149,-3.4533017,0.6260032,0
0.9700000000000006,17.30671116890819,1.515517354685048,-4.3159012733917,-0.7923519849748227,12.880199,0.05317752,-1.2529501,-1.822719,9.194687,-9.5274,1.8150928,-0.23737279,0.24101214,-0.41691852,-0.8436499,-9.159811,5.491841,-1.2100784,1.5188684,-3.587893,0.55640405,0
0.9800000000000006,17.30671116890819,1.515517354685048,-4.3159012733917,-0.7923519849748227,12.880199,0.05317752,-1.2529501,-1.822719,9.102915,-9.471774,1.8029679,-0.24455035,0.22269267,-0.41954497,-0.8453307,-9.193522,5.6334314,-1.2145606,1.5182275,-3.701491,0.49022022,0
0.9900000000000007,17.30671116890819,1.515517354685048,-4.3159012733917,-0.7923519849748227,12.880199,0.05317752,-1.2529501,-1.822719,9.0108385,-9.414732,1.790809,-0.25211993,0.20397732,-0.42179903,-0.84670734,-9.220681,5.774989,-1.2168877,1.5176798,-3.7973707,0.427284,0
1.0000000000000007,17.233814825375646,0.7280252212758694,-3.8287064738420162,-0.8415539837605026,13.591743,-0.22629125,-0.8877451,-1.5929054,8.918525,-9.356276,1.7786372,-0.26002827,0.18493253,-0.42369902,-0.84774023,-9.241098,5.9162607,-1.2171428,1.517214,-3.8782942,0.36743614,0
1.0100000000000007,17.233814825375646,0.7280252212758694,-3.8287064738420162,-0.8415539837605026,13.591743,-0.22629125,-0.8877451,-1.5929054,8.826041,-9.2964115,1.7664707,-0.26809493,0.16586703,-0.42504597,-0.8484976,-9.254591,6.056385,-1.2158476,1.3939888,-3.8706446,0.30811068,0
1.0200000000000007,17.233814825375646,0.7280252212758694,-3.8287064738420162,-0.8415539837605026,13.591743,-0.22629125,-0.8877451,-1.5929054,8.733457,-9.23515,1.7543266,-0.27618363,0.14703557,-0.42569247,-0.8490513,-9.261292,6.1956463,-1.2126663,1.2899886,-3.864173,0.2516963,0
1.0300000000000007,17.233814825375646,0.7280252212758694,-3.8287064738420162,-0.8415539837605026,13.591743,-0.22629125,-0.8877451,-1.5929054,8.640838,-9.1725025,1.7422235,-0.28430754,0.1284172,-0.42572325,-0.8493745,-9.261305,6.333735,-1.2076737,1.2022151,-3.8586986,0.19805019,0
1.0400000000000007,17.233814825375646,0.7280252212758694,-3.8287064738420162,-0.8415539837605026,13.690301,-0.66966397,-0.13163295,-1.5574149,8.548252,-9.108481,1.730179,-0.29247445,0.109993674,-0.42521033,-0.8494441,-9.254724,6.470361,-1.200957,1.1281366,-3.8540688,0.14703652,0
1.0500000000000007,17.233814825375646,0.7280252212758694,-3.8287064738420162,-0.8415539837605026,13.690301,-0.66966397,-0.13163295,-1.5574149,8.455766,-9.043102,1.7182099,-0.30068782,0.09174915,-0.42421508,-0.8492405,-9.241637,6.6052513,-1.1926142,1.0656174,-3.8501534,0.09852609,0
1.0600000000000007,17.233814825375646,0.7280252212758694,-3.8287064738420162,-0.8415539837605026,13.690301,-0.66966397,-0.13163295,-1.5574149,8.363442,-8.976383,1.7063318,-0.30894786,0.07367003,-0.42278996,-0.848747,-9.222136,6.7381454,-1.1827532,1.0128542,-3.846843,0.05239609,0
1.0700000000000007,17.233814825375646,0.7280252212758694,-3.8287064738420162,-0.8415539837605026,13.690301,-0.66966397,-0.13163295,-1.5574149,8.271344,-8.908346,1.6945595,-0.31725213,0.0557447,-0.42097968,-0.8479497,-9.196306,6.868795,-1.1714902,0.9683253,-3.844044,0.008529702,0
1.0800000000000007,17.498742903021682,-0.1585068276771555,-2.8625514010470834,-0.8429538973634223,14.948147,-1.2920793,-0.12536135,-1.4824833,8.179536,-8.839016,1.6829064,-0.32559618,0.03796336,-0.41882244,-0.8468368,-9.164239,6.9969625,-1.1589484,0.9307461,-3.8416777,-0.03318415,0
1.0900000000000007,17.498742903021682,-0.1585068276771555,-2.8625514010470834,-0.8429538973634223,14.948147,-1.2920793,-0.12536135,-1.4824833,8.088082,-8.768407,1.6713932,-0.3338031,0.020761808,-0.4161802,-0.8455397,-9.12548,7.124352,-1.1435293,0.7607852,-3.6889997,-0.07291978,0
1.1000000000000008,17.498742903021682,-0.1585068276771555,-2.8625514010470834,-0.8429538973634223,14.948147,-1.2920793,-0.12536135,-1.4824833,7.997046,-8.696539,1.6600398,-0.34174624,0.004488007,-0.41295913,-0.84418774,-9.080877,7.248805,-1.1270024,0.61734027,-3.560124,-0.11070557,0
1.1100000000000008,17.498742903021682,-0.1585068276771555,-2.8625514010470834,-0.8429538973634223,14.948147,-1.2920793,-0.12536135,-1.4824833,7.906483,-8.623442,1.6488569,-0.34948504,-0.0109854685,-0.4092475,-0.84276617,-9.030825,7.3701663,-1.1094142,0.49627435,-3.4513412,-0.14663722,0
1.1200000000000008,17.35704248394125,-1.1297162344520768,-1.737541252342507,-0.7054564528811318,15.728306,-2.0027914,0.44219837,-1.3556496,7.8164463,-8.549146,1.6378549,-0.357066,-0.02576774,-0.4051184,-0.8412597,-8.975662,7.488298,-1.0908104,0.39409545,-3.359519,-0.18080567,0
1.1300000000000008,17.35704248394125,-1.1297162344520768,-1.737541252342507,-0.7054564528811318,15.728306,-2.0027914,0.44219837,-1.3556496,7.7269835,-8.47369,1.6270392,-0.36434305,-0.039440904,-0.4004694,-0.83983445,-8.91622,7.6021576,-1.0721775,0.15643522,-3.1065476,-0.20655042,0
1.1400000000000008,17.35704248394125,-1.1297162344520768,-1.737541252342507,-0.7054564528811318,15.728306,-2.0027914,0.44219837,-1.3556496,7.6381364,-8.397114,1.6164148,-0.37121317,-0.051678926,-0.3952331,-0.8386417,-8.852594,7.712662,-1.052528,-0.04415703,-2.8930242,-0.23103186,0
1.1500000000000008,17.35704248394125,-1.1297162344520768,-1.737541252342507,-0.7054564528811318,15.728306,-2.0027914,0.44219837,-1.3556496,7.549944,-8.319448,1.6059922,-0.377764,-0.06269287,-0.38950998,-0.8376425,-8.785333,7.8198047,-1.0317953,-0.2134636,-2.7127986,-0.254312,0
1.1600000000000008,17.107117185308724,-1.9817547336026724,-0.5231039081402639,-0.4850246518732945,16.856375,-2.8239713,0.9522539,-0.85817635,7.4624405,-8.240728,1.5957828,-0.3840647,-0.07266244,-0.3833816,-0.83679867,-8.714901,7.9235845,-1.0099196,-0.35636455,-2.560679,-0.2764498,0
1.1700000000000008,17.107117185308724,-1.9817547336026724,-0.5231039081402639,-0.4850246518732945,16.856375,-2.8239713,0.9522539,-0.85817635,7.37565,-8.1609955,1.5857892,-0.38998887,-0.08121293,-0.37681636,-0.8362545,-8.642791,8.022574,-0.98858356,-0.6098011,-2.2428708,-0.28668463,0
1.1800000000000008,17.107117185308724,-1.9817547336026724,-0.5231039081402639,-0.4850246518732945,16.856375,-2.8239713,0.9522539,-0.85817635,7.289592,-8.080288,1.5760156,-0.39544412,-0.088056505,-0.36979797,-0.83613306,-8.56859,8.118379,-0.96593654,-0.8237191,-1.974629,-0.29641724,0
1.1900000000000008,17.107117185308724,-1.9817547336026724,-0.5231039081402639,-0.4850246518732945,16.856375,-2.8239713,0.9522539,-0.85817635,7.204283,-7.998637,1.5664755,-0.4005226,-0.0934516,-0.36240533,-0.8363671,-8.492887,8.211129,-0.9418463,-1.0042812,-1.7482237,-0.30567226,0
1.2000000000000008,17.166801406263858,-2.4322305739504597,0.48177776139409423,-0.24225228962848727,17.212004,-2.461081,1.3998414,-0.7989775,7.1197376,-7.9160743,1.5571841,-0.40529677,-0.097617045,-0.35470134,-0.83689386,-8.416175,8.300943,-0.9161997,-1.1566885,-1.5571299,-0.31447315,1
1.2100000000000009,17.166801406263858,-2.4322305739504597,0.48177776139409423,-0.24225228962848727,17.212004,-2.461081,1.3998414,-0.7989775,7.035965,-7.832625,1.5481611,-0.40960544,-0.10000255,-0.3468939,-0.83778656,-8.33845,8.388494,-0.8881315,-1.3600307,-1.0959294,-0.33824793,1
1.2200000000000009,17.166801406263858,-2.4322305739504597,0.48177776139409423,-0.24225228962848727,17.212004,-2.461081,1.3998414,-0.7989775,6.9529686,-7.748313,1.5394275,-0.41333532,-0.10017954,-0.33915523,-0.839101,-8.260857,8.473572,-0.8583041,-1.5316639,-0.706655,-0.36085606,1
1.2300000000000009,17.166801406263858,-2.4322305739504597,0.48177776139409423,-0.24225228962848727,17.212004,-2.461081,1.3998414,-0.7989775,6.870745,-7.663161,1.5310013,-0.41659805,-0.09848297,-0.33147952,-0.84075403,-8.184052,8.556547,-0.8266323,-1.6765344,-0.37809062,-0.38235477,1
1.2400000000000009,17.166801406263858,-2.4322305739504597,0.48177776139409423,-0.24225228962848727,17.440638,-2.764719,2.0919325,-0.65357864,6.7892833,-7.5771875,1.5229014,-0.41948074,-0.09519584,-0.32385752,-0.84266764,-8.108599,8.637735,-0.7930518,-1.7988164,-0.10076883,-0.40279856,0
1.2500000000000009,17.166801406263858,-2.4322305739504597,0.48177776139409423,-0.24225228962848727,17.440638,-2.764719,2.0919325,-0.65357864,6.7085657,-7.4904118,1.5151453,-0.42211083,-0.090894386,-0.31612712,-0.84476215,-8.035148,8.717168,-0.75786865,-1.8975732,-0.009904891,-0.39492053,0
1.260000000000001,17.166801406263858,-2.4322305739504597,0.48177776139409423,-0.24225228962848727,17.440638,-2.764719,2.0919325,-0.65357864,6.628573,-7.402849,1.5077509,-0.42457798,-0.0860518,-0.30815622,-0.8469753,-7.963791,8.795138,-0.7206995,-1.9809333,0.06678434,-0.38742906,0
1.270000000000001,17.166801406263858,-2.4322305739504597,0.48177776139409423,-0.24225228962848727,17.440638,-2.764719,2.0919325,-0.65357864,6.549282,-7.3145146,1.5007383,-0.42689514,-0.0807502,-0.2999758,-0.8492663,-7.8947434,8.871666,-0.6815227,-2.0512972,0.13151066,-0.38030517,0
1.280000000000001,16.699309980385156,-2.480086466670593,0.9917055975652875,0.02274504025863225,16.758373,-2.3792796,1.8874525,-0.2999861,6.4706693,-7.225421,1.4941274,-0.429073,-0.07505924,-0.29161206,-0.8516006,-7.828196,8.946763,-0.6403363,-2.1106908,0.18614,-0.37353086,1
1.290000000000001,16.699309980385156,-2.480086466670593,0.9917055975652875,0.02274504025863225,16.758373,-2.3792796,1.8874525,-0.2999861,6.392701,-7.135593,1.4879217,-0.43096218,-0.068565644,-0.28334755,-0.8539808,-7.7658596,9.018714,-0.6005217,-2.1525135,0.45146367,-0.36992198,1
1.300000000000001,16.699309980385156,-2.480086466670593,0.9917055975652875,0.02274504025863225,16.758373,-2.3792796,1.8874525,-0.2999861,6.315342,-7.0450506,1.4821235,-0.4324498,-0.060943477,-0.27540818,-0.85640067,-7.7064605,9.089526,-0.5588341,-2.1878247,0.675409,-0.36649022,1
1.310000000000001,16.699309980385156,-2.480086466670593,0.9917055975652875,0.02274504025863225,16.758373,-2.3792796,1.8874525,-0.2999861,6.2385607,-6.9538054,1.4767511,-0.43359092,-0.05236541,-0.26773706,-0.8588203,-7.650314,9.159445,-0.51536393,-2.2176387,0.86442894,-0.36322683,1
1.320000000000001,16.068028204170776,-2.355377405138156,0.913614471895765,0.30334522459332547,16.722275,-2.189087,1.4911503,0.07229807,6.162324,-6.8618646,1.4718219,-0.43442976,-0.042977937,-0.2602855,-0.86120486,-7.597693,9.228671,-0.47020975,-2.242811,1.0239706,-0.36012357,1
1.330000000000001,16.068028204170776,-2.355377405138156,0.913614471895765,0.30334522459332547,16.722275,-2.189087,1.4911503,0.07229807,6.0865936,-6.7692347,1.4673507,-0.43500075,-0.03308725,-0.253007,-0.8635194,-7.5489264,9.2972145,-0.42379072,-2.2344308,1.0967941,-0.33890453,1
1.340000000000001,16.068028204170776,-2.355377405138156,0.913614471895765,0.30334522459332547,16.722275,-2.189087,1.4911503,0.07229807,6.0113316,-6.6759214,1.4633512,-0.43532765,-0.022945061,-0.24586418,-0.8657441,-7.5040274,9.365313,-0.37591538,-2.2273612,1.158263,-0.3187267,1
1.350000000000001,16.068028204170776,-2.355377405138156,0.913614471895765,0.30334522459332547,16.722275,-2.189087,1.4911503,0.07229807,5.936499,-6.581929,1.4598372,-0.43542936,-0.012592791,-0.23883095,-0.8678717,-7.463083,9.433022,-0.3267028,-2.2213967,1.2101474,-0.29953897,1
1.360000000000001,15.290958346143812,-2.143421042482075,0.38997289922054923,0.557008607619464,15.67951,-1.684023,0.46439704,0.42458776,5.862056,-6.4872622,1.4568214,-0.43532184,-0.0020656674,-0.23188552,-0.8698957,-7.4261703,9.500386,-0.2762714,-2.2163644,1.2539421,-0.28129283,1
1.370000000000001,15.290958346143812,-2.143421042482075,0.38997289922054923,0.557008607619464,15.67951,-1.684023,0.46439704,0.42458776,5.7879515,-6.3919435,1.454269,-0.43507683,0.008150611,-0.22500747,-0.8717868,-7.3953724,9.563237,-0.23406947,-2.1333942,1.1307496,-0.24665506,1
1.380000000000001,15.290958346143812,-2.143421042482075,0.38997289922054923,0.557008607619464,15.67951,-1.684023,0.46439704,0.42458776,5.714136,-6.295998,1.4521433,-0.43475097,0.017667692,-0.21818371,-0.8735411,-7.368252,9.625702,-0.19093819,-2.0633538,1.0267768,-0.21371697,1
1.390000000000001,15.290958346143812,-2.143421042482075,0.38997289922054923,0.557008607619464,15.67951,-1.684023,0.46439704,0.42458776,5.640574,-6.1994305,1.4504532,-0.43433648,0.026589565,-0.21140699,-0.875186,-7.3446355,9.687684,-0.14696728,-2.0042288,0.93902475,-0.18239518,1
1.400000000000001,14.266403703086622,-1.975729075360944,-0.23108354749333143,0.7675383439686809,15.414264,-1.9983431,-0.628576,0.72986305,5.5672317,-6.1022463,1.4492066,-0.43382728,0.035004515,-0.2046709,-0.8767423,-7.3243766,9.749104,-0.102235146,-1.9543186,0.8649628,-0.15261036,0
1.410000000000001,14.266403703086622,-1.975729075360944,-0.23108354749333143,0.7675383439686809,15.414264,-1.9983431,-0.628576,0.72986305,5.4940677,-6.0044785,1.4483463,-0.43323344,0.042785328,-0.19774829,-0.87827814,-7.3088803,9.804395,-0.06974,-1.9576954,0.6939778,-0.10745839,0
1.420000000000001,14.266403703086622,-1.975729075360944,-0.23108354749333143,0.7675383439686809,15.414264,-1.9983431,-0.628576,0.72986305,5.4210443,-5.9061613,1.447814,-0.43255427,0.04983396,-0.19045928,-0.8798507,-7.2961893,9.858923,-0.036622666,-1.9605334,0.5496604,-0.06452204,0
1.430000000000001,14.266403703086622,-1.975729075360944,-0.23108354749333143,0.7675383439686809,15.414264,-1.9983431,-0.628576,0.72986305,5.348134,-5.8073034,1.447616,-0.43177187,0.056259144,-0.1828623,-0.88145787,-7.286183,9.912508,-0.0028862283,-1.9629198,0.42785156,-0.023692599,0
1.440000000000001,14.266403703086622,-1.975729075360944,-0.23108354749333143,0.7675383439686809,16.450754,-2.356049,-2.1687508,1.7167999,5.275311,-5.707915,1.4477583,-0.43087232,0.062153116,-0.17500643,-0.8830953,-7.2787576,9.964996,0.031460974,-1.9649273,0.3250413,0.015133338,0
1.450000000000001,14.266403703086622,-1.975729075360944,-0.23108354749333143,0.7675383439686809,16.450754,-2.356049,-2.1687508,1.7167999,5.20255,-5.6080074,1.4482471,-0.4298451,0.06759417,-0.16693304,-0.8847577,-7.2738256,10.016253,0.06640528,-1.9666169,0.2382667,0.052054066,0
1.460000000000001,14.266403703086622,-1.975729075360944,-0.23108354749333143,0.7675383439686809,16.450754,-2.356049,-2.1687508,1.7167999,5.129826,-5.5075946,1.4490883,-0.42868254,0.072648734,-0.15867697,-0.8864388,-7.2713118,10.066163,0.101928145,-1.9680393,0.16502675,0.08716309,0
1.470000000000001,14.266403703086622,-1.975729075360944,-0.23108354749333143,0.7675383439686809,16.450754,-2.356049,-2.1687508,1.7167999,5.0571156,-5.4066896,1.4502876,-0.4273794,0.07737321,-0.15026759,-0.88813204,-7.271151,10.114625,0.13800646,-1.9692372,0.10321056,0.1205493,0
1.480000000000001,13.935213909342666,-1.8314616458272739,-0.6125877838727595,1.0045484685072408,16.933216,-2.3493557,-3.2299027,2.4417717,4.984395,-5.305308,1.4518503,-0.42593232,0.0818155,-0.14172971,-0.88983095,-7.273288,10.16155,0.17461306,-1.9702466,0.051036574,0.15229723,0
1.490000000000001,13.935213909342666,-1.8314616458272739,-0.6125877838727595,1.0045484685072408,16.933216,-2.3493557,-3.2299027,2.4417717,4.9116426,-5.2034698,1.4537659,-0.42433962,0.08585172,-0.13307324,-0.8915466,-7.277561,10.205803,0.20858036,-1.9485917,-0.05250626,0.19411744,0
1.500000000000001,13.935213909342666,-1.8314616458272739,-0.6125877838727595,1.0045484685072408,16.933216,-2.3493557,-3.2299027,2.4417717,4.8388367,-5.1011977,1.4560236,-0.42259645,0.08938568,-0.124308184,-0.8932908,-7.283921,10.248376,0.24301547,-1.9303108,-0.13989837,0.23388554,0
1.5100000000000011,13.935213909342666,-1.8314616458272739,-0.6125877838727595,1.0045484685072408,16.933216,-2.3493557,-3.2299027,2.4417717,4.765957,-4.9985085,1.4586278,-0.42069742,0.092492424,-0.115453854,-0.89505744,-7.2922616,10.289172,0.27789876,-1.914879,-0.21365908,0.2717022,0
1.5200000000000011,12.995416132288133,-1.728882206133938,-1.1331809438416032,1.148760483430449,16.988047,-2.453933,-4.190831,3.0417168,4.692984,-4.89542,1.461583,-0.41863933,0.09523559,-0.10652642,-0.89684004,-7.302494,10.328109,0.313207,-1.9018527,-0.2759142,0.3076632,0
1.5300000000000011,12.995416132288133,-1.728882206133938,-1.1331809438416032,1.148760483430449,16.988047,-2.453933,-4.190831,3.0417168,4.6199045,-4.791965,1.4648482,-0.41643012,0.09746316,-0.09749095,-0.8986551,-7.3137155,10.362609,0.33989245,-1.8748404,-0.40964955,0.34893608,0
1.5400000000000011,12.995416132288133,-1.728882206133938,-1.1331809438416032,1.148760483430449,16.988047,-2.453933,-4.190831,3.0417168,4.546705,-4.6881742,1.4683821,-0.41407263,0.099057294,-0.08832126,-0.9005162,-7.326488,10.395191,0.3669437,-1.8520395,-0.522526,0.38818368,0
1.5500000000000012,12.995416132288133,-1.728882206133938,-1.1331809438416032,1.148760483430449,16.988047,-2.453933,-4.190831,3.0417168,4.4733696,-4.5840683,1.4721884,-0.41155925,0.100114,-0.07904144,-0.9024119,-7.340681,10.425749,0.39435214,-1.8327941,-0.617797,0.4255054,0
1.5600000000000012,12.172374480435021,-1.6828002628540448,-1.5208928508848985,1.2512361112217716,16.644337,-2.9037404,-5.024523,2.7642996,4.3998866,-4.479667,1.4762704,-0.4088849,0.100714624,-0.06967157,-0.9043308,-7.3561807,10.454189,0.42210317,-1.8165507,-0.6982084,0.46099573,0
1.5700000000000012,12.172374480435021,-1.6828002628540448,-1.5208928508848985,1.2512361112217716,16.644337,-2.9037404,-5.024523,2.7642996,4.326247,-4.3750005,1.4805917,-0.4060472,0.10077925,-0.060183156,-0.90628135,-7.3718224,10.4787655,0.44218764,-1.7956331,-0.8265446,0.49977306,0
1.5800000000000012,12.172374480435021,-1.6828002628540448,-1.5208928508848985,1.2512361112217716,16.644337,-2.9037404,-5.024523,2.7642996,4.252446,-4.270099,1.4851152,-0.40304124,0.10024797,-0.05055499,-0.90826815,-7.388463,10.501179,0.4625653,-1.7779794,-0.9348648,0.53664756,0
1.5900000000000012,12.172374480435021,-1.6828002628540448,-1.5208928508848985,1.2512361112217716,16.644337,-2.9037404,-5.024523,2.7642996,4.1784744,-4.164985,1.489844,-0.3998619,0.09921152,-0.040812287,-0.91027504,-7.4059796,10.521332,0.4832221,-1.763081,-1.0262907,0.5717126,0
1.6000000000000012,12.313991514739946,-1.8198087548789665,-1.426204974824779,1.4081244697249227,17.028381,-3.4907048,-5.4222946,3.4133668,4.1043243,-4.0596814,1.4947804,-0.39650613,0.09774676,-0.030976154,-0.91228706,-7.4242644,10.5391445,0.50413704,-1.7505085,-1.103457,0.605057,0
1.6100000000000012,12.313991514739946,-1.8198087548789665,-1.426204974824779,1.4081244697249227,17.028381,-3.4907048,-5.4222946,3.4133668,4.0299864,-3.95421,1.4999342,-0.39294854,0.09597455,-0.02103109,-0.91429585,-7.4434447,10.554725,0.5266699,-1.7612665,-1.1538389,0.6444638,0
1.6200000000000012,12.313991514739946,-1.8198087548789665,-1.426204974824779,1.4081244697249227,17.028381,-3.4907048,-5.4222946,3.4133668,3.9554534,-3.8485951,1.5053144,-0.38916782,0.093994245,-0.0109656,-0.91629267,-7.4632435,10.5678,0.54940015,-1.770349,-1.1963612,0.68193674,0
1.6300000000000012,12.313991514739946,-1.8198087548789665,-1.426204974824779,1.4081244697249227,17.028381,-3.4907048,-5.4222946,3.4133668,3.8807197,-3.7428627,1.5109227,-0.385169,0.09183717,-0.0008014976,-0.91826415,-7.483608,10.578315,0.5722862,-1.7780178,-1.23225,0.717571,0
1.6400000000000012,12.313991514739946,-1.8198087548789665,-1.426204974824779,1.4081244697249227,17.55743,-3.683042,-5.3397703,3.6293175,3.8057795,-3.6370378,1.5167605,-0.38095754,0.089530036,0.0094427345,-0.92019856,-7.5044856,10.586223,0.59528303,-1.7844932,-1.2625395,0.7514566,0
1.6500000000000012,12.313991514739946,-1.8198087548789665,-1.426204974824779,1.4081244697249227,17.55743,-3.683042,-5.3397703,3.6293175,3.730628,-3.5311472,1.5228285,-0.37653926,0.08709566,0.019751405,-0.9220852,-7.525828,10.591484,0.61834276,-1.7899611,-1.2881033,0.7836795,0
1.6600000000000013,12.313991514739946,-1.8198087548789665,-1.426204974824779,1.4081244697249227,17.55743,-3.683042,-5.3397703,3.6293175,3.6552615,-3.4252174,1.5291272,-0.37192002,0.08455351,0.03011116,-0.9239147,-7.5475874,10.594066,0.64141506,-1.7945788,-1.3096782,0.8143212,0
1.6700000000000013,12.313991514739946,-1.8198087548789665,-1.426204974824779,1.4081244697249227,17.55743,-3.683042,-5.3397703,3.6293175,3.5796752,-3.3192754,1.5356566,-0.36710596,0.081920244,0.040510606,-0.92567813,-7.569716,10.593939,0.6644478,-1.7984784,-1.3278868,0.8434593,0
1.6800000000000013,12.659968905510647,-1.94913381600728,-1.1770135250277454,1.532738028185321,16.751984,-2.8413582,-5.270579,2.84754,3.503866,-3.2133482,1.5424159,-0.36210316,0.079210095,0.050939996,-0.92736775,-7.592169,10.591084,0.6873872,-1.8017722,-1.3432539,0.87116766,0
1.6900000000000013,12.659968905510647,-1.94913381600728,-1.1770135250277454,1.532738028185321,16.751984,-2.8413582,-5.270579,2.84754,3.4278276,-3.107464,1.5494207,-0.3569048,0.07654727,0.061401863,-0.9289715,-7.6155443,10.585325,0.71357423,-1.82474,-1.3173805,0.90363103,0
1.7000000000000013,12.659968905510647,-1.94913381600728,-1.1770135250277454,1.532738028185321,16.751984,-2.8413582,-5.270579,2.84754,3.351554,-3.0016515,1.5566866,-0.35150608,0.074031174,0.07189822,-0.93047965,-7.639206,10.57674,0.73954386,-1.8441259,-1.2955388,0.9345014,0
1.7100000000000013,12.659968905510647,-1.94913381600728,-1.1770135250277454,1.532738028185321,16.751984,-2.8413582,-5.270579,2.84754,3.2750425,-2.8959386,1.5642108,-0.3459156,0.07163971,0.08242036,-0.93188834,-7.663153,10.565332,0.76523083,-1.8604885,-1.2771006,0.963857,0
1.7200000000000013,13.039958325637162,-2.057507841071171,-1.058837730490092,1.639962102997101,16.887392,-2.791975,-4.7855964,2.845328,3.19829,-2.7903543,1.57199,-0.34014118,0.06935434,0.0929606,-0.93319404,-7.687378,10.551102,0.79057103,-1.8742996,-1.2615348,0.9917722,0
1.7300000000000013,13.039958325637162,-2.057507841071171,-1.058837730490092,1.639962102997101,16.887392,-2.791975,-4.7855964,2.845328,3.1212904,-2.6849284,1.5800393,-0.33417937,0.06721955,0.10353578,-0.93439007,-7.712607,10.533543,0.81919324,-1.9028656,-1.2299823,1.0235791,0
1.7400000000000013,13.039958325637162,-2.057507841071171,-1.058837730490092,1.639962102997101,16.887392,-2.791975,-4.7855964,2.845328,3.044037,-2.579693,1.5883722,-0.32802716,0.06526996,0.114158764,-0.9354703,-7.7381177,10.513084,0.8473232,-1.9269761,-1.2033464,1.0538253,0
1.7500000000000013,13.039958325637162,-2.057507841071171,-1.058837730490092,1.639962102997101,16.887392,-2.791975,-4.7855964,2.845328,2.966527,-2.4746768,1.5969838,-0.32169226,0.06347797,0.12481775,-0.9364315,-7.763915,10.489733,0.87489164,-1.9473256,-1.1808608,1.0825872,0
1.7600000000000013,13.226157881522644,-2.0302443287482075,-0.9070753788272315,1.6362790684994406,18.302235,-3.5197241,-4.4681187,3.15857,2.8887575,-2.3699086,1.6058679,-0.31518182,0.06182037,0.13550234,-0.9372708,-7.789994,10.463493,0.90183073,-1.964501,-1.1618786,1.1099378,0
1.7700000000000014,13.226157881522644,-2.0302443287482075,-0.9070753788272315,1.6362790684994406,18.302235,-3.5197241,-4.4681187,3.15857,2.810724,-2.2654192,1.615027,-0.30851215,0.06033113,0.14617422,-0.9379831,-7.8167205,10.433961,0.9298494,-1.9747635,-1.122183,1.1357656,0
1.7800000000000014,13.226157881522644,-2.0302443287482075,-0.9070753788272315,1.6362790684994406,18.302235,-3.5197241,-4.4681187,3.15857,2.7324219,-2.1612394,1.6244622,-0.30169842,0.059036393,0.15680285,-0.93856514,-7.843721,10.401536,0.9570969,-1.9834229,-1.0886751,1.160326,0
1.7900000000000014,13.226157881522644,-2.0302443287482075,-0.9070753788272315,1.6362790684994406,18.302235,-3.5197241,-4.4681187,3.15857,2.6538486,-2.057398,1.6341659,-0.29474527,0.05790757,0.1673899,-0.93901616,-7.8709917,10.366249,0.9835101,-1.9907298,-1.0603905,1.183681,0
1.8000000000000014,13.041378289603207,-1.8251824827856948,-0.7800022784221712,1.48807193522944,17.563013,-3.1790068,-4.2381854,3.3718746,2.5750015,-1.9539242,1.6441292,-0.28765717,0.056920484,0.17793638,-0.9393353,-7.898521,10.328127,1.0090275,-1.9968954,-1.0365145,1.20589,0
1.8100000000000014,13.041378289603207,-1.8251824827856948,-0.7800022784221712,1.48807193522944,17.563013,-3.1790068,-4.2381854,3.3718746,2.4958797,-1.8508426,1.6543345,-0.28046972,0.056075882,0.18835232,-0.93952876,-7.925903,10.287773,1.0318773,-1.9701393,-0.9965081,1.2197368,0
1.8200000000000014,13.041378289603207,-1.8251824827856948,-0.7800022784221712,1.48807193522944,17.563013,-3.1790068,-4.2381854,3.3718746,2.416483,-1.748178,1.6647633,-0.27321565,0.055373404,0.19856723,-0.93960446,-7.9535007,10.244717,1.0537417,-1.9475518,-0.96274304,1.2329041,0
1.8300000000000014,13.041378289603207,-1.8251824827856948,-0.7800022784221712,1.48807193522944,17.563013,-3.1790068,-4.2381854,3.3718746,2.3368092,-1.6459574,1.6754057,-0.2658952,0.05479255,0.20860751,-0.93956316,-7.9812894,10.199018,1.074581,-1.9284836,-0.93424517,1.2454252,0
1.8400000000000014,13.041378289603207,-1.8251824827856948,-0.7800022784221712,1.48807193522944,17.184847,-2.9334755,-3.8505273,3.10862,2.2568567,-1.5442066,1.6862513,-0.25850862,0.05431582,0.21849512,-0.93940485,-8.009242,10.150735,1.0943562,-1.9123862,-0.9101928,1.2573318,0
1.8500000000000014,13.041378289603207,-1.8251824827856948,-0.7800022784221712,1.48807193522944,17.184847,-2.9334755,-3.8505273,3.10862,2.1766238,-1.4429514,1.6972891,-0.25105646,0.0539283,0.22824822,-0.93912923,-8.037329,10.099918,1.1130294,-1.8987969,-0.8898926,1.2686543,0
1.8600000000000014,13.041378289603207,-1.8251824827856948,-0.7800022784221712,1.48807193522944,17.184847,-2.9334755,-3.8505273,3.10862,2.0961099,-1.3422168,1.7085079,-0.24353941,0.05361726,0.23788193,-0.9387356,-8.065518,10.046614,1.1305631,-1.8873249,-0.87275904,1.2794213,0
1.8700000000000014,13.041378289603207,-1.8251824827856948,-0.7800022784221712,1.48807193522944,17.184847,-2.9334755,-3.8505273,3.10862,2.0153136,-1.2420275,1.7198963,-0.23595832,0.053371836,0.24740861,-0.9382231,-8.093779,9.990864,1.1469206,-1.87764,-0.8582981,1.2896599,0
1.8800000000000014,12.464268625575006,-1.5408759570511177,-0.9322916140760871,1.2320179518734122,16.238457,-2.301096,-3.3922725,2.552698,1.9342344,-1.1424077,1.7314423,-0.22831425,0.053182732,0.25683844,-0.9375909,-8.122073,9.932708,1.1620655,-1.8694643,-0.8460929,1.299396,0
1.8900000000000015,12.464268625575006,-1.5408759570511177,-0.9322916140760871,1.2320179518734122,16.238457,-2.301096,-3.3922725,2.552698,1.8528785,-1.043368,1.7431086,-0.22062846,0.05295112,0.2660887,-0.93686414,-8.149111,9.874864,1.1710092,-1.8182118,-0.8594883,1.2960898,0
1.9000000000000015,12.464268625575006,-1.5408759570511177,-0.9322916140760871,1.2320179518734122,16.238457,-2.301096,-3.3922725,2.552698,1.7712524,-0.94491786,1.7548583,-0.21292229,0.05259783,0.27509445,-0.93606573,-8.17607,9.814815,1.1787511,-1.7749537,-0.8708019,1.2929457,0
1.9100000000000015,12.464268625575006,-1.5408759570511177,-0.9322916140760871,1.2320179518734122,16.238457,-2.301096,-3.3922725,2.552698,1.6893575,-0.84707904,1.7666794,-0.2051969,0.052141845,0.28388748,-0.93519074,-8.202876,9.752616,1.1852847,-1.738443,-0.880357,1.289956,0
1.9200000000000015,11.411871782357112,-1.1249780314069888,-1.374459495885006,0.8496735632715213,15.56744,-2.3077276,-3.7895687,2.3852003,1.6071956,-0.74987274,1.7785598,-0.19745341,0.05159899,0.29249445,-0.934235,-8.22946,9.688323,1.1906016,-1.7076274,-0.8884271,1.2871131,0
1.9300000000000015,11.411871782357112,-1.1249780314069888,-1.374459495885006,0.8496735632715213,15.56744,-2.3077276,-3.7895687,2.3852003,1.5247805,-0.65329176,1.7904441,-0.18969348,0.05077097,0.3008194,-0.93324417,-8.253526,9.627587,1.1860682,-1.6167135,-0.9641248,1.2656479,0
1.9400000000000015,11.411871782357112,-1.1249780314069888,-1.374459495885006,0.8496735632715213,15.56744,-2.3077276,-3.7895687,2.3852003,1.4421266,-0.5573272,1.8022774,-0.18192337,0.049500532,0.30878678,-0.9322567,-8.277193,9.565042,1.180438,-1.5399885,-1.0280325,1.2452359,0
1.9500000000000015,11.411871782357112,-1.1249780314069888,-1.374459495885006,0.8496735632715213,15.56744,-2.3077276,-3.7895687,2.3852003,1.3592385,-0.4619969,1.8140491,-0.17415017,0.04785484,0.31644523,-0.9312585,-8.300329,9.500749,1.1737375,-1.4752378,-1.0819863,1.2258255,0
1.9600000000000015,10.501149151979051,-0.7122950040919339,-1.7857780290065497,0.4045520466686274,14.496492,-2.2398405,-3.869026,1.7892114,1.2761222,-0.36731806,1.8257487,-0.16637976,0.045890328,0.3238357,-0.9302369,-8.322822,9.434766,1.1659878,-1.4205921,-1.1275367,1.2073677,0
1.9700000000000015,10.501149151979051,-0.7122950040919339,-1.7857780290065497,0.4045520466686274,14.496492,-2.2398405,-3.869026,1.7892114,1.1927935,-0.27328035,1.8373299,-0.15862212,0.043456495,0.33086887,-0.9292334,-8.342825,9.372547,1.1500825,-1.3100842,-1.2300684,1.1679733,0
1.9800000000000015,10.501149151979051,-0.7122950040919339,-1.7857780290065497,0.4045520466686274,14.496492,-2.2398405,-3.869026,1.7892114,1.1092687,-0.17987204,1.8487474,-0.1508909,0.040435087,0.33747497,-0.9282811,-8.361992,9.308897,1.1332742,-1.2168255,-1.3166302,1.1305119,0
1.9900000000000015,10.501149151979051,-0.7122950040919339,-1.7857780290065497,0.4045520466686274,14.496492,-2.2398405,-3.869026,1.7892114,1.0255569,-0.08710709,1.8599924,-0.14319536,0.036913026,0.3437125,-0.92735785,-8.380184,9.243883,1.115607,-1.1381224,-1.3897091,1.0948889,0
2.0000000000000013,,,,,12.449159,-0.9233964,-3.7963016,0.3153619,0.9416687,0.0050011724,1.8710564,-0.13554296,0.032963503,0.34963092,-0.9264437,-8.397284,9.177572,1.097117,-1.0717028,-1.4514048,1.0610139,0
2.010000000000001,,,,,12.449159,-0.9233964,-3.7963016,0.3153619,0.8576192,0.0964561,1.8819132,-0.12797694,0.028577054,0.35513756,-0.9255705,-8.41243,9.113236,1.0740983,-0.95632464,-1.5176915,1.0094293,0
2.020000000000001,,,,,12.449159,-0.9233964,-3.7963016,0.3153619,0.77342445,0.18726218,1.892536,-0.12053713,0.023747962,0.3601616,-0.92476404,-8.4263315,9.047813,1.0503784,-0.8589478,-1.573661,0.96037596,0
2.0300000000000007,,,,,12.449159,-0.9233964,-3.7963016,0.3153619,0.68909717,0.27740896,1.9029185,-0.11322406,0.01853807,0.36477095,-0.92400044,-8.438895,8.981392,1.0260074,-0.7767632,-1.6209188,0.9137296,0
2.0400000000000005,,,,,12.449159,-0.9233964,-3.7963016,0.3153619,0.60465133,0.36688682,1.9130541,-0.10603743,0.012999566,0.36902282,-0.923259,-8.450042,8.914049,1.0010257,-0.70739985,-1.66082,0.86937225,0
2.0500000000000003,,,,,10.666758,-0.23378427,-3.6900225,-0.21719204,0.5201014,0.455687,1.922937,-0.09897634,0.00717657,0.37296534,-0.9225221,-8.459705,8.845856,0.97546566,-0.6488567,-1.6945094,0.82719153,1
2.06,,,,,10.666758,-0.23378427,-3.6900225,-0.21719204,0.43545985,0.5437784,1.9325856,-0.09179355,0.0004230527,0.37667143,-0.9217865,-8.468336,8.772298,0.95412785,-0.58402514,-2.0056539,0.77594334,1
2.07,,,,,10.666758,-0.23378427,-3.6900225,-0.21719204,0.35074145,0.6311302,1.9420178,-0.08429099,-0.0077713244,0.3801877,-0.9210265,-8.475012,8.69794,0.9322098,-0.52934426,-2.2682855,0.7272099,1
2.0799999999999996,,,,,10.666758,-0.23378427,-3.6900225,-0.21719204,0.26596737,0.71773463,1.9512278,-0.07653373,-0.017188763,0.38351598,-0.92019594,-8.479433,8.622821,0.90970767,-0.48322174,-2.4899678,0.68086785,1
2.0899999999999994,,,,,9.553375,-0.0509239,-3.804678,-0.3235968,0.18116145,0.8035843,1.96021,-0.068576686,-0.027644472,0.38665745,-0.91925347,-8.481342,8.546998,0.88660514,-0.44431588,-2.6770854,0.63679975,1
2.099999999999999,,,,,9.553375,-0.0509239,-3.804678,-0.3235968,0.09634971,0.8887122,1.9689189,-0.060458302,-0.03903344,0.3895479,-0.9181893,-8.480608,8.478522,0.85511374,-0.38298103,-2.8528953,0.5896728,1
2.109999999999999,,,,,9.553375,-0.0509239,-3.804678,-0.3235968,0.011558311,0.97315294,1.9773102,-0.05221203,-0.051263124,0.39213547,-0.91699165,-8.477251,8.409565,0.8230406,-0.33122742,-3.0012958,0.54485834,1
2.1199999999999988,,,,,9.553375,-0.0509239,-3.804678,-0.3235968,-0.073185764,1.056902,1.9853776,-0.04387415,-0.06420484,0.39443713,-0.91562545,-8.47112,8.340218,0.790358,-0.28755653,-3.126559,0.5022429,1
2.1299999999999986,,,,,9.101061,0.039192602,-3.022625,-0.47695073,-0.15785411,1.1399562,1.993115,-0.035475425,-0.07774871,0.39646733,-0.91406125,-8.46209,8.270582,0.7570285,-0.25070456,-3.2322922,0.46171874,1
2.1399999999999983,,,,,9.101061,0.039192602,-3.022625,-0.47695073,-0.24241999,1.2223295,2.0005004,-0.027180687,-0.091523774,0.39819515,-0.91231734,-8.450641,8.204065,0.71997625,-0.2056013,-3.1995747,0.41565797,1
2.149999999999998,,,,,9.101061,0.039192602,-3.022625,-0.47695073,-0.32685715,1.3040372,2.007512,-0.019124746,-0.105232745,0.39960492,-0.91042507,-8.436353,8.137477,0.68224186,-0.1675239,-3.1719642,0.37185743,1
2.159999999999998,,,,,9.101061,0.039192602,-3.022625,-0.47695073,-0.41113737,1.3850793,2.0141428,-0.0112907365,-0.118887916,0.40072808,-0.9083792,-8.419258,8.070914,0.6438027,-0.13537782,-3.148663,0.33020616,1
2.1699999999999977,,,,,8.862113,0.4753763,-1.7645856,-0.90246165,-0.49523276,1.465456,2.0203857,-0.0036637972,-0.13249898,0.40159094,-0.9061749,-8.39939,8.004471,0.60463256,-0.10823882,-3.1289988,0.29059875,1
2.1799999999999975,,,,,8.862113,0.4753763,-1.7645856,-0.90246165,-0.5791187,1.545178,2.0262253,0.0035431408,-0.14563958,0.40205187,-0.9039516,-8.377393,7.939975,0.56318504,-0.01737636,-2.9162014,0.23205492,1
