time-since-start [s],throttle_mpc,roll_mpc,pitch_mpc,yaw_mpc,throttle_nw,roll_nw,pitch_nw,yaw_nw,position_x [m],position_y [m],position_z [m],rotation_w [quaternion],rotation_x [quaternion],rotation_y [quaternion],rotation_z [quaternion],velocity_x [m/s],velocity_y [m/s],velocity_z [m/s],omega_x [rad/s],omega_y [rad/s],omega_z [rad/s],network_used
0.0,10.720199491346676,5.367030596084227,-5.999999751047233,-0.8048552353978426,9.52363,1.4297655,-3.7517755,-0.026710562,13.162518,-10.859994,1.7344778,-0.33206254,0.28300974,-0.29459703,-0.8502073,-8.420021,1.2861234,-0.29651886,0.4743864,-0.29195717,0.3051125,0
0.01,10.720199491346676,5.367030596084227,-5.999999751047233,-0.8048552353978426,12.025872,2.4305053,-4.79426,-0.010195121,13.078173,-10.846763,1.7313818,-0.35163948,0.24955566,-0.30606753,-0.8487604,-8.447545,1.3602636,-0.32228547,5.3670306,-5.9999995,-0.8048552,0
0.02,10.720199491346676,5.367030596084227,-5.999999751047233,-0.8048552353978426,12.025872,2.4305053,-4.79426,-0.010195121,12.993594,-10.8327875,1.7280395,-0.37064108,0.21569328,-0.31703725,-0.84592485,-8.466738,1.434866,-0.34586966,5.3670306,-5.9999995,-0.8048552,0
0.03,10.720199491346676,5.367030596084227,-5.999999751047233,-0.8048552353978426,12.025872,2.4305053,-4.79426,-0.010195121,12.908866,-10.818066,1.7244704,-0.3890363,0.18147801,-0.32748827,-0.8417053,-8.477484,1.5093974,-0.36770678,5.3670306,-5.9999995,-0.8048552,0
0.04,10.720199491346676,5.367030596084227,-5.999999751047233,-0.8048552353978426,11.88591,0.41829163,-3.140188,-0.23598093,12.824074,-10.802602,1.7206899,-0.40679502,0.14696582,-0.3374035,-0.83610874,-8.479724,1.5833256,-0.38824356,5.3670306,-5.9999995,-0.8048552,0
0.05,10.720199491346676,5.367030596084227,-5.999999751047233,-0.8048552353978426,11.88591,0.41829163,-3.140188,-0.23598093,12.739302,-10.786403,1.7167085,-0.42388818,0.11221318,-0.34676668,-0.82914406,-8.473455,1.6561219,-0.4079353,5.3670306,-5.9999995,-0.8048552,0
0.060000000000000005,10.720199491346676,5.367030596084227,-5.999999751047233,-0.8048552353978426,11.88591,0.41829163,-3.140188,-0.23598093,12.6546335,-10.769484,1.7125326,-0.44028786,0.077276945,-0.3555625,-0.82082295,-8.458731,1.7272649,-0.4272427,5.3670306,-5.9999995,-0.8048552,0
0.07,10.720199491346676,5.367030596084227,-5.999999751047233,-0.8048552353978426,11.88591,0.41829163,-3.140188,-0.23598093,12.570154,-10.751864,1.7081636,-0.45596716,0.04221428,-0.36377662,-0.8111588,-8.435657,1.7962444,-0.4466291,5.3670306,-5.9999995,-0.8048552,0
0.08,14.208659902755691,3.0132312590852997,-5.999999513398149,0.2503900408594422,11.936126,-0.64955795,-1.5184203,-0.5762825,12.485948,-10.733568,1.7035984,-0.47090042,0.007082547,-0.37139556,-0.80016756,-8.404395,1.8625642,-0.46655723,5.3670306,-5.9999995,-0.8048552,0
0.09,14.208659902755691,3.0132312590852997,-5.999999513398149,0.2503900408594422,11.936126,-0.64955795,-1.5184203,-0.5762825,12.402153,-10.71452,1.6989571,-0.4808796,-0.024480164,-0.3691237,-0.7949235,-8.3533325,1.9459805,-0.46162388,3.0132313,-5.9999995,0.25039005,0
0.09999999999999999,14.208659902755691,3.0132312590852997,-5.999999513398149,0.2503900408594422,11.936126,-0.64955795,-1.5184203,-0.5762825,12.318908,-10.694667,1.6943662,-0.49031612,-0.056015253,-0.36643532,-0.7887824,-8.294475,2.023905,-0.456549,3.0132313,-5.9999995,0.25039005,0
0.10999999999999999,14.208659902755691,3.0132312590852997,-5.999999513398149,0.2503900408594422,11.936126,-0.64955795,-1.5184203,-0.5762825,12.236289,-10.674063,1.6898248,-0.49919936,-0.08748714,-0.36333343,-0.7817512,-8.228076,2.096001,-0.4518139,3.0132313,-5.9999995,0.25039005,0
0.11999999999999998,14.208659902755691,3.0132312590852997,-5.999999513398149,0.2503900408594422,11.936126,-0.64955795,-1.5184203,-0.5762825,12.154371,-10.652768,1.6853272,-0.50751925,-0.1188603,-0.35982153,-0.77383786,-8.154428,2.161957,-0.44789848,3.0132313,-5.9999995,0.25039005,0
0.12999999999999998,16.28326071890751,0.19646736889153346,-5.999997651896739,0.8586652042220625,13.143944,-1.6797593,0.4622383,-0.7836182,12.073225,-10.630845,1.6808625,-0.5152665,-0.15009932,-0.35590357,-0.7650513,-8.073851,2.2214909,-0.44527882,3.0132313,-5.9999995,0.25039005,0
0.13999999999999999,16.28326071890751,0.19646736889153346,-5.999997651896739,0.8586652042220625,13.143944,-1.6797593,0.4622383,-0.7836182,11.992977,-10.608322,1.6764915,-0.5222736,-0.17501219,-0.3403915,-0.7620597,-7.9751287,2.281701,-0.4287677,0.19646737,-5.9999976,0.8586652,0
0.15,16.28326071890751,0.19646736889153346,-5.999997651896739,0.8586652042220625,13.143944,-1.6797593,0.4622383,-0.7836182,11.913737,-10.585242,1.6722896,-0.5288005,-0.19976419,-0.32456642,-0.75836754,-7.872311,2.3330667,-0.4115543,0.19646737,-5.9999976,0.8586652,0
0.16,15.452266438971677,-1.4007735753787642,-1.5607945880620762,0.7632380291394494,13.779255,-2.0920384,2.5221488,-0.8076817,11.835545,-10.561693,1.6682613,-0.53484124,-0.22433253,-0.30844298,-0.7539781,-7.765713,2.3754234,-0.39411315,0.19646737,-5.9999976,0.8586652,0
0.17,15.452266438971677,-1.4007735753787642,-1.5607945880620762,0.7632380291394494,13.779255,-2.0920384,2.5221488,-0.8076817,11.758403,-10.537768,1.6643791,-0.5359089,-0.22763364,-0.29811323,-0.75638175,-7.662708,2.4091644,-0.38208684,-1.4007735,-1.5607946,0.763238,0
0.18000000000000002,15.452266438971677,-1.4007735753787642,-1.5607945880620762,0.7632380291394494,13.779255,-2.0920384,2.5221488,-0.8076817,11.682287,-10.513519,1.6606245,-0.53690976,-0.2309064,-0.28774637,-0.7586912,-7.5603824,2.44009,-0.3686085,-1.4007735,-1.5607946,0.763238,0
0.19000000000000003,15.452266438971677,-1.4007735753787642,-1.5607945880620762,0.7632380291394494,13.779255,-2.0920384,2.5221488,-0.8076817,11.607192,-10.4889765,1.6570116,-0.5378438,-0.2341504,-0.27734372,-0.7609062,-7.458766,2.468175,-0.35374042,-1.4007735,-1.5607946,0.763238,0
0.20000000000000004,14.499563601119654,-1.567736254253144,0.853430995890204,0.6056973925088651,13.066818,-2.435017,5.6560245,-1.0245453,11.53311,-10.464167,1.6535542,-0.5387109,-0.23736525,-0.26690647,-0.7630265,-7.357885,2.493396,-0.33754557,-1.4007735,-1.5607946,0.763238,0
0.21000000000000005,14.499563601119654,-1.567736254253144,0.853430995890204,0.6056973925088651,13.066818,-2.435017,5.6560245,-1.0245453,11.459999,-10.439123,1.6502299,-0.5370979,-0.23068438,-0.26249346,-0.7677291,-7.264405,2.515575,-0.32705092,-1.5677363,0.853431,0.6056974,0
0.22000000000000006,14.499563601119654,-1.567736254253144,0.853430995890204,0.6056973925088651,13.066818,-2.435017,5.6560245,-1.0245453,11.387814,-10.413855,1.6470186,-0.5354371,-0.22398302,-0.25805715,-0.7723635,-7.172912,2.5382786,-0.31498355,-1.5677363,0.853431,0.6056974,0
0.23000000000000007,14.499563601119654,-1.567736254253144,0.853430995890204,0.6056973925088651,13.066818,-2.435017,5.6560245,-1.0245453,11.316533,-10.388356,1.6439356,-0.53372884,-0.21726178,-0.25359792,-0.7769292,-7.0834365,2.561484,-0.30137473,-1.5677363,0.853431,0.6056974,0
0.24000000000000007,14.499563601119654,-1.567736254253144,0.853430995890204,0.6056973925088651,12.89722,-2.2242413,5.527033,-0.80677044,11.246138,-10.362624,1.6409962,-0.5319732,-0.21052122,-0.24911618,-0.781426,-6.996008,2.5851696,-0.28625625,-1.5677363,0.853431,0.6056974,0
0.25000000000000006,14.499563601119654,-1.567736254253144,0.853430995890204,0.6056973925088651,12.89722,-2.2242413,5.527033,-0.80677044,11.176606,-10.336653,1.6382155,-0.53017026,-0.20376198,-0.24461228,-0.7858533,-6.9106545,2.6093123,-0.2696604,-1.5677363,0.853431,0.6056974,0
0.26000000000000006,14.499563601119654,-1.567736254253144,0.853430995890204,0.6056973925088651,12.89722,-2.2242413,5.527033,-0.80677044,11.107918,-10.310438,1.635608,-0.5283202,-0.19698462,-0.24008664,-0.7902109,-6.827404,2.6338892,-0.25162008,-1.5677363,0.853431,0.6056974,0
0.2700000000000001,14.499563601119654,-1.567736254253144,0.853430995890204,0.6056973925088651,12.89722,-2.2242413,5.527033,-0.80677044,11.040051,-10.283975,1.633188,-0.5264232,-0.19018978,-0.23553969,-0.7944983,-6.7462845,2.6588771,-0.23216861,-1.5677363,0.853431,0.6056974,0
0.2800000000000001,13.640092829709596,-1.6223414660895286,2.7925822687308464,0.3521499743214566,12.935459,-1.6856964,4.583929,-0.48293337,10.972984,-10.257259,1.6309694,-0.5244795,-0.18337806,-0.23097181,-0.7987152,-6.6673207,2.6842527,-0.21133986,-1.5677363,0.853431,0.6056974,0
0.2900000000000001,13.640092829709596,-1.6223414660895286,2.7925822687308464,0.3521499743214566,12.935459,-1.6856964,4.583929,-0.48293337,10.906673,-10.230292,1.6289304,-0.5212666,-0.16835439,-0.23146276,-0.8039671,-6.5954976,2.7093709,-0.19623996,-1.6223415,2.7925823,0.35214996,0
0.3000000000000001,13.640092829709596,-1.6223414660895286,2.7925822687308464,0.3521499743214566,12.935459,-1.6856964,4.583929,-0.48293337,10.841064,-10.203062,1.6270492,-0.51791614,-0.15328631,-0.23189263,-0.8090069,-6.52687,2.73721,-0.17980227,-1.6223415,2.7925823,0.35214996,0
0.3100000000000001,13.640092829709596,-1.6223414660895286,2.7925822687308464,0.3521499743214566,12.935459,-1.6856964,4.583929,-0.48293337,10.776125,-10.175539,1.6253384,-0.514429,-0.13817777,-0.23226131,-0.8138333,-6.4615154,2.7677295,-0.1621391,-1.6223415,2.7925823,0.35214996,0
0.3200000000000001,13.153556600540876,-1.5692501801179848,4.477827332032434,0.14016949213209992,12.815099,-1.3112411,4.5811777,-0.30616355,10.711822,-10.147698,1.62381,-0.51080614,-0.12303277,-0.23256871,-0.81844497,-6.39951,2.800885,-0.14336412,-1.6223415,2.7925823,0.35214996,0
0.3300000000000001,13.153556600540876,-1.5692501801179848,4.477827332032434,0.14016949213209992,12.815099,-1.3112411,4.5811777,-0.30616355,10.648109,-10.119516,1.6224533,-0.5058475,-0.10083101,-0.2374313,-0.82315135,-6.343374,2.836104,-0.1278552,-1.5692502,4.4778275,0.14016949,0
0.34000000000000014,13.153556600540876,-1.5692501801179848,4.477827332032434,0.14016949213209992,12.815099,-1.3112411,4.5811777,-0.30616355,10.584938,-10.090961,1.6212549,-0.5006039,-0.07857244,-0.24216016,-0.82739407,-6.291598,2.8757453,-0.11173454,-1.5692502,4.4778275,0.14016949,0
0.35000000000000014,13.153556600540876,-1.5692501801179848,4.477827332032434,0.14016949213209992,12.815099,-1.3112411,4.5811777,-0.30616355,10.522263,-10.061988,1.6202198,-0.4950783,-0.056269612,-0.2467526,-0.83117074,-6.2443027,2.9197145,-0.09525497,-1.5692502,4.4778275,0.14016949,0
0.36000000000000015,12.97689767122679,-1.351462811961571,3.9968326067634483,-0.045392408867978504,12.734194,-1.311265,3.5254571,-0.541023,10.460035,-10.032553,1.6193503,-0.4892738,-0.03393509,-0.25120604,-0.83447915,-6.201601,2.9679062,-0.07867012,-1.5692502,4.4778275,0.14016949,1
0.37000000000000016,12.97689767122679,-1.351462811961571,3.9968326067634483,-0.045392408867978504,12.734194,-1.311265,3.5254571,-0.541023,10.398208,-10.0026245,1.6186279,-0.48723736,-0.015333099,-0.25440577,-0.83525014,-6.1644645,3.0182161,-0.0658469,-1.311265,3.5254571,-0.541023,1
0.38000000000000017,12.97689767122679,-1.351462811961571,3.9968326067634483,-0.045392408867978504,12.734194,-1.311265,3.5254571,-0.541023,10.336733,-9.9721775,1.6180326,-0.48502502,0.0032744254,-0.25751364,-0.8357195,-6.131025,3.071561,-0.053265866,-1.311265,3.5254571,-0.541023,1
0.3900000000000002,12.97689767122679,-1.351462811961571,3.9968326067634483,-0.045392408867978504,12.734194,-1.311265,3.5254571,-0.541023,10.275574,-9.941183,1.6175612,-0.4826376,0.021880766,-0.26052853,-0.83588725,-6.101315,3.1278827,-0.04109628,-1.311265,3.5254571,-0.541023,1
0.4000000000000002,12.997849760006694,-1.1923435183570874,2.9230117872431824,-0.09564762688686412,12.863942,-1.2304842,2.417676,-0.80547404,10.214693,-9.90961,1.6172087,-0.48007596,0.04047921,-0.26344937,-0.83575314,-6.0753613,3.1871178,-0.029506812,-1.311265,3.5254571,-0.541023,1
0.4100000000000002,12.997849760006694,-1.1923435183570874,2.9230117872431824,-0.09564762688686412,12.863942,-1.2304842,2.417676,-0.80547404,10.154056,-9.877428,1.6169745,-0.47996008,0.054592226,-0.2639214,-0.8348676,-6.05264,3.2494357,-0.017391576,-1.2304842,2.417676,-0.80547404,1
0.4200000000000002,12.997849760006694,-1.1923435183570874,2.9230117872431824,-0.09564762688686412,12.863942,-1.2304842,2.417676,-0.80547404,10.093631,-9.844614,1.6168592,-0.47974813,0.068694316,-0.2643406,-0.83381486,-6.032891,3.3135262,-0.0057212543,-1.2304842,2.417676,-0.80547404,1
0.4300000000000002,12.997849760006694,-1.1923435183570874,2.9230117872431824,-0.09564762688686412,12.863942,-1.2304842,2.417676,-0.80547404,10.033387,-9.811151,1.6168581,-0.4794401,0.08278265,-0.26470688,-0.8325952,-6.0161147,3.379362,0.0054092696,-1.2304842,2.417676,-0.80547404,1
0.4400000000000002,12.997849760006694,-1.1923435183570874,2.9230117872431824,-0.09564762688686412,12.831015,-1.3430386,1.8286498,-0.8219917,9.973298,-9.7770195,1.6169654,-0.4790361,0.0968544,-0.26502016,-0.83120894,-6.00231,3.4469151,0.015905542,-1.2304842,2.417676,-0.80547404,0
0.45000000000000023,12.997849760006694,-1.1923435183570874,2.9230117872431824,-0.09564762688686412,12.831015,-1.3430386,1.8286498,-0.8219917,9.913332,-9.742201,1.6171792,-0.47492334,0.11197248,-0.26698643,-0.8310406,-5.991473,3.517063,0.02668605,-1.1923435,2.9230118,-0.095647626,0
0.46000000000000024,12.997849760006694,-1.1923435183570874,2.9230117872431824,-0.09564762688686412,12.831015,-1.3430386,1.8286498,-0.8219917,9.853457,-9.706671,1.6174952,-0.47069216,0.12706265,-0.26888612,-0.8306651,-5.9839416,3.5893612,0.03633271,-1.1923435,2.9230118,-0.095647626,0
0.47000000000000025,12.997849760006694,-1.1923435183570874,2.9230117872431824,-0.09564762688686412,12.831015,-1.3430386,1.8286498,-0.8219917,9.793642,-9.670406,1.6179014,-0.4663436,0.14212112,-0.27071875,-0.8300825,-5.9797206,3.6637404,0.044736266,-1.1923435,2.9230118,-0.095647626,0
0.48000000000000026,12.913592685542804,-0.9872528386342052,1.8298749181414917,-0.05713633755071621,13.066373,-1.401685,1.5409267,-0.6231754,9.733851,-9.6333885,1.6183852,-0.46187878,0.15714416,-0.2724839,-0.8292928,-5.978811,3.740129,0.051788718,-1.1923435,2.9230118,-0.095647626,1
0.49000000000000027,12.913592685542804,-0.9872528386342052,1.8298749181414917,-0.05713633755071621,13.066373,-1.401685,1.5409267,-0.6231754,9.674055,-9.595596,1.6189362,-0.46123475,0.16761014,-0.26972476,-0.82850355,-5.9809575,3.8183682,0.05831407,-1.401685,1.5409267,-0.6231754,1
0.5000000000000002,12.913592685542804,-0.9872528386342052,1.8298749181414917,-0.05713633755071621,13.066373,-1.401685,1.5409267,-0.6231754,9.6142235,-9.557019,1.6195498,-0.4605362,0.17805628,-0.26693377,-0.8276164,-5.985714,3.897181,0.06432154,-1.401685,1.5409267,-0.6231754,1
0.5100000000000002,12.913592685542804,-0.9872528386342052,1.8298749181414917,-0.05713633755071621,13.066373,-1.401685,1.5409267,-0.6231754,9.554331,-9.517652,1.6202207,-0.4597833,0.18848142,-0.26411125,-0.8266315,-5.993073,3.9765463,0.06975628,-1.401685,1.5409267,-0.6231754,1
0.5200000000000002,12.800474860054582,-0.6476312750956097,0.40459007050755097,-0.04860003907644129,13.426567,-1.5657964,1.0000963,-0.6529031,9.494352,-9.477488,1.6209427,-0.458976,0.19888425,-0.26125747,-0.8255489,-6.0030265,4.0564427,0.074563704,-1.401685,1.5409267,-0.6231754,1
0.5300000000000002,12.800474860054582,-0.6476312750956097,0.40459007050755097,-0.04860003907644129,13.426567,-1.5657964,1.0000963,-0.6529031,9.43426,-9.43651,1.6217242,-0.4587853,0.20744881,-0.25642753,-0.8250613,-6.0158467,4.138851,0.08168387,-1.5657964,1.0000963,-0.6529031,1
0.5400000000000003,12.800474860054582,-0.6476312750956097,0.40459007050755097,-0.04860003907644129,13.426567,-1.5657964,1.0000963,-0.6529031,9.374026,-9.394709,1.6225755,-0.4585501,0.21599324,-0.25157273,-0.8244939,-6.031145,4.2211947,0.08852361,-1.5657964,1.0000963,-0.6529031,1
0.5500000000000003,12.800474860054582,-0.6476312750956097,0.40459007050755097,-0.04860003907644129,13.426567,-1.5657964,1.0000963,-0.6529031,9.313627,-9.352085,1.6234936,-0.45827046,0.22451675,-0.24669352,-0.82384646,-6.048915,4.3034573,0.09503674,-1.5657964,1.0000963,-0.6529031,1
0.5600000000000003,12.404253250882366,-0.05005937891927403,-0.863929759454746,0.06223065583935733,13.201108,-1.4981277,0.4015084,-0.5487596,9.253039,-9.30864,1.6244749,-0.4579464,0.23301847,-0.24179038,-0.82311916,-6.0691495,4.3856235,0.1011772,-1.5657964,1.0000963,-0.6529031,0
0.5700000000000003,12.404253250882366,-0.05005937891927403,-0.863929759454746,0.06223065583935733,13.201108,-1.4981277,0.4015084,-0.5487596,9.192246,-9.264404,1.6254772,-0.4586721,0.22950009,-0.23967642,-0.824321,-6.089093,4.461202,0.09939226,-0.05005938,-0.86392975,0.062230654,0
0.5800000000000003,12.404253250882366,-0.05005937891927403,-0.863929759454746,0.06223065583935733,13.201108,-1.4981277,0.4015084,-0.5487596,9.131258,-9.219417,1.626465,-0.45938915,0.22597739,-0.23755795,-0.8255073,-6.1085835,4.5360603,0.09826078,-0.05005938,-0.86392975,0.062230654,0
0.5900000000000003,12.404253250882366,-0.05005937891927403,-0.863929759454746,0.06223065583935733,13.201108,-1.4981277,0.4015084,-0.5487596,9.070076,-9.173685,1.6274446,-0.46009758,0.22245044,-0.23543501,-0.82667804,-6.127617,4.6101923,0.09777541,-0.05005938,-0.86392975,0.062230654,0
0.6000000000000003,12.16289149741985,0.030493951118322874,-1.063328020609508,0.09393167593044068,12.062093,-0.8834335,-0.24111983,-0.07140437,9.008706,-9.127215,1.6284226,-0.46079734,0.2189193,-0.23330763,-0.82783324,-6.1461926,4.683593,0.09792872,-0.05005938,-0.86392975,0.062230654,1
0.6100000000000003,12.16289149741985,0.030493951118322874,-1.063328020609508,0.09393167593044068,12.062093,-0.8834335,-0.24111983,-0.07140437,8.947155,-9.080026,1.6293914,-0.4604023,0.22003767,-0.22901481,-0.82895446,-6.1642704,4.754263,0.09589238,-0.8834335,-0.24111983,-0.07140437,1
0.6200000000000003,12.16289149741985,0.030493951118322874,-1.063328020609508,0.09393167593044068,12.062093,-0.8834335,-0.24111983,-0.07140437,8.885419,-9.032132,1.6303416,-0.45999756,0.22115138,-0.22471716,-0.8300582,-6.18313,4.8242393,0.09421322,-0.8834335,-0.24111983,-0.07140437,1
0.6300000000000003,12.16289149741985,0.030493951118322874,-1.063328020609508,0.09393167593044068,12.062093,-0.8834335,-0.24111983,-0.07140437,8.823489,-8.983543,1.631277,-0.45958313,0.22226045,-0.22041476,-0.83114445,-6.2027698,4.893516,0.09288275,-0.8834335,-0.24111983,-0.07140437,1
0.6400000000000003,12.16289149741985,0.030493951118322874,-1.063328020609508,0.09393167593044068,11.686068,-0.8192212,-0.322566,-0.14217867,8.76136,-8.934264,1.6322005,-0.45915902,0.22336482,-0.21610771,-0.83221316,-6.2231894,4.9620876,0.09189246,-0.8834335,-0.24111983,-0.07140437,1
0.6500000000000004,12.16289149741985,0.030493951118322874,-1.063328020609508,0.09393167593044068,11.686068,-0.8192212,-0.322566,-0.14217867,8.699026,-8.884314,1.6331006,-0.4591797,0.22405475,-0.2117974,-0.8331239,-6.243685,5.027823,0.08821218,-0.8192212,-0.322566,-0.14217867,1
0.6600000000000004,12.16289149741985,0.030493951118322874,-1.063328020609508,0.09393167593044068,11.686068,-0.8192212,-0.322566,-0.14217867,8.636484,-8.83371,1.633966,-0.45919123,0.22474025,-0.20748289,-0.8340181,-6.2648234,5.092839,0.08488783,-0.8192212,-0.322566,-0.14217867,1
0.6700000000000004,12.16289149741985,0.030493951118322874,-1.063328020609508,0.09393167593044068,11.686068,-0.8192212,-0.322566,-0.14217867,8.573728,-8.782459,1.6347996,-0.45919365,0.22542128,-0.20316426,-0.83489573,-6.286605,5.1571302,0.081911355,-0.8192212,-0.322566,-0.14217867,1
0.6800000000000004,11.971248381563008,0.3905697351594869,-1.7523784258616875,0.14657737930216955,11.27042,-0.41380885,-0.91605866,-0.18695532,8.51075,-8.73057,1.6356052,-0.4591869,0.22609782,-0.19884159,-0.8357567,-6.309028,5.2206936,0.07927468,-0.8192212,-0.322566,-0.14217867,1
0.6900000000000004,11.971248381563008,0.3905697351594869,-1.7523784258616875,0.14657737930216955,11.27042,-0.41380885,-0.91605866,-0.18695532,8.44755,-8.67806,1.6363695,-0.46040508,0.22340281,-0.19479524,-0.83676356,-6.3310065,5.2812047,0.07368154,-0.41380885,-0.91605866,-0.18695532,1
0.7000000000000004,11.971248381563008,0.3905697351594869,-1.7523784258616875,0.14657737930216955,11.27042,-0.41380885,-0.91605866,-0.18695532,8.38413,-8.624949,1.637081,-0.46161124,0.22070198,-0.19074377,-0.8377486,-6.3528934,5.3407774,0.06871688,-0.41380885,-0.91605866,-0.18695532,1
0.7100000000000004,11.971248381563008,0.3905697351594869,-1.7523784258616875,0.14657737930216955,11.27042,-0.41380885,-0.91605866,-0.18695532,8.320492,-8.571248,1.6377461,-0.46280533,0.21799539,-0.18668734,-0.8387117,-6.3746886,5.3994055,0.06437104,-0.41380885,-0.91605866,-0.18695532,1
0.7200000000000004,12.031253497251885,0.6723834187527236,-2.0836325694754025,0.20565782643925357,11.150395,0.12200338,-0.8151326,-0.10056386,8.256637,-8.516965,1.6383708,-0.46398732,0.21528308,-0.18262602,-0.83965284,-6.396392,5.4570827,0.0606343,-0.41380885,-0.91605866,-0.18695532,0
0.7300000000000004,12.031253497251885,0.6723834187527236,-2.0836325694754025,0.20565782643925357,11.150395,0.12200338,-0.8151326,-0.10056386,8.19256,-8.462091,1.6389937,-0.46572223,0.20477496,-0.18082534,-0.841708,-6.4187884,5.5175076,0.064130515,0.6723834,-2.0836325,0.20565782,0
0.7400000000000004,12.031253497251885,0.6723834187527236,-2.0836325694754025,0.20565782643925357,11.150395,0.12200338,-0.8151326,-0.10056386,8.128268,-8.406621,1.6396576,-0.46740082,0.19424209,-0.17900279,-0.8436615,-6.4392834,5.5765615,0.068827435,0.6723834,-2.0836325,0.20565782,0
0.7500000000000004,12.031253497251885,0.6723834187527236,-2.0836325694754025,0.20565782643925357,11.150395,0.12200338,-0.8151326,-0.10056386,8.063781,-8.350566,1.6403743,-0.4690229,0.18368573,-0.1771586,-0.8455129,-6.4578633,5.634219,0.074674346,0.6723834,-2.0836325,0.20565782,0
0.7600000000000005,12.032555519637201,0.5384897798335992,-1.8172125244711728,0.20941873192998936,11.166733,0.7354315,-1.3877393,-0.13578656,7.9991164,-8.293942,1.6411549,-0.4705883,0.17310716,-0.175293,-0.84726214,-6.474516,5.690457,0.081619985,0.6723834,-2.0836325,0.20565782,1
0.7700000000000005,12.032555519637201,0.5384897798335992,-1.8172125244711728,0.20941873192998936,11.166733,0.7354315,-1.3877393,-0.13578656,7.934301,-8.236782,1.6419717,-0.47300175,0.16561155,-0.17502028,-0.8474729,-6.4882956,5.7415423,0.08185477,0.7354315,-1.3877393,-0.13578656,1
0.7800000000000005,12.032555519637201,0.5384897798335992,-1.8172125244711728,0.20941873192998936,11.166733,0.7354315,-1.3877393,-0.13578656,7.869355,-8.179113,1.6427939,-0.47538581,0.15810566,-0.17473668,-0.847631,-6.500598,5.791881,0.08266909,0.7354315,-1.3877393,-0.13578656,1
0.7900000000000005,12.032555519637201,0.5384897798335992,-1.8172125244711728,0.20941873192998936,11.166733,0.7354315,-1.3877393,-0.13578656,7.804294,-8.120946,1.6436269,-0.47774032,0.15058994,-0.17444223,-0.8477364,-6.511422,5.8414574,0.08403934,0.7354315,-1.3877393,-0.13578656,1
0.8000000000000005,12.261130432606416,0.054882846021401886,-1.1399090659030984,0.22527965892937696,11.390543,0.74612445,-0.447521,-0.17979498,7.739132,-8.062287,1.6444764,-0.48006517,0.14306487,-0.17413694,-0.84778917,-6.5207663,5.890259,0.085941784,0.7354315,-1.3877393,-0.13578656,1
0.8100000000000005,12.261130432606416,0.054882846021401886,-1.1399090659030984,0.22527965892937696,11.390543,0.74612445,-0.447521,-0.17979498,7.6738825,-8.003139,1.645357,-0.4817459,0.13953206,-0.17609519,-0.8470197,-6.528982,5.939543,0.09020366,0.74612445,-0.447521,-0.17979498,1
0.8200000000000005,12.261130432606416,0.054882846021401886,-1.1399090659030984,0.22527965892937696,11.390543,0.74612445,-0.447521,-0.17979498,7.608556,-7.9434967,1.6462806,-0.4834172,0.13599649,-0.17804997,-0.8462335,-6.5362096,5.988839,0.09453411,0.74612445,-0.447521,-0.17979498,1
0.8300000000000005,12.261130432606416,0.054882846021401886,-1.1399090659030984,0.22527965892937696,11.390543,0.74612445,-0.447521,-0.17979498,7.543162,-7.883362,1.6472479,-0.48507896,0.13245824,-0.18000121,-0.8454306,-6.542448,6.0381427,0.09892615,0.74612445,-0.447521,-0.17979498,1
0.8400000000000005,12.261130432606416,0.054882846021401886,-1.1399090659030984,0.22527965892937696,11.7028265,0.41446057,-0.1345045,-0.22252464,7.4777102,-7.822734,1.6482593,-0.48673108,0.12891738,-0.18194894,-0.84461105,-6.5476966,6.0874476,0.10337281,0.74612445,-0.447521,-0.17979498,0
0.8500000000000005,12.261130432606416,0.054882846021401886,-1.1399090659030984,0.22527965892937696,11.7028265,0.41446057,-0.1345045,-0.22252464,7.412209,-7.761595,1.6493552,-0.48684388,0.12376283,-0.17954871,-0.84582984,-6.5524,6.1401243,0.11589113,0.054882847,-1.139909,0.22527966,0
0.8600000000000005,12.261130432606416,0.054882846021401886,-1.1399090659030984,0.22527965892937696,11.7028265,0.41446057,-0.1345045,-0.22252464,7.3466644,-7.6999345,1.6505789,-0.4869402,0.11860409,-0.17714241,-0.84702003,-6.556353,6.191744,0.12893596,0.054882847,-1.139909,0.22527966,0
0.8700000000000006,12.261130432606416,0.054882846021401886,-1.1399090659030984,0.22527965892937696,11.7028265,0.41446057,-0.1345045,-0.22252464,7.2810845,-7.637763,1.6519356,-0.48702008,0.113441326,-0.17473012,-0.8481816,-6.5595527,6.242301,0.14249219,0.054882847,-1.139909,0.22527966,0
0.8800000000000006,12.409967815290004,-0.4925106751984133,-1.1606422548259958,0.26603218766468306,12.095699,0.09640336,-0.03227949,-0.16177417,7.2154765,-7.575092,1.6534305,-0.48708346,0.10827473,-0.17231192,-0.84931445,-6.561996,6.2917905,0.15654464,0.054882847,-1.139909,0.22527966,0
0.8900000000000006,12.409967815290004,-0.4925106751984133,-1.1606422548259958,0.26603218766468306,12.095699,0.09640336,-0.03227949,-0.16177417,7.1498466,-7.5119286,1.6550752,-0.48667696,0.104314014,-0.16753426,-0.8509973,-6.5639153,6.340669,0.17249611,-0.49251068,-1.1606423,0.2660322,0
0.9000000000000006,12.409967815290004,-0.4925106751984133,-1.1606422548259958,0.26603218766468306,12.095699,0.09640336,-0.03227949,-0.16177417,7.0841985,-7.4482837,1.6568824,-0.48625025,0.10034898,-0.16274966,-0.8526449,-6.565636,6.3881183,0.18905267,-0.49251068,-1.1606423,0.2660322,0
0.9100000000000006,12.409967815290004,-0.4925106751984133,-1.1606422548259958,0.26603218766468306,12.095699,0.09640336,-0.03227949,-0.16177417,7.018534,-7.384171,1.6588582,-0.48580337,0.09637978,-0.1579583,-0.85425717,-6.5671535,6.4341316,0.20619597,-0.49251068,-1.1606423,0.2660322,0
0.9200000000000006,12.346760471011084,-0.7702855709111316,-0.6241859980421159,0.26376797639344485,12.072792,-0.16756636,0.24203368,-0.16918498,6.952856,-7.319606,1.6610082,-0.4853363,0.09240658,-0.1531604,-0.85583395,-6.568464,6.478702,0.22390753,-0.49251068,-1.1606423,0.2660322,1
0.9300000000000006,12.346760471011084,-0.7702855709111316,-0.6241859980421159,0.26376797639344485,12.072792,-0.16756636,0.24203368,-0.16918498,6.8871655,-7.2546062,1.6633219,-0.48579678,0.09397834,-0.15295231,-0.85543865,-6.5697317,6.521232,0.2387889,-0.16756636,0.24203368,-0.16918498,1
0.9400000000000006,12.346760471011084,-0.7702855709111316,-0.6241859980421159,0.26376797639344485,12.072792,-0.16756636,0.24203368,-0.16918498,6.8214607,-7.1891804,1.6657839,-0.4862559,0.09554983,-0.15274377,-0.8550409,-6.571323,6.5638995,0.2536145,-0.16756636,0.24203368,-0.16918498,1
0.9500000000000006,12.346760471011084,-0.7702855709111316,-0.6241859980421159,0.26376797639344485,12.072792,-0.16756636,0.24203368,-0.16918498,6.7557383,-7.1233273,1.6683939,-0.48671362,0.097121045,-0.1525348,-0.85464066,-6.573237,6.606704,0.26838312,-0.16756636,0.24203368,-0.16918498,1
0.9600000000000006,12.219189858262547,-0.9835425717688064,-0.6339978318764831,0.2890171718311268,12.308567,-0.28165543,0.48783463,-0.32272348,6.689995,-7.0570455,1.6711512,-0.4871699,0.09869198,-0.15232538,-0.854238,-6.575474,6.6496463,0.2830936,-0.16756636,0.24203368,-0.16918498,0
0.9700000000000006,12.219189858262547,-0.9835425717688064,-0.6339978318764831,0.2890171718311268,12.308567,-0.28165543,0.48783463,-0.32272348,6.624227,-6.9903326,1.6740627,-0.4859241,0.09815789,-0.14672004,-0.85598844,-6.578183,6.6927466,0.29929912,-0.98354256,-0.63399786,0.28901717,0
0.9800000000000006,12.219189858262547,-0.9835425717688064,-0.6339978318764831,0.2890171718311268,12.308567,-0.28165543,0.48783463,-0.32272348,6.558429,-6.923195,1.6771387,-0.48466066,0.097620256,-0.14110939,-0.85770774,-6.5815334,6.734643,0.31593442,-0.98354256,-0.63399786,0.28901717,0
0.9900000000000007,12.219189858262547,-0.9835425717688064,-0.6339978318764831,0.2890171718311268,12.308567,-0.28165543,0.48783463,-0.32272348,6.492594,-6.8556437,1.680383,-0.48337966,0.09707907,-0.13549359,-0.8593959,-6.5855203,6.7753277,0.33298445,-0.98354256,-0.63399786,0.28901717,0
1.0000000000000007,12.050231120969178,-0.9608380015390193,-0.5366891998917313,0.28328783574281513,12.405903,-0.42501712,0.3430778,-0.15356505,6.426716,-6.787692,1.6837999,-0.4820811,0.09653436,-0.12987289,-0.8610529,-6.59014,6.8147945,0.35043418,-0.98354256,-0.63399786,0.28901717,1
1.0100000000000007,12.050231120969178,-0.9608380015390193,-0.5366891998917313,0.28328783574281513,12.405903,-0.42501712,0.3430778,-0.15356505,6.3607883,-6.7193475,1.6874014,-0.48231235,0.09913519,-0.12879539,-0.86078966,-6.5954804,6.854117,0.3698749,-0.42501712,0.3430778,-0.15356505,1
1.0200000000000007,12.050231120969178,-0.9608380015390193,-0.5366891998917313,0.28328783574281513,12.405903,-0.42501712,0.3430778,-0.15356505,6.2948036,-6.6506095,1.6911972,-0.48253974,0.10173522,-0.12771685,-0.8605195,-6.6014924,6.8935175,0.38925707,-0.42501712,0.3430778,-0.15356505,1
1.0300000000000007,12.050231120969178,-0.9608380015390193,-0.5366891998917313,0.28328783574281513,12.405903,-0.42501712,0.3430778,-0.15356505,6.228756,-6.581477,1.6951864,-0.48276326,0.104334444,-0.1266373,-0.8602424,-6.608174,6.932996,0.40857688,-0.42501712,0.3430778,-0.15356505,1
1.0400000000000007,12.050231120969178,-0.9608380015390193,-0.5366891998917313,0.28328783574281513,12.517509,-0.1786243,0.3386287,-0.26401556,6.1626377,-6.5119495,1.6993685,-0.48298287,0.10693282,-0.1255567,-0.8599584,-6.6155252,6.9725523,0.42783046,-0.42501712,0.3430778,-0.15356505,1
1.0500000000000007,12.050231120969178,-0.9608380015390193,-0.5366891998917313,0.28328783574281513,12.517509,-0.1786243,0.3386287,-0.26401556,6.0964427,-6.442024,1.7037481,-0.4838087,0.10898568,-0.12546492,-0.8592496,-6.623518,7.012599,0.448057,-0.1786243,0.3386287,-0.26401556,1
1.0600000000000007,12.050231120969178,-0.9608380015390193,-0.5366891998917313,0.28328783574281513,12.517509,-0.1786243,0.3386287,-0.26401556,6.030165,-6.371697,1.7083293,-0.4846319,0.11103794,-0.12537244,-0.8585361,-6.6319184,7.0528746,0.46817753,-0.1786243,0.3386287,-0.26401556,1
1.0700000000000007,12.050231120969178,-0.9608380015390193,-0.5366891998917313,0.28328783574281513,12.517509,-0.1786243,0.3386287,-0.26401556,5.9638023,-6.300966,1.7131113,-0.48545247,0.113089606,-0.1252793,-0.857818,-6.6407256,7.093379,0.48819008,-0.1786243,0.3386287,-0.26401556,1
1.0800000000000007,11.695563461403983,-1.0894682997914955,-1.4191112160915473,0.3207962949482949,12.54328,-0.029845148,0.07685706,-0.18846089,5.89735,-6.2298284,1.7180927,-0.48627043,0.115140654,-0.12518549,-0.85709524,-6.649939,7.1341143,0.5080926,-0.1786243,0.3386287,-0.26401556,0
1.0900000000000007,11.695563461403983,-1.0894682997914955,-1.4191112160915473,0.3207962949482949,12.54328,-0.029845148,0.07685706,-0.18846089,5.830806,-6.1582985,1.7232348,-0.48513663,0.11150247,-0.11724587,-0.8593387,-6.658883,7.1715693,0.52042526,-1.0894682,-1.4191113,0.32079628,0
1.1000000000000008,11.695563461403983,-1.0894682997914955,-1.4191112160915473,0.3207962949482949,12.54328,-0.029845148,0.07685706,-0.18846089,5.7641706,-6.086404,1.7285033,-0.48396277,0.10785507,-0.10929655,-0.8615112,-6.6680865,7.207046,0.5333881,-1.0894682,-1.4191113,0.32079628,0
1.1100000000000008,11.695563461403983,-1.0894682997914955,-1.4191112160915473,0.3207962949482949,12.54328,-0.029845148,0.07685706,-0.18846089,5.697443,-6.014164,1.7339045,-0.48274896,0.10419876,-0.101338215,-0.86361253,-6.677541,7.240533,0.5469463,-1.0894682,-1.4191113,0.32079628,0
1.1200000000000008,11.324944084647903,-1.1414195102868343,-1.6784938261818785,0.32574755637246144,12.055049,-0.018021464,-0.031975955,0.05114068,5.6306195,-5.9416,1.7394441,-0.48149526,0.10053385,-0.09337151,-0.86564255,-6.687235,7.272018,0.5610647,-1.0894682,-1.4191113,0.32079628,0
1.1300000000000008,11.324944084647903,-1.1414195102868343,-1.6784938261818785,0.32574755637246144,12.055049,-0.018021464,-0.031975955,0.05114068,5.5636992,-5.8687353,1.7451099,-0.4802698,0.095859595,-0.08454923,-0.86775756,-6.6968074,7.300455,0.57216495,-1.1414195,-1.6784939,0.32574755,0
1.1400000000000008,11.324944084647903,-1.1414195102868343,-1.6784938261818785,0.32574755637246144,12.055049,-0.018021464,-0.031975955,0.05114068,5.4966826,-5.795598,1.7508894,-0.4789936,0.09117522,-0.075718015,-0.86978096,-6.7064905,7.326663,0.58381206,-1.1414195,-1.6784939,0.32574755,0
1.1500000000000008,11.324944084647903,-1.1414195102868343,-1.6784938261818785,0.32574755637246144,12.055049,-0.018021464,-0.031975955,0.05114068,5.429569,-5.72221,1.756788,-0.4776668,0.08648121,-0.06687881,-0.8717125,-6.716273,7.35063,0.5959614,-1.1414195,-1.6784939,0.32574755,0
1.1600000000000008,11.046679945184211,-0.8314298727771006,-1.3165178193009957,0.3236425540978393,11.632691,0.10456374,-0.5699996,0.059305444,5.3623567,-5.6485934,1.7628102,-0.4762895,0.081778064,-0.05803253,-0.8735519,-6.726144,7.372346,0.6085683,-1.1414195,-1.6784939,0.32574755,1
1.1700000000000008,11.046679945184211,-0.8314298727771006,-1.3165178193009957,0.3236425540978393,11.632691,0.10456374,-0.5699996,0.059305444,5.2950454,-5.5747666,1.7689755,-0.47623658,0.07902188,-0.05715582,-0.8738921,-6.7361627,7.3930225,0.62450355,0.10456374,-0.5699996,0.059305444,1
1.1800000000000008,11.046679945184211,-0.8314298727771006,-1.3165178193009957,0.3236425540978393,11.632691,0.10456374,-0.5699996,0.059305444,5.227636,-5.5007353,1.7753007,-0.47617966,0.07626502,-0.056278624,-0.87422496,-6.7457247,7.4132185,0.64056396,0.10456374,-0.5699996,0.059305444,1
1.1900000000000008,11.046679945184211,-0.8314298727771006,-1.3165178193009957,0.3236425540978393,11.632691,0.10456374,-0.5699996,0.059305444,5.160133,-5.426504,1.7817872,-0.47611868,0.073507525,-0.055400945,-0.8745504,-6.7548304,7.432934,0.6567457,0.10456374,-0.5699996,0.059305444,1
1.2000000000000008,10.649403011938464,-0.8883264043683111,-1.109156546023941,0.30877838695847915,11.6445055,0.5683336,-0.3139771,-0.082246535,5.0925407,-5.3520784,1.788436,-0.47605366,0.070749395,-0.054522805,-0.8748684,-6.7634783,7.4521685,0.67304486,0.10456374,-0.5699996,0.059305444,0
1.2100000000000009,10.649403011938464,-0.8883264043683111,-1.109156546023941,0.30877838695847915,11.6445055,0.5683336,-0.3139771,-0.082246535,5.024868,-5.2774715,1.7952002,-0.47467852,0.067926005,-0.048104715,-0.87621474,-6.7711926,7.4689445,0.6798252,-0.8883264,-1.1091565,0.30877838,0
1.2200000000000009,10.649403011938464,-0.8883264043683111,-1.109156546023941,0.30877838695847915,11.6445055,0.5683336,-0.3139771,-0.082246535,4.9571166,-5.2027044,1.8020333,-0.47327828,0.065099016,-0.041684084,-0.8775148,-6.779063,7.48423,0.6868213,-0.8883264,-1.1091565,0.30877838,0
1.2300000000000009,10.649403011938464,-0.8883264043683111,-1.109156546023941,0.30877838695847915,11.6445055,0.5683336,-0.3139771,-0.082246535,4.8892856,-5.127792,1.8089373,-0.47185302,0.06226859,-0.035261247,-0.87876844,-6.7870836,7.498022,0.6940125,-0.8883264,-1.1091565,0.30877838,0
1.2400000000000009,10.649403011938464,-0.8883264043683111,-1.109156546023941,0.30877838695847915,11.297003,0.5526051,-0.20096174,0.006103456,4.821374,-5.052749,1.8159142,-0.4704028,0.05943487,-0.028836548,-0.8799756,-6.795247,7.5103183,0.701378,-0.8883264,-1.1091565,0.30877838,0
1.2500000000000009,10.649403011938464,-0.8883264043683111,-1.109156546023941,0.30877838695847915,11.297003,0.5526051,-0.20096174,0.006103456,4.75338,-4.9775906,1.8229655,-0.4689277,0.056598004,-0.022410324,-0.8811363,-6.803548,7.5211153,0.7088968,-0.8883264,-1.1091565,0.30877838,0
1.260000000000001,10.649403011938464,-0.8883264043683111,-1.109156546023941,0.30877838695847915,11.297003,0.5526051,-0.20096174,0.006103456,4.685302,-4.902332,1.8300928,-0.46742782,0.053758148,-0.015982913,-0.88225037,-6.8119793,7.530411,0.71654797,-0.8883264,-1.1091565,0.30877838,0
1.270000000000001,10.649403011938464,-0.8883264043683111,-1.109156546023941,0.30877838695847915,11.297003,0.5526051,-0.20096174,0.006103456,4.6171393,-4.8269877,1.837297,-0.46590325,0.05091545,-0.009554659,-0.8833179,-6.8205357,7.538202,0.7243106,-0.8883264,-1.1091565,0.30877838,0
1.280000000000001,10.493073495203634,-0.5696545861110547,-0.5098856653357074,0.286109563972573,11.137953,0.6399819,-0.6230593,0.022392094,4.5488906,-4.7515736,1.8445792,-0.46435404,0.048070062,-0.0031259002,-0.8843387,-6.8292093,7.5444865,0.73216367,-0.8883264,-1.1091565,0.30877838,0
1.290000000000001,10.493073495203634,-0.5696545861110547,-0.5098856653357074,0.286109563972573,11.137953,0.6399819,-0.6230593,0.022392094,4.480555,-4.676103,1.8519325,-0.46295613,0.04713324,0.0005080245,-0.885127,-6.837897,7.549459,0.7385157,-0.5696546,-0.50988567,0.28610957,0
1.300000000000001,10.493073495203634,-0.5696545861110547,-0.5098856653357074,0.286109563972573,11.137953,0.6399819,-0.6230593,0.022392094,4.412132,-4.600587,1.8593495,-0.46155053,0.046195637,0.0041419407,-0.8859007,-6.8467712,7.5536513,0.7448861,-0.5696546,-0.50988567,0.28610957,0
1.310000000000001,10.493073495203634,-0.5696545861110547,-0.5098856653357074,0.286109563972573,11.137953,0.6399819,-0.6230593,0.022392094,4.343619,-4.5250325,1.8668303,-0.46013722,0.045257263,0.0077757877,-0.88665956,-6.8558292,7.557063,0.75126916,-0.5696546,-0.50988567,0.28610957,0
1.320000000000001,10.257465653229097,-0.1742187215246266,-0.1498638954015107,0.23492380113712677,11.099742,0.8941328,-0.4486843,0.05158612,4.275015,-4.449448,1.874375,-0.45871624,0.044318132,0.011409506,-0.88740367,-6.8650694,7.5596933,0.75765896,-0.5696546,-0.50988567,0.28610957,0
1.330000000000001,10.257465653229097,-0.1742187215246266,-0.1498638954015107,0.23492380113712677,11.099742,0.8941328,-0.4486843,0.05158612,4.206318,-4.373841,1.8819717,-0.4576261,0.04406611,0.01247417,-0.88796455,-6.8742323,7.561702,0.7617038,-0.17421871,-0.1498639,0.2349238,0
1.340000000000001,10.257465653229097,-0.1742187215246266,-0.1498638954015107,0.23492380113712677,11.099742,0.8941328,-0.4486843,0.05158612,4.1375294,-4.298215,1.889609,-0.45653474,0.043813966,0.0135388,-0.88852304,-6.883452,7.5634813,0.7657477,-0.17421871,-0.1498639,0.2349238,0
1.350000000000001,10.257465653229097,-0.1742187215246266,-0.1498638954015107,0.23492380113712677,11.099742,0.8941328,-0.4486843,0.05158612,4.068649,-4.2225714,1.8972867,-0.45544213,0.043561704,0.014603393,-0.88907915,-6.8927274,7.5650315,0.7697904,-0.17421871,-0.1498639,0.2349238,0
1.360000000000001,10.084890118482809,0.08570854059602914,0.4891570104414438,0.20100492079844196,10.779888,1.4351358,-0.04865536,-0.22953597,3.999675,-4.1469145,1.9050047,-0.4543483,0.043309323,0.015667947,-0.8896329,-6.9020576,7.5663514,0.7738313,-0.17421871,-0.1498639,0.2349238,0
1.370000000000001,10.084890118482809,0.08570854059602914,0.4891570104414438,0.20100492079844196,10.779888,1.4351358,-0.04865536,-0.22953597,3.9306083,-4.0712447,1.9127548,-0.45350945,0.045306053,0.014131881,-0.8899871,-6.9113464,7.567678,0.77614266,0.08570854,0.48915702,0.20100492,0
1.380000000000001,10.084890118482809,0.08570854059602914,0.4891570104414438,0.20100492079844196,10.779888,1.4351358,-0.04865536,-0.22953597,3.8614473,-3.9955595,1.9205277,-0.45266733,0.04730246,0.012595715,-0.89033496,-6.920854,7.5694547,0.7784266,0.08570854,0.48915702,0.20100492,0
1.390000000000001,10.084890118482809,0.08570854059602914,0.4891570104414438,0.20100492079844196,10.779888,1.4351358,-0.04865536,-0.22953597,3.7921903,-3.919854,1.9283233,-0.45182195,0.04929853,0.011059458,-0.89067644,-6.930581,7.5716796,0.7806806,0.08570854,0.48915702,0.20100492,0
1.400000000000001,9.8671213644729,0.25925393129630175,-0.25385278176181975,0.14798906957023852,10.780435,1.2367218,-0.31250718,-0.04473962,3.722835,-3.844124,1.9361413,-0.45097336,0.05129424,0.009523122,-0.8910115,-6.940528,7.5743537,0.782902,0.08570854,0.48915702,0.20100492,1
1.410000000000001,9.8671213644729,0.25925393129630175,-0.25385278176181975,0.14798906957023852,10.780435,1.2367218,-0.31250718,-0.04473962,3.653377,-3.7683644,1.944016,-0.45146582,0.047110215,0.00472943,-0.8910315,-6.9508324,7.577707,0.7920597,1.2367218,-0.31250718,-0.04473962,1
1.420000000000001,9.8671213644729,0.25925393129630175,-0.25385278176181975,0.14798906957023852,10.780435,1.2367218,-0.31250718,-0.04473962,3.5838227,-3.6925683,1.9519827,-0.45193985,0.042924266,-6.4453925e-05,-0.8910153,-6.9598665,7.5815787,0.80131435,1.2367218,-0.31250718,-0.04473962,1
1.430000000000001,9.8671213644729,0.25925393129630175,-0.25385278176181975,0.14798906957023852,10.780435,1.2367218,-0.31250718,-0.04473962,3.5141845,-3.616731,1.9600425,-0.45239547,0.03873657,-0.004858336,-0.8909627,-6.9676294,7.5859675,0.8106486,1.2367218,-0.31250718,-0.04473962,1
1.440000000000001,9.8671213644729,0.25925393129630175,-0.25385278176181975,0.14798906957023852,10.753051,1.5839384,-0.112731904,-0.13480219,3.4444747,-3.5408473,1.9681959,-0.4528327,0.034547303,-0.009652019,-0.8908738,-6.974119,7.5908723,0.82004493,1.2367218,-0.31250718,-0.04473962,0
1.450000000000001,9.8671213644729,0.25925393129630175,-0.25385278176181975,0.14798906957023852,10.753051,1.5839384,-0.112731904,-0.13480219,3.3747077,-3.4649148,1.976398,-0.45222968,0.03282235,-0.010257611,-0.89123845,-6.9791975,7.5956373,0.8203701,0.25925392,-0.25385278,0.14798906,0
1.460000000000001,9.8671213644729,0.25925393129630175,-0.25385278176181975,0.14798906957023852,10.753051,1.5839384,-0.112731904,-0.13480219,3.3048916,-3.3889349,1.9846034,-0.4516249,0.031097269,-0.010863164,-0.8915998,-6.983922,7.600352,0.82071525,0.25925392,-0.25385278,0.14798906,0
1.470000000000001,9.8671213644729,0.25925393129630175,-0.25385278176181975,0.14798906957023852,10.753051,1.5839384,-0.112731904,-0.13480219,3.2350302,-3.312908,1.9928123,-0.4510184,0.02937207,-0.011468675,-0.89195764,-6.9882927,7.605016,0.8210792,0.25925392,-0.25385278,0.14798906,0
1.480000000000001,9.519956855940375,-0.059495087955557656,0.30359790442602147,0.1460221827953652,10.266452,1.1581676,-0.12762466,-0.03625775,3.1651268,-3.2368345,2.001025,-0.45041016,0.027646758,-0.012074141,-0.89231205,-6.992309,7.609631,0.82146055,0.25925392,-0.25385278,0.14798906,0
1.490000000000001,9.519956855940375,-0.059495087955557656,0.30359790442602147,0.1460221827953652,10.266452,1.1581676,-0.12762466,-0.03625775,3.0951853,-3.1607158,2.0092242,-0.44973147,0.029126408,-0.012512585,-0.8926012,-6.9960523,7.6141286,0.81838006,-0.059495088,0.3035979,0.14602219,0
1.500000000000001,9.519956855940375,-0.059495087955557656,0.30359790442602147,0.1460221827953652,10.266452,1.1581676,-0.12762466,-0.03625775,3.0252051,-3.0845513,2.0173924,-0.44905144,0.03060597,-0.012950992,-0.8928878,-7.0000124,7.618823,0.8152813,-0.059495088,0.3035979,0.14602219,0
1.5100000000000011,9.519956855940375,-0.059495087955557656,0.30359790442602147,0.1460221827953652,10.266452,1.1581676,-0.12762466,-0.03625775,2.955184,-3.008339,2.0255296,-0.4483701,0.032085445,-0.013389362,-0.8931717,-7.0041895,7.6237154,0.81216323,-0.059495088,0.3035979,0.14602219,0
1.5200000000000011,9.335075023106686,0.008435356362320996,-0.2806488324197548,0.11257233019187494,10.152205,1.0598094,-0.49941638,-0.11298706,2.8851204,-2.9320765,2.0336356,-0.44768745,0.033564825,-0.013827692,-0.89345306,-7.0085845,7.6288056,0.8090249,-0.059495088,0.3035979,0.14602219,0
1.5300000000000011,9.335075023106686,0.008435356362320996,-0.2806488324197548,0.11257233019187494,10.152205,1.0598094,-0.49941638,-0.11298706,2.8150125,-2.855763,2.041701,-0.4472049,0.03228439,-0.013256037,-0.8937506,-7.012966,7.633841,0.8040366,0.008435356,-0.28064883,0.11257233,0
1.5400000000000011,9.335075023106686,0.008435356362320996,-0.2806488324197548,0.11257233019187494,10.152205,1.0598094,-0.49941638,-0.11298706,2.7448616,-2.7794,2.0497162,-0.44672126,0.03100388,-0.01268435,-0.894046,-7.017185,7.638672,0.79906666,0.008435356,-0.28064883,0.11257233,0
1.5500000000000012,9.335075023106686,0.008435356362320996,-0.2806488324197548,0.11257233019187494,10.152205,1.0598094,-0.49941638,-0.11298706,2.6746693,-2.70299,2.0576818,-0.44623664,0.0297233,-0.012112636,-0.8943394,-7.021241,7.643298,0.7941144,0.008435356,-0.28064883,0.11257233,0
1.5600000000000012,9.275803784873156,0.139899020236358,-0.44697679257517653,0.09664126492335351,9.966893,1.2457709,-0.29379007,0.003246896,2.604437,-2.626535,2.0655982,-0.44575098,0.028442651,-0.011540893,-0.89463073,-7.025134,7.6477203,0.78917897,0.008435356,-0.28064883,0.11257233,0
1.5700000000000012,9.275803784873156,0.139899020236358,-0.44697679257517653,0.09664126492335351,9.966893,1.2457709,-0.29379007,0.003246896,2.5341673,-2.5500364,2.0734625,-0.4453631,0.0261258,-0.011184192,-0.894899,-7.028768,7.6518927,0.7836717,0.13989902,-0.44697678,0.096641265,0
1.5800000000000012,9.275803784873156,0.139899020236358,-0.44697679257517653,0.09664126492335351,9.966893,1.2457709,-0.29379007,0.003246896,2.4638631,-2.4734976,2.0812716,-0.4449727,0.0238088,-0.010827428,-0.8951622,-7.032049,7.655813,0.7781887,0.13989902,-0.44697678,0.096641265,0
1.5900000000000012,9.275803784873156,0.139899020236358,-0.44697679257517653,0.09664126492335351,9.966893,1.2457709,-0.29379007,0.003246896,2.393528,-2.396921,2.0890262,-0.44457975,0.021491664,-0.010470601,-0.8954203,-7.0349765,7.659482,0.77272785,0.13989902,-0.44697678,0.096641265,0
1.6000000000000012,9.234310615590905,0.2427834067660432,-0.7182788214683582,0.0769546217169024,9.755036,1.1814568,-0.686512,-0.020410664,2.323165,-2.320309,2.0967262,-0.44418424,0.019174403,-0.010113714,-0.8956733,-7.0375504,7.662899,0.7672871,0.13989902,-0.44697678,0.096641265,1
1.6100000000000012,9.234310615590905,0.2427834067660432,-0.7182788214683582,0.0769546217169024,9.755036,1.1814568,-0.686512,-0.020410664,2.2527785,-2.2436626,2.1043959,-0.44441324,0.013476657,-0.0138778,-0.89561313,-7.0395284,7.6663895,0.7666542,1.1814568,-0.686512,-0.020410664,1
1.6200000000000012,9.234310615590905,0.2427834067660432,-0.7182788214683582,0.0769546217169024,9.755036,1.1814568,-0.686512,-0.020410664,2.182379,-2.1669805,2.1120594,-0.4446215,0.007778281,-0.017641237,-0.8955111,-7.040184,7.670044,0.7660331,1.1814568,-0.686512,-0.020410664,1
1.6300000000000012,9.234310615590905,0.2427834067660432,-0.7182788214683582,0.0769546217169024,9.755036,1.1814568,-0.686512,-0.020410664,2.1119795,-2.0902612,2.1197166,-0.44480902,0.0020795427,-0.021403851,-0.8953673,-7.0395164,7.673862,0.7654057,1.1814568,-0.686512,-0.020410664,1
1.6400000000000012,9.234310615590905,0.2427834067660432,-0.7182788214683582,0.0769546217169024,9.678078,1.2820034,-0.6046144,-0.06231851,2.0415933,-2.0135028,2.1273675,-0.44497576,-0.0036192923,-0.025165465,-0.8951817,-7.037526,7.6778417,0.76475376,1.1814568,-0.686512,-0.020410664,0
1.6500000000000012,9.234310615590905,0.2427834067660432,-0.7182788214683582,0.0769546217169024,9.678078,1.2820034,-0.6046144,-0.06231851,1.9712322,-1.9367055,2.1349857,-0.4447141,-0.007384054,-0.024652485,-0.8953029,-7.034642,7.681557,0.7588768,0.24278341,-0.7182788,0.07695462,0
1.6600000000000013,9.234310615590905,0.2427834067660432,-0.7182788214683582,0.0769546217169024,9.678078,1.2820034,-0.6046144,-0.06231851,1.9009026,-1.859873,2.142545,-0.44444594,-0.011148709,-0.024139147,-0.8954111,-7.0311785,7.68488,0.7529949,0.24278341,-0.7182788,0.07695462,0
1.6700000000000013,9.234310615590905,0.2427834067660432,-0.7182788214683582,0.0769546217169024,9.678078,1.2820034,-0.6046144,-0.06231851,1.8306106,-1.7830092,2.1500456,-0.44417134,-0.014913201,-0.023625458,-0.89550626,-7.027137,7.6878095,0.7471027,0.24278341,-0.7182788,0.07695462,0
1.6800000000000013,9.131805375318818,-0.09401829560728187,-0.238581829506544,0.1020060446419343,9.354671,0.8425198,-0.59264576,0.0670951,1.7603619,-1.7061181,2.1574872,-0.4438903,-0.018677479,-0.023111425,-0.8955884,-7.0225153,7.6903462,0.7411949,0.24278341,-0.7182788,0.07695462,1
1.6900000000000013,9.131805375318818,-0.09401829560728187,-0.238581829506544,0.1020060446419343,9.354671,0.8425198,-0.59264576,0.0670951,1.690163,-1.629203,2.1648755,-0.44357374,-0.02320873,-0.025562247,-0.8955728,-7.017106,7.692681,0.73645544,0.8425198,-0.59264576,0.0670951,1
1.7000000000000013,9.131805375318818,-0.09401829560728187,-0.238581829506544,0.1020060446419343,9.354671,0.8425198,-0.59264576,0.0670951,1.6200231,-1.5522643,2.172216,-0.44324538,-0.02773936,-0.02801239,-0.8955332,-7.0107355,7.695051,0.73165447,0.8425198,-0.59264576,0.0670951,1
1.7100000000000013,9.131805375318818,-0.09401829560728187,-0.238581829506544,0.1020060446419343,9.354671,0.8425198,-0.59264576,0.0670951,1.5499518,-1.4753019,2.1795082,-0.4429052,-0.032269254,-0.030461784,-0.89546967,-7.003405,7.697458,0.726782,0.8425198,-0.59264576,0.0670951,1
1.7200000000000013,9.176114142201177,-0.24608355711904178,0.13092394636391846,0.11686185466814208,9.431954,0.95011765,-0.8639798,-0.010215737,1.4799584,-1.3983151,2.186751,-0.4425532,-0.036798287,-0.03291037,-0.8953823,-6.995115,7.699901,0.7218282,0.8425198,-0.59264576,0.0670951,0
1.7300000000000013,9.176114142201177,-0.24608355711904178,0.13092394636391846,0.11686185466814208,9.431954,0.95011765,-0.8639798,-0.010215737,1.4100505,-1.321304,2.1939352,-0.44205323,-0.035686813,-0.03207684,-0.8957044,-6.986489,7.702305,0.7150514,-0.24608356,0.13092394,0.11686186,0
1.7400000000000013,9.176114142201177,-0.24608355711904178,0.13092394636391846,0.11686185466814208,9.431954,0.95011765,-0.8639798,-0.010215737,1.3402277,-1.2442691,2.201052,-0.44155228,-0.03457526,-0.031243239,-0.8960245,-6.9781146,7.704667,0.70829904,-0.24608356,0.13092394,0.11686186,0
1.7500000000000013,9.176114142201177,-0.24608355711904178,0.13092394636391846,0.11686185466814208,9.431954,0.95011765,-0.8639798,-0.010215737,1.2704874,-1.1672108,2.2081013,-0.4410503,-0.03346363,-0.030409565,-0.8963426,-6.969992,7.7069874,0.70157045,-0.24608356,0.13092394,0.11686186,0
1.7600000000000013,9.296799270131299,-0.3495536133976971,1.2016190735662844,0.15105169973354227,9.241775,0.40820408,-0.62535214,0.14940572,1.200827,-1.0901296,2.2150836,-0.44054735,-0.032351922,-0.029575821,-0.8966586,-6.9621196,7.709265,0.69486487,-0.24608356,0.13092394,0.11686186,0
1.7700000000000014,9.296799270131299,-0.3495536133976971,1.2016190735662844,0.15105169973354227,9.241775,0.40820408,-0.62535214,0.14940572,1.131244,-1.0130248,2.222005,-0.43974027,-0.02621647,-0.030630494,-0.8972196,-6.954655,7.7118034,0.68939734,-0.3495536,1.201619,0.1510517,0
1.7800000000000014,9.296799270131299,-0.3495536133976971,1.2016190735662844,0.15105169973354227,9.241775,0.40820408,-0.62535214,0.14940572,1.0617307,-0.9358912,2.2288718,-0.4389157,-0.02007998,-0.031683948,-0.89774495,-6.9481297,7.7150264,0.68397945,-0.3495536,1.201619,0.1510517,0
1.7900000000000014,9.296799270131299,-0.3495536133976971,1.2016190735662844,0.15105169973354227,9.241775,0.40820408,-0.62535214,0.14940572,0.99227816,-0.8587219,2.2356849,-0.4380737,-0.01394269,-0.03273614,-0.89823467,-6.9425454,7.7189326,0.6785968,-0.3495536,1.201619,0.1510517,0
1.8000000000000014,9.471642328142398,-0.19812720307795037,0.6781673673856343,0.14987426388973785,9.276991,0.3617121,-0.51479006,0.13630977,0.9228767,-0.7815101,2.242444,-0.4372143,-0.0078048473,-0.03378704,-0.8986887,-6.9379044,7.723519,0.6732349,-0.3495536,1.201619,0.1510517,0
1.8100000000000014,9.471642328142398,-0.19812720307795037,0.6781673673856343,0.14987426388973785,9.276991,0.3617121,-0.51479006,0.13630977,0.8535177,-0.7042489,2.2491584,-0.4364312,-0.004349696,-0.03437322,-0.8990704,-6.9339814,7.7287707,0.66962403,-0.19812721,0.67816734,0.14987427,0
1.8200000000000014,9.471642328142398,-0.19812720307795037,0.6781673673856343,0.14987426388973785,9.276991,0.3617121,-0.51479006,0.13630977,0.78419524,-0.62693334,2.2558365,-0.4356424,-0.00089448807,-0.03495895,-0.89944035,-6.9306035,7.7344112,0.6660118,-0.19812721,0.67816734,0.14987427,0
1.8300000000000014,9.471642328142398,-0.19812720307795037,0.6781673673856343,0.14987426388973785,9.276991,0.3617121,-0.51479006,0.13630977,0.7149037,-0.54955935,2.2624784,-0.43484786,0.0025607315,-0.035544228,-0.8997986,-6.927771,7.740439,0.66239357,-0.19812721,0.67816734,0.14987427,0
1.8400000000000014,9.471642328142398,-0.19812720307795037,0.6781673673856343,0.14987426388973785,9.384731,0.51817894,-0.21616372,0.2249561,0.64563787,-0.4721232,2.269084,-0.4340477,0.0060159173,-0.03612904,-0.9001451,-6.9254847,7.7468534,0.65876466,-0.19812721,0.67816734,0.14987427,1
1.8500000000000014,9.471642328142398,-0.19812720307795037,0.6781673673856343,0.14987426388973785,9.384731,0.51817894,-0.21616372,0.2249561,0.5763932,-0.39462155,2.275649,-0.4330879,0.0038777902,-0.03799869,-0.9005421,-6.923368,7.7535014,0.6542522,0.51817894,-0.21616372,0.2249561,1
1.8600000000000014,9.471642328142398,-0.19812720307795037,0.6781673673856343,0.14987426388973785,9.384731,0.51817894,-0.21616372,0.2249561,0.5071722,-0.31705266,2.282169,-0.4321241,0.0017396274,-0.039867997,-0.9009308,-6.920745,7.7602944,0.64971644,0.51817894,-0.21616372,0.2249561,1
1.8700000000000014,9.471642328142398,-0.19812720307795037,0.6781673673856343,0.14987426388973785,9.384731,0.51817894,-0.21616372,0.2249561,0.43798006,-0.23941512,2.2886436,-0.4311564,-0.00039855082,-0.041736938,-0.90131134,-6.917616,7.7672324,0.64515454,0.51817894,-0.21616372,0.2249561,1
1.8800000000000014,9.703464135689815,-0.1662614575848801,1.4412926928682834,0.1716651159595072,9.425412,0.6852421,-0.12225807,0.21644929,0.36882165,-0.1617075,2.2950723,-0.43018472,-0.0025367257,-0.0436055,-0.90168357,-6.9139814,7.774316,0.6405634,0.51817894,-0.21616372,0.2249561,0
1.8900000000000015,9.703464135689815,-0.1662614575848801,1.4412926928682834,0.1716651159595072,9.425412,0.6852421,-0.12225807,0.21644929,0.29970115,-0.083926186,2.3014708,-0.42908716,0.0042814184,-0.04595267,-0.9020833,-6.9102755,7.782103,0.63911325,-0.16626146,1.4412926,0.17166512,0
1.9000000000000015,9.703464135689815,-0.1662614575848801,1.4412926928682834,0.1716651159595072,9.425412,0.6852421,-0.12225807,0.21644929,0.23061267,-0.006062072,2.3078547,-0.4279667,0.011099335,-0.048297394,-0.9024348,-6.907577,7.790872,0.6376124,-0.16626146,1.4412926,0.17166512,0
1.9100000000000015,9.703464135689815,-0.1662614575848801,1.4412926928682834,0.1716651159595072,9.425412,0.6852421,-0.12225807,0.21644929,0.16154613,0.071894616,2.314223,-0.42682344,0.017916657,-0.05063954,-0.9027382,-6.905889,7.8006186,0.63604075,-0.16626146,1.4412926,0.17166512,0
1.9200000000000015,9.986335743879902,-0.28362975687880876,1.462480172241155,0.18517759531697603,9.493995,0.16240835,0.014613032,0.18324614,0.0924914,0.14995365,2.3205752,-0.4256574,0.024733026,-0.05297898,-0.90299344,-6.905213,7.811339,0.63437814,-0.16626146,1.4412926,0.17166512,0
1.9300000000000015,9.986335743879902,-0.28362975687880876,1.462480172241155,0.18517759531697603,9.493995,0.16240835,0.014613032,0.18324614,0.023438225,0.22812636,2.3269243,-0.42438686,0.031889908,-0.05483237,-0.9032564,-6.9056,7.8233485,0.6354151,-0.28362975,1.4624802,0.1851776,0
1.9400000000000015,9.986335743879902,-0.28362975687880876,1.462480172241155,0.18517759531697603,9.493995,0.16240835,0.014613032,0.18324614,-0.04562456,0.30642384,2.3332832,-0.4230924,0.03904499,-0.056682665,-0.90346843,-6.907137,7.836293,0.636323,-0.28362975,1.4624802,0.1851776,0
1.9500000000000015,9.986335743879902,-0.28362975687880876,1.462480172241155,0.18517759531697603,9.493995,0.16240835,0.014613032,0.18324614,-0.11470847,0.38485545,2.33965,-0.42177412,0.046197876,-0.058529772,-0.9036296,-6.9098244,7.8501687,0.6370802,-0.28362975,1.4624802,0.1851776,0
1.9600000000000015,10.219745671935645,-0.2262084266509422,1.1276492741068496,0.20606184335633146,9.9122505,0.4551719,-0.11369261,0.10280824,-0.18382503,0.4634304,2.3460238,-0.4204321,0.053348158,-0.06037358,-0.9037398,-6.9136634,7.86497,0.63766503,-0.28362975,1.4624802,0.1851776,0
1.9700000000000015,10.219745671935645,-0.2262084266509422,1.1276492741068496,0.20606184335633146,9.9122505,0.4551719,-0.11369261,0.10280824,-0.252986,0.54215956,2.352414,-0.419093,0.058856048,-0.061775837,-0.903925,-6.9186735,7.8809767,0.64037627,-0.22620843,1.1276493,0.20606184,0
1.9800000000000015,10.219745671935645,-0.2262084266509422,1.1276492741068496,0.20606184335633146,9.9122505,0.4551719,-0.11369261,0.10280824,-0.32220167,0.6210523,2.3588305,-0.41773963,0.06436193,-0.063175984,-0.9040794,-6.9245996,7.8977,0.6429213,-0.22620843,1.1276493,0.20606184,0
1.9900000000000015,10.219745671935645,-0.2262084266509422,1.1276492741068496,0.20606184335633146,9.9122505,0.4551719,-0.11369261,0.10280824,-0.39148116,0.700116,2.3652716,-0.41637206,0.06986562,-0.06457397,-0.90420294,-6.9314427,7.915136,0.64528704,-0.22620843,1.1276493,0.20606184,0
2.0000000000000013,,,,,10.130762,0.48819193,-0.13512659,0.13853016,-0.46083367,0.7793575,2.3717353,-0.41499025,0.07536693,-0.065969765,-0.9042956,-6.9392033,7.933281,0.64746034,-0.22620843,1.1276493,0.20606184,1
2.010000000000001,,,,,10.130762,0.48819193,-0.13512659,0.13853016,-0.53026646,0.8587827,2.378216,-0.414591,0.07369703,-0.0679487,-0.90446985,-6.9472914,7.9517875,0.6486343,0.48819193,-0.13512659,0.13853016,1
2.020000000000001,,,,,10.130762,0.48819193,-0.13512659,0.13853016,-0.5997779,0.93839407,2.3847082,-0.41418892,0.072026625,-0.06992718,-0.9046378,-6.954915,7.9705124,0.64980394,0.48819193,-0.13512659,0.13853016,1
2.0300000000000007,,,,,10.130762,0.48819193,-0.13512659,0.13853016,-0.6693632,1.0181937,2.3912117,-0.41378397,0.07035573,-0.071905166,-0.9047996,-6.9620743,7.989456,0.6509666,0.48819193,-0.13512659,0.13853016,1
2.0400000000000005,,,,,10.130762,0.48819193,-0.13512659,0.13853016,-0.7390178,1.0981839,2.3977268,-0.41337615,0.068684354,-0.07388266,-0.9049551,-6.96877,8.008619,0.65211964,0.48819193,-0.13512659,0.13853016,1
2.0500000000000003,,,,,10.666997,0.54159915,-0.31380907,0.0069538653,-0.80873704,1.1783668,2.4042532,-0.41296548,0.067012504,-0.07585964,-0.90510434,-6.975002,8.028001,0.6532604,0.48819193,-0.13512659,0.13853016,1
2.06,,,,,10.666997,0.54159915,-0.31380907,0.0069538653,-0.8785176,1.2587496,2.4108179,-0.4132325,0.06447108,-0.07766466,-0.905014,-6.981012,8.048601,0.6596495,0.54159915,-0.31380907,0.0069538653,1
2.07,,,,,10.666997,0.54159915,-0.31380907,0.0069538653,-0.948355,1.3393393,2.4174464,-0.41349548,0.061929025,-0.079468906,-0.90491474,-6.9863677,8.069327,0.6660491,0.54159915,-0.31380907,0.0069538653,1
2.0799999999999996,,,,,10.666997,0.54159915,-0.31380907,0.0069538653,-1.0182427,1.4201368,2.4241388,-0.4137544,0.059386365,-0.08127238,-0.9048067,-6.9910674,8.090179,0.6724554,0.54159915,-0.31380907,0.0069538653,1
2.0899999999999994,,,,,11.019071,0.4151521,0.07132733,-0.06096319,-1.0881742,1.5011433,2.4308953,-0.41400927,0.056843124,-0.083075054,-0.9046897,-6.995111,8.111156,0.67886406,0.54159915,-0.31380907,0.0069538653,1
2.099999999999999,,,,,11.019071,0.4151521,0.07132733,-0.06096319,-1.1581438,1.582364,2.4377332,-0.4143725,0.05633158,-0.08508311,-0.90436876,-6.9987535,8.133039,0.68869877,0.4151521,0.07132733,-0.06096319,1
2.109999999999999,,,,,11.019071,0.4151521,0.07132733,-0.06096319,-1.2281483,1.6638052,2.444669,-0.41473383,0.05581978,-0.08709078,-0.9040437,-7.0021,8.155273,0.69847107,0.4151521,0.07132733,-0.06096319,1
2.1199999999999988,,,,,11.019071,0.4151521,0.07132733,-0.06096319,-1.2981848,1.7454706,2.4517024,-0.41509324,0.055307727,-0.08909806,-0.90371454,-7.0051503,8.177858,0.7081792,0.4151521,0.07132733,-0.06096319,1
2.1299999999999986,,,,,11.359697,0.22510809,-0.29112503,-0.2185816,-1.3682501,1.8273637,2.4588323,-0.41545075,0.054795425,-0.09110493,-0.9033813,-7.0079036,8.200794,0.71782124,0.4151521,0.07132733,-0.06096319,1
2.1399999999999983,,,,,11.359697,0.22510809,-0.29112503,-0.2185816,-1.438342,1.9094911,2.4660754,-0.4166314,0.05311228,-0.09145688,-0.9029024,-7.0103974,8.224634,0.7307604,0.22510809,-0.29112503,-0.2185816,1
