time-since-start [s],throttle_mpc,roll_mpc,pitch_mpc,yaw_mpc,throttle_nw,roll_nw,pitch_nw,yaw_nw,position_x [m],position_y [m],position_z [m],rotation_w [quaternion],rotation_x [quaternion],rotation_y [quaternion],rotation_z [quaternion],velocity_x [m/s],velocity_y [m/s],velocity_z [m/s],omega_x [rad/s],omega_y [rad/s],omega_z [rad/s],network_used
0.0,11.217314572361682,5.999999837019976,-5.999999956136244,-4.436355866633757,11.497429,-1.3230872,-4.0896163,-1.1346389,20.626408,-8.230616,2.044788,-0.13812575,-0.46158785,0.18039548,0.8575053,-10.338477,-7.58793,0.1962376,2.1898634,0.009198047,-0.62177753,0
0.01,11.217314572361682,5.999999837019976,-5.999999956136244,-4.436355866633757,12.814464,-4.546447,-5.461103,0.14943704,20.522308,-8.306336,2.0466914,-0.12997541,-0.46299756,0.1882668,0.8563266,-10.481424,-7.5557814,0.18397011,2.183696,-0.3279286,-0.75528467,0
0.02,11.217314572361682,5.999999837019976,-5.999999956136244,-4.436355866633757,12.814464,-4.546447,-5.461103,0.14943704,20.41679,-8.381721,2.0484579,-0.120912895,-0.46307755,0.19606397,0.85586107,-10.62178,-7.520747,0.16893049,2.2096567,-0.6437033,-0.8850305,0
0.03,11.217314572361682,5.999999837019976,-5.999999956136244,-4.436355866633757,12.814464,-4.546447,-5.461103,0.14943704,20.309883,-8.45674,2.050062,-0.110892,-0.46192464,0.20389065,0.85601234,-10.759197,-7.4827213,0.15152788,2.2625654,-0.94128567,-1.0111841,0
0.04,11.217314572361682,5.999999837019976,-5.999999956136244,-4.436355866633757,7.5101204,-2.9457467,-5.626652,1.3518919,20.201618,-8.531364,2.0514817,-0.099874996,-0.45961305,0.21183072,0.85668457,-10.893351,-7.4415917,0.13211402,2.3380148,-1.2233074,-1.133903,0
0.05,11.217314572361682,5.999999837019976,-5.999999956136244,-4.436355866633757,7.5101204,-2.9457467,-5.626652,1.3518919,20.092028,-8.605561,2.0526984,-0.08783193,-0.45619825,0.21995081,0.8577821,-11.023937,-7.3972487,0.11099032,2.4322546,-1.4919573,-1.2533344,0
0.060000000000000005,11.217314572361682,5.999999837019976,-5.999999956136244,-4.436355866633757,7.5101204,-2.9457467,-5.626652,1.3518919,19.981152,-8.679298,2.0536964,-0.07474008,-0.4517199,0.22830263,0.8592094,-11.15066,-7.3495927,0.08841423,2.542089,-1.7490542,-1.3696154,0
0.07,11.217314572361682,5.999999837019976,-5.999999956136244,-4.436355866633757,7.5101204,-2.9457467,-5.626652,1.3518919,19.86903,-8.752542,2.0544622,-0.060583487,-0.44620457,0.2369246,0.8608703,-11.273228,-7.29854,0.064604476,2.6647956,-1.996107,-1.4828748,0
0.08,14.532915620302282,5.999999939092787,-5.999999989627567,-3.921902563887403,12.716786,-2.146956,-7.5900183,-0.2059466,19.755703,-8.825256,2.0549848,-0.045352545,-0.4396679,0.24584343,0.86266804,-11.391348,-7.244028,0.039745737,2.7980533,-2.2343667,-1.5932325,0
0.09,14.532915620302282,5.999999939092787,-5.999999989627567,-3.921902563887403,12.716786,-2.146956,-7.5900183,-0.2059466,19.64115,-8.897374,2.055298,-0.028786687,-0.43176937,0.25545496,0.8645745,-11.518395,-7.178984,0.02273455,3.1010835,-2.626384,-1.6899709,0
0.09999999999999999,14.532915620302282,5.999999939092787,-5.999999989627567,-3.921902563887403,12.716786,-2.146956,-7.5900183,-0.2059466,19.525356,-8.9688225,2.0554354,-0.010658846,-0.42217982,0.26608354,0.86651593,-11.6390915,-7.11006,0.0045733494,3.39658,-2.9970396,-1.785516,0
0.10999999999999999,14.532915620302282,5.999999939092787,-5.999999989627567,-3.921902563887403,12.716786,-2.146956,-7.5900183,-0.2059466,19.408388,-9.039561,2.0553863,0.008981811,-0.41091853,0.27763677,0.86832184,-11.752977,-7.0370684,-0.014545021,3.684467,-3.3484094,-1.8798145,0
0.11999999999999998,14.532915620302282,5.999999939092787,-5.999999989627567,-3.921902563887403,12.716786,-2.146956,-7.5900183,-0.2059466,19.29032,-9.1095495,2.055142,0.030081175,-0.3979967,0.29001865,0.86981755,-11.859585,-6.9599247,-0.034480043,3.964749,-3.682314,-1.9728216,0
0.12999999999999998,19.258241283558903,5.9999999653037435,-5.999999997487627,-3.311942601769696,13.478517,0.6734632,-7.467348,0.7070108,19.171225,-9.178745,2.0546944,0.052579217,-0.3834203,0.30312943,0.87082523,-11.958436,-6.8786507,-0.05514025,4.237492,-4.0003533,-2.0645003,0
0.13999999999999999,19.258241283558903,5.9999999653037435,-5.999999997487627,-3.311942601769696,13.478517,0.6734632,-7.467348,0.7070108,19.051037,-9.246976,2.054157,0.07637198,-0.3671351,0.3169231,0.8711708,-12.077763,-6.7663217,-0.05214256,4.5117636,-4.312745,-2.1257126,0
0.15,19.258241283558903,5.9999999653037435,-5.999999997487627,-3.311942601769696,13.478517,0.6734632,-7.467348,0.7070108,18.9297,-9.314045,2.0536566,0.10125976,-0.3491992,0.33125296,0.8706765,-12.188082,-6.6463246,-0.047741685,4.743316,-4.576371,-2.1839213,0
0.16,20.99999988049708,5.9999998992900245,-5.999999957275269,-2.698433304730456,14.062811,0.6274613,-7.433894,0.04958042,18.80731,-9.379876,2.0532067,0.12704575,-0.3297745,0.34588993,0.8691766,-12.288328,-6.518874,-0.042005617,4.9388065,-4.7988415,-2.239274,0
0.17,20.99999988049708,5.9999998992900245,-5.999999957275269,-2.698433304730456,14.062811,0.6274613,-7.433894,0.04958042,18.683931,-9.444338,2.052868,0.15348412,-0.30898246,0.36066186,0.8665421,-12.385564,-6.372215,-0.025565412,5.1039524,-4.986477,-2.261805,0
0.18000000000000002,20.99999988049708,5.9999998992900245,-5.999999957275269,-2.698433304730456,14.062811,0.6274613,-7.433894,0.04958042,18.559645,-9.507297,2.052699,0.18034843,-0.2869341,0.37542132,0.8626713,-12.469708,-6.218504,-0.008016265,5.243386,-5.1448135,-2.2832305,0
0.19000000000000003,20.99999988049708,5.9999998992900245,-5.999999957275269,-2.698433304730456,14.062811,0.6274613,-7.433894,0.04958042,18.434584,-9.5686865,2.0527103,0.20749334,-0.2637577,0.3900181,0.8574754,-12.539849,-6.058538,0.010383927,5.361111,-5.278425,-2.3036046,0
0.20000000000000004,21.0,4.903002829085213,-5.9999992086792,-1.1037217759300695,14.956261,0.79728854,-7.073254,0.012102451,18.308895,-9.62845,2.052909,0.2347847,-0.23957345,0.40432265,0.8508841,-12.595181,-5.8932557,0.029331889,5.460509,-5.3911724,-2.322979,0
0.21000000000000005,21.0,4.903002829085213,-5.9999992086792,-1.1037217759300695,14.956261,0.79728854,-7.073254,0.012102451,18.182732,-9.686538,2.053298,0.26183152,-0.21452408,0.41790083,0.8430791,-12.635049,-5.723739,0.04851127,5.3736367,-5.4857774,-2.2631497,0
0.22000000000000006,21.0,4.903002829085213,-5.9999992086792,-1.1037217759300695,14.956261,0.79728854,-7.073254,0.012102451,18.056248,-9.742915,2.0538793,0.28830862,-0.18874645,0.43042165,0.8342601,-12.659073,-5.5512786,0.06771371,5.3003297,-5.565665,-2.2062564,0
0.23000000000000007,21.0,4.903002829085213,-5.9999992086792,-1.1037217759300695,14.956261,0.79728854,-7.073254,0.012102451,17.929604,-9.797558,2.0546517,0.3141877,-0.16233808,0.44191992,0.82440215,-12.667048,-5.3772173,0.08674006,5.2384686,-5.633125,-2.1521547,0
0.24000000000000007,21.0,4.903002829085213,-5.9999992086792,-1.1037217759300695,15.418555,0.17452309,-5.406584,0.065062374,17.80296,-9.850458,2.0556126,0.3394388,-0.13538751,0.45242444,0.81348836,-12.658889,-5.2028875,0.105353676,5.1862636,-5.6900916,-2.100708,0
0.25000000000000006,21.0,4.903002829085213,-5.9999992086792,-1.1037217759300695,15.418555,0.17452309,-5.406584,0.065062374,17.67648,-9.901619,2.0567565,0.36403129,-0.10797602,0.46195856,0.8015088,-12.63462,-5.029605,0.12328695,5.1422067,-5.738197,-2.0517857,0
0.26000000000000006,21.0,4.903002829085213,-5.9999992086792,-1.1037217759300695,15.418555,0.17452309,-5.406584,0.065062374,17.550322,-9.951057,2.0580752,0.38793418,-0.08017894,0.47054148,0.7884597,-12.594379,-4.858662,0.14024754,5.1050243,-5.7788205,-2.0052638,0
0.2700000000000001,21.0,4.903002829085213,-5.9999992086792,-1.1037217759300695,15.418555,0.17452309,-5.406584,0.065062374,17.424648,-9.998803,2.0595572,0.4111167,-0.052066743,0.47818878,0.7743431,-12.538416,-4.691323,0.15592399,5.0736423,-5.8131256,-1.9610248,0
0.2800000000000001,20.99999999698697,3.382933256061047,-4.145269664540978,-0.23575223303064177,15.761283,-0.14583209,-3.243167,0.26684067,17.29961,-10.0449,2.061188,0.43354866,-0.02370591,0.4849132,0.7591655,-12.46708,-4.528814,0.16999096,5.0471544,-5.8420963,-1.9189566,0
0.2900000000000001,20.99999999698697,3.382933256061047,-4.145269664540978,-0.23575223303064177,15.761283,-0.14583209,-3.243167,0.26684067,17.175358,-10.0894,2.0629501,0.45476037,0.0040645357,0.49060884,0.74328923,-12.380906,-4.37228,0.18212453,4.788252,-5.5768948,-1.8363612,0
0.3000000000000001,20.99999999698697,3.382933256061047,-4.145269664540978,-0.23575223303064177,15.761283,-0.14583209,-3.243167,0.26684067,17.052038,-10.132368,2.064823,0.47442532,0.030579517,0.49526593,0.7271153,-12.28095,-4.22256,0.19207194,4.5696354,-5.353138,-1.7578188,0
0.3100000000000001,20.99999999698697,3.382933256061047,-4.145269664540978,-0.23575223303064177,15.761283,-0.14583209,-3.243167,0.26684067,16.929785,-10.173877,2.0667834,0.49270758,0.056019228,0.49901482,0.7106932,-12.168358,-4.0802875,0.19963679,4.385038,-5.164346,-1.6831306,0
0.3200000000000001,20.99999984464768,1.5254326704363488,-1.6007644684493902,0.31181937939045967,15.045193,-0.669193,-0.96881294,0.63250023,16.808712,-10.214002,2.068807,0.5097441,0.08053738,0.5019582,0.69405484,-12.044188,-3.945998,0.20465194,4.229167,-5.0050545,-1.6121073,0
0.3300000000000001,20.99999984464768,1.5254326704363488,-1.6007644684493902,0.31181937939045967,15.045193,-0.669193,-0.96881294,0.63250023,16.688934,-10.252825,2.070867,0.5251697,0.10321658,0.50419813,0.6777365,-11.909501,-3.8200684,0.20698899,3.808356,-4.4734797,-1.5176997,0
0.34000000000000014,20.99999984464768,1.5254326704363488,-1.6007644684493902,0.31181937939045967,15.045193,-0.669193,-0.96881294,0.63250023,16.57055,-10.290431,2.0729373,0.5387639,0.12335939,0.505894,0.66225874,-11.765735,-3.702328,0.20664927,3.4530153,-4.0249267,-1.4279246,0
0.35000000000000014,20.99999984464768,1.5254326704363488,-1.6007644684493902,0.31181937939045967,15.045193,-0.669193,-0.96881294,0.63250023,16.453648,-10.326898,2.074991,0.55081743,0.14138359,0.5071799,0.6475947,-11.61424,-3.5923939,0.2037039,3.1529658,-3.6464243,-1.3425549,0
0.36000000000000015,20.999998890211902,-0.46835621175036174,0.9156490490146522,1.3488196380840638,15.793644,-2.1761413,1.9616373,0.7620869,16.338293,-10.362303,2.0770025,0.5615668,0.15764253,0.5081519,0.63369757,-11.456124,-3.4898741,0.19824243,2.899609,-3.3270292,-1.2613744,0
0.37000000000000016,20.999998890211902,-0.46835621175036174,0.9156490490146522,1.3488196380840638,15.793644,-2.1761413,1.9616373,0.7620869,16.224548,-10.396718,2.0789475,0.57075197,0.17141768,0.5089341,0.62116313,-11.292372,-3.394296,0.19038758,2.3751462,-2.6647544,-1.1332912,0
0.38000000000000017,20.999998890211902,-0.46835621175036174,0.9156490490146522,1.3488196380840638,15.793644,-2.1761413,1.9616373,0.7620869,16.112463,-10.430209,2.080803,0.5782084,0.1821804,0.509666,0.61051226,-11.124161,-3.304662,0.18041913,1.9322858,-2.1059103,-1.0114933,0
0.3900000000000002,20.999998890211902,-0.46835621175036174,0.9156490490146522,1.3488196380840638,15.793644,-2.1761413,1.9616373,0.7620869,16.002077,-10.462829,2.0825496,0.5842278,0.19045588,0.5104118,0.60156757,-10.952536,-3.2198746,0.16865309,1.5583429,-1.6343343,-0.8956721,0
0.4000000000000002,20.99999889604687,-2.883655322740827,3.7614499071447067,1.6482818135379134,18.312044,-3.392506,3.4436932,0.30504647,15.89342,-10.49462,2.0841708,0.58903986,0.19668105,0.5112047,0.5941528,-10.778304,-3.1389573,0.15537345,1.2426028,-1.2363912,-0.78553426,0
0.4100000000000002,20.99999889604687,-2.883655322740827,3.7614499071447067,1.6482818135379134,18.312044,-3.392506,3.4436932,0.30504647,15.786516,-10.525618,2.0856528,0.59241784,0.19999434,0.51215506,0.5888462,-10.602166,-3.0609374,0.14086597,0.59955287,-0.45660228,-0.6661062,0
0.4200000000000002,20.99999889604687,-2.883655322740827,3.7614499071447067,1.6482818135379134,18.312044,-3.392506,3.4436932,0.30504647,15.681379,-10.555843,2.0869856,0.59418905,0.19973499,0.51335514,0.5860982,-10.425061,-2.9842954,0.12558761,0.05662185,0.20144258,-0.5525386,0
0.4300000000000002,20.99999889604687,-2.883655322740827,3.7614499071447067,1.6482818135379134,18.312044,-3.392506,3.4436932,0.30504647,15.578015,-10.585303,2.0881639,0.5945736,0.19649933,0.51477236,0.58555865,-10.247876,-2.9074943,0.10999253,-0.4017639,0.7567622,-0.44454366,0
0.4400000000000002,20.99999889604687,-2.883655322740827,3.7614499071447067,1.6482818135379134,19.118769,-4.9348936,4.5377493,0.3090951,15.47642,-10.613988,2.089186,0.5937345,0.19078037,0.51635677,0.5869048,-10.071357,-2.829231,0.09444916,-0.7887579,1.2254022,-0.34184813,0
0.45000000000000023,20.99999889604687,-2.883655322740827,3.7614499071447067,1.6482818135379134,19.118769,-4.9348936,4.5377493,0.3090951,15.376584,-10.641879,2.090054,0.5917945,0.18298705,0.518051,0.5898454,-9.896157,-2.7484114,0.07924655,-1.1154697,1.6209003,-0.24419186,0
0.46000000000000024,20.99999889604687,-2.883655322740827,3.7614499071447067,1.6482818135379134,19.118769,-4.9348936,4.5377493,0.3090951,15.278491,-10.668945,2.0907726,0.58884805,0.17346007,0.5197971,0.5941212,-9.722865,-2.6641297,0.06460273,-1.3912815,1.9546783,-0.15132762,0
0.47000000000000025,20.99999889604687,-2.883655322740827,3.7614499071447067,1.6482818135379134,19.118769,-4.9348936,4.5377493,0.3090951,15.182118,-10.695147,2.0913484,0.5849698,0.1624843,0.52153987,0.59950376,-9.552033,-2.5756462,0.05067363,-1.6241164,2.2363737,-0.063020274,0
0.48000000000000026,20.99999941325472,-4.60913179688405,5.005271314629962,1.5920590767060816,19.030954,-4.6126842,4.7136893,0.17935619,15.08744,-10.720442,2.091789,0.5802204,0.15029898,0.52322906,0.60579306,-9.384184,-2.482369,0.037561823,-1.8206656,2.474117,0.020953793,0
0.49000000000000027,20.99999941325472,-4.60913179688405,5.005271314629962,1.5920590767060816,19.030954,-4.6126842,4.7136893,0.17935619,14.994422,-10.744777,2.0921028,0.5744894,0.13639855,0.5246847,0.6132395,-9.219869,-2.3837829,0.025356472,-2.2556736,2.868731,0.09804838,0
0.5000000000000002,20.99999941325472,-4.60913179688405,5.005271314629962,1.5920590767060816,19.030954,-4.6126842,4.7136893,0.17935619,14.903027,-10.768096,2.0923002,0.56765795,0.12038765,0.52573043,0.6219954,-9.05992,-2.2791967,0.014279353,-2.6228676,3.2017753,0.17135993,0
0.5100000000000002,20.99999941325472,-4.60913179688405,5.005271314629962,1.5920590767060816,19.030954,-4.6126842,4.7136893,0.17935619,14.813205,-10.790338,2.0923932,0.5597597,0.102601856,0.5263273,0.6317603,-8.905245,-2.168003,0.004525859,-2.9328134,3.4828627,0.24107404,0
0.5200000000000002,20.999999771975308,-5.438212398970063,5.219179805124619,1.3794813292011876,19.896612,-4.629614,4.7019553,-0.23907426,14.7249,-10.811432,2.0923955,0.5508226,0.083327256,0.5264396,0.6422708,-8.756726,-2.049787,-0.003799558,-3.194432,3.7201035,0.30736727,0
0.5300000000000002,20.999999771975308,-5.438212398970063,5.219179805124619,1.3794813292011876,19.896612,-4.629614,4.7019553,-0.23907426,14.638046,-10.831307,2.092322,0.54086727,0.06255809,0.5258685,0.6534607,-8.615243,-1.9242983,-0.0106513435,-3.5445302,3.9536927,0.3599762,0
0.5400000000000003,20.999999771975308,-5.438212398970063,5.219179805124619,1.3794813292011876,19.896612,-4.629614,4.7019553,-0.23907426,14.5525675,-10.849892,2.0921881,0.5298985,0.04030687,0.52443886,0.66524136,-8.481781,-1.7913895,-0.015945308,-3.84003,4.1508503,0.4100036,0
0.5500000000000003,20.999999771975308,-5.438212398970063,5.219179805124619,1.3794813292011876,19.896612,-4.629614,4.7019553,-0.23907426,14.468379,-10.867109,2.0920088,0.51792234,0.016828042,0.5221556,0.677367,-8.357332,-1.6510669,-0.019650005,-4.0894437,4.3172626,0.45757613,0
0.5600000000000003,20.999999789682363,-5.419081920072744,4.458534953738401,1.041695072617108,21.366676,-4.535535,3.951383,0.8922307,14.385386,-10.882888,2.0918002,0.5049495,-0.007656963,0.5190245,0.68962324,-8.242836,-1.5035013,-0.021820799,-4.2999563,4.457727,0.5028143,1
0.5700000000000003,20.999999789682363,-5.419081920072744,4.458534953738401,1.041695072617108,21.366676,-4.535535,3.951383,0.8922307,14.303494,-10.897143,2.0915856,0.49131218,-0.032453142,0.5150563,0.7016234,-8.137316,-1.3463473,-0.020885289,-4.3367233,4.3786964,0.52192307,1
0.5800000000000003,20.999999789682363,-5.419081920072744,4.458534953738401,1.041695072617108,21.366676,-4.535535,3.951383,0.8922307,14.222601,-10.909794,2.0913868,0.47732145,-0.05699858,0.51030123,0.7130969,-8.043265,-1.1828393,-0.018688342,-4.3677564,4.3119946,0.54009414,1
0.5900000000000003,20.999999789682363,-5.419081920072744,4.458534953738401,1.041695072617108,21.366676,-4.535535,3.951383,0.8922307,14.142588,-10.92078,2.0912156,0.462963,-0.08129426,0.5048186,0.72402614,-7.9610224,-1.0137217,-0.015420765,-4.3939495,4.2556987,0.5573735,1
0.6000000000000003,20.999999762010372,-4.716606979996565,3.3153270595541784,0.7129610177814497,21.83902,-4.5180645,3.2852716,0.36219844,14.063337,-10.930052,2.0910816,0.44822794,-0.10533919,0.4986595,0.7343931,-7.890882,-0.8397399,-0.011291647,-4.4160576,4.208185,0.5738051,1
0.6100000000000003,20.999999762010372,-4.716606979996565,3.3153270595541784,0.7129610177814497,21.83902,-4.5180645,3.2852716,0.36219844,13.984732,-10.937549,2.0910003,0.4332949,-0.12896384,0.4917499,0.7441808,-7.8321548,-0.65881264,-0.0048683817,-4.4318843,4.0642815,0.5634215,1
0.6200000000000003,20.999999762010372,-4.716606979996565,3.3153270595541784,0.7129610177814497,21.83902,-4.5180645,3.2852716,0.36219844,13.906651,-10.943218,2.090986,0.4183204,-0.15203506,0.48404396,0.75338835,-7.78606,-0.47455987,0.0020803683,-4.4452543,3.9428194,0.5535474,1
0.6300000000000003,20.999999762010372,-4.716606979996565,3.3153270595541784,0.7129610177814497,21.83902,-4.5180645,3.2852716,0.36219844,13.828968,-10.947032,2.0910432,0.40327072,-0.17459929,0.47561932,0.76201916,-7.7526307,-0.2878178,0.009428283,-4.456548,3.8402982,0.5441578,1
0.6400000000000003,20.999999762010372,-4.716606979996565,3.3153270595541784,0.7129610177814497,22.124514,-4.2325373,2.4280214,0.5573856,13.751555,-10.948969,2.0911756,0.38811925,-0.19669476,0.4665416,0.7700731,-7.73187,-0.099387154,0.017028239,-4.466089,3.7537649,0.53522897,0
0.6500000000000004,20.999999762010372,-4.716606979996565,3.3153270595541784,0.7129610177814497,22.124514,-4.2325373,2.4280214,0.5573856,13.674286,-10.949048,2.0913668,0.37278956,-0.2183717,0.45681772,0.77759784,-7.724022,0.08378719,0.021269847,-4.5051546,3.6853516,0.5439503,0
0.6600000000000004,20.999999762010372,-4.716606979996565,3.3153270595541784,0.7129610177814497,22.124514,-4.2325373,2.4280214,0.5573856,13.597033,-10.947293,2.0916007,0.357213,-0.23966514,0.44645572,0.78462464,-7.7283955,0.26711404,0.025446052,-4.53813,3.6276102,0.5522437,0
0.6700000000000004,20.999999762010372,-4.716606979996565,3.3153270595541784,0.7129610177814497,22.124514,-4.2325373,2.4280214,0.5573856,13.519676,-10.943707,2.091875,0.34138292,-0.2605824,0.43550932,0.79112905,-7.7449536,0.44987243,0.029392704,-4.5659637,3.5788765,0.5601302,0
0.6800000000000004,20.999999587114242,-3.7150796755788282,2.073302354960073,0.36040482761252124,21.094687,-3.9445367,1.78811,0.123307794,13.442093,-10.9383,2.0921872,0.3252969,-0.28112805,0.4240252,0.79708886,-7.7736197,0.6313568,0.03292959,-4.5894594,3.5377452,0.56762964,1
0.6900000000000004,20.999999587114242,-3.7150796755788282,2.073302354960073,0.36040482761252124,21.094687,-3.9445367,1.78811,0.123307794,13.3641615,-10.931084,2.0925338,0.3093637,-0.30075157,0.4120799,0.8025159,-7.814404,0.81168437,0.036347248,-4.4887366,3.2649918,0.5458267,1
0.7000000000000004,20.999999587114242,-3.7150796755788282,2.073302354960073,0.36040482761252124,21.094687,-3.9445367,1.78811,0.123307794,13.285766,-10.922076,2.0929117,0.29393107,-0.31903479,0.3997645,0.8074706,-7.866645,0.9893695,0.03917797,-4.403746,3.0347629,0.52509356,1
0.7100000000000004,20.999999587114242,-3.7150796755788282,2.073302354960073,0.36040482761252124,21.094687,-3.9445367,1.78811,0.123307794,13.206793,-10.911308,2.0933151,0.2789156,-0.33615798,0.38713157,0.8119927,-7.9297338,1.1638197,0.041456237,-4.3320293,2.840428,0.5053779,1
0.7200000000000004,20.99999749025836,-2.2212949179986845,0.6706520087879709,0.007617102964391696,20.658022,-3.378692,1.5505354,-0.26147643,13.127136,-10.898813,2.0937388,0.26424608,-0.35227275,0.37422183,0.8161097,-8.003116,1.3345125,0.043198697,-4.2715135,2.676392,0.4866296,0
0.7300000000000004,20.99999749025836,-2.2212949179986845,0.6706520087879709,0.007617102964391696,20.658022,-3.378692,1.5505354,-0.26147643,13.046699,-10.884636,2.094175,0.25028896,-0.36697227,0.36151472,0.81975186,-8.085836,1.5002668,0.04396458,-3.9516473,2.3637602,0.46312433,0
0.7400000000000004,20.99999749025836,-2.2212949179986845,0.6706520087879709,0.007617102964391696,20.658022,-3.378692,1.5505354,-0.26147643,12.96539,-10.868822,2.0946167,0.23735063,-0.37996864,0.3494163,0.8229192,-8.177307,1.6616657,0.044234276,-3.6816895,2.0998561,0.44077244,0
0.7500000000000004,20.99999749025836,-2.2212949179986845,0.6706520087879709,0.007617102964391696,20.658022,-3.378692,1.5505354,-0.26147643,12.883126,-10.851417,2.0950584,0.22528952,-0.39153615,0.33785012,0.8257122,-8.276607,1.8186505,0.044059757,-3.4538517,1.877086,0.41951737,0
0.7600000000000005,19.55244053355469,-0.42436335460642655,-0.7341006331064646,-0.356235470343858,19.626915,-2.464473,0.16297267,-0.10704926,12.799833,-10.832463,2.0954964,0.21398206,-0.40190282,0.32674485,0.82820463,-8.3829565,1.9712001,0.043496326,-3.2615616,1.689039,0.3993053,0
0.7700000000000005,19.55244053355469,-0.42436335460642655,-0.7341006331064646,-0.356235470343858,19.626915,-2.464473,0.16297267,-0.10704926,12.715484,-10.812058,2.0958939,0.20383337,-0.4106599,0.3164982,0.8304449,-8.487854,2.109146,0.035914343,-2.8189716,1.3113356,0.36223072,0
0.7800000000000005,19.55244053355469,-0.42436335460642655,-0.7341006331064646,-0.356235470343858,19.626915,-2.464473,0.16297267,-0.10704926,12.630059,-10.790294,2.0962145,0.19517002,-0.41751435,0.30743447,0.8325106,-8.597677,2.2432957,0.02820174,-2.4454355,0.99249566,0.32697535,0
0.7900000000000005,19.55244053355469,-0.42436335460642655,-0.7341006331064646,-0.356235470343858,19.626915,-2.464473,0.16297267,-0.10704926,12.543516,-10.767204,2.096458,0.18778306,-0.4227904,0.29938754,0.83447725,-8.711513,2.374017,0.020550985,-2.130177,0.72334814,0.29345003,0
0.8000000000000005,17.83920889375994,1.2111527135989957,-1.873280852256612,-0.6314039120769988,18.713678,-1.8087745,-0.23332383,-0.3366079,12.455817,-10.742824,2.0966263,0.18149184,-0.42675477,0.2922097,0.83639336,-8.828612,2.501655,0.013140285,-1.8641024,0.49614975,0.2615698,0
0.8100000000000005,17.83920889375994,1.2111527135989957,-1.873280852256612,-0.6314039120769988,18.713678,-1.8087745,-0.23332383,-0.3366079,12.366987,-10.717235,2.0966823,0.17658241,-0.42913985,0.28622386,0.83829165,-8.937818,2.6156204,-0.0018382946,-1.384451,0.12676036,0.21775134,0
0.8200000000000005,17.83920889375994,1.2111527135989957,-1.873280852256612,-0.6314039120769988,18.713678,-1.8087745,-0.23332383,-0.3366079,12.277056,-10.690516,2.0965915,0.17327619,-0.42974967,0.2816805,0.8402059,-9.048602,2.72761,-0.016222626,-0.97962844,-0.18506032,0.17608306,0
0.8300000000000005,17.83920889375994,1.2111527135989957,-1.873280852256612,-0.6314039120769988,18.713678,-1.8087745,-0.23332383,-0.3366079,12.186012,-10.662686,2.0963607,0.17134036,-0.42887712,0.27835786,0.8421538,-9.160225,2.8381507,-0.029796882,-0.63795835,-0.44828126,0.13645944,0
0.8400000000000005,17.83920889375994,1.2111527135989957,-1.873280852256612,-0.6314039120769988,16.840479,-1.2586052,-1.0647011,-0.46267202,12.09385,-10.633757,2.0959992,0.17057559,-0.4267622,0.27606362,0.84413624,-9.272067,2.947699,-0.0423746,-0.3495869,-0.6704745,0.09878017,0
0.8500000000000005,17.83920889375994,1.2111527135989957,-1.873280852256612,-0.6314039120769988,16.840479,-1.2586052,-1.0647011,-0.46267202,12.000571,-10.603735,2.0955172,0.1708117,-0.42360258,0.274632,0.84614456,-9.383611,3.0566432,-0.053798094,-0.10619818,-0.8580332,0.06294983,0
0.8600000000000005,17.83920889375994,1.2111527135989957,-1.873280852256612,-0.6314039120769988,16.840479,-1.2586052,-1.0647011,-0.46267202,11.90618,-10.572625,2.0949273,0.17190367,-0.41956162,0.27392098,0.84816486,-9.494416,3.1653097,-0.06393671,0.09922595,-1.016354,0.028877683,0
0.8700000000000006,17.83920889375994,1.2111527135989957,-1.873280852256612,-0.6314039120769988,16.840479,-1.2586052,-1.0647011,-0.46267202,11.810687,-10.540429,2.0942433,0.17372808,-0.4147751,0.27380922,0.85018104,-9.60411,3.2739697,-0.072684385,0.27260876,-1.1499939,-0.0035225218,0
0.8800000000000006,16.909104461937442,2.288865082727607,-2.4933116372408435,-0.8158862591173193,16.12387,-0.8399687,-1.5276529,-0.9490399,11.714105,-10.507146,2.093479,0.17617995,-0.40935618,0.27419358,0.85217667,-9.712367,3.3828454,-0.07995705,0.4189487,-1.2627985,-0.034332853,0
0.8900000000000006,16.909104461937442,2.288865082727607,-2.4933116372408435,-0.8158862591173193,16.12387,-0.8399687,-1.5276529,-0.9490399,11.616475,-10.472799,2.0926254,0.1794329,-0.40311712,0.27530047,0.85411304,-9.813327,3.486443,-0.0905017,0.71052086,-1.4547203,-0.0726839,0
0.9000000000000006,16.909104461937442,2.288865082727607,-2.4933116372408435,-0.8158862591173193,16.12387,-0.8399687,-1.5276529,-0.9490399,11.517845,-10.437413,2.091674,0.1836176,-0.39590845,0.2773009,0.8559465,-9.91221,3.5907302,-0.099511206,0.9566168,-1.6167221,-0.109153055,0
0.9100000000000006,16.909104461937442,2.288865082727607,-2.4933116372408435,-0.8158862591173193,16.12387,-0.8399687,-1.5276529,-0.9490399,11.418239,-10.400981,2.0906408,0.18859322,-0.38786858,0.2800384,0.85765266,-10.008594,3.6959832,-0.106929466,1.1643312,-1.7534664,-0.14383265,0
0.9200000000000006,16.716646809802803,3.026549593297305,-2.7399823975527813,-1.0927738579910438,14.721899,-0.33523557,-1.637752,-1.1571488,11.317682,-10.363489,2.0895412,0.19423977,-0.37911344,0.28338,0.85920817,-10.102097,3.8024137,-0.11272387,1.3396508,-1.8688899,-0.17681052,0
0.9300000000000006,16.716646809802803,3.026549593297305,-2.7399823975527813,-1.0927738579910438,14.721899,-0.33523557,-1.637752,-1.1571488,11.216212,-10.324933,2.0883865,0.20062311,-0.36960694,0.28743365,0.86053586,-10.191342,3.9089682,-0.11795396,1.6026477,-2.004813,-0.2217571,0
0.9400000000000006,16.716646809802803,3.026549593297305,-2.7399823975527813,-1.0927738579910438,14.721899,-0.33523557,-1.637752,-1.1571488,11.113868,-10.285304,2.0871878,0.2077888,-0.3593217,0.2922742,0.8615605,-10.276984,4.0170665,-0.121590644,1.8246291,-2.1195445,-0.26449817,0
0.9500000000000006,16.716646809802803,3.026549593297305,-2.7399823975527813,-1.0927738579910438,14.721899,-0.33523557,-1.637752,-1.1571488,11.010687,-10.244586,2.0859604,0.2156144,-0.34835997,0.2977523,0.86226344,-10.358622,4.126884,-0.12367844,2.011993,-2.2163868,-0.30514187,0
0.9600000000000006,16.197121314025477,3.197711732969116,-2.725976907848927,-1.2168014726409446,14.447165,0.70583594,-2.113906,-1.0164142,10.906712,-10.20276,2.0847197,0.22399513,-0.33680883,0.3037411,0.8626275,-10.435894,4.2385316,-0.12427885,2.1701384,-2.2981272,-0.34379122,0
0.9700000000000006,16.197121314025477,3.197711732969116,-2.725976907848927,-1.2168014726409446,14.447165,0.70583594,-2.113906,-1.0164142,10.801996,-10.159825,2.0834641,0.23287542,-0.32473662,0.3101881,0.8626108,-10.50622,4.348543,-0.1265445,2.3303068,-2.3649507,-0.3866301,0
0.9800000000000006,16.197121314025477,3.197711732969116,-2.725976907848927,-1.2168014726409446,14.447165,0.70583594,-2.113906,-1.0164142,10.696604,-10.115782,2.0821927,0.24220563,-0.3122021,0.31704468,0.86217624,-10.571701,4.4604206,-0.12754649,2.4654999,-2.421352,-0.4273668,0
0.9900000000000007,16.197121314025477,3.197711732969116,-2.725976907848927,-1.2168014726409446,14.447165,0.70583594,-2.113906,-1.0164142,10.590581,-10.07061,2.080917,0.25191027,-0.2992619,0.32421654,0.86131644,-10.632061,4.574158,-0.1273997,2.5796123,-2.4689546,-0.4661046,0
1.0000000000000007,15.91531727921387,2.9070998701198785,-2.4762911633502944,-1.305620025705507,14.654875,0.71923923,-2.0635495,-1.2570931,10.483981,-10.024291,2.079648,0.26192412,-0.28596535,0.33162376,0.8600256,-10.687053,4.6897116,-0.12622645,2.6759324,-2.5091305,-0.5029415,0
1.0100000000000007,15.91531727921387,2.9070998701198785,-2.4762911633502944,-1.305620025705507,14.654875,0.71923923,-2.0635495,-1.2570931,10.376863,-9.976819,2.0783868,0.27213466,-0.27247652,0.33912283,0.8583086,-10.735607,4.804957,-0.12589906,2.71192,-2.5040905,-0.5423292,0
1.0200000000000007,15.91531727921387,2.9070998701198785,-2.4762911633502944,-1.305620025705507,14.654875,0.71923923,-2.0635495,-1.2570931,10.269286,-9.928186,2.0771325,0.28245267,-0.25893298,0.34659994,0.85617834,-10.778558,4.921778,-0.12482696,2.7422988,-2.499833,-0.57978415,0
1.0300000000000007,15.91531727921387,2.9070998701198785,-2.4762911633502944,-1.305620025705507,14.654875,0.71923923,-2.0635495,-1.2570931,10.161309,-9.878379,2.075892,0.2928569,-0.24533875,0.3540327,0.85364115,-10.815814,5.040027,-0.123146646,2.7679427,-2.4962358,-0.61540115,0
1.0400000000000007,15.91531727921387,2.9070998701198785,-2.4762911633502944,-1.305620025705507,13.88467,0.59615433,-1.9424533,-1.2209922,10.052989,-9.827382,2.0746708,0.303328,-0.23169813,0.36140203,0.8507028,-10.8473,5.159545,-0.12099141,2.7895904,-2.4931955,-0.64927036,0
1.0500000000000007,15.91531727921387,2.9070998701198785,-2.4762911633502944,-1.305620025705507,13.88467,0.59615433,-1.9424533,-1.2209922,9.944384,-9.775184,2.073473,0.31384835,-0.21801539,0.3686918,0.8473686,-10.872948,5.2801633,-0.11849155,2.807865,-2.4906263,-0.6814776,0
1.0600000000000007,15.91531727921387,2.9070998701198785,-2.4762911633502944,-1.305620025705507,13.88467,0.59615433,-1.9424533,-1.2209922,9.83555,-9.721775,2.0723014,0.32440162,-0.20429492,0.37588817,0.84364325,-10.892702,5.4017057,-0.1157745,2.823292,-2.488454,-0.71210444,0
1.0700000000000007,15.91531727921387,2.9070998701198785,-2.4762911633502944,-1.305620025705507,13.88467,0.59615433,-1.9424533,-1.2209922,9.726549,-9.667148,2.0711577,0.33497265,-0.19054112,0.38297927,0.8395315,-10.906516,5.52399,-0.11296502,2.8363154,-2.486617,-0.7412284,0
1.0800000000000007,15.790241857213202,2.2023109044764544,-2.026436684185288,-1.3392709208096503,13.813529,0.054755785,-1.9487679,-0.9807022,9.617441,-9.611294,2.0700421,0.3455474,-0.17675835,0.3899549,0.8350374,-10.914354,5.6468267,-0.11018524,2.84731,-2.4850633,-0.7689232,0
1.0900000000000007,15.790241857213202,2.2023109044764544,-2.026436684185288,-1.3392709208096503,13.813529,0.054755785,-1.9487679,-0.9807022,9.508284,-9.5542145,2.0689497,0.3559983,-0.16320191,0.39663517,0.83024675,-10.916201,5.76905,-0.108342715,2.7467146,-2.4135404,-0.7969104,0
1.1000000000000008,15.790241857213202,2.2023109044764544,-2.026436684185288,-1.3392709208096503,13.813529,0.054755785,-1.9487679,-0.9807022,9.399137,-9.495913,2.0678747,0.36623162,-0.15008011,0.40288696,0.82524616,-10.912256,5.8914146,-0.106733456,2.6618054,-2.3531737,-0.8235241,0
1.1100000000000008,15.790241857213202,2.2023109044764544,-2.026436684185288,-1.3392709208096503,13.813529,0.054755785,-1.9487679,-0.9807022,9.290057,-9.436387,2.0668142,0.37627965,-0.1373327,0.4087644,0.8200389,-10.902688,6.0137186,-0.10543092,2.5901368,-2.3022237,-0.84883195,0
1.1200000000000008,15.197932098762864,1.183458726347809,-1.5134019539529793,-1.1991311552357178,13.854211,-0.42910305,-1.7087543,-0.7605148,9.181101,-9.375638,2.065765,0.3861679,-0.1249081,0.41431248,0.81462646,-10.8876505,6.1357756,-0.10450211,2.5296438,-2.259221,-0.872898,0
1.1300000000000008,15.197932098762864,1.183458726347809,-1.5134019539529793,-1.1991311552357178,13.854211,-0.42910305,-1.7087543,-0.7605148,9.072317,-9.313694,2.0647042,0.39576957,-0.11308145,0.41932127,0.8091647,-10.86807,6.2528462,-0.107698366,2.3197508,-2.142816,-0.8889063,0
1.1400000000000008,15.197932098762864,1.183458726347809,-1.5134019539529793,-1.1991311552357178,13.854211,-0.42910305,-1.7087543,-0.7605148,8.963755,-9.250582,2.0636096,0.4049937,-0.10207208,0.42363852,0.80379766,-10.843697,6.3693438,-0.11129804,2.1425831,-2.0445778,-0.9041292,0
1.1500000000000008,15.197932098762864,1.183458726347809,-1.5134019539529793,-1.1991311552357178,13.854211,-0.42910305,-1.7087543,-0.7605148,8.855459,-9.186308,2.062477,0.41390544,-0.091762654,0.4273741,0.7985062,-10.8148575,6.485124,-0.11527359,1.9930387,-1.9616721,-0.91860497,0
1.1600000000000008,14.854789530798236,0.12467210681067015,-1.0767072027564524,-0.9852472070277446,13.143204,-0.93574274,-1.0509008,-0.59179133,8.747473,-9.120881,2.0613031,0.4225575,-0.082052514,0.43061876,0.793271,-10.781834,6.6000667,-0.11959822,1.86681,-1.8917058,-0.9323705,0
1.1700000000000008,14.854789530798236,0.12467210681067015,-1.0767072027564524,-0.9852472070277446,13.143204,-0.93574274,-1.0509008,-0.59179133,8.639832,-9.054323,2.0600736,0.43086413,-0.073163055,0.4331904,0.7882564,-10.7457285,6.711496,-0.12634538,1.5951988,-1.7644452,-0.9349651,0
1.1800000000000008,14.854789530798236,0.12467210681067015,-1.0767072027564524,-0.9852472070277446,13.143204,-0.93574274,-1.0509008,-0.59179133,8.53257,-8.986655,2.0587754,0.4387648,-0.065266475,0.4349571,0.78360504,-10.706186,6.821922,-0.13329689,1.3659335,-1.6570555,-0.9374324,0
1.1900000000000008,14.854789530798236,0.12467210681067015,-1.0767072027564524,-0.9852472070277446,13.143204,-0.93574274,-1.0509008,-0.59179133,8.425718,-8.917889,2.0574074,0.4463306,-0.058215674,0.43605307,0.77926666,-10.663592,6.931283,-0.14033854,1.1724124,-1.5664344,-0.9397787,0
1.2000000000000008,14.514963464425872,-0.8339590466716803,-0.7121390084235365,-0.6909046168601862,12.9688225,-1.8422493,-0.3570284,-0.17753938,8.319308,-8.848033,2.0559688,0.45361876,-0.051884916,0.43658897,0.77519476,-10.618273,7.0395346,-0.14736924,1.0090626,-1.4899633,-0.9420098,0
1.2100000000000009,14.514963464425872,-0.8339590466716803,-0.7121390084235365,-0.6909046168601862,12.9688225,-1.8422493,-0.3570284,-0.17753938,8.213358,-8.777113,2.0544498,0.46056554,-0.04643906,0.43642855,0.7715256,-10.571623,7.144195,-0.15637496,0.72173,-1.3684798,-0.92968804,0
1.2200000000000009,14.514963464425872,-0.8339590466716803,-0.7121390084235365,-0.6909046168601862,12.9688225,-1.8422493,-0.3570284,-0.17753938,8.1078825,-8.7051525,2.0528424,0.46712267,-0.042002734,0.4354724,0.7683716,-10.522993,7.2477303,-0.16512275,0.47919285,-1.2659733,-0.91797096,0
1.2300000000000009,14.514963464425872,-0.8339590466716803,-0.7121390084235365,-0.6909046168601862,12.9688225,-1.8422493,-0.3570284,-0.17753938,8.002903,-8.632162,2.051149,0.47335213,-0.03842191,0.43385208,0.76565844,-10.472763,7.350141,-0.17346168,0.2744679,-1.1794786,-0.90682876,0
1.2400000000000009,14.514963464425872,-0.8339590466716803,-0.7121390084235365,-0.6909046168601862,13.106493,-2.366565,-0.38313177,0.043734636,7.8984323,-8.558154,2.0493748,0.47930384,-0.0355655,0.431676,0.7633202,-10.42125,7.4514365,-0.18126318,0.10166012,-1.1064945,-0.89623326,0
1.2500000000000009,14.514963464425872,-0.8339590466716803,-0.7121390084235365,-0.6909046168601862,13.106493,-2.366565,-0.38313177,0.043734636,7.7944813,-8.483139,2.047526,0.48501834,-0.03332207,0.42903367,0.7612989,-10.368727,7.55163,-0.18841884,-0.044206325,-1.0449103,-0.8861577,0
1.260000000000001,14.514963464425872,-0.8339590466716803,-0.7121390084235365,-0.6909046168601862,13.106493,-2.366565,-0.38313177,0.043734636,7.6910596,-8.407125,2.0456088,0.49052864,-0.031596955,0.42599925,0.7595439,-10.315423,7.6507344,-0.19483799,-0.16733156,-0.99294466,-0.87657654,0
1.270000000000001,14.514963464425872,-0.8339590466716803,-0.7121390084235365,-0.6909046168601862,13.106493,-2.366565,-0.38313177,0.043734636,7.588175,-8.330127,2.0436316,0.4958618,-0.030309796,0.42263427,0.7580117,-10.261538,7.7487636,-0.2004455,-0.2712612,-0.9490954,-0.86746556,0
1.280000000000001,14.135221063322504,-1.431021680652657,-0.4292101646061832,-0.3932259681431424,13.120794,-2.7688758,-0.6950965,0.38343975,7.485831,-8.252153,2.0416028,0.50104004,-0.029392408,0.41898993,0.7566647,-10.207239,7.8457317,-0.20517969,-0.35898748,-0.9120947,-0.8588016,0
1.290000000000001,14.135221063322504,-1.431021680652657,-0.4292101646061832,-0.3932259681431424,13.120794,-2.7688758,-0.6950965,0.38343975,7.3840237,-8.173228,2.039519,0.50599974,-0.028977383,0.41498634,0.75558585,-10.154116,7.9391437,-0.21145153,-0.52611595,-0.8367033,-0.83595574,0
1.300000000000001,14.135221063322504,-1.431021680652657,-0.4292101646061832,-0.3932259681431424,13.120794,-2.7688758,-0.6950965,0.38343975,7.282748,-8.093374,2.0373774,0.51068777,-0.0291658,0.41056302,0.7548407,-10.100972,8.031568,-0.21674174,-0.66718996,-0.77308744,-0.8142308,0
1.310000000000001,14.135221063322504,-1.431021680652657,-0.4292101646061832,-0.3932259681431424,13.120794,-2.7688758,-0.6950965,0.38343975,7.1820035,-8.012602,2.0351877,0.5151349,-0.029861644,0.40578476,0.7543753,-10.048028,8.123038,-0.2209783,-0.78627086,-0.71940744,-0.793572,0
1.320000000000001,14.003501378342328,-1.7274405121354035,-0.28000256129599627,-0.12333573119981321,13.330383,-2.97484,-0.7695222,0.56533223,7.0817866,-7.9309177,2.0329614,0.51936674,-0.030983634,0.40070552,0.7541434,-9.995476,8.213585,-0.22410485,-0.8867873,-0.6741106,-0.7739269,0
1.330000000000001,14.003501378342328,-1.7274405121354035,-0.28000256129599627,-0.12333573119981321,13.330383,-2.97484,-0.7695222,0.56533223,6.98209,-7.8483377,2.030705,0.52335185,-0.03255649,0.39531294,0.75416815,-9.943971,8.302397,-0.22697179,-1.0178429,-0.6126047,-0.74200225,0
1.340000000000001,14.003501378342328,-1.7274405121354035,-0.28000256129599627,-0.12333573119981321,13.330383,-2.97484,-0.7695222,0.56533223,6.8829045,-7.7648735,2.028426,0.52706236,-0.034594964,0.3895994,0.7544666,-9.893215,8.390349,-0.22864707,-1.128468,-0.56070435,-0.7116441,0
1.350000000000001,14.003501378342328,-1.7274405121354035,-0.28000256129599627,-0.12333573119981321,13.330383,-2.97484,-0.7695222,0.56533223,6.7842226,-7.680534,2.0261362,0.53052294,-0.037022192,0.38361248,0.7549936,-9.843389,8.477472,-0.22909242,-1.2218474,-0.51690876,-0.6827757,0
1.360000000000001,13.633413969518699,-1.7078562002798734,-0.39289022976234,0.12663372128215983,14.517284,-3.2228744,-0.7720609,0.76197034,6.6860337,-7.5953264,2.0238485,0.5337545,-0.039773256,0.37739196,0.75571066,-9.794648,8.563788,-0.22828208,-1.3006692,-0.47995162,-0.65532386,0
1.370000000000001,13.633413969518699,-1.7078562002798734,-0.39289022976234,0.12663372128215983,14.517284,-3.2228744,-0.7720609,0.76197034,6.5883193,-7.5092716,2.0215619,0.536769,-0.042743444,0.37095428,0.7566004,-9.748381,8.647054,-0.22884752,-1.3641523,-0.46638128,-0.616953,0
1.380000000000001,13.633413969518699,-1.7078562002798734,-0.39289022976234,0.12663372128215983,14.517284,-3.2228744,-0.7720609,0.76197034,6.4910617,-7.422388,2.019276,0.5395732,-0.04584552,0.36431438,0.7576497,-9.703404,8.7295475,-0.22816196,-1.4177372,-0.45493242,-0.5804651,0
1.390000000000001,13.633413969518699,-1.7078562002798734,-0.39289022976234,0.12663372128215983,14.517284,-3.2228744,-0.7720609,0.76197034,6.394247,-7.3346834,2.017003,0.54217774,-0.0490527,0.35750106,0.7588342,-9.659806,8.811262,-0.22621895,-1.4629672,-0.44527292,-0.54576755,0
1.400000000000001,13.378584905276082,-1.4720887509919136,-0.46520412884561946,0.308213357529997,14.1002035,-3.1805596,-1.0366547,0.9416588,6.2978616,-7.2461653,2.0147557,0.5445921,-0.05234265,0.35053867,0.7601326,-9.617661,8.892187,-0.22301929,-1.5011451,-0.43712246,-0.5127726,0
1.410000000000001,13.378584905276082,-1.4720887509919136,-0.46520412884561946,0.308213357529997,14.1002035,-3.1805596,-1.0366547,0.9416588,6.201885,-7.1568494,2.0125372,0.54682326,-0.055615462,0.34350526,0.7615081,-9.577792,8.970815,-0.22048853,-1.4966035,-0.44154266,-0.47248662,0
1.420000000000001,13.378584905276082,-1.4720887509919136,-0.46520412884561946,0.308213357529997,14.1002035,-3.1805596,-1.0366547,0.9416588,6.1063,-7.066752,2.01035,0.54887664,-0.058790192,0.33646473,0.7629343,-9.539432,9.048641,-0.21675658,-1.4927703,-0.4452712,-0.43417746,0
1.430000000000001,13.378584905276082,-1.4720887509919136,-0.46520412884561946,0.308213357529997,14.1002035,-3.1805596,-1.0366547,0.9416588,6.0110908,-6.9758797,2.0082061,0.5507584,-0.061875455,0.3294172,0.7644083,-9.502589,9.125652,-0.21185127,-1.4895352,-0.44841605,-0.39774814,0
1.440000000000001,13.378584905276082,-1.4720887509919136,-0.46520412884561946,0.308213357529997,14.369923,-2.9378808,-1.2143569,0.98749846,5.9162426,-6.8842416,2.006117,0.5524746,-0.064878955,0.32236284,0.7659268,-9.467274,9.201834,-0.2058003,-1.4868051,-0.45106846,-0.36310643,0
1.450000000000001,13.378584905276082,-1.4720887509919136,-0.46520412884561946,0.308213357529997,14.369923,-2.9378808,-1.2143569,0.98749846,5.8217406,-6.791846,2.0040941,0.55403095,-0.067807585,0.3153018,0.76748663,-9.433493,9.27717,-0.19863126,-1.484501,-0.45330548,-0.33016458,0
1.460000000000001,13.378584905276082,-1.4720887509919136,-0.46520412884561946,0.308213357529997,14.369923,-2.9378808,-1.2143569,0.98749846,5.7275686,-6.698701,2.002148,0.55543315,-0.07066752,0.30823424,0.76908445,-9.401257,9.351646,-0.1903718,-1.4825563,-0.45519158,-0.2988392,0
1.470000000000001,13.378584905276082,-1.4720887509919136,-0.46520412884561946,0.308213357529997,14.369923,-2.9378808,-1.2143569,0.98749846,5.633711,-6.604816,2.0002902,0.5566866,-0.07346433,0.3011603,0.770717,-9.370574,9.425249,-0.18104948,-1.4809154,-0.4567822,-0.269051,0
1.480000000000001,13.305105962362799,-1.0290085274572622,-0.5589970111403473,0.4217248793894616,13.357873,-2.8118188,-0.9452157,1.185386,5.540152,-6.5101995,1.9985306,0.5577963,-0.076202996,0.29408017,0.772381,-9.341452,9.497962,-0.17069195,-1.4795306,-0.45812312,-0.24072446,0
1.490000000000001,13.305105962362799,-1.0290085274572622,-0.5589970111403473,0.4217248793894616,13.357873,-2.8118188,-0.9452157,1.185386,5.446876,-6.4148617,1.9968768,0.55878156,-0.078756005,0.28711134,0.7740328,-9.31404,9.569377,-0.15993081,-1.4092644,-0.47389537,-0.20821789,0
1.500000000000001,13.305105962362799,-1.0290085274572622,-0.5589970111403473,0.4217248793894616,13.357873,-2.8118188,-0.9452157,1.185386,5.353866,-6.3188143,1.9953353,0.5596589,-0.081022315,0.2803484,0.77564234,-9.2881155,9.63988,-0.14821555,-1.3499557,-0.48720223,-0.17730641,0
1.5100000000000011,13.305105962362799,-1.0290085274572622,-0.5589970111403473,0.4217248793894616,13.357873,-2.8118188,-0.9452157,1.185386,5.261109,-6.222067,1.9939156,0.5604293,-0.08304197,0.27376035,0.7772241,-9.263608,9.709464,-0.13559148,-1.2998959,-0.49842927,-0.14791177,0
1.5200000000000011,12.977189718405059,-0.4806671439198397,-0.670596902319698,0.49802228226334827,13.692461,-2.3242457,-1.2625403,1.1658962,5.16859,-6.124628,1.9926264,0.561094,-0.08484914,0.26732078,0.7787892,-9.240457,9.778117,-0.12209831,-1.2576427,-0.5079017,-0.119959556,0
1.5300000000000011,12.977189718405059,-0.4806671439198397,-0.670596902319698,0.49802228226334827,13.692461,-2.3242457,-1.2625403,1.1658962,5.0762935,-6.026516,1.9914626,0.5616784,-0.08631254,0.2611542,0.78029794,-9.219134,9.844163,-0.110545024,-1.1364652,-0.5333059,-0.089635015,0
1.5400000000000011,12.977189718405059,-0.4806671439198397,-0.670596902319698,0.49802228226334827,13.692461,-2.3242457,-1.2625403,1.1658962,4.984204,-5.9277477,1.9904181,0.5622037,-0.08732964,0.2553593,0.78172314,-9.198946,9.90929,-0.09823033,-1.0341848,-0.55474186,-0.060798503,0
1.5500000000000012,12.977189718405059,-0.4806671439198397,-0.670596902319698,0.49802228226334827,13.692461,-2.3242457,-1.2625403,1.1658962,4.8923106,-5.828333,1.9895003,0.5626659,-0.087966256,0.24988018,0.7830887,-9.17976,9.973498,-0.08520075,-0.9478547,-0.5728298,-0.03337701,0
1.5600000000000012,12.560718972863864,0.04141442315036705,-0.9521379386884073,0.5510661087027854,13.274772,-1.8716178,-1.3735294,1.3870696,4.8006053,-5.7282805,1.9887161,0.5630617,-0.088278174,0.24466924,0.7844134,-9.161466,10.036786,-0.071495205,-0.8749874,-0.58809304,-0.0073010977,0
1.5700000000000012,12.560718972863864,0.04141442315036705,-0.9521379386884073,0.5510661087027854,13.274772,-1.8716178,-1.3735294,1.3870696,4.7090755,-5.62761,1.9880544,0.5634298,-0.08810507,0.23978728,0.78567517,-9.144517,10.09715,-0.06075602,-0.73206383,-0.6448795,0.02009814,0
1.5800000000000012,12.560718972863864,0.04141442315036705,-0.9521379386884073,0.5510661087027854,13.274772,-1.8716178,-1.3735294,1.3870696,4.6177125,-5.526341,1.987503,0.5638,-0.08732219,0.23528068,0.7868586,-9.128161,10.156604,-0.049426485,-0.61142796,-0.69280505,0.04615289,0
1.5900000000000012,12.560718972863864,0.04141442315036705,-0.9521379386884073,0.5510661087027854,13.274772,-1.8716178,-1.3735294,1.3870696,4.526511,-5.424482,1.9870678,0.56415844,-0.08602125,0.23109244,0.7879854,-9.112236,10.215129,-0.03753429,-0.5096045,-0.7332531,0.070929125,0
1.6000000000000012,12.2773887947635,0.3342923400370314,-0.9095922464666921,0.6075921017147617,15.040481,-2.2932153,-2.899545,2.2227283,4.4354672,-5.322042,1.9867542,0.5644936,-0.08427982,0.22717401,0.78907216,-9.0966015,10.27271,-0.025103107,-0.42366,-0.7673906,0.0944896,0
1.6100000000000012,12.2773887947635,0.3342923400370314,-0.9095922464666921,0.6075921017147617,15.040481,-2.2932153,-2.899545,2.2227283,4.344577,-5.2190375,1.986555,0.56479675,-0.0821093,0.22358692,0.790108,-9.081484,10.328057,-0.014660712,-0.30544335,-0.78956455,0.11966769,0
1.6200000000000012,12.2773887947635,0.3342923400370314,-0.9095922464666921,0.6075921017147617,15.040481,-2.2932153,-2.899545,2.2227283,4.2538376,-5.1154838,1.9864626,0.56505996,-0.07952212,0.22037782,0.7910854,-9.066396,10.382476,-0.0037454069,-0.20566286,-0.8082783,0.14361028,0
1.6300000000000012,12.2773887947635,0.3342923400370314,-0.9095922464666921,0.6075921017147617,15.040481,-2.2932153,-2.899545,2.2227283,4.16325,-5.0113907,1.9864815,0.56527615,-0.076580346,0.21748847,0.79202026,-9.051213,10.435973,0.007611221,-0.12144354,-0.824072,0.16637799,0
1.6400000000000012,12.2773887947635,0.3342923400370314,-0.9095922464666921,0.6075921017147617,15.266579,-2.145411,-3.3487155,2.6213129,4.072815,-4.906768,1.9866161,0.56543976,-0.07333653,0.21486944,0.7929249,-9.035829,10.488558,0.019381309,-0.05035851,-0.83740205,0.1880285,0
1.6500000000000012,12.2773887947635,0.3342923400370314,-0.9095922464666921,0.6075921017147617,15.266579,-2.145411,-3.3487155,2.6213129,3.9825344,-4.8016233,1.9868704,0.56554633,-0.069835156,0.21247879,0.7938087,-9.020152,10.5402355,0.03153987,0.009640399,-0.8486526,0.2086166,0
1.6600000000000013,12.2773887947635,0.3342923400370314,-0.9095922464666921,0.6075921017147617,15.266579,-2.145411,-3.3487155,2.6213129,3.892413,-4.6959662,1.9872482,0.56559277,-0.06611397,0.21028091,0.79467905,-9.004109,10.591011,0.044064164,0.060281932,-0.8581486,0.22819445,0
1.6700000000000013,12.2773887947635,0.3342923400370314,-0.9095922464666921,0.6075921017147617,15.266579,-2.145411,-3.3487155,2.6213129,3.8024538,-4.5898066,1.9877529,0.56557673,-0.062204935,0.20824556,0.7955416,-8.987636,10.640889,0.05693321,0.10302532,-0.86616355,0.2468116,0
1.6800000000000013,11.919192296166099,0.32783072485345954,-0.8123026230720025,0.7000916970658337,13.548735,-0.91757095,-2.3296938,1.6394877,3.7126617,-4.483152,1.988388,0.56549674,-0.058135193,0.20634712,0.7964005,-8.970676,10.689872,0.070127465,0.13910252,-0.87292886,0.2645152,0
1.6900000000000013,11.919192296166099,0.32783072485345954,-0.8123026230720025,0.7000916970658337,13.548735,-0.91757095,-2.3296938,1.6394877,3.6230395,-4.376019,1.9891402,0.56533486,-0.053957906,0.20458451,0.7972636,-8.953698,10.736561,0.080371864,0.16854507,-0.863467,0.28588906,0
1.7000000000000013,11.919192296166099,0.32783072485345954,-0.8123026230720025,0.7000916970658337,13.548735,-0.91757095,-2.3296938,1.6394877,3.5335896,-4.2684236,1.9899963,0.5650762,-0.049716275,0.20295571,0.79813856,-8.9361725,10.782397,0.090892434,0.1933953,-0.85548073,0.30621406,0
1.7100000000000013,11.919192296166099,0.32783072485345954,-0.8123026230720025,0.7000916970658337,13.548735,-0.91757095,-2.3296938,1.6394877,3.4443178,-4.1603737,1.9909589,0.5647245,-0.04541818,0.20143946,0.79902726,-8.918075,10.827397,0.10166867,0.21436971,-0.8487402,0.32554173,0
1.7200000000000013,11.569101964905663,0.1492953788298994,-0.7295599587500979,0.8523845077843415,14.019726,-1.0416408,-2.9171662,2.155544,3.3552299,-4.051878,1.9920305,0.5642833,-0.041070394,0.20001769,0.7999309,-8.899382,10.871573,0.11268172,0.23207292,-0.8430513,0.343921,0
1.7300000000000013,11.569101964905663,0.1492953788298994,-0.7295599587500979,0.8523845077843415,14.019726,-1.0416408,-2.9171662,2.155544,3.266329,-3.9429514,1.9931973,0.5637317,-0.036741797,0.19863737,0.80087376,-8.880647,10.913664,0.12070333,0.21917331,-0.8253517,0.36887145,0
1.7400000000000013,11.569101964905663,0.1492953788298994,-0.7295599587500979,0.8523845077843415,14.019726,-1.0416408,-2.9171662,2.155544,3.177619,-3.8336077,1.9944454,0.563052,-0.032486886,0.19725558,0.80187666,-8.861331,10.954976,0.12892619,0.20828481,-0.81041235,0.3925976,0
1.7500000000000013,11.569101964905663,0.1492953788298994,-0.7295599587500979,0.8523845077843415,14.019726,-1.0416408,-2.9171662,2.155544,3.0891047,-3.7238543,1.9957768,0.56225234,-0.028291762,0.19587189,0.80293524,-8.841451,10.9955225,0.13734004,0.19909391,-0.79780275,0.41515946,0
1.7600000000000013,11.182603079315419,-0.2933178126294406,-0.8153040626975874,1.0493589775079488,14.300716,-0.95140946,-3.6053224,2.6273997,3.0007918,-3.6136994,1.997193,0.56133986,-0.024144828,0.19448581,0.8040452,-8.82102,11.03531,0.1459352,0.19133598,-0.78715974,0.43661422,0
1.7700000000000014,11.182603079315419,-0.2933178126294406,-0.8153040626975874,1.0493589775079488,14.300716,-0.95140946,-3.6053224,2.6273997,2.9126825,-3.5031571,1.9986782,0.560304,-0.020103425,0.19293573,0.80525154,-8.800759,11.07304,0.15113524,0.115771174,-0.79156786,0.46668178,0
1.7800000000000014,11.182603079315419,-0.2933178126294406,-0.8153040626975874,1.0493589775079488,14.300716,-0.95140946,-3.6053224,2.6273997,2.824778,-3.3922412,2.0002162,0.55913496,-0.016211737,0.19109322,0.8065902,-8.780042,11.110021,0.15651572,0.051990025,-0.7952878,0.4952739,0
1.7900000000000014,11.182603079315419,-0.2933178126294406,-0.8153040626975874,1.0493589775079488,14.300716,-0.95140946,-3.6053224,2.6273997,2.737083,-3.2809594,2.001809,0.5578396,-0.012443297,0.18900259,0.8080453,-8.75893,11.146225,0.16209081,-0.0018454827,-0.7984267,0.522463,0
1.8000000000000014,10.953935679589518,-1.0194055786679266,-0.4589000691491758,1.3203136256791577,13.738419,-1.0031774,-3.0594742,2.3813164,2.6496007,-3.1693194,2.0034585,0.55642396,-0.008775998,0.18670116,0.80960304,-8.737477,11.181631,0.16787136,-0.04728615,-0.8010749,0.54831797,0
1.8100000000000014,10.953935679589518,-1.0194055786679266,-0.4589000691491758,1.3203136256791577,13.738419,-1.0031774,-3.0594742,2.3813164,2.5623322,-3.057333,2.0051563,0.5548379,-0.0054622055,0.18406454,0.8113226,-8.716187,11.215514,0.1717393,-0.1988881,-0.74777186,0.58620006,0
1.8200000000000014,10.953935679589518,-1.0194055786679266,-0.4589000691491758,1.3203136256791577,13.738419,-1.0031774,-3.0594742,2.3813164,2.4752774,-2.9450119,2.0068939,0.55303967,-0.0027001346,0.18099488,0.81325257,-8.694756,11.248592,0.17584184,-0.32684794,-0.70277876,0.6222232,0
1.8300000000000014,10.953935679589518,-1.0194055786679266,-0.4589000691491758,1.3203136256791577,13.738419,-1.0031774,-3.0594742,2.3813164,2.3884368,-2.8323638,2.008674,0.55104584,-0.00040004612,0.17755707,0.8153655,-8.67333,11.280863,0.18020311,-0.43485248,-0.6647994,0.65647864,0
1.8400000000000014,10.953935679589518,-1.0194055786679266,-0.4589000691491758,1.3203136256791577,14.049277,-1.3959043,-3.2082894,2.7461317,2.30181,-2.7193973,2.010499,0.5488699,0.0015134925,0.17380583,0.81763697,-8.652032,11.312324,0.1848426,-0.5260135,-0.6327394,0.68905324,0
1.8500000000000014,10.953935679589518,-1.0194055786679266,-0.4589000691491758,1.3203136256791577,14.049277,-1.3959043,-3.2082894,2.7461317,2.2153952,-2.60612,2.0123718,0.5465232,0.0031038488,0.16978748,0.8200452,-8.630961,11.342968,0.18977539,-0.6029576,-0.6056759,0.72002935,0
1.8600000000000014,10.953935679589518,-1.0194055786679266,-0.4589000691491758,1.3203136256791577,14.049277,-1.3959043,-3.2082894,2.7461317,2.1291895,-2.4925406,2.0142956,0.5440155,0.0044242237,0.1655412,0.82257086,-8.610206,11.37279,0.19501266,-0.6679019,-0.58282936,0.7494855,0
1.8700000000000014,10.953935679589518,-1.0194055786679266,-0.4589000691491758,1.3203136256791577,14.049277,-1.3959043,-3.2082894,2.7461317,2.0431895,-2.378667,2.0162733,0.54135525,0.005519257,0.1611002,0.8251969,-8.589833,11.401782,0.20056206,-0.7227177,-0.5635425,0.77749616,0
1.8800000000000014,10.857048523167503,-1.703599231564897,-0.24490857671445698,1.6431443786944921,15.894144,-2.1713,-4.5308886,3.7503588,1.957391,-2.2645078,2.0183082,0.53854984,0.0064263763,0.1564926,0.8279083,-8.569903,11.429935,0.20642811,-0.7689846,-0.54726034,0.80413234,0
1.8900000000000015,10.857048523167503,-1.703599231564897,-0.24490857671445698,1.6431443786944921,15.894144,-2.1713,-4.5308886,3.7503588,1.8717887,-2.1500726,2.0203986,0.5355609,0.0069650575,0.15156095,0.8307555,-8.550652,11.457,0.21169311,-0.9147483,-0.5002094,0.84530294,0
1.9000000000000015,10.857048523167503,-1.703599231564897,-0.24490857671445698,1.6431443786944921,15.894144,-2.1713,-4.5308886,3.7503588,1.7863759,-2.035371,2.0225432,0.5323528,0.0069949306,0.14618006,0.8337759,-8.532028,11.483205,0.21729434,-1.0377791,-0.46048933,0.88445324,0
1.9100000000000015,10.857048523167503,-1.703599231564897,-0.24490857671445698,1.6431443786944921,15.894144,-2.1713,-4.5308886,3.7503588,1.7011455,-1.9204117,2.0247455,0.52893525,0.006598711,0.14041576,0.83693886,-8.51417,11.508528,0.22324844,-1.1416222,-0.42695704,0.9216824,0
1.9200000000000015,10.74767391223115,-2.343770544822056,-0.08303898650870074,1.9170047905213912,15.890406,-2.5102239,-4.3834453,3.9373045,1.6160895,-1.8052038,2.0270092,0.5253164,0.0058458247,0.13432395,0.8402171,-8.497188,11.532945,0.22956502,-1.22927,-0.39864752,0.9570847,0
1.9300000000000015,10.74767391223115,-2.343770544822056,-0.08303898650870074,1.9170047905213912,15.890406,-2.5102239,-4.3834453,3.9373045,1.5311977,-1.6897575,2.0293329,0.52146715,0.004610359,0.12777016,0.8436379,-8.481349,11.556194,0.23519416,-1.4030952,-0.34957954,1.0041883,0
1.9400000000000015,10.74767391223115,-2.343770544822056,-0.08303898650870074,1.9170047905213912,15.890406,-2.5102239,-4.3834453,3.9373045,1.4464587,-1.5740834,2.0317144,0.5173586,0.0027964655,0.12064869,0.8472163,-8.46664,11.578479,0.24120039,-1.5498112,-0.3081535,1.0489805,0
1.9500000000000015,10.74767391223115,-2.343770544822056,-0.08303898650870074,1.9170047905213912,15.890406,-2.5102239,-4.3834453,3.9373045,1.3618604,-1.4581914,2.0341582,0.5129974,0.00049803284,0.11304272,0.8509137,-8.453218,11.599752,0.24759075,-1.673645,-0.27317783,1.0915747,0
1.9600000000000015,10.712946575428168,-2.749671524006731,0.0069146705729047344,2.0549275881515126,15.807563,-2.8844373,-4.2097325,4.2046375,1.2773894,-1.3420919,2.0366676,0.5083894,-0.0022061234,0.1050231,0.8546958,-8.441211,11.61997,0.2543622,-1.7781652,-0.2436468,1.1320788,0
1.9700000000000015,10.712946575428168,-2.749671524006731,0.0069146705729047344,2.0549275881515126,15.807563,-2.8844373,-4.2097325,4.2046375,1.1930308,-1.2257961,2.039245,0.5035208,-0.0053611407,0.09652942,0.85855675,-8.430767,11.639023,0.2611639,-1.9296937,-0.20474024,1.1773633,0
1.9800000000000015,10.712946575428168,-2.749671524006731,0.0069146705729047344,2.0549275881515126,15.807563,-2.8844373,-4.2097325,4.2046375,1.1087685,-1.1093156,2.041892,0.49837676,-0.0089988215,0.08751634,0.8624848,-8.421985,11.656912,0.2683216,-2.057589,-0.17188844,1.2204256,0
1.9900000000000015,10.712946575428168,-2.749671524006731,0.0069146705729047344,2.0549275881515126,15.807563,-2.8844373,-4.2097325,4.2046375,1.0245849,-0.9926623,2.0446124,0.49296156,-0.013040414,0.07806062,0.8664439,-8.41499,11.673575,0.27581385,-2.165537,-0.14414762,1.2613748,0
2.0000000000000013,,,,,15.663734,-2.8406596,-3.7739968,4.0395207,0.940462,-0.8758487,2.0474093,0.48727933,-0.017419752,0.068228014,0.8704022,-8.409891,11.6889515,0.28360933,-2.2566488,-0.12072149,1.3003148,0
2.010000000000001,,,,,15.663734,-2.8406596,-3.7739968,4.0395207,0.8563809,-0.75888556,2.0503035,0.4812951,-0.022226306,0.0579345,0.87435937,-8.406674,11.703453,0.2952785,-2.4096859,-0.07743715,1.35142,0
2.020000000000001,,,,,15.663734,-2.8406596,-3.7739968,4.0395207,0.77232105,-0.6417847,2.0533156,0.47497407,-0.02752714,0.04711597,0.87830615,-8.405644,11.716479,0.30717453,-2.538854,-0.04088747,1.4000174,0
2.0300000000000007,,,,,15.663734,-2.8406596,-3.7739968,4.0395207,0.68826,-0.52456135,2.0564477,0.46832085,-0.033240963,0.03585224,0.88220453,-8.406927,11.727946,0.31924102,-2.647875,-0.010022799,1.44623,0
2.0400000000000005,,,,,15.663734,-2.8406596,-3.7739968,4.0395207,0.60417414,-0.40723145,2.0597007,0.46134067,-0.039299298,0.024212066,0.88602126,-8.410622,11.737775,0.33141103,-2.7398918,0.016042627,1.4901752,0
2.0500000000000003,,,,,15.969438,-3.2600672,-3.8340406,4.239864,0.52003896,-0.2898118,2.0630758,0.45403904,-0.045644436,0.0122548435,0.8897272,-8.416805,11.745889,0.34360904,-2.8175557,0.03805621,1.531964,1
2.06,,,,,15.969438,-3.2600672,-3.8340406,4.239864,0.43580714,-0.17230223,2.066869,0.44625944,-0.0509305,-0.0003057993,0.8934529,-8.430099,11.75552,0.41450042,-2.7812667,-0.46121863,1.6554481,1
2.07,,,,,15.969438,-3.2600672,-3.8340406,4.239864,0.35142654,-0.054713406,2.0713542,0.43781856,-0.054037284,-0.013828847,0.8973311,-8.446447,11.761656,0.48199728,-2.784693,-0.9167504,1.77592,1
2.0799999999999996,,,,,15.969438,-3.2600672,-3.8340406,4.239864,0.26686993,0.062917076,2.0764973,0.4286793,-0.055223197,-0.028362628,0.901321,-8.4651985,11.763775,0.5460992,-2.8210926,-1.3348088,1.893478,1
2.0899999999999994,,,,,16.58024,-3.8368788,-4.169306,3.9186888,0.1821162,0.18054672,2.0822647,0.41880313,-0.05470601,-0.043941487,0.9053617,-8.485809,11.761417,0.6069642,-2.8827474,-1.7186514,2.0080419,1
2.099999999999999,,,,,16.58024,-3.8368788,-4.169306,3.9186888,0.097143635,0.29812697,2.088664,0.4081797,-0.05267239,-0.060770556,0.9093522,-8.508958,11.753774,0.6728566,-3.0309167,-2.1012082,2.1017978,1
2.109999999999999,,,,,16.58024,-3.8368788,-4.169306,3.9186888,0.011932084,0.41560212,2.0957196,0.3968148,-0.049321406,-0.07888645,0.9131713,-8.533547,11.740294,0.7381608,-3.1560245,-2.4240813,2.1909533,1
2.1199999999999988,,,,,16.58024,-3.8368788,-4.169306,3.9186888,-0.07353098,0.5329109,2.1034243,0.38470358,-0.04485194,-0.09805525,0.9167203,-8.559202,11.720423,0.8026454,-3.2616668,-2.696579,2.275734,1
2.1299999999999986,,,,,16.191067,-4.2082872,-4.2201076,3.8392148,-0.15925431,0.64998704,2.1117687,0.37184757,-0.039435476,-0.11807678,0.9199084,-8.585542,11.693711,0.8660357,-3.350877,-2.9265583,2.356354,1
2.1399999999999983,,,,,16.191067,-4.2082872,-4.2201076,3.8392148,-0.24523973,0.7667642,2.1207213,0.3582543,-0.033254728,-0.13892356,0.9226308,-8.611566,11.660603,0.9242604,-3.4841323,-3.1286564,2.4291184,1
2.149999999999998,,,,,16.191067,-4.2082872,-4.2201076,3.8392148,-0.3314855,0.8831739,2.130248,0.34393573,-0.02646253,-0.16056056,0.92478514,-8.637552,11.620165,0.9807561,-3.596646,-3.2992077,2.4983125,1
2.159999999999998,,,,,16.191067,-4.2082872,-4.2201076,3.8392148,-0.41798952,0.9991415,2.1403291,0.32890773,-0.01915755,-0.18281652,0.92629915,-8.663165,11.572166,1.0351363,-3.6916502,-3.4431343,2.5641108,1
2.1699999999999977,,,,,14.354437,-4.0373883,-3.9437199,4.2839785,-0.5047463,1.1145908,2.1509416,0.3131902,-0.011426717,-0.20554252,0.92711,-8.688058,11.516467,1.0869951,-3.7718718,-3.5645907,2.6266804,1
2.1799999999999975,,,,,14.354437,-4.0373883,-3.9437199,4.2839785,-0.59173334,1.2294794,2.161975,0.29678014,-0.0034400662,-0.22851086,0.92719567,-8.709177,11.460211,1.1192399,-3.8129857,-3.6239884,2.7080042,1
2.1899999999999973,,,,,14.354437,-4.0373883,-3.9437199,4.2839785,-0.6789255,1.3437715,2.1733162,0.27967998,0.0046560597,-0.25153434,0.92654586,-8.72905,11.397136,1.148526,-3.8477077,-3.6741056,2.7853377,1
2.199999999999997,,,,,14.354437,-4.0373883,-3.9437199,4.2839785,-0.76630896,1.4573991,2.184934,0.26192135,0.01282197,-0.27454534,0.9251255,-8.747386,11.327366,1.1745077,-3.877034,-3.7163908,2.8588765,1
