time-since-start [s],throttle_mpc,roll_mpc,pitch_mpc,yaw_mpc,throttle_nw,roll_nw,pitch_nw,yaw_nw,position_x [m],position_y [m],position_z [m],rotation_w [quaternion],rotation_x [quaternion],rotation_y [quaternion],rotation_z [quaternion],velocity_x [m/s],velocity_y [m/s],velocity_z [m/s],omega_x [rad/s],omega_y [rad/s],omega_z [rad/s],network_used
0.0,11.217314572361685,5.999999837019976,-5.999999956136244,-4.436355866633758,11.903577,-0.74566656,-3.9710045,-1.3868856,20.626408,-8.230616,2.044788,-0.13812575,-0.46158785,0.18039548,0.8575053,-10.338477,-7.58793,0.1962376,2.1898634,0.009198047,-0.62177753,0
0.01,11.217314572361685,5.999999837019976,-5.999999956136244,-4.436355866633758,13.94038,-3.7233605,-6.066417,0.3255864,20.522308,-8.306336,2.0466914,-0.12997541,-0.46299756,0.1882668,0.8563266,-10.481424,-7.5557814,0.18397011,2.183696,-0.3279286,-0.75528467,0
0.02,11.217314572361685,5.999999837019976,-5.999999956136244,-4.436355866633758,13.94038,-3.7233605,-6.066417,0.3255864,20.41679,-8.381721,2.0484579,-0.120912895,-0.46307755,0.19606397,0.85586107,-10.62178,-7.520747,0.16893049,2.2096567,-0.6437033,-0.8850305,0
0.03,11.217314572361685,5.999999837019976,-5.999999956136244,-4.436355866633758,13.94038,-3.7233605,-6.066417,0.3255864,20.309883,-8.45674,2.050062,-0.110892,-0.46192464,0.20389065,0.85601234,-10.759197,-7.4827213,0.15152788,2.2625654,-0.94128567,-1.0111841,0
0.04,11.217314572361685,5.999999837019976,-5.999999956136244,-4.436355866633758,7.890566,-3.2722046,-5.7612314,1.5019857,20.201618,-8.531364,2.0514817,-0.099874996,-0.45961305,0.21183072,0.85668457,-10.893351,-7.4415917,0.13211402,2.3380148,-1.2233074,-1.133903,0
0.05,11.217314572361685,5.999999837019976,-5.999999956136244,-4.436355866633758,7.890566,-3.2722046,-5.7612314,1.5019857,20.092028,-8.605561,2.0526984,-0.08783193,-0.45619825,0.21995081,0.8577821,-11.023937,-7.3972487,0.11099032,2.4322546,-1.4919573,-1.2533344,0
0.060000000000000005,11.217314572361685,5.999999837019976,-5.999999956136244,-4.436355866633758,7.890566,-3.2722046,-5.7612314,1.5019857,19.981152,-8.679298,2.0536964,-0.07474008,-0.4517199,0.22830263,0.8592094,-11.15066,-7.3495927,0.08841423,2.542089,-1.7490542,-1.3696154,0
0.07,11.217314572361685,5.999999837019976,-5.999999956136244,-4.436355866633758,7.890566,-3.2722046,-5.7612314,1.5019857,19.86903,-8.752542,2.0544622,-0.060583487,-0.44620457,0.2369246,0.8608703,-11.273228,-7.29854,0.064604476,2.6647956,-1.996107,-1.4828748,0
0.08,14.532915620302287,5.999999939092787,-5.999999989627567,-3.921902563887404,13.670819,-2.3676898,-7.4991236,-0.58074015,19.755703,-8.825256,2.0549848,-0.045352545,-0.4396679,0.24584343,0.86266804,-11.391348,-7.244028,0.039745737,2.7980533,-2.2343667,-1.5932325,0
0.09,14.532915620302287,5.999999939092787,-5.999999989627567,-3.921902563887404,13.670819,-2.3676898,-7.4991236,-0.58074015,19.64115,-8.897374,2.055298,-0.028786687,-0.43176937,0.25545496,0.8645745,-11.518395,-7.178984,0.02273455,3.1010835,-2.626384,-1.6899709,0
0.09999999999999999,14.532915620302287,5.999999939092787,-5.999999989627567,-3.921902563887404,13.670819,-2.3676898,-7.4991236,-0.58074015,19.525356,-8.9688225,2.0554354,-0.010658846,-0.42217982,0.26608354,0.86651593,-11.6390915,-7.11006,0.0045733494,3.39658,-2.9970396,-1.785516,0
0.10999999999999999,14.532915620302287,5.999999939092787,-5.999999989627567,-3.921902563887404,13.670819,-2.3676898,-7.4991236,-0.58074015,19.408388,-9.039561,2.0553863,0.008981811,-0.41091853,0.27763677,0.86832184,-11.752977,-7.0370684,-0.014545021,3.684467,-3.3484094,-1.8798145,0
0.11999999999999998,14.532915620302287,5.999999939092787,-5.999999989627567,-3.921902563887404,13.670819,-2.3676898,-7.4991236,-0.58074015,19.29032,-9.1095495,2.055142,0.030081175,-0.3979967,0.29001865,0.86981755,-11.859585,-6.9599247,-0.034480043,3.964749,-3.682314,-1.9728216,0
0.12999999999999998,19.2582412835589,5.9999999653037435,-5.999999997487627,-3.3119426017696965,14.423727,0.64521354,-7.255352,0.26833853,19.171225,-9.178745,2.0546944,0.052579217,-0.3834203,0.30312943,0.87082523,-11.958436,-6.8786507,-0.05514025,4.237492,-4.0003533,-2.0645003,0
0.13999999999999999,19.2582412835589,5.9999999653037435,-5.999999997487627,-3.3119426017696965,14.423727,0.64521354,-7.255352,0.26833853,19.051037,-9.246976,2.054157,0.07637198,-0.3671351,0.3169231,0.8711708,-12.077763,-6.7663217,-0.05214256,4.5117636,-4.312745,-2.1257126,0
0.15,19.2582412835589,5.9999999653037435,-5.999999997487627,-3.3119426017696965,14.423727,0.64521354,-7.255352,0.26833853,18.9297,-9.314045,2.0536566,0.10125976,-0.3491992,0.33125296,0.8706765,-12.188082,-6.6463246,-0.047741685,4.743316,-4.576371,-2.1839213,0
0.16,20.99999988049708,5.9999998992900245,-5.999999957275269,-2.698433304730452,15.326741,1.0341351,-7.618752,-0.15136424,18.80731,-9.379876,2.0532067,0.12704575,-0.3297745,0.34588993,0.8691766,-12.288328,-6.518874,-0.042005617,4.9388065,-4.7988415,-2.239274,0
0.17,20.99999988049708,5.9999998992900245,-5.999999957275269,-2.698433304730452,15.326741,1.0341351,-7.618752,-0.15136424,18.683931,-9.444338,2.052868,0.15348412,-0.30898246,0.36066186,0.8665421,-12.385564,-6.372215,-0.025565412,5.1039524,-4.986477,-2.261805,0
0.18000000000000002,20.99999988049708,5.9999998992900245,-5.999999957275269,-2.698433304730452,15.326741,1.0341351,-7.618752,-0.15136424,18.559645,-9.507297,2.052699,0.18034843,-0.2869341,0.37542132,0.8626713,-12.469708,-6.218504,-0.008016265,5.243386,-5.1448135,-2.2832305,0
0.19000000000000003,20.99999988049708,5.9999998992900245,-5.999999957275269,-2.698433304730452,15.326741,1.0341351,-7.618752,-0.15136424,18.434584,-9.5686865,2.0527103,0.20749334,-0.2637577,0.3900181,0.8574754,-12.539849,-6.058538,0.010383927,5.361111,-5.278425,-2.3036046,0
0.20000000000000004,21.0,4.90300282908522,-5.9999992086792,-1.1037217759300786,15.378063,1.3490984,-7.084598,-0.04866687,18.308895,-9.62845,2.052909,0.2347847,-0.23957345,0.40432265,0.8508841,-12.595181,-5.8932557,0.029331889,5.460509,-5.3911724,-2.322979,0
0.21000000000000005,21.0,4.90300282908522,-5.9999992086792,-1.1037217759300786,15.378063,1.3490984,-7.084598,-0.04866687,18.182732,-9.686538,2.053298,0.26183152,-0.21452408,0.41790083,0.8430791,-12.635049,-5.723739,0.04851127,5.3736367,-5.4857774,-2.2631497,0
0.22000000000000006,21.0,4.90300282908522,-5.9999992086792,-1.1037217759300786,15.378063,1.3490984,-7.084598,-0.04866687,18.056248,-9.742915,2.0538793,0.28830862,-0.18874645,0.43042165,0.8342601,-12.659073,-5.5512786,0.06771371,5.3003297,-5.565665,-2.2062564,0
0.23000000000000007,21.0,4.90300282908522,-5.9999992086792,-1.1037217759300786,15.378063,1.3490984,-7.084598,-0.04866687,17.929604,-9.797558,2.0546517,0.3141877,-0.16233808,0.44191992,0.82440215,-12.667048,-5.3772173,0.08674006,5.2384686,-5.633125,-2.1521547,0
0.24000000000000007,21.0,4.90300282908522,-5.9999992086792,-1.1037217759300786,16.305624,0.70781267,-5.376531,0.05917498,17.80296,-9.850458,2.0556126,0.3394388,-0.13538751,0.45242444,0.81348836,-12.658889,-5.2028875,0.105353676,5.1862636,-5.6900916,-2.100708,0
0.25000000000000006,21.0,4.90300282908522,-5.9999992086792,-1.1037217759300786,16.305624,0.70781267,-5.376531,0.05917498,17.67648,-9.901619,2.0567565,0.36403129,-0.10797602,0.46195856,0.8015088,-12.63462,-5.029605,0.12328695,5.1422067,-5.738197,-2.0517857,0
0.26000000000000006,21.0,4.90300282908522,-5.9999992086792,-1.1037217759300786,16.305624,0.70781267,-5.376531,0.05917498,17.550322,-9.951057,2.0580752,0.38793418,-0.08017894,0.47054148,0.7884597,-12.594379,-4.858662,0.14024754,5.1050243,-5.7788205,-2.0052638,0
0.2700000000000001,21.0,4.90300282908522,-5.9999992086792,-1.1037217759300786,16.305624,0.70781267,-5.376531,0.05917498,17.424648,-9.998803,2.0595572,0.4111167,-0.052066743,0.47818878,0.7743431,-12.538416,-4.691323,0.15592399,5.0736423,-5.8131256,-1.9610248,0
0.2800000000000001,20.99999999698697,3.3829332560610483,-4.145269664540975,-0.23575223303065046,16.80559,-0.043563627,-2.6552038,0.13147816,17.29961,-10.0449,2.061188,0.43354866,-0.02370591,0.4849132,0.7591655,-12.46708,-4.528814,0.16999096,5.0471544,-5.8420963,-1.9189566,0
0.2900000000000001,20.99999999698697,3.3829332560610483,-4.145269664540975,-0.23575223303065046,16.80559,-0.043563627,-2.6552038,0.13147816,17.175358,-10.0894,2.0629501,0.45476037,0.0040645357,0.49060884,0.74328923,-12.380906,-4.37228,0.18212453,4.788252,-5.5768948,-1.8363612,0
0.3000000000000001,20.99999999698697,3.3829332560610483,-4.145269664540975,-0.23575223303065046,16.80559,-0.043563627,-2.6552038,0.13147816,17.052038,-10.132368,2.064823,0.47442532,0.030579517,0.49526593,0.7271153,-12.28095,-4.22256,0.19207194,4.5696354,-5.353138,-1.7578188,0
0.3100000000000001,20.99999999698697,3.3829332560610483,-4.145269664540975,-0.23575223303065046,16.80559,-0.043563627,-2.6552038,0.13147816,16.929785,-10.173877,2.0667834,0.49270758,0.056019228,0.49901482,0.7106932,-12.168358,-4.0802875,0.19963679,4.385038,-5.164346,-1.6831306,0
0.3200000000000001,20.99999984464768,1.525432670436348,-1.6007644684493874,0.3118193793904607,15.943375,-0.46529225,-0.67094374,0.5919639,16.808712,-10.214002,2.068807,0.5097441,0.08053738,0.5019582,0.69405484,-12.044188,-3.945998,0.20465194,4.229167,-5.0050545,-1.6121073,0
0.3300000000000001,20.99999984464768,1.525432670436348,-1.6007644684493874,0.3118193793904607,15.943375,-0.46529225,-0.67094374,0.5919639,16.688934,-10.252825,2.070867,0.5251697,0.10321658,0.50419813,0.6777365,-11.909501,-3.8200684,0.20698899,3.808356,-4.4734797,-1.5176997,0
0.34000000000000014,20.99999984464768,1.525432670436348,-1.6007644684493874,0.3118193793904607,15.943375,-0.46529225,-0.67094374,0.5919639,16.57055,-10.290431,2.0729373,0.5387639,0.12335939,0.505894,0.66225874,-11.765735,-3.702328,0.20664927,3.4530153,-4.0249267,-1.4279246,0
0.35000000000000014,20.99999984464768,1.525432670436348,-1.6007644684493874,0.3118193793904607,15.943375,-0.46529225,-0.67094374,0.5919639,16.453648,-10.326898,2.074991,0.55081743,0.14138359,0.5071799,0.6475947,-11.61424,-3.5923939,0.2037039,3.1529658,-3.6464243,-1.3425549,0
0.36000000000000015,20.999998890211902,-0.46835621175036235,0.9156490490146529,1.3488196380840705,16.75753,-2.1044822,1.1990184,0.5941879,16.338293,-10.362303,2.0770025,0.5615668,0.15764253,0.5081519,0.63369757,-11.456124,-3.4898741,0.19824243,2.899609,-3.3270292,-1.2613744,0
0.37000000000000016,20.999998890211902,-0.46835621175036235,0.9156490490146529,1.3488196380840705,16.75753,-2.1044822,1.1990184,0.5941879,16.224548,-10.396718,2.0789475,0.57075197,0.17141768,0.5089341,0.62116313,-11.292372,-3.394296,0.19038758,2.3751462,-2.6647544,-1.1332912,0
0.38000000000000017,20.999998890211902,-0.46835621175036235,0.9156490490146529,1.3488196380840705,16.75753,-2.1044822,1.1990184,0.5941879,16.112463,-10.430209,2.080803,0.5782084,0.1821804,0.509666,0.61051226,-11.124161,-3.304662,0.18041913,1.9322858,-2.1059103,-1.0114933,0
0.3900000000000002,20.999998890211902,-0.46835621175036235,0.9156490490146529,1.3488196380840705,16.75753,-2.1044822,1.1990184,0.5941879,16.002077,-10.462829,2.0825496,0.5842278,0.19045588,0.5104118,0.60156757,-10.952536,-3.2198746,0.16865309,1.5583429,-1.6343343,-0.8956721,0
0.4000000000000002,20.99999889604687,-2.883655322740825,3.761449907144705,1.6482818135379174,18.986666,-3.2323654,2.830042,0.21886215,15.89342,-10.49462,2.0841708,0.58903986,0.19668105,0.5112047,0.5941528,-10.778304,-3.1389573,0.15537345,1.2426028,-1.2363912,-0.78553426,0
0.4100000000000002,20.99999889604687,-2.883655322740825,3.761449907144705,1.6482818135379174,18.986666,-3.2323654,2.830042,0.21886215,15.786516,-10.525618,2.0856528,0.59241784,0.19999434,0.51215506,0.5888462,-10.602166,-3.0609374,0.14086597,0.59955287,-0.45660228,-0.6661062,0
0.4200000000000002,20.99999889604687,-2.883655322740825,3.761449907144705,1.6482818135379174,18.986666,-3.2323654,2.830042,0.21886215,15.681379,-10.555843,2.0869856,0.59418905,0.19973499,0.51335514,0.5860982,-10.425061,-2.9842954,0.12558761,0.05662185,0.20144258,-0.5525386,0
0.4300000000000002,20.99999889604687,-2.883655322740825,3.761449907144705,1.6482818135379174,18.986666,-3.2323654,2.830042,0.21886215,15.578015,-10.585303,2.0881639,0.5945736,0.19649933,0.51477236,0.58555865,-10.247876,-2.9074943,0.10999253,-0.4017639,0.7567622,-0.44454366,0
0.4400000000000002,20.99999889604687,-2.883655322740825,3.761449907144705,1.6482818135379174,20.074038,-4.872015,4.4756637,0.21072319,15.47642,-10.613988,2.089186,0.5937345,0.19078037,0.51635677,0.5869048,-10.071357,-2.829231,0.09444916,-0.7887579,1.2254022,-0.34184813,0
0.45000000000000023,20.99999889604687,-2.883655322740825,3.761449907144705,1.6482818135379174,20.074038,-4.872015,4.4756637,0.21072319,15.376584,-10.641879,2.090054,0.5917945,0.18298705,0.518051,0.5898454,-9.896157,-2.7484114,0.07924655,-1.1154697,1.6209003,-0.24419186,0
0.46000000000000024,20.99999889604687,-2.883655322740825,3.761449907144705,1.6482818135379174,20.074038,-4.872015,4.4756637,0.21072319,15.278491,-10.668945,2.0907726,0.58884805,0.17346007,0.5197971,0.5941212,-9.722865,-2.6641297,0.06460273,-1.3912815,1.9546783,-0.15132762,0
0.47000000000000025,20.99999889604687,-2.883655322740825,3.761449907144705,1.6482818135379174,20.074038,-4.872015,4.4756637,0.21072319,15.182118,-10.695147,2.0913484,0.5849698,0.1624843,0.52153987,0.59950376,-9.552033,-2.5756462,0.05067363,-1.6241164,2.2363737,-0.063020274,0
0.48000000000000026,20.99999941325472,-4.609131796884053,5.005271314629962,1.5920590767060856,20.073124,-4.7910404,4.610687,0.059340086,15.08744,-10.720442,2.091789,0.5802204,0.15029898,0.52322906,0.60579306,-9.384184,-2.482369,0.037561823,-1.8206656,2.474117,0.020953793,0
0.49000000000000027,20.99999941325472,-4.609131796884053,5.005271314629962,1.5920590767060856,20.073124,-4.7910404,4.610687,0.059340086,14.994422,-10.744777,2.0921028,0.5744894,0.13639855,0.5246847,0.6132395,-9.219869,-2.3837829,0.025356472,-2.2556736,2.868731,0.09804838,0
0.5000000000000002,20.99999941325472,-4.609131796884053,5.005271314629962,1.5920590767060856,20.073124,-4.7910404,4.610687,0.059340086,14.903027,-10.768096,2.0923002,0.56765795,0.12038765,0.52573043,0.6219954,-9.05992,-2.2791967,0.014279353,-2.6228676,3.2017753,0.17135993,0
0.5100000000000002,20.99999941325472,-4.609131796884053,5.005271314629962,1.5920590767060856,20.073124,-4.7910404,4.610687,0.059340086,14.813205,-10.790338,2.0923932,0.5597597,0.102601856,0.5263273,0.6317603,-8.905245,-2.168003,0.004525859,-2.9328134,3.4828627,0.24107404,0
0.5200000000000002,20.999999771975308,-5.438212398970056,5.219179805124619,1.3794813292011932,20.87353,-4.830759,4.674461,-0.19878975,14.7249,-10.811432,2.0923955,0.5508226,0.083327256,0.5264396,0.6422708,-8.756726,-2.049787,-0.003799558,-3.194432,3.7201035,0.30736727,0
0.5300000000000002,20.999999771975308,-5.438212398970056,5.219179805124619,1.3794813292011932,20.87353,-4.830759,4.674461,-0.19878975,14.638046,-10.831307,2.092322,0.54086727,0.06255809,0.5258685,0.6534607,-8.615243,-1.9242983,-0.0106513435,-3.5445302,3.9536927,0.3599762,0
0.5400000000000003,20.999999771975308,-5.438212398970056,5.219179805124619,1.3794813292011932,20.87353,-4.830759,4.674461,-0.19878975,14.5525675,-10.849892,2.0921881,0.5298985,0.04030687,0.52443886,0.66524136,-8.481781,-1.7913895,-0.015945308,-3.84003,4.1508503,0.4100036,0
0.5500000000000003,20.999999771975308,-5.438212398970056,5.219179805124619,1.3794813292011932,20.87353,-4.830759,4.674461,-0.19878975,14.468379,-10.867109,2.0920088,0.51792234,0.016828042,0.5221556,0.677367,-8.357332,-1.6510669,-0.019650005,-4.0894437,4.3172626,0.45757613,0
0.5600000000000003,20.999999789682363,-5.419081920072746,4.458534953738397,1.0416950726170995,21.76687,-4.6338787,3.6278272,1.0516659,14.385386,-10.882888,2.0918002,0.5049495,-0.007656963,0.5190245,0.68962324,-8.242836,-1.5035013,-0.021820799,-4.2999563,4.457727,0.5028143,1
0.5700000000000003,20.999999789682363,-5.419081920072746,4.458534953738397,1.0416950726170995,21.76687,-4.6338787,3.6278272,1.0516659,14.303503,-10.89713,2.0915937,0.49136558,-0.032372825,0.5149652,0.7016566,-8.135629,-1.3438476,-0.019295238,-4.352065,4.328211,0.5297466,1
0.5800000000000003,20.999999789682363,-5.419081920072746,4.458534953738397,1.0416950726170995,21.76687,-4.6338787,3.6278272,1.0516659,14.222634,-10.909742,2.0914192,0.47752237,-0.056690503,0.5099604,0.7132308,-8.040044,-1.1777995,-0.015414344,-4.3960466,4.218898,0.5553573,1
0.5900000000000003,20.999999789682363,-5.419081920072746,4.458534953738397,1.0416950726170995,21.76687,-4.6338787,3.6278272,1.0516659,14.142661,-10.920666,2.0912898,0.4633882,-0.08062976,0.50410086,0.72432846,-7.956395,-1.0061682,-0.010295034,-4.4331684,4.1266365,0.57971126,1
0.6000000000000003,20.999999757454685,-4.720197402667236,3.3633203390191007,0.7199058423351583,22.4591,-4.650352,3.2376094,0.29730663,14.063464,-10.929848,2.0912173,0.44893947,-0.104206525,0.49746385,0.7349308,-7.884949,-0.8297517,-0.0040809023,-4.464501,4.0487685,0.6028702,0
0.6100000000000003,20.999999757454685,-4.720197402667236,3.3633203390191007,0.7199058423351583,22.4591,-4.650352,3.2376094,0.29730663,13.98491,-10.937275,2.0911946,0.43423843,-0.12739086,0.49003902,0.7450299,-7.8278503,-0.65522355,-0.00036136026,-4.5043488,3.941841,0.60861313,0
0.6200000000000003,20.999999757454685,-4.720197402667236,3.3633203390191007,0.7199058423351583,22.4591,-4.650352,3.2376094,0.29730663,13.906865,-10.942942,2.091213,0.41934136,-0.15015963,0.48182395,0.754619,-7.7829223,-0.47762126,0.004137539,-4.537988,3.8515916,0.6140743,0
0.6300000000000003,20.999999757454685,-4.720197402667236,3.3633203390191007,0.7199058423351583,22.4591,-4.650352,3.2376094,0.29730663,13.829209,-10.94682,2.0912795,0.4042257,-0.17253302,0.47289056,0.7636804,-7.7502694,-0.29772592,0.009281273,-4.5663857,3.7754192,0.6192675,0
0.6400000000000003,20.999999757454685,-4.720197402667236,3.3633203390191007,0.7199058423351583,22.71721,-4.398755,2.4454832,0.5661934,13.751818,-10.948891,2.0914001,0.38887534,-0.19452678,0.46330044,0.7721964,-7.729959,-0.1163005,0.014912677,-4.5903587,3.711128,0.6242059,0
0.6500000000000004,20.999999757454685,-4.720197402667236,3.3633203390191007,0.7199058423351583,22.71721,-4.398755,2.4454832,0.5661934,13.674567,-10.949142,2.0915787,0.3732795,-0.21615271,0.45310664,0.78015,-7.7220182,0.06590826,0.020855408,-4.6105957,3.6568654,0.6289019,0
0.6600000000000004,20.999999757454685,-4.720197402667236,3.3633203390191007,0.7199058423351583,22.71721,-4.398755,2.4454832,0.5661934,13.597334,-10.947572,2.0918174,0.357432,-0.23741916,0.44235516,0.78752506,-7.726436,0.24816874,0.026917087,-4.6276793,3.6110666,0.6333675,0
0.6700000000000004,20.999999757454685,-4.720197402667236,3.3633203390191007,0.7199058423351583,22.71721,-4.398755,2.4454832,0.5661934,13.519997,-10.944182,2.0921166,0.3413305,-0.2583314,0.4310861,0.7943062,-7.7431626,0.42976362,0.03289217,-4.6421013,3.572412,0.6376139,0
0.6800000000000004,20.999999601119313,-3.6331750208161893,2.1517139730615185,0.3697481519575832,22.281862,-3.9210534,1.5130812,-0.0055818893,13.4424305,-10.938983,2.0924745,0.32497594,-0.27889198,0.41933477,0.80047953,-7.7721095,0.6099899,0.038564533,-4.654276,3.5397868,0.641652,0
0.6900000000000004,20.999999601119313,-3.6331750208161893,2.1517139730615185,0.3697481519575832,22.281862,-3.9210534,1.5130812,-0.0055818893,13.364513,-10.93199,2.0928862,0.30873606,-0.2985949,0.40731966,0.80598575,-7.8130913,0.7881658,0.04372335,-4.4949164,3.3234234,0.62830955,0
0.7000000000000004,20.999999601119313,-3.6331750208161893,2.1517139730615185,0.3697481519575832,22.281862,-3.9210534,1.5130812,-0.0055818893,13.286129,-10.923227,2.0933466,0.29292786,-0.31705934,0.3952452,0.8108311,-7.865558,0.96368504,0.04823778,-4.3604274,3.1407871,0.6156219,0
0.7100000000000004,20.999999601119313,-3.6331750208161893,2.1517139730615185,0.3697481519575832,22.281862,-3.9210534,1.5130812,-0.0055818893,13.207165,-10.912725,2.0938485,0.27748322,-0.33445376,0.3831165,0.8150857,-7.9288864,1.1360252,0.052013554,-4.2469273,2.9866204,0.6035568,0
0.7200000000000004,20.99999769431026,-2.0898684475907494,0.768387822362308,0.010872004543606621,21.887709,-3.3733006,1.4026903,-0.36485508,13.127515,-10.900518,2.0943842,0.26234293,-0.35091922,0.3709344,0.8188033,-8.002509,1.3047256,0.05496186,-4.15114,2.8564858,0.5920838,0
0.7300000000000004,20.99999769431026,-2.0898684475907494,0.768387822362308,0.010872004543606621,21.887709,-3.3733006,1.4026903,-0.36485508,13.047081,-10.886645,2.0949447,0.24791883,-0.36598212,0.35905027,0.82199484,-8.085835,1.4694018,0.0570127,-3.829513,2.5310435,0.5635636,0
0.7400000000000004,20.99999769431026,-2.0898684475907494,0.768387822362308,0.010872004543606621,21.887709,-3.3733006,1.4026903,-0.36485508,12.965768,-10.871145,2.0955215,0.23455437,-0.3793009,0.3477663,0.82472605,-8.177931,1.629882,0.05819832,-3.5580754,2.256321,0.5364429,0
0.7500000000000004,20.99999769431026,-2.0898684475907494,0.768387822362308,0.010872004543606621,21.887709,-3.3733006,1.4026903,-0.36485508,12.883494,-10.854062,2.096106,0.22210549,-0.39115876,0.3370072,0.827097,-8.277861,1.7861093,0.058593355,-3.3289938,2.0244145,0.510653,0
0.7600000000000005,19.6124439401096,-0.318681897591614,-0.6886457343815966,-0.37806698194509636,19.947828,-2.8023589,0.32510707,-0.111364394,12.800187,-10.835439,2.096691,0.21044607,-0.40179095,0.32670233,0.82918113,-8.384833,1.9380664,0.05827388,-3.1356585,1.8286524,0.48612863,0
0.7700000000000005,19.6124439401096,-0.318681897591614,-0.6886457343815966,-0.37806698194509636,19.947828,-2.8023589,0.32510707,-0.111364394,12.715815,-10.815366,2.0972373,0.19998407,-0.41078264,0.31723857,0.83103734,-8.490622,2.07604,0.0509125,-2.696188,1.4362955,0.44372228,0
0.7800000000000005,19.6124439401096,-0.318681897591614,-0.6886457343815966,-0.37806698194509636,19.947828,-2.8023589,0.32510707,-0.111364394,12.630359,-10.793931,2.097708,0.19104838,-0.4178364,0.30893144,0.8327509,-8.60133,2.2103662,0.043160386,-2.325292,1.105081,0.40339682,0
0.7900000000000005,19.6124439401096,-0.318681897591614,-0.6886457343815966,-0.37806698194509636,19.947828,-2.8023589,0.32510707,-0.111364394,12.543774,-10.77117,2.0981,0.183427,-0.42328414,0.30161807,0.8343926,-8.716035,2.341418,0.035234872,-2.0122678,0.82548326,0.36505017,0
0.8000000000000005,17.904647810384102,1.2721635502462225,-1.8841365117809517,-0.6690746118433575,18.587606,-1.8808495,-0.32875112,-0.51255625,12.456025,-10.747112,2.0984128,0.17693642,-0.42739874,0.2951535,0.836007,-8.833981,2.4695442,0.027334927,-1.7480835,0.58946043,0.3285852,0
0.8100000000000005,17.904647810384102,1.2721635502462225,-1.8841365117809517,-0.6690746118433575,18.587606,-1.8808495,-0.32875112,-0.51255625,12.367137,-10.721842,2.098608,0.17186245,-0.42990574,0.28984484,0.8376359,-8.943997,2.5841715,0.011780767,-1.2769881,0.20384681,0.27962977,0
0.8200000000000005,17.904647810384102,1.2721635502462225,-1.8841365117809517,-0.6690746118433575,18.587606,-1.8808495,-0.32875112,-0.51255625,12.27714,-10.695436,2.0986497,0.1684263,-0.43060365,0.28593,0.8393191,-9.055566,2.6969697,-0.003334683,-0.87939316,-0.12167319,0.23307659,0
0.8300000000000005,17.904647810384102,1.2721635502462225,-1.8841365117809517,-0.6690746118433575,18.587606,-1.8808495,-0.32875112,-0.51255625,12.186023,-10.667907,2.0985434,0.16639262,-0.42979184,0.28319347,0.84106684,-9.167937,2.8084655,-0.017774487,-0.5438284,-0.3964613,0.18880779,0
0.8400000000000005,17.904647810384102,1.2721635502462225,-1.8841365117809517,-0.6690746118433575,16.763214,-1.3246436,-1.1207395,-0.6151865,12.0937805,-10.639268,2.098297,0.16555977,-0.4277155,0.28144807,0.84287363,-9.280488,2.9191136,-0.031335447,-0.2606138,-0.628421,0.14671126,0
0.8500000000000005,17.904647810384102,1.2721635502462225,-1.8841365117809517,-0.6690746118433575,16.763214,-1.3246436,-1.1207395,-0.6151865,12.000414,-10.609526,2.0979202,0.16575547,-0.4245765,0.28053254,0.8447254,-9.392695,3.0293024,-0.043846697,-0.021580447,-0.8242253,0.10668041,0
0.8600000000000005,17.904647810384102,1.2721635502462225,-1.8841365117809517,-0.6690746118433575,16.763214,-1.3246436,-1.1207395,-0.6151865,11.90593,-10.578683,2.0974243,0.16683273,-0.42054173,0.28030863,0.84660393,-9.504116,3.1393576,-0.055167213,0.18016528,-0.98950785,0.06861389,0
0.8700000000000006,17.904647810384102,1.2721635502462225,-1.8841365117809517,-0.6690746118433575,16.763214,-1.3246436,-1.1207395,-0.6151865,11.810335,-10.546739,2.0968215,0.16866635,-0.41574982,0.28065822,0.84848946,-9.614372,3.2495496,-0.06518284,0.35044152,-1.1290251,0.032415304,0
0.8800000000000006,16.97890620750731,2.2997366516342,-2.5493498175567377,-0.8588495671612894,16.549082,-0.80237734,-1.6122572,-0.97564167,11.713647,-10.513691,2.0961256,0.17114963,-0.41031632,0.28148088,0.85036254,-9.723136,3.3600998,-0.07380322,0.49415815,-1.2467921,-0.0020070039,0
0.8900000000000006,16.97890620750731,2.2997366516342,-2.5493498175567377,-0.8588495671612894,16.549082,-0.80237734,-1.6122572,-0.97564167,11.615907,-10.479563,2.0953274,0.17445435,-0.40404633,0.28298536,0.8521919,-9.824563,3.465465,-0.085655734,0.77569735,-1.4499462,-0.04405252,0
0.9000000000000006,16.97890620750731,2.2997366516342,-2.5493498175567377,-0.8588495671612894,16.549082,-0.80237734,-1.6122572,-0.97564167,11.517162,-10.444378,2.0944176,0.1787098,-0.3967848,0.28532833,0.85393906,-9.923852,3.5716445,-0.096031606,1.0133234,-1.6214303,-0.084034845,0
0.9100000000000006,16.97890620750731,2.2997366516342,-2.5493498175567377,-0.8588495671612894,16.549082,-0.80237734,-1.6122572,-0.97564167,11.417438,-10.408126,2.093412,0.18377428,-0.38867387,0.2883602,0.8555744,-10.020569,3.6789036,-0.104864106,1.2138876,-1.7661798,-0.12205523,0
0.9200000000000006,16.791979011364383,2.985384580984125,-2.8340426775335805,-1.1352996195400935,15.086919,-0.43267098,-1.7347901,-1.1608919,11.316761,-10.370796,2.0923257,0.1895269,-0.3798326,0.2919538,0.8570702,-10.114334,3.787445,-0.11211225,1.3831711,-1.8883606,-0.15820995,0
0.9300000000000006,16.791979011364383,2.985384580984125,-2.8340426775335805,-1.1352996195400935,15.086919,-0.43267098,-1.7347901,-1.1608919,11.215167,-10.332379,2.0911698,0.1960302,-0.3702204,0.29620102,0.85835516,-10.2037945,3.8962202,-0.11877649,1.6329567,-2.0359156,-0.20615602,0
0.9400000000000006,16.791979011364383,2.985384580984125,-2.8340426775335805,-1.1352996195400935,15.086919,-0.43267098,-1.7347901,-1.1608919,11.112698,-10.292866,2.0899553,0.20332718,-0.35980654,0.30116412,0.8593585,-10.289569,4.006616,-0.12386604,1.8437865,-2.160466,-0.25174934,0
0.9500000000000006,16.791979011364383,2.985384580984125,-2.8340426775335805,-1.1352996195400935,15.086919,-0.43267098,-1.7347901,-1.1608919,11.00939,-10.25224,2.0886977,0.21129555,-0.34869733,0.30670297,0.86005646,-10.371253,4.1187887,-0.12741342,2.021737,-2.265596,-0.29510543,0
0.9600000000000006,16.26732203135338,3.1131527981923424,-2.8419141247401067,-1.2536702708224592,14.21987,0.5723386,-2.0964735,-1.0901307,10.905289,-10.210484,2.087412,0.2198305,-0.3369833,0.31269863,0.8604277,-10.448483,4.2328334,-0.1294703,2.1719375,-2.3543317,-0.336334,0
0.9700000000000006,16.26732203135338,3.1131527981923424,-2.8419141247401067,-1.2536702708224592,14.21987,0.5723386,-2.0964735,-1.0901307,10.800449,-10.167594,2.086098,0.22887254,-0.3247323,0.31908855,0.8604349,-10.518667,4.3451705,-0.13315143,2.3186316,-2.4304702,-0.38134795,0
0.9800000000000006,16.26732203135338,3.1131527981923424,-2.8419141247401067,-1.2536702708224592,14.21987,0.5723386,-2.0964735,-1.0901307,10.694933,-10.123573,2.0847535,0.23836908,-0.31200308,0.32581654,0.86004484,-10.583917,4.459376,-0.1355447,2.4424515,-2.4947336,-0.4241531,0
0.9900000000000007,16.26732203135338,3.1131527981923424,-2.8419141247401067,-1.2536702708224592,14.21987,0.5723386,-2.0964735,-1.0901307,10.58879,-10.0784,2.0833914,0.24824558,-0.2988557,0.33279818,0.8592463,-10.643957,4.575423,-0.1367526,2.5469644,-2.5489724,-0.46485776,0
1.0000000000000007,15.976449715975226,2.7964952072637965,-2.594084904124454,-1.3354160308998049,13.898016,0.63492763,-1.7558503,-1.2084264,10.482073,-10.032057,2.0820222,0.25843754,-0.28534222,0.3399619,0.85802984,-10.698544,4.6932483,-0.1368867,2.635182,-2.5947497,-0.50356495,0
1.0100000000000007,15.976449715975226,2.7964952072637965,-2.594084904124454,-1.3354160308998049,13.898016,0.63492763,-1.7558503,-1.2084264,10.374844,-9.984539,2.080648,0.26882857,-0.2716305,0.34716234,0.8564028,-10.74659,4.810616,-0.1378354,2.6602693,-2.594725,-0.5443841,0
1.0200000000000007,15.976449715975226,2.7964952072637965,-2.594084904124454,-1.3354160308998049,13.898016,0.63492763,-1.7558503,-1.2084264,10.267161,-9.93584,2.0792682,0.27932662,-0.2578612,0.35428518,0.8543803,-10.788955,4.929487,-0.13797222,2.6814482,-2.5947003,-0.5832003,0
1.0300000000000007,15.976449715975226,2.7964952072637965,-2.594084904124454,-1.3354160308998049,13.898016,0.63492763,-1.7558503,-1.2084264,10.159085,-9.885944,2.0778909,0.2899119,-0.24403994,0.36131614,0.8519658,-10.825557,5.0496974,-0.13742265,2.6993272,-2.594676,-0.6201117,0
1.0400000000000007,15.976449715975226,2.7964952072637965,-2.594084904124454,-1.3354160308998049,13.12193,0.45035812,-1.5132494,-1.1670736,10.050672,-9.834842,2.0765219,0.3005662,-0.23017213,0.36824316,0.8491626,-10.856321,5.1710744,-0.13631025,2.7144213,-2.5946522,-0.65521187,0
1.0500000000000007,15.976449715975226,2.7964952072637965,-2.594084904124454,-1.3354160308998049,13.12193,0.45035812,-1.5132494,-1.1670736,9.941979,-9.782519,2.0751662,0.31127262,-0.216263,0.37505603,0.84597397,-10.881188,5.2934375,-0.13475665,2.7271645,-2.5946286,-0.68858963,0
1.0600000000000007,15.976449715975226,2.7964952072637965,-2.594084904124454,-1.3354160308998049,13.12193,0.45035812,-1.5132494,-1.1670736,9.833068,-9.72897,2.0738277,0.32201546,-0.2023176,0.38174605,0.84240305,-10.900106,5.4166,-0.13288167,2.7379227,-2.5946054,-0.7203296,0
1.0700000000000007,15.976449715975226,2.7964952072637965,-2.594084904124454,-1.3354160308998049,13.12193,0.45035812,-1.5132494,-1.1670736,9.723998,-9.674185,2.0725093,0.33277994,-0.18834087,0.3883057,0.8384528,-10.9130335,5.5403705,-0.13080321,2.7470062,-2.5945828,-0.75051206,0
1.0800000000000007,15.840141076066491,2.0865389495296913,-2.1260755994052483,-1.3618233474794799,13.692204,0.09501264,-1.8257177,-1.1187867,9.614829,-9.61816,2.071212,0.3435522,-0.17433763,0.3947286,0.83412635,-10.919942,5.664551,-0.12863734,2.7546756,-2.5945604,-0.7792134,0
1.0900000000000007,15.840141076066491,2.0865389495296913,-2.1260755994052483,-1.3618233474794799,13.692204,0.09501264,-1.8257177,-1.1187867,9.50562,-9.560899,2.0699322,0.35420075,-0.16056916,0.40083894,0.8295099,-10.920826,5.787878,-0.1273498,2.65047,-2.521497,-0.80780226,0
1.1000000000000008,15.840141076066491,2.0865389495296913,-2.1260755994052483,-1.3618233474794799,13.692204,0.09501264,-1.8257177,-1.1187867,9.396432,-9.502403,2.0686648,0.36462876,-0.14724855,0.40650737,0.82469064,-10.915891,5.9111958,-0.1261689,2.562514,-2.4598303,-0.83498824,0
1.1100000000000008,15.840141076066491,2.0865389495296913,-2.1260755994052483,-1.3618233474794799,13.692204,0.09501264,-1.8257177,-1.1187867,9.28732,-9.442676,2.067408,0.37486964,-0.13431406,0.41179052,0.8196708,-10.9053135,6.034301,-0.12516366,2.4882736,-2.4077828,-0.86084014,0
1.1200000000000008,15.238465072542718,1.0789945177416853,-1.5785828599823806,-1.2142731646304312,13.770676,-0.35852554,-1.5265453,-0.9081103,9.178344,-9.381719,2.0661607,0.38494998,-0.121712856,0.41673532,0.814451,-10.889255,6.157005,-0.124397084,2.4256098,-2.3638546,-0.88542354,0
1.1300000000000008,15.238465072542718,1.0789945177416853,-1.5785828599823806,-1.2142731646304312,13.770676,-0.35852554,-1.5265453,-0.9081103,9.0695505,-9.31956,2.0649006,0.3947385,-0.109727375,0.42114246,0.80918455,-10.868698,6.274491,-0.12766314,2.215653,-2.2412944,-0.9015603,0
1.1400000000000008,15.238465072542718,1.0789945177416853,-1.5785828599823806,-1.2142731646304312,13.770676,-0.35852554,-1.5265453,-0.9081103,8.960987,-9.25623,2.0636065,0.40414077,-0.09858257,0.42486826,0.8040136,-10.843353,6.3912582,-0.13119918,2.038431,-2.1378615,-0.9169052,0
1.1500000000000008,15.238465072542718,1.0789945177416853,-1.5785828599823806,-1.2142731646304312,13.770676,-0.35852554,-1.5265453,-0.9081103,8.852699,-9.191738,2.062276,0.41322368,-0.08815766,0.42802146,0.79891884,-10.813558,6.507169,-0.1349782,1.88884,-2.0505712,-0.93149716,0
1.1600000000000008,14.887930462695037,0.04434574049733831,-1.0989654703178802,-0.9941851190897192,13.342111,-0.97109264,-0.9932351,-0.5882885,8.74473,-9.126091,2.0609064,0.4220413,-0.07834905,0.4306917,0.79388064,-10.779599,6.6221075,-0.1389739,1.7625719,-1.9769043,-0.945373,0
1.1700000000000008,14.887930462695037,0.04434574049733831,-1.0989654703178802,-0.9941851190897192,13.342111,-0.97109264,-0.9932351,-0.5882885,8.6371155,-9.059313,2.0594852,0.4305034,-0.06938469,0.4327104,0.7890586,-10.742625,6.733357,-0.14531128,1.4946969,-1.8398277,-0.9477683,0
1.1800000000000008,14.887930462695037,0.04434574049733831,-1.0989654703178802,-0.9941851190897192,13.342111,-0.97109264,-0.9932351,-0.5882885,8.529889,-8.991427,2.0579998,0.43854567,-0.061441675,0.43395627,0.7845915,-10.70225,6.843487,-0.15173015,1.2685843,-1.7241529,-0.95004594,0
1.1900000000000008,14.887930462695037,0.04434574049733831,-1.0989654703178802,-0.9941851190897192,13.342111,-0.97109264,-0.9932351,-0.5882885,8.423082,-8.922446,2.0564506,0.44624126,-0.054368366,0.43455866,0.78042984,-10.658864,6.952444,-0.15812254,1.077723,-1.6265388,-0.9522119,0
1.2000000000000008,14.541787977233149,-0.8819590807215844,-0.6935339413733737,-0.6968398940495762,13.168453,-1.6705072,-0.38582686,-0.25352338,8.316722,-8.852382,2.054838,0.4536493,-0.048035197,0.43462405,0.77652824,-10.612801,7.060193,-0.16439286,0.91661745,-1.5441654,-0.95427155,0
1.2100000000000009,14.541787977233149,-0.8819590807215844,-0.6935339413733737,-0.6968398940495762,13.168453,-1.6705072,-0.38582686,-0.25352338,8.210828,-8.781259,2.0531528,0.46070242,-0.042610727,0.43402943,0.77301705,-10.565492,7.164235,-0.17258695,0.63622457,-1.4113303,-0.9416393,0
1.2200000000000009,14.541787977233149,-0.8819590807215844,-0.6935339413733737,-0.6968398940495762,13.168453,-1.6705072,-0.38582686,-0.25352338,8.105417,-8.709102,2.0513873,0.46734944,-0.03822225,0.43268567,0.7700039,-10.516258,7.2670736,-0.18043025,0.39954364,-1.2992421,-0.92962694,0
1.2300000000000009,14.541787977233149,-0.8819590807215844,-0.6935339413733737,-0.6968398940495762,13.168453,-1.6705072,-0.38582686,-0.25352338,8.000508,-8.6359215,2.0495458,0.47365463,-0.034711406,0.43071705,0.76741683,-10.465482,7.3687234,-0.18778247,0.19976015,-1.2046599,-0.918204,0
1.2400000000000009,14.541787977233149,-0.8819590807215844,-0.6935339413733737,-0.6968398940495762,13.307749,-2.1451285,-0.38481918,-0.03375623,7.896113,-8.56173,2.047634,0.4796699,-0.031943504,0.42822576,0.7651918,-10.413483,7.4692016,-0.1945242,0.031122379,-1.1248491,-0.9073416,0
1.2500000000000009,14.541787977233149,-0.8819590807215844,-0.6935339413733737,-0.6968398940495762,13.307749,-2.1451285,-0.38481918,-0.03375623,7.792242,-8.486541,2.045658,0.48543742,-0.029804096,0.42529604,0.7632725,-10.360535,7.568529,-0.20055503,-0.111225285,-1.0575024,-0.8970122,0
1.260000000000001,14.541787977233149,-0.8819590807215844,-0.6935339413733737,-0.6968398940495762,13.307749,-2.1451285,-0.38481918,-0.03375623,7.6889043,-8.410363,2.0436258,0.49099162,-0.028196001,0.42199767,0.7616099,-10.306871,7.6667266,-0.2057912,-0.23138116,-1.0006729,-0.88718975,0
1.270000000000001,14.541787977233149,-0.8819590807215844,-0.6935339413733737,-0.6968398940495762,13.307749,-2.1451285,-0.38481918,-0.03375623,7.586107,-8.333209,2.0415454,0.4963607,-0.027036754,0.41838846,0.7601616,-10.252691,7.763813,-0.21016368,-0.33280495,-0.95271826,-0.8778492,0
1.280000000000001,14.153344472012165,-1.446734034745245,-0.38206300459100984,-0.39892067711090257,13.432356,-2.875733,-0.6172366,0.31459555,7.483852,-8.25509,2.0394258,0.501568,-0.026256405,0.4145165,0.7588911,-10.198165,7.859807,-0.21361609,-0.41841692,-0.91225207,-0.86896706,0
1.290000000000001,14.153344472012165,-1.446734034745245,-0.38206300459100984,-0.39892067711090257,13.432356,-2.875733,-0.6172366,0.31459555,7.382137,-8.176029,2.0372636,0.5065475,-0.025988763,0.4103143,0.757876,-10.1449175,7.9521937,-0.21865207,-0.57872313,-0.8294874,-0.8459017,0
1.300000000000001,14.153344472012165,-1.446734034745245,-0.38206300459100984,-0.39892067711090257,13.432356,-2.875733,-0.6172366,0.31459555,7.280954,-8.09605,2.035056,0.5112442,-0.02633576,0.40573102,0.7571775,-10.091713,8.043575,-0.222676,-0.7140396,-0.7596473,-0.82396823,0
1.310000000000001,14.153344472012165,-1.446734034745245,-0.38206300459100984,-0.39892067711090257,13.432356,-2.875733,-0.6172366,0.31459555,7.1803017,-8.015162,2.0328135,0.51569057,-0.027199548,0.40082547,0.7567443,-10.038772,8.133992,-0.22562526,-0.82826155,-0.7007132,-0.803111,0
1.320000000000001,14.007588351804381,-1.7121351183765219,-0.213666113403507,-0.13025758003980947,13.630591,-3.10039,-0.6996722,0.50994414,7.0801764,-7.933375,2.0305474,0.5199135,-0.02849733,0.39564654,0.7565325,-9.986284,8.223479,-0.22745158,-0.9246775,-0.65098137,-0.7832773,0
1.330000000000001,14.007588351804381,-1.7121351183765219,-0.213666113403507,-0.13025758003980947,13.630591,-3.10039,-0.6996722,0.50994414,6.980571,-7.850701,2.0282636,0.52388066,-0.030252328,0.39019078,0.75656116,-9.934957,8.311156,-0.2291206,-1.047434,-0.58274144,-0.75123346,0
1.340000000000001,14.007588351804381,-1.7121351183765219,-0.213666113403507,-0.13025758003980947,13.630591,-3.10039,-0.6996722,0.50994414,6.8814745,-7.767154,2.0259688,0.52756375,-0.032478046,0.38445738,0.75684476,-9.884434,8.397986,-0.22960407,-1.1510551,-0.5251562,-0.720762,0
1.350000000000001,14.007588351804381,-1.7121351183765219,-0.213666113403507,-0.13025758003980947,13.630591,-3.10039,-0.6996722,0.50994414,6.782879,-7.682744,2.0236757,0.5309891,-0.035096765,0.37848732,0.7573413,-9.834891,8.484005,-0.22887358,-1.2385234,-0.4765618,-0.69178575,0
1.360000000000001,13.624528795693662,-1.6687943299623609,-0.3194811256905591,0.11734949896049839,14.1712475,-3.1518922,-0.77080274,0.80019087,6.684773,-7.597477,2.0213957,0.53417903,-0.038042903,0.37231496,0.75801504,-9.786482,8.569241,-0.22691162,-1.3123566,-0.43555352,-0.6642314,0
1.370000000000001,13.624528795693662,-1.6687943299623609,-0.3194811256905591,0.11734949896049839,14.1712475,-3.1518922,-0.77080274,0.80019087,6.5871387,-7.511373,2.0191278,0.53714573,-0.041208386,0.36596084,0.758847,-9.740623,8.651405,-0.2264796,-1.3679247,-0.41746223,-0.6258791,0
1.380000000000001,13.624528795693662,-1.6687943299623609,-0.3194811256905591,0.11734949896049839,14.1712475,-3.1518922,-0.77080274,0.80019087,6.4899564,-7.424451,2.0168705,0.53989685,-0.04450332,0.35944283,0.7598233,-9.69609,8.732834,-0.22483659,-1.4148295,-0.4021966,-0.5894087,0
1.390000000000001,13.624528795693662,-1.6687943299623609,-0.3194811256905591,0.11734949896049839,14.1712475,-3.1518922,-0.77080274,0.80019087,6.3932123,-7.3367186,2.0146356,0.5424441,-0.047901344,0.35278416,0.76092243,-9.652963,8.813524,-0.22198346,-1.4544214,-0.38931468,-0.55472785,0
1.400000000000001,13.360473779791995,-1.4202460904265155,-0.39656535814663535,0.29747577519316826,14.224125,-3.0371342,-0.9761994,1.0117157,6.2968917,-7.248183,2.0124352,0.5447982,-0.05138047,0.34600446,0.76212573,-9.611314,8.893474,-0.21792693,-1.4878407,-0.378444,-0.52174884,0
1.410000000000001,13.360473779791995,-1.4202460904265155,-0.39656535814663535,0.29747577519316826,14.224125,-3.0371342,-0.9761994,1.0117157,6.2009764,-7.1588593,2.0102713,0.5469678,-0.05483696,0.33918068,0.7633972,-9.571977,8.97114,-0.21468349,-1.4772905,-0.38131237,-0.48154926,0
1.420000000000001,13.360473779791995,-1.4202460904265155,-0.39656535814663535,0.29747577519316826,14.224125,-3.0371342,-0.9761994,1.0117157,6.1054463,-7.068763,2.0081456,0.5489599,-0.05818683,0.3323758,0.7647113,-9.53416,9.048061,-0.21030064,-1.4683856,-0.38373044,-0.44332224,0
1.430000000000001,13.360473779791995,-1.4202460904265155,-0.39656535814663535,0.29747577519316826,14.224125,-3.0371342,-0.9761994,1.0117157,6.0102873,-6.9779005,2.0060692,0.55078113,-0.061440114,0.3255862,0.76606697,-9.497867,9.124229,-0.20480926,-1.4608699,-0.38576892,-0.4069711,0
1.440000000000001,13.360473779791995,-1.4202460904265155,-0.39656535814663535,0.29747577519316826,14.483507,-2.8044877,-1.1983078,1.0733143,5.915484,-6.8862805,2.004053,0.55243814,-0.064605705,0.31880885,0.7674627,-9.4630995,9.199631,-0.19823927,-1.4545262,-0.38748717,-0.3724037,0
1.450000000000001,13.360473779791995,-1.4202460904265155,-0.39656535814663535,0.29747577519316826,14.483507,-2.8044877,-1.1983078,1.0733143,5.82102,-6.79391,2.002108,0.5539369,-0.067691475,0.31204125,0.7688965,-9.429861,9.274254,-0.19061965,-1.4491723,-0.38893545,-0.33953252,0
1.460000000000001,13.360473779791995,-1.4202460904265155,-0.39656535814663535,0.29747577519316826,14.483507,-2.8044877,-1.1983078,1.0733143,5.7268815,-6.700798,2.0002444,0.55528337,-0.07070445,0.3052813,0.77036643,-9.398157,9.348086,-0.1819789,-1.4446534,-0.39015576,-0.30827436,0
1.470000000000001,13.360473779791995,-1.4202460904265155,-0.39656535814663535,0.29747577519316826,14.483507,-2.8044877,-1.1983078,1.0733143,5.633052,-6.606951,1.998472,0.5564832,-0.073650904,0.29852718,0.77187,-9.367992,9.421117,-0.17234485,-1.4408398,-0.39118415,-0.27855003,0
1.480000000000001,13.283696591246116,-0.9765028677105205,-0.5042560671909777,0.4105268894232815,13.3294935,-2.783115,-1.1846869,1.1569214,5.539516,-6.5123787,1.9968008,0.55754185,-0.07653642,0.2917774,0.77340484,-9.339373,9.493333,-0.16174497,-1.4376211,-0.3920505,-0.2502843,0
1.490000000000001,13.283696591246116,-0.9765028677105205,-0.5042560671909777,0.4105268894232815,13.3294935,-2.783115,-1.1846869,1.1569214,5.4462585,-6.4170904,1.9952372,0.55848014,-0.07922958,0.2851454,0.77492875,-9.312448,9.564312,-0.15083899,-1.3657042,-0.40958956,-0.21785812,0
1.500000000000001,13.283696591246116,-0.9765028677105205,-0.5042560671909777,0.4105268894232815,13.3294935,-2.783115,-1.1846869,1.1569214,5.3532624,-6.3210955,1.993787,0.55931604,-0.08162627,0.27872238,0.77641255,-9.286988,9.634459,-0.13904546,-1.3050022,-0.42438757,-0.18702307,0
1.5100000000000011,13.283696591246116,-0.9765028677105205,-0.5042560671909777,0.4105268894232815,13.3294935,-2.783115,-1.1846869,1.1569214,5.2605143,-6.224404,1.9924592,0.56005013,-0.08376812,0.27247694,0.7778708,-9.262919,9.703763,-0.12640733,-1.2537663,-0.43687338,-0.1577011,0
1.5200000000000011,12.955744012881866,-0.4366742287748633,-0.6362692889355239,0.4881034003724643,13.573107,-2.284535,-1.4759777,1.1586137,5.1679997,-6.127023,1.9912617,0.5606833,-0.08569062,0.26638246,0.7793149,-9.240177,9.772217,-0.11296199,-1.2105201,-0.44740808,-0.12981798,0
1.5300000000000011,12.955744012881866,-0.4366742287748633,-0.6362692889355239,0.4881034003724643,13.573107,-2.284535,-1.4759777,1.1586137,5.0757036,-6.0289707,1.9901886,0.56124234,-0.087259136,0.2605561,0.78070694,-9.219227,9.838141,-0.10151805,-1.0898325,-0.4768927,-0.09949639,0
1.5400000000000011,12.955744012881866,-0.4366742287748633,-0.6362692889355239,0.4881034003724643,13.573107,-2.284535,-1.4759777,1.1586137,4.983611,-5.930263,1.9892336,0.5617497,-0.08836858,0.25509056,0.7820211,-9.199378,9.903223,-0.0893666,-0.987965,-0.50177276,-0.0706627,0
1.5500000000000012,12.955744012881866,-0.4366742287748633,-0.6362692889355239,0.4881034003724643,13.573107,-2.284535,-1.4759777,1.1586137,4.891712,-5.8309093,1.9884034,0.5622003,-0.08908671,0.24993166,0.78328055,-9.180499,9.967458,-0.07655007,-0.9019831,-0.52276766,-0.043243892,0
1.5600000000000012,12.541695319868463,0.07081964077730687,-0.9407961312971179,0.5438526044229908,14.46199,-2.2344432,-1.8893199,1.6228355,4.7999983,-5.7309175,1.9877046,0.56259024,-0.08947102,0.24503335,0.78450346,-9.1624775,10.030843,-0.06310374,-0.8294097,-0.5404845,-0.01717053,0
1.5700000000000012,12.541695319868463,0.07081964077730687,-0.9407961312971179,0.5438526044229908,14.46199,-2.2344432,-1.8893199,1.6228355,4.708457,-5.6303062,1.9871254,0.562959,-0.08935865,0.24044794,0.7856697,-9.145756,10.091373,-0.05264178,-0.6890094,-0.60292673,0.010359039,0
1.5800000000000012,12.541695319868463,0.07081964077730687,-0.9407961312971179,0.5438526044229908,14.46199,-2.2344432,-1.8893199,1.6228355,4.6170807,-5.5290933,1.9866536,0.56333727,-0.088622905,0.23621514,0.78676516,-9.129596,10.151055,-0.041625913,-0.57050306,-0.65562636,0.03653771,0
1.5900000000000012,12.541695319868463,0.07081964077730687,-0.9407961312971179,0.5438526044229908,14.46199,-2.2344432,-1.8893199,1.6228355,4.5258636,-5.4272876,1.9862946,0.5637099,-0.08735754,0.23228146,0.7878102,-9.113833,10.209863,-0.03007916,-0.4704768,-0.70010364,0.06143179,0
1.6000000000000012,12.262999113910936,0.3467221622658599,-0.9186260050150333,0.6040953045841164,14.9850025,-2.3201687,-2.6535428,2.1310127,4.4348025,-5.324899,1.9860537,0.56406456,-0.08564188,0.22860137,0.7888205,-9.098329,10.267778,-0.01802129,-0.38604912,-0.73764217,0.08510432,0
1.6100000000000012,12.262999113910936,0.3467221622658599,-0.9186260050150333,0.6040953045841164,14.9850025,-2.3201687,-2.6535428,2.1310127,4.3438945,-5.221942,1.9859235,0.5643927,-0.08348611,0.22522889,0.78978646,-9.0833025,10.323519,-0.007930433,-0.27175957,-0.7658646,0.11057137,0
1.6200000000000012,12.262999113910936,0.3467221622658599,-0.9186260050150333,0.6040953045841164,14.9850025,-2.3201687,-2.6535428,2.1310127,4.2531366,-5.118432,1.9858967,0.5646863,-0.080901735,0.2222049,0.7907016,-9.068276,10.37837,0.0026141698,-0.17529362,-0.78968346,0.13478872,0
1.6300000000000012,12.262999113910936,0.3467221622658599,-0.9186260050150333,0.6040953045841164,14.9850025,-2.3201687,-2.6535428,2.1310127,4.16253,-5.014378,1.9859774,0.5649373,-0.077952564,0.21947567,0.7915803,-9.053128,10.432333,0.013585017,-0.09387159,-0.8097863,0.15781774,0
1.6400000000000012,12.262999113910936,0.3467221622658599,-0.9186260050150333,0.6040953045841164,15.427848,-2.2592764,-3.135065,2.6397452,4.072076,-4.909789,1.9861697,0.56513923,-0.07469263,0.21699563,0.7924338,-9.037753,10.485411,0.024957616,-0.025147723,-0.82675314,0.1797167,0
1.6500000000000012,12.262999113910936,0.3467221622658599,-0.9186260050150333,0.6040953045841164,15.427848,-2.2592764,-3.135065,2.6397452,3.9817762,-4.8046737,1.9864779,0.56528705,-0.071167685,0.21472608,0.7932706,-9.022062,10.537606,0.03670969,0.032858264,-0.8410736,0.20054106,0
1.6600000000000013,12.262999113910936,0.3467221622658599,-0.9186260050150333,0.6040953045841164,15.427848,-2.2592764,-3.135065,2.6397452,3.891636,-4.6990404,1.9869052,0.5653768,-0.06741653,0.21263413,0.79409736,-9.005981,10.588919,0.048820697,0.08181761,-0.8531604,0.22034357,0
1.6700000000000013,12.262999113910936,0.3467221622658599,-0.9186260050150333,0.6040953045841164,15.427848,-2.2592764,-3.135065,2.6397452,3.8016584,-4.5928984,1.9874554,0.56540585,-0.06347205,0.21069193,0.794919,-8.989449,10.639349,0.061271463,0.12314134,-0.8633624,0.23917438,0
1.6800000000000013,11.908170097125542,0.32518925845969926,-0.8350909233444318,0.7002581051925445,13.942949,-1.3575313,-2.6289263,1.8271728,3.7118487,-4.486256,1.9881318,0.56537235,-0.059362147,0.20887582,0.7957393,-8.972409,10.688897,0.07404386,0.15802017,-0.8719734,0.25708115,0
1.6900000000000013,11.908170097125542,0.32518925845969926,-0.8350909233444318,0.7002581051925445,13.942949,-1.3575313,-2.6289263,1.8271728,3.6222098,-4.37913,1.9889212,0.56525826,-0.05513953,0.20717849,0.7965675,-8.955328,10.736155,0.083903216,0.18410143,-0.86621463,0.27882797,0
1.7000000000000013,11.908170097125542,0.32518925845969926,-0.8350909233444318,0.7002581051925445,13.942949,-1.3575313,-2.6289263,1.8271728,3.5327442,-4.271536,1.9898107,0.56504864,-0.05084704,0.20559306,0.7974122,-8.937681,10.782566,0.09403864,0.20611471,-0.8613542,0.29950768,0
1.7100000000000013,11.908170097125542,0.32518925845969926,-0.8350909233444318,0.7002581051925445,13.942949,-1.3575313,-2.6289263,1.8271728,3.443458,-4.163481,1.9908029,0.5647468,-0.046493318,0.20410164,0.79827446,-8.919447,10.828142,0.10443152,0.22469448,-0.8572518,0.31917262,0
1.7200000000000013,11.562079458989702,0.1333439979971748,-0.7607038376308409,0.856330794758948,14.421297,-1.4865792,-3.2075708,2.3366106,3.3543572,-4.0549755,1.9919002,0.564356,-0.042085785,0.20268902,0.7991548,-8.900603,10.8728895,0.115064524,0.24037623,-0.8537896,0.3378726,0
1.7300000000000013,11.562079458989702,0.1333439979971748,-0.7607038376308409,0.856330794758948,14.421297,-1.4865792,-3.2075708,2.3366106,3.2654455,-3.9460328,1.9930891,0.56385505,-0.037694048,0.20129853,0.80007863,-8.881702,10.915542,0.122755446,0.22369547,-0.83927286,0.3633135,0
1.7400000000000013,11.562079458989702,0.1333439979971748,-0.7607038376308409,0.856330794758948,14.421297,-1.4865792,-3.2075708,2.3366106,3.1767256,-3.8366675,1.9943559,0.56322587,-0.03337319,0.19988452,0.8010676,-8.862211,10.957404,0.13065398,0.20961538,-0.82702,0.38750598,0
1.7500000000000013,11.562079458989702,0.1333439979971748,-0.7607038376308409,0.856330794758948,14.421297,-1.4865792,-3.2075708,2.3366106,3.0882034,-3.7268875,1.9957027,0.5624764,-0.02910964,0.19844994,0.80211645,-8.842148,10.9984865,0.1387515,0.19773057,-0.81667805,0.41051134,0
1.7600000000000013,11.179116886669894,-0.31854438124505313,-0.8488035850024918,1.0569840257166923,13.796247,-1.1753262,-3.1115303,2.4742851,2.9998846,-3.6167002,1.9971316,0.5616136,-0.024892097,0.19699718,0.80322033,-8.821529,11.038792,0.14703968,0.18769874,-0.8079489,0.43238783,0
1.7700000000000014,11.179116886669894,-0.31854438124505313,-0.8488035850024918,1.0569840257166923,13.796247,-1.1753262,-3.1115303,2.4742851,2.911771,-3.5061207,1.9986265,0.56062645,-0.02077941,0.19536372,0.8044249,-8.801075,11.077012,0.15198354,0.10876851,-0.8143402,0.46303695,0
1.7800000000000014,11.179116886669894,-0.31854438124505313,-0.8488035850024918,1.0569840257166923,13.796247,-1.1753262,-3.1115303,2.4742851,2.8238647,-3.3951628,2.000172,0.55950475,-0.016816972,0.19342051,0.8057668,-8.780163,11.11446,0.15711935,0.042146523,-0.81973386,0.4921821,0
1.7900000000000014,11.179116886669894,-0.31854438124505313,-0.8488035850024918,1.0569840257166923,13.796247,-1.1753262,-3.1115303,2.4742851,2.7361696,-3.2838342,2.0017693,0.5582554,-0.012978137,0.19121447,0.8072295,-8.758859,11.151105,0.16246258,-0.014086638,-0.8242855,0.5198971,0
1.8000000000000014,10.953768248350396,-1.0486642673631277,-0.4888530618554146,1.3303540623969932,15.505922,-1.6731005,-3.7064602,2.5623596,2.6486888,-3.1721432,2.0034215,0.5568843,-0.009240661,0.18878514,0.8087983,-8.737214,11.186922,0.16802496,-0.061551202,-0.8281261,0.5462521,0
1.8100000000000014,10.953768248350396,-1.0486642673631277,-0.4888530618554146,1.3303540623969932,15.505922,-1.6731005,-3.7064602,2.5623596,2.561424,-3.060102,2.0051203,0.55534005,-0.0058587473,0.18600982,0.8105328,-8.715734,11.221187,0.17172347,-0.21549028,-0.77527666,0.5847282,0
1.8200000000000014,10.953768248350396,-1.0486642673631277,-0.4888530618554146,1.3303540623969932,15.505922,-1.6731005,-3.7064602,2.5623596,2.4743748,-2.9477222,2.0068572,0.5535805,-0.0030320752,0.18279213,0.81248164,-8.694118,11.254615,0.17567138,-0.3454228,-0.73066646,0.62131625,0
1.8300000000000014,10.953768248350396,-1.0486642673631277,-0.4888530618554146,1.3303540623969932,15.505922,-1.6731005,-3.7064602,2.5623596,2.3875418,-2.8350124,2.0086346,0.5516222,-0.0006703041,0.17919825,0.81461674,-8.672514,11.287203,0.1798932,-0.45509243,-0.6930104,0.6561089,0
1.8400000000000014,10.953768248350396,-1.0486642673631277,-0.4888530618554146,1.3303540623969932,15.753127,-2.113042,-3.7777538,2.920811,2.300924,-2.7219808,2.010456,0.5494788,0.0013025,0.17528415,0.81691295,-8.651046,11.318947,0.18440855,-0.5476588,-0.6612233,0.6891943,0
1.8500000000000014,10.953768248350396,-1.0486642673631277,-0.4888530618554146,1.3303540623969932,15.753127,-2.113042,-3.7777538,2.920811,2.21452,-2.6086361,2.012324,0.5471618,0.0029501223,0.17109706,0.81934786,-8.629816,11.349838,0.1892326,-0.6257893,-0.6343901,0.72065616,0
1.8600000000000014,10.953768248350396,-1.0486642673631277,-0.4888530618554146,1.3303540623969932,15.753127,-2.113042,-3.7777538,2.920811,2.1283264,-2.4949868,2.014242,0.5446812,0.00432611,0.16667701,0.8219017,-8.608911,11.379873,0.1943764,-0.6917351,-0.611738,0.75057423,0
1.8700000000000014,10.953768248350396,-1.0486642673631277,-0.4888530618554146,1.3303540623969932,15.753127,-2.113042,-3.7777538,2.920811,2.04234,-2.3810415,2.0162127,0.54204524,0.0054753856,0.16205792,0.82455695,-8.588401,11.409042,0.19984728,-0.7473964,-0.59261525,0.77902424,0
1.8800000000000014,10.859780535588117,-1.730826273341954,-0.26776828925431057,1.6551461467440458,16.175922,-2.1847472,-4.3553205,3.4996917,1.9565568,-2.2668087,2.01824,0.53926146,0.006435616,0.15726852,0.8272982,-8.568347,11.437337,0.20564947,-0.79437685,-0.57647157,0.80607814,0
1.8900000000000015,10.859780535588117,-1.730826273341954,-0.26776828925431057,1.6551461467440458,16.175922,-2.1847472,-4.3553205,3.4996917,1.8709706,-2.152299,2.0203223,0.5362909,0.007024475,0.15215425,0.8301758,-8.548979,11.464511,0.21089272,-0.9404264,-0.5284315,0.8477422,0
1.9000000000000015,10.859780535588117,-1.730826273341954,-0.26776828925431057,1.6551461467440458,16.175922,-2.1847472,-4.3553205,3.4996917,1.785575,-2.0375218,2.0224593,0.53309745,0.007100149,0.14659229,0.83322716,-8.530254,11.4907875,0.21648559,-1.0636984,-0.4878764,0.8873617,0
1.9100000000000015,10.859780535588117,-1.730826273341954,-0.26776828925431057,1.6551461467440458,16.175922,-2.1847472,-4.3553205,3.4996917,1.7003629,-1.9224864,2.024654,0.5296909,0.006746013,0.14064813,0.8364211,-8.512307,11.516147,0.2224439,-1.1677452,-0.45363945,0.9250371,0
1.9200000000000015,10.753311999490686,-2.363908308026511,-0.09715266624898193,1.9298317957891824,16.192911,-2.4495347,-4.1887684,3.605942,1.6153259,-1.8072022,2.0269098,0.5260797,0.0060320473,0.13437739,0.8397301,-8.495251,11.5405655,0.22877629,-1.2555647,-0.4247351,0.96086377,0
1.9300000000000015,10.753311999490686,-2.363908308026511,-0.09715266624898193,1.9298317957891824,16.192911,-2.4495347,-4.1887684,3.605942,1.5304538,-1.6916797,2.0292258,0.5222344,0.0048311995,0.12764974,0.8431806,-8.479348,11.563787,0.23446006,-1.4284304,-0.37380087,1.0084113,0
1.9400000000000015,10.753311999490686,-2.363908308026511,-0.09715266624898193,1.9298317957891824,16.192911,-2.4495347,-4.1887684,3.605942,1.445735,-1.57593,2.0316005,0.5181258,0.0030467028,0.12036281,0.84678763,-8.46459,11.586012,0.24053031,-1.574336,-0.33079973,1.0536257,0
1.9500000000000015,10.753311999490686,-2.363908308026511,-0.09715266624898193,1.9298317957891824,16.192911,-2.4495347,-4.1887684,3.605942,1.3611574,-1.4599632,2.0340376,0.51376086,0.0007731843,0.112598374,0.85051215,-8.451133,11.607194,0.24699274,-1.697486,-0.29449445,1.0966213,0
1.9600000000000015,10.719690627334433,-2.759663578353372,0.0010337439048899717,2.067556784472873,15.701864,-2.9387317,-4.0734906,3.9863994,1.2767074,-1.34379,2.0365415,0.5091457,-0.0019099142,0.10442618,0.8543198,-8.439105,11.627291,0.25384292,-1.801429,-0.2638413,1.1375071,0
1.9700000000000015,10.719690627334433,-2.759663578353372,0.0010337439048899717,2.067556784472873,15.701864,-2.9387317,-4.0734906,3.9863994,1.1923699,-1.2274218,2.0391142,0.50426644,-0.0050480785,0.09579006,0.85820407,-8.428653,11.646194,0.26073942,-1.9508889,-0.22270267,1.1831449,0
1.9800000000000015,10.719690627334433,-2.759663578353372,0.0010337439048899717,2.067556784472873,15.701864,-2.9387317,-4.0734906,3.9863994,1.1081285,-1.1108704,2.0417573,0.4991084,-0.0086734,0.08664805,0.862153,-8.419875,11.66391,0.26799557,-2.0770383,-0.18796676,1.2265432,0
1.9900000000000015,10.719690627334433,-2.759663578353372,0.0010337439048899717,2.067556784472873,15.701864,-2.9387317,-4.0734906,3.9863994,1.0239662,-0.99414796,2.0444753,0.49367607,-0.012706538,0.0770748,0.86613053,-8.412901,11.680376,0.2755884,-2.1835124,-0.15863582,1.267812,0
2.0000000000000013,,,,,15.500342,-3.0213034,-3.8902888,4.123962,0.93986404,-0.87726736,2.0472703,0.4879739,-0.017080821,0.06713431,0.870105,-8.407832,11.695533,0.2834851,-2.2733798,-0.13386759,1.3070557,0
2.010000000000001,,,,,15.500342,-3.0213034,-3.8902888,4.123962,0.8558033,-0.7602396,2.0501637,0.48196733,-0.021885464,0.056745935,0.8740757,-8.404657,11.709787,0.2952537,-2.4237523,-0.08854027,1.3584121,0
2.020000000000001,,,,,15.500342,-3.0213034,-3.8902888,4.123962,0.7717634,-0.6430767,2.0531762,0.4756219,-0.02718735,0.045848157,0.87803334,-8.403681,11.7225485,0.3072469,-2.5506713,-0.05026616,1.4072485,0
2.0300000000000007,,,,,15.500342,-3.0213034,-3.8902888,4.123962,0.6877217,-0.525794,2.0563092,0.46894267,-0.032904863,0.03451843,0.8819402,-8.405026,11.733737,0.31940684,-2.6577942,-0.01794622,1.4536884,0
2.0400000000000005,,,,,15.500342,-3.0213034,-3.8902888,4.123962,0.60365456,-0.40840763,2.0595644,0.4619349,-0.03896925,0.022823516,0.8857633,-8.4087925,11.743276,0.33166552,-2.7482083,0.009347346,1.4978496,0
2.0500000000000003,,,,,15.945257,-3.5225003,-3.9623194,4.400797,0.5195373,-0.29093444,2.0629423,0.45460427,-0.04532254,0.010821147,0.8894738,-8.415052,11.751089,0.34394628,-2.8245196,0.032397397,1.5398437,1
2.06,,,,,15.945257,-3.5225003,-3.9623194,4.400797,0.43532115,-0.17337437,2.0667548,0.44678253,-0.050661758,-0.0017685913,0.8932052,-8.428725,11.76042,0.41808203,-2.7917774,-0.44970417,1.6675928,1
2.07,,,,,15.945257,-3.5225003,-3.9623194,4.400797,0.350952,-0.05573827,2.0712917,0.43827572,-0.05390082,-0.015300384,0.8970925,-8.44554,11.766205,0.48879308,-2.7983258,-0.89087176,1.7921319,1
2.0799999999999996,,,,,15.945257,-3.5225003,-3.9623194,4.400797,0.26640177,0.06193574,2.0765185,0.42904878,-0.055286024,-0.029826947,0.9010943,-8.464852,11.767925,0.5560684,-2.8375468,-1.2969944,1.9135745,1
2.0899999999999994,,,,,17.280966,-4.0879917,-4.573189,4.393932,0.18164831,0.1796047,2.082401,0.41906473,-0.055024114,-0.045388233,0.9051503,-8.486096,11.765125,0.6198751,-2.9038534,-1.6730423,2.032028,1
2.099999999999999,,,,,17.280966,-4.0879917,-4.573189,4.393932,0.09666498,0.2972182,2.0889742,0.40826523,-0.053171348,-0.06228951,0.90918225,-8.510762,11.756705,0.69408524,-3.0729914,-2.11098,2.1465726,1
2.109999999999999,,,,,17.280966,-4.0879917,-4.573189,4.393932,0.011428349,0.41471788,2.0962763,0.39659226,-0.049788266,-0.08073365,0.91308147,-8.536774,11.742219,0.76620054,-3.2305655,-2.4954123,2.2568512,1
2.1199999999999988,,,,,17.280966,-4.0879917,-4.573189,4.393932,-0.074074335,0.5320391,2.104295,0.38403484,-0.04509499,-0.10047042,0.91672754,-8.563904,11.72091,0.8374197,-3.363613,-2.8198655,2.3617184,1
2.1299999999999986,,,,,16.973816,-4.5523586,-4.6812873,4.4226227,-0.15985207,0.64911073,2.1130202,0.37059376,-0.039292537,-0.12125612,0.9200072,-8.591713,11.692217,0.90743226,-3.4759583,-3.093694,2.46144,1
2.1399999999999983,,,,,16.973816,-4.5523586,-4.6812873,4.4226227,-0.24590692,0.76585966,2.1224234,0.3562598,-0.032583296,-0.14306764,0.9227941,-8.619263,11.65634,0.97291625,-3.6432164,-3.3417745,2.5576758,1
2.149999999999998,,,,,16.973816,-4.5523586,-4.6812873,4.4226227,-0.33223677,0.8822097,2.132472,0.34102958,-0.025137655,-0.16586967,0.9249617,-8.646649,11.612373,1.0364401,-3.784437,-3.5511315,2.6491895,1
2.159999999999998,,,,,16.973816,-4.5523586,-4.6812873,4.4226227,-0.41883796,0.99807835,2.143144,0.32492206,-0.017076038,-0.18944907,0.92641413,-8.673468,11.560018,1.0975393,-3.9036784,-3.7278059,2.7362125,1
2.1699999999999977,,,,,13.813107,-4.357392,-3.8988938,4.572963,-0.50570273,1.1133807,2.1544125,0.3079615,-0.008504998,-0.21362011,0.9270674,-8.699297,11.4990835,1.1557219,-4.004366,-3.8768961,2.818965,1
2.1799999999999975,,,,,13.813107,-4.357392,-3.8988938,4.572963,-0.5927961,1.2280939,2.1661034,0.29023093,0.00020983629,-0.23805457,0.92687446,-8.719173,11.442465,1.1820197,-4.059196,-3.880655,2.905034,1
2.1899999999999973,,,,,13.813107,-4.357392,-3.8988938,4.572963,-0.6800813,1.3422062,2.1780417,0.27181742,0.008767271,-0.26248994,0.9258174,-8.73764,11.378919,1.2051485,-4.1054864,-3.883806,2.9868798,1
