t,px,py,pz,qx,qy,qz,qw,vx,vy,vz,wx,wy,wz,throttle_mpc,roll_mpc,pitch_mpc,yaw_mpc,throttle_nw,roll_nw,pitch_nw,yaw_nw,network_used
-2.0,18.548475,-10.101478,1.8503116000000002,0.47140659999999995,-0.26648182,-0.8386246999999999,-0.05892211,-11.501443,-2.293413,-0.9661508,0.90999645,0.28477803,0.7463818,10.210127548603399,5.999999777224428,-5.999999945598472,-4.7253845914100685,3.5694826,-2.356838,-2.3649616,0.19247016,0
-1.99,18.432724,-10.123923,1.8405598,0.47127240000000004,-0.27170056,-0.83709604,-0.05789038,-11.648133999999999,-2.1957362000000002,-0.98469377,0.81479067,0.19358316,0.5628656999999999,10.210127548603399,5.999999777224428,-5.999999945598472,-4.7253845914100685,14.9842,-2.9102004,-5.8288535999999995,0.5059243,0
-1.98,18.315527,-10.145397,1.8306078999999997,0.47104487,-0.27609575,-0.83581024,-0.0575245,-11.790908,-2.099183,-1.0061196,0.7356716999999999,0.115373924,0.38396057,10.210127548603399,5.999999777224428,-5.999999945598472,-4.7253845914100685,14.9842,-2.9102004,-5.8288535999999995,0.5059243,0
-1.97,18.196915,-10.165907,1.8204308999999999,0.47073847,-0.27977577,-0.83473605,-0.057849452,-11.930997999999999,-2.0030665,-1.0295425999999999,0.68711215,0.031148903,0.21099117,10.210127548603399,5.999999777224428,-5.999999945598472,-4.7253845914100685,14.9842,-2.9102004,-5.8288535999999995,0.5059243,0
-1.96,18.076916,-10.185458,1.8100116999999998,0.47029442,-0.28289434,-0.8338589,-0.058934982999999996,-12.068811,-1.9071754,-1.0545434999999999,0.67181516,-0.06563491,0.044212215,10.210127548603399,5.999999777224428,-5.999999945598472,-4.7253845914100685,5.635174,-1.2833241000000002,-4.4199557,-0.31628624,0
-1.95,17.95555,-10.204051,1.7993351999999998,0.46964902,-0.28559178,-0.8331656,-0.060846794,-12.204213000000001,-1.8115852,-1.0809871000000002,0.68540287,-0.17384261,-0.116752855,10.210127548603399,5.999999777224428,-5.999999945598472,-4.7253845914100685,5.635174,-1.2833241000000002,-4.4199557,-0.31628624,0
-1.94,17.83284,-10.221689999999999,1.7883877000000001,0.46874259999999995,-0.2879894,-0.8326418,-0.063640855,-12.337052,-1.7163175,-1.1087421999999998,0.7240404,-0.2923719,-0.27224940000000003,10.210127548603399,5.999999777224428,-5.999999945598472,-4.7253845914100685,5.635174,-1.2833241000000002,-4.4199557,-0.31628624,0
-1.93,17.708817,-10.238379,1.7771563999999997,0.46751925,-0.29019140000000004,-0.83227205,-0.06736434,-12.467162,-1.6213517,-1.1376808999999999,0.7843627,-0.4201634,-0.4225945,10.210127548603399,5.999999777224428,-5.999999945598472,-4.7253845914100685,5.635174,-1.2833241000000002,-4.4199557,-0.31628624,0
-1.92,17.583506,-10.254118,1.7656302,0.46592608,-0.29228696,-0.8320390999999999,-0.072056524,-12.594367,-1.5266347,-1.1676791000000002,0.86341614,-0.55620664,-0.5680793000000001,12.58698246179227,5.9999999109787945,-5.999999987246723,-4.974300832062763,15.374165,-1.5687708999999999,-7.290424000000001,0.01943418,0
-1.91,17.456861,-10.268853,1.7538409,0.46385682,-0.29439002,-0.8319332,-0.07783628,-12.733781,-1.4204243,-1.1903299999999999,0.9880315999999999,-0.72901464,-0.7238146,12.58698246179227,5.9999999109787945,-5.999999987246723,-4.974300832062763,15.374165,-1.5687708999999999,-7.290424000000001,0.01943418,0
-1.9,17.328842,-10.282527,1.7418203,0.46120644,-0.29660106,-0.83193934,-0.0848141,-12.869406,-1.3142996,-1.2139118,1.1262133,-0.9079388,-0.8748609,12.58698246179227,5.9999999109787945,-5.999999987246723,-4.974300832062763,15.374165,-1.5687708999999999,-7.290424000000001,0.01943418,0
-1.89,17.199488,-10.295139,1.7295599,0.45792687,-0.29896992,-0.83202755,-0.09300635,-13.000973,-1.2080966999999998,-1.2382701999999999,1.2759268,-1.0921075,-1.0214554,12.58698246179227,5.9999999109787945,-5.999999987246723,-4.974300832062763,15.374165,-1.5687708999999999,-7.290424000000001,0.01943418,0
-1.8800000000000001,17.068835999999997,-10.306688000000001,1.7170526999999998,0.45397115,-0.30153587,-0.8321634,-0.10242341,-13.128207999999999,-1.1016574,-1.2632552,1.4353813,-1.2807111999999998,-1.1638173,12.58698246179227,5.9999999109787945,-5.999999987246723,-4.974300832062763,15.374165,-1.5687708999999999,-7.290424000000001,0.01943418,0
-1.87,16.936937,-10.317171,1.7042931000000001,0.4492929,-0.3043283,-0.8323074,-0.113069944,-13.250832999999998,-0.9948349,-1.288722,1.6030002,-1.4729997,-1.3021492000000001,16.557776609781552,5.9999999857233925,-6.0,-4.801369989450847,10.827496,-0.8738556000000001,-7.9205747,0.18097624,0
-1.8599999999999999,16.803745000000003,-10.3265,1.6913333,0.44353100000000006,-0.30760065,-0.8324583000000001,-0.12520145,-13.386776999999999,-0.87084293,-1.3033148,1.9086508000000002,-1.7997908999999999,-1.4398875,16.557776609781552,5.9999999857233925,-6.0,-4.801369989450847,10.827496,-0.8738556000000001,-7.9205747,0.18097624,0
-1.85,16.669226000000002,-10.334586,1.6782255000000001,0.4363451,-0.31156224,-0.8325860999999999,-0.13904129999999998,-13.516156,-0.74627733,-1.3182693,2.2097919999999998,-2.1188683999999998,-1.5747294,16.557776609781552,5.9999999857233925,-6.0,-4.801369989450847,10.827496,-0.8738556000000001,-7.9205747,0.18097624,0
-1.84,16.533447,-10.341422,1.6649673999999999,0.42771688,-0.31616476,-0.8325961,-0.15453815,-13.6384325,-0.6208628,-1.3333287,2.5062606,-2.4305634,-1.7067394,20.36671145579785,6.0,-6.0,-4.2962117497322785,14.879689,0.5283263000000001,-7.290349000000001,-1.0152525,0
-1.83,16.396418,-10.346928,1.6516066999999999,0.4171759,-0.32165727,-0.8324286,-0.17194116,-13.765992,-0.48009512,-1.3388474,2.9711351,-2.9087484,-1.8266804,20.36671145579785,6.0,-6.0,-4.2962117497322785,14.879689,0.5283263000000001,-7.290349000000001,-1.0152525,0
-1.82,16.258162,-10.351022,1.6381911,0.40427685,-0.32822558,-0.8319706,-0.19145101,-13.883716,-0.33835370000000003,-1.3441988,3.4159687000000005,-3.3649050000000003,-1.9454303,20.36671145579785,6.0,-6.0,-4.2962117497322785,14.879689,0.5283263000000001,-7.290349000000001,-1.0152525,0
-1.81,16.118776,-10.353686,1.6247276000000002,0.38907066,-0.33569545,-0.83102673,-0.21290253,-13.991917,-0.19386464,-1.3480253999999998,3.8181437999999996,-3.7766415999999996,-2.0607839,20.36671145579785,6.0,-6.0,-4.2962117497322785,14.879689,0.5283263000000001,-7.290349000000001,-1.0152525,0
-1.8,15.978354000000001,-10.354883000000001,1.6112407,0.37176564,-0.343804,-0.8293931999999999,-0.23600061,-14.090831,-0.044778715999999996,-1.3488662,4.1576433,-4.124125,-2.170477,20.999999949960085,6.0,-6.0,-3.849341507451831,15.275492000000002,-0.60986876,-9.13297,-0.009878073000000001,0
-1.79,15.836981,-10.354543,1.5977767,0.35257086,-0.35231808,-0.8268976,-0.26039645,-14.182025,0.11348395,-1.3434093,4.444307299999999,-4.41731,-2.2528593999999997,20.999999949960085,6.0,-6.0,-3.849341507451831,15.275492000000002,-0.60986876,-9.13297,-0.009878073000000001,0
-1.7799999999999998,15.694754000000001,-10.3526,1.584384,0.33167009999999997,-0.36104032,-0.82339376,-0.28577575,-14.261311,0.27585894,-1.3345791999999999,4.6863165,-4.664724,-2.3311992000000004,20.999999949960085,6.0,-6.0,-3.849341507451831,15.275492000000002,-0.60986876,-9.13297,-0.009878073000000001,0
-1.77,15.551798000000002,-10.349015,1.5710966999999998,0.30924624,-0.36978465,-0.8187464,-0.31189853,-14.327693,0.44171579999999994,-1.3223649,4.890632599999999,-4.873507,-2.4056947,20.999999949960085,6.0,-6.0,-3.849341507451831,15.275492000000002,-0.60986876,-9.13297,-0.009878073000000001,0
-1.7599999999999998,15.408247,-10.343758,1.5579481000000002,0.28546554,-0.3783935,-0.8128428000000001,-0.33854777,-14.380304999999998,0.6102496000000001,-1.3068372,5.063129,-5.049686400000001,-2.4765349999999997,20.999999949960085,6.0,-6.0,-3.849341507451831,16.309523000000002,-0.19753245,-8.956574,-0.40712228,0
-1.75,15.264242000000001,-10.336805,1.5449709999999999,0.26048082,-0.38673359999999996,-0.80559146,-0.36552632,-14.418417999999999,0.78050715,-1.2881393,5.208766000000001,-5.198351000000001,-2.543899,20.999999949960085,6.0,-6.0,-3.849341507451831,16.309523000000002,-0.19753245,-8.956574,-0.40712228,0
-1.7399999999999998,15.119931,-10.328146,1.5321957,0.23443373,-0.39469263,-0.79691976,-0.39265466,-14.441443,0.95141274,-1.2664806999999998,5.331729,-5.3237934000000005,-2.6079574,20.999999949960085,6.0,-6.0,-3.849341507451831,16.309523000000002,-0.19753245,-8.956574,-0.40712228,0
-1.73,14.975467000000002,-10.317779,1.5196506,0.20745638,-0.40217623,-0.7867724,-0.41976842,-14.448941,1.1217928,-1.2421286,5.4355507,-5.42964,-2.6688723999999997,20.999999949960085,6.0,-6.0,-3.849341507451831,16.309523000000002,-0.19753245,-8.956574,-0.40712228,0
-1.72,14.831007000000001,-10.305716,1.5073613000000001,0.17967273,-0.4091053,-0.7751095,-0.44671687,-14.440629999999999,1.2903997999999999,-1.2154006000000002,5.523213,-5.5189476,-2.7267985,21.0,5.999999901550836,-5.999999973624798,-3.444065493917101,17.43485,0.48870608,-7.664922,-0.5024025,0
-1.71,14.686709,-10.291982,1.4953496000000002,0.15117908,-0.41542274,-0.7619283,-0.4733227,-14.416382999999998,1.4559343999999999,-1.1866573999999999,5.597306,-5.594227,-2.7619947999999996,21.0,5.999999901550836,-5.999999973624798,-3.444065493917101,17.43485,0.48870608,-7.664922,-0.5024025,0
-1.7,14.542734,-10.276613000000001,1.4836338,0.12206659,-0.42108107,-0.7472395000000001,-0.49942365,-14.376231,1.6170683000000001,-1.1562972,5.6598687000000005,-5.657743,-2.7954642999999995,21.0,5.999999901550836,-5.999999973624798,-3.444065493917101,17.43485,0.48870608,-7.664922,-0.5024025,0
-1.69,14.399239999999999,-10.259661,1.4722278,0.09244193,-0.42603275,-0.73104215,-0.5249078,-14.320366,1.7724651999999999,-1.1247492000000001,5.712696,-5.711333,-2.8272912999999997,21.0,5.999999901550836,-5.999999973624798,-3.444065493917101,17.43485,0.48870608,-7.664922,-0.5024025,0
-1.68,14.256379999999998,-10.241188000000001,1.4611412,0.062406725999999996,-0.43023878,-0.7133449000000001,-0.54967207,-14.249128,1.9207995999999998,-1.0924675,5.757304,-5.756546,-2.8575562999999997,21.0,3.9221175339216137,-5.99999955680221,-0.7169313283590832,17.496567000000002,0.050057866,-6.97261,0.19274196,0
-1.67,14.114307,-10.221274000000001,1.4503794,0.03237816,-0.43310758,-0.6947238,-0.5733486999999999,-14.163074499999999,2.0607758,-1.0598816,5.4714355,-5.793605,-2.7525152999999998,21.0,3.9221175339216137,-5.99999955680221,-0.7169313283590832,17.496567000000002,0.050057866,-6.97261,0.19274196,0
-1.66,13.9731655,-10.2000065,1.4399440000000001,0.0027040084999999997,-0.43421122,-0.67573553,-0.59568053,-14.063251500000002,2.19118,-1.0271823,5.2301426,-5.825018,-2.6526287,21.0,3.9221175339216137,-5.99999955680221,-0.7169313283590832,17.496567000000002,0.050057866,-6.97261,0.19274196,0
-1.65,13.833085,-10.177487,1.4298357,-0.026624087,-0.43373770000000006,-0.65636444,-0.6167243,-13.950859,2.3109467,-0.99450415,5.026472599999999,-5.8516426,-2.5576434,21.0,3.9221175339216137,-5.99999955680221,-0.7169313283590832,17.496567000000002,0.050057866,-6.97261,0.19274196,0
-1.64,13.694185999999998,-10.153827,1.4200532,-0.05561279,-0.43184459999999997,-0.6365976,-0.63652295,-13.827091000000001,2.4191518,-0.96201706,4.8545565999999996,-5.874206,-2.4673192999999998,21.0,1.6619630354915231,-4.5455269469809725,2.3817719689081223,16.613798000000003,0.34023032,-5.6017036,1.1245044,0
-1.63,13.556644,-10.129096,1.4106604999999999,-0.08346627,-0.42871082,-0.61701226,-0.6546272,-13.680112,2.524494,-0.9171688,4.434059599999999,-5.589557,-2.2485,21.0,1.6619630354915231,-4.5455269469809725,2.3817719689081223,16.613798000000003,0.34023032,-5.6017036,1.1245044,0
-1.6199999999999999,13.420603,-10.103392,1.4016956,-0.10959329,-0.42454594,-0.5982057,-0.6707463,-13.527578,2.6139297000000004,-0.8764448,4.0786653,-5.3498339999999995,-2.0351002,21.0,1.6619630354915231,-4.5455269469809725,2.3817719689081223,16.613798000000003,0.34023032,-5.6017036,1.1245044,0
-1.6099999999999999,13.286105,-10.076869,1.3931174,-0.1342769,-0.41949907,-0.58017904,-0.6851154,-13.371387,2.688302,-0.8398556999999999,3.7782927,-5.147945,-1.8269887999999999,21.0,1.6619630354915231,-4.5455269469809725,2.3817719689081223,16.613798000000003,0.34023032,-5.6017036,1.1245044,0
-1.5999999999999999,13.153186999999999,-10.049672,1.3848883,-0.1577531,-0.4136397,-0.5629259,-0.6979478,-13.211872,2.748924,-0.8063775,3.5061803,-4.9961195,-1.6255909,21.0,0.7147678246577208,-2.179105383530956,2.8565299975291367,16.976229,-0.44930246,-3.2421715,1.7738034,0
-1.5899999999999999,13.02191,-10.021924,1.3770075000000002,-0.179403,-0.40712717,-0.54683965,-0.70924526,-13.043386,2.7985892000000003,-0.7704418000000001,3.0348818,-4.5929275,-1.4158604,21.0,0.7147678246577208,-2.179105383530956,2.8565299975291367,16.976229,-0.44930246,-3.2421715,1.7738034,0
-1.5799999999999998,12.892317,-9.993744,1.3694652,-0.19877888,-0.40023395,-0.53225636,-0.7190295,-12.875485000000001,2.8355722,-0.7386379,2.63936,-4.25036,-1.2113242,21.0,0.7147678246577208,-2.179105383530956,2.8565299975291367,16.976229,-0.44930246,-3.2421715,1.7738034,0
-1.5699999999999998,12.7644,-9.96525,1.3622243,-0.21628612,-0.39308083,-0.5190768,-0.72750765,-12.708112,2.8614757,-0.70989645,2.3235111,-3.9432619,-1.0132093,21.0,0.7147678246577208,-2.179105383530956,2.8565299975291367,16.976229,-0.44930246,-3.2421715,1.7738034,0
-1.5599999999999998,12.638156,-9.936547000000001,1.3552614,-0.23227738,-0.38584120000000005,-0.5071838,-0.7348053000000001,-12.54032,2.8776175999999998,-0.68278176,2.073266,-3.6677190000000004,-0.82332015,21.0,0.7147678246577208,-2.179105383530956,2.8565299975291367,16.921434,-1.1959853,-1.0566964,1.5683091999999998,0
-1.5499999999999998,12.513597500000001,-9.907728,1.3485664,-0.24702987,-0.37855455,-0.49647440000000004,-0.741071,-12.371436,2.8849046,-0.6563063,1.8619397,-3.4352370000000003,-0.64274883,21.0,0.7147678246577208,-2.179105383530956,2.8565299975291367,16.921434,-1.1959853,-1.0566964,1.5683091999999998,0
-1.5399999999999998,12.390732,-9.878879,1.342133,-0.26076725,-0.37121063,-0.48685379999999995,-0.74644274,-12.201936,2.8839507,-0.63045615,1.6834848000000002,-3.2390795,-0.47103822,21.0,0.7147678246577208,-2.179105383530956,2.8565299975291367,16.921434,-1.1959853,-1.0566964,1.5683091999999998,0
-1.5299999999999998,12.269561,-9.850077,1.3359551,-0.27367482,-0.36379564,-0.47823244,-0.7510319000000001,-12.032204,2.8752902000000002,-0.6052195,1.5327928,-3.0735672000000003,-0.3077535,21.0,0.7147678246577208,-2.179105383530956,2.8565299975291367,16.921434,-1.1959853,-1.0566964,1.5683091999999998,0
-1.5199999999999998,12.150086,-9.821398,1.3300266,-0.2859058,-0.35629413,-0.47052675,-0.75492865,-11.8625555,2.8593848,-0.58058953,1.4055482,-2.9339077000000002,-0.1524812,20.99999999032907,-0.1554527592687433,-0.0994354924561838,2.9166455437995715,18.149796,-1.9621221999999998,0.7507391,1.6007789,0
-1.5099999999999998,12.032309,-9.792913,1.3243413,-0.29693878,-0.34915805,-0.46403387,-0.75801635,-11.69324,2.8367183,-0.5565618,1.162402,-2.4917336,-0.0018782541,20.99999999032907,-0.1554527592687433,-0.0994354924561838,2.9166455437995715,18.149796,-1.9621221999999998,0.7507391,1.6007789,0
-1.4999999999999998,11.916221,-9.764685,1.3188933999999999,-0.30637962,-0.34275925,-0.45900282,-0.76023954,-11.5244,2.8081877,-0.5331016,0.95708346,-2.1185652999999998,0.14133458,20.99999999032907,-0.1554527592687433,-0.0994354924561838,2.9166455437995715,18.149796,-1.9621221999999998,0.7507391,1.6007789,0
-1.4899999999999998,11.801819,-9.736767,1.3136777,-0.31451172,-0.33697048,-0.45528898,-0.76173836,-11.356100999999999,2.7747154,-0.51015043,0.7837166999999999,-1.8036284,0.27751988,20.99999999032907,-0.1554527592687433,-0.0994354924561838,2.9166455437995715,18.149796,-1.9621221999999998,0.7507391,1.6007789,0
-1.4799999999999998,11.689097,-9.709205,1.308689,-0.32156911,-0.33167937,-0.45275962,-0.76262105,-11.188363,2.737077,-0.48764172,0.637337,-1.5378325000000002,0.4070225,20.9999998279338,-0.9810757324712835,1.8566101758889355,3.14787259813738,19.299882999999998,-3.1961593999999995,3.6738205,1.6274334,0
-1.4699999999999998,11.57805,-9.682036,1.3039235,-0.32714957,-0.32722756,-0.45168054,-0.7628106,-11.021171,2.6960017999999994,-0.46549750000000006,0.38489735,-1.0085030000000001,0.5415168,20.9999998279338,-0.9810757324712835,1.8566101758889355,3.14787259813738,19.299882999999998,-3.1961593999999995,3.6738205,1.6274334,0
-1.4599999999999997,11.468672,-9.6552925,1.2993781999999998,-0.33094640000000003,-0.3238812,-0.45226058,-0.7622571,-10.854411,2.6525514,-0.44358382,0.1717662,-0.56175005,0.66941136,20.9999998279338,-0.9810757324712835,1.8566101758889355,3.14787259813738,19.299882999999998,-3.1961593999999995,3.6738205,1.6274334,0
-1.4499999999999997,11.360961,-9.62899,1.2950516,-0.33326146,-0.32144457,-0.45430383,-0.7610639,-10.687947,2.6077685,-0.42174798,-0.008166824,-0.18468648,0.79103017,20.9999998279338,-0.9810757324712835,1.8566101758889355,3.14787259813738,19.299882999999998,-3.1961593999999995,3.6738205,1.6274334,0
-1.4399999999999997,11.254914,-9.603139,1.2909435,-0.33434355,-0.31974873,-0.45763454,-0.75930613,-10.521657000000001,2.5625296000000004,-0.39984462,-0.16006407,0.13356298,0.90668106,20.99999978810168,-2.6074472352120184,4.284054768317978,3.273337549385958,18.802172,-3.2587127999999996,5.5780587,0.8294601,0
-1.4299999999999997,11.150528999999999,-9.577738,1.2870553999999998,-0.33346248,-0.31908092,-0.46263957,-0.7569378000000001,-10.355431,2.5176768,-0.37770697,-0.5421699999999999,0.7805649,1.0228136,20.99999978810168,-2.6074472352120184,4.284054768317978,3.273337549385958,18.802172,-3.2587127999999996,5.5780587,0.8294601,0
-1.4199999999999997,11.047805,-9.552777,1.2833914,-0.3300381,-0.31964790000000004,-0.46960294,-0.7539053000000001,-10.189172,2.4745220000000003,-0.3549973,-0.8647056000000001,1.3266566999999998,1.1332475,20.99999978810168,-2.6074472352120184,4.284054768317978,3.273337549385958,18.802172,-3.2587127999999996,5.5780587,0.8294601,0
-1.4099999999999997,10.946744,-9.528236,1.2799587,-0.32445648,-0.32120398,-0.47823054,-0.75023437,-10.022834,2.4343807999999996,-0.331363,-1.1369458000000001,1.7875836999999999,1.2382624,20.99999978810168,-2.6074472352120184,4.284054768317978,3.273337549385958,18.802172,-3.2587127999999996,5.5780587,0.8294601,0
-1.3999999999999997,10.847346,-9.504077,1.2767681999999998,-0.31703734,-0.32353753,-0.4882603,-0.74593073,-9.856444999999999,2.3983672,-0.30651417,-1.3667235,2.1766334,1.3381242,20.99999983079919,-3.4425014941706933,5.523826496593029,3.0497068277823747,20.038403,-3.1517835,6.0739055,0.3664913,0
-1.3899999999999997,10.749611999999999,-9.480252,1.2738333,-0.30754380000000003,-0.32667947,-0.49970109999999995,-0.7409427,-9.690114999999999,2.3674796000000002,-0.28020522,-1.6910406000000002,2.6982527000000003,1.422112,20.99999983079919,-3.4425014941706933,5.523826496593029,3.0497068277823747,20.038403,-3.1517835,6.0739055,0.3664913,0
-1.3799999999999997,10.653541,-9.456706,1.2711698999999999,-0.29578695,-0.33062905,-0.51251864,-0.73520005,-9.524049,2.3428707,-0.25216052,-1.9647497,3.1385446,1.5019784999999999,20.99999983079919,-3.4425014941706933,5.523826496593029,3.0497068277823747,20.038403,-3.1517835,6.0739055,0.3664913,0
-1.3699999999999997,10.559128999999999,-9.433371000000001,1.2687966,-0.28207806,-0.33517584,-0.5264335,-0.7286678000000001,-9.35856,2.3256178,-0.22215766,-2.1957402000000004,3.5101942999999998,1.5779258999999999,20.99999983079919,-3.4425014941706933,5.523826496593029,3.0497068277823747,20.038403,-3.1517835,6.0739055,0.3664913,0
-1.3599999999999997,10.466367,-9.410167,1.2667339,-0.26668159999999996,-0.34014076,-0.5411986999999999,-0.72131073,-9.194056,2.3166208,-0.19006123,-2.3906734,3.823907,1.6501465,20.99999983079919,-3.4425014941706933,5.523826496593029,3.0497068277823747,20.461012,-2.8626764,6.0429344,0.075749904,0
-1.3499999999999996,10.375242,-9.387008,1.2650028,-0.24982436,-0.34537205,-0.5565960999999999,-0.7130966,-9.031032000000002,2.3166213,-0.15581508,-2.5551722000000003,4.0887175000000004,1.7188233,20.99999983079919,-3.4425014941706933,5.523826496593029,3.0497068277823747,20.461012,-2.8626764,6.0429344,0.075749904,0
-1.3399999999999996,10.285739,-9.363800999999999,1.263625,-0.23170245,-0.35074162,-0.5724338999999999,-0.70399845,-8.870051,2.3262148,-0.119434215,-2.693984,4.312252,1.7841301,20.99999983079919,-3.4425014941706933,5.523826496593029,3.0497068277823747,20.461012,-2.8626764,6.0429344,0.075749904,0
-1.3299999999999996,10.197832,-9.340449000000001,1.2626214,-0.21248668,-0.35614192,-0.5885431,-0.69399536,-8.711741,2.3458624,-0.08099662,-2.8111157,4.500947,1.8462323,20.99999983079919,-3.4425014941706933,5.523826496593029,3.0497068277823747,20.461012,-2.8626764,6.0429344,0.075749904,0
-1.3199999999999996,10.111493,-9.316849000000001,1.2620118,-0.19232702,-0.36148265,-0.60477483,-0.6830725999999999,-8.55677,2.3758993,-0.04063518,-2.9099507,4.6602345000000005,1.905287,20.999999792460546,-3.673032307665893,5.54649546329715,2.5750256905129567,21.393601999999998,-2.9350169,5.5811839999999995,-0.0091675855,0
-1.3099999999999996,10.026684,-9.292895,1.2618147,-0.17126626,-0.36664918,-0.62099254,-0.67127097,-8.405846,2.4165452000000003,0.0014753564999999999,-3.0292265,4.7982335,1.9381511999999999,20.999999792460546,-3.673032307665893,5.54649546329715,2.5750256905129567,21.393601999999998,-2.9350169,5.5811839999999995,-0.0091675855,0
-1.2999999999999996,9.943359,-9.268482,1.2620467,-0.14934832,-0.37154478,-0.63707,-0.6586286,-8.259731,2.4679215,0.045149785,-3.1298747000000002,4.9147344,1.9694028000000001,20.999999792460546,-3.673032307665893,5.54649546329715,2.5750256905129567,21.393601999999998,-2.9350169,5.5811839999999995,-0.0091675855,0
-1.2899999999999996,9.861469,-9.2435,1.2627224,-0.12669985,-0.37612486,-0.65289783,-0.64513713,-8.119211,2.5300457,0.090168655,-3.214803,5.013086299999999,1.9991206999999998,20.999999792460546,-3.673032307665893,5.54649546329715,2.5750256905129567,21.393601999999998,-2.9350169,5.5811839999999995,-0.0091675855,0
-1.2799999999999996,9.780954,-9.217842999999998,1.2638538000000001,-0.10343384,-0.38035285,-0.6683798000000001,-0.6307946999999999,-7.9850636,2.6028306,0.13627191,-3.2864656,5.0961175,2.0273807,20.999999594836602,-3.4981438740980315,4.811704837987117,2.0341057902014823,20.014654,-2.8791199,5.0801845000000005,0.031060185,0
-1.2699999999999996,9.701744999999999,-9.191406,1.2654504999999998,-0.07986864,-0.38407135,-0.68333817,-0.61575925,-7.858042200000001,2.6860662,0.18317147,-3.3194193999999997,5.051719,2.0277107,20.999999594836602,-3.4981438740980315,4.811704837987117,2.0341057902014823,20.014654,-2.8791199,5.0801845000000005,0.031060185,0
-1.2599999999999996,9.623766999999999,-9.164087,1.2675188999999998,-0.0562689,-0.38717009999999996,-0.69764477,-0.60018754,-7.738808000000001,2.779314,0.23058921,-3.3472428,5.0142517,2.0280244,20.999999594836602,-3.4981438740980315,4.811704837987117,2.0341057902014823,20.014654,-2.8791199,5.0801845000000005,0.031060185,0
-1.2499999999999996,9.546941,-9.135789,1.2700628999999999,-0.032656092000000005,-0.38968444,-0.7112864000000001,-0.58408165,-7.6279554,2.8820472,0.2782467,-3.3707352,4.9826326,2.028323,20.999999594836602,-3.4981438740980315,4.811704837987117,2.0341057902014823,20.014654,-2.8791199,5.0801845000000005,0.031060185,0
-1.2399999999999995,9.471178,-9.106417,1.2730836,-0.00905114,-0.39164427,-0.7242496,-0.5674465,-7.526037,2.9937105,0.32585698,-3.3905702000000004,4.9559503,2.0286067,20.99999785013127,-2.866246906456245,3.5846184540323067,1.4237209706244331,20.384532999999998,-2.3287065,4.523886,0.09145787,0
-1.2299999999999995,9.396386999999999,-9.075887,1.2765788999999998,0.014055156999999999,-0.3929887,-0.73638654,-0.5505428000000001,-7.433523700000001,3.1136885,0.37313396,-3.3084279999999997,4.742264,1.9989246999999999,20.99999785013127,-2.866246906456245,3.5846184540323067,1.4237209706244331,20.384532999999998,-2.3287065,4.523886,0.09145787,0
-1.2199999999999995,9.3224745,-9.044118,1.2805443,0.036273893,-0.39369940000000003,-0.7476188,-0.5336209,-7.3506227,3.241156,0.41983770000000004,-3.2391512000000002,4.561879599999999,1.9706991999999999,20.99999785013127,-2.866246906456245,3.5846184540323067,1.4237209706244331,20.384532999999998,-2.3287065,4.523886,0.09145787,0
-1.2099999999999995,9.249342,-9.011041,1.284973,0.057724927,-0.3938534,-0.7580236,-0.5166699,-7.277430000000001,3.3752792,0.46576315,-3.1807244,4.409606500000001,1.9438587,20.99999785013127,-2.866246906456245,3.5846184540323067,1.4237209706244331,20.384532999999998,-2.3287065,4.523886,0.09145787,0
-1.1999999999999995,9.176892,-8.976592,1.2898563,0.07850988,-0.39351264,-0.76766264,-0.4996782,-7.2140183,3.5152898,0.51072276,-3.1314476000000004,4.281064499999999,1.9183354,18.433538261163303,-1.935341500704108,1.8394226028819929,0.8339536201756025,16.572155,-2.7363374,2.6492867,0.90926003,0
-1.1899999999999995,9.104994,-8.940805000000001,1.2950968,0.09802203,-0.39266938,-0.7764728,-0.4830038,-7.166935400000001,3.6426992,0.53721213,-2.9443040000000003,3.9006279000000004,1.8651244999999999,18.433538261163303,-1.935341500704108,1.8394226028819929,0.8339536201756025,16.572155,-2.7363374,2.6492867,0.90926003,0
-1.1799999999999995,9.0335245,-8.903725,1.300597,0.11579475,-0.39135313,-0.78445745,-0.4669701,-7.1280966,3.7738366,0.5626763000000001,-2.786448,3.5794678,1.8145244999999999,18.433538261163303,-1.935341500704108,1.8394226028819929,0.8339536201756025,16.572155,-2.7363374,2.6492867,0.90926003,0
-1.1699999999999995,8.962404,-8.865317,1.3063468,0.13209718,-0.38965282,-0.79174364,-0.45151207,-7.0970830000000005,3.9079778,0.5871267,-2.6532937999999997,3.3083491,1.7664076000000002,18.433538261163303,-1.935341500704108,1.8394226028819929,0.8339536201756025,16.572155,-2.7363374,2.6492867,0.90926003,0
-1.1599999999999995,8.891557,-8.825557,1.3123361,0.1471575,-0.38763645,-0.79843074,-0.4365674,-7.073517999999999,4.0445166,0.61058676,-2.5409740000000003,3.0794759999999997,1.7206517,18.433538261163303,-1.935341500704108,1.8394226028819929,0.8339536201756025,15.416935,-2.9173944,2.1282754,1.2877363000000002,0
-1.1499999999999995,8.820909,-8.784419999999999,1.3185552,0.16116868,-0.38535592,-0.8045966,-0.42207792,-7.057061,4.1829386,0.6330853,-2.4462273,2.8862662,1.6771412,18.433538261163303,-1.935341500704108,1.8394226028819929,0.8339536201756025,15.416935,-2.9173944,2.1282754,1.2877363000000002,0
-1.1399999999999995,8.750391,-8.741893,1.3249946000000001,0.17429358,-0.3828509,-0.81030273,-0.4079906,-7.047414,4.322805000000001,0.6546521,-2.3663032000000004,2.723163,1.6357658000000002,18.433538261163303,-1.935341500704108,1.8394226028819929,0.8339536201756025,15.416935,-2.9173944,2.1282754,1.2877363000000002,0
-1.1299999999999994,8.679938,-8.697961,1.3316451,0.18666942,-0.38015163,-0.8155979999999999,-0.39425755,-7.04431,4.463737,0.6753153000000001,-2.2988817999999998,2.585475,1.5964206,18.433538261163303,-1.935341500704108,1.8394226028819929,0.8339536201756025,15.416935,-2.9173944,2.1282754,1.2877363000000002,0
-1.1199999999999994,8.609483,-8.652616,1.3384979,0.19841163,-0.37728128,-0.8205214,-0.3808362,-7.047515400000001,4.605404,0.6950995,-2.2420068,2.4692426,1.5590062,15.952101378669695,-0.8908189145273283,0.1545298268398561,0.3573767789517692,13.997349,-3.595331,1.988594,2.1380146,0
-1.1099999999999994,8.538972,-8.605947,1.3454653,0.20892943,-0.3743393,-0.8250677,-0.36807870000000004,-7.055515299999999,4.728374,0.6982876,-2.0308416,2.1085572,1.5000418,15.952101378669695,-0.8908189145273283,0.1545298268398561,0.3573767789517692,13.997349,-3.595331,1.988594,2.1380146,0
-1.0999999999999994,8.468357000000001,-8.558048,1.3524615,0.21777162,-0.37142515,-0.8292661,-0.35628190000000004,-7.068229,4.851445,0.70087194,-1.8526918,1.8040696,1.443971,15.952101378669695,-0.8908189145273283,0.1545298268398561,0.3573767789517692,13.997349,-3.595331,1.988594,2.1380146,0
-1.0899999999999994,8.397594,-8.508919,1.3594811000000002,0.22521389,-0.36854935,-0.83318436,-0.34533173,-7.0851107,4.9743900000000005,0.7029986,-1.7023922999999999,1.5470253999999999,1.3906516000000002,15.952101378669695,-0.8908189145273283,0.1545298268398561,0.3573767789517692,13.997349,-3.595331,1.988594,2.1380146,0
-1.0799999999999994,8.326642999999999,-8.458561999999999,1.3665203000000001,0.23148721,-0.3657152,-0.8368728999999999,-0.3351268,-7.105694000000001,5.0970364,0.70479953,-1.5755872,1.3300333999999998,1.3399485,13.796030292132851,0.08472115230658325,-1.450438495516139,-0.015558893258561588,12.619181,-3.5480802000000002,1.1872642,1.9227731,0
-1.0699999999999994,8.255485,-8.407063,1.373509,0.23613515,-0.36302690000000004,-0.84036463,-0.32594335,-7.126308,5.202732,0.6929318,-1.3162448,0.89670414,1.2734333999999998,13.796030292132851,0.08472115230658325,-1.450438495516139,-0.015558893258561588,12.619181,-3.5480802000000002,1.1872642,1.9227731,0
-1.0599999999999994,8.18411,-8.354509,1.380379,0.23881188,-0.3605755,-0.8436991,-0.31800324,-7.149151299999999,5.3079557,0.68108124,-1.0974388000000002,0.53089577,1.2101822,13.796030292132851,0.08472115230658325,-1.450438495516139,-0.015558893258561588,12.619181,-3.5480802000000002,1.1872642,1.9227731,0
-1.0499999999999994,8.112496,-8.300905,1.3871313,0.23984213,-0.35833684,-0.8469110999999999,-0.31114656,-7.173642599999999,5.412639599999999,0.6694351,-0.9128290000000001,0.22208929,1.1500348,13.796030292132851,0.08472115230658325,-1.450438495516139,-0.015558893258561588,12.619181,-3.5480802000000002,1.1872642,1.9227731,0
-1.0399999999999994,8.040632,-8.246258000000001,1.3937688999999998,0.23949681,-0.35628447,-0.85002065,-0.30523357,-7.199287400000001,5.5167456,0.6581523,-0.75706726,-0.038595412,1.0928388,12.75025265555399,0.7461092093124522,-2.7330897530996827,-0.33931823176060183,13.452433,-2.8067877,-0.40060404,0.8715107,0
-1.0299999999999994,7.968515400000001,-8.190603999999999,1.4002689,0.23755474,-0.35442629999999997,-0.85306257,-0.3003897,-7.223899,5.6134129999999995,0.64160836,-0.5359413000000001,-0.44505388,1.0238034,12.75025265555399,0.7461092093124522,-2.7330897530996827,-0.33931823176060183,13.452433,-2.8067877,-0.40060404,0.8715107,0
-1.0199999999999994,7.896154400000001,-8.133995,1.4066006000000002,0.23376682,-0.35280603,-0.8560462999999999,-0.29675844,-7.248392,5.7084894,0.6248553000000001,-0.3358026,-0.80172324,0.95691454,12.75025265555399,0.7461092093124522,-2.7330897530996827,-0.33931823176060183,13.452433,-2.8067877,-0.40060404,0.8715107,0
-1.0099999999999993,7.8235497,-8.076438000000001,1.4127688,0.22840644,-0.35139534,-0.85895586,-0.294188,-7.272508599999999,5.8029704,0.60890406,-0.1669365,-1.1028062,0.893308,12.75025265555399,0.7461092093124522,-2.7330897530996827,-0.33931823176060183,13.452433,-2.8067877,-0.40060404,0.8715107,0
-0.9999999999999991,7.7507076,-8.017938000000001,1.4187819,0.22172526,-0.3501552,-0.86177355,-0.29253304,-7.295807000000001,5.896845,0.59387934,-0.024452488999999997,-1.3569639,0.83282274,12.368818928470686,0.94641059144086,-3.3560069994495123,-0.5924042204979466,12.860531,-3.2726877,-1.0404696,0.66589326,0
-0.9899999999999991,7.677641400000001,-7.958516,1.4246372,0.21370633,-0.34903908,-0.86449647,-0.2917999,-7.3172355,5.9873066,0.5773633,0.12704673,-1.6686368000000003,0.7628864000000001,12.368818928470686,0.94641059144086,-3.3560069994495123,-0.5924042204979466,12.860531,-3.2726877,-1.0404696,0.66589326,0
-0.9799999999999991,7.6043687,-7.898193400000001,1.4303328000000002,0.20434570000000002,-0.34800440000000005,-0.86711,-0.29198635,-7.337092,6.077131700000001,0.56194055,0.25487357,-1.9317287,0.6963819,12.368818928470686,0.94641059144086,-3.3560069994495123,-0.5924042204979466,12.860531,-3.2726877,-1.0404696,0.66589326,0
-0.9699999999999993,7.530906699999999,-7.836975999999999,1.4358799999999998,0.19385515,-0.3470225,-0.86957896,-0.29296416,-7.3550076,6.1662774,0.5476876,0.36273083,-2.15381,0.6331408000000001,12.368818928470686,0.94641059144086,-3.3560069994495123,-0.5924042204979466,12.860531,-3.2726877,-1.0404696,0.66589326,0
-0.9599999999999993,7.457276299999999,-7.774871000000001,1.4412905,0.18241306,-0.346068,-0.8718713,-0.29462309999999997,-7.3706684000000005,6.2546935,0.5346489000000001,0.45374116,-2.341272,0.5730029999999999,12.368818928470686,0.94641059144086,-3.3560069994495123,-0.5924042204979466,12.199683,-3.4667716,-1.5179853,0.8328559999999999,0
-0.9499999999999993,7.383502,-7.711885499999999,1.4465771,0.17017000000000002,-0.34511888,-0.8739589,-0.29686832,-7.3838034,6.342324,0.5228412,0.53053874,-2.4995103,0.5158161,12.368818928470686,0.94641059144086,-3.3560069994495123,-0.5924042204979466,12.199683,-3.4667716,-1.5179853,0.8328559999999999,0
-0.9399999999999993,7.30961,-7.648028,1.4517516000000001,0.15725343,-0.34415635,-0.87581754,-0.29961833,-7.394182000000001,6.429105799999999,0.5122578,0.5953455,-2.63308,0.46143538,12.368818928470686,0.94641059144086,-3.3560069994495123,-0.5924042204979466,12.199683,-3.4667716,-1.5179853,0.8328559999999999,0
-0.9299999999999993,7.235628599999999,-7.5833070000000005,1.4568261999999998,0.14377135,-0.3431646,-0.8774269,-0.30280286,-7.401609,6.5149693,0.5028718,0.6500354,-2.7458253,0.4097232,12.368818928470686,0.94641059144086,-3.3560069994495123,-0.5924042204979466,12.199683,-3.4667716,-1.5179853,0.8328559999999999,0
-0.9199999999999993,7.1615887,-7.5177317,1.461813,0.12981547,-0.34213054,-0.8787700999999999,-0.30636135,-7.405917,6.599839,0.4946397,0.69618946,-2.840993,0.3605485,12.19235224358002,0.708915078434614,-3.3212231456389145,-0.7361930258709941,15.382960999999998,-3.646239,-3.4116747000000003,1.1912063,0
-0.9099999999999993,7.0875216,-7.4513197,1.4667164,0.11551141,-0.34096223,-0.8798591999999998,-0.3102406,-7.4069557,6.682439,0.48620844,0.6980895,-2.9159086,0.30673108,12.19235224358002,0.708915078434614,-3.3212231456389145,-0.7361930258709941,15.382960999999998,-3.646239,-3.4116747000000003,1.1912063,0
-0.8999999999999992,7.013461,-7.384086999999999,1.4715407,0.10096475,-0.33958694,-0.88070416,-0.31439883,-7.4046965,6.7638803,0.47880802,0.699691,-2.9791404999999997,0.25555453,12.19235224358002,0.708915078434614,-3.3212231456389145,-0.7361930258709941,15.382960999999998,-3.646239,-3.4116747000000003,1.1912063,0
-0.8899999999999992,6.939439999999999,-7.316046000000001,1.4762959999999998,0.08622061,-0.33802150000000003,-0.8812901,-0.31880227,-7.399075,6.844060400000001,0.47238025,0.7010423000000001,-3.03251,0.20688918,12.19235224358002,0.708915078434614,-3.3212231456389145,-0.7361930258709941,15.382960999999998,-3.646239,-3.4116747000000003,1.1912063,0
-0.8799999999999992,6.865491400000001,-7.247210000000001,1.4809914,0.07131742,-0.33628058,-0.8816052,-0.3234208,-7.390038499999999,6.922877000000001,0.46685740000000003,0.7021835,-3.0775557,0.16061187,12.022223949460802,0.1340615221337917,-2.8735031434528864,-0.7726179844859692,15.087968,-3.5717561,-2.8154716,1.1804711,0
-0.8699999999999992,6.79165,-7.1775985,1.4856293,0.05652234,-0.33423316,-0.88170636,-0.32815690000000003,-7.3777384999999995,6.999148399999999,0.46086416,0.613491,-3.0457612999999997,0.11481801400000001,12.022223949460802,0.1340615221337917,-2.8735031434528864,-0.7726179844859692,15.087968,-3.5717561,-2.8154716,1.1804711,0
-0.8599999999999992,6.717948,-7.107232000000001,1.4902111999999998,0.04205098,-0.33178055,-0.881649,-0.33293843,-7.362120599999999,7.0738673,0.45563757,0.5386365,-3.018919,0.07127126,12.022223949460802,0.1340615221337917,-2.8735031434528864,-0.7726179844859692,15.087968,-3.5717561,-2.8154716,1.1804711,0
-0.8499999999999992,6.6444187,-7.0361266,1.4947445,0.027863608999999998,-0.32897845,-0.8814226000000001,-0.33777323,-7.343281,7.1469309999999995,0.45112744,0.47546127,-2.9962575,0.029861383,12.022223949460802,0.1340615221337917,-2.8735031434528864,-0.7726179844859692,15.087968,-3.5717561,-2.8154716,1.1804711,0
-0.8399999999999992,6.571092999999999,-6.9642990000000005,1.4992361,0.013926236000000002,-0.325874,-0.8810176,-0.34266573,-7.321305000000001,7.2182455,0.44728068,0.42214334,-2.9771259999999997,-0.009516518,11.730303838037926,-0.7045742547543338,-2.087738513855201,-0.6585738006368972,14.207861,-3.0821002,-0.80073225,1.5903047,0
-0.8299999999999992,6.498000599999999,-6.891775999999999,1.5036806999999999,0.0005977836,-0.3223212,-0.8805403,-0.3475012,-7.296900999999999,7.286036,0.44174415,0.24637409999999998,-2.838431,-0.041365948,11.730303838037926,-0.7045742547543338,-2.087738513855201,-0.6585738006368972,14.207861,-3.0821002,-0.80073225,1.5903047,0
-0.8199999999999992,6.425165,-6.8185844,1.508073,-0.011838178000000001,-0.31821242,-0.8800898000000001,-0.35219622,-7.2697606,7.3519588,0.43679300000000004,0.09802356,-2.7213588,-0.07165252,11.730303838037926,-0.7045742547543338,-2.087738513855201,-0.6585738006368972,14.207861,-3.0821002,-0.80073225,1.5903047,0
-0.8099999999999992,6.352613400000001,-6.744744,1.5124187,-0.023510800000000002,-0.31363526,-0.87964714,-0.35679218,-7.24012,7.4159493,0.43242559999999997,-0.02718583,-2.6225400000000003,-0.10045291,11.730303838037926,-0.7045742547543338,-2.087738513855201,-0.6585738006368972,14.207861,-3.0821002,-0.80073225,1.5903047,0
-0.7999999999999992,6.2803698,-6.670273,1.5167238,-0.03453009,-0.30866274,-0.87919384,-0.36132085,-7.2081833,7.4779539999999995,0.42863795,-0.13286406,-2.5391288,-0.12784007,11.375059440545249,-1.5046018244640804,-1.0516001621464517,-0.4279295529478254,15.321473000000001,-3.6688662000000005,-0.8267009,1.7121753,0
-0.7899999999999991,6.2084513,-6.595200999999999,1.5209793,-0.044517916,-0.30322486,-0.87884,-0.36566743,-7.1751833,7.536111999999999,0.4225556,-0.34678882,-2.3071287,-0.14256555,11.375059440545249,-1.5046018244640804,-1.0516001621464517,-0.4279295529478254,15.321473000000001,-3.6688662000000005,-0.8267009,1.7121753,0
-0.7799999999999991,6.136872,-6.5195574999999995,1.5251769,-0.053180337,-0.2972738,-0.8786849,-0.36974666,-7.1404667,7.592295,0.4170670999999999,-0.52735025,-2.111308,-0.15656845,11.375059440545249,-1.5046018244640804,-1.0516001621464517,-0.4279295529478254,15.321473000000001,-3.6688662000000005,-0.8267009,1.7121753,0
-0.7699999999999991,6.065647,-6.4433618,1.5293226999999998,-0.060717676,-0.29089397,-0.8786941999999999,-0.37361768,-7.104349000000001,7.646511,0.41221377,-0.67975235,-1.9460256999999999,-0.16988422,11.375059440545249,-1.5046018244640804,-1.0516001621464517,-0.4279295529478254,15.321473000000001,-3.6688662000000005,-0.8267009,1.7121753,0
-0.7599999999999991,5.9947886,-6.3666339999999995,1.5334233,-0.06729976,-0.28415486,-0.8788349,-0.3773268,-7.067099000000001,7.698767,0.40803117,-0.80838674,-1.8065197,-0.18254659,11.375059440545249,-1.5046018244640804,-1.0516001621464517,-0.4279295529478254,15.17901,-3.7954457,-0.42008522,1.9339043999999999,0
-0.7499999999999991,5.9243083,-6.2893930000000005,1.5374856000000001,-0.07307050400000001,-0.27711383,-0.8790766,-0.38091007,-7.028944,7.7490716,0.40454835,-0.91696036,-1.6887704,-0.1945876,11.375059440545249,-1.5046018244640804,-1.0516001621464517,-0.4279295529478254,15.17901,-3.7954457,-0.42008522,1.9339043999999999,0
-0.7399999999999989,5.8542123,-6.2116584999999995,1.5415168,-0.078151844,-0.26981843,-0.87939173,-0.38439557,-6.990077499999999,7.797431,0.40178764,-1.008602,-1.589385,-0.20603776,11.375059440545249,-1.5046018244640804,-1.0516001621464517,-0.4279295529478254,15.17901,-3.7954457,-0.42008522,1.9339043999999999,0
-0.7299999999999989,5.7845087,-6.133451,1.5455239,-0.08264711,-0.26230812,-0.8797559000000001,-0.38780513,-6.950666,7.84385,0.39976475,-1.0859524999999999,-1.5054996999999999,-0.21692605,11.375059440545249,-1.5046018244640804,-1.0516001621464517,-0.4279295529478254,15.17901,-3.7954457,-0.42008522,1.9339043999999999,0
-0.7199999999999989,5.715201,-6.0547886,1.5495146999999998,-0.08664383,-0.25461584,-0.8801479,-0.39115557,-6.9108515,7.8883324,0.39848927,-1.1512402,-1.4346973,-0.22728005,10.994993493667092,-2.011418288438332,-0.16571606950149895,-0.1186327924337387,14.231062,-3.8002825,-0.6691334,3.3510422999999996,0
-0.7099999999999989,5.646286,-5.975698,1.5534801,-0.08983427,-0.24672654,-0.8806470999999999,-0.39435490000000006,-6.8721156,7.9294649999999995,0.39470923,-1.2853508999999999,-1.2367848999999997,-0.2219487,10.994993493667092,-2.011418288438332,-0.16571606950149895,-0.1186327924337387,14.231062,-3.8002825,-0.6691334,3.3510422999999996,0
-0.6999999999999991,5.5777589999999995,-5.8962054,1.5574114,-0.09197896,-0.23863055,-0.8813191999999999,-0.39732990000000007,-6.83335,7.968783,0.39168805,-1.3985528999999999,-1.0697408000000002,-0.21687897,10.994993493667092,-2.011418288438332,-0.16571606950149895,-0.1186327924337387,14.231062,-3.8002825,-0.6691334,3.3510422999999996,0
-0.6899999999999991,5.509618799999999,-5.8163290000000005,1.5613166,-0.093238294,-0.23035978,-0.8821266,-0.40011612,-6.7947807000000005,8.006341,0.38945463,-1.494106,-0.92874986,-0.21205801,10.994993493667092,-2.011418288438332,-0.16571606950149895,-0.1186327924337387,14.231062,-3.8002825,-0.6691334,3.3510422999999996,0
-0.679999999999999,5.441862,-5.736085,1.5652033,-0.09374782,-0.22194041,-0.8830359,-0.40274155,-6.7565990000000005,8.042187,0.38802907,-1.5747617,-0.8097485,-0.20747359999999998,10.700958624253554,-2.3737763143777806,0.6144391501668289,0.20658292942823128,14.110087,-3.6481339999999998,-0.13349344,3.4910699999999997,0
-0.669999999999999,5.3744793,-5.6554956,1.5690669,-0.09329666,-0.21338828,-0.88409483,-0.40513802,-6.719991,8.075451,0.38481888,-1.6993296000000002,-0.5876528,-0.18715572,10.700958624253554,-2.3737763143777806,0.6144391501668289,0.20658292942823128,14.110087,-3.6481339999999998,-0.13349344,3.4910699999999997,0
-0.659999999999999,5.307459400000001,-5.574580999999999,1.5729026000000002,-0.091723755,-0.20471664,-0.8853392,-0.40724888,-6.684168,8.107173,0.38243324,-1.8044813000000002,-0.40019706,-0.16783486,10.700958624253554,-2.3737763143777806,0.6144391501668289,0.20658292942823128,14.110087,-3.6481339999999998,-0.13349344,3.4910699999999997,0
-0.649999999999999,5.2407928,-5.493357,1.5767183999999999,-0.089201935,-0.19594158,-0.8867238000000002,-0.40910888,-6.6493573,8.13743,0.38089114,-1.8932423999999999,-0.2419781,-0.14946206,10.700958624253554,-2.3737763143777806,0.6144391501668289,0.20658292942823128,14.110087,-3.6481339999999998,-0.13349344,3.4910699999999997,0
-0.639999999999999,5.1744685,-5.411837599999999,1.5805231000000002,-0.08587719999999999,-0.18707627,-0.8882088,-0.41074553,-6.615753,8.166289,0.38020042,-1.9681671000000003,-0.10843533,-0.13199082,10.708811020933947,-2.5702078966917394,1.1566455348079028,0.525571082950974,14.405869000000001,-3.9560251,0.17641328,3.4651739999999998,0
-0.629999999999999,5.108474,-5.330035700000001,1.5843256000000001,-0.081655025,-0.17814748,-0.8898081,-0.41211247,-6.583507000000001,8.193832,0.3804321,-2.0620396,0.08881818,-0.099724084,10.708811020933947,-2.5702078966917394,1.1566455348079028,0.525571082950974,14.405869000000001,-3.9560251,0.17641328,3.4651739999999998,0
-0.619999999999999,5.042793799999999,-5.247965,1.5881345,-0.07646694,-0.16917649,-0.8915284,-0.41316882,-6.552849299999999,8.2201185,0.38151209999999997,-2.141282,0.25530764,-0.06904066,10.708811020933947,-2.5702078966917394,1.1566455348079028,0.525571082950974,14.405869000000001,-3.9560251,0.17641328,3.4651739999999998,0
-0.6099999999999992,4.9774113,-5.165637,1.5919584999999998,-0.070461996,-0.16016579,-0.8933271999999999,-0.41394183,-6.523974,8.245223,0.38342905,-2.2081738,0.3958317,-0.039862893999999996,10.708811020933947,-2.5702078966917394,1.1566455348079028,0.525571082950974,14.405869000000001,-3.9560251,0.17641328,3.4651739999999998,0
-0.5999999999999992,4.912308,-5.0830636,1.5958058000000002,-0.06376625,-0.15111761,-0.89516747,-0.41445374,-6.4970474000000005,8.269210000000001,0.38616052,-2.264639,0.5144407,-0.012116878000000001,11.126042814567406,-2.604487206069497,1.578310698733455,0.7981185745683066,12.592938,-3.464147,1.4413036,2.7694213,0
-0.5899999999999992,4.847469,-5.000252,1.5997041,-0.056334537000000004,-0.14208955,-0.8970433000000001,-0.41466814,-6.4712515,8.293027,0.39363328,-2.3176541,0.6802911,0.027641607000000002,11.126042814567406,-2.604487206069497,1.578310698733455,0.7981185745683066,12.592938,-3.464147,1.4413036,2.7694213,0
-0.5799999999999992,4.782875,-4.917206299999999,1.6036811000000002,-0.048136785999999994,-0.13312742,-0.8989465,-0.41455334,-6.447801,8.31582,0.40187633,-2.3624080000000003,0.82027775,0.06544914,11.126042814567406,-2.604487206069497,1.578310698733455,0.7981185745683066,12.592938,-3.464147,1.4413036,2.7694213,0
-0.5699999999999992,4.718504,-4.8339386,1.6077442,-0.039291933,-0.12421749,-0.90084416,-0.41413203,-6.4268517,8.337665,0.41083804,-2.4001873,0.9384349,0.10140144,11.126042814567406,-2.604487206069497,1.578310698733455,0.7981185745683066,12.592938,-3.464147,1.4413036,2.7694213,0
-0.5599999999999992,4.6543282999999995,-4.7504563,1.6119002,-0.029900815,-0.11534856,-0.9027076999999999,-0.41342318,-6.4085345,8.358618,0.42045823,-2.4320774,1.038167,0.13558955,11.126042814567406,-2.604487206069497,1.578310698733455,0.7981185745683066,13.152097,-3.639911,1.1104445,3.4463494,0
-0.5499999999999992,4.590323000000001,-4.666768599999999,1.6161553999999998,-0.020048983,-0.106511705,-0.9045129000000001,-0.4124428,-6.3929625,8.378727,0.43066946,-2.4589956,1.1223476000000001,0.16810004,11.126042814567406,-2.604487206069497,1.578310698733455,0.7981185745683066,13.152097,-3.639911,1.1104445,3.4463494,0
-0.5399999999999991,4.5264597,-4.5828843,1.6205152,-0.009809099,-0.097699866,-0.90623873,-0.41120464,-6.38023,8.398025500000001,0.44139785,-2.4817166,1.1934023999999999,0.19901523,11.126042814567406,-2.604487206069497,1.578310698733455,0.7981185745683066,13.152097,-3.639911,1.1104445,3.4463494,0
-0.5299999999999991,4.4627085,-4.498811,1.6249847,0.0007570542,-0.08890763,-0.90786743,-0.40972057,-6.370419,8.416537,0.45256427,-2.5008943,1.2533783,0.22841342,11.126042814567406,-2.604487206069497,1.578310698733455,0.7981185745683066,13.152097,-3.639911,1.1104445,3.4463494,0
-0.5199999999999991,4.399041,-4.414556500000001,1.6295677,0.011596881000000002,-0.08013096,-0.9093839,-0.40800107,-6.363596,8.434279,0.46408507,-2.5170807999999996,1.3040029,0.25636902,11.714949413339582,-2.4926390583300844,1.6973580880600687,0.9833591348294084,14.792278,-3.4907383999999997,0.7578039000000001,3.4206144999999997,0
-0.5099999999999991,4.3354273,-4.330123400000001,1.6342963,0.022688875,-0.07142741,-0.91078043,-0.4060316,-6.3596167999999995,8.452166,0.48168890000000003,-2.513311,1.3652885000000001,0.29204264,11.714949413339582,-2.4926390583300844,1.6973580880600687,0.9833591348294084,14.792278,-3.4907383999999997,0.7578039000000001,3.4206144999999997,0
-0.4999999999999991,4.2718377,-4.245516,1.639202,0.03401343,-0.062843315,-0.9120519,-0.40380007,-6.3588886,8.469282000000002,0.4994751,-2.5101283,1.4170196000000002,0.32596576,11.714949413339582,-2.4926390583300844,1.6973580880600687,0.9833591348294084,14.792278,-3.4907383999999997,0.7578039000000001,3.4206144999999997,0
-0.4899999999999989,4.2082386,-4.160741000000001,1.6442862,0.045531525999999996,-0.05436107,-0.9131894,-0.40131816,-6.36145,8.485652,0.517343,-2.5074408,1.4606861,0.35822424,11.714949413339582,-2.4926390583300844,1.6973580880600687,0.9833591348294084,14.792278,-3.4907383999999997,0.7578039000000001,3.4206144999999997,0
-0.47999999999999887,4.1445975,-4.0758057,1.6495488999999999,0.057209775,-0.04596627,-0.9141851000000001,-0.39859647,-6.367328,8.501292,0.53519094,-2.5051707999999997,1.4975454,0.3888998,12.677756617945947,-2.295238402176178,1.474503121830418,1.1049506763921744,15.401685999999998,-3.284697,0.6323506999999999,3.4308989999999997,0
-0.46999999999999886,4.080877,-3.9907114999999997,1.6550369999999999,0.068905994,-0.037684944,-0.9150412,-0.39563978,-6.3772936,8.517437,0.5624366,-2.4724652999999996,1.4939036,0.42403662,12.677756617945947,-2.295238402176178,1.474503121830418,1.1049506763921744,15.401685999999998,-3.284697,0.6323506999999999,3.4308989999999997,0
-0.45999999999999885,4.017039,-3.9054599999999997,1.6607966,0.080506206,-0.029538399,-0.91576546,-0.39245293,-6.3908343,8.532799,0.58944523,-2.4448586,1.4908324,0.45744926,12.677756617945947,-2.295238402176178,1.474503121830418,1.1049506763921744,15.401685999999998,-3.284697,0.6323506999999999,3.4308989999999997,0
-0.44999999999999885,3.9530475,-3.8200586000000003,1.6668247,0.09202189999999999,-0.02150948,-0.9163585,-0.38904494,-6.407906,8.547371,0.6161159,-2.4215555,1.4882426000000002,0.48922235,12.677756617945947,-2.295238402176178,1.474503121830418,1.1049506763921744,15.401685999999998,-3.284697,0.6323506999999999,3.4308989999999997,0
-0.43999999999999884,3.888868,-3.7345154000000003,1.6731174,0.103462495,-0.013583915,-0.91681993,-0.3854242,-6.428467299999999,8.561145,0.6423503,-2.401885,1.486059,0.51943636,13.026747550435624,-1.8787686927438831,0.9425548776337396,1.0780905799309937,16.50904,-3.231425,-0.64879084,3.693032,0
-0.4299999999999988,3.8244629999999997,-3.6488369,1.6796868999999999,0.11457675,-0.0058206473,-0.91717076,-0.3816225,-6.4531245,8.574461999999999,0.6714638,-2.320302,1.401286,0.5468497,13.026747550435624,-1.8787686927438831,0.9425548776337396,1.0780905799309937,16.50904,-3.231425,-0.64879084,3.693032,0
-0.4199999999999988,3.7597940000000003,-3.5630292999999997,1.6865445,0.12516743,0.0017331291,-0.91743934,-0.37767038,-6.481169,8.586916,0.69996166,-2.2514423999999997,1.3297333999999998,0.5729179,13.026747550435624,-1.8787686927438831,0.9425548776337396,1.0780905799309937,16.50904,-3.231425,-0.64879084,3.693032,0
-0.4099999999999988,3.6948287000000004,-3.4771016,1.693684,0.13531429999999997,0.009104467,-0.9176329,-0.37357295,-6.5124483,8.598479,0.72778475,-2.1933224,1.2693393999999998,0.5977068,13.026747550435624,-1.8787686927438831,0.9425548776337396,1.0780905799309937,16.50904,-3.231425,-0.64879084,3.693032,0
-0.3999999999999988,3.6295345,-3.3910627,1.7010981,0.14508452,0.016316421,-0.91775584,-0.36933482,-6.546828,8.609124000000001,0.7548786,-2.1442669999999997,1.2183638,0.62127936,13.12224567468583,-1.374016433186959,0.30947194054140104,0.9556010594902004,16.499342000000002,-3.2736528,-0.88023424,3.9098332,0
-0.3899999999999988,3.5638803999999995,-3.304922,1.7087835999999998,0.15422787,0.02329861,-0.9178483000000001,-0.36500029999999994,-6.5844455,8.618896000000001,0.7821099,-2.024101,1.0766497,0.63768464,13.12224567468583,-1.374016433186959,0.30947194054140104,0.9556010594902004,16.499342000000002,-3.2736528,-0.88023424,3.9098332,0
-0.3799999999999988,3.4978358999999997,-3.2186885,1.7167375,0.1625511,0.029995881000000002,-0.91795266,-0.36061057,-6.624827000000001,8.627684,0.80855227,-1.922681,0.95703113,0.6532849000000001,13.12224567468583,-1.374016433186959,0.30947194054140104,0.9556010594902004,16.499342000000002,-3.2736528,-0.88023424,3.9098332,0
-0.3699999999999988,3.431375,-3.1323717,1.724952,0.17018272,0.036447283,-0.91807175,-0.35616479999999995,-6.667745,8.635455,0.8342113999999999,-1.8370824000000001,0.8560633,0.6681196,13.12224567468583,-1.374016433186959,0.30947194054140104,0.9556010594902004,16.499342000000002,-3.2736528,-0.88023424,3.9098332,0
-0.35999999999999877,3.3644729,-3.0459824,1.7334192,0.17723091,0.04268625,-0.91820514,-0.351662,-6.713008,8.642186,0.8590941999999999,-1.7648377,0.7708379,0.6822264,13.12224567468583,-1.374016433186959,0.30947194054140104,0.9556010594902004,16.954784,-3.0997076,-1.7353733,3.8738129999999997,0
-0.34999999999999876,3.2971074999999996,-2.9595314999999998,1.7421311999999998,0.18378666,0.04874137,-0.9183502,-0.34710145,-6.76045,8.647853999999999,0.8832071,-1.7038636000000003,0.6989002,0.69564104,13.12224567468583,-1.374016433186959,0.30947194054140104,0.9556010594902004,16.954784,-3.0997076,-1.7353733,3.8738129999999997,0
-0.33999999999999875,3.2292572999999996,-2.8730290000000003,1.7510806,0.18992652,0.054637085999999994,-0.91850317,-0.34248257,-6.809929400000001,8.652439,0.9065552,-1.6524019,0.6381785,0.7083974000000001,13.12224567468583,-1.374016433186959,0.30947194054140104,0.9556010594902004,16.954784,-3.0997076,-1.7353733,3.8738129999999997,0
-0.32999999999999874,3.1609025,-2.7864861000000003,1.7602596999999998,0.19571483,0.060394305999999995,-0.91865975,-0.33780506,-6.8613234,8.655924,0.9291421999999999,-1.6089688999999998,0.5869241999999999,0.72052765,13.12224567468583,-1.374016433186959,0.30947194054140104,0.9556010594902004,16.954784,-3.0997076,-1.7353733,3.8738129999999997,0
-0.31999999999999873,3.0920248,-2.699914,1.7696608,0.20120569,0.06603088,-0.9188149999999999,-0.33306888,-6.9145270000000005,8.658292999999999,0.9509700000000001,-1.5723120000000002,0.543661,0.73206276,12.951022291391306,-0.8466160973789627,-0.3671208506251564,0.7703356799421519,16.661226,-2.2617166,-3.1840653,2.6416322999999995,0
-0.3099999999999987,3.0226102000000004,-2.613324,1.7792686000000002,0.20612466,0.07146251,-0.91902727,-0.32832035,-6.968713,8.659514999999999,0.9704919,-1.4590731000000001,0.40167734,0.7339408000000001,12.951022291391306,-0.8466160973789627,-0.3671208506251564,0.7703356799421519,16.661226,-2.2617166,-3.1840653,2.6416322999999995,0
-0.2999999999999987,2.9526458,-2.5267274,1.7890682,0.21025836,0.07662303,-0.919349,-0.32360079999999997,-7.0243782999999995,8.659607000000001,0.9893277,-1.3635038000000002,0.2818277,0.7357267,12.951022291391306,-0.8466160973789627,-0.3671208506251564,0.7703356799421519,16.661226,-2.2617166,-3.1840653,2.6416322999999995,0
-0.2899999999999987,2.8821182,-2.4401357000000004,1.7990531000000003,0.21373053,0.08155131,-0.91976583,-0.31890327,-7.0813193,8.658553999999999,1.0075432,-1.2828473999999999,0.18066184,0.73742497,12.951022291391306,-0.8466160973789627,-0.3671208506251564,0.7703356799421519,16.661226,-2.2617166,-3.1840653,2.6416322999999995,0
-0.2799999999999987,2.8110156,-2.3535604,1.8092172,0.21664509,0.08628054,-0.9202636000000001,-0.31422177,-7.139364,8.656345,1.0251956,-1.2147763999999999,0.09526676,0.7390399000000001,11.994153680200991,-0.3553266641675577,-1.2654590286314915,0.5249014367257162,15.953598000000001,-1.6710538000000001,-4.0375953,2.036483,0
-0.2699999999999989,2.7393494,-2.267012,1.8195127,0.21869457,0.09077698,-0.9209156999999999,-0.30959040000000004,-7.193987,8.65322,1.0338308,-1.0806444,-0.116865695,0.7285321,11.994153680200991,-0.3553266641675577,-1.2654590286314915,0.5249014367257162,15.953598000000001,-1.6710538000000001,-4.0375953,2.036483,0
-0.2599999999999989,2.6671336,-2.1805,1.8298926,0.21964028,0.09501479,-0.92178154,-0.30503926,-7.2492339999999995,8.648989,1.0421059000000001,-0.96744835,-0.29592812,0.71853983,11.994153680200991,-0.3553266641675577,-1.2654590286314915,0.5249014367257162,15.953598000000001,-1.6710538000000001,-4.0375953,2.036483,0
-0.2499999999999989,2.5943632,-2.094036,1.840354,0.21965475,0.099031076,-0.92282706,-0.30055737,-7.3048615,8.643622,1.0501316,-0.87192047,-0.44707579999999997,0.70903796,11.994153680200991,-0.3553266641675577,-1.2654590286314915,0.5249014367257162,15.953598000000001,-1.6710538000000001,-4.0375953,2.036483,0
-0.23999999999999888,2.5210357000000005,-2.0076313000000003,1.8508947,0.21888287,0.1028575,-0.9240209,-0.29613498,-7.360662,8.637101,1.0580015,-0.7913024000000001,-0.57466036,0.7000024,11.119039719348297,0.08724909301786661,-1.9407209890184487,0.26472034086463125,12.476955,-0.58582616,-3.5249028,1.5447603,0
-0.22999999999999865,2.4471703,-1.921295,1.8614751,0.21714105,0.10644389999999998,-0.9254026,-0.29180372,-7.412374000000001,8.629971000000001,1.058076,-0.65420634,-0.7876251999999999,0.678643,11.119039719348297,0.08724909301786661,-1.9407209890184487,0.26472034086463125,12.476955,-0.58582616,-3.5249028,1.5447603,0
-0.21999999999999864,2.372789,-1.8350357,1.8720564999999998,0.21428931,0.10975134,-0.92699856,-0.2875905,-7.4638352,8.621741,1.0581965,-0.53851,-0.9673915999999999,0.6583317,11.119039719348297,0.08724909301786661,-1.9407209890184487,0.26472034086463125,12.476955,-0.58582616,-3.5249028,1.5447603,0
-0.20999999999999863,2.2978952,-1.748864,1.8826398000000002,0.21049818,0.112820074,-0.92876303,-0.28348055,-7.514817,8.612405,1.0584673999999998,-0.44087209999999993,-1.1191343999999999,0.6390170999999999,11.119039719348297,0.08724909301786661,-1.9407209890184487,0.26472034086463125,12.476955,-0.58582616,-3.5249028,1.5447603,0
-0.19999999999999862,2.2224947999999998,-1.6627913,1.8932269,0.20591104,0.11568427,-0.93065536,-0.27946079999999995,-7.5651245,8.601954,1.0589733000000001,-0.35847348,-1.2472216999999999,0.62065023,10.56775299634054,0.3879494714351808,-2.2742406029581725,0.028558815950987082,13.303881,-1.1397834999999998,-4.452856,1.9202686999999998,0
-0.18999999999999884,2.1466079,-1.576826,1.9037958,0.2004874,0.1183039,-0.93267244,-0.27555599999999997,-7.6121286999999995,8.590966,1.0548809,-0.24203113,-1.4073328,0.5915961,10.56775299634054,0.3879494714351808,-2.2742406029581725,0.028558815950987082,13.303881,-1.1397834999999998,-4.452856,1.9202686999999998,0
-0.17999999999999883,2.0702555,-1.4909757,1.9143256999999998,0.19420053,0.12064841,-0.93480575,-0.27178726,-7.658137,8.578932,1.0511523,-0.14376178,-1.5424862,0.5639677,10.56775299634054,0.3879494714351808,-2.2742406029581725,0.028558815950987082,13.303881,-1.1397834999999998,-4.452856,1.9202686999999998,0
-0.16999999999999882,1.9934488999999997,-1.405251,1.9248203000000002,0.18718019,0.12275741,-0.9370142,-0.26813886,-7.702971000000001,8.5658655,1.0478505,-0.06082794,-1.6565713,0.53769505,10.56775299634054,0.3879494714351808,-2.2742406029581725,0.028558815950987082,13.303881,-1.1397834999999998,-4.452856,1.9202686999999998,0
-0.1599999999999988,1.9162006,-1.3196620000000001,1.9352843999999998,0.17953591,0.12466445,-0.9392623999999999,-0.26459724,-7.746478,8.551785,1.0450205,0.009164097,-1.7528718999999997,0.5127116,10.56775299634054,0.3879494714351808,-2.2742406029581725,0.028558815950987082,13.553390499999999,-1.3185822,-4.7459907999999995,1.7032927,0
-0.1499999999999988,1.8385245,-1.2342187,1.9457224999999998,0.17136024,0.12639786,-0.9415198,-0.2611507,-7.788523700000001,8.536706,1.0426924000000002,0.06823425,-1.8341603,0.4889541,10.56775299634054,0.3879494714351808,-2.2742406029581725,0.028558815950987082,13.553390499999999,-1.3185822,-4.7459907999999995,1.7032927,0
-0.1399999999999988,1.7604357,-1.1489311000000002,1.9561398999999997,0.16273148,0.12798165,-0.9437605,-0.25778908,-7.8289914000000005,8.520647,1.0408832000000001,0.11808751,-1.9027766,0.46636239999999995,10.56775299634054,0.3879494714351808,-2.2742406029581725,0.028558815950987082,13.553390499999999,-1.3185822,-4.7459907999999995,1.7032927,0
-0.12999999999999878,1.6819506000000002,-1.063809,1.9665419999999998,0.15371598,0.12943606,-0.9459628000000001,-0.25450358,-7.8677793000000005,8.503627999999999,1.0395986,0.16016254,-1.960696,0.44487923,10.56775299634054,0.3879494714351808,-2.2742406029581725,0.028558815950987082,13.553390499999999,-1.3185822,-4.7459907999999995,1.7032927,0
-0.11999999999999877,1.6030862,-0.97886175,1.9769337,0.14437002,0.13077819999999998,-0.9481083,-0.25128663,-7.9047979999999995,8.485667999999999,1.0388351999999998,0.19567314,-2.0095856,0.42445028,10.258292986632485,0.5291866956344805,-2.244644753629665,-0.16766390162111422,15.825466,-2.0460062,-5.6293334999999995,2.3426769,0
-0.10999999999999877,1.5238662,-0.8940961,1.9873060000000002,0.13473536,0.13196935,-0.95018154,-0.24816420000000003,-7.9389386,8.467341000000001,1.0357167999999999,0.24765582,-2.0462337,0.39539507,10.258292986632485,0.5291866956344805,-2.244644753629665,-0.16766390162111422,15.825466,-2.0460062,-5.6293334999999995,2.3426769,0
-0.09999999999999876,1.4443138999999998,-0.8095179,1.9976497,0.12484767,0.13297975,-0.9521693000000001,-0.24515912,-7.971214,8.448160000000001,1.0330805,0.29153103,-2.0771697000000002,0.36776559999999997,10.258292986632485,0.5291866956344805,-2.244644753629665,-0.16766390162111422,15.825466,-2.0460062,-5.6293334999999995,2.3426769,0
-0.08999999999999875,1.3644484,-0.7251357,2.0079694,0.11474293,0.13383466,-0.9540608,-0.24226086,-8.001559,8.428161,1.030908,0.3285635,-2.1032841,0.34149194,10.258292986632485,0.5291866956344805,-2.244644753629665,-0.16766390162111422,15.825466,-2.0460062,-5.6293334999999995,2.3426769,0
