time-since-start [s],throttle_mpc,roll_mpc,pitch_mpc,yaw_mpc,throttle_nw,roll_nw,pitch_nw,yaw_nw,position_x [m],position_y [m],position_z [m],rotation_w [quaternion],rotation_x [quaternion],rotation_y [quaternion],rotation_z [quaternion],velocity_x [m/s],velocity_y [m/s],velocity_z [m/s],omega_x [rad/s],omega_y [rad/s],omega_z [rad/s],network_used,gaze_2d_norm_x,gaze_2d_norm_y,gaze_2d_x,gaze_2d_y,gaze_3d_x,gaze_3d_y,gaze_3d_z,angle_rad,angle_deg,high_level_label
0.0,15.455885798370083,5.999999568652996,-5.999999923554128,-2.6543304441457756,13.5774145,-0.11005766,-5.45139,-0.6417315,17.415865,-10.258342,1.8674515,0.0638382,-0.33203015,0.309873,0.8886278,-11.316415,-3.689745,-0.13425161,2.3331666,-0.07361449,-0.6836583,0,0.08214755058288574,-0.30548421223958333,0.5410737752914428,0.34725789388020833,-0.9008924891876986,0.4322145315014085,-0.039790974909022864,0.7625105717397895,43.68863759479733,1
0.01,15.455885798370083,5.999999568652996,-5.999999923554128,-2.6543304441457756,14.519429,1.2172419,-3.8859122,-1.2538881,17.302286,-10.294772,1.8660737,0.09481556,-0.30724874,0.32989728,0.8875675,-11.397635,-3.595064,-0.14117213,5.9999995,-6.0,-2.6543305,0,0.08214755058288574,-0.30548421223958333,0.5410737752914428,0.34725789388020833,-0.9008924891876986,0.4322145315014085,-0.039790974909022864,0.7625105717397895,43.68863759479733,1
0.02,15.455885798370083,5.999999568652996,-5.999999923554128,-2.6543304441457756,14.519429,1.2172419,-3.8859122,-1.2538881,17.18795,-10.330218,1.8646309,0.12560558,-0.28186026,0.34926975,0.8847535,-11.468147,-3.4928687,-0.14729795,5.9999995,-6.0,-2.6543305,0,0.08214755058288574,-0.30548421223958333,0.5410737752914428,0.34725789388020833,-0.9008924891876986,0.4322145315014085,-0.039790974909022864,0.7625105717397895,43.68863759479733,1
0.03,15.455885798370083,5.999999568652996,-5.999999923554128,-2.6543304441457756,14.519429,1.2172419,-3.8859122,-1.2538881,17.072964,-10.364608,1.8631293,0.15614744,-0.2559149,0.3679521,0.8801914,-11.527343,-3.3840759,-0.15301174,5.9999995,-6.0,-2.6543305,0,0.08214755058288574,-0.30548421223958333,0.5410737752914428,0.34725789388020833,-0.9008924891876986,0.4322145315014085,-0.039790974909022864,0.7625105717397895,43.68863759479733,1
0.04,15.455885798370083,5.999999568652996,-5.999999923554128,-2.6543304441457756,13.244237,-0.6969384,-4.1314945,-0.025892504,16.957443,-10.39788,1.8615708,0.18638077,-0.22946388,0.3859075,0.87389016,-11.574701,-3.2696548,-0.15869947,5.9999995,-6.0,-2.6543305,0,0.08214755058288574,-0.30548421223958333,0.5410737752914428,0.34725789388020833,-0.9008924891876986,0.4322145315014085,-0.039790974909022864,0.7625105717397895,43.68863759479733,1
0.05,15.455885798370083,5.999999568652996,-5.999999923554128,-2.6543304441457756,13.244237,-0.6969384,-4.1314945,-0.025892504,16.84151,-10.429984,1.859954,0.21624584,-0.20255949,0.4031004,0.8658623,-11.6097975,-3.1506186,-0.16474721,5.9999995,-6.0,-2.6543305,0,0.08214755058288574,-0.30548421223958333,0.5410737752914428,0.34725789388020833,-0.9008924891876986,0.4322145315014085,-0.039790974909022864,0.7625105717397895,43.68863759479733,1
0.060000000000000005,15.455885798370083,5.999999568652996,-5.999999923554128,-2.6543304441457756,13.244237,-0.6969384,-4.1314945,-0.025892504,16.72529,-10.460879,1.8582733,0.24568367,-0.17525487,0.4194968,0.8561236,-11.632304,-3.028017,-0.1715383,5.9999995,-6.0,-2.6543305,0,0.08214755058288574,-0.30548421223958333,0.5410737752914428,0.34725789388020833,-0.9008924891876986,0.4322145315014085,-0.039790974909022864,0.7625105717397895,43.68863759479733,1
0.07,15.455885798370083,5.999999568652996,-5.999999923554128,-2.6543304441457756,13.244237,-0.6969384,-4.1314945,-0.025892504,16.60891,-10.490535,1.8565193,0.2746361,-0.14760397,0.4350644,0.8446935,-11.641992,-2.9029279,-0.17945011,5.9999995,-6.0,-2.6543305,0,-0.21645828247070312,0.0002925897638003031,0.39177085876464846,0.5001462948819001,-0.8123766940314567,0.5830887038075203,0.007188218596189816,0.8669105383782529,49.670315064487866,1
0.08,20.999800407394783,5.824555106439053,-5.99999981133481,-1.6037529791793308,13.809702,-0.03128075,-3.1473324,-0.47074983,16.492495,-10.518933,1.8546792,0.30304587,-0.11966144,0.4497724,0.8315943,-11.638731,-2.7764492,-0.18885124,5.9999995,-6.0,-2.6543305,0,-0.21645828247070312,0.0002925897638003031,0.39177085876464846,0.5001462948819001,-0.8123766940314567,0.5830887038075203,0.007188218596189816,0.8669105383782529,49.670315064487866,1
0.09,20.999800407394783,5.824555106439053,-5.99999981133481,-1.6037529791793308,13.809702,-0.03128075,-3.1473324,-0.47074983,16.376202,-10.545836,1.8528925,0.32641053,-0.08939538,0.463528,0.8189056,-11.616762,-2.6042626,-0.16886598,5.824555,-6.0,-1.603753,0,-0.21645828247070312,0.0002925897638003031,0.39177085876464846,0.5001462948819001,-0.8123766940314567,0.5830887038075203,0.007188218596189816,0.8669105383782529,49.670315064487866,1
0.09999999999999999,20.999800407394783,5.824555106439053,-5.99999981133481,-1.6037529791793308,13.809702,-0.03128075,-3.1473324,-0.47074983,16.260218,-10.571022,1.8512921,0.3491837,-0.058967326,0.47644365,0.80473286,-11.577513,-2.4332275,-0.1517203,5.824555,-6.0,-1.603753,0,-0.21645828247070312,0.0002925897638003031,0.39177085876464846,0.5001462948819001,-0.8123766940314567,0.5830887038075203,0.007188218596189816,0.8669105383782529,49.670315064487866,1
0.10999999999999999,20.999800407394783,5.824555106439053,-5.99999981133481,-1.6037529791793308,13.809702,-0.03128075,-3.1473324,-0.47074983,16.14471,-10.59451,1.8498466,0.3713241,-0.02843241,0.48849586,0.78910184,-11.521234,-2.2646997,-0.13798971,5.824555,-6.0,-1.603753,0,-0.21645828247070312,0.0002925897638003031,0.39177085876464846,0.5001462948819001,-0.8123766940314567,0.5830887038075203,0.007188218596189816,0.8669105383782529,49.670315064487866,1
0.11999999999999998,20.999800407394783,5.824555106439053,-5.99999981133481,-1.6037529791793308,13.809702,-0.03128075,-3.1473324,-0.47074983,16.02985,-10.61633,1.848519,0.39279157,0.0021540285,0.49966288,0.77204084,-11.448295,-2.1000173,-0.12822501,5.824555,-6.0,-1.603753,0,-0.21645828247070312,0.0002925897638003031,0.39177085876464846,0.5001462948819001,-0.8123766940314567,0.5830887038075203,0.007188218596189816,0.8669105383782529,49.670315064487866,1
0.12999999999999998,20.99999907965976,1.8146860633587771,-5.999998279211412,0.7690864166735276,13.204006,-1.7452923,0.50724256,-0.745167,15.915799,-10.636528,1.8472667,0.41354728,0.032736562,0.5099244,0.7535808,-11.359192,-1.9404896,-0.12294822,5.824555,-6.0,-1.603753,0,-0.21645828247070312,0.0002925897638003031,0.39177085876464846,0.5001462948819001,-0.8123766940314567,0.5830887038075203,0.007188218596189816,0.8669105383782529,49.670315064487866,1
0.13999999999999999,20.99999907965976,1.8146860633587771,-5.999998279211412,0.7690864166735276,13.204006,-1.7452923,0.50724256,-0.745167,15.802713,-10.655163,1.84605,0.42544198,0.06103613,0.5039764,0.7491872,-11.256359,-1.787751,-0.12013817,1.8146861,-5.999998,0.7690864,0,0.11616515159606934,-0.17324354807535808,0.5580825757980347,0.413378225962321,-0.08452679726665785,0.9955838987612478,-0.04084018941183485,1.6436036179281892,94.17155049971794,1
0.15,20.99999907965976,1.8146860633587771,-5.999998279211412,0.7690864166735276,13.204006,-1.7452923,0.50724256,-0.745167,15.690706,-10.672311,1.8448681,0.43691248,0.08927484,0.49752593,0.7440467,-11.143341,-1.6432527,-0.11609235,1.8146861,-5.999998,0.7690864,0,0.11616515159606934,-0.17324354807535808,0.5580825757980347,0.413378225962321,-0.08452679726665785,0.9955838987612478,-0.04084018941183485,1.6436036179281892,94.17155049971794,1
0.16,20.9999983761282,-0.524535220767413,-2.222812878262509,0.6869397513800395,13.9325285,-3.3041174,0.48197207,-0.6183411,15.579879,-10.688058,1.8437307,0.44794738,0.11742454,0.4905794,0.7381643,-11.020545,-1.5075294,-0.11130006,1.8146861,-5.999998,0.7690864,0,0.11616515159606934,-0.17324354807535808,0.5580825757980347,0.413378225962321,-0.08452679726665785,0.9955838987612478,-0.04084018941183485,1.6436036179281892,94.17155049971794,1
0.17,20.9999983761282,-0.524535220767413,-2.222812878262509,0.6869397513800395,13.9325285,-3.3041174,0.48197207,-0.6183411,15.470319,-10.702486,1.8426452,0.4511404,0.12613016,0.4832269,0.73963195,-10.891075,-1.3789428,-0.10547196,-0.52453524,-2.222813,0.6869398,0,0.11616515159606934,-0.17324354807535808,0.5580825757980347,0.413378225962321,-0.08452679726665785,0.9955838987612478,-0.04084018941183485,1.6436036179281892,94.17155049971794,1
0.18000000000000002,20.9999983761282,-0.524535220767413,-2.222812878262509,0.6869397513800395,13.9325285,-3.3041174,0.48197207,-0.6183411,15.362064,-10.715648,1.8416284,0.45426923,0.13481785,0.4758057,0.7409944,-10.75958,-1.2541705,-0.097556986,-0.52453524,-2.222813,0.6869398,0,0.11616515159606934,-0.17324354807535808,0.5580825757980347,0.413378225962321,-0.08452679726665785,0.9955838987612478,-0.04084018941183485,1.6436036179281892,94.17155049971794,1
0.19000000000000003,20.9999983761282,-0.524535220767413,-2.222812878262509,0.6869397513800395,13.9325285,-3.3041174,0.48197207,-0.6183411,15.255135,-10.727583,1.840701,0.4573335,0.14348637,0.46831682,0.74225146,-10.626107,-1.1332794,-0.08763512,-0.52453524,-2.222813,0.6869398,0,0.11616515159606934,-0.17324354807535808,0.5580825757980347,0.413378225962321,-0.08452679726665785,0.9955838987612478,-0.04084018941183485,1.6436036179281892,94.17155049971794,1
0.20000000000000004,20.79525341984883,-0.9674718771917128,-0.1432937616297853,0.5309685356774521,15.904804,-4.597046,3.475627,0.42825672,15.1495495,-10.738328,1.8398824,0.46033272,0.15213448,0.46076137,0.743403,-10.4907055,-1.0163342,-0.07578754,-0.52453524,-2.222813,0.6869398,0,0.13563498497009277,-0.18186542510986328,0.5678174924850464,0.4090672874450684,0.08848691313187734,0.9928231820663043,0.08044995560054795,1.756266043642487,100.62663200285336,1
0.21000000000000005,20.79525341984883,-0.9674718771917128,-0.1432937616297853,0.5309685356774521,15.904804,-4.597046,3.475627,0.42825672,15.045319,-10.747926,1.8391861,0.45941803,0.1516612,0.45642444,0.7467335,-10.355804,-0.9032091,-0.06321458,-0.9674719,-0.14329377,0.53096855,0,0.13563498497009277,-0.18186542510986328,0.5678174924850464,0.4090672874450684,0.08848691313187734,0.9928231820663043,0.08044995560054795,1.756266043642487,100.62663200285336,1
0.22000000000000006,20.79525341984883,-0.9674718771917128,-0.1432937616297853,0.5309685356774521,15.904804,-4.597046,3.475627,0.42825672,14.942431,-10.756394,1.8386241,0.45848912,0.15118325,0.45207337,0.7500408,-10.221848,-0.7906517,-0.048931155,-0.9674719,-0.14329377,0.53096855,0,0.13563498497009277,-0.18186542510986328,0.5678174924850464,0.4090672874450684,0.08848691313187734,0.9928231820663043,0.08044995560054795,1.756266043642487,100.62663200285336,1
0.23000000000000007,20.79525341984883,-0.9674718771917128,-0.1432937616297853,0.5309685356774521,15.904804,-4.597046,3.475627,0.42825672,14.8408785,-10.763741,1.8382133,0.457546,0.1507006,0.4477083,0.7533249,-10.088839,-0.67868125,-0.032947272,-0.9674719,-0.14329377,0.53096855,0,0.13563498497009277,-0.18186542510986328,0.5678174924850464,0.4090672874450684,0.08848691313187734,0.9928231820663043,0.08044995560054795,1.756266043642487,100.62663200285336,1
0.24000000000000007,20.79525341984883,-0.9674718771917128,-0.1432937616297853,0.5309685356774521,16.042475,-2.845553,5.163467,-0.55502564,14.740651,-10.76997,1.837971,0.45658872,0.15021329,0.44332936,0.75658566,-9.956784,-0.567317,-0.015273139,-0.9674719,-0.14329377,0.53096855,0,0.13563498497009277,-0.18186542510986328,0.5678174924850464,0.4090672874450684,0.08848691313187734,0.9928231820663043,0.08044995560054795,1.756266043642487,100.62663200285336,1
0.25000000000000006,20.79525341984883,-0.9674718771917128,-0.1432937616297853,0.5309685356774521,16.042475,-2.845553,5.163467,-0.55502564,14.64174,-10.775089,1.8379138,0.4556173,0.14972131,0.4389367,0.759823,-9.825691,-0.4565782,0.0040808134,-0.9674719,-0.14329377,0.53096855,0,0.13563498497009277,-0.18186542510986328,0.5678174924850464,0.4090672874450684,0.08848691313187734,0.9928231820663043,0.08044995560054795,1.756266043642487,100.62663200285336,1
0.26000000000000006,20.79525341984883,-0.9674718771917128,-0.1432937616297853,0.5309685356774521,16.042475,-2.845553,5.163467,-0.55502564,14.544134,-10.779103,1.8380584,0.4546318,0.14922471,0.43453047,0.76303685,-9.695565,-0.34648383,0.025103958,-0.9674719,-0.14329377,0.53096855,0,0.13563498497009277,-0.18186542510986328,0.5678174924850464,0.4090672874450684,0.08848691313187734,0.9928231820663043,0.08044995560054795,1.756266043642487,100.62663200285336,1
0.2700000000000001,20.79525341984883,-0.9674718771917128,-0.1432937616297853,0.5309685356774521,16.042475,-2.845553,5.163467,-0.55502564,14.447825,-10.782021,1.8384215,0.45363224,0.1487235,0.43011078,0.766227,-9.566411,-0.23705292,0.04778544,-0.9674719,-0.14329377,0.53096855,0,0.2073882293701172,-0.09601990381876628,0.6036941146850586,0.4519900480906169,0.032116934277598874,0.9985572132548793,0.043034804394324444,1.6277232843969633,93.2616744111186,1
0.2800000000000001,19.023950300608703,-1.1985079332589348,1.3406525646923821,0.3440173959497151,16.572968,-3.0851712,4.524513,-0.44264895,14.352803,-10.783847,1.8390197,0.4526186,0.14821768,0.42567778,0.76939356,-9.438235,-0.1283044,0.072114214,-0.9674719,-0.14329377,0.53096855,0,0.2073882293701172,-0.09601990381876628,0.6036941146850586,0.4519900480906169,0.032116934277598874,0.9985572132548793,0.043034804394324444,1.6277232843969633,93.2616744111186,1
0.2900000000000001,19.023950300608703,-1.1985079332589348,1.3406525646923821,0.3440173959497151,16.572968,-3.0851712,4.524513,-0.44264895,14.259002,-10.784633,1.8398165,0.44931102,0.14107399,0.42382842,0.77368426,-9.322554,-0.028629601,0.087473035,-1.1985079,1.3406526,0.3440174,0,0.2073882293701172,-0.09601990381876628,0.6036941146850586,0.4519900480906169,0.032116934277598874,0.9985572132548793,0.043034804394324444,1.6277232843969633,93.2616744111186,1
0.3000000000000001,19.023950300608703,-1.1985079332589348,1.3406525646923821,0.3440173959497151,16.572968,-3.0851712,4.524513,-0.44264895,14.166343,-10.784414,1.8407738,0.44596577,0.13391846,0.42194355,0.7779101,-9.209599,0.07258817,0.10420512,-1.1985079,1.3406526,0.3440174,0,0.2073882293701172,-0.09601990381876628,0.6036941146850586,0.4519900480906169,0.032116934277598874,0.9985572132548793,0.043034804394324444,1.6277232843969633,93.2616744111186,1
0.3100000000000001,19.023950300608703,-1.1985079332589348,1.3406525646923821,0.3440173959497151,16.572968,-3.0851712,4.524513,-0.44264895,14.0748005,-10.783175,1.8419051,0.4425832,0.12675174,0.42002332,0.78207076,-9.099408,0.17530768,0.122281484,-1.1985079,1.3406526,0.3440174,0,0.2073882293701172,-0.09601990381876628,0.6036941146850586,0.4519900480906169,0.032116934277598874,0.9985572132548793,0.043034804394324444,1.6277232843969633,93.2616744111186,1
0.3200000000000001,17.307685961021907,-1.442607336156821,3.0635951494053586,0.17806677116084657,16.337084,-3.5679634,4.128203,-0.6976644,13.984345,-10.780902,1.8432239,0.4391635,0.11957438,0.41806787,0.7861659,-8.992019,0.27948722,0.14167267,-1.1985079,1.3406526,0.3440174,0,0.2073882293701172,-0.09601990381876628,0.6036941146850586,0.4519900480906169,0.032116934277598874,0.9985572132548793,0.043034804394324444,1.6277232843969633,93.2616744111186,1
0.3300000000000001,17.307685961021907,-1.442607336156821,3.0635951494053586,0.17806677116084657,16.337084,-3.5679634,4.128203,-0.6976644,13.8949,-10.777625,1.8446892,0.43285924,0.10471995,0.41895774,0.7912909,-8.897654,0.37639153,0.15154408,-1.4426073,3.063595,0.17806678,0,0.2073882293701172,-0.09601990381876628,0.6036941146850586,0.4519900480906169,0.032116934277598874,0.9985572132548793,0.043034804394324444,1.6277232843969633,93.2616744111186,1
0.34000000000000014,17.307685961021907,-1.442607336156821,3.0635951494053586,0.17806677116084657,16.337084,-3.5679634,4.128203,-0.6976644,13.806376,-10.773363,1.8462577,0.4264306,0.08983542,0.41972718,0.7961883,-8.807966,0.4767234,0.16226736,-1.4426073,3.063595,0.17806678,0,0.09257275581359864,-0.06205464045206706,0.5462863779067993,0.46897267977396645,-0.18339302578482064,0.977873132951647,0.10065353418941368,1.3313357308694875,76.27991849378647,1
0.35000000000000014,17.307685961021907,-1.442607336156821,3.0635951494053586,0.17806677116084657,16.337084,-3.5679634,4.128203,-0.6976644,13.718725,-10.76808,1.8479372,0.41987935,0.074925065,0.42037594,0.8008568,-8.72306,0.5803617,0.17372574,-1.4426073,3.063595,0.17806678,0,0.09257275581359864,-0.06205464045206706,0.5462863779067993,0.46897267977396645,-0.18339302578482064,0.977873132951647,0.10065353418941368,1.3313357308694875,76.27991849378647,1
0.36000000000000015,16.16882395928393,-1.3542761870524125,3.090142096276428,0.0370381429884847,15.809737,-2.2602022,5.0049567,-0.849707,13.631899,-10.7617445,1.8497343,0.41320744,0.059993174,0.42090386,0.8052952,-8.643036,0.6871816,0.1858016,-1.4426073,3.063595,0.17806678,0,0.09257275581359864,-0.06205464045206706,0.5462863779067993,0.46897267977396645,-0.18339302578482064,0.977873132951647,0.10065353418941368,1.3313357308694875,76.27991849378647,1
0.37000000000000016,16.16882395928393,-1.3542761870524125,3.090142096276428,0.0370381429884847,15.809737,-2.2602022,5.0049567,-0.849707,13.545822,-10.75436,1.8516184,0.4069028,0.044822935,0.4217642,0.809034,-8.572906,0.7898532,0.19105051,-1.3542762,3.090142,0.037038144,0,0.09257275581359864,-0.06205464045206706,0.5462863779067993,0.46897267977396645,-0.18339302578482064,0.977873132951647,0.10065353418941368,1.3313357308694875,76.27991849378647,1
0.38000000000000017,16.16882395928393,-1.3542761870524125,3.090142096276428,0.0370381429884847,15.809737,-2.2602022,5.0049567,-0.849707,13.460423,-10.745936,1.8535562,0.4004823,0.029639937,0.42250448,0.81254256,-8.507446,0.89533246,0.19653562,-1.3542762,3.090142,0.037038144,0,0.09257275581359864,-0.06205464045206706,0.5462863779067993,0.46897267977396645,-0.18339302578482064,0.977873132951647,0.10065353418941368,1.3313357308694875,76.27991849378647,1
0.3900000000000002,16.16882395928393,-1.3542761870524125,3.090142096276428,0.0370381429884847,15.809737,-2.2602022,5.0049567,-0.849707,13.375656,-10.7364435,1.8555495,0.39394784,0.014448505,0.42312455,0.81581986,-8.4467325,1.0034982,0.20214052,-1.3542762,3.090142,0.037038144,0,0.09257275581359864,-0.06205464045206706,0.5462863779067993,0.46897267977396645,-0.18339302578482064,0.977873132951647,0.10065353418941368,1.3313357308694875,76.27991849378647,1
0.4000000000000002,15.520674838701488,-1.1837328197073147,2.671119367431067,-0.09224096387469362,14.194387,-1.3667312,3.8269272,-0.8420286,13.2914715,-10.725857,1.8575989,0.38730127,-0.000747039,0.4236242,0.81886494,-8.390834,1.1142262,0.20774879,-1.3542762,3.090142,0.037038144,0,-0.09995656967163086,0.09134080251057942,0.45002171516418454,0.5456704012552898,-0.5589481996804249,0.8283088030545097,0.03848943824502645,0.8451610965502425,48.42416384097758,1
0.4100000000000002,15.520674838701488,-1.1837328197073147,2.671119367431067,-0.09224096387469362,14.194387,-1.3667312,3.8269272,-0.8420286,13.207812,-10.714173,1.8596833,0.3819756,-0.014170595,0.42390466,0.8210961,-8.341625,1.222736,0.20910524,-1.1837329,2.6711195,-0.09224097,0,-0.09995656967163086,0.09134080251057942,0.45002171516418454,0.5456704012552898,-0.5589481996804249,0.8283088030545097,0.03848943824502645,0.8451610965502425,48.42416384097758,1
0.4200000000000002,15.520674838701488,-1.1837328197073147,2.671119367431067,-0.09224096387469362,14.194387,-1.3667312,3.8269272,-0.8420286,13.124624,-10.701396,1.8617804,0.37656832,-0.027591124,0.42409456,0.8231519,-8.296519,1.3331668,0.21029274,-1.1837329,2.6711195,-0.09224097,0,-0.09995656967163086,0.09134080251057942,0.45002171516418454,0.5456704012552898,-0.5589481996804249,0.8283088030545097,0.03848943824502645,0.8451610965502425,48.42416384097758,1
0.4300000000000002,15.520674838701488,-1.1837328197073147,2.671119367431067,-0.09224096387469362,14.194387,-1.3667312,3.8269272,-0.8420286,13.041867,-10.687505,1.8638883,0.3710806,-0.041005764,0.42419386,0.8250318,-8.255554,1.4454272,0.21122332,-1.1837329,2.6711195,-0.09224097,0,-0.09995656967163086,0.09134080251057942,0.45002171516418454,0.5456704012552898,-0.5589481996804249,0.8283088030545097,0.03848943824502645,0.8451610965502425,48.42416384097758,1
0.4400000000000002,15.520674838701488,-1.1837328197073147,2.671119367431067,-0.09224096387469362,14.276251,-2.148569,2.9958546,-0.5316876,12.959498,-10.6724825,1.8660038,0.36551365,-0.054411646,0.42420256,0.82673544,-8.218764,1.5594233,0.21180923,-1.1837329,2.6711195,-0.09224097,0,-0.09995656967163086,0.09134080251057942,0.45002171516418454,0.5456704012552898,-0.5589481996804249,0.8283088030545097,0.03848943824502645,0.8451610965502425,48.42416384097758,1
0.45000000000000023,15.520674838701488,-1.1837328197073147,2.671119367431067,-0.09224096387469362,14.276251,-2.148569,2.9958546,-0.5316876,12.877477,-10.656311,1.8681229,0.3598686,-0.0678059,0.42412066,0.8282625,-8.186178,1.6750603,0.21196306,-1.1837329,2.6711195,-0.09224097,0,-0.09995656967163086,0.09134080251057942,0.45002171516418454,0.5456704012552898,-0.5589481996804249,0.8283088030545097,0.03848943824502645,0.8451610965502425,48.42416384097758,1
0.46000000000000024,15.520674838701488,-1.1837328197073147,2.671119367431067,-0.09224096387469362,14.276251,-2.148569,2.9958546,-0.5316876,12.79576,-10.638975,1.8702413,0.35414666,-0.08118567,0.42394817,0.8296126,-8.1578245,1.7922419,0.21159771,-1.1837329,2.6711195,-0.09224097,0,-0.09995656967163086,0.09134080251057942,0.45002171516418454,0.5456704012552898,-0.5589481996804249,0.8283088030545097,0.03848943824502645,0.8451610965502425,48.42416384097758,1
0.47000000000000025,15.520674838701488,-1.1837328197073147,2.671119367431067,-0.09224096387469362,14.276251,-2.148569,2.9958546,-0.5316876,12.714306,-10.620461,1.8723528,0.3483491,-0.09454809,0.42368507,0.83078563,-8.133725,1.9108704,0.21062656,-1.1837329,2.6711195,-0.09224097,0,-0.2520744514465332,0.05375595092773437,0.3739627742767334,0.5268779754638672,-0.739552374358142,0.6720083580587694,0.03830211848437566,0.5068366685210965,29.03960200872994,1
0.48000000000000026,15.0478382072569,-0.9088167871197907,1.6577420822361568,-0.15944600418959895,15.061169,-2.4115224,2.3391352,-0.27708107,12.633072,-10.600755,1.8744514,0.34247708,-0.10789032,0.4233315,0.8317811,-8.113899,2.030847,0.2089635,-1.1837329,2.6711195,-0.09224097,0,-0.2520744514465332,0.05375595092773437,0.3739627742767334,0.5268779754638672,-0.739552374358142,0.6720083580587694,0.03830211848437566,0.5068366685210965,29.03960200872994,1
0.49000000000000027,15.0478382072569,-0.9088167871197907,1.6577420822361568,-0.15944600418959895,15.061169,-2.4115224,2.3391352,-0.27708107,12.552012,-10.57986,1.8765154,0.3391257,-0.11667347,0.42228547,0.83250004,-8.098308,2.1481748,0.20378442,-0.9088168,1.657742,-0.159446,0,-0.2520744514465332,0.05375595092773437,0.3739627742767334,0.5268779754638672,-0.739552374358142,0.6720083580587694,0.03830211848437566,0.5068366685210965,29.03960200872994,1
0.5000000000000002,15.0478382072569,-0.9088167871197907,1.6577420822361568,-0.15944600418959895,15.061169,-2.4115224,2.3391352,-0.27708107,12.471096,-10.557789,1.878526,0.33574378,-0.12544611,0.42120144,0.833144,-8.085477,2.2661045,0.19826418,-0.9088168,1.657742,-0.159446,0,-0.2520744514465332,0.05375595092773437,0.3739627742767334,0.5268779754638672,-0.739552374358142,0.6720083580587694,0.03830211848437566,0.5068366685210965,29.03960200872994,1
0.5100000000000002,15.0478382072569,-0.9088167871197907,1.6577420822361568,-0.15944600418959895,15.061169,-2.4115224,2.3391352,-0.27708107,12.390294,-10.534536,1.8804795,0.33233172,-0.13420746,0.4200795,0.83371305,-8.075408,2.3845973,0.19236617,-0.9088168,1.657742,-0.159446,0,-0.2520744514465332,0.05375595092773437,0.3739627742767334,0.5268779754638672,-0.739552374358142,0.6720083580587694,0.03830211848437566,0.5068366685210965,29.03960200872994,1
0.5200000000000002,14.85835271549032,-0.5276364172513235,0.8039214148769719,-0.19451937061089597,15.879303,-2.371155,1.902431,-0.06527814,12.30958,-10.510096,1.8823719,0.3288897,-0.14295675,0.41891977,0.83420706,-8.068104,2.5036132,0.18605392,-0.9088168,1.657742,-0.159446,0,-0.2520744514465332,0.05375595092773437,0.3739627742767334,0.5268779754638672,-0.739552374358142,0.6720083580587694,0.03830211848437566,0.5068366685210965,29.03960200872994,1
0.5300000000000002,14.85835271549032,-0.5276364172513235,0.8039214148769719,-0.19451937061089597,15.879303,-2.371155,1.902431,-0.06527814,12.228926,-10.48447,1.8841937,0.32763606,-0.1475833,0.4178969,0.8344077,-8.063129,2.6214988,0.17825978,-0.5276364,0.8039214,-0.19451937,0,-0.2520744514465332,0.05375595092773437,0.3739627742767334,0.5268779754638672,-0.739552374358142,0.6720083580587694,0.03830211848437566,0.5068366685210965,29.03960200872994,1
0.5400000000000003,14.85835271549032,-0.5276364172513235,0.8039214148769719,-0.19451937061089597,15.879303,-2.371155,1.902431,-0.06527814,12.148313,-10.457665,1.8859367,0.32637453,-0.15220632,0.416864,0.8345883,-8.0595665,2.7395494,0.1703166,-0.5276364,0.8039214,-0.19451937,0,-0.1864568519592285,-0.0902152951558431,0.4067715740203858,0.4548923524220784,-0.70777307455557,0.7058414319785854,0.029071426462690814,0.4563714730902948,26.14815929824211,1
0.5500000000000003,14.85835271549032,-0.5276364172513235,0.8039214148769719,-0.19451937061089597,15.879303,-2.371155,1.902431,-0.06527814,12.067728,-10.429679,1.8875995,0.32510513,-0.15682566,0.4158211,0.83474886,-8.057413,2.8577561,0.16221386,-0.5276364,0.8039214,-0.19451937,0,-0.1864568519592285,-0.0902152951558431,0.4067715740203858,0.4548923524220784,-0.70777307455557,0.7058414319785854,0.029071426462690814,0.4563714730902948,26.14815929824211,1
0.5600000000000003,14.46337229881069,-0.17492598740518098,0.028233101698953874,-0.19002707352882406,16.01506,-2.504912,2.1059735,-0.06703097,11.987159,-10.40051,1.8891803,0.32382792,-0.1614412,0.4147682,0.8348892,-8.056671,2.9761093,0.15394104,-0.5276364,0.8039214,-0.19451937,0,-0.1864568519592285,-0.0902152951558431,0.4067715740203858,0.4548923524220784,-0.70777307455557,0.7058414319785854,0.029071426462690814,0.4563714730902948,26.14815929824211,1
0.5700000000000003,14.46337229881069,-0.17492598740518098,0.028233101698953874,-0.19002707352882406,16.01506,-2.504912,2.1059735,-0.06703097,11.906591,-10.3701725,1.8906661,0.32442117,-0.16223624,0.41392994,0.83492076,-8.056883,3.0913649,0.14321955,-0.17492598,0.028233102,-0.19002707,0,-0.1864568519592285,-0.0902152951558431,0.4067715740203858,0.4548923524220784,-0.70777307455557,0.7058414319785854,0.029071426462690814,0.4563714730902948,26.14815929824211,1
0.5800000000000003,14.46337229881069,-0.17492598740518098,0.028233101698953874,-0.19002707352882406,16.01506,-2.504912,2.1059735,-0.06703097,11.82602,-10.338682,1.8920453,0.32501385,-0.163031,0.413091,0.8349509,-8.057296,3.2065241,0.13262433,-0.17492598,0.028233102,-0.19002707,0,-0.1864568519592285,-0.0902152951558431,0.4067715740203858,0.4548923524220784,-0.70777307455557,0.7058414319785854,0.029071426462690814,0.4563714730902948,26.14815929824211,1
0.5900000000000003,14.46337229881069,-0.17492598740518098,0.028233101698953874,-0.19002707352882406,16.01506,-2.504912,2.1059735,-0.06703097,11.745444,-10.306042,1.8933191,0.325606,-0.1638255,0.41225135,0.83497965,-8.05791,3.3215868,0.12215481,-0.17492598,0.028233102,-0.19002707,0,-0.1864568519592285,-0.0902152951558431,0.4067715740203858,0.4548923524220784,-0.70777307455557,0.7058414319785854,0.029071426462690814,0.4563714730902948,26.14815929824211,1
0.6000000000000003,14.23154170637101,0.033241486463668646,-0.09538727560496893,-0.15737201417705074,14.442472,-1.7882439,3.2902386,0.46462068,11.664861,-10.272251,1.8944889,0.32619756,-0.1646197,0.41141102,0.8350071,-8.058726,3.436553,0.11181042,-0.17492598,0.028233102,-0.19002707,0,-0.14452800750732422,-0.10351757685343424,0.4277359962463379,0.4482412115732829,-0.6882099395263831,0.7255113993536975,-0.0005371637853879563,0.4086886210252554,23.41613311976869,0
0.6100000000000003,14.23154170637101,0.033241486463668646,-0.09538727560496893,-0.15737201417705074,14.442472,-1.7882439,3.2902386,0.46462068,11.58427,-10.23732,1.8955487,0.32707804,-0.1644909,0.4112645,0.8347602,-8.059604,3.549604,0.10015349,0.033241488,-0.09538727,-0.15737201,0,-0.14452800750732422,-0.10351757685343424,0.4277359962463379,0.4482412115732829,-0.6882099395263831,0.7255113993536975,-0.0005371637853879563,0.4086886210252554,23.41613311976869,0
0.6200000000000003,14.23154170637101,0.033241486463668646,-0.09538727560496893,-0.15737201417705074,14.442472,-1.7882439,3.2902386,0.46462068,11.50367,-10.20126,1.8964921,0.32795823,-0.16436194,0.41111764,0.83451253,-8.06035,3.6626205,0.08854295,0.033241488,-0.09538727,-0.15737201,0,-0.14452800750732422,-0.10351757685343424,0.4277359962463379,0.4482412115732829,-0.6882099395263831,0.7255113993536975,-0.0005371637853879563,0.4086886210252554,23.41613311976869,0
0.6300000000000003,14.23154170637101,0.033241486463668646,-0.09538727560496893,-0.15737201417705074,14.442472,-1.7882439,3.2902386,0.46462068,11.423063,-10.16407,1.8973198,0.3288381,-0.16423284,0.41097042,0.83426416,-8.060965,3.7756019,0.0769789,0.033241488,-0.09538727,-0.15737201,0,-0.14452800750732422,-0.10351757685343424,0.4277359962463379,0.4482412115732829,-0.6882099395263831,0.7255113993536975,-0.0005371637853879563,0.4086886210252554,23.41613311976869,0
0.6400000000000003,14.23154170637101,0.033241486463668646,-0.09538727560496893,-0.15737201417705074,13.978475,-1.7600414,2.909754,0.43790045,11.342451,-10.125748,1.898032,0.32971773,-0.1641036,0.41082284,0.8340151,-8.061448,3.8885484,0.0654614,0.033241488,-0.09538727,-0.15737201,0,-0.14452800750732422,-0.10351757685343424,0.4277359962463379,0.4482412115732829,-0.6882099395263831,0.7255113993536975,-0.0005371637853879563,0.4086886210252554,23.41613311976869,0
0.6500000000000004,14.23154170637101,0.033241486463668646,-0.09538727560496893,-0.15737201417705074,13.978475,-1.7600414,2.909754,0.43790045,11.261835,-10.086296,1.8986292,0.33059704,-0.16397421,0.4106749,0.83376527,-8.0618,4.0014596,0.053990517,0.033241488,-0.09538727,-0.15737201,0,-0.14452800750732422,-0.10351757685343424,0.4277359962463379,0.4482412115732829,-0.6882099395263831,0.7255113993536975,-0.0005371637853879563,0.4086886210252554,23.41613311976869,0
0.6600000000000004,14.23154170637101,0.033241486463668646,-0.09538727560496893,-0.15737201417705074,13.978475,-1.7600414,2.909754,0.43790045,11.181215,-10.045715,1.8991119,0.3314761,-0.16384469,0.4105266,0.8335147,-8.062021,4.114335,0.042566344,0.033241488,-0.09538727,-0.15737201,0,-0.14452800750732422,-0.10351757685343424,0.4277359962463379,0.4482412115732829,-0.6882099395263831,0.7255113993536975,-0.0005371637853879563,0.4086886210252554,23.41613311976869,0
0.6700000000000004,14.23154170637101,0.033241486463668646,-0.09538727560496893,-0.15737201417705074,13.978475,-1.7600414,2.909754,0.43790045,11.100595,-10.004009,1.8994806,0.33235484,-0.16371502,0.41037795,0.8332634,-8.062111,4.227175,0.03118895,0.033241488,-0.09538727,-0.15737201,0,-0.22018054962158204,-0.04295708656311035,0.38990972518920897,0.4785214567184448,-0.7457313543010594,0.6662145637404655,-0.0065499826266528505,0.24622177287420843,14.107468409920878,0
0.6800000000000004,13.722462801015036,0.1607530734572584,-0.4886919883915283,-0.13775742741786845,13.835079,-1.8905395,2.1475809,0.38016137,11.019976,-9.961174,1.8997357,0.3332333,-0.1635852,0.41022894,0.8330114,-8.062069,4.339979,0.0198584,0.033241488,-0.09538727,-0.15737201,0,-0.22018054962158204,-0.04295708656311035,0.38990972518920897,0.4785214567184448,-0.7457313543010594,0.6662145637404655,-0.0065499826266528505,0.24622177287420843,14.107468409920878,0
0.6900000000000004,13.722462801015036,0.1607530734572584,-0.4886919883915283,-0.13775742741786845,13.835079,-1.8905395,2.1475809,0.38016137,10.939357,-9.917231,1.8998625,0.33493972,-0.16156392,0.40997013,0.8328489,-8.06171,4.4486566,0.005541876,0.16075307,-0.488692,-0.13775742,0,-0.22018054962158204,-0.04295708656311035,0.38990972518920897,0.4785214567184448,-0.7457313543010594,0.6662145637404655,-0.0065499826266528505,0.24622177287420843,14.107468409920878,0
0.7000000000000004,13.722462801015036,0.1607530734572584,-0.4886919883915283,-0.13775742741786845,13.835079,-1.8905395,2.1475809,0.38016137,10.858745,-9.872201,1.8998474,0.33664376,-0.15954149,0.40970838,0.8326805,-8.060715,4.5571456,-0.008536584,0.16075307,-0.488692,-0.13775742,0,-0.22018054962158204,-0.04295708656311035,0.38990972518920897,0.4785214567184448,-0.7457313543010594,0.6662145637404655,-0.0065499826266528505,0.24622177287420843,14.107468409920878,0
0.7100000000000004,13.722462801015036,0.1607530734572584,-0.4886919883915283,-0.13775742741786845,13.835079,-1.8905395,2.1475809,0.38016137,10.778146,-9.826087,1.8996927,0.3383454,-0.15751792,0.40944374,0.83250624,-8.059082,4.6654434,-0.022378502,0.16075307,-0.488692,-0.13775742,0,-0.22018054962158204,-0.04295708656311035,0.38990972518920897,0.4785214567184448,-0.7457313543010594,0.6662145637404655,-0.0065499826266528505,0.24622177287420843,14.107468409920878,0
0.7200000000000004,13.18379606052925,0.21822840330607285,-0.5551975511018488,-0.09888997845063079,13.308325,-1.556515,1.4116684,0.16507256,10.697566,-9.778892,1.8994007,0.34004468,-0.15549323,0.40917623,0.832326,-8.056813,4.7735467,-0.035985414,0.16075307,-0.488692,-0.13775742,0,-0.22018054962158204,-0.04295708656311035,0.38990972518920897,0.4785214567184448,-0.7457313543010594,0.6662145637404655,-0.0065499826266528505,0.24622177287420843,14.107468409920878,0
0.7300000000000004,13.18379606052925,0.21822840330607285,-0.5551975511018488,-0.09888997845063079,13.308325,-1.556515,1.4116684,0.16507256,10.617011,-9.730638,1.8989571,0.34176022,-0.15301326,0.4090617,0.8321393,-8.053978,4.8772144,-0.052683543,0.2182284,-0.55519754,-0.09888998,0,-0.22018054962158204,-0.04295708656311035,0.38990972518920897,0.4785214567184448,-0.7457313543010594,0.6662145637404655,-0.0065499826266528505,0.24622177287420843,14.107468409920878,0
0.7400000000000004,13.18379606052925,0.21822840330607285,-0.5551975511018488,-0.09888997845063079,13.308325,-1.556515,1.4116684,0.16507256,10.536489,-9.681348,1.8983479,0.3434726,-0.15053192,0.40894344,0.831945,-8.050417,4.980682,-0.0691561,0.2182284,-0.55519754,-0.09888998,0,-0.15966205596923827,-0.018149776458740233,0.42016897201538084,0.49092511177062986,-0.7021110808108185,0.7107774824929246,-0.042841575410861074,0.237485838143368,13.606936219741968,0
0.7500000000000004,13.18379606052925,0.21822840330607285,-0.5551975511018488,-0.09888997845063079,13.308325,-1.556515,1.4116684,0.16507256,10.456005,-9.631025,1.8975748,0.34518185,-0.14804919,0.40882143,0.83174306,-8.04613,5.083945,-0.08540543,0.2182284,-0.55519754,-0.09888998,0,-0.15966205596923827,-0.018149776458740233,0.42016897201538084,0.49092511177062986,-0.7021110808108185,0.7107774824929246,-0.042841575410861074,0.237485838143368,13.606936219741968,0
0.7600000000000005,12.449719071850398,0.17550408232061804,-1.1744666815209392,-0.0659190955609093,12.134188,-1.2257361,0.94648397,-0.043879382,10.375568,-9.57967,1.8966404,0.34688795,-0.14556511,0.40869567,0.8315335,-8.041118,5.187,-0.101433866,0.2182284,-0.55519754,-0.09888998,0,-0.15966205596923827,-0.018149776458740233,0.42016897201538084,0.49092511177062986,-0.7021110808108185,0.7107774824929246,-0.042841575410861074,0.237485838143368,13.606936219741968,0
0.7700000000000005,12.449719071850398,0.17550408232061804,-1.1744666815209392,-0.0659190955609093,12.134188,-1.2257361,0.94648397,-0.043879382,10.295184,-9.527315,1.8955244,0.3496836,-0.14050983,0.40733314,0.8319006,-8.035506,5.2839746,-0.12166308,0.17550409,-1.1744667,-0.065919094,0,-0.15966205596923827,-0.018149776458740233,0.42016897201538084,0.49092511177062986,-0.7021110808108185,0.7107774824929246,-0.042841575410861074,0.237485838143368,13.606936219741968,0
0.7800000000000005,12.449719071850398,0.17550408232061804,-1.1744666815209392,-0.0659190955609093,12.134188,-1.2257361,0.94648397,-0.043879382,10.214862,-9.473992,1.8942093,0.3524669,-0.13544957,0.40595618,0.8322383,-8.028695,5.38036,-0.14125924,0.17550409,-1.1744667,-0.065919094,0,-0.15966205596923827,-0.018149776458740233,0.42016897201538084,0.49092511177062986,-0.7021110808108185,0.7107774824929246,-0.042841575410861074,0.237485838143368,13.606936219741968,0
0.7900000000000005,12.449719071850398,0.17550408232061804,-1.1744666815209392,-0.0659190955609093,12.134188,-1.2257361,0.94648397,-0.043879382,10.134614,-9.419709,1.8927013,0.35523772,-0.13038452,0.4045649,0.8325466,-8.020686,5.4761424,-0.16023278,0.17550409,-1.1744667,-0.065919094,0,-0.15966205596923827,-0.018149776458740233,0.42016897201538084,0.49092511177062986,-0.7021110808108185,0.7107774824929246,-0.042841575410861074,0.237485838143368,13.606936219741968,0
0.8000000000000005,11.987744542464998,0.019224764447031976,-0.8011852950888889,-0.0287147223688834,11.142844,-1.3728167,0.28268465,-0.27312487,10.054452,-9.364471,1.8910067,0.357996,-0.12531488,0.4031593,0.8328254,-8.011482,5.571307,-0.17859423,0.17550409,-1.1744667,-0.065919094,0,-0.19785524368286134,0.033187907536824546,0.40107237815856933,0.5165939537684123,-0.7147277685111626,0.6991101942291524,-0.020227536773682178,0.16671006144802325,9.551782923338346,0
0.8100000000000005,11.987744542464998,0.019224764447031976,-0.8011852950888889,-0.0287147223688834,11.142844,-1.3728167,0.28268465,-0.27312487,9.974386,-9.308302,1.8891165,0.35973978,-0.12200112,0.40178403,0.8332305,-8.001638,5.662388,-0.1993774,0.019224765,-0.8011853,-0.028714722,0,-0.19785524368286134,0.033187907536824546,0.40107237815856933,0.5165939537684123,-0.7147277685111626,0.6991101942291524,-0.020227536773682178,0.16671006144802325,9.551782923338346,0
0.8200000000000005,11.987744542464998,0.019224764447031976,-0.8011852950888889,-0.0287147223688834,11.142844,-1.3728167,0.28268465,-0.27312487,9.894422,-9.2512245,1.8870207,0.36147773,-0.118685395,0.40040228,0.8336222,-7.991095,5.752998,-0.21970049,0.019224765,-0.8011853,-0.028714722,0,-0.19785524368286134,0.033187907536824546,0.40107237815856933,0.5165939537684123,-0.7147277685111626,0.6991101942291524,-0.020227536773682178,0.16671006144802325,9.551782923338346,0
0.8300000000000005,11.987744542464998,0.019224764447031976,-0.8011852950888889,-0.0287147223688834,11.142844,-1.3728167,0.28268465,-0.27312487,9.814567,-9.193243,1.884724,0.3632099,-0.11536776,0.3990141,0.8340006,-7.979853,5.8431306,-0.2395683,0.019224765,-0.8011853,-0.028714722,0,-0.19785524368286134,0.033187907536824546,0.40107237815856933,0.5165939537684123,-0.7147277685111626,0.6991101942291524,-0.020227536773682178,0.16671006144802325,9.551782923338346,0
0.8400000000000005,11.987744542464998,0.019224764447031976,-0.8011852950888889,-0.0287147223688834,10.64015,-0.95576257,-0.03931663,-0.18746054,9.734828,-9.134363,1.8822309,0.36493623,-0.11204827,0.3976195,0.8343656,-7.967913,5.93278,-0.2589857,0.019224765,-0.8011853,-0.028714722,0,-0.19785524368286134,0.033187907536824546,0.40107237815856933,0.5165939537684123,-0.7147277685111626,0.6991101942291524,-0.020227536773682178,0.16671006144802325,9.551782923338346,0
0.8500000000000005,11.987744542464998,0.019224764447031976,-0.8011852950888889,-0.0287147223688834,10.64015,-0.95576257,-0.03931663,-0.18746054,9.655211,-9.074589,1.8795458,0.3666567,-0.10872697,0.3962185,0.8347171,-7.9552765,6.02194,-0.2779576,0.019224765,-0.8011853,-0.028714722,0,-0.19785524368286134,0.033187907536824546,0.40107237815856933,0.5165939537684123,-0.7147277685111626,0.6991101942291524,-0.020227536773682178,0.16671006144802325,9.551782923338346,0
0.8600000000000005,11.987744542464998,0.019224764447031976,-0.8011852950888889,-0.0287147223688834,10.64015,-0.95576257,-0.03931663,-0.18746054,9.575725,-9.013926,1.8766732,0.36837125,-0.10540393,0.39481115,0.8350552,-7.9419446,6.1106057,-0.29648888,0.019224765,-0.8011853,-0.028714722,0,-0.19785524368286134,0.033187907536824546,0.40107237815856933,0.5165939537684123,-0.7147277685111626,0.6991101942291524,-0.020227536773682178,0.16671006144802325,9.551782923338346,0
0.8700000000000006,11.987744542464998,0.019224764447031976,-0.8011852950888889,-0.0287147223688834,10.64015,-0.95576257,-0.03931663,-0.18746054,9.496374,-8.952378,1.8736175,0.37007987,-0.1020792,0.39339745,0.8353799,-7.927917,6.198771,-0.31458452,0.019224765,-0.8011853,-0.028714722,0,-0.2622500991821289,0.10706396738688151,0.3688749504089356,0.5535319836934407,-0.7529712365226304,0.6580530846051801,0.0006743969076030976,0.05462931333390397,3.1300290917304503,0
0.8800000000000006,11.48306634307108,-0.22615495310615702,-1.3492874283600667,0.04761194364724572,11.080025,-0.8848627,-0.19891146,-0.21655679,9.417168,-8.889953,1.870383,0.37178254,-0.09875283,0.39197743,0.83569115,-7.913197,6.2864294,-0.3322495,0.019224765,-0.8011853,-0.028714722,0,-0.2622500991821289,0.10706396738688151,0.3688749504089356,0.5535319836934407,-0.7529712365226304,0.6580530846051801,0.0006743969076030976,0.05462931333390397,3.1300290917304503,0
0.8900000000000006,11.48306634307108,-0.22615495310615702,-1.3492874283600667,0.04761194364724572,11.080025,-0.8848627,-0.19891146,-0.21655679,9.338109,-8.826671,1.8669575,0.37410763,-0.093439706,0.38853863,0.83686954,-7.898341,6.3697333,-0.35272485,-0.22615495,-1.3492874,0.047611944,0,-0.2622500991821289,0.10706396738688151,0.3688749504089356,0.5535319836934407,-0.7529712365226304,0.6580530846051801,0.0006743969076030976,0.05462931333390397,3.1300290917304503,0
0.9000000000000006,11.48306634307108,-0.22615495310615702,-1.3492874283600667,0.04761194364724572,11.080025,-0.8848627,-0.19891146,-0.21655679,9.259204,-8.762561,1.8633317,0.37641522,-0.088122204,0.38508156,0.83800876,-7.882578,6.452073,-0.37235487,-0.22615495,-1.3492874,0.047611944,0,-0.2622500991821289,0.10706396738688151,0.3688749504089356,0.5535319836934407,-0.7529712365226304,0.6580530846051801,0.0006743969076030976,0.05462931333390397,3.1300290917304503,0
0.9100000000000006,11.48306634307108,-0.22615495310615702,-1.3492874283600667,0.04761194364724572,11.080025,-0.8848627,-0.19891146,-0.21655679,9.18046,-8.697633,1.8595134,0.37870517,-0.082800575,0.38160646,0.8391087,-7.8659096,6.5334334,-0.39115465,-0.22615495,-1.3492874,0.047611944,0,-0.2622500991821289,0.10706396738688151,0.3688749504089356,0.5535319836934407,-0.7529712365226304,0.6580530846051801,0.0006743969076030976,0.05462931333390397,3.1300290917304503,0
0.9200000000000006,11.156842459205722,-0.5774226664407555,-1.1904517354488053,0.11531413782315177,11.418168,-0.73892933,-0.16167703,-0.12039172,9.101889,-8.631897,1.8555113,0.3809774,-0.07747507,0.3781135,0.8401693,-7.848338,6.6137996,-0.40913936,-0.22615495,-1.3492874,0.047611944,0,-0.2622500991821289,0.10706396738688151,0.3688749504089356,0.5535319836934407,-0.7529712365226304,0.6580530846051801,0.0006743969076030976,0.05462931333390397,3.1300290917304503,0
0.9300000000000006,11.156842459205722,-0.5774226664407555,-1.1904517354488053,0.11531413782315177,11.418168,-0.73892933,-0.16167703,-0.12039172,9.023494,-8.565372,1.851322,0.38251153,-0.0733544,0.37345654,0.84192324,-7.8305407,6.6908784,-0.42856616,-0.5774227,-1.1904517,0.11531414,0,-0.2622500991821289,0.10706396738688151,0.3688749504089356,0.5535319836934407,-0.7529712365226304,0.6580530846051801,0.0006743969076030976,0.05462931333390397,3.1300290917304503,0
0.9400000000000006,11.156842459205722,-0.5774226664407555,-1.1904517354488053,0.11531413782315177,11.418168,-0.73892933,-0.16167703,-0.12039172,8.945281,-8.498082,1.8469433,0.38402876,-0.0692305,0.3687831,0.84363997,-7.8122683,6.7669,-0.44707865,-0.5774227,-1.1904517,0.11531414,0,-0.17280397415161133,0.02286288102467855,0.41359801292419435,0.5114314405123392,-0.6414349814510789,0.761771422157905,0.09091460253654109,0.15712929308853107,9.002845331846967,0
0.9500000000000006,11.156842459205722,-0.5774226664407555,-1.1904517354488053,0.11531413782315177,11.418168,-0.73892933,-0.16167703,-0.12039172,8.867252,-8.4300375,1.8423837,0.38552907,-0.065103546,0.3640934,0.8453195,-7.793523,6.8418517,-0.4646914,-0.5774227,-1.1904517,0.11531414,0,-0.17280397415161133,0.02286288102467855,0.41359801292419435,0.5114314405123392,-0.6414349814510789,0.761771422157905,0.09091460253654109,0.15712929308853107,9.002845331846967,0
0.9600000000000006,10.861637712499366,-0.9739692149064144,-1.2997192971438403,0.24430135416026175,11.672931,-0.90544695,0.38152197,-0.015514011,8.789413,-8.361249,1.8376524,0.3870124,-0.060973722,0.3593876,0.84696186,-7.774305,6.91572,-0.48141903,-0.5774227,-1.1904517,0.11531414,0,-0.17280397415161133,0.02286288102467855,0.41359801292419435,0.5114314405123392,-0.6414349814510789,0.761771422157905,0.09091460253654109,0.15712929308853107,9.002845331846967,0
0.9700000000000006,10.861637712499366,-0.9739692149064144,-1.2997192971438403,0.24430135416026175,11.672931,-0.90544695,0.38152197,-0.015514011,8.711765,-8.291738,1.8327477,0.38800332,-0.056913342,0.3528104,0.8495525,-7.7552195,6.986468,-0.4993456,-0.9739692,-1.2997193,0.24430135,0,-0.17280397415161133,0.02286288102467855,0.41359801292419435,0.5114314405123392,-0.6414349814510789,0.761771422157905,0.09091460253654109,0.15712929308853107,9.002845331846967,0
0.9800000000000006,10.861637712499366,-0.9739692149064144,-1.2997192971438403,0.24430135416026175,11.672931,-0.90544695,0.38152197,-0.015514011,8.634309,-8.221524,1.8276693,0.38896814,-0.052849125,0.34620944,0.85208577,-7.735897,7.055868,-0.516159,-0.9739692,-1.2997193,0.24430135,0,-0.17280397415161133,0.02286288102467855,0.41359801292419435,0.5114314405123392,-0.6414349814510789,0.761771422157905,0.09091460253654109,0.15712929308853107,9.002845331846967,0
0.9900000000000007,10.861637712499366,-0.9739692149064144,-1.2997192971438403,0.24430135416026175,11.672931,-0.90544695,0.38152197,-0.015514011,8.557048,-8.150624,1.8224282,0.38990673,-0.048781347,0.33958513,0.85456157,-7.716338,7.123903,-0.5318815,-0.9739692,-1.2997193,0.24430135,0,-0.17280397415161133,0.02286288102467855,0.41359801292419435,0.5114314405123392,-0.6414349814510789,0.761771422157905,0.09091460253654109,0.15712929308853107,9.002845331846967,0
1.0000000000000007,10.693353447988617,-1.2998731542473105,-0.9336530778007345,0.3432206055633148,11.911758,-1.1306955,0.9080471,-0.14224315,8.479982,-8.079051,1.8170353,0.39081898,-0.044710275,0.33293793,0.8569797,-7.6965427,7.1905527,-0.5465359,-0.9739692,-1.2997193,0.24430135,0,-0.1908125114440918,0.24496915181477866,0.4045937442779541,0.6224845759073894,-0.7289026198590416,0.6845758596031493,-0.007540769936477523,0.0026255898974070213,0.15043521985360914,0
1.0100000000000007,10.693353447988617,-1.2998731542473105,-0.9336530778007345,0.3432206055633148,11.911758,-1.1306955,0.9080471,-0.14224315,8.403114,-8.006824,1.8114947,0.39059886,-0.04267691,0.32560933,0.85999423,-7.6770153,7.2548227,-0.5614336,-1.2998731,-0.93365306,0.3432206,0,-0.1908125114440918,0.24496915181477866,0.4045937442779541,0.6224845759073894,-0.7289026198590416,0.6845758596031493,-0.007540769936477523,0.0026255898974070213,0.15043521985360914,0
1.0200000000000007,10.693353447988617,-1.2998731542473105,-0.9336530778007345,0.3432206055633148,11.911758,-1.1306955,0.9080471,-0.14224315,8.326441,-7.9339595,1.8058105,0.39035264,-0.040640693,0.31825888,0.8629512,-7.6577706,7.3177805,-0.5752692,-1.2998731,-0.93365306,0.3432206,0,-0.1908125114440918,0.24496915181477866,0.4045937442779541,0.6224845759073894,-0.7289026198590416,0.6845758596031493,-0.007540769936477523,0.0026255898974070213,0.15043521985360914,0
1.0300000000000007,10.693353447988617,-1.2998731542473105,-0.9336530778007345,0.3432206055633148,11.911758,-1.1306955,0.9080471,-0.14224315,8.249958,-7.8604727,1.799993,0.3900802,-0.03860175,0.31088713,0.8658504,-7.638807,7.3794093,-0.58806455,-1.2998731,-0.93365306,0.3432206,0,-0.1908125114440918,0.24496915181477866,0.4045937442779541,0.6224845759073894,-0.7289026198590416,0.6845758596031493,-0.007540769936477523,0.0026255898974070213,0.15043521985360914,0
1.0400000000000007,10.693353447988617,-1.2998731542473105,-0.9336530778007345,0.3432206055633148,11.695527,-1.2136675,1.0331118,-0.19540006,8.173663,-7.786376,1.7940527,0.38978168,-0.03656022,0.30349457,0.8686915,-7.6201243,7.439691,-0.59984183,-1.2998731,-0.93365306,0.3432206,0,-0.1908125114440918,0.24496915181477866,0.4045937442779541,0.6224845759073894,-0.7289026198590416,0.6845758596031493,-0.007540769936477523,0.0026255898974070213,0.15043521985360914,0
1.0500000000000007,10.693353447988617,-1.2998731542473105,-0.9336530778007345,0.3432206055633148,11.695527,-1.2136675,1.0331118,-0.19540006,8.097554,-7.7116838,1.7879996,0.38945705,-0.03451624,0.29608166,0.87147444,-7.601722,7.4986095,-0.61062336,-1.2998731,-0.93365306,0.3432206,0,-0.1908125114440918,0.24496915181477866,0.4045937442779541,0.6224845759073894,-0.7289026198590416,0.6845758596031493,-0.007540769936477523,0.0026255898974070213,0.15043521985360914,0
1.0600000000000007,10.693353447988617,-1.2998731542473105,-0.9336530778007345,0.3432206055633148,11.695527,-1.2136675,1.0331118,-0.19540006,8.021627,-7.636409,1.7818437,0.38910633,-0.032469954,0.28864893,0.8741991,-7.583598,7.556148,-0.6204318,-1.2998731,-0.93365306,0.3432206,0,-0.1908125114440918,0.24496915181477866,0.4045937442779541,0.6224845759073894,-0.7289026198590416,0.6845758596031493,-0.007540769936477523,0.0026255898974070213,0.15043521985360914,0
1.0700000000000007,10.693353447988617,-1.2998731542473105,-0.9336530778007345,0.3432206055633148,11.695527,-1.2136675,1.0331118,-0.19540006,7.945881,-7.5605655,1.7755942,0.38872954,-0.030421488,0.28119692,0.87686515,-7.565752,7.612291,-0.62929004,-1.2998731,-0.93365306,0.3432206,0,-0.2323370361328125,0.4088409423828125,0.38383148193359373,0.7044204711914063,-0.7992414940355606,0.5985961750615907,-0.053811275894911,-0.14563203718133266,-8.344101092382644,0
1.0800000000000007,10.566495215223286,-1.5569798291112797,-0.9463882676725465,0.4764397516286784,11.053747,-1.1953472,0.51594007,-0.19576317,7.870311,-7.4841676,1.7692609,0.38832673,-0.028370988,0.27372602,0.87947243,-7.548183,7.6670218,-0.6372213,-1.2998731,-0.93365306,0.3432206,0,-0.2323370361328125,0.4088409423828125,0.38383148193359373,0.7044204711914063,-0.7992414940355606,0.5985961750615907,-0.053811275894911,-0.14563203718133266,-8.344101092382644,0
1.0900000000000007,10.566495215223286,-1.5569798291112797,-0.9463882676725465,0.4764397516286784,11.053747,-1.1953472,0.51594007,-0.19576317,7.7949147,-7.4072328,1.7628477,0.38728884,-0.026579158,0.26509744,0.8826236,-7.5311623,7.7196336,-0.645282,-1.5569798,-0.94638824,0.47643974,0,-0.2323370361328125,0.4088409423828125,0.38383148193359373,0.7044204711914063,-0.7992414940355606,0.5985961750615907,-0.053811275894911,-0.14563203718133266,-8.344101092382644,0
1.1000000000000008,10.566495215223286,-1.5569798291112797,-0.9463882676725465,0.4764397516286784,11.053747,-1.1953472,0.51594007,-0.19576317,7.7196865,-7.32978,1.7563589,0.38621658,-0.024784975,0.25644538,0.8856966,-7.514591,7.7706575,-0.65235054,-1.5569798,-0.94638824,0.47643974,0,-0.2323370361328125,0.4088409423828125,0.38383148193359373,0.7044204711914063,-0.7992414940355606,0.5985961750615907,-0.053811275894911,-0.14563203718133266,-8.344101092382644,0
1.1100000000000008,10.566495215223286,-1.5569798291112797,-0.9463882676725465,0.4764397516286784,11.053747,-1.1953472,0.51594007,-0.19576317,7.644622,-7.2518253,1.749804,0.3851101,-0.022988591,0.2477706,0.888691,-7.498466,7.8200746,-0.6584575,-1.5569798,-0.94638824,0.47643974,0,-0.2323370361328125,0.4088409423828125,0.38383148193359373,0.7044204711914063,-0.7992414940355606,0.5985961750615907,-0.053811275894911,-0.14563203718133266,-8.344101092382644,0
1.1200000000000008,10.504717236875557,-1.8412591812088186,-0.3027448834646734,0.544611457095363,10.6342325,-1.7558295,0.019751273,-0.14511418,7.569716,-7.1733847,1.7431928,0.3839695,-0.021190168,0.23907381,0.8916066,-7.482784,7.8678665,-0.6636336,-1.5569798,-0.94638824,0.47643974,1,-0.2323370361328125,0.4088409423828125,0.38383148193359373,0.7044204711914063,-0.7992414940355606,0.5985961750615907,-0.053811275894911,-0.14563203718133266,-8.344101092382644,0
1.1300000000000008,10.504717236875557,-1.8412591812088186,-0.3027448834646734,0.544611457095363,10.6342325,-1.7558295,0.019751273,-0.14511418,7.4949646,-7.0944715,1.7365372,0.38439184,-0.024821742,0.23125963,0.8933902,-7.4677715,7.9145226,-0.6673609,-1.7558295,0.019751273,-0.14511418,1,-0.2323370361328125,0.4088409423828125,0.38383148193359373,0.7044204711914063,-0.7992414940355606,0.5985961750615907,-0.053811275894911,-0.14563203718133266,-8.344101092382644,0
1.1400000000000008,10.504717236875557,-1.8412591812088186,-0.3027448834646734,0.544611457095363,10.6342325,-1.7558295,0.019751273,-0.14511418,7.4203568,-7.0150976,1.7298481,0.3847844,-0.028451389,0.22342749,0.8951044,-7.4540763,7.9600787,-0.6703532,-1.7558295,0.019751273,-0.14511418,1,-0.12808690071105958,0.18844568888346355,0.4359565496444702,0.5942228444417318,-0.7053722170145227,0.6961298407729907,0.13361616761974554,-0.03940997678841729,-2.258025340684849,0
1.1500000000000008,10.504717236875557,-1.8412591812088186,-0.3027448834646734,0.544611457095363,10.6342325,-1.7558295,0.019751273,-0.14511418,7.3458786,-6.9352736,1.7231326,0.38514706,-0.032078825,0.21557802,0.89674914,-7.441705,8.004523,-0.67264056,-1.7558295,0.019751273,-0.14511418,1,-0.12808690071105958,0.18844568888346355,0.4359565496444702,0.5942228444417318,-0.7053722170145227,0.6961298407729907,0.13361616761974554,-0.03940997678841729,-2.258025340684849,0
1.1600000000000008,10.581697711768543,-2.024020607313779,-0.1455354770059485,0.6646642142826857,10.84771,-2.177689,-0.41499498,-0.035983436,7.271518,-6.855011,1.7163976,0.38547987,-0.035703775,0.20771182,0.89832425,-7.4306636,8.047843,-0.67425305,-1.7558295,0.019751273,-0.14511418,1,-0.12808690071105958,0.18844568888346355,0.4359565496444702,0.5942228444417318,-0.7053722170145227,0.6961298407729907,0.13361616761974554,-0.03940997678841729,-2.258025340684849,0
1.1700000000000008,10.581697711768543,-2.024020607313779,-0.1455354770059485,0.6646642142826857,10.84771,-2.177689,-0.41499498,-0.035983436,7.1972623,-6.7743173,1.7096598,0.38566002,-0.03807218,0.19711165,0.90053535,-7.4207606,8.090648,-0.67317414,-2.177689,-0.41499498,-0.035983436,1,-0.12808690071105958,0.18844568888346355,0.4359565496444702,0.5942228444417318,-0.7053722170145227,0.6961298407729907,0.13361616761974554,-0.03940997678841729,-2.258025340684849,0
1.1800000000000008,10.581697711768543,-2.024020607313779,-0.1455354770059485,0.6646642142826857,10.84771,-2.177689,-0.41499498,-0.035983436,7.1230984,-6.693204,1.7029372,0.38579282,-0.040435906,0.18648724,0.9026358,-7.4122176,8.131673,-0.6712205,-2.177689,-0.41499498,-0.035983436,1,-0.12808690071105958,0.18844568888346355,0.4359565496444702,0.5942228444417318,-0.7053722170145227,0.6961298407729907,0.13361616761974554,-0.03940997678841729,-2.258025340684849,0
1.1900000000000008,10.581697711768543,-2.024020607313779,-0.1455354770059485,0.6646642142826857,10.84771,-2.177689,-0.41499498,-0.035983436,7.0490136,-6.611689,1.6962383,0.38587818,-0.042794663,0.1758399,0.90462536,-7.4050403,8.170899,-0.6684415,-2.177689,-0.41499498,-0.035983436,1,-0.12808690071105958,0.18844568888346355,0.4359565496444702,0.5942228444417318,-0.7053722170145227,0.6961298407729907,0.13361616761974554,-0.03940997678841729,-2.258025340684849,0
1.2000000000000008,10.742556126977451,-1.99116598156097,0.5486994013449318,0.7268994392903049,10.916077,-2.2626626,-0.76740664,0.017268186,6.9749928,-6.5297914,1.689571,0.3859161,-0.04514816,0.16517095,0.9065037,-7.3992324,8.208309,-0.6648868,-2.177689,-0.41499498,-0.035983436,0,-0.07089973449707031,0.23811548868815105,0.46455013275146484,0.6190577443440756,-0.70351860836063,0.7053961218625776,0.08647473013290496,-0.050459782468834646,-2.891132570612447,0
1.2100000000000009,10.742556126977451,-1.99116598156097,0.5486994013449318,0.7268994392903049,10.916077,-2.2626626,-0.76740664,0.017268186,6.901023,-6.44753,1.6829376,0.38169575,-0.050874133,0.15735905,0.9093725,-7.395057,8.243851,-0.6616988,-1.991166,0.5486994,0.72689945,0,-0.07089973449707031,0.23811548868815105,0.46455013275146484,0.6190577443440756,-0.70351860836063,0.7053961218625776,0.08647473013290496,-0.050459782468834646,-2.891132570612447,0
1.2200000000000009,10.742556126977451,-1.99116598156097,0.5486994013449318,0.7268994392903049,10.916077,-2.2626626,-0.76740664,0.017268186,6.827085,-6.364918,1.6763383,0.37742963,-0.05659401,0.14952831,0.9121323,-7.392817,8.278386,-0.6581023,-1.991166,0.5486994,0.72689945,0,-0.07089973449707031,0.23811548868815105,0.46455013275146484,0.6190577443440756,-0.70351860836063,0.7053961218625776,0.08647473013290496,-0.050459782468834646,-2.891132570612447,0
1.2300000000000009,10.742556126977451,-1.99116598156097,0.5486994013449318,0.7268994392903049,10.916077,-2.2626626,-0.76740664,0.017268186,6.7531595,-6.2819657,1.6697769,0.37311828,-0.0623071,0.14167963,0.91478276,-7.392504,8.311888,-0.6541362,-1.991166,0.5486994,0.72689945,0,-0.07089973449707031,0.23811548868815105,0.46455013275146484,0.6190577443440756,-0.70351860836063,0.7053961218625776,0.08647473013290496,-0.050459782468834646,-2.891132570612447,0
1.2400000000000009,10.742556126977451,-1.99116598156097,0.5486994013449318,0.7268994392903049,11.0374975,-2.1848295,-1.1203638,0.08552743,6.679228,-6.1986837,1.6632568,0.36876222,-0.06801272,0.13381398,0.9173236,-7.394111,8.344326,-0.6498397,-1.991166,0.5486994,0.72689945,0,-0.07089973449707031,0.23811548868815105,0.46455013275146484,0.6190577443440756,-0.70351860836063,0.7053961218625776,0.08647473013290496,-0.050459782468834646,-2.891132570612447,0
1.2500000000000009,10.742556126977451,-1.99116598156097,0.5486994013449318,0.7268994392903049,11.0374975,-2.1848295,-1.1203638,0.08552743,6.605271,-6.1150827,1.6567811,0.36436197,-0.0737102,0.12593229,0.9197545,-7.397629,8.375674,-0.64525217,-1.991166,0.5486994,0.72689945,0,-0.07089973449707031,0.23811548868815105,0.46455013275146484,0.6190577443440756,-0.70351860836063,0.7053961218625776,0.08647473013290496,-0.050459782468834646,-2.891132570612447,0
1.260000000000001,10.742556126977451,-1.99116598156097,0.5486994013449318,0.7268994392903049,11.0374975,-2.1848295,-1.1203638,0.08552743,6.531269,-6.0311737,1.6503527,0.35991803,-0.07939884,0.11803551,0.92207515,-7.4030476,8.405908,-0.6404131,-1.991166,0.5486994,0.72689945,0,-0.07089973449707031,0.23811548868815105,0.46455013275146484,0.6190577443440756,-0.70351860836063,0.7053961218625776,0.08647473013290496,-0.050459782468834646,-2.891132570612447,0
1.270000000000001,10.742556126977451,-1.99116598156097,0.5486994013449318,0.7268994392903049,11.0374975,-2.1848295,-1.1203638,0.08552743,6.4572034,-5.946968,1.6439737,0.355431,-0.085077964,0.11012458,0.9242853,-7.410357,8.4349985,-0.63536215,-1.991166,0.5486994,0.72689945,0,-0.03029937744140625,0.196567751566569,0.4848503112792969,0.5982838757832845,-0.7387587050177575,0.6676098250022933,0.09237260048788151,-0.1151225900507944,-6.59603853652528,0
1.280000000000001,11.126400907115938,-1.8508837285339195,0.550125857858997,0.6512734906592009,11.11551,-1.9165238,-0.8672875,0.11473847,6.383055,-5.862478,1.6376461,0.35090134,-0.09074688,0.10220045,0.9263846,-7.419545,8.462923,-0.63013893,-1.991166,0.5486994,0.72689945,0,-0.03029937744140625,0.196567751566569,0.4848503112792969,0.5982838757832845,-0.7387587050177575,0.6676098250022933,0.09237260048788151,-0.1151225900507944,-6.59603853652528,0
1.290000000000001,11.126400907115938,-1.8508837285339195,0.550125857858997,0.6512734906592009,11.11551,-1.9165238,-0.8672875,0.11473847,6.308804,-5.7777085,1.6313899,0.3467456,-0.0962048,0.09488282,0.9281753,-7.430956,8.490654,-0.6210937,-1.8508837,0.55012584,0.6512735,0,-0.03029937744140625,0.196567751566569,0.4848503112792969,0.5982838757832845,-0.7387587050177575,0.6676098250022933,0.09237260048788151,-0.1151225900507944,-6.59603853652528,0
