time-since-start [s],throttle_mpc,roll_mpc,pitch_mpc,yaw_mpc,throttle_nw,roll_nw,pitch_nw,yaw_nw,position_x [m],position_y [m],position_z [m],rotation_w [quaternion],rotation_x [quaternion],rotation_y [quaternion],rotation_z [quaternion],velocity_x [m/s],velocity_y [m/s],velocity_z [m/s],omega_x [rad/s],omega_y [rad/s],omega_z [rad/s],network_used
0.0,7.056468501770876,-0.6460797172250067,-5.999999477555481,0.2657399770716915,10.651405,-1.0562365,4.597899,-0.31143525,13.102188,-12.048917,1.0737401,-0.3050499,0.41923004,-0.1830024,-0.8352849,-2.280919,2.2024465,0.43906522,-0.029207557,0.006608377,-0.047825135,0
0.01,7.056468501770876,-0.6460797172250067,-5.999999477555481,0.2657399770716915,9.329828,-2.5431657,3.9714375,0.61858714,13.079141,-12.026664,1.0778762,-0.30557293,0.41755956,-0.18217783,-0.8361103,-2.3283577,2.2476883,0.38791257,-0.020982467,-0.82567024,-0.041802447,0
0.02,7.056468501770876,-0.6460797172250067,-5.999999477555481,0.2657399770716915,9.329828,-2.5431657,3.9714375,0.61858714,13.055628,-12.003968,1.0814937,-0.30675277,0.41261727,-0.18013144,-0.8385716,-2.373733,2.290985,0.33541268,-0.04616938,-1.5602955,-0.033200502,0
0.03,7.056468501770876,-0.6460797172250067,-5.999999477555481,0.2657399770716915,9.329828,-2.5431657,3.9714375,0.61858714,13.0316725,-11.98085,1.0845817,-0.30841535,0.40480083,-0.17687088,-0.84245646,-2.4169269,2.3322468,0.28209504,-0.09745323,-2.210394,-0.022334,0
0.04,7.056468501770876,-0.6460797172250067,-5.999999477555481,0.2657399770716915,11.001572,-2.360484,3.787372,0.22723714,13.007296,-11.95733,1.0871341,-0.31040677,0.39443874,-0.17240763,-0.8475501,-2.457866,2.3713923,0.22837208,-0.16883665,-2.7872214,-0.009486465,0
0.05,7.056468501770876,-0.6460797172250067,-5.999999477555481,0.2657399770716915,11.001572,-2.360484,3.787372,0.22723714,12.98252,-11.933427,1.0891513,-0.31259835,0.38181585,-0.16677986,-0.85362947,-2.4971378,2.408949,0.17528613,-0.2432368,-3.288254,0.0040189805,0
0.060000000000000005,7.056468501770876,-0.6460797172250067,-5.999999477555481,0.2657399770716915,11.001572,-2.360484,3.787372,0.22723714,12.957356,-11.909154,1.090646,-0.31490266,0.36721838,-0.16011965,-0.86043507,-2.535355,2.4454613,0.123931825,-0.3060279,-3.711152,0.0168617,0
0.07,7.056468501770876,-0.6460797172250067,-5.999999477555481,0.2657399770716915,11.001572,-2.360484,3.787372,0.22723714,12.931817,-11.8845215,1.0916365,-0.3172496,0.35090145,-0.15256624,-0.8677236,-2.5723438,2.4807265,0.07448366,-0.35902262,-4.0681,0.029074224,0
0.08,9.195909507210818,-0.6155203091428594,-5.541289805907062,0.2842359904011549,10.384233,-2.622783,4.1262813,-0.036065392,12.905914,-11.859544,1.0921427,-0.31957787,0.3330825,-0.14423805,-0.8752835,-2.6079347,2.5145519,0.027057238,-0.40375018,-4.3693824,0.040687483,0
0.09,9.195909507210818,-0.6155203091428594,-5.541289805907062,0.2842359904011549,10.384233,-2.622783,4.1262813,-0.036065392,12.879611,-11.834187,1.0922643,-0.32181135,0.3141063,-0.13530736,-0.8828739,-2.6522849,2.556525,-0.0022933204,-0.4367356,-4.5521455,0.052638482,0
0.09999999999999999,9.195909507210818,-0.6155203091428594,-5.541289805907062,0.2842359904011549,10.384233,-2.622783,4.1262813,-0.036065392,12.852875,-11.808422,1.0921059,-0.32389146,0.29426503,-0.12591995,-0.89030683,-2.6944256,2.596195,-0.028940503,-0.4645768,-4.706406,0.064003035,0
0.10999999999999999,9.195909507210818,-0.6155203091428594,-5.541289805907062,0.2842359904011549,10.384233,-2.622783,4.1262813,-0.036065392,12.825729,-11.782273,1.0916944,-0.32579303,0.27366242,-0.11613481,-0.89748544,-2.7341943,2.6333876,-0.052945253,-0.48807696,-4.83661,0.07480991,0
0.11999999999999998,9.195909507210818,-0.6155203091428594,-5.541289805907062,0.2842359904011549,10.384233,-2.622783,4.1262813,-0.036065392,12.7982,-11.755764,1.0910556,-0.32749498,0.25239003,-0.10600349,-0.904328,-2.7714362,2.667941,-0.074403375,-0.50791335,-4.946509,0.08508652,0
0.12999999999999998,10.997118838961232,-0.27456922208703194,-3.650266360647962,0.1200842093992355,12.084202,-2.429001,4.115444,-0.50830495,12.770309,-11.728923,1.0902146,-0.32897982,0.23052932,-0.09557138,-0.9107657,-2.8060048,2.699706,-0.09344129,-0.5246574,-5.039269,0.09485885,0
0.13999999999999999,10.997118838961232,-0.27456922208703194,-3.650266360647962,0.1200842093992355,12.084202,-2.429001,4.115444,-0.50830495,12.742057,-11.70175,1.0892739,-0.33021683,0.2088036,-0.085248865,-0.9165643,-2.8440044,2.7342212,-0.09429911,-0.48566574,-4.8226523,0.09609666,0
0.15,10.997118838961232,-0.27456922208703194,-3.650266360647962,0.1200842093992355,12.084202,-2.429001,4.115444,-0.50830495,12.713442,-11.674251,1.0883367,-0.33120626,0.18780808,-0.07537066,-0.92160153,-2.8786566,2.7652936,-0.09277373,-0.45275322,-4.6398177,0.09727374,0
0.16,11.7449759839141,0.012536543645308974,-1.6779536109037305,-0.03925945230674727,13.496574,-1.7707784,4.3748817,-0.78141755,12.684495,-11.646457,1.0874254,-0.3319751,0.16743453,-0.06587045,-0.92596924,-2.9099991,2.7930026,-0.089180455,-0.42497206,-4.4854965,0.09839305,0
0.17,11.7449759839141,0.012536543645308974,-1.6779536109037305,-0.03925945230674727,13.496574,-1.7707784,4.3748817,-0.78141755,12.655241,-11.618394,1.0865942,-0.3325356,0.14828694,-0.05705771,-0.92961025,-2.9400012,2.8191082,-0.07677794,-0.3567888,-4.0476556,0.091638416,0
0.18000000000000002,11.7449759839141,0.012536543645308974,-1.6779536109037305,-0.03925945230674727,13.496574,-1.7707784,4.3748817,-0.78141755,12.625705,-11.590087,1.0858951,-0.33291993,0.130847,-0.049177438,-0.93253666,-2.9667413,2.8419895,-0.062832415,-0.29923025,-3.6780972,0.085215226,0
0.19000000000000003,11.7449759839141,0.012536543645308974,-1.6779536109037305,-0.03925945230674727,13.496574,-1.7707784,4.3748817,-0.78141755,12.595917,-11.561564,1.0853418,-0.3331703,0.1148605,-0.04208891,-0.9348972,-2.9904594,2.8619354,-0.047650997,-0.25064126,-3.3661723,0.07910721,0
0.20000000000000004,12.256618353373922,0.18742554902528566,0.30126035347114594,-0.06308810292493694,14.229097,-1.6779032,4.885268,-1.1277746,12.565906,-11.532858,1.0849456,-0.3333183,0.10010902,-0.035671793,-0.9368053,-3.0113657,2.879197,-0.03147824,-0.20962417,-3.1028929,0.07329893,0
0.21000000000000005,12.256618353373922,0.18742554902528566,0.30126035347114594,-0.06308810292493694,14.229097,-1.6779032,4.885268,-1.1277746,12.535694,-11.503986,1.08474,-0.3333727,0.08712558,-0.030153083,-0.9382762,-3.0304694,2.8946645,-0.009506247,-0.14774132,-2.5720134,0.06660638,0
0.22000000000000006,12.256618353373922,0.18742554902528566,0.30126035347114594,-0.06308810292493694,14.229097,-1.6779032,4.885268,-1.1277746,12.505304,-11.474971,1.0847573,-0.3333525,0.07632448,-0.025707524,-0.9393559,-3.0472279,2.9079776,0.013073936,-0.09550046,-2.1239252,0.06024223,0
0.23000000000000007,12.256618353373922,0.18742554902528566,0.30126035347114594,-0.06308810292493694,14.229097,-1.6779032,4.885268,-1.1277746,12.474757,-11.445832,1.0850028,-0.33328834,0.06737126,-0.02216941,-0.9401533,-3.0620177,2.91953,0.036092896,-0.051400132,-1.7457169,0.05419037,0
0.24000000000000007,12.256618353373922,0.18742554902528566,0.30126035347114594,-0.06308810292493694,14.647024,-1.7633932,5.412613,-1.1163654,12.444071,-11.416585,1.0854802,-0.33320108,0.059981324,-0.0193981,-0.94074583,-3.0751617,2.9296563,0.05942949,-0.014172145,-1.4264908,0.048435476,0
0.25000000000000006,12.256618353373922,0.18742554902528566,0.30126035347114594,-0.06308810292493694,14.647024,-1.7633932,5.412613,-1.1163654,12.4132595,-11.387242,1.0861923,-0.3331047,0.053913083,-0.017274458,-0.9411886,-3.086934,2.9386413,0.08299681,0.017254485,-1.157048,0.042962987,0
0.26000000000000006,12.256618353373922,0.18742554902528566,0.30126035347114594,-0.06308810292493694,14.647024,-1.7633932,5.412613,-1.1163654,12.382336,-11.357815,1.0871408,-0.33300838,0.04896177,-0.015697686,-0.9415208,-3.0975685,2.9467254,0.10673229,0.043782894,-0.929625,0.03775903,0
0.2700000000000001,12.256618353373922,0.18742554902528566,0.30126035347114594,-0.06308810292493694,14.647024,-1.7633932,5.412613,-1.1163654,12.351312,-11.32831,1.0883274,-0.33291814,0.044954043,-0.014582578,-0.9417705,-3.1072626,2.9541128,0.13059059,0.06617682,-0.73766875,0.03281043,0
0.2800000000000001,13.678099629829733,0.3563790723504513,2.550325677092731,-0.08326673677159098,13.981964,-1.3877875,5.948846,-0.9543552,12.320194,-11.298735,1.0897529,-0.3328377,0.041743275,-0.013857146,-0.9419577,-3.1161847,2.9609756,0.15453854,0.08508019,-0.5756482,0.028104668,0
0.2900000000000001,13.678099629829733,0.3563790723504513,2.550325677092731,-0.08326673677159098,13.981964,-1.3877875,5.948846,-0.9543552,12.288986,-11.269089,1.0914891,-0.3327624,0.040030967,-0.01382374,-0.94205916,-3.1254783,2.9682493,0.19270936,0.12737969,-0.08815401,0.022639638,0
0.3000000000000001,13.678099629829733,0.3563790723504513,2.550325677092731,-0.08326673677159098,13.981964,-1.3877875,5.948846,-0.9543552,12.257687,-11.23937,1.0936072,-0.3326884,0.04036665,-0.014718731,-0.94205743,-3.1345067,2.9755232,0.23089805,0.16308704,0.32331535,0.01744277,0
0.3100000000000001,13.678099629829733,0.3563790723504513,2.550325677092731,-0.08326673677159098,13.981964,-1.3877875,5.948846,-0.9543552,12.226295,-11.209576,1.096107,-0.33261573,0.042430907,-0.016397052,-0.9419646,-3.1436853,2.9831967,0.26905468,0.19322892,0.6706159,0.01250092,0
0.3200000000000001,15.254055812238754,0.458226078335453,4.24944596258268,-0.0956685193857079,13.014757,-1.6691506,5.9012527,-0.60244155,12.194811,-11.179703,1.0989879,-0.33254132,0.045953702,-0.018736105,-0.941782,-3.1533644,2.991607,0.30713296,0.2186726,0.9637551,0.0078015854,0
0.3300000000000001,15.254055812238754,0.458226078335453,4.24944596258268,-0.0956685193857079,13.014757,-1.6691506,5.9012527,-0.60244155,12.163219,-11.149735,1.1023275,-0.3324496,0.051333424,-0.021896614,-0.9414683,-3.1650805,3.0021548,0.3607559,0.25603306,1.4761561,0.0027242773,0
0.34000000000000014,15.254055812238754,0.458226078335453,4.24944596258268,-0.0956685193857079,13.014757,-1.6691506,5.9012527,-0.60244155,12.131504,-11.119655,1.1062021,-0.3323196,0.05887258,-0.025999947,-0.94096833,-3.1782198,3.0143418,0.41413835,0.28757015,1.9086483,-0.002103874,0
0.35000000000000014,15.254055812238754,0.458226078335453,4.24944596258268,-0.0956685193857079,13.014757,-1.6691506,5.9012527,-0.60244155,12.0996475,-11.089442,1.1106089,-0.3321377,0.068230525,-0.03089705,-0.94025224,-3.19327,3.0286245,0.46715862,0.31419128,2.2736936,-0.006695116,0
0.36000000000000015,15.258814601796356,0.4610696600019059,4.824496728404356,-0.10451893927512397,11.177181,-1.3221418,5.946315,-0.5173684,12.067631,-11.059074,1.1155435,-0.33188975,0.07911826,-0.03646136,-0.93928695,-3.2106378,3.0453832,0.51967424,0.33666196,2.58181,-0.011061074,0
0.37000000000000016,15.258814601796356,0.4610696600019059,4.824496728404356,-0.10451893927512397,11.177181,-1.3221418,5.946315,-0.5173684,12.035426,-11.028525,1.1210002,-0.33155388,0.09150576,-0.04266249,-0.9380184,-3.230679,3.0649493,0.57156515,0.35607445,2.9315546,-0.015647095,0
0.38000000000000017,15.258814601796356,0.4610696600019059,4.824496728404356,-0.10451893927512397,11.177181,-1.3221418,5.946315,-0.5173684,12.003006,-10.997765,1.1269717,-0.3311065,0.105353616,-0.049469378,-0.9363876,-3.2537444,3.0876408,0.62257755,0.37246048,3.2267566,-0.020008074,0
0.3900000000000002,15.258814601796356,0.4610696600019059,4.824496728404356,-0.10451893927512397,11.177181,-1.3221418,5.946315,-0.5173684,11.970339,-10.966761,1.1334479,-0.33053282,0.1204212,-0.056781113,-0.9343567,-3.2801464,3.1137393,0.6724738,0.38629162,3.475922,-0.024155047,0
0.4000000000000002,14.023779770921008,0.38899728545002193,4.401763315422543,-0.10799270571344727,11.332449,-0.63788843,6.34544,-0.2851901,11.93739,-10.935477,1.1404164,-0.32981986,0.1365029,-0.06451129,-0.93189263,-3.3101356,3.1434693,0.7209943,0.3979658,3.6862307,-0.028098537,0
0.4100000000000002,14.023779770921008,0.38899728545002193,4.401763315422543,-0.10799270571344727,11.332449,-0.63788843,6.34544,-0.2851901,11.904137,-10.903891,1.1478033,-0.32896504,0.15327504,-0.07250324,-0.9289951,-3.3411672,3.174284,0.75613093,0.39657897,3.7978165,-0.032018982,0
0.4200000000000002,14.023779770921008,0.38899728545002193,4.401763315422543,-0.10799270571344727,11.332449,-0.63788843,6.34544,-0.2851901,11.870554,-10.871979,1.1555331,-0.32797006,0.17047161,-0.08062875,-0.92567486,-3.3757598,3.2086585,0.78950757,0.39540812,3.8920007,-0.035747044,0
0.4300000000000002,14.023779770921008,0.38899728545002193,4.401763315422543,-0.10799270571344727,11.332449,-0.63788843,6.34544,-0.2851901,11.836608,-10.839705,1.1635866,-0.3268308,0.1880072,-0.08885741,-0.92192143,-3.4139607,3.2466211,0.8208825,0.3944195,3.971497,-0.03929215,0
0.4400000000000002,14.023779770921008,0.38899728545002193,4.401763315422543,-0.10799270571344727,11.021341,-0.41368422,6.2709727,-0.05078786,11.802261,-10.807034,1.171943,-0.3255441,0.20580807,-0.09716276,-0.9177273,-3.455793,3.2881794,0.8500112,0.39358434,4.038596,-0.042663302,0
0.45000000000000023,14.023779770921008,0.38899728545002193,4.401763315422543,-0.10799270571344727,11.021341,-0.41368422,6.2709727,-0.05078786,11.767478,-10.773929,1.1805781,-0.3241078,0.22381034,-0.10552168,-0.9130871,-3.5012562,3.333321,0.8766484,0.39287898,4.0952315,-0.045869034,0
0.46000000000000024,14.023779770921008,0.38899728545002193,4.401763315422543,-0.10799270571344727,11.021341,-0.41368422,6.2709727,-0.05078786,11.732223,-10.740355,1.1894664,-0.3225205,0.24195848,-0.11391392,-0.90799785,-3.5503306,3.3820171,0.90055,0.39228347,4.143034,-0.048917465,0
0.47000000000000025,14.023779770921008,0.38899728545002193,4.401763315422543,-0.10799270571344727,11.021341,-0.41368422,6.2709727,-0.05078786,11.696459,-10.706277,1.198579,-0.32078147,0.2602041,-0.12232169,-0.90245795,-3.6029785,3.4342227,0.92147404,0.39178032,4.183382,-0.0518163,0
0.48000000000000026,12.734697563104106,0.2719997300808386,3.3036875188741925,-0.10483671639358953,9.961077,-2.2833736,6.340312,0.24171263,11.6601515,-10.671659,1.2078848,-0.3188904,0.27850485,-0.13072924,-0.8964673,-3.6591446,3.489879,0.9391827,0.39135495,4.2174377,-0.05457289,0
0.49000000000000027,12.734697563104106,0.2719997300808386,3.3036875188741925,-0.10483671639358953,9.961077,-2.2833736,6.340312,0.24171263,11.623291,-10.636496,1.2172989,-0.31689432,0.29644713,-0.13894182,-0.8901641,-3.7132657,3.5434728,0.94312996,0.37274307,4.074939,-0.057039358,0
0.5000000000000002,12.734697563104106,0.2719997300808386,3.3036875188741925,-0.10483671639358953,9.961077,-2.2833736,6.340312,0.24171263,11.5858755,-10.6007805,1.2267363,-0.3148417,0.31371048,-0.1468087,-0.8836897,-3.7703402,3.5999532,0.9438615,0.35703388,3.9546628,-0.05938479,0
0.5100000000000002,12.734697563104106,0.2719997300808386,3.3036875188741925,-0.10483671639358953,9.961077,-2.2833736,6.340312,0.24171263,11.547874,-10.564488,1.2361648,-0.31273335,0.33038557,-0.154376,-0.8770468,-3.8301888,3.6591394,0.94131464,0.34377456,3.8531435,-0.061615124,0
0.5200000000000002,12.02392836954538,0.13479064538685404,1.8833990332584454,-0.09548450203561959,8.581442,-2.263986,5.414652,0.30207056,11.509262,-10.52759,1.2455511,-0.31056926,0.34654808,-0.16168237,-0.8702355,-3.8926487,3.7208688,0.93542975,0.33258313,3.7674563,-0.063736014,0
0.5300000000000002,12.02392836954538,0.13479064538685404,1.8833990332584454,-0.09548450203561959,8.581442,-2.263986,5.414652,0.30207056,11.470031,-10.490079,1.2548368,-0.3084239,0.36178714,-0.16853783,-0.86346954,-3.9539323,3.7813985,0.9212133,0.3017289,3.4736395,-0.065293916,0
0.5400000000000003,12.02392836954538,0.13479064538685404,1.8833990332584454,-0.09548450203561959,8.581442,-2.263986,5.414652,0.30207056,11.430176,-10.451953,1.2639648,-0.30636722,0.3757938,-0.1747997,-0.85694987,-4.0173,3.8439496,0.90390974,0.2756875,3.2256432,-0.066775374,0
0.5500000000000003,12.02392836954538,0.13479064538685404,1.8833990332584454,-0.09548450203561959,8.581442,-2.263986,5.414652,0.30207056,11.389678,-10.413193,1.2729048,-0.30439037,0.388762,-0.18056071,-0.85065174,-4.082533,3.9083042,0.8836527,0.25370848,3.0163217,-0.06818414,0
0.5600000000000003,11.959847236017668,-0.010029842945928864,0.2637104353442495,-0.08206306690505207,8.506914,-2.0857282,3.9509506,0.4534071,11.34852,-10.37378,1.281628,-0.3024838,0.4008537,-0.18589845,-0.84454817,-4.1494465,3.9742794,0.86056143,0.23515783,2.8396437,-0.069523774,0
0.5700000000000003,11.959847236017668,-0.010029842945928864,0.2637104353442495,-0.08206306690505207,8.506914,-2.0857282,3.9509506,0.4534071,11.306686,-10.333703,1.2901046,-0.30073637,0.4116778,-0.19063507,-0.8388905,-4.2175064,4.041347,0.8343835,0.1969037,2.43793,-0.070139095,0
0.5800000000000003,11.959847236017668,-0.010029842945928864,0.2637104353442495,-0.08206306690505207,8.506914,-2.0857282,3.9509506,0.4534071,11.264165,-10.292949,1.2983074,-0.29922563,0.4209429,-0.19463822,-0.8338987,-4.2868433,4.1096363,0.80579686,0.16461784,2.0988634,-0.07072422,0
0.5900000000000003,11.959847236017668,-0.010029842945928864,0.2637104353442495,-0.08206306690505207,8.506914,-2.0857282,3.9509506,0.4534071,11.220944,-10.251507,1.3062134,-0.29792467,0.4289051,-0.1980278,-0.8294976,-4.3572474,4.17894,0.775103,0.13736911,1.8126737,-0.071280636,0
0.6000000000000003,12.81525262107312,-0.12408766666008905,-1.1195795592371238,-0.06605093884087526,7.771627,-1.2998364,2.412621,0.055944167,11.177015,-10.209366,1.3138032,-0.29680791,0.4357773,-0.20090349,-0.82561547,-4.428549,4.2490907,0.74256533,0.114371754,1.5711149,-0.07180974,0
0.6100000000000003,12.81525262107312,-0.12408766666008905,-1.1195795592371238,-0.06605093884087526,7.771627,-1.2998364,2.412621,0.055944167,11.132345,-10.166495,1.3210824,-0.29594252,0.44129446,-0.2031479,-0.82244027,-4.505753,4.325008,0.7130131,0.07716435,1.1515044,-0.07152716,0
0.6200000000000003,12.81525262107312,-0.12408766666008905,-1.1195795592371238,-0.06605093884087526,7.771627,-1.2998364,2.412621,0.055944167,11.086899,-10.122863,1.3280591,-0.29538223,0.44525912,-0.20467386,-0.8201232,-4.5835624,4.401481,0.6821477,0.04576263,0.79733175,-0.07125843,0
0.6300000000000003,12.81525262107312,-0.12408766666008905,-1.1195795592371238,-0.06605093884087526,7.771627,-1.2998364,2.412621,0.055944167,11.040672,-10.0784645,1.3347222,-0.29508492,0.44792253,-0.20559724,-0.81854737,-4.661794,4.478329,0.65035874,0.019260574,0.4983917,-0.07100289,0
0.6400000000000003,12.81525262107312,-0.12408766666008905,-1.1195795592371238,-0.06605093884087526,7.991792,-1.6163827,1.3846134,0.4495404,10.993662,-10.033297,1.3410642,-0.29501265,0.44949293,-0.20601422,-0.8176072,-4.740299,4.555405,0.6179799,-0.003106224,0.24607112,-0.070759885,0
0.6500000000000004,12.81525262107312,-0.12408766666008905,-1.1195795592371238,-0.06605093884087526,7.991792,-1.6163827,1.3846134,0.4495404,10.945866,-9.987356,1.3470806,-0.29513168,0.45014355,-0.20600478,-0.81720865,-4.818956,4.6325874,0.5852952,-0.021983124,0.033099502,-0.07052882,0
0.6600000000000004,12.81525262107312,-0.12408766666008905,-1.1195795592371238,-0.06605093884087526,7.991792,-1.6163827,1.3846134,0.4495404,10.897283,-9.940644,1.3527699,-0.2954124,0.4500188,-0.2056357,-0.81726885,-4.8976617,4.7097745,0.55254567,-0.0379145,-0.14665943,-0.0703091,0
0.6700000000000004,12.81525262107312,-0.12408766666008905,-1.1195795592371238,-0.06605093884087526,7.991792,-1.6163827,1.3846134,0.4495404,10.847913,-9.893161,1.3581321,-0.29582906,0.4492393,-0.20496279,-0.81771594,-4.9763317,4.78688,0.51993483,-0.051359963,-0.2983853,-0.07010014,0
0.6800000000000004,14.133506712863028,-0.20448611963896304,-2.109941132387538,-0.04976349503652705,9.788961,-1.069851,0.32450652,0.63358533,10.797757,-9.844907,1.3631698,-0.29635942,0.44790617,-0.20403281,-0.81848747,-5.0548935,4.863831,0.48763415,-0.06270764,-0.4264496,-0.06990145,0
0.6900000000000004,14.133506712863028,-0.20448611963896304,-2.109941132387538,-0.04976349503652705,9.788961,-1.069851,0.32450652,0.63358533,10.746777,-9.795845,1.3679205,-0.29704887,0.44578826,-0.20274182,-0.81971365,-5.1413407,4.94845,0.46262413,-0.08482925,-0.68898827,-0.06891328,0
0.7000000000000004,14.133506712863028,-0.20448611963896304,-2.109941132387538,-0.04976349503652705,9.788961,-1.069851,0.32450652,0.63358533,10.694933,-9.745939,1.372425,-0.29793015,0.44270426,-0.2010084,-0.8214902,-5.227471,5.0326996,0.4384101,-0.10349925,-0.91058433,-0.0679736,0
0.7100000000000004,14.133506712863028,-0.20448611963896304,-2.109941132387538,-0.04976349503652705,9.788961,-1.069851,0.32450652,0.63358533,10.642229,-9.695194,1.3766923,-0.2989683,0.4387982,-0.19889852,-0.8237193,-5.31316,5.1164556,0.41526183,-0.11925562,-1.0976228,-0.067080036,0
0.7200000000000004,15.29512509666336,-0.24730915309071255,-2.710180639252833,-0.034699284988221064,9.521702,-1.0085893,-0.72401947,0.7648032,10.588672,-9.643614,1.3807346,-0.30013305,0.43419087,-0.19646762,-0.82631654,-5.3982983,5.1996074,0.39340228,-0.1325535,-1.2554927,-0.06623031,0
0.7300000000000004,15.29512509666336,-0.24730915309071255,-2.710180639252833,-0.034699284988221064,9.521702,-1.0085893,-0.72401947,0.7648032,10.534232,-9.591171,1.3845973,-0.30143622,0.42878935,-0.1936764,-0.82931626,-5.489726,5.2888246,0.37941477,-0.15045793,-1.4823496,-0.06468308,0
0.7400000000000004,15.29512509666336,-0.24730915309071255,-2.710180639252833,-0.034699284988221064,9.521702,-1.0085893,-0.72401947,0.7648032,10.478881,-9.537842,1.3883291,-0.3028832,0.42252207,-0.19049485,-0.83273566,-5.5803056,5.3771334,0.36728314,-0.16556832,-1.6738288,-0.06321177,0
0.7500000000000004,15.29512509666336,-0.24730915309071255,-2.710180639252833,-0.034699284988221064,9.521702,-1.0085893,-0.72401947,0.7648032,10.422628,-9.483633,1.39195,-0.30444124,0.41551125,-0.18697828,-0.8364838,-5.6698947,5.464392,0.35723507,-0.17832078,-1.835447,-0.061812658,0
0.7600000000000005,15.760456559820595,-0.25008384192216937,-2.942308804274213,-0.02069268810615983,10.045847,-1.3436185,-1.1499949,0.8414049,10.365486,-9.428557,1.3954816,-0.3060824,0.4078599,-0.1831733,-0.84048283,-5.758364,5.550471,0.3494514,-0.18908328,-1.971861,-0.060482185,0
0.7700000000000005,15.760456559820595,-0.25008384192216937,-2.942308804274213,-0.02069268810615983,10.045847,-1.3436185,-1.1499949,0.8414049,10.307451,-9.372614,1.3989613,-0.30779767,0.39957675,-0.17909054,-0.84470445,-5.8482447,5.637824,0.3468987,-0.19859946,-2.1232016,-0.058529712,0
0.7800000000000005,15.760456559820595,-0.25008384192216937,-2.942308804274213,-0.02069268810615983,10.045847,-1.3436185,-1.1499949,0.8414049,10.248526,-9.315805,1.4024286,-0.30957717,0.39067206,-0.17474003,-0.8491191,-5.9367065,5.7237005,0.3469718,-0.20663051,-2.2509408,-0.056673046,0
0.7900000000000005,15.760456559820595,-0.25008384192216937,-2.942308804274213,-0.02069268810615983,10.045847,-1.3436185,-1.1499949,0.8414049,10.188723,-9.258145,1.4059101,-0.3113977,0.3812285,-0.17015754,-0.8536643,-6.0236163,5.80797,0.34978557,-0.21340834,-2.3587594,-0.05490747,0
0.8000000000000005,15.629698516434408,-0.20642640880345348,-2.6805332974912637,-0.00889782710153731,10.339857,-0.70366216,-1.3599257,0.449346,10.128058,-9.199651,1.409434,-0.3132398,0.37131646,-0.16537346,-0.85828704,-6.1088486,5.8905087,0.35542047,-0.21912846,-2.4497635,-0.053228553,0
0.8100000000000005,15.629698516434408,-0.20642640880345348,-2.6805332974912637,-0.00889782710153731,10.339857,-0.70366216,-1.3599257,0.449346,10.066555,-9.140345,1.4130241,-0.31507534,0.36108065,-0.16046233,-0.8629023,-6.1915956,5.9705358,0.36303756,-0.21714534,-2.4857523,-0.051053237,0
0.8200000000000005,15.629698516434408,-0.20642640880345348,-2.6805332974912637,-0.00889782710153731,10.339857,-0.70366216,-1.3599257,0.449346,10.004232,-9.080247,1.4167044,-0.31688252,0.35064125,-0.1554858,-0.8674448,-6.272476,6.0486555,0.37348804,-0.21547137,-2.5161288,-0.04898465,0
0.8300000000000005,15.629698516434408,-0.20642640880345348,-2.6805332974912637,-0.00889782710153731,10.339857,-0.70366216,-1.3599257,0.449346,9.941112,-9.019378,1.4205034,-0.31865492,0.34002075,-0.15045041,-0.87190014,-6.3514132,6.124798,0.38673848,-0.2140584,-2.5417678,-0.047017574,0
0.8400000000000005,15.629698516434408,-0.20642640880345348,-2.6805332974912637,-0.00889782710153731,11.144003,-0.32961658,-1.4460545,0.4663303,9.877212,-8.957758,1.4244487,-0.32038707,0.32923862,-0.1453619,-0.87625575,-6.428332,6.198896,0.4027459,-0.21286568,-2.5634084,-0.04514702,0
0.8500000000000005,15.629698516434408,-0.20642640880345348,-2.6805332974912637,-0.00889782710153731,11.144003,-0.32961658,-1.4460545,0.4663303,9.812552,-8.895408,1.4285676,-0.3220745,0.31831175,-0.14022528,-0.8805014,-6.503163,6.2708855,0.42145917,-0.21185894,-2.581674,-0.043368254,0
0.8600000000000005,15.629698516434408,-0.20642640880345348,-2.6805332974912637,-0.00889782710153731,11.144003,-0.32961658,-1.4460545,0.4663303,9.747155,-8.832348,1.4328871,-0.32371357,0.30725482,-0.13504493,-0.8846282,-6.575839,6.340705,0.4428199,-0.21100938,-2.5970912,-0.041676786,0
0.8700000000000006,15.629698516434408,-0.20642640880345348,-2.6805332974912637,-0.00889782710153731,11.144003,-0.32961658,-1.4460545,0.4663303,9.681043,-8.768601,1.437433,-0.32530117,0.29608062,-0.12982468,-0.88862884,-6.6462975,6.4082956,0.46676335,-0.21029244,-2.6101043,-0.04006832,0
0.8800000000000006,14.345630858890404,-0.15876110643270674,-2.303438318446991,0.000644512967713456,11.978748,0.07593737,-1.0043693,0.124526925,9.614237,-8.704189,1.442231,-0.3268348,0.28480038,-0.12456797,-0.892497,-6.714478,6.4736004,0.49321932,-0.20968722,-2.621088,-0.038538788,0
0.8900000000000006,14.345630858890404,-0.15876110643270674,-2.303438318446991,0.000644512967713456,11.978748,0.07593737,-1.0043693,0.124526925,9.546787,-8.639163,1.4472538,-0.32829857,0.27355283,-0.11934477,-0.8961842,-6.774919,6.531398,0.51167387,-0.20174074,-2.5715508,-0.036616065,0
0.9000000000000006,14.345630858890404,-0.15876110643270674,-2.303438318446991,0.000644512967713456,11.978748,0.07593737,-1.0043693,0.124526925,9.478745,-8.573569,1.4524719,-0.32968205,0.26245078,-0.11421181,-0.8996585,-6.833207,6.5870457,0.53225154,-0.19503407,-2.5297391,-0.034787692,0
0.9100000000000006,14.345630858890404,-0.15876110643270674,-2.303438318446991,0.000644512967713456,11.978748,0.07593737,-1.0043693,0.124526925,9.4101305,-8.507429,1.4579058,-0.33099052,0.2514683,-0.10915394,-0.90293676,-6.889339,6.640547,0.5548395,-0.1893737,-2.494448,-0.03304902,0
0.9200000000000006,13.08762441657114,-0.10614819270408345,-1.7695357482456113,0.007750951243324538,11.998779,0.53316486,-1.023595,-0.027659766,9.340965,-8.440764,1.4635751,-0.33222836,0.24058345,-0.10415834,-0.90603274,-6.943307,6.6919,0.57933265,-0.18459645,-2.4646604,-0.031395674,0
0.9300000000000006,13.08762441657114,-0.10614819270408345,-1.7695357482456113,0.007750951243324538,11.998779,0.53316486,-1.023595,-0.027659766,9.271296,-8.373619,1.4694442,-0.333382,0.22996494,-0.099304736,-0.90890676,-6.990568,6.736795,0.59471685,-0.17235725,-2.3562567,-0.029474743,0
0.9400000000000006,13.08762441657114,-0.10614819270408345,-1.7695357482456113,0.007750951243324538,11.998779,0.53316486,-1.023595,-0.027659766,9.201162,-8.306035,1.4754747,-0.33444393,0.21974772,-0.09465677,-0.91153646,-7.035897,6.7797823,0.6116181,-0.16202743,-2.2647583,-0.027648065,0
0.9500000000000006,13.08762441657114,-0.10614819270408345,-1.7695357482456113,0.007750951243324538,11.998779,0.53316486,-1.023595,-0.027659766,9.130585,-8.23803,1.4816812,-0.3354251,0.209869,-0.09018259,-0.9139543,-7.0793424,6.8209176,0.62991524,-0.15330914,-2.1875288,-0.02591104,0
0.9600000000000006,12.590945442819224,-0.05051840100429344,-1.19263320972703,0.012034632545134897,11.263439,-0.07086577,-0.2879123,0.09666077,9.059582,-8.169622,1.4880772,-0.33633453,0.20027544,-0.08585511,-0.9161868,-7.1209474,6.860248,0.649502,-0.145951,-2.1223433,-0.024259249,0
0.9700000000000006,12.590945442819224,-0.05051840100429344,-1.19263320972703,0.012034632545134897,11.263439,-0.07086577,-0.2879123,0.09666077,8.98818,-8.100838,1.4946526,-0.3371644,0.19112624,-0.08174974,-0.9182094,-7.1592426,6.8963947,0.66576755,-0.13106385,-1.9773556,-0.022478294,0
0.9800000000000006,12.590945442819224,-0.05051840100429344,-1.19263320972703,0.012034632545134897,11.263439,-0.07086577,-0.2879123,0.09666077,8.916403,-8.031699,1.5013962,-0.33791158,0.18254672,-0.077925675,-0.92001116,-7.1958914,6.9309387,0.68306386,-0.11849901,-1.8549789,-0.020784725,0
0.9900000000000007,12.590945442819224,-0.05051840100429344,-1.19263320972703,0.012034632545134897,11.263439,-0.07086577,-0.2879123,0.09666077,8.844267,-7.9622235,1.5083172,-0.33858854,0.17444906,-0.07433973,-0.92162865,-7.2309794,6.963972,0.7012841,-0.10789412,-1.7516867,-0.019174257,0
1.0000000000000007,12.774571078697566,0.01100017609193447,-0.539663663285197,0.012681717123589545,11.172609,0.7762611,-0.10464077,-0.101898305,8.771788,-7.8924246,1.5154247,-0.3392053,0.16675866,-0.07095523,-0.92309105,-7.264581,6.995573,0.72033846,-0.09894358,-1.6645027,-0.017642835,0
1.0100000000000007,12.774571078697566,0.01100017609193447,-0.539663663285197,0.012681717123589545,11.172609,0.7762611,-0.10464077,-0.101898305,8.6989765,-7.8223147,1.5227351,-0.3397561,0.15964551,-0.067852594,-0.92437845,-7.297238,7.0262594,0.7418652,-0.08179441,-1.489085,-0.016154796,0
1.0200000000000007,12.774571078697566,0.01100017609193447,-0.539663663285197,0.012681717123589545,11.172609,0.7762611,-0.10464077,-0.101898305,8.625847,-7.7519045,1.5302644,-0.34023896,0.15324196,-0.06509435,-0.9254823,-7.328578,7.0556936,0.76405704,-0.06732039,-1.3410236,-0.014739781,0
1.0300000000000007,12.774571078697566,0.01100017609193447,-0.539663663285197,0.012681717123589545,11.172609,0.7762611,-0.10464077,-0.101898305,8.55241,-7.6812053,1.5380185,-0.34066585,0.14743865,-0.06262754,-0.9264377,-7.358723,7.084002,0.7868234,-0.05510406,-1.216052,-0.013394207,0
1.0400000000000007,12.774571078697566,0.01100017609193447,-0.539663663285197,0.012681717123589545,11.259939,0.99200976,0.16133828,-0.15704718,8.478678,-7.6102276,1.5460026,-0.34104618,0.1421428,-0.060407232,-0.92727244,-7.3877754,7.1112914,0.8100908,-0.044793192,-1.1105698,-0.012114648,0
1.0500000000000007,12.774571078697566,0.01100017609193447,-0.539663663285197,0.012681717123589545,11.259939,0.99200976,0.16133828,-0.15704718,8.404659,-7.538982,1.5542217,-0.3413876,0.13727592,-0.058395386,-0.9280086,-7.4158225,7.1376534,0.833799,-0.03609078,-1.0215373,-0.010897881,0
1.0600000000000007,12.774571078697566,0.01100017609193447,-0.539663663285197,0.012681717123589545,11.259939,0.99200976,0.16133828,-0.15704718,8.330365,-7.4674773,1.56268,-0.34169614,0.13277145,-0.05655977,-0.9286639,-7.4429383,7.163164,0.85789865,-0.028745817,-0.9463894,-0.009740818,0
1.0700000000000007,12.774571078697566,0.01100017609193447,-0.539663663285197,0.012681717123589545,11.259939,0.99200976,0.16133828,-0.15704718,8.255804,-7.3957214,1.571381,-0.34197667,0.12857312,-0.054873116,-0.9292524,-7.469186,7.18789,0.88234884,-0.02254645,-0.8829608,-0.008640536,0
1.0800000000000007,12.695844164202548,0.037497490961115584,-0.16939891111809213,0.012736146219460415,11.352648,1.5075485,0.3064162,-0.34685937,8.180985,-7.323722,1.580328,-0.34223315,0.124633335,-0.053312346,-0.9297854,-7.4946184,7.211886,0.9071156,-0.017314,-0.8294238,-0.0075942506,0
1.0900000000000007,12.695844164202548,0.037497490961115584,-0.16939891111809213,0.012736146219460415,11.352648,1.5075485,0.3064162,-0.34685937,8.105916,-7.251487,1.5895203,-0.34246248,0.12104608,-0.05191855,-0.9302536,-7.5191355,7.2350607,0.93140924,-0.008765243,-0.7264935,-0.0065966323,0
1.1000000000000008,12.695844164202548,0.037497490961115584,-0.16939891111809213,0.012736146219460415,11.352648,1.5075485,0.3064162,-0.34685937,8.030604,-7.1790233,1.598957,-0.34266287,0.11788392,-0.050723374,-0.9306518,-7.542969,7.2576394,0.95594907,-0.0015498486,-0.63961476,-0.005647974,0
1.1100000000000008,12.695844164202548,0.037497490961115584,-0.16939891111809213,0.012736146219460415,11.352648,1.5075485,0.3064162,-0.34685937,7.955058,-7.106336,1.6086401,-0.34283906,0.11508085,-0.049696043,-0.9309931,-7.566196,7.279699,0.9806998,0.0045401575,-0.56628484,-0.0047458666,0
1.1200000000000008,12.076525270624371,0.04260013933602309,0.06475350895404443,0.013634954594269647,11.348898,1.7117338,0.4817416,-0.4062302,7.879282,-7.0334306,1.6185715,-0.34299487,0.11258104,-0.04881053,-0.9312881,-7.58888,7.3013034,1.0056326,0.009680357,-0.50439066,-0.0038880184,0
1.1300000000000008,12.076525270624371,0.04260013933602309,0.06475350895404443,0.013634954594269647,11.348898,1.7117338,0.4817416,-0.4062302,7.803287,-6.9603167,1.6287231,-0.34312895,0.11042392,-0.048078913,-0.931535,-7.609997,7.321477,1.0247134,0.014814717,-0.41563293,-0.00302816,0
1.1400000000000008,12.076525270624371,0.04260013933602309,0.06475350895404443,0.013634954594269647,11.348898,1.7117338,0.4817416,-0.4062302,7.7270837,-6.887002,1.6390662,-0.3432406,0.10863833,-0.047509637,-0.931733,-7.630721,7.3413396,1.0439173,0.019148186,-0.34071708,-0.002210496,0
1.1500000000000008,12.076525270624371,0.04260013933602309,0.06475350895404443,0.013634954594269647,11.348898,1.7117338,0.4817416,-0.4062302,7.6506743,-6.8134904,1.6496018,-0.3433333,0.107166454,-0.047077496,-0.9318912,-7.651117,7.360953,1.0632207,0.022805654,-0.27748424,-0.001432936,0
1.1600000000000008,10.874354720280145,0.024415072594303245,-0.06667783299585979,0.013310264271526808,10.948637,1.7065102,0.4488917,-0.2801907,7.5740623,-6.739784,1.6603309,-0.3434099,0.10595946,-0.04676121,-0.9320169,-7.6712394,7.38037,1.082604,0.02589263,-0.22411244,-0.0006935599,0
1.1700000000000008,10.874354720280145,0.024415072594303245,-0.06667783299585979,0.013310264271526808,10.948637,1.7065102,0.4488917,-0.2801907,7.49726,-6.665893,1.6711956,-0.34347442,0.10492957,-0.04651794,-0.93212175,-7.6891527,7.397715,1.0903503,0.025662314,-0.19956061,-6.3886837e-06,0
1.1800000000000008,10.874354720280145,0.024415072594303245,-0.06667783299585979,0.013310264271526808,10.948637,1.7065102,0.4488917,-0.2801907,7.4202795,-6.59183,1.6821381,-0.3435301,0.10400504,-0.046312768,-0.9322151,-7.7068844,7.414942,1.0981463,0.025467953,-0.1788377,0.00064706843,0
1.1900000000000008,10.874354720280145,0.024415072594303245,-0.06667783299585979,0.013310264271526808,10.948637,1.7065102,0.4488917,-0.2801907,7.3431225,-6.517595,1.6931586,-0.34357798,0.10316945,-0.046139803,-0.9322989,-7.7244515,7.4320655,1.1059866,0.025303882,-0.16134647,0.0012684568,0
1.2000000000000008,9.647919041406691,0.0028510193382839085,-0.39950228275783056,0.011153807619115937,9.806437,1.0731155,0.18097658,-0.09946605,7.2657905,-6.4431887,1.7042578,-0.34361908,0.102408916,-0.045994062,-0.9323748,-7.741869,7.4490976,1.1138662,0.02516526,-0.14658305,0.001859352,0
1.2100000000000009,9.647919041406691,0.0028510193382839085,-0.39950228275783056,0.011153807619115937,9.806437,1.0731155,0.18097658,-0.09946605,7.188295,-6.3686223,1.7153763,-0.34365958,0.1015905,-0.045817483,-0.9324581,-7.757195,7.464133,1.1098262,0.02168545,-0.18602562,0.0023154402,0
1.2200000000000009,9.647919041406691,0.0028510193382839085,-0.39950228275783056,0.011153807619115937,9.806437,1.0731155,0.18097658,-0.09946605,7.1106467,-6.293906,1.7264544,-0.34370437,0.10060823,-0.045563813,-0.9325605,-7.7723775,7.479074,1.1058244,0.018748397,-0.21931718,0.0027491224,0
1.2300000000000009,9.647919041406691,0.0028510193382839085,-0.39950228275783056,0.011153807619115937,9.806437,1.0731155,0.18097658,-0.09946605,7.0328474,-6.219041,1.7374928,-0.34375238,0.09948757,-0.045245074,-0.9326786,-7.787394,7.4938984,1.1018678,0.016269159,-0.24741691,0.0031615444,0
1.2400000000000009,9.647919041406691,0.0028510193382839085,-0.39950228275783056,0.011153807619115937,9.524191,1.0521456,-0.099249646,-0.1505636,6.9548993,-6.144028,1.748492,-0.3438027,0.09825005,-0.044871394,-0.9328093,-7.802225,7.508586,1.0979618,0.014176809,-0.27113444,0.003553725,0
1.2500000000000009,9.647919041406691,0.0028510193382839085,-0.39950228275783056,0.011153807619115937,9.524191,1.0521456,-0.099249646,-0.1505636,6.876804,-6.06887,1.7594523,-0.34385455,0.0969138,-0.044451337,-0.93295,-7.816855,7.523121,1.0941111,0.012410665,-0.29115346,0.00392666,0
1.260000000000001,9.647919041406691,0.0028510193382839085,-0.39950228275783056,0.011153807619115937,9.524191,1.0521456,-0.099249646,-0.1505636,6.7985635,-5.993567,1.7703744,-0.34390727,0.09549415,-0.043992117,-0.93309873,-7.8312697,7.537489,1.0903192,0.010919999,-0.30805036,0.0042812987,0
1.270000000000001,9.647919041406691,0.0028510193382839085,-0.39950228275783056,0.011153807619115937,9.524191,1.0521456,-0.099249646,-0.1505636,6.7201796,-5.9181213,1.781259,-0.34396031,0.09400402,-0.04349983,-0.9332535,-7.8454576,7.5516777,1.0865887,0.009661897,-0.32231212,0.004618527,0
1.280000000000001,8.877928175404442,-0.03674347171906246,-0.8336128933993896,0.01156718154640637,8.203878,0.7249469,-0.0750206,-0.17447901,6.641655,-5.842534,1.7921064,-0.34401327,0.09245435,-0.042979624,-0.9334129,-7.859409,7.565678,1.0829216,0.008599908,-0.33434984,0.0049392134,1
1.290000000000001,8.877928175404442,-0.03674347171906246,-0.8336128933993896,0.01156718154640637,8.203878,0.7249469,-0.0750206,-0.17447901,6.5630026,-5.766818,1.8028469,-0.3441082,0.090877146,-0.042748146,-0.93354344,-7.8710604,7.5774264,1.0651746,0.12031216,-0.2939079,-0.0038648914,1
1.300000000000001,8.877928175404442,-0.03674347171906246,-0.8336128933993896,0.01156718154640637,8.203878,0.7249469,-0.0750206,-0.17447901,6.4842343,-5.6909857,1.81341,-0.3442811,0.089298375,-0.043056376,-0.93361795,-7.882472,7.5890846,1.047475,0.2146033,-0.2597738,-0.012236981,1
1.310000000000001,8.877928175404442,-0.03674347171906246,-0.8336128933993896,0.01156718154640637,8.203878,0.7249469,-0.0750206,-0.17447901,6.4053535,-5.6150365,1.8237965,-0.3445231,0.08771837,-0.04381982,-0.933643,-7.8936133,7.600732,1.0298148,0.2941901,-0.23096362,-0.020198252,1
1.320000000000001,8.372632014261209,-0.088095592642396,-1.0243739906940745,0.016462700633915694,7.8814845,0.9459241,-0.33955306,-0.21163091,6.326363,-5.538971,1.8340065,-0.34482646,0.08613736,-0.04496714,-0.9336236,-7.9044595,7.6124325,1.0121872,0.36136568,-0.20664705,-0.027768854,0
1.330000000000001,8.372632014261209,-0.088095592642396,-1.0243739906940745,0.016462700633915694,7.8814845,0.9459241,-0.33955306,-0.21163091,6.2472644,-5.4627867,1.8440487,-0.34515175,0.08431199,-0.046005342,-0.9336195,-7.9152026,7.624468,0.9962444,0.29127046,-0.3341695,-0.0255984,0
1.340000000000001,8.372632014261209,-0.088095592642396,-1.0243739906940745,0.016462700633915694,7.8814845,0.9459241,-0.33955306,-0.21163091,6.1680603,-5.386482,1.8539317,-0.34546518,0.082049355,-0.046540733,-0.9336786,-7.925583,7.636525,0.98034513,0.23210731,-0.4418051,-0.023534445,0
1.350000000000001,8.372632014261209,-0.088095592642396,-1.0243739906940745,0.016462700633915694,7.8814845,0.9459241,-0.33955306,-0.21163091,6.0887537,-5.3100567,1.863656,-0.34576777,0.07941748,-0.04665153,-0.93378866,-7.935564,7.648505,0.96450645,0.18217114,-0.5326554,-0.021571767,0
1.360000000000001,8.207983088857151,-0.23696539008380088,-1.2328778671004477,0.03917283279588652,8.250289,0.15879641,-0.443775,-0.2952671,6.00935,-5.2335124,1.8732222,-0.3460599,0.07647373,-0.046403743,-0.93393856,-7.9451156,7.6603265,0.9487417,0.14002295,-0.6093378,-0.019705402,1
1.370000000000001,8.207983088857151,-0.23696539008380088,-1.2328778671004477,0.03917283279588652,8.250289,0.15879641,-0.443775,-0.2952671,5.9298534,-5.1568513,1.8826252,-0.34637448,0.073451094,-0.04602289,-0.9340834,-7.9540834,7.671758,0.93185496,0.14294592,-0.5835197,-0.033227287,1
1.380000000000001,8.207983088857151,-0.23696539008380088,-1.2328778671004477,0.03917283279588652,8.250289,0.15879641,-0.443775,-0.2952671,5.85027,-5.080077,1.8918597,-0.34674308,0.07053711,-0.045690462,-0.93418753,-7.9626107,7.6829686,0.9150464,0.1454135,-0.56172776,-0.046085652,1
1.390000000000001,8.207983088857151,-0.23696539008380088,-1.2328778671004477,0.03917283279588652,8.250289,0.15879641,-0.443775,-0.2952671,5.770603,-5.0031924,1.9009264,-0.34716353,0.06771509,-0.045398585,-0.9342544,-7.9707108,7.693971,0.89831,0.14749666,-0.54333436,-0.058313053,1
1.400000000000001,7.995406980604737,-0.32100768857281325,-1.1193280557915273,0.0609134088668222,9.73341,0.2750102,0.7671886,-0.3026431,5.690857,-4.9261985,1.909826,-0.34763372,0.06497096,-0.045140628,-0.93428695,-7.9783936,7.704776,0.8816405,0.14925541,-0.5278093,-0.06994046,0
1.410000000000001,7.995406980604737,-0.32100768857281325,-1.1193280557915273,0.0609134088668222,9.73341,0.2750102,0.7671886,-0.3026431,5.6110377,-4.849099,1.9185468,-0.3481101,0.062104985,-0.044640407,-0.9343285,-7.9854407,7.7150526,0.86251736,0.07591643,-0.62005264,-0.06351943,0
1.420000000000001,7.995406980604737,-0.32100768857281325,-1.1193280557915273,0.0609134088668222,9.73341,0.2750102,0.7671886,-0.3026431,5.53115,-4.7718983,1.9270766,-0.34855175,0.058957994,-0.043678805,-0.9344132,-7.992079,7.7250676,0.8434633,0.014015776,-0.69791174,-0.057413466,0
1.430000000000001,7.995406980604737,-0.32100768857281325,-1.1193280557915273,0.0609134088668222,9.73341,0.2750102,0.7671886,-0.3026431,5.4511976,-4.6945987,1.9354162,-0.34896013,0.055573568,-0.042327546,-0.9345304,-7.9982924,7.7347407,0.82448626,-0.03823047,-0.76362973,-0.05160713,0
1.440000000000001,7.995406980604737,-0.32100768857281325,-1.1193280557915273,0.0609134088668222,9.529951,0.14555769,0.76630896,-0.1946561,5.3711853,-4.6172047,1.9435666,-0.3493364,0.051988482,-0.040647168,-0.93467075,-8.00407,7.744004,0.8055912,-0.08232836,-0.8190994,-0.04608572,0
1.450000000000001,7.995406980604737,-0.32100768857281325,-1.1193280557915273,0.0609134088668222,9.529951,0.14555769,0.76630896,-0.1946561,5.2911177,-4.5397205,1.9515283,-0.34968135,0.048233803,-0.038688783,-0.9348262,-8.009401,7.7528,0.78678083,-0.11954866,-0.8659192,-0.04083524,0
1.460000000000001,7.995406980604737,-0.32100768857281325,-1.1193280557915273,0.0609134088668222,9.529951,0.14555769,0.76630896,-0.1946561,5.2109985,-4.4621506,1.9593024,-0.3499957,0.04433575,-0.036495544,-0.9349897,-8.0142765,7.7610803,0.76805514,-0.15096411,-0.90543777,-0.035842396,0
1.470000000000001,7.995406980604737,-0.32100768857281325,-1.1193280557915273,0.0609134088668222,9.529951,0.14555769,0.76630896,-0.1946561,5.130833,-4.3845005,1.9668896,-0.35028017,0.04031649,-0.03410389,-0.9351554,-8.018687,7.768803,0.7494126,-0.17748009,-0.93879384,-0.031094562,0
1.480000000000001,7.813797726611896,-0.3645436334166879,-0.9064533818112407,0.0856408931009602,9.979101,-0.4222223,0.2845983,-0.07302492,5.0506263,-4.306776,1.974291,-0.3505353,0.036194764,-0.03154459,-0.9353182,-8.02263,7.775934,0.7308501,-0.19986078,-0.96694815,-0.026579704,0
1.490000000000001,7.813797726611896,-0.3645436334166879,-0.9064533818112407,0.0856408931009602,9.979101,-0.4222223,0.2845983,-0.07302492,4.9703827,-4.2289844,1.981498,-0.35075566,0.032072123,-0.028857324,-0.9354727,-8.026021,7.7822976,0.71055436,-0.22553934,-0.9575144,-0.021073002,0
1.500000000000001,7.813797726611896,-0.3645436334166879,-0.9064533818112407,0.0856408931009602,9.979101,-0.4222223,0.2845983,-0.07302492,4.890107,-4.151132,1.9885023,-0.35093734,0.028029952,-0.026074948,-0.93561614,-8.028961,7.78804,0.6903252,-0.24721351,-0.9495519,-0.015836515,0
1.5100000000000011,7.813797726611896,-0.3645436334166879,-0.9064533818112407,0.0856408931009602,9.979101,-0.4222223,0.2845983,-0.07302492,4.809805,-4.073226,1.9953046,-0.35108292,0.024055697,-0.023212235,-0.93574756,-8.031468,7.7931523,0.6701551,-0.26550806,-0.9428313,-0.010856998,0
1.5200000000000011,7.757721967122592,-0.3243231602312314,-0.28943564136553596,0.1000979587353457,10.417561,-0.30685106,0.57720035,-0.035830908,4.72948,-3.9952712,2.0019054,-0.35119462,0.020138772,-0.020281661,-0.93586624,-8.033557,7.7976265,0.65003663,-0.28094977,-0.9371589,-0.0061218366,0
1.5300000000000011,7.757721967122592,-0.3243231602312314,-0.28943564136553596,0.1000979587353457,10.417561,-0.30685106,0.57720035,-0.035830908,4.6491356,-3.9172754,2.0083027,-0.35126844,0.016495686,-0.017395597,-0.93596786,-8.035232,7.801433,0.629402,-0.28771058,-0.83614767,-0.0009096061,0
1.5400000000000011,7.757721967122592,-0.3243231602312314,-0.28943564136553596,0.1000979587353457,10.417561,-0.30685106,0.57720035,-0.035830908,4.568776,-3.8392446,2.014494,-0.35130295,0.0132976305,-0.014643711,-0.9360529,-8.036557,7.8046403,0.6088013,-0.2934179,-0.7508891,0.0040468667,0
1.5500000000000012,7.757721967122592,-0.3243231602312314,-0.28943564136553596,0.1000979587353457,10.417561,-0.30685106,0.57720035,-0.035830908,4.4884057,-3.7611845,2.0204792,-0.35130295,0.010475318,-0.012005102,-0.93612623,-8.037587,7.8072877,0.58822626,-0.29823574,-0.67892677,0.008760128,0
1.5600000000000012,8.004019191745451,-0.23326151247839122,0.2528417336245188,0.10656695559321279,10.939899,-0.7554641,0.6112763,0.08566002,4.4080253,-3.6831007,2.0262585,-0.35127234,0.007970236,-0.009462106,-0.93619156,-8.038367,7.8094106,0.5676703,-0.30230257,-0.6181869,0.013242103,0
1.5700000000000012,8.004019191745451,-0.23326151247839122,0.2528417336245188,0.10656695559321279,10.939899,-0.7554641,0.6112763,0.08566002,4.3276386,-3.6049979,2.0318449,-0.3512121,0.0059233573,-0.007110156,-0.93625015,-8.038959,7.811095,0.5495904,-0.29153532,-0.4823512,0.01782158,0
1.5800000000000012,8.004019191745451,-0.23326151247839122,0.2528417336245188,0.10656695559321279,10.939899,-0.7554641,0.6112763,0.08566002,4.2472467,-3.5268803,2.0372503,-0.35112396,0.0044438606,-0.0050240927,-0.9363049,-8.039402,7.81234,0.53151953,-0.2824479,-0.36769894,0.022176344,0
1.5900000000000012,8.004019191745451,-0.23326151247839122,0.2528417336245188,0.10656695559321279,10.939899,-0.7554641,0.6112763,0.08566002,4.166851,-3.4487524,2.0424752,-0.35101148,0.00344334,-0.0031624087,-0.93635947,-8.039764,7.8132124,0.513454,-0.27477807,-0.2709266,0.026317418,0
1.6000000000000012,8.707454183493956,-0.09466079244363468,0.7789885655043586,0.10074427108032351,10.7085495,-0.48395965,0.5430178,0.12913918,4.0864515,-3.3706174,2.0475194,-0.35087743,0.0028471632,-0.0014900644,-0.9364159,-8.040102,7.8137693,0.49539146,-0.26830453,-0.18924573,0.030255293,0
1.6100000000000012,8.707454183493956,-0.09466079244363468,0.7789885655043586,0.10074427108032351,10.7085495,-0.48395965,0.5430178,0.12913918,4.006048,-3.2924778,2.052418,-0.35072464,0.0027700483,-0.00010329313,-0.93647456,-8.040496,7.8140917,0.48436445,-0.24122782,-0.03825028,0.033714216,0
1.6200000000000012,8.707454183493956,-0.09466079244363468,0.7789885655043586,0.10074427108032351,10.7085495,-0.48395965,0.5430178,0.12913918,3.9256408,-3.2143362,2.0572066,-0.35055566,0.0032996722,0.0009231975,-0.93653566,-8.040992,7.81422,0.47333744,-0.21837375,0.089197814,0.037003398,0
1.6300000000000012,8.707454183493956,-0.09466079244363468,0.7789885655043586,0.10074427108032351,10.7085495,-0.48395965,0.5430178,0.12913918,3.8452277,-3.136194,2.0618849,-0.35037202,0.0043414827,0.0016456704,-0.9365991,-8.041661,7.814245,0.46230936,-0.19908378,0.19677038,0.04013117,0
1.6400000000000012,8.707454183493956,-0.09466079244363468,0.7789885655043586,0.10074427108032351,10.910679,-0.5971432,0.5756603,0.254334,3.7648067,-3.0580518,2.0664525,-0.35017458,0.00581566,0.0021115982,-0.936664,-8.042567,7.8142424,0.45127913,-0.18280199,0.28756705,0.043105483,0
1.6500000000000012,8.707454183493956,-0.09466079244363468,0.7789885655043586,0.10074427108032351,10.910679,-0.5971432,0.5756603,0.254334,3.6843753,-2.9799094,2.0709105,-0.34996384,0.0076548182,0.0023610345,-0.9367289,-8.043758,7.8142753,0.44024542,-0.16905926,0.36420402,0.045933835,0
1.6600000000000013,8.707454183493956,-0.09466079244363468,0.7789885655043586,0.10074427108032351,10.910679,-0.5971432,0.5756603,0.254334,3.6039302,-2.901766,2.0752578,-0.34974003,0.009802064,0.0024277717,-0.93679225,-8.04528,7.8143983,0.42920646,-0.15745959,0.4288895,0.048623405,0
1.6700000000000013,8.707454183493956,-0.09466079244363468,0.7789885655043586,0.10074427108032351,10.910679,-0.5971432,0.5756603,0.254334,3.5234683,-2.823621,2.0794945,-0.34950334,0.0122093605,0.00234032,-0.9368525,-8.047171,7.8146567,0.41816,-0.14766873,0.48348743,0.051180992,0
1.6800000000000013,9.736320539180769,0.022523775614907912,1.1602117844592108,0.09029830677514414,11.330355,-0.3059384,0.5500472,0.23758888,3.4429858,-2.7454727,2.0836205,-0.34925383,0.0148361465,0.0021227328,-0.9369082,-8.049459,7.815088,0.40710327,-0.1394046,0.52957064,0.053613074,0
1.6900000000000013,9.736320539180769,0.022523775614907912,1.1602117844592108,0.09029830677514414,11.330355,-0.3059384,0.5500472,0.23758888,3.3624766,-2.667318,2.087688,-0.34899378,0.017774729,0.0016981185,-0.93695486,-8.052496,7.815807,0.40631625,-0.114155956,0.62791944,0.055413228,0
1.7000000000000013,9.736320539180769,0.022523775614907912,1.1602117844592108,0.09029830677514414,11.330355,-0.3059384,0.5500472,0.23758888,3.2819343,-2.5891552,2.0917468,-0.3487247,0.021096474,0.0010066313,-0.9369871,-8.05606,7.816831,0.4055086,-0.09284454,0.7109309,0.057125054,0
1.7100000000000013,9.736320539180769,0.022523775614907912,1.1602117844592108,0.09029830677514414,11.330355,-0.3059384,0.5500472,0.23758888,3.2013533,-2.5109804,2.0957978,-0.34844574,0.02474154,8.9945504e-05,-0.93700224,-8.060201,7.8182306,0.4046734,-0.07485633,0.78099656,0.058752887,0
1.7200000000000013,11.106385219330635,0.12761904342057584,1.422841310716503,0.07351762382203252,11.512899,-0.30873516,0.3473552,0.25957218,3.120728,-2.432789,2.0998402,-0.34815606,0.028659374,-0.0010167698,-0.9369977,-8.064959,7.8200645,0.40380272,-0.059673052,0.84013546,0.060300827,0
1.7300000000000013,11.106385219330635,0.12761904342057584,1.422841310716503,0.07351762382203252,11.512899,-0.30873516,0.3473552,0.25957218,3.0400481,-2.3545756,2.103942,-0.3478578,0.032891102,-0.0023597588,-0.9369671,-8.071132,7.8227124,0.4165629,-0.030468937,0.93100923,0.060949367,0
1.7400000000000013,11.106385219330635,0.12761904342057584,1.422841310716503,0.07351762382203252,11.512899,-0.30873516,0.3473552,0.25957218,2.9593024,-2.2763326,2.108171,-0.34755242,0.037467025,-0.003974074,-0.9369031,-8.078102,7.8259964,0.42925876,-0.005818651,1.0077112,0.061566092,0
1.7500000000000013,11.106385219330635,0.12761904342057584,1.422841310716503,0.07351762382203252,11.512899,-0.30873516,0.3473552,0.25957218,2.878483,-2.1980534,2.112527,-0.34723824,0.04233312,-0.005817256,-0.93680274,-8.0859165,7.829994,0.44187474,0.01498789,1.0724512,0.062152565,0
1.7600000000000013,11.870753165640549,0.21147742734669492,1.332039309347512,0.05130042458982113,10.745638,-0.31387743,-0.561891,0.32256225,2.7975812,-2.1197302,2.1170084,-0.34691367,0.047443714,-0.007853456,-0.9366632,-8.094614,7.8347716,0.4543939,0.032549974,1.1270951,0.062710255,0
1.7700000000000014,11.870753165640549,0.21147742734669492,1.332039309347512,0.05130042458982113,10.745638,-0.31387743,-0.561891,0.32256225,2.7165847,-2.0413532,2.1216524,-0.34658194,0.052714538,-0.010071098,-0.93648297,-8.104887,7.840768,0.47440326,0.060452625,1.1590573,0.062150367,0
1.7800000000000014,11.870753165640549,0.21147742734669492,1.332039309347512,0.05130042458982113,10.745638,-0.31387743,-0.561891,0.32256225,2.6354802,-1.9629115,2.126496,-0.34624633,0.058076803,-0.012459406,-0.9362612,-8.11615,7.847704,0.4942708,0.084004186,1.1860348,0.061617956,0
1.7900000000000014,11.870753165640549,0.21147742734669492,1.332039309347512,0.05130042458982113,10.745638,-0.31387743,-0.561891,0.32256225,2.554258,-1.8843956,2.1315374,-0.34590563,0.06351571,-0.014991516,-0.93599683,-8.128409,7.8556213,0.5139772,0.10388299,1.2088048,0.061111677,0
1.8000000000000014,12.030888312563109,0.2696157949724371,0.9148089179806472,0.029819900808898844,11.32917,-0.3290805,-0.7456868,0.4496706,2.4729085,-1.8057956,2.136775,-0.3455587,0.069018714,-0.017644733,-0.93568903,-8.141667,7.864555,0.5335025,0.12066188,1.228024,0.060630232,0
1.8100000000000014,12.030888312563109,0.2696157949724371,0.9148089179806472,0.029819900808898844,11.32917,-0.3290805,-0.7456868,0.4496706,2.3914204,-1.7271003,2.1422148,-0.34521204,0.07441102,-0.0203638,-0.93534845,-8.156114,7.8746624,0.5544118,0.14389423,1.1791788,0.059118357,0
1.8200000000000014,12.030888312563109,0.2696157949724371,0.9148089179806472,0.029819900808898844,11.32917,-0.3290805,-0.7456868,0.4496706,2.3097827,-1.6482987,2.1478624,-0.34487253,0.0795538,-0.023103992,-0.93498665,-8.171521,7.8858156,0.5751071,0.16350313,1.137951,0.057680678,0
1.8300000000000014,12.030888312563109,0.2696157949724371,0.9148089179806472,0.029819900808898844,11.32917,-0.3290805,-0.7456868,0.4496706,2.2279863,-1.5693805,2.1537158,-0.34453967,0.08448568,-0.02586179,-0.9346044,-8.187833,7.897999,0.59558016,0.18005362,1.1031526,0.056313552,0
1.8400000000000014,12.030888312563109,0.2696157949724371,0.9148089179806472,0.029819900808898844,11.078751,-0.43267062,-1.2161338,0.54862857,2.1460228,-1.4903352,2.159773,-0.34421277,0.089239255,-0.028634215,-0.9342021,-8.205004,7.911197,0.6158231,0.1940228,1.0737809,0.0550135,0
1.8500000000000014,12.030888312563109,0.2696157949724371,0.9148089179806472,0.029819900808898844,11.078751,-0.43267062,-1.2161338,0.54862857,2.0638833,-1.4111531,2.1660316,-0.3438911,0.09384201,-0.03141874,-0.93377995,-8.222993,7.9254,0.63582796,0.20581323,1.0489894,0.053777236,0
1.8600000000000014,12.030888312563109,0.2696157949724371,0.9148089179806472,0.029819900808898844,11.078751,-0.43267062,-1.2161338,0.54862857,1.9815602,-1.3318237,2.172489,-0.34357387,0.098317124,-0.034213226,-0.933338,-8.241768,7.940595,0.65558684,0.21576484,1.0280643,0.052601643,0
1.8700000000000014,12.030888312563109,0.2696157949724371,0.9148089179806472,0.029819900808898844,11.078751,-0.43267062,-1.2161338,0.54862857,1.8990455,-1.2523377,2.1791422,-0.34326026,0.10268417,-0.037015855,-0.93287605,-8.261299,7.956774,0.6750916,0.2241642,1.0104023,0.051483735,0
1.8800000000000014,11.704698877613751,0.2445161604171049,0.21247237340473277,0.022547915950198005,10.708807,-0.29877117,-1.7741073,0.77474743,1.8163317,-1.172685,2.1859896,-0.34294948,0.1069596,-0.03982509,-0.9323941,-8.281562,7.973929,0.69433403,0.2312536,0.99549466,0.050420683,0
1.8900000000000015,11.704698877613751,0.2445161604171049,0.21247237340473277,0.022547915950198005,10.708807,-0.29877117,-1.7741073,0.77474743,1.7334145,-1.0928583,2.193012,-0.34265226,0.11089887,-0.04253383,-0.9319234,-8.301956,7.991551,0.71013486,0.23332664,0.8733826,0.049052957,0
1.9000000000000015,11.704698877613751,0.2445161604171049,0.21247237340473277,0.022547915950198005,10.708807,-0.29877117,-1.7741073,0.77474743,1.6502906,-1.0128511,2.2001915,-0.34237912,0.1143094,-0.045057375,-0.931493,-8.322946,8.0100355,0.7256909,0.2350756,0.7703139,0.04775235,0
1.9100000000000015,11.704698877613751,0.2445161604171049,0.21247237340473277,0.022547915950198005,10.708807,-0.29877117,-1.7741073,0.77474743,1.566954,-0.932655,2.2075253,-0.34212852,0.11727398,-0.047424626,-0.931099,-8.344436,8.029306,0.7410228,0.23655121,0.68331856,0.046515558,0
1.9200000000000015,10.835509153387392,0.15281849444127826,-0.6706526801642994,0.03067062998951945,10.72723,-0.3216615,-2.2067416,0.75241446,1.4834003,-0.8522625,2.2150114,-0.34189874,0.119862385,-0.049659956,-0.93073714,-8.366345,8.049296,0.75614953,0.237796,0.60989016,0.04533945,0
1.9300000000000015,10.835509153387392,0.15281849444127826,-0.6706526801642994,0.03067062998951945,10.72723,-0.3216615,-2.2067416,0.75241446,1.3996341,-0.77167445,2.2226057,-0.3417007,0.12181712,-0.051629104,-0.93044883,-8.386946,8.068405,0.76269794,0.22454974,0.41018984,0.044619642,0
1.9400000000000015,10.835509153387392,0.15281849444127826,-0.6706526801642994,0.03067062998951945,10.72723,-0.3216615,-2.2067416,0.75241446,1.315661,-0.69089276,2.230265,-0.3415439,0.12293745,-0.053226948,-0.930269,-8.407735,8.087996,0.7691199,0.21336837,0.24163264,0.043935154,0
1.9500000000000015,10.835509153387392,0.15281849444127826,-0.6706526801642994,0.03067062998951945,10.72723,-0.3216615,-2.2067416,0.75241446,1.2314793,-0.6099133,2.2379878,-0.34142417,0.123353906,-0.054511577,-0.9301835,-8.428582,8.107941,0.775463,0.20392978,0.09936187,0.04328426,0
1.9600000000000015,10.012667833256643,0.04493439885090354,-1.4847494370275036,0.054641025536785966,8.482191,-0.9638266,-2.7564142,0.2652409,1.1470894,-0.52873313,2.245774,-0.3413372,0.123176455,-0.05553191,-0.9301785,-8.449381,8.128135,0.7817683,0.19596241,-0.02072171,0.042665306,0
1.9700000000000015,10.012667833256643,0.04493439885090354,-1.4847494370275036,0.054641025536785966,8.482191,-0.9638266,-2.7564142,0.2652409,1.0624999,-0.44735786,2.2535837,-0.34128886,0.12220925,-0.05617818,-0.93028504,-8.468459,8.146931,0.7801468,0.17241609,-0.24903663,0.04325295,0
1.9800000000000015,10.012667833256643,0.04493439885090354,-1.4847494370275036,0.054641025536785966,8.482191,-0.9638266,-2.7564142,0.2652409,0.97772104,-0.36579454,2.261377,-0.34128273,0.12030155,-0.05636547,-0.9305246,-8.487261,8.165724,0.7785799,0.15254103,-0.4417459,0.043811757,0
1.9900000000000015,10.012667833256643,0.04493439885090354,-1.4847494370275036,0.054641025536785966,8.482191,-0.9638266,-2.7564142,0.2652409,0.8927561,-0.2840439,2.2691555,-0.3413111,0.11759939,-0.05616519,-0.9308717,-8.505654,8.184377,0.77711904,0.13576467,-0.6044022,0.044343155,0
2.0000000000000013,,,,,8.626507,-0.6692121,-3.0673597,0.1423418,0.80760974,-0.20210794,2.27692,-0.34136668,0.11422582,-0.055637464,-0.931303,-8.523525,8.202771,0.7758053,0.121603854,-0.74169207,0.044848483,0
2.010000000000001,,,,,8.626507,-0.6692121,-3.0673597,0.1423418,0.72229207,-0.11999428,2.284648,-0.34144562,0.110100135,-0.054722503,-0.931825,-8.53991,8.219897,0.7698171,0.09362442,-0.9404962,0.04708226,0
2.020000000000001,,,,,8.626507,-0.6692121,-3.0673597,0.1423418,0.636814,-0.03771162,2.292317,-0.34154266,0.10516323,-0.053375356,-0.93243766,-8.555589,8.23655,0.7640381,0.07000801,-1.1082969,0.049206425,0
2.0300000000000007,,,,,8.626507,-0.6692121,-3.0673597,0.1423418,0.5511831,0.044734694,2.2999294,-0.34164926,0.09953994,-0.051662743,-0.9331121,-8.570454,8.25261,0.75849855,0.050073896,-1.2499288,0.051226348,0
2.0400000000000005,,,,,8.626507,-0.6692121,-3.0673597,0.1423418,0.46540803,0.1273382,2.3074877,-0.34175783,0.0933357,-0.04964096,-0.93382305,-8.584412,8.267975,0.7532179,0.03324822,-1.3694736,0.053147156,0
2.0500000000000003,,,,,8.991165,-0.59945405,-3.1952987,0.0334977,0.37949824,0.21009149,2.3149946,-0.3418617,0.08663959,-0.047357533,-0.93454856,-8.597382,8.282553,0.74820626,0.019045943,-1.4703753,0.05497371,1
2.06,,,,,8.991165,-0.59945405,-3.1952987,0.0334977,0.2934673,0.29298246,2.3224273,-0.34196445,0.07916019,-0.044487994,-0.93531513,-8.60864,8.295505,0.73836416,-0.077400245,-1.7393798,0.053919863,1
2.07,,,,,8.991165,-0.59945405,-3.1952987,0.0334977,0.20732929,0.37599808,2.3297627,-0.342066,0.070669465,-0.040776633,-0.9361268,-8.618781,8.307443,0.72879964,-0.15880752,-1.9664323,0.05291774,1
2.0799999999999996,,,,,8.991165,-0.59945405,-3.1952987,0.0334977,0.121095896,0.45912716,2.3370042,-0.34215495,0.061322518,-0.036353193,-0.9369351,-8.627692,8.318174,0.7195212,-0.22752082,-2.1580758,0.05196481,1
2.0899999999999994,,,,,8.687328,-0.82040435,-4.0732746,-0.13355494,0.034779973,0.54235685,2.3441541,-0.3422207,0.051250808,-0.03132747,-0.93769735,-8.635277,8.327536,0.7105204,-0.28551945,-2.319832,0.051058628,1
2.099999999999999,,,,,8.687328,-0.82040435,-4.0732746,-0.13355494,-0.051603694,0.62567127,2.3512003,-0.342278,0.040267106,-0.025588216,-0.9383863,-8.641233,8.335109,0.69875556,-0.3689406,-2.593281,0.041999586,1
2.109999999999999,,,,,8.687328,-0.82040435,-4.0732746,-0.13355494,-0.13803956,0.7090533,2.35813,-0.34233493,0.02822878,-0.01905225,-0.93896025,-8.645697,8.341022,0.6872098,-0.43935573,-2.8240848,0.033385072,1
2.1199999999999988,,,,,8.687328,-0.82040435,-4.0732746,-0.13355494,-0.22451209,0.79248536,2.3649452,-0.3423726,0.01529964,-0.011843699,-0.93936473,-8.648546,8.345091,0.6758378,-0.49879193,-3.018894,0.025193281,1
2.1299999999999986,,,,,9.472696,-0.8322233,-3.565781,-0.061944418,-0.31100458,0.87594825,2.3716471,-0.34237424,0.0016193516,-0.004068207,-0.9395532,-8.649682,8.347162,0.6645756,-0.5489606,-3.1833224,0.017403468,1
