time-since-start [s],throttle_mpc,roll_mpc,pitch_mpc,yaw_mpc,throttle_nw,roll_nw,pitch_nw,yaw_nw,position_x [m],position_y [m],position_z [m],rotation_w [quaternion],rotation_x [quaternion],rotation_y [quaternion],rotation_z [quaternion],velocity_x [m/s],velocity_y [m/s],velocity_z [m/s],omega_x [rad/s],omega_y [rad/s],omega_z [rad/s],network_used
0.0,7.056468501770871,-0.6460797172250088,-5.999999477555481,0.2657399770716954,10.674707,-1.0372695,4.602285,-0.31694517,13.102188,-12.048917,1.0737401,-0.3050499,0.41923004,-0.1830024,-0.8352849,-2.280919,2.2024465,0.43906522,-0.029207557,0.006608377,-0.047825135,0
0.01,7.056468501770871,-0.6460797172250088,-5.999999477555481,0.2657399770716954,9.3497925,-2.5296228,3.9684944,0.6113226,13.079141,-12.026664,1.0778762,-0.30557293,0.41755956,-0.18217783,-0.8361103,-2.3283577,2.2476883,0.38791257,-0.020982467,-0.82567024,-0.041802447,0
0.02,7.056468501770871,-0.6460797172250088,-5.999999477555481,0.2657399770716954,9.3497925,-2.5296228,3.9684944,0.6113226,13.055628,-12.003968,1.0814937,-0.30675277,0.41261727,-0.18013144,-0.8385716,-2.373733,2.290985,0.33541268,-0.04616938,-1.5602955,-0.033200502,0
0.03,7.056468501770871,-0.6460797172250088,-5.999999477555481,0.2657399770716954,9.3497925,-2.5296228,3.9684944,0.6113226,13.0316725,-11.98085,1.0845817,-0.30841535,0.40480083,-0.17687088,-0.84245646,-2.4169269,2.3322468,0.28209504,-0.09745323,-2.210394,-0.022334,0
0.04,7.056468501770871,-0.6460797172250088,-5.999999477555481,0.2657399770716954,11.006289,-2.339179,3.7800615,0.2264581,13.007296,-11.95733,1.0871341,-0.31040677,0.39443874,-0.17240763,-0.8475501,-2.457866,2.3713923,0.22837208,-0.16883665,-2.7872214,-0.009486465,0
0.05,7.056468501770871,-0.6460797172250088,-5.999999477555481,0.2657399770716954,11.006289,-2.339179,3.7800615,0.2264581,12.98252,-11.933427,1.0891513,-0.31259835,0.38181585,-0.16677986,-0.85362947,-2.4971378,2.408949,0.17528613,-0.2432368,-3.288254,0.0040189805,0
0.060000000000000005,7.056468501770871,-0.6460797172250088,-5.999999477555481,0.2657399770716954,11.006289,-2.339179,3.7800615,0.2264581,12.957356,-11.909154,1.090646,-0.31490266,0.36721838,-0.16011965,-0.86043507,-2.535355,2.4454613,0.123931825,-0.3060279,-3.711152,0.0168617,0
0.07,7.056468501770871,-0.6460797172250088,-5.999999477555481,0.2657399770716954,11.006289,-2.339179,3.7800615,0.2264581,12.931817,-11.8845215,1.0916365,-0.3172496,0.35090145,-0.15256624,-0.8677236,-2.5723438,2.4807265,0.07448366,-0.35902262,-4.0681,0.029074224,0
0.08,9.195909507210816,-0.6155203091428617,-5.541289805907063,0.28423599040115555,10.534773,-2.714238,4.1421113,-0.07357425,12.905914,-11.859544,1.0921427,-0.31957787,0.3330825,-0.14423805,-0.8752835,-2.6079347,2.5145519,0.027057238,-0.40375018,-4.3693824,0.040687483,0
0.09,9.195909507210816,-0.6155203091428617,-5.541289805907063,0.28423599040115555,10.534773,-2.714238,4.1421113,-0.07357425,12.879611,-11.834187,1.0922643,-0.32181135,0.3141063,-0.13530736,-0.8828739,-2.6522849,2.556525,-0.0022933204,-0.4367356,-4.5521455,0.052638482,0
0.09999999999999999,9.195909507210816,-0.6155203091428617,-5.541289805907063,0.28423599040115555,10.534773,-2.714238,4.1421113,-0.07357425,12.852875,-11.808422,1.0921059,-0.32389146,0.29426503,-0.12591995,-0.89030683,-2.6944256,2.596195,-0.028940503,-0.4645768,-4.706406,0.064003035,0
0.10999999999999999,9.195909507210816,-0.6155203091428617,-5.541289805907063,0.28423599040115555,10.534773,-2.714238,4.1421113,-0.07357425,12.825729,-11.782273,1.0916944,-0.32579303,0.27366242,-0.11613481,-0.89748544,-2.7341943,2.6333876,-0.052945253,-0.48807696,-4.83661,0.07480991,0
0.11999999999999998,9.195909507210816,-0.6155203091428617,-5.541289805907063,0.28423599040115555,10.534773,-2.714238,4.1421113,-0.07357425,12.7982,-11.755764,1.0910556,-0.32749498,0.25239003,-0.10600349,-0.904328,-2.7714362,2.667941,-0.074403375,-0.50791335,-4.946509,0.08508652,0
0.12999999999999998,10.99711883896123,-0.274569222087028,-3.6502663606479624,0.12008420939923276,12.18112,-2.5181818,4.129268,-0.5386404,12.770309,-11.728923,1.0902146,-0.32897982,0.23052932,-0.09557138,-0.9107657,-2.8060048,2.699706,-0.09344129,-0.5246574,-5.039269,0.09485885,0
0.13999999999999999,10.99711883896123,-0.274569222087028,-3.6502663606479624,0.12008420939923276,12.18112,-2.5181818,4.129268,-0.5386404,12.742057,-11.70175,1.0892739,-0.33021683,0.2088036,-0.085248865,-0.9165643,-2.8440044,2.7342212,-0.09429911,-0.48566574,-4.8226523,0.09609666,0
0.15,10.99711883896123,-0.274569222087028,-3.6502663606479624,0.12008420939923276,12.18112,-2.5181818,4.129268,-0.5386404,12.713442,-11.674251,1.0883367,-0.33120626,0.18780808,-0.07537066,-0.92160153,-2.8786566,2.7652936,-0.09277373,-0.45275322,-4.6398177,0.09727374,0
0.16,11.744975983914102,0.012536543645311106,-1.6779536109037296,-0.03925945230674763,13.591715,-1.7542863,4.3767533,-0.84830564,12.684495,-11.646457,1.0874254,-0.3319751,0.16743453,-0.06587045,-0.92596924,-2.9099991,2.7930026,-0.089180455,-0.42497206,-4.4854965,0.09839305,0
0.17,11.744975983914102,0.012536543645311106,-1.6779536109037296,-0.03925945230674763,13.591715,-1.7542863,4.3767533,-0.84830564,12.655241,-11.618394,1.0865942,-0.3325356,0.14828694,-0.05705771,-0.92961025,-2.9400012,2.8191082,-0.07677794,-0.3567888,-4.0476556,0.091638416,0
0.18000000000000002,11.744975983914102,0.012536543645311106,-1.6779536109037296,-0.03925945230674763,13.591715,-1.7542863,4.3767533,-0.84830564,12.625705,-11.590087,1.0858951,-0.33291993,0.130847,-0.049177438,-0.93253666,-2.9667413,2.8419895,-0.062832415,-0.29923025,-3.6780972,0.085215226,0
0.19000000000000003,11.744975983914102,0.012536543645311106,-1.6779536109037296,-0.03925945230674763,13.591715,-1.7542863,4.3767533,-0.84830564,12.595917,-11.561564,1.0853418,-0.3331703,0.1148605,-0.04208891,-0.9348972,-2.9904594,2.8619354,-0.047650997,-0.25064126,-3.3661723,0.07910721,0
0.20000000000000004,12.256618353373923,0.1874255490252871,0.3012603534711478,-0.06308810292493727,14.367926,-1.7721542,5.131611,-1.0138006,12.565906,-11.532858,1.0849456,-0.3333183,0.10010902,-0.035671793,-0.9368053,-3.0113657,2.879197,-0.03147824,-0.20962417,-3.1028929,0.07329893,0
0.21000000000000005,12.256618353373923,0.1874255490252871,0.3012603534711478,-0.06308810292493727,14.367926,-1.7721542,5.131611,-1.0138006,12.535694,-11.503986,1.08474,-0.3333727,0.08712558,-0.030153083,-0.9382762,-3.0304694,2.8946645,-0.009506247,-0.14774132,-2.5720134,0.06660638,0
0.22000000000000006,12.256618353373923,0.1874255490252871,0.3012603534711478,-0.06308810292493727,14.367926,-1.7721542,5.131611,-1.0138006,12.505304,-11.474971,1.0847573,-0.3333525,0.07632448,-0.025707524,-0.9393559,-3.0472279,2.9079776,0.013073936,-0.09550046,-2.1239252,0.06024223,0
0.23000000000000007,12.256618353373923,0.1874255490252871,0.3012603534711478,-0.06308810292493727,14.367926,-1.7721542,5.131611,-1.0138006,12.474757,-11.445832,1.0850028,-0.33328834,0.06737126,-0.02216941,-0.9401533,-3.0620177,2.91953,0.036092896,-0.051400132,-1.7457169,0.05419037,0
0.24000000000000007,12.256618353373923,0.1874255490252871,0.3012603534711478,-0.06308810292493727,14.74884,-1.6965163,5.7101417,-1.0365834,12.444071,-11.416585,1.0854802,-0.33320108,0.059981324,-0.0193981,-0.94074583,-3.0751617,2.9296563,0.05942949,-0.014172145,-1.4264908,0.048435476,0
0.25000000000000006,12.256618353373923,0.1874255490252871,0.3012603534711478,-0.06308810292493727,14.74884,-1.6965163,5.7101417,-1.0365834,12.4132595,-11.387242,1.0861923,-0.3331047,0.053913083,-0.017274458,-0.9411886,-3.086934,2.9386413,0.08299681,0.017254485,-1.157048,0.042962987,0
0.26000000000000006,12.256618353373923,0.1874255490252871,0.3012603534711478,-0.06308810292493727,14.74884,-1.6965163,5.7101417,-1.0365834,12.382336,-11.357815,1.0871408,-0.33300838,0.04896177,-0.015697686,-0.9415208,-3.0975685,2.9467254,0.10673229,0.043782894,-0.929625,0.03775903,0
0.2700000000000001,12.256618353373923,0.1874255490252871,0.3012603534711478,-0.06308810292493727,14.74884,-1.6965163,5.7101417,-1.0365834,12.351312,-11.32831,1.0883274,-0.33291814,0.044954043,-0.014582578,-0.9417705,-3.1072626,2.9541128,0.13059059,0.06617682,-0.73766875,0.03281043,0
0.2800000000000001,13.678099629829735,0.3563790723504516,2.5503256770927307,-0.08326673677159187,13.903711,-1.1460359,6.3153305,-0.9326438,12.320194,-11.298735,1.0897529,-0.3328377,0.041743275,-0.013857146,-0.9419577,-3.1161847,2.9609756,0.15453854,0.08508019,-0.5756482,0.028104668,0
0.2900000000000001,13.678099629829735,0.3563790723504516,2.5503256770927307,-0.08326673677159187,13.903711,-1.1460359,6.3153305,-0.9326438,12.288986,-11.269089,1.0914891,-0.3327624,0.040030967,-0.01382374,-0.94205916,-3.1254783,2.9682493,0.19270936,0.12737969,-0.08815401,0.022639638,0
0.3000000000000001,13.678099629829735,0.3563790723504516,2.5503256770927307,-0.08326673677159187,13.903711,-1.1460359,6.3153305,-0.9326438,12.257687,-11.23937,1.0936072,-0.3326884,0.04036665,-0.014718731,-0.94205743,-3.1345067,2.9755232,0.23089805,0.16308704,0.32331535,0.01744277,0
0.3100000000000001,13.678099629829735,0.3563790723504516,2.5503256770927307,-0.08326673677159187,13.903711,-1.1460359,6.3153305,-0.9326438,12.226295,-11.209576,1.096107,-0.33261573,0.042430907,-0.016397052,-0.9419646,-3.1436853,2.9831967,0.26905468,0.19322892,0.6706159,0.01250092,0
0.3200000000000001,15.254055812238752,0.4582260783354521,4.249445962582681,-0.09566851938570829,12.807589,-1.5206664,6.1848803,-0.7255378,12.194811,-11.179703,1.0989879,-0.33254132,0.045953702,-0.018736105,-0.941782,-3.1533644,2.991607,0.30713296,0.2186726,0.9637551,0.0078015854,0
0.3300000000000001,15.254055812238752,0.4582260783354521,4.249445962582681,-0.09566851938570829,12.807589,-1.5206664,6.1848803,-0.7255378,12.163219,-11.149735,1.1023275,-0.3324496,0.051333424,-0.021896614,-0.9414683,-3.1650805,3.0021548,0.3607559,0.25603306,1.4761561,0.0027242773,0
0.34000000000000014,15.254055812238752,0.4582260783354521,4.249445962582681,-0.09566851938570829,12.807589,-1.5206664,6.1848803,-0.7255378,12.131504,-11.119655,1.1062021,-0.3323196,0.05887258,-0.025999947,-0.94096833,-3.1782198,3.0143418,0.41413835,0.28757015,1.9086483,-0.002103874,0
0.35000000000000014,15.254055812238752,0.4582260783354521,4.249445962582681,-0.09566851938570829,12.807589,-1.5206664,6.1848803,-0.7255378,12.0996475,-11.089442,1.1106089,-0.3321377,0.068230525,-0.03089705,-0.94025224,-3.19327,3.0286245,0.46715862,0.31419128,2.2736936,-0.006695116,0
0.36000000000000015,15.258814601796358,0.4610696600019063,4.824496728404357,-0.10451893927512451,11.224842,-1.2263372,6.08236,-0.5773756,12.067631,-11.059074,1.1155435,-0.33188975,0.07911826,-0.03646136,-0.93928695,-3.2106378,3.0453832,0.51967424,0.33666196,2.58181,-0.011061074,0
0.37000000000000016,15.258814601796358,0.4610696600019063,4.824496728404357,-0.10451893927512451,11.224842,-1.2263372,6.08236,-0.5773756,12.035426,-11.028525,1.1210002,-0.33155388,0.09150576,-0.04266249,-0.9380184,-3.230679,3.0649493,0.57156515,0.35607445,2.9315546,-0.015647095,0
0.38000000000000017,15.258814601796358,0.4610696600019063,4.824496728404357,-0.10451893927512451,11.224842,-1.2263372,6.08236,-0.5773756,12.003006,-10.997765,1.1269717,-0.3311065,0.105353616,-0.049469378,-0.9363876,-3.2537444,3.0876408,0.62257755,0.37246048,3.2267566,-0.020008074,0
0.3900000000000002,15.258814601796358,0.4610696600019063,4.824496728404357,-0.10451893927512451,11.224842,-1.2263372,6.08236,-0.5773756,11.970339,-10.966761,1.1334479,-0.33053282,0.1204212,-0.056781113,-0.9343567,-3.2801464,3.1137393,0.6724738,0.38629162,3.475922,-0.024155047,0
0.4000000000000002,14.023779770921008,0.38899728545002477,4.401763315422541,-0.10799270571344782,11.278574,-0.76356757,6.3725286,-0.17502886,11.93739,-10.935477,1.1404164,-0.32981986,0.1365029,-0.06451129,-0.93189263,-3.3101356,3.1434693,0.7209943,0.3979658,3.6862307,-0.028098537,0
0.4100000000000002,14.023779770921008,0.38899728545002477,4.401763315422541,-0.10799270571344782,11.278574,-0.76356757,6.3725286,-0.17502886,11.904137,-10.903891,1.1478033,-0.32896504,0.15327504,-0.07250324,-0.9289951,-3.3411672,3.174284,0.75613093,0.39657897,3.7978165,-0.032018982,0
0.4200000000000002,14.023779770921008,0.38899728545002477,4.401763315422541,-0.10799270571344782,11.278574,-0.76356757,6.3725286,-0.17502886,11.870554,-10.871979,1.1555331,-0.32797006,0.17047161,-0.08062875,-0.92567486,-3.3757598,3.2086585,0.78950757,0.39540812,3.8920007,-0.035747044,0
0.4300000000000002,14.023779770921008,0.38899728545002477,4.401763315422541,-0.10799270571344782,11.278574,-0.76356757,6.3725286,-0.17502886,11.836608,-10.839705,1.1635866,-0.3268308,0.1880072,-0.08885741,-0.92192143,-3.4139607,3.2466211,0.8208825,0.3944195,3.971497,-0.03929215,0
0.4400000000000002,14.023779770921008,0.38899728545002477,4.401763315422541,-0.10799270571344782,11.025238,-0.5092994,6.1853333,0.039641447,11.802261,-10.807034,1.171943,-0.3255441,0.20580807,-0.09716276,-0.9177273,-3.455793,3.2881794,0.8500112,0.39358434,4.038596,-0.042663302,0
0.45000000000000023,14.023779770921008,0.38899728545002477,4.401763315422541,-0.10799270571344782,11.025238,-0.5092994,6.1853333,0.039641447,11.767478,-10.773929,1.1805781,-0.3241078,0.22381034,-0.10552168,-0.9130871,-3.5012562,3.333321,0.8766484,0.39287898,4.0952315,-0.045869034,0
0.46000000000000024,14.023779770921008,0.38899728545002477,4.401763315422541,-0.10799270571344782,11.025238,-0.5092994,6.1853333,0.039641447,11.732223,-10.740355,1.1894664,-0.3225205,0.24195848,-0.11391392,-0.90799785,-3.5503306,3.3820171,0.90055,0.39228347,4.143034,-0.048917465,0
0.47000000000000025,14.023779770921008,0.38899728545002477,4.401763315422541,-0.10799270571344782,11.025238,-0.5092994,6.1853333,0.039641447,11.696459,-10.706277,1.198579,-0.32078147,0.2602041,-0.12232169,-0.90245795,-3.6029785,3.4342227,0.92147404,0.39178032,4.183382,-0.0518163,0
0.48000000000000026,12.7346975631041,0.27199973008083606,3.303687518874191,-0.10483671639359024,11.744257,-2.082342,6.4765005,0.41082656,11.6601515,-10.671659,1.2078848,-0.3188904,0.27850485,-0.13072924,-0.8964673,-3.6591446,3.489879,0.9391827,0.39135495,4.2174377,-0.05457289,0
0.49000000000000027,12.7346975631041,0.27199973008083606,3.303687518874191,-0.10483671639359024,11.744257,-2.082342,6.4765005,0.41082656,11.623291,-10.636496,1.2172989,-0.31689432,0.29644713,-0.13894182,-0.8901641,-3.7132657,3.5434728,0.94312996,0.37274307,4.074939,-0.057039358,0
0.5000000000000002,12.7346975631041,0.27199973008083606,3.303687518874191,-0.10483671639359024,11.744257,-2.082342,6.4765005,0.41082656,11.5858755,-10.6007805,1.2267363,-0.3148417,0.31371048,-0.1468087,-0.8836897,-3.7703402,3.5999532,0.9438615,0.35703388,3.9546628,-0.05938479,0
0.5100000000000002,12.7346975631041,0.27199973008083606,3.303687518874191,-0.10483671639359024,11.744257,-2.082342,6.4765005,0.41082656,11.547874,-10.564488,1.2361648,-0.31273335,0.33038557,-0.154376,-0.8770468,-3.8301888,3.6591394,0.94131464,0.34377456,3.8531435,-0.061615124,0
0.5200000000000002,12.023928369545384,0.134790645386856,1.8833990332584454,-0.09548450203561991,10.388008,-1.9261782,5.6215024,0.44785,11.509262,-10.52759,1.2455511,-0.31056926,0.34654808,-0.16168237,-0.8702355,-3.8926487,3.7208688,0.93542975,0.33258313,3.7674563,-0.063736014,0
0.5300000000000002,12.023928369545384,0.134790645386856,1.8833990332584454,-0.09548450203561991,10.388008,-1.9261782,5.6215024,0.44785,11.470031,-10.490079,1.2548368,-0.3084239,0.36178714,-0.16853783,-0.86346954,-3.9539323,3.7813985,0.9212133,0.3017289,3.4736395,-0.065293916,0
0.5400000000000003,12.023928369545384,0.134790645386856,1.8833990332584454,-0.09548450203561991,10.388008,-1.9261782,5.6215024,0.44785,11.430176,-10.451953,1.2639648,-0.30636722,0.3757938,-0.1747997,-0.85694987,-4.0173,3.8439496,0.90390974,0.2756875,3.2256432,-0.066775374,0
0.5500000000000003,12.023928369545384,0.134790645386856,1.8833990332584454,-0.09548450203561991,10.388008,-1.9261782,5.6215024,0.44785,11.389678,-10.413193,1.2729048,-0.30439037,0.388762,-0.18056071,-0.85065174,-4.082533,3.9083042,0.8836527,0.25370848,3.0163217,-0.06818414,0
0.5600000000000003,11.95984723601766,-0.01002984294592416,0.2637104353442495,-0.08206306690505336,8.806944,-1.6530329,4.016927,0.51445824,11.34852,-10.37378,1.281628,-0.3024838,0.4008537,-0.18589845,-0.84454817,-4.1494465,3.9742794,0.86056143,0.23515783,2.8396437,-0.069523774,0
0.5700000000000003,11.95984723601766,-0.01002984294592416,0.2637104353442495,-0.08206306690505336,8.806944,-1.6530329,4.016927,0.51445824,11.306686,-10.333703,1.2901046,-0.30073637,0.4116778,-0.19063507,-0.8388905,-4.2175064,4.041347,0.8343835,0.1969037,2.43793,-0.070139095,0
0.5800000000000003,11.95984723601766,-0.01002984294592416,0.2637104353442495,-0.08206306690505336,8.806944,-1.6530329,4.016927,0.51445824,11.264165,-10.292949,1.2983074,-0.29922563,0.4209429,-0.19463822,-0.8338987,-4.2868433,4.1096363,0.80579686,0.16461784,2.0988634,-0.07072422,0
0.5900000000000003,11.95984723601766,-0.01002984294592416,0.2637104353442495,-0.08206306690505336,8.806944,-1.6530329,4.016927,0.51445824,11.220944,-10.251507,1.3062134,-0.29792467,0.4289051,-0.1980278,-0.8294976,-4.3572474,4.17894,0.775103,0.13736911,1.8126737,-0.071280636,0
0.6000000000000003,12.815252621073117,-0.1240876666600891,-1.1195795592371245,-0.0660509388408752,8.278227,-0.9488028,2.6975508,-0.052835874,11.177015,-10.209366,1.3138032,-0.29680791,0.4357773,-0.20090349,-0.82561547,-4.428549,4.2490907,0.74256533,0.114371754,1.5711149,-0.07180974,0
0.6100000000000003,12.815252621073117,-0.1240876666600891,-1.1195795592371245,-0.0660509388408752,8.278227,-0.9488028,2.6975508,-0.052835874,11.132345,-10.166495,1.3210824,-0.29594252,0.44129446,-0.2031479,-0.82244027,-4.505753,4.325008,0.7130131,0.07716435,1.1515044,-0.07152716,0
0.6200000000000003,12.815252621073117,-0.1240876666600891,-1.1195795592371245,-0.0660509388408752,8.278227,-0.9488028,2.6975508,-0.052835874,11.086899,-10.122863,1.3280591,-0.29538223,0.44525912,-0.20467386,-0.8201232,-4.5835624,4.401481,0.6821477,0.04576263,0.79733175,-0.07125843,0
0.6300000000000003,12.815252621073117,-0.1240876666600891,-1.1195795592371245,-0.0660509388408752,8.278227,-0.9488028,2.6975508,-0.052835874,11.040672,-10.0784645,1.3347222,-0.29508492,0.44792253,-0.20559724,-0.81854737,-4.661794,4.478329,0.65035874,0.019260574,0.4983917,-0.07100289,0
0.6400000000000003,12.815252621073117,-0.1240876666600891,-1.1195795592371245,-0.0660509388408752,8.412461,-1.5470033,1.5606155,0.49274877,10.993662,-10.033297,1.3410642,-0.29501265,0.44949293,-0.20601422,-0.8176072,-4.740299,4.555405,0.6179799,-0.003106224,0.24607112,-0.070759885,0
0.6500000000000004,12.815252621073117,-0.1240876666600891,-1.1195795592371245,-0.0660509388408752,8.412461,-1.5470033,1.5606155,0.49274877,10.945866,-9.987356,1.3470806,-0.29513168,0.45014355,-0.20600478,-0.81720865,-4.818956,4.6325874,0.5852952,-0.021983124,0.033099502,-0.07052882,0
0.6600000000000004,12.815252621073117,-0.1240876666600891,-1.1195795592371245,-0.0660509388408752,8.412461,-1.5470033,1.5606155,0.49274877,10.897283,-9.940644,1.3527699,-0.2954124,0.4500188,-0.2056357,-0.81726885,-4.8976617,4.7097745,0.55254567,-0.0379145,-0.14665943,-0.0703091,0
0.6700000000000004,12.815252621073117,-0.1240876666600891,-1.1195795592371245,-0.0660509388408752,8.412461,-1.5470033,1.5606155,0.49274877,10.847913,-9.893161,1.3581321,-0.29582906,0.4492393,-0.20496279,-0.81771594,-4.9763317,4.78688,0.51993483,-0.051359963,-0.2983853,-0.07010014,0
0.6800000000000004,14.13350671286303,-0.2044861196389626,-2.1099411323875383,-0.0497634950365274,9.307283,-1.242935,0.5370466,0.6445389,10.797757,-9.844907,1.3631698,-0.29635942,0.44790617,-0.20403281,-0.81848747,-5.0548935,4.863831,0.48763415,-0.06270764,-0.4264496,-0.06990145,0
0.6900000000000004,14.13350671286303,-0.2044861196389626,-2.1099411323875383,-0.0497634950365274,9.307283,-1.242935,0.5370466,0.6445389,10.746777,-9.795845,1.3679205,-0.29704887,0.44578826,-0.20274182,-0.81971365,-5.1413407,4.94845,0.46262413,-0.08482925,-0.68898827,-0.06891328,0
0.7000000000000004,14.13350671286303,-0.2044861196389626,-2.1099411323875383,-0.0497634950365274,9.307283,-1.242935,0.5370466,0.6445389,10.694933,-9.745939,1.372425,-0.29793015,0.44270426,-0.2010084,-0.8214902,-5.227471,5.0326996,0.4384101,-0.10349925,-0.91058433,-0.0679736,0
0.7100000000000004,14.13350671286303,-0.2044861196389626,-2.1099411323875383,-0.0497634950365274,9.307283,-1.242935,0.5370466,0.6445389,10.642229,-9.695194,1.3766923,-0.2989683,0.4387982,-0.19889852,-0.8237193,-5.31316,5.1164556,0.41526183,-0.11925562,-1.0976228,-0.067080036,0
0.7200000000000004,15.29512509666336,-0.24730915309071144,-2.7101806392528336,-0.034699284988220384,9.188732,-1.3086462,-0.5318318,0.79174656,10.588672,-9.643614,1.3807346,-0.30013305,0.43419087,-0.19646762,-0.82631654,-5.3982983,5.1996074,0.39340228,-0.1325535,-1.2554927,-0.06623031,0
0.7300000000000004,15.29512509666336,-0.24730915309071144,-2.7101806392528336,-0.034699284988220384,9.188732,-1.3086462,-0.5318318,0.79174656,10.534232,-9.591171,1.3845973,-0.30143622,0.42878935,-0.1936764,-0.82931626,-5.489726,5.2888246,0.37941477,-0.15045793,-1.4823496,-0.06468308,0
0.7400000000000004,15.29512509666336,-0.24730915309071144,-2.7101806392528336,-0.034699284988220384,9.188732,-1.3086462,-0.5318318,0.79174656,10.478881,-9.537842,1.3883291,-0.3028832,0.42252207,-0.19049485,-0.83273566,-5.5803056,5.3771334,0.36728314,-0.16556832,-1.6738288,-0.06321177,0
0.7500000000000004,15.29512509666336,-0.24730915309071144,-2.7101806392528336,-0.034699284988220384,9.188732,-1.3086462,-0.5318318,0.79174656,10.422628,-9.483633,1.39195,-0.30444124,0.41551125,-0.18697828,-0.8364838,-5.6698947,5.464392,0.35723507,-0.17832078,-1.835447,-0.061812658,0
0.7600000000000005,15.760456559820595,-0.2500838419221668,-2.942308804274214,-0.02069268810616027,10.281612,-1.36176,-1.1569586,0.8636969,10.365486,-9.428557,1.3954816,-0.3060824,0.4078599,-0.1831733,-0.84048283,-5.758364,5.550471,0.3494514,-0.18908328,-1.971861,-0.060482185,0
0.7700000000000005,15.760456559820595,-0.2500838419221668,-2.942308804274214,-0.02069268810616027,10.281612,-1.36176,-1.1569586,0.8636969,10.307451,-9.372614,1.3989613,-0.30779767,0.39957675,-0.17909054,-0.84470445,-5.8482447,5.637824,0.3468987,-0.19859946,-2.1232016,-0.058529712,0
0.7800000000000005,15.760456559820595,-0.2500838419221668,-2.942308804274214,-0.02069268810616027,10.281612,-1.36176,-1.1569586,0.8636969,10.248526,-9.315805,1.4024286,-0.30957717,0.39067206,-0.17474003,-0.8491191,-5.9367065,5.7237005,0.3469718,-0.20663051,-2.2509408,-0.056673046,0
0.7900000000000005,15.760456559820595,-0.2500838419221668,-2.942308804274214,-0.02069268810616027,10.281612,-1.36176,-1.1569586,0.8636969,10.188723,-9.258145,1.4059101,-0.3113977,0.3812285,-0.17015754,-0.8536643,-6.0236163,5.80797,0.34978557,-0.21340834,-2.3587594,-0.05490747,0
0.8000000000000005,15.629698516434408,-0.2064264088034543,-2.6805332974912632,-0.0088978271015371,10.154156,-0.77158284,-1.2650349,0.36356467,10.128058,-9.199651,1.409434,-0.3132398,0.37131646,-0.16537346,-0.85828704,-6.1088486,5.8905087,0.35542047,-0.21912846,-2.4497635,-0.053228553,0
0.8100000000000005,15.629698516434408,-0.2064264088034543,-2.6805332974912632,-0.0088978271015371,10.154156,-0.77158284,-1.2650349,0.36356467,10.066555,-9.140345,1.4130241,-0.31507534,0.36108065,-0.16046233,-0.8629023,-6.1915956,5.9705358,0.36303756,-0.21714534,-2.4857523,-0.051053237,0
0.8200000000000005,15.629698516434408,-0.2064264088034543,-2.6805332974912632,-0.0088978271015371,10.154156,-0.77158284,-1.2650349,0.36356467,10.004232,-9.080247,1.4167044,-0.31688252,0.35064125,-0.1554858,-0.8674448,-6.272476,6.0486555,0.37348804,-0.21547137,-2.5161288,-0.04898465,0
0.8300000000000005,15.629698516434408,-0.2064264088034543,-2.6805332974912632,-0.0088978271015371,10.154156,-0.77158284,-1.2650349,0.36356467,9.941112,-9.019378,1.4205034,-0.31865492,0.34002075,-0.15045041,-0.87190014,-6.3514132,6.124798,0.38673848,-0.2140584,-2.5417678,-0.047017574,0
0.8400000000000005,15.629698516434408,-0.2064264088034543,-2.6805332974912632,-0.0088978271015371,10.931002,-0.3839784,-1.3270473,0.3998892,9.877212,-8.957758,1.4244487,-0.32038707,0.32923862,-0.1453619,-0.87625575,-6.428332,6.198896,0.4027459,-0.21286568,-2.5634084,-0.04514702,0
0.8500000000000005,15.629698516434408,-0.2064264088034543,-2.6805332974912632,-0.0088978271015371,10.931002,-0.3839784,-1.3270473,0.3998892,9.812552,-8.895408,1.4285676,-0.3220745,0.31831175,-0.14022528,-0.8805014,-6.503163,6.2708855,0.42145917,-0.21185894,-2.581674,-0.043368254,0
0.8600000000000005,15.629698516434408,-0.2064264088034543,-2.6805332974912632,-0.0088978271015371,10.931002,-0.3839784,-1.3270473,0.3998892,9.747155,-8.832348,1.4328871,-0.32371357,0.30725482,-0.13504493,-0.8846282,-6.575839,6.340705,0.4428199,-0.21100938,-2.5970912,-0.041676786,0
0.8700000000000006,15.629698516434408,-0.2064264088034543,-2.6805332974912632,-0.0088978271015371,10.931002,-0.3839784,-1.3270473,0.3998892,9.681043,-8.768601,1.437433,-0.32530117,0.29608062,-0.12982468,-0.88862884,-6.6462975,6.4082956,0.46676335,-0.21029244,-2.6101043,-0.04006832,0
0.8800000000000006,14.345630858890402,-0.15876110643270488,-2.3034383184469944,0.0006445129677132747,11.908909,-0.023138903,-1.0491278,0.17898017,9.614237,-8.704189,1.442231,-0.3268348,0.28480038,-0.12456797,-0.892497,-6.714478,6.4736004,0.49321932,-0.20968722,-2.621088,-0.038538788,0
0.8900000000000006,14.345630858890402,-0.15876110643270488,-2.3034383184469944,0.0006445129677132747,11.908909,-0.023138903,-1.0491278,0.17898017,9.546787,-8.639163,1.4472538,-0.32829857,0.27355283,-0.11934477,-0.8961842,-6.774919,6.531398,0.51167387,-0.20174074,-2.5715508,-0.036616065,0
0.9000000000000006,14.345630858890402,-0.15876110643270488,-2.3034383184469944,0.0006445129677132747,11.908909,-0.023138903,-1.0491278,0.17898017,9.478745,-8.573569,1.4524719,-0.32968205,0.26245078,-0.11421181,-0.8996585,-6.833207,6.5870457,0.53225154,-0.19503407,-2.5297391,-0.034787692,0
0.9100000000000006,14.345630858890402,-0.15876110643270488,-2.3034383184469944,0.0006445129677132747,11.908909,-0.023138903,-1.0491278,0.17898017,9.4101305,-8.507429,1.4579058,-0.33099052,0.2514683,-0.10915394,-0.90293676,-6.889339,6.640547,0.5548395,-0.1893737,-2.494448,-0.03304902,0
0.9200000000000006,13.08762441657114,-0.10614819270408292,-1.7695357482456102,0.007750951243324623,11.961618,0.43492934,-1.0076818,0.06615693,9.340965,-8.440764,1.4635751,-0.33222836,0.24058345,-0.10415834,-0.90603274,-6.943307,6.6919,0.57933265,-0.18459645,-2.4646604,-0.031395674,0
0.9300000000000006,13.08762441657114,-0.10614819270408292,-1.7695357482456102,0.007750951243324623,11.961618,0.43492934,-1.0076818,0.06615693,9.271296,-8.373619,1.4694442,-0.333382,0.22996494,-0.099304736,-0.90890676,-6.990568,6.736795,0.59471685,-0.17235725,-2.3562567,-0.029474743,0
0.9400000000000006,13.08762441657114,-0.10614819270408292,-1.7695357482456102,0.007750951243324623,11.961618,0.43492934,-1.0076818,0.06615693,9.201162,-8.306035,1.4754747,-0.33444393,0.21974772,-0.09465677,-0.91153646,-7.035897,6.7797823,0.6116181,-0.16202743,-2.2647583,-0.027648065,0
0.9500000000000006,13.08762441657114,-0.10614819270408292,-1.7695357482456102,0.007750951243324623,11.961618,0.43492934,-1.0076818,0.06615693,9.130585,-8.23803,1.4816812,-0.3354251,0.209869,-0.09018259,-0.9139543,-7.0793424,6.8209176,0.62991524,-0.15330914,-2.1875288,-0.02591104,0
0.9600000000000006,12.590945442819224,-0.050518401004294146,-1.1926332097270333,0.012034632545134896,11.007793,0.08860991,-0.40931302,0.12931767,9.059582,-8.169622,1.4880772,-0.33633453,0.20027544,-0.08585511,-0.9161868,-7.1209474,6.860248,0.649502,-0.145951,-2.1223433,-0.024259249,0
0.9700000000000006,12.590945442819224,-0.050518401004294146,-1.1926332097270333,0.012034632545134896,11.007793,0.08860991,-0.40931302,0.12931767,8.98818,-8.100838,1.4946526,-0.3371644,0.19112624,-0.08174974,-0.9182094,-7.1592426,6.8963947,0.66576755,-0.13106385,-1.9773556,-0.022478294,0
0.9800000000000006,12.590945442819224,-0.050518401004294146,-1.1926332097270333,0.012034632545134896,11.007793,0.08860991,-0.40931302,0.12931767,8.916403,-8.031699,1.5013962,-0.33791158,0.18254672,-0.077925675,-0.92001116,-7.1958914,6.9309387,0.68306386,-0.11849901,-1.8549789,-0.020784725,0
0.9900000000000007,12.590945442819224,-0.050518401004294146,-1.1926332097270333,0.012034632545134896,11.007793,0.08860991,-0.40931302,0.12931767,8.844267,-7.9622235,1.5083172,-0.33858854,0.17444906,-0.07433973,-0.92162865,-7.2309794,6.963972,0.7012841,-0.10789412,-1.7516867,-0.019174257,0
1.0000000000000007,12.774571078697564,0.011000176091929,-0.539663663285202,0.01268171712358965,11.600084,1.0419074,-0.22120123,-0.15303218,8.771788,-7.8924246,1.5154247,-0.3392053,0.16675866,-0.07095523,-0.92309105,-7.264581,6.995573,0.72033846,-0.09894358,-1.6645027,-0.017642835,0
1.0100000000000007,12.774571078697564,0.011000176091929,-0.539663663285202,0.01268171712358965,11.600084,1.0419074,-0.22120123,-0.15303218,8.6989765,-7.8223147,1.5227351,-0.3397561,0.15964551,-0.067852594,-0.92437845,-7.297238,7.0262594,0.7418652,-0.08179441,-1.489085,-0.016154796,0
1.0200000000000007,12.774571078697564,0.011000176091929,-0.539663663285202,0.01268171712358965,11.600084,1.0419074,-0.22120123,-0.15303218,8.625847,-7.7519045,1.5302644,-0.34023896,0.15324196,-0.06509435,-0.9254823,-7.328578,7.0556936,0.76405704,-0.06732039,-1.3410236,-0.014739781,0
1.0300000000000007,12.774571078697564,0.011000176091929,-0.539663663285202,0.01268171712358965,11.600084,1.0419074,-0.22120123,-0.15303218,8.55241,-7.6812053,1.5380185,-0.34066585,0.14743865,-0.06262754,-0.9264377,-7.358723,7.084002,0.7868234,-0.05510406,-1.216052,-0.013394207,0
1.0400000000000007,12.774571078697564,0.011000176091929,-0.539663663285202,0.01268171712358965,11.691689,1.2189415,0.12355776,-0.21044171,8.478678,-7.6102276,1.5460026,-0.34104618,0.1421428,-0.060407232,-0.92727244,-7.3877754,7.1112914,0.8100908,-0.044793192,-1.1105698,-0.012114648,0
1.0500000000000007,12.774571078697564,0.011000176091929,-0.539663663285202,0.01268171712358965,11.691689,1.2189415,0.12355776,-0.21044171,8.404659,-7.538982,1.5542217,-0.3413876,0.13727592,-0.058395386,-0.9280086,-7.4158225,7.1376534,0.833799,-0.03609078,-1.0215373,-0.010897881,0
1.0600000000000007,12.774571078697564,0.011000176091929,-0.539663663285202,0.01268171712358965,11.691689,1.2189415,0.12355776,-0.21044171,8.330365,-7.4674773,1.56268,-0.34169614,0.13277145,-0.05655977,-0.9286639,-7.4429383,7.163164,0.85789865,-0.028745817,-0.9463894,-0.009740818,0
1.0700000000000007,12.774571078697564,0.011000176091929,-0.539663663285202,0.01268171712358965,11.691689,1.2189415,0.12355776,-0.21044171,8.255804,-7.3957214,1.571381,-0.34197667,0.12857312,-0.054873116,-0.9292524,-7.469186,7.18789,0.88234884,-0.02254645,-0.8829608,-0.008640536,0
1.0800000000000007,12.695844164202548,0.03749749096111729,-0.16939891111809177,0.012736146219460353,11.811907,1.385335,0.41652483,-0.2712515,8.180985,-7.323722,1.580328,-0.34223315,0.124633335,-0.053312346,-0.9297854,-7.4946184,7.211886,0.9071156,-0.017314,-0.8294238,-0.0075942506,0
1.0900000000000007,12.695844164202548,0.03749749096111729,-0.16939891111809177,0.012736146219460353,11.811907,1.385335,0.41652483,-0.2712515,8.105916,-7.251487,1.5895203,-0.34246248,0.12104608,-0.05191855,-0.9302536,-7.5191355,7.2350607,0.93140924,-0.008765243,-0.7264935,-0.0065966323,0
1.1000000000000008,12.695844164202548,0.03749749096111729,-0.16939891111809177,0.012736146219460353,11.811907,1.385335,0.41652483,-0.2712515,8.030604,-7.1790233,1.598957,-0.34266287,0.11788392,-0.050723374,-0.9306518,-7.542969,7.2576394,0.95594907,-0.0015498486,-0.63961476,-0.005647974,0
1.1100000000000008,12.695844164202548,0.03749749096111729,-0.16939891111809177,0.012736146219460353,11.811907,1.385335,0.41652483,-0.2712515,7.955058,-7.106336,1.6086401,-0.34283906,0.11508085,-0.049696043,-0.9309931,-7.566196,7.279699,0.9806998,0.0045401575,-0.56628484,-0.0047458666,0
1.1200000000000008,12.07652527062437,0.04260013933602491,0.06475350895404561,0.013634954594269123,11.677706,1.5876846,0.57253164,-0.32831746,7.879282,-7.0334306,1.6185715,-0.34299487,0.11258104,-0.04881053,-0.9312881,-7.58888,7.3013034,1.0056326,0.009680357,-0.50439066,-0.0038880184,0
1.1300000000000008,12.07652527062437,0.04260013933602491,0.06475350895404561,0.013634954594269123,11.677706,1.5876846,0.57253164,-0.32831746,7.803287,-6.9603167,1.6287231,-0.34312895,0.11042392,-0.048078913,-0.931535,-7.609997,7.321477,1.0247134,0.014814717,-0.41563293,-0.00302816,0
1.1400000000000008,12.07652527062437,0.04260013933602491,0.06475350895404561,0.013634954594269123,11.677706,1.5876846,0.57253164,-0.32831746,7.7270837,-6.887002,1.6390662,-0.3432406,0.10863833,-0.047509637,-0.931733,-7.630721,7.3413396,1.0439173,0.019148186,-0.34071708,-0.002210496,0
1.1500000000000008,12.07652527062437,0.04260013933602491,0.06475350895404561,0.013634954594269123,11.677706,1.5876846,0.57253164,-0.32831746,7.6506743,-6.8134904,1.6496018,-0.3433333,0.107166454,-0.047077496,-0.9318912,-7.651117,7.360953,1.0632207,0.022805654,-0.27748424,-0.001432936,0
1.1600000000000008,10.874354720280142,0.024415072594302194,-0.06667783299586232,0.013310264271527057,11.126574,1.5358977,0.34120172,-0.4147822,7.5740623,-6.739784,1.6603309,-0.3434099,0.10595946,-0.04676121,-0.9320169,-7.6712394,7.38037,1.082604,0.02589263,-0.22411244,-0.0006935599,0
1.1700000000000008,10.874354720280142,0.024415072594302194,-0.06667783299586232,0.013310264271527057,11.126574,1.5358977,0.34120172,-0.4147822,7.49726,-6.665893,1.6711956,-0.34347442,0.10492957,-0.04651794,-0.93212175,-7.6891527,7.397715,1.0903503,0.025662314,-0.19956061,-6.3886837e-06,0
1.1800000000000008,10.874354720280142,0.024415072594302194,-0.06667783299586232,0.013310264271527057,11.126574,1.5358977,0.34120172,-0.4147822,7.4202795,-6.59183,1.6821381,-0.3435301,0.10400504,-0.046312768,-0.9322151,-7.7068844,7.414942,1.0981463,0.025467953,-0.1788377,0.00064706843,0
1.1900000000000008,10.874354720280142,0.024415072594302194,-0.06667783299586232,0.013310264271527057,11.126574,1.5358977,0.34120172,-0.4147822,7.3431225,-6.517595,1.6931586,-0.34357798,0.10316945,-0.046139803,-0.9322989,-7.7244515,7.4320655,1.1059866,0.025303882,-0.16134647,0.0012684568,0
1.2000000000000008,9.647919041406693,0.0028510193382856605,-0.3995022827578307,0.011153807619115622,8.137567,1.7862804,-0.9731392,-0.36416253,7.2657905,-6.4431887,1.7042578,-0.34361908,0.102408916,-0.045994062,-0.9323748,-7.741869,7.4490976,1.1138662,0.02516526,-0.14658305,0.001859352,0
1.2100000000000009,9.647919041406693,0.0028510193382856605,-0.3995022827578307,0.011153807619115622,8.137567,1.7862804,-0.9731392,-0.36416253,7.188295,-6.3686223,1.7153763,-0.34365958,0.1015905,-0.045817483,-0.9324581,-7.757195,7.464133,1.1098262,0.02168545,-0.18602562,0.0023154402,0
1.2200000000000009,9.647919041406693,0.0028510193382856605,-0.3995022827578307,0.011153807619115622,8.137567,1.7862804,-0.9731392,-0.36416253,7.1106467,-6.293906,1.7264544,-0.34370437,0.10060823,-0.045563813,-0.9325605,-7.7723775,7.479074,1.1058244,0.018748397,-0.21931718,0.0027491224,0
1.2300000000000009,9.647919041406693,0.0028510193382856605,-0.3995022827578307,0.011153807619115622,8.137567,1.7862804,-0.9731392,-0.36416253,7.0328474,-6.219041,1.7374928,-0.34375238,0.09948757,-0.045245074,-0.9326786,-7.787394,7.4938984,1.1018678,0.016269159,-0.24741691,0.0031615444,0
1.2400000000000009,9.647919041406693,0.0028510193382856605,-0.3995022827578307,0.011153807619115622,7.998475,1.6626829,-1.1900964,-0.3878892,6.9548993,-6.144028,1.748492,-0.3438027,0.09825005,-0.044871394,-0.9328093,-7.802225,7.508586,1.0979618,0.014176809,-0.27113444,0.003553725,0
1.2500000000000009,9.647919041406693,0.0028510193382856605,-0.3995022827578307,0.011153807619115622,7.998475,1.6626829,-1.1900964,-0.3878892,6.876804,-6.06887,1.7594523,-0.34385455,0.0969138,-0.044451337,-0.93295,-7.816855,7.523121,1.0941111,0.012410665,-0.29115346,0.00392666,0
1.260000000000001,9.647919041406693,0.0028510193382856605,-0.3995022827578307,0.011153807619115622,7.998475,1.6626829,-1.1900964,-0.3878892,6.7985635,-5.993567,1.7703744,-0.34390727,0.09549415,-0.043992117,-0.93309873,-7.8312697,7.537489,1.0903192,0.010919999,-0.30805036,0.0042812987,0
1.270000000000001,9.647919041406693,0.0028510193382856605,-0.3995022827578307,0.011153807619115622,7.998475,1.6626829,-1.1900964,-0.3878892,6.7201796,-5.9181213,1.781259,-0.34396031,0.09400402,-0.04349983,-0.9332535,-7.8454576,7.5516777,1.0865887,0.009661897,-0.32231212,0.004618527,0
1.280000000000001,8.877928175404442,-0.03674347171906314,-0.8336128933993895,0.011567181546405512,8.020296,1.5181973,-1.2160672,-0.57011926,6.641655,-5.842534,1.7921064,-0.34401327,0.09245435,-0.042979624,-0.9334129,-7.859409,7.565678,1.0829216,0.008599908,-0.33434984,0.0049392134,0
1.290000000000001,8.877928175404442,-0.03674347171906314,-0.8336128933993895,0.011567181546405512,8.020296,1.5181973,-1.2160672,-0.57011926,6.562998,-5.7668138,1.8028798,-0.3440716,0.09069762,-0.04236127,-0.93359196,-7.8720164,7.5783744,1.071779,0.0015289211,-0.4122097,0.00526446,0
1.300000000000001,8.877928175404442,-0.03674347171906314,-0.8336128933993895,0.011567181546405512,8.020296,1.5181973,-1.2160672,-0.57011926,6.4842157,-5.690967,1.8135424,-0.3441392,0.088617265,-0.04158929,-0.93380153,-7.884356,7.590846,1.0607074,-0.0044391854,-0.47792727,0.005573743,0
1.310000000000001,8.877928175404442,-0.03674347171906314,-0.8336128933993895,0.011567181546405512,8.020296,1.5181973,-1.2160672,-0.57011926,6.4053116,-5.6149974,1.8240944,-0.34421358,0.086263515,-0.04068754,-0.93403417,-7.8963857,7.60305,1.049717,-0.009476676,-0.53339624,0.0058678444,0
1.320000000000001,8.294332773333066,-0.06944919036338888,-1.008469784697302,0.013877297631089146,7.755248,1.5540648,-1.329919,-0.55257726,6.326289,-5.538907,1.8345369,-0.34429255,0.08367875,-0.039676156,-0.93428373,-7.908071,7.6149516,1.0388153,-0.013728626,-0.5802149,0.0061475,0
1.330000000000001,8.294332773333066,-0.06944919036338888,-1.008469784697302,0.013877297631089146,7.755248,1.5540648,-1.329919,-0.55257726,6.247155,-5.462703,1.8448422,-0.3443756,0.080837876,-0.038535833,-0.934551,-7.918637,7.625757,1.0222698,-0.022417836,-0.6470011,0.0065268073,0
1.340000000000001,8.294332773333066,-0.06944919036338888,-1.008469784697302,0.013877297631089146,7.755248,1.5540648,-1.329919,-0.55257726,6.1679177,-5.386393,1.8549826,-0.34446198,0.077722736,-0.03725211,-0.9348355,-7.9288177,7.636212,1.0058192,-0.029751977,-0.7033718,0.006887518,0
1.350000000000001,8.294332773333066,-0.06944919036338888,-1.008469784697302,0.013877297631089146,7.755248,1.5540648,-1.329919,-0.55257726,6.0885806,-5.3099804,1.864959,-0.34454948,0.0743758,-0.03584721,-0.9351305,-7.9385805,7.64628,0.9894681,-0.035942357,-0.7509518,0.0072305016,0
1.360000000000001,8.059133148400088,-0.0873170949787605,-1.0899965680381813,0.014710326457213202,8.55558,0.5729039,-0.3868248,-0.38315922,6.0091476,-5.233469,1.8747723,-0.34463626,0.0708329,-0.034339897,-0.93543005,-7.947899,7.655931,0.97321916,-0.04116742,-0.79111165,0.007556659,1
1.370000000000001,8.059133148400088,-0.0873170949787605,-1.0899965680381813,0.014710326457213202,8.55558,0.5729039,-0.3868248,-0.38315922,5.9296227,-5.156862,1.8844366,-0.34477648,0.06727018,-0.03306883,-0.9356872,-7.957028,7.6654434,0.95965284,0.054587193,-0.7280634,-0.011615884,1
1.380000000000001,8.059133148400088,-0.0873170949787605,-1.0899965680381813,0.014710326457213202,8.55558,0.5729039,-0.3868248,-0.38315922,5.850009,-5.0801616,1.8939657,-0.3450196,0.06382914,-0.03230314,-0.9358654,-7.9656587,7.6745796,0.9461803,0.13541067,-0.6748497,-0.029847633,1
1.390000000000001,8.059133148400088,-0.0873170949787605,-1.0899965680381813,0.014710326457213202,8.55558,0.5729039,-0.3868248,-0.38315922,5.770312,-5.0033712,1.9033605,-0.34535766,0.060491018,-0.03196376,-0.9359741,-7.9737806,7.6834226,0.9327892,0.20363128,-0.62993604,-0.04718474,1
1.400000000000001,7.763292722701054,-0.12073374565612169,-0.894080605500614,0.022759654189843645,9.270992,0.67664814,0.005752757,-0.4368588,5.690535,-4.9264936,1.9126217,-0.34578344,0.05723992,-0.031983968,-0.9360207,-7.981384,7.692043,0.9194692,0.26121393,-0.5920275,-0.063671105,0
1.410000000000001,7.763292722701054,-0.12073374565612169,-0.894080605500614,0.022759654189843645,9.270992,0.67664814,0.005752757,-0.4368588,5.6106887,-4.849534,1.9217107,-0.34623426,0.053966828,-0.031980228,-0.9360485,-7.987806,7.699704,0.89835554,0.20164922,-0.6391294,-0.059429917,0
1.420000000000001,7.763292722701054,-0.12073374565612169,-0.894080605500614,0.022759654189843645,9.270992,0.67664814,0.005752757,-0.4368588,5.530781,-4.7724996,1.930589,-0.34665394,0.050584514,-0.03164576,-0.93609345,-7.9937515,7.7071724,0.87729925,0.15137415,-0.67888653,-0.055396855,0
1.430000000000001,7.763292722701054,-0.12073374565612169,-0.894080605500614,0.022759654189843645,9.270992,0.67664814,0.005752757,-0.4368588,5.450816,-4.695391,1.9392569,-0.34704506,0.047109935,-0.031032037,-0.9361504,-7.9992223,7.7143955,0.85630137,0.108939596,-0.7124442,-0.051561683,0
1.440000000000001,7.763292722701054,-0.12073374565612169,-0.894080605500614,0.022759654189843645,8.933096,0.45835325,0.09804089,-0.32580522,5.3707986,-4.618212,1.9477152,-0.34740973,0.043557398,-0.030182498,-0.93621486,-8.004221,7.7213306,0.8353621,0.07312309,-0.74076873,-0.04791471,0
1.450000000000001,7.763292722701054,-0.12073374565612169,-0.894080605500614,0.022759654189843645,8.933096,0.45835325,0.09804089,-0.32580522,5.290734,-4.540966,1.9559643,-0.34774962,0.03993897,-0.029133812,-0.93628323,-8.008747,7.7279406,0.81448036,0.042892266,-0.7646767,-0.0444467,0
1.460000000000001,7.763292722701054,-0.12073374565612169,-0.894080605500614,0.022759654189843645,8.933096,0.45835325,0.09804089,-0.32580522,5.2106256,-4.4636555,1.964005,-0.3480662,0.03626486,-0.027916936,-0.93635213,-8.012804,7.7341943,0.7936543,0.01737585,-0.7848563,-0.041148864,0
1.470000000000001,7.763292722701054,-0.12073374565612169,-0.894080605500614,0.022759654189843645,8.933096,0.45835325,0.09804089,-0.32580522,5.1304793,-4.3862844,1.9718378,-0.3483607,0.032543674,-0.026558008,-0.93641883,-8.016392,7.740065,0.7728815,-0.004161118,-0.8018892,-0.038012862,0
1.480000000000001,7.624868908653812,-0.19542176459513666,-0.6578200896990193,0.045408770963816146,9.009607,-0.32648477,-0.20991473,-0.18081313,5.0503,-4.3088565,1.9794629,-0.34863412,0.028782703,-0.025079088,-0.936481,-8.019511,7.7455316,0.75215864,-0.022339262,-0.81626594,-0.035030738,0
1.490000000000001,7.624868908653812,-0.19542176459513666,-0.6578200896990193,0.045408770963816146,9.009607,-0.32648477,-0.20991473,-0.18081313,4.970092,-4.231376,1.9868741,-0.34888163,0.025087014,-0.02350388,-0.936536,-8.0221195,7.750486,0.7301013,-0.049328778,-0.79155594,-0.031083543,0
1.500000000000001,7.624868908653812,-0.19542176459513666,-0.6578200896990193,0.045408770963816146,9.009607,-0.32648477,-0.20991473,-0.18081313,4.889859,-4.153848,1.994065,-0.3490998,0.021540236,-0.021852167,-0.936583,-8.024292,7.7550187,0.70808387,-0.07210961,-0.7706996,-0.027330041,0
1.5100000000000011,7.624868908653812,-0.19542176459513666,-0.6578200896990193,0.045408770963816146,9.009607,-0.32648477,-0.20991473,-0.18081313,4.809607,-4.0762773,2.001036,-0.34929127,0.018119166,-0.020135868,-0.9366225,-8.026055,7.759127,0.68610126,-0.09133807,-0.753096,-0.023760729,0
1.5200000000000011,7.614366367758569,-0.20826490882387727,-0.06636526199987318,0.06145466413150871,9.274155,-0.2989731,0.040660337,-0.10102268,4.729339,-3.9986672,2.0077872,-0.34945816,0.014804216,-0.018365037,-0.9366549,-8.027427,7.762808,0.6641485,-0.107567966,-0.7382378,-0.020366551,0
1.5300000000000011,7.614366367758569,-0.20826490882387727,-0.06636526199987318,0.06145466413150871,9.274155,-0.2989731,0.040660337,-0.10102268,4.6490593,-3.9210227,2.0143185,-0.34959635,0.011802334,-0.016626105,-0.93667847,-8.02843,7.766059,0.64211595,-0.12326845,-0.6334596,-0.016351556,0
1.5400000000000011,7.614366367758569,-0.20826490882387727,-0.06636526199987318,0.06145466413150871,9.274155,-0.2989731,0.040660337,-0.10102268,4.568771,-3.8433475,2.0206294,-0.3497036,0.009276688,-0.01498807,-0.9366945,-8.029121,7.768918,0.6201027,-0.13652138,-0.5450218,-0.012533582,0
1.5500000000000012,7.614366367758569,-0.20826490882387727,-0.06636526199987318,0.06145466413150871,9.274155,-0.2989731,0.040660337,-0.10102268,4.488477,-3.7656457,2.0267203,-0.349784,0.0071530496,-0.013435244,-0.9367067,-8.02956,7.7714224,0.5981038,-0.14770797,-0.4703758,-0.008902953,0
1.5600000000000012,7.897605176690073,-0.17924370526034508,0.4169526404789813,0.07101017303528398,9.647291,-0.15243103,0.45252103,0.03648723,4.40818,-3.6879206,2.0325913,-0.3498406,0.0053687515,-0.01195436,-0.9367175,-8.029796,7.7736034,0.5761158,-0.15715043,-0.40737087,-0.005450479,0
1.5700000000000012,7.897605176690073,-0.17924370526034508,0.4169526404789813,0.07101017303528398,9.647291,-0.15243103,0.45252103,0.03648723,4.327882,-3.6101747,2.038257,-0.3498729,0.0040479973,-0.010612767,-0.93672824,-8.029878,7.775562,0.55696744,-0.16059475,-0.27881855,-0.0016985298,0
1.5800000000000012,7.897605176690073,-0.17924370526034508,0.4169526404789813,0.07101017303528398,9.647291,-0.15243103,0.45252103,0.03648723,4.2475824,-3.5324104,2.043731,-0.3498807,0.0032864825,-0.009463263,-0.9367406,-8.029866,7.7772717,0.5378249,-0.16350256,-0.1703138,0.0018693068,0
1.5900000000000012,7.897605176690073,-0.17924370526034508,0.4169526404789813,0.07101017303528398,9.647291,-0.15243103,0.45252103,0.03648723,4.1672835,-3.4546297,2.0490134,-0.34986693,0.0029970058,-0.008475899,-0.93675613,-8.029829,7.778789,0.51868635,-0.16595736,-0.07873025,0.0052620643,0
1.6000000000000012,8.635365353013993,-0.09994344650763189,0.8679921888085577,0.07103622449931929,10.006763,-0.008235297,0.37991434,0.15927279,4.086986,-3.3768349,2.0541046,-0.34983376,0.0031059606,-0.0076253847,-0.93677545,-8.029823,7.7801604,0.4995505,-0.16802956,-0.001429094,0.008488341,0
1.6100000000000012,8.635365353013993,-0.09994344650763189,0.8679921888085577,0.07103622449931929,10.006763,-0.008235297,0.37991434,0.15927279,4.006687,-3.2990263,2.0590413,-0.3497816,0.003709209,-0.006983248,-0.9367978,-8.02991,7.78155,0.48779285,-0.15741257,0.13415644,0.011557584,0
1.6200000000000012,8.635365353013993,-0.09994344650763189,0.8679921888085577,0.07103622449931929,10.006763,-0.008235297,0.37991434,0.15927279,3.926387,-3.221204,2.0638604,-0.34971082,0.0048795156,-0.006605055,-0.93682164,-8.030163,7.7829022,0.4760355,-0.14845161,0.24859747,0.014476211,0
1.6300000000000012,8.635365353013993,-0.09994344650763189,0.8679921888085577,0.07103622449931929,10.006763,-0.008235297,0.37991434,0.15927279,3.8460832,-3.1433682,2.068562,-0.3496227,0.006528451,-0.006449623,-0.93684554,-8.030652,7.784289,0.46427658,-0.14088835,0.34519154,0.017251631,0
1.6400000000000012,8.635365353013993,-0.09994344650763189,0.8679921888085577,0.07103622449931929,10.324444,-0.15453358,0.30818123,0.2382927,3.765773,-3.065518,2.0731459,-0.34951803,0.008581366,-0.0064821914,-0.9368678,-8.031439,7.785771,0.4525138,-0.13450474,0.42672187,0.019890862,0
1.6500000000000012,8.635365353013993,-0.09994344650763189,0.8679921888085577,0.07103622449931929,10.324444,-0.15453358,0.30818123,0.2382927,3.6854532,-2.987652,2.0776124,-0.34939733,0.010975238,-0.006673426,-0.9368864,-8.032573,7.7874,0.44074455,-0.12911665,0.49553764,0.02240058,0
1.6600000000000013,8.635365353013993,-0.09994344650763189,0.8679921888085577,0.07103622449931929,10.324444,-0.15453358,0.30818123,0.2382927,3.6051204,-2.9097693,2.0819607,-0.34926102,0.0136568565,-0.0069985692,-0.9368996,-8.034099,7.7892194,0.42896542,-0.12456883,0.55362165,0.02478714,0
1.6700000000000013,8.635365353013993,-0.09994344650763189,0.8679921888085577,0.07103622449931929,10.324444,-0.15453358,0.30818123,0.2382927,3.52477,-2.831867,2.0861917,-0.3491094,0.016581291,-0.007436728,-0.9369055,-8.036052,7.7912655,0.41717258,-0.120730266,0.6026474,0.027056595,0
1.6800000000000013,9.689268990696766,-0.030438620405515152,1.174254426983189,0.06943772296976201,10.094437,-0.41775152,-0.13843445,0.32669804,3.444398,-2.7539432,2.0903044,-0.34894276,0.019710602,-0.007970272,-0.93690264,-8.038462,7.7935696,0.40536168,-0.11749028,0.64402777,0.029214691,0
1.6900000000000013,9.689268990696766,-0.030438620405515152,1.174254426983189,0.06943772296976201,10.094437,-0.41775152,-0.13843445,0.32669804,3.3639975,-2.6759932,2.0943515,-0.34876093,0.023117872,-0.008653131,-0.93688637,-8.041712,7.796477,0.40405595,-0.10391714,0.7267165,0.031188447,0
1.7000000000000013,9.689268990696766,-0.030438620405515152,1.174254426983189,0.06943772296976201,10.094437,-0.41775152,-0.13843445,0.32669804,3.2835617,-2.5980124,2.0983856,-0.34856358,0.026859317,-0.009527244,-0.93685156,-8.045554,7.7997603,0.40271652,-0.092460565,0.79651,0.03306535,0
1.7100000000000013,9.689268990696766,-0.030438620405515152,1.174254426983189,0.06943772296976201,10.094437,-0.41775152,-0.13843445,0.32669804,3.2030842,-2.519997,2.1024058,-0.34835038,0.030882634,-0.010562722,-0.9367958,-8.050033,7.8034725,0.40133423,-0.082790494,0.8554192,0.03485015,0
1.7200000000000013,11.079327373707878,0.03723228153184518,1.3617027998194977,0.06339835898844928,10.433069,-0.4630026,-0.3974821,0.3554792,3.1225586,-2.4419415,2.106412,-0.34812114,0.03514364,-0.011734337,-0.9367169,-8.055184,7.807659,0.39989895,-0.07462829,0.9051416,0.036547374,0
1.7300000000000013,11.079327373707878,0.03723228153184518,1.3617027998194977,0.06339835898844928,10.433069,-0.4630026,-0.3974821,0.3554792,3.0419738,-2.3638384,2.1104727,-0.34787625,0.03966583,-0.013072234,-0.93660957,-8.061884,7.813035,0.41225842,-0.057186235,0.9763425,0.03786495,0
1.7400000000000013,11.079327373707878,0.03723228153184518,1.3617027998194977,0.06339835898844928,10.433069,-0.4630026,-0.3974821,0.3554792,2.961318,-2.2856784,2.1146564,-0.34761596,0.04446582,-0.014599151,-0.93646806,-8.069435,7.8190575,0.42452946,-0.042464126,1.0364395,0.039117888,0
1.7500000000000013,11.079327373707878,0.03723228153184518,1.3617027998194977,0.06339835898844928,10.433069,-0.4630026,-0.3974821,0.3554792,2.8805823,-2.207455,2.1189625,-0.34733957,0.049499854,-0.016285457,-0.93629026,-8.077878,7.8257833,0.4366951,-0.030037774,1.0871644,0.040309332,0
1.7600000000000013,11.848391364152961,0.10042248974130263,1.2122765560580424,0.051155854443564595,11.507553,-0.9001485,-0.3056702,0.5300958,2.7997575,-2.1291602,2.12339,-0.3470465,0.05473093,-0.01810613,-0.9360743,-8.087246,7.83326,0.4487376,-0.019548863,1.1299788,0.04144231,0
1.7700000000000014,11.848391364152961,0.10042248974130263,1.2122765560580424,0.051155854443564595,11.507553,-0.9001485,-0.3056702,0.5300958,2.7188306,-2.050784,2.1279752,-0.34674025,0.06006306,-0.020042881,-0.93582135,-8.09828,7.8420987,0.46827433,-0.00084025273,1.1428137,0.04191896,0
1.7800000000000014,11.848391364152961,0.10042248974130263,1.2122765560580424,0.051155854443564595,11.507553,-0.9001485,-0.3056702,0.5300958,2.6377883,-1.9723151,2.132755,-0.3464245,0.065418586,-0.022080122,-0.93553334,-8.110334,7.851809,0.48764214,0.014951056,1.1536468,0.04237222,0
1.7900000000000014,11.848391364152961,0.10042248974130263,1.2122765560580424,0.051155854443564595,11.507553,-0.9001485,-0.3056702,0.5300958,2.5566204,-1.8937447,2.1377275,-0.34609872,0.07079334,-0.024201987,-0.93521017,-8.123405,7.8624125,0.5068239,0.028279543,1.1627905,0.042803228,0
1.8000000000000014,12.010287691418615,0.15773714172787404,0.7652435830090357,0.037244673909936465,11.518848,-1.3549616,-0.9294072,0.6802948,2.4753168,-1.8150637,2.1428907,-0.34576264,0.07618376,-0.026395075,-0.93485147,-8.137488,7.8739257,0.52580243,0.039529826,1.1705081,0.043213096,0
1.8100000000000014,12.010287691418615,0.15773714172787404,0.7652435830090357,0.037244673909936465,11.518848,-1.3549616,-0.9294072,0.6802948,2.393866,-1.7362622,2.1482506,-0.34542426,0.08141176,-0.028607555,-0.9344707,-8.152778,7.8865285,0.54615885,0.057966236,1.1073079,0.042920228,0
1.8200000000000014,12.010287691418615,0.15773714172787404,0.7652435830090357,0.037244673909936465,11.518848,-1.3549616,-0.9294072,0.6802948,2.3122575,-1.6573299,2.153813,-0.34509176,0.08633632,-0.030797865,-0.93408185,-8.169027,7.900041,0.56628716,0.073527224,1.0539637,0.04264173,0
1.8300000000000014,12.010287691418615,0.15773714172787404,0.7652435830090357,0.037244673909936465,11.518848,-1.3549616,-0.9294072,0.6802948,2.230482,-1.5782582,2.1595755,-0.3447646,0.091004625,-0.032969378,-0.93368536,-8.1861725,7.914434,0.58618486,0.08666109,1.0089383,0.04237691,0
1.8400000000000014,12.010287691418615,0.15773714172787404,0.7652435830090357,0.037244673909936465,11.374645,-1.4487336,-1.4240923,0.7808393,2.1485312,-1.4990381,2.1655357,-0.34444207,0.09545642,-0.035124928,-0.93328124,-8.204162,7.929682,0.6058495,0.09774662,0.9709345,0.042125072,0
1.8500000000000014,12.010287691418615,0.15773714172787404,0.7652435830090357,0.037244673909936465,11.374645,-1.4487336,-1.4240923,0.7808393,2.0663962,-1.4196615,2.1716912,-0.34412345,0.09972526,-0.037266895,-0.9328692,-8.222947,7.9457636,0.6252785,0.107103124,0.93885726,0.041885585,0
1.8600000000000014,12.010287691418615,0.15773714172787404,0.7652435830090357,0.037244673909936465,11.374645,-1.4487336,-1.4240923,0.7808393,1.9840696,-1.3401201,2.1780403,-0.343808,0.103839464,-0.039397284,-0.932449,-8.242492,7.962661,0.64446896,0.11500038,0.91178244,0.041657846,0
1.8700000000000014,12.010287691418615,0.15773714172787404,0.7652435830090357,0.037244673909936465,11.374645,-1.4487336,-1.4240923,0.7808393,1.9015439,-1.2604057,2.18458,-0.34349492,0.107822895,-0.04151778,-0.9320201,-8.262764,7.980358,0.66341776,0.121665925,0.8889299,0.041441288,0
1.8800000000000014,11.692588210983283,0.14911495888913037,0.06466477072989381,0.034346550369212366,10.564663,-0.74788547,-1.7110437,0.6434706,1.8188119,-1.1805102,2.1913078,-0.3431836,0.1116957,-0.04362979,-0.93158215,-8.283735,7.9988422,0.68212146,0.12729186,0.8696412,0.041235346,0
1.8900000000000015,11.692588210983283,0.14911495888913037,0.06466477072989381,0.034346550369212366,10.564663,-0.74788547,-1.7110437,0.6434706,1.7358698,-1.1004286,2.1982062,-0.34288597,0.11521498,-0.0456351,-0.931167,-8.3048,8.017584,0.6974967,0.13069877,0.7441055,0.040897317,0
1.9000000000000015,11.692588210983283,0.14911495888913037,0.06466477072989381,0.034346550369212366,10.564663,-0.74788547,-1.7110437,0.6434706,1.652714,-1.0201561,2.2052572,-0.34261304,0.118189596,-0.047456153,-0.9308036,-8.326423,8.037,0.71265364,0.13357374,0.6381472,0.04057587,0
1.9100000000000015,11.692588210983283,0.14911495888913037,0.06466477072989381,0.034346550369212366,10.564663,-0.74788547,-1.7110437,0.6434706,1.5693398,-0.93968654,2.2124586,-0.34236252,0.12070482,-0.04912183,-0.93048656,-8.348505,8.057012,0.7276176,0.13599986,0.5487131,0.040270198,0
1.9200000000000015,10.84194002495006,0.08655272711674399,-0.7933592166495764,0.04317384049107835,10.453222,-0.86355484,-2.1946146,0.66501266,1.4857427,-0.85901415,2.2198088,-0.34213215,0.122832544,-0.050656468,-0.93021053,-8.370968,8.077554,0.7424117,0.13804714,0.4732261,0.039979525,0
1.9300000000000015,10.84194002495006,0.08655272711674399,-0.7933592166495764,0.04317384049107835,10.453222,-0.86355484,-2.1946146,0.66501266,1.4019277,-0.77814156,2.2272651,-0.34193334,0.124322526,-0.051940005,-0.93001485,-8.392074,8.097031,0.74885803,0.1300217,0.27570263,0.04013627,0
1.9400000000000015,10.84194002495006,0.08655272711674399,-0.7933592166495764,0.04317384049107835,10.453222,-0.86355484,-2.1946146,0.66501266,1.3179008,-0.6970725,2.2347856,-0.34177548,0.12497979,-0.05287849,-0.9299319,-8.413327,8.116819,0.7552158,0.12324715,0.10898285,0.040285327,0
1.9500000000000015,10.84194002495006,0.08655272711674399,-0.7933592166495764,0.04317384049107835,10.453222,-0.86355484,-2.1946146,0.66501266,1.233661,-0.6158045,2.2423692,-0.34165332,0.12493441,-0.05352594,-0.9299458,-8.434597,8.136799,0.761534,0.11752841,-0.03173714,0.040427066,0
1.9600000000000015,10.037515685892922,0.013795921047699016,-1.5682372088604677,0.0645609666294659,9.183954,-0.92187214,-2.6905062,0.19929826,1.1492091,-0.5343362,2.2500162,-0.34156168,0.12429598,-0.053927835,-0.93004185,-8.455773,8.156867,0.76785433,0.11270086,-0.15051197,0.040561855,0
1.9700000000000015,10.037515685892922,0.013795921047699016,-1.5682372088604677,0.0645609666294659,9.183954,-0.92187214,-2.6905062,0.19929826,1.064554,-0.45267466,2.2576878,-0.34150633,0.1228782,-0.053989824,-0.93024695,-8.475196,8.175439,0.7664654,0.097283,-0.37160578,0.04173951,0
1.9800000000000015,10.037515685892922,0.013795921047699016,-1.5682372088604677,0.0645609666294659,9.183954,-0.92187214,-2.6905062,0.19929826,0.9797062,-0.37082794,2.2653458,-0.34149054,0.1205378,-0.05363902,-0.9305792,-8.4943,8.1938715,0.76516634,0.08426864,-0.55821997,0.042859364,0
1.9900000000000015,10.037515685892922,0.013795921047699016,-1.5682372088604677,0.0645609666294659,9.183954,-0.92187214,-2.6905062,0.19929826,0.8946696,-0.28879815,2.272992,-0.34150568,0.11741779,-0.0529396,-0.9310125,-8.512953,8.212036,0.7640057,0.073283195,-0.71573186,0.043924272,0
2.0000000000000013,,,,,8.394211,-0.8373097,-3.5263796,-0.027821533,0.8094492,-0.2065885,2.280627,-0.341544,0.1136387,-0.05194563,-0.93152326,-8.53104,8.229823,0.76302195,0.064010516,-0.84867966,0.044936936,0
2.010000000000001,,,,,8.394211,-0.8373097,-3.5263796,-0.027821533,0.7240554,-0.12420757,2.2882292,-0.34160158,0.10912943,-0.050610486,-0.93211466,-8.547609,8.2462845,0.75747705,0.0453642,-1.0370178,0.047420584,0
2.020000000000001,,,,,8.394211,-0.8373097,-3.5263796,-0.027821533,0.6384996,-0.04166477,2.2957776,-0.3416732,0.103838414,-0.04889942,-0.93278396,-8.563431,8.262176,0.75216216,0.029625436,-1.1959847,0.049782354,0
2.0300000000000007,,,,,8.394211,-0.8373097,-3.5263796,-0.027821533,0.55278975,0.041033603,2.3032737,-0.3417501,0.09788581,-0.046870437,-0.9335033,-8.578397,8.277386,0.74710274,0.016340785,-1.3301607,0.052028235,0
2.0400000000000005,,,,,8.394211,-0.8373097,-3.5263796,-0.027821533,0.46693495,0.123880275,2.3107207,-0.3418246,0.091373116,-0.04457249,-0.93424857,-8.592415,8.2918215,0.7423138,0.0051272586,-1.4434123,0.054163907,0
2.0500000000000003,,,,,8.441498,-0.8561648,-3.7429948,-0.06799924,0.380945,0.20686707,2.3181212,-0.34189007,0.08438617,-0.042046923,-0.93499863,-8.605408,8.305402,0.73780113,-0.0043377634,-1.5390022,0.056194782,1
2.06,,,,,8.441498,-0.8561648,-3.7429948,-0.06799924,0.29483753,0.28997767,2.3254237,-0.34195992,0.07647637,-0.03879644,-0.93579364,-8.61592,8.316569,0.72271025,-0.13717455,-1.8827182,0.050100546,1
2.07,,,,,8.441498,-0.8561648,-3.7429948,-0.06799924,0.20863038,0.3731948,2.3325768,-0.34204164,0.06729044,-0.03442782,-0.93663996,-8.625325,8.326676,0.70788705,-0.2492994,-2.17283,0.04430536,1
2.0799999999999996,,,,,8.441498,-0.8561648,-3.7429948,-0.06799924,0.12233527,0.45650673,2.3395827,-0.34212023,0.057024032,-0.02911372,-0.93747246,-8.633495,8.335486,0.6933408,-0.34394145,-2.417698,0.03879456,1
2.0899999999999994,,,,,9.305614,-0.4239285,-4.7040234,-0.31410426,0.035965115,0.5398994,2.3464444,-0.34218097,0.04584303,-0.023000337,-0.93823326,-8.640317,8.342797,0.6790593,-0.42382595,-2.6243777,0.033554155,1
2.099999999999999,,,,,9.305614,-0.4239285,-4.7040234,-0.31410426,-0.050468933,0.62336,2.3532076,-0.34225306,0.0334688,-0.016241051,-0.9388711,-8.646228,8.34901,0.6736165,-0.42386743,-2.9486926,0.016494466,1
2.109999999999999,,,,,9.305614,-0.4239285,-4.7040234,-0.31410426,-0.1369532,0.7068726,2.3599174,-0.34235185,0.019688152,-0.008964685,-0.9393227,-8.650329,8.3531885,0.6683849,-0.42390808,-3.222431,0.00027189637,1
2.1199999999999988,,,,,9.305614,-0.4239285,-4.7040234,-0.31410426,-0.22346856,0.7904161,2.3665757,-0.3424462,0.004720507,-0.0012532054,-0.9395247,-8.652415,8.355159,0.6632927,-0.42394578,-3.4534805,-0.01515463,1
2.1299999999999986,,,,,10.321899,-0.48728052,-3.9828668,-0.18029696,-0.30999398,0.8739677,2.3731835,-0.3425092,-0.011246767,0.006823063,-0.9394223,-8.652318,8.354776,0.6582434,-0.42397982,-3.6484978,-0.029824171,1
