time-since-start [s],throttle_mpc,roll_mpc,pitch_mpc,yaw_mpc,throttle_nw,roll_nw,pitch_nw,yaw_nw,position_x [m],position_y [m],position_z [m],rotation_w [quaternion],rotation_x [quaternion],rotation_y [quaternion],rotation_z [quaternion],velocity_x [m/s],velocity_y [m/s],velocity_z [m/s],omega_x [rad/s],omega_y [rad/s],omega_z [rad/s],network_used
0.0,7.056468501770879,-0.6460797172250066,-5.9999994775554795,0.26573997707169617,10.643406,-1.0488757,4.6106095,-0.3026546,13.102188,-12.048917,1.0737401,-0.3050499,0.41923004,-0.1830024,-0.8352849,-2.280919,2.2024465,0.43906522,-0.029207557,0.006608377,-0.047825135,0
0.01,7.056468501770879,-0.6460797172250066,-5.9999994775554795,0.26573997707169617,9.310366,-2.5370262,3.980721,0.61730814,13.079141,-12.026664,1.0778762,-0.30557293,0.41755956,-0.18217783,-0.8361103,-2.3283577,2.2476883,0.38791257,-0.020982467,-0.82567024,-0.041802447,0
0.02,7.056468501770879,-0.6460797172250066,-5.9999994775554795,0.26573997707169617,9.310366,-2.5370262,3.980721,0.61730814,13.055628,-12.003968,1.0814937,-0.30675277,0.41261727,-0.18013144,-0.8385716,-2.373733,2.290985,0.33541268,-0.04616938,-1.5602955,-0.033200502,0
0.03,7.056468501770879,-0.6460797172250066,-5.9999994775554795,0.26573997707169617,9.310366,-2.5370262,3.980721,0.61730814,13.0316725,-11.98085,1.0845817,-0.30841535,0.40480083,-0.17687088,-0.84245646,-2.4169269,2.3322468,0.28209504,-0.09745323,-2.210394,-0.022334,0
0.04,7.056468501770879,-0.6460797172250066,-5.9999994775554795,0.26573997707169617,10.98448,-2.3564208,3.788922,0.22813094,13.007296,-11.95733,1.0871341,-0.31040677,0.39443874,-0.17240763,-0.8475501,-2.457866,2.3713923,0.22837208,-0.16883665,-2.7872214,-0.009486465,0
0.05,7.056468501770879,-0.6460797172250066,-5.9999994775554795,0.26573997707169617,10.98448,-2.3564208,3.788922,0.22813094,12.98252,-11.933427,1.0891513,-0.31259835,0.38181585,-0.16677986,-0.85362947,-2.4971378,2.408949,0.17528613,-0.2432368,-3.288254,0.0040189805,0
0.060000000000000005,7.056468501770879,-0.6460797172250066,-5.9999994775554795,0.26573997707169617,10.98448,-2.3564208,3.788922,0.22813094,12.957356,-11.909154,1.090646,-0.31490266,0.36721838,-0.16011965,-0.86043507,-2.535355,2.4454613,0.123931825,-0.3060279,-3.711152,0.0168617,0
0.07,7.056468501770879,-0.6460797172250066,-5.9999994775554795,0.26573997707169617,10.98448,-2.3564208,3.788922,0.22813094,12.931817,-11.8845215,1.0916365,-0.3172496,0.35090145,-0.15256624,-0.8677236,-2.5723438,2.4807265,0.07448366,-0.35902262,-4.0681,0.029074224,0
0.08,9.195909507210818,-0.6155203091428681,-5.541289805907063,0.2842359904011587,10.802305,-2.6802545,4.204383,0.009020634,12.905914,-11.859544,1.0921427,-0.31957787,0.3330825,-0.14423805,-0.8752835,-2.6079347,2.5145519,0.027057238,-0.40375018,-4.3693824,0.040687483,0
0.09,9.195909507210818,-0.6155203091428681,-5.541289805907063,0.2842359904011587,10.802305,-2.6802545,4.204383,0.009020634,12.879611,-11.834187,1.0922643,-0.32181135,0.3141063,-0.13530736,-0.8828739,-2.6522849,2.556525,-0.0022933204,-0.4367356,-4.5521455,0.052638482,0
0.09999999999999999,9.195909507210818,-0.6155203091428681,-5.541289805907063,0.2842359904011587,10.802305,-2.6802545,4.204383,0.009020634,12.852875,-11.808422,1.0921059,-0.32389146,0.29426503,-0.12591995,-0.89030683,-2.6944256,2.596195,-0.028940503,-0.4645768,-4.706406,0.064003035,0
0.10999999999999999,9.195909507210818,-0.6155203091428681,-5.541289805907063,0.2842359904011587,10.802305,-2.6802545,4.204383,0.009020634,12.825729,-11.782273,1.0916944,-0.32579303,0.27366242,-0.11613481,-0.89748544,-2.7341943,2.6333876,-0.052945253,-0.48807696,-4.83661,0.07480991,0
0.11999999999999998,9.195909507210818,-0.6155203091428681,-5.541289805907063,0.2842359904011587,10.802305,-2.6802545,4.204383,0.009020634,12.7982,-11.755764,1.0910556,-0.32749498,0.25239003,-0.10600349,-0.904328,-2.7714362,2.667941,-0.074403375,-0.50791335,-4.946509,0.08508652,0
0.12999999999999998,10.99711883896123,-0.2745692220870302,-3.6502663606479633,0.12008420939923592,12.336145,-2.5035157,4.15439,-0.474244,12.770309,-11.728923,1.0902146,-0.32897982,0.23052932,-0.09557138,-0.9107657,-2.8060048,2.699706,-0.09344129,-0.5246574,-5.039269,0.09485885,0
0.13999999999999999,10.99711883896123,-0.2745692220870302,-3.6502663606479633,0.12008420939923592,12.336145,-2.5035157,4.15439,-0.474244,12.742057,-11.70175,1.0892739,-0.33021683,0.2088036,-0.085248865,-0.9165643,-2.8440044,2.7342212,-0.09429911,-0.48566574,-4.8226523,0.09609666,0
0.15,10.99711883896123,-0.2745692220870302,-3.6502663606479633,0.12008420939923592,12.336145,-2.5035157,4.15439,-0.474244,12.713442,-11.674251,1.0883367,-0.33120626,0.18780808,-0.07537066,-0.92160153,-2.8786566,2.7652936,-0.09277373,-0.45275322,-4.6398177,0.09727374,0
0.16,11.7449759839141,0.01253654364530726,-1.6779536109037327,-0.039259452306746184,13.616272,-1.8496923,4.3761764,-0.8529337,12.684495,-11.646457,1.0874254,-0.3319751,0.16743453,-0.06587045,-0.92596924,-2.9099991,2.7930026,-0.089180455,-0.42497206,-4.4854965,0.09839305,0
0.17,11.7449759839141,0.01253654364530726,-1.6779536109037327,-0.039259452306746184,13.616272,-1.8496923,4.3761764,-0.8529337,12.655241,-11.618394,1.0865942,-0.3325356,0.14828694,-0.05705771,-0.92961025,-2.9400012,2.8191082,-0.07677794,-0.3567888,-4.0476556,0.091638416,0
0.18000000000000002,11.7449759839141,0.01253654364530726,-1.6779536109037327,-0.039259452306746184,13.616272,-1.8496923,4.3761764,-0.8529337,12.625705,-11.590087,1.0858951,-0.33291993,0.130847,-0.049177438,-0.93253666,-2.9667413,2.8419895,-0.062832415,-0.29923025,-3.6780972,0.085215226,0
0.19000000000000003,11.7449759839141,0.01253654364530726,-1.6779536109037327,-0.039259452306746184,13.616272,-1.8496923,4.3761764,-0.8529337,12.595917,-11.561564,1.0853418,-0.3331703,0.1148605,-0.04208891,-0.9348972,-2.9904594,2.8619354,-0.047650997,-0.25064126,-3.3661723,0.07910721,0
0.20000000000000004,12.256618353373923,0.1874255490252844,0.3012603534711465,-0.06308810292493611,14.526211,-1.8186824,5.031284,-1.1224978,12.565906,-11.532858,1.0849456,-0.3333183,0.10010902,-0.035671793,-0.9368053,-3.0113657,2.879197,-0.03147824,-0.20962417,-3.1028929,0.07329893,0
0.21000000000000005,12.256618353373923,0.1874255490252844,0.3012603534711465,-0.06308810292493611,14.526211,-1.8186824,5.031284,-1.1224978,12.535694,-11.503986,1.08474,-0.3333727,0.08712558,-0.030153083,-0.9382762,-3.0304694,2.8946645,-0.009506247,-0.14774132,-2.5720134,0.06660638,0
0.22000000000000006,12.256618353373923,0.1874255490252844,0.3012603534711465,-0.06308810292493611,14.526211,-1.8186824,5.031284,-1.1224978,12.505304,-11.474971,1.0847573,-0.3333525,0.07632448,-0.025707524,-0.9393559,-3.0472279,2.9079776,0.013073936,-0.09550046,-2.1239252,0.06024223,0
0.23000000000000007,12.256618353373923,0.1874255490252844,0.3012603534711465,-0.06308810292493611,14.526211,-1.8186824,5.031284,-1.1224978,12.474757,-11.445832,1.0850028,-0.33328834,0.06737126,-0.02216941,-0.9401533,-3.0620177,2.91953,0.036092896,-0.051400132,-1.7457169,0.05419037,0
0.24000000000000007,12.256618353373923,0.1874255490252844,0.3012603534711465,-0.06308810292493611,14.950197,-1.8369877,5.6222596,-1.1474601,12.444071,-11.416585,1.0854802,-0.33320108,0.059981324,-0.0193981,-0.94074583,-3.0751617,2.9296563,0.05942949,-0.014172145,-1.4264908,0.048435476,0
0.25000000000000006,12.256618353373923,0.1874255490252844,0.3012603534711465,-0.06308810292493611,14.950197,-1.8369877,5.6222596,-1.1474601,12.4132595,-11.387242,1.0861923,-0.3331047,0.053913083,-0.017274458,-0.9411886,-3.086934,2.9386413,0.08299681,0.017254485,-1.157048,0.042962987,0
0.26000000000000006,12.256618353373923,0.1874255490252844,0.3012603534711465,-0.06308810292493611,14.950197,-1.8369877,5.6222596,-1.1474601,12.382336,-11.357815,1.0871408,-0.33300838,0.04896177,-0.015697686,-0.9415208,-3.0975685,2.9467254,0.10673229,0.043782894,-0.929625,0.03775903,0
0.2700000000000001,12.256618353373923,0.1874255490252844,0.3012603534711465,-0.06308810292493611,14.950197,-1.8369877,5.6222596,-1.1474601,12.351312,-11.32831,1.0883274,-0.33291814,0.044954043,-0.014582578,-0.9417705,-3.1072626,2.9541128,0.13059059,0.06617682,-0.73766875,0.03281043,0
0.2800000000000001,13.678099629829736,0.3563790723504534,2.5503256770927343,-0.08326673677159203,13.969767,-1.3938253,5.9745994,-0.84826064,12.320194,-11.298735,1.0897529,-0.3328377,0.041743275,-0.013857146,-0.9419577,-3.1161847,2.9609756,0.15453854,0.08508019,-0.5756482,0.028104668,0
0.2900000000000001,13.678099629829736,0.3563790723504534,2.5503256770927343,-0.08326673677159203,13.969767,-1.3938253,5.9745994,-0.84826064,12.288986,-11.269089,1.0914891,-0.3327624,0.040030967,-0.01382374,-0.94205916,-3.1254783,2.9682493,0.19270936,0.12737969,-0.08815401,0.022639638,0
0.3000000000000001,13.678099629829736,0.3563790723504534,2.5503256770927343,-0.08326673677159203,13.969767,-1.3938253,5.9745994,-0.84826064,12.257687,-11.23937,1.0936072,-0.3326884,0.04036665,-0.014718731,-0.94205743,-3.1345067,2.9755232,0.23089805,0.16308704,0.32331535,0.01744277,0
0.3100000000000001,13.678099629829736,0.3563790723504534,2.5503256770927343,-0.08326673677159203,13.969767,-1.3938253,5.9745994,-0.84826064,12.226295,-11.209576,1.096107,-0.33261573,0.042430907,-0.016397052,-0.9419646,-3.1436853,2.9831967,0.26905468,0.19322892,0.6706159,0.01250092,0
0.3200000000000001,15.254055812238752,0.4582260783354493,4.249445962582682,-0.09566851938570702,13.068581,-1.7362952,5.881947,-0.5413638,12.194811,-11.179703,1.0989879,-0.33254132,0.045953702,-0.018736105,-0.941782,-3.1533644,2.991607,0.30713296,0.2186726,0.9637551,0.0078015854,0
0.3300000000000001,15.254055812238752,0.4582260783354493,4.249445962582682,-0.09566851938570702,13.068581,-1.7362952,5.881947,-0.5413638,12.163219,-11.149735,1.1023275,-0.3324496,0.051333424,-0.021896614,-0.9414683,-3.1650805,3.0021548,0.3607559,0.25603306,1.4761561,0.0027242773,0
0.34000000000000014,15.254055812238752,0.4582260783354493,4.249445962582682,-0.09566851938570702,13.068581,-1.7362952,5.881947,-0.5413638,12.131504,-11.119655,1.1062021,-0.3323196,0.05887258,-0.025999947,-0.94096833,-3.1782198,3.0143418,0.41413835,0.28757015,1.9086483,-0.002103874,0
0.35000000000000014,15.254055812238752,0.4582260783354493,4.249445962582682,-0.09566851938570702,13.068581,-1.7362952,5.881947,-0.5413638,12.0996475,-11.089442,1.1106089,-0.3321377,0.068230525,-0.03089705,-0.94025224,-3.19327,3.0286245,0.46715862,0.31419128,2.2736936,-0.006695116,0
0.36000000000000015,15.258814601796354,0.4610696600019061,4.824496728404355,-0.10451893927512453,10.989588,-1.2048056,5.9477963,-0.5710453,12.067631,-11.059074,1.1155435,-0.33188975,0.07911826,-0.03646136,-0.93928695,-3.2106378,3.0453832,0.51967424,0.33666196,2.58181,-0.011061074,0
0.37000000000000016,15.258814601796354,0.4610696600019061,4.824496728404355,-0.10451893927512453,10.989588,-1.2048056,5.9477963,-0.5710453,12.035426,-11.028525,1.1210002,-0.33155388,0.09150576,-0.04266249,-0.9380184,-3.230679,3.0649493,0.57156515,0.35607445,2.9315546,-0.015647095,0
0.38000000000000017,15.258814601796354,0.4610696600019061,4.824496728404355,-0.10451893927512453,10.989588,-1.2048056,5.9477963,-0.5710453,12.003006,-10.997765,1.1269717,-0.3311065,0.105353616,-0.049469378,-0.9363876,-3.2537444,3.0876408,0.62257755,0.37246048,3.2267566,-0.020008074,0
0.3900000000000002,15.258814601796354,0.4610696600019061,4.824496728404355,-0.10451893927512453,10.989588,-1.2048056,5.9477963,-0.5710453,11.970339,-10.966761,1.1334479,-0.33053282,0.1204212,-0.056781113,-0.9343567,-3.2801464,3.1137393,0.6724738,0.38629162,3.475922,-0.024155047,0
0.4000000000000002,14.02377977092101,0.3889972854500221,4.401763315422544,-0.1079927057134475,11.029779,-0.87102973,6.471319,-0.14496166,11.93739,-10.935477,1.1404164,-0.32981986,0.1365029,-0.06451129,-0.93189263,-3.3101356,3.1434693,0.7209943,0.3979658,3.6862307,-0.028098537,0
0.4100000000000002,14.02377977092101,0.3889972854500221,4.401763315422544,-0.1079927057134475,11.029779,-0.87102973,6.471319,-0.14496166,11.904137,-10.903891,1.1478033,-0.32896504,0.15327504,-0.07250324,-0.9289951,-3.3411672,3.174284,0.75613093,0.39657897,3.7978165,-0.032018982,0
0.4200000000000002,14.02377977092101,0.3889972854500221,4.401763315422544,-0.1079927057134475,11.029779,-0.87102973,6.471319,-0.14496166,11.870554,-10.871979,1.1555331,-0.32797006,0.17047161,-0.08062875,-0.92567486,-3.3757598,3.2086585,0.78950757,0.39540812,3.8920007,-0.035747044,0
0.4300000000000002,14.02377977092101,0.3889972854500221,4.401763315422544,-0.1079927057134475,11.029779,-0.87102973,6.471319,-0.14496166,11.836608,-10.839705,1.1635866,-0.3268308,0.1880072,-0.08885741,-0.92192143,-3.4139607,3.2466211,0.8208825,0.3944195,3.971497,-0.03929215,0
0.4400000000000002,14.02377977092101,0.3889972854500221,4.401763315422544,-0.1079927057134475,10.873667,-0.64911985,6.3256993,0.111371525,11.802261,-10.807034,1.171943,-0.3255441,0.20580807,-0.09716276,-0.9177273,-3.455793,3.2881794,0.8500112,0.39358434,4.038596,-0.042663302,0
0.45000000000000023,14.02377977092101,0.3889972854500221,4.401763315422544,-0.1079927057134475,10.873667,-0.64911985,6.3256993,0.111371525,11.767478,-10.773929,1.1805781,-0.3241078,0.22381034,-0.10552168,-0.9130871,-3.5012562,3.333321,0.8766484,0.39287898,4.0952315,-0.045869034,0
0.46000000000000024,14.02377977092101,0.3889972854500221,4.401763315422544,-0.1079927057134475,10.873667,-0.64911985,6.3256993,0.111371525,11.732223,-10.740355,1.1894664,-0.3225205,0.24195848,-0.11391392,-0.90799785,-3.5503306,3.3820171,0.90055,0.39228347,4.143034,-0.048917465,0
0.47000000000000025,14.02377977092101,0.3889972854500221,4.401763315422544,-0.1079927057134475,10.873667,-0.64911985,6.3256993,0.111371525,11.696459,-10.706277,1.198579,-0.32078147,0.2602041,-0.12232169,-0.90245795,-3.6029785,3.4342227,0.92147404,0.39178032,4.183382,-0.0518163,0
0.48000000000000026,12.7346975631041,0.27199973008083606,3.3036875188741917,-0.10483671639358953,10.085615,-2.6087065,6.5779724,0.3786322,11.6601515,-10.671659,1.2078848,-0.3188904,0.27850485,-0.13072924,-0.8964673,-3.6591446,3.489879,0.9391827,0.39135495,4.2174377,-0.05457289,0
0.49000000000000027,12.7346975631041,0.27199973008083606,3.3036875188741917,-0.10483671639358953,10.085615,-2.6087065,6.5779724,0.3786322,11.623291,-10.636496,1.2172989,-0.31689432,0.29644713,-0.13894182,-0.8901641,-3.7132657,3.5434728,0.94312996,0.37274307,4.074939,-0.057039358,0
0.5000000000000002,12.7346975631041,0.27199973008083606,3.3036875188741917,-0.10483671639358953,10.085615,-2.6087065,6.5779724,0.3786322,11.5858755,-10.6007805,1.2267363,-0.3148417,0.31371048,-0.1468087,-0.8836897,-3.7703402,3.5999532,0.9438615,0.35703388,3.9546628,-0.05938479,0
0.5100000000000002,12.7346975631041,0.27199973008083606,3.3036875188741917,-0.10483671639358953,10.085615,-2.6087065,6.5779724,0.3786322,11.547874,-10.564488,1.2361648,-0.31273335,0.33038557,-0.154376,-0.8770468,-3.8301888,3.6591394,0.94131464,0.34377456,3.8531435,-0.061615124,0
0.5200000000000002,12.023928369545379,0.13479064538685212,1.883399033258445,-0.09548450203561928,8.878332,-2.48397,5.719496,0.45664203,11.509262,-10.52759,1.2455511,-0.31056926,0.34654808,-0.16168237,-0.8702355,-3.8926487,3.7208688,0.93542975,0.33258313,3.7674563,-0.063736014,0
0.5300000000000002,12.023928369545379,0.13479064538685212,1.883399033258445,-0.09548450203561928,8.878332,-2.48397,5.719496,0.45664203,11.470031,-10.490079,1.2548368,-0.3084239,0.36178714,-0.16853783,-0.86346954,-3.9539323,3.7813985,0.9212133,0.3017289,3.4736395,-0.065293916,0
0.5400000000000003,12.023928369545379,0.13479064538685212,1.883399033258445,-0.09548450203561928,8.878332,-2.48397,5.719496,0.45664203,11.430176,-10.451953,1.2639648,-0.30636722,0.3757938,-0.1747997,-0.85694987,-4.0173,3.8439496,0.90390974,0.2756875,3.2256432,-0.066775374,0
0.5500000000000003,12.023928369545379,0.13479064538685212,1.883399033258445,-0.09548450203561928,8.878332,-2.48397,5.719496,0.45664203,11.389678,-10.413193,1.2729048,-0.30439037,0.388762,-0.18056071,-0.85065174,-4.082533,3.9083042,0.8836527,0.25370848,3.0163217,-0.06818414,0
0.5600000000000003,11.959847236017664,-0.010029842945927125,0.2637104353442495,-0.08206306690505204,8.834812,-1.7455646,3.9334736,0.331286,11.34852,-10.37378,1.281628,-0.3024838,0.4008537,-0.18589845,-0.84454817,-4.1494465,3.9742794,0.86056143,0.23515783,2.8396437,-0.069523774,0
0.5700000000000003,11.959847236017664,-0.010029842945927125,0.2637104353442495,-0.08206306690505204,8.834812,-1.7455646,3.9334736,0.331286,11.306686,-10.333703,1.2901046,-0.30073637,0.4116778,-0.19063507,-0.8388905,-4.2175064,4.041347,0.8343835,0.1969037,2.43793,-0.070139095,0
0.5800000000000003,11.959847236017664,-0.010029842945927125,0.2637104353442495,-0.08206306690505204,8.834812,-1.7455646,3.9334736,0.331286,11.264165,-10.292949,1.2983074,-0.29922563,0.4209429,-0.19463822,-0.8338987,-4.2868433,4.1096363,0.80579686,0.16461784,2.0988634,-0.07072422,0
0.5900000000000003,11.959847236017664,-0.010029842945927125,0.2637104353442495,-0.08206306690505204,8.834812,-1.7455646,3.9334736,0.331286,11.220944,-10.251507,1.3062134,-0.29792467,0.4289051,-0.1980278,-0.8294976,-4.3572474,4.17894,0.775103,0.13736911,1.8126737,-0.071280636,0
0.6000000000000003,12.815252621073126,-0.12408766666009292,-1.1195795592371223,-0.06605093884087578,8.286322,-1.5791857,2.4988022,0.12240649,11.177015,-10.209366,1.3138032,-0.29680791,0.4357773,-0.20090349,-0.82561547,-4.428549,4.2490907,0.74256533,0.114371754,1.5711149,-0.07180974,0
0.6100000000000003,12.815252621073126,-0.12408766666009292,-1.1195795592371223,-0.06605093884087578,8.286322,-1.5791857,2.4988022,0.12240649,11.132345,-10.166495,1.3210824,-0.29594252,0.44129446,-0.2031479,-0.82244027,-4.505753,4.325008,0.7130131,0.07716435,1.1515044,-0.07152716,0
0.6200000000000003,12.815252621073126,-0.12408766666009292,-1.1195795592371223,-0.06605093884087578,8.286322,-1.5791857,2.4988022,0.12240649,11.086899,-10.122863,1.3280591,-0.29538223,0.44525912,-0.20467386,-0.8201232,-4.5835624,4.401481,0.6821477,0.04576263,0.79733175,-0.07125843,0
0.6300000000000003,12.815252621073126,-0.12408766666009292,-1.1195795592371223,-0.06605093884087578,8.286322,-1.5791857,2.4988022,0.12240649,11.040672,-10.0784645,1.3347222,-0.29508492,0.44792253,-0.20559724,-0.81854737,-4.661794,4.478329,0.65035874,0.019260574,0.4983917,-0.07100289,0
0.6400000000000003,12.815252621073126,-0.12408766666009292,-1.1195795592371223,-0.06605093884087578,8.287949,-1.669893,1.535081,0.44396493,10.993662,-10.033297,1.3410642,-0.29501265,0.44949293,-0.20601422,-0.8176072,-4.740299,4.555405,0.6179799,-0.003106224,0.24607112,-0.070759885,0
0.6500000000000004,12.815252621073126,-0.12408766666009292,-1.1195795592371223,-0.06605093884087578,8.287949,-1.669893,1.535081,0.44396493,10.945866,-9.987356,1.3470806,-0.29513168,0.45014355,-0.20600478,-0.81720865,-4.818956,4.6325874,0.5852952,-0.021983124,0.033099502,-0.07052882,0
0.6600000000000004,12.815252621073126,-0.12408766666009292,-1.1195795592371223,-0.06605093884087578,8.287949,-1.669893,1.535081,0.44396493,10.897283,-9.940644,1.3527699,-0.2954124,0.4500188,-0.2056357,-0.81726885,-4.8976617,4.7097745,0.55254567,-0.0379145,-0.14665943,-0.0703091,0
0.6700000000000004,12.815252621073126,-0.12408766666009292,-1.1195795592371223,-0.06605093884087578,8.287949,-1.669893,1.535081,0.44396493,10.847913,-9.893161,1.3581321,-0.29582906,0.4492393,-0.20496279,-0.81771594,-4.9763317,4.78688,0.51993483,-0.051359963,-0.2983853,-0.07010014,0
0.6800000000000004,14.13350671286303,-0.20448611963896446,-2.1099411323875397,-0.04976349503652658,10.250856,-0.98842865,0.36056948,0.6133591,10.797757,-9.844907,1.3631698,-0.29635942,0.44790617,-0.20403281,-0.81848747,-5.0548935,4.863831,0.48763415,-0.06270764,-0.4264496,-0.06990145,0
0.6900000000000004,14.13350671286303,-0.20448611963896446,-2.1099411323875397,-0.04976349503652658,10.250856,-0.98842865,0.36056948,0.6133591,10.746777,-9.795845,1.3679205,-0.29704887,0.44578826,-0.20274182,-0.81971365,-5.1413407,4.94845,0.46262413,-0.08482925,-0.68898827,-0.06891328,0
0.7000000000000004,14.13350671286303,-0.20448611963896446,-2.1099411323875397,-0.04976349503652658,10.250856,-0.98842865,0.36056948,0.6133591,10.694933,-9.745939,1.372425,-0.29793015,0.44270426,-0.2010084,-0.8214902,-5.227471,5.0326996,0.4384101,-0.10349925,-0.91058433,-0.0679736,0
0.7100000000000004,14.13350671286303,-0.20448611963896446,-2.1099411323875397,-0.04976349503652658,10.250856,-0.98842865,0.36056948,0.6133591,10.642229,-9.695194,1.3766923,-0.2989683,0.4387982,-0.19889852,-0.8237193,-5.31316,5.1164556,0.41526183,-0.11925562,-1.0976228,-0.067080036,0
0.7200000000000004,15.295125096663357,-0.2473091530907128,-2.710180639252833,-0.034699284988220155,10.001354,-0.9193651,-0.721811,0.6792111,10.588672,-9.643614,1.3807346,-0.30013305,0.43419087,-0.19646762,-0.82631654,-5.3982983,5.1996074,0.39340228,-0.1325535,-1.2554927,-0.06623031,0
0.7300000000000004,15.295125096663357,-0.2473091530907128,-2.710180639252833,-0.034699284988220155,10.001354,-0.9193651,-0.721811,0.6792111,10.534232,-9.591171,1.3845973,-0.30143622,0.42878935,-0.1936764,-0.82931626,-5.489726,5.2888246,0.37941477,-0.15045793,-1.4823496,-0.06468308,0
0.7400000000000004,15.295125096663357,-0.2473091530907128,-2.710180639252833,-0.034699284988220155,10.001354,-0.9193651,-0.721811,0.6792111,10.478881,-9.537842,1.3883291,-0.3028832,0.42252207,-0.19049485,-0.83273566,-5.5803056,5.3771334,0.36728314,-0.16556832,-1.6738288,-0.06321177,0
0.7500000000000004,15.295125096663357,-0.2473091530907128,-2.710180639252833,-0.034699284988220155,10.001354,-0.9193651,-0.721811,0.6792111,10.422628,-9.483633,1.39195,-0.30444124,0.41551125,-0.18697828,-0.8364838,-5.6698947,5.464392,0.35723507,-0.17832078,-1.835447,-0.061812658,0
0.7600000000000005,15.760456559820593,-0.2500838419221659,-2.942308804274215,-0.02069268810616034,10.383667,-1.228306,-1.2517856,0.7964599,10.365486,-9.428557,1.3954816,-0.3060824,0.4078599,-0.1831733,-0.84048283,-5.758364,5.550471,0.3494514,-0.18908328,-1.971861,-0.060482185,0
0.7700000000000005,15.760456559820593,-0.2500838419221659,-2.942308804274215,-0.02069268810616034,10.383667,-1.228306,-1.2517856,0.7964599,10.307451,-9.372614,1.3989613,-0.30779767,0.39957675,-0.17909054,-0.84470445,-5.8482447,5.637824,0.3468987,-0.19859946,-2.1232016,-0.058529712,0
0.7800000000000005,15.760456559820593,-0.2500838419221659,-2.942308804274215,-0.02069268810616034,10.383667,-1.228306,-1.2517856,0.7964599,10.248526,-9.315805,1.4024286,-0.30957717,0.39067206,-0.17474003,-0.8491191,-5.9367065,5.7237005,0.3469718,-0.20663051,-2.2509408,-0.056673046,0
0.7900000000000005,15.760456559820593,-0.2500838419221659,-2.942308804274215,-0.02069268810616034,10.383667,-1.228306,-1.2517856,0.7964599,10.188723,-9.258145,1.4059101,-0.3113977,0.3812285,-0.17015754,-0.8536643,-6.0236163,5.80797,0.34978557,-0.21340834,-2.3587594,-0.05490747,0
0.8000000000000005,15.629698516434408,-0.20642640880345434,-2.6805332974912646,-0.0088978271015372,10.382368,-0.4620748,-1.2950324,0.34194487,10.128058,-9.199651,1.409434,-0.3132398,0.37131646,-0.16537346,-0.85828704,-6.1088486,5.8905087,0.35542047,-0.21912846,-2.4497635,-0.053228553,0
0.8100000000000005,15.629698516434408,-0.20642640880345434,-2.6805332974912646,-0.0088978271015372,10.382368,-0.4620748,-1.2950324,0.34194487,10.066555,-9.140345,1.4130241,-0.31507534,0.36108065,-0.16046233,-0.8629023,-6.1915956,5.9705358,0.36303756,-0.21714534,-2.4857523,-0.051053237,0
0.8200000000000005,15.629698516434408,-0.20642640880345434,-2.6805332974912646,-0.0088978271015372,10.382368,-0.4620748,-1.2950324,0.34194487,10.004232,-9.080247,1.4167044,-0.31688252,0.35064125,-0.1554858,-0.8674448,-6.272476,6.0486555,0.37348804,-0.21547137,-2.5161288,-0.04898465,0
0.8300000000000005,15.629698516434408,-0.20642640880345434,-2.6805332974912646,-0.0088978271015372,10.382368,-0.4620748,-1.2950324,0.34194487,9.941112,-9.019378,1.4205034,-0.31865492,0.34002075,-0.15045041,-0.87190014,-6.3514132,6.124798,0.38673848,-0.2140584,-2.5417678,-0.047017574,0
0.8400000000000005,15.629698516434408,-0.20642640880345434,-2.6805332974912646,-0.0088978271015372,11.148638,-0.12364914,-1.375707,0.37932986,9.877212,-8.957758,1.4244487,-0.32038707,0.32923862,-0.1453619,-0.87625575,-6.428332,6.198896,0.4027459,-0.21286568,-2.5634084,-0.04514702,0
0.8500000000000005,15.629698516434408,-0.20642640880345434,-2.6805332974912646,-0.0088978271015372,11.148638,-0.12364914,-1.375707,0.37932986,9.812552,-8.895408,1.4285676,-0.3220745,0.31831175,-0.14022528,-0.8805014,-6.503163,6.2708855,0.42145917,-0.21185894,-2.581674,-0.043368254,0
0.8600000000000005,15.629698516434408,-0.20642640880345434,-2.6805332974912646,-0.0088978271015372,11.148638,-0.12364914,-1.375707,0.37932986,9.747155,-8.832348,1.4328871,-0.32371357,0.30725482,-0.13504493,-0.8846282,-6.575839,6.340705,0.4428199,-0.21100938,-2.5970912,-0.041676786,0
0.8700000000000006,15.629698516434408,-0.20642640880345434,-2.6805332974912646,-0.0088978271015372,11.148638,-0.12364914,-1.375707,0.37932986,9.681043,-8.768601,1.437433,-0.32530117,0.29608062,-0.12982468,-0.88862884,-6.6462975,6.4082956,0.46676335,-0.21029244,-2.6101043,-0.04006832,0
0.8800000000000006,14.345630858890404,-0.15876110643270785,-2.3034383184469904,0.000644512967713656,12.64201,0.13578545,-1.0785418,0.111291654,9.614237,-8.704189,1.442231,-0.3268348,0.28480038,-0.12456797,-0.892497,-6.714478,6.4736004,0.49321932,-0.20968722,-2.621088,-0.038538788,0
0.8900000000000006,14.345630858890404,-0.15876110643270785,-2.3034383184469904,0.000644512967713656,12.64201,0.13578545,-1.0785418,0.111291654,9.546787,-8.639163,1.4472538,-0.32829857,0.27355283,-0.11934477,-0.8961842,-6.774919,6.531398,0.51167387,-0.20174074,-2.5715508,-0.036616065,0
0.9000000000000006,14.345630858890404,-0.15876110643270785,-2.3034383184469904,0.000644512967713656,12.64201,0.13578545,-1.0785418,0.111291654,9.478745,-8.573569,1.4524719,-0.32968205,0.26245078,-0.11421181,-0.8996585,-6.833207,6.5870457,0.53225154,-0.19503407,-2.5297391,-0.034787692,0
0.9100000000000006,14.345630858890404,-0.15876110643270785,-2.3034383184469904,0.000644512967713656,12.64201,0.13578545,-1.0785418,0.111291654,9.4101305,-8.507429,1.4579058,-0.33099052,0.2514683,-0.10915394,-0.90293676,-6.889339,6.640547,0.5548395,-0.1893737,-2.494448,-0.03304902,0
0.9200000000000006,13.087624416571142,-0.10614819270408436,-1.7695357482456082,0.007750951243324445,12.590479,0.59215677,-1.0260476,-0.0046541616,9.340965,-8.440764,1.4635751,-0.33222836,0.24058345,-0.10415834,-0.90603274,-6.943307,6.6919,0.57933265,-0.18459645,-2.4646604,-0.031395674,1
0.9300000000000006,13.087624416571142,-0.10614819270408436,-1.7695357482456082,0.007750951243324445,12.590479,0.59215677,-1.0260476,-0.0046541616,9.271303,-8.373628,1.4694226,-0.33341995,0.23014258,-0.09965706,-0.9088093,-6.988774,6.73511,0.5903974,-0.06345562,-2.2403119,-0.030083457,1
0.9400000000000006,13.087624416571142,-0.10614819270408436,-1.7695357482456082,0.007750951243324445,12.590479,0.59215677,-1.0260476,-0.0046541616,9.201196,-8.306068,1.4753879,-0.33458903,0.22042397,-0.09599504,-0.9111799,-7.0323896,6.7766476,0.60285836,0.038791984,-2.0509498,-0.028835634,1
0.9500000000000006,13.087624416571142,-0.10614819270408436,-1.7695357482456082,0.007750951243324445,12.590479,0.59215677,-1.0260476,-0.0046541616,9.130661,-8.2381,1.4814842,-0.33573735,0.21131769,-0.09304411,-0.9132188,-7.0742126,6.816729,0.6165428,0.12509337,-1.8911184,-0.027649049,1
0.9600000000000006,12.678098326972842,-0.09023600673197593,-1.2304832322919184,0.015200277536691443,11.465868,0.71634245,-0.56604904,-0.007380925,9.059716,-8.169737,1.4877228,-0.3368656,0.20272987,-0.0906953,-0.91498464,-7.1142955,6.85554,0.63130856,0.1979354,-1.7562122,-0.026520688,0
0.9700000000000006,12.678098326972842,-0.09023600673197593,-1.2304832322919184,0.015200277536691443,11.465868,0.71634245,-0.56604904,-0.007380925,8.988378,-8.10099,1.4941177,-0.3379245,0.19459747,-0.08857894,-0.9165659,-7.1529565,6.8934865,0.64783186,0.15299882,-1.6742241,-0.024473432,0
0.9800000000000006,12.678098326972842,-0.09023600673197593,-1.2304832322919184,0.015200277536691443,11.465868,0.71634245,-0.56604904,-0.007380925,8.916662,-8.03187,1.5006825,-0.33887663,0.18686587,-0.08639622,-0.91803044,-7.19,6.9303365,0.66524327,0.11506962,-1.6050223,-0.022526631,0
0.9900000000000007,12.678098326972842,-0.09023600673197593,-1.2304832322919184,0.015200277536691443,11.465868,0.71634245,-0.56604904,-0.007380925,8.8445835,-7.962387,1.5074254,-0.33973792,0.17947264,-0.08415738,-0.9193942,-7.225512,6.9660954,0.6834758,0.08305504,-1.5466126,-0.020675367,0
1.0000000000000007,12.878563506293519,-0.16050826039634955,-0.7160610116673595,0.02874649534069871,11.127478,0.8081244,-0.4411121,-0.03888222,8.772157,-7.892552,1.5143546,-0.3405214,0.1723649,-0.08187098,-0.9206699,-7.2595644,7.000768,0.7024714,0.056032784,-1.497312,-0.018914942,0
1.0100000000000007,12.878563506293519,-0.16050826039634955,-0.7160610116673595,0.02874649534069871,11.127478,0.8081244,-0.4411121,-0.03888222,8.699393,-7.8223724,1.5214866,-0.3412151,0.1656971,-0.07958887,-0.9218366,-7.292743,7.0348945,0.72403777,0.02226692,-1.3754758,-0.016576182,0
1.0200000000000007,12.878563506293519,-0.16050826039634955,-0.7160610116673595,0.02874649534069871,11.127478,0.8081244,-0.4411121,-0.03888222,8.626306,-7.7518573,1.5288376,-0.34181172,0.1595901,-0.0773529,-0.92288274,-7.3246245,7.067968,0.74625105,-0.0062337634,-1.2726401,-0.014352185,0
1.0300000000000007,12.878563506293519,-0.16050826039634955,-0.7160610116673595,0.02874649534069871,11.127478,0.8081244,-0.4411121,-0.03888222,8.552904,-7.6810164,1.5364137,-0.34232685,0.15395711,-0.075156204,-0.92382973,-7.3553233,7.100035,0.76904273,-0.03029032,-1.1858417,-0.012237318,0
1.0400000000000007,12.878563506293519,-0.16050826039634955,-0.7160610116673595,0.02874649534069871,11.189032,0.95679736,-0.020763919,-0.018038474,8.479202,-7.60986,1.5442202,-0.34277326,0.14872463,-0.07299289,-0.9246944,-7.3849387,7.1311374,0.7923559,-0.05059576,-1.1125796,-0.010226214,0
1.0500000000000007,12.878563506293519,-0.16050826039634955,-0.7160610116673595,0.02874649534069871,11.189032,0.95679736,-0.020763919,-0.018038474,8.405209,-7.538397,1.5522624,-0.34316143,0.14383043,-0.07085791,-0.9254904,-7.413553,7.161309,0.816143,-0.06773478,-1.0507427,-0.0083138095,0
1.0600000000000007,12.878563506293519,-0.16050826039634955,-0.7160610116673595,0.02874649534069871,11.189032,0.95679736,-0.020763919,-0.018038474,8.330934,-7.466637,1.5605446,-0.34349996,0.13922185,-0.06874695,-0.92622846,-7.4412374,7.190579,0.84036404,-0.082201235,-0.9985494,-0.006495243,0
1.0700000000000007,12.878563506293519,-0.16050826039634955,-0.7160610116673595,0.02874649534069871,11.189032,0.95679736,-0.020763919,-0.018038474,8.256387,-7.3945885,1.569071,-0.34379584,0.13485436,-0.06665632,-0.92691743,-7.4680514,7.2189727,0.8649851,-0.09441191,-0.95449555,-0.0047659283,0
1.0800000000000007,12.772070212096859,-0.1973488083649067,-0.4135801215233182,0.04061016281329321,11.194775,1.1631858,0.18852647,-0.12980542,8.181575,-7.3222604,1.5778456,-0.34405488,0.13069035,-0.06458289,-0.9275643,-7.4940443,7.2465105,0.88997716,-0.10471856,-0.9173121,-0.0031214685,0
1.0900000000000007,12.772070212096859,-0.1973488083649067,-0.4135801215233182,0.04061016281329321,11.194775,1.1631858,0.18852647,-0.12980542,8.106509,-7.2496624,1.5868667,-0.34427097,0.12681532,-0.0625522,-0.92816097,-7.519056,7.2729936,0.9142927,-0.119162835,-0.83875537,-0.0009755467,0
1.1000000000000008,12.772070212096859,-0.1973488083649067,-0.4135801215233182,0.04061016281329321,11.194775,1.1631858,0.18852647,-0.12980542,8.031196,-7.176804,1.5961325,-0.34444013,0.12329559,-0.060584437,-0.9287028,-7.5433736,7.2986875,0.9389158,-0.1313547,-0.7724496,0.0010650667,0
1.1100000000000008,12.772070212096859,-0.1973488083649067,-0.4135801215233182,0.04061016281329321,11.194775,1.1631858,0.18852647,-0.12980542,7.955643,-7.1036916,1.605646,-0.3445693,0.12007592,-0.058669936,-0.9291995,-7.5670695,7.323633,0.9638147,-0.14164552,-0.7164843,0.003005557,0
1.1200000000000008,12.129107305199476,-0.2012532711416223,-0.1910021481508518,0.04924578878440001,11.029177,1.4055618,0.26719373,-0.15889305,7.879856,-7.0303335,1.6154097,-0.34466425,0.1171096,-0.056800503,-0.9296589,-7.5902047,7.3478646,0.9889628,-0.15033172,-0.6692466,0.004850818,0
1.1300000000000008,12.129107305199476,-0.2012532711416223,-0.1910021481508518,0.04924578878440001,11.029177,1.4055618,0.26719373,-0.15889305,7.8038464,-6.9567423,1.6253949,-0.3447236,0.11444046,-0.054998584,-0.9300775,-7.6116953,7.370228,1.0081211,-0.15827225,-0.59466493,0.007029293,0
1.1400000000000008,12.129107305199476,-0.2012532711416223,-0.1910021481508518,0.04924578878440001,11.029177,1.4055618,0.26719373,-0.15889305,7.727624,-6.8829308,1.6355728,-0.34474677,0.11210132,-0.053281646,-0.9304537,-7.6327715,7.3919864,1.0274683,-0.16497469,-0.5317141,0.00910086,0
1.1500000000000008,12.129107305199476,-0.2012532711416223,-0.1910021481508518,0.04924578878440001,11.029177,1.4055618,0.26719373,-0.15889305,7.651192,-6.8089046,1.645945,-0.34473893,0.11004081,-0.051636565,-0.93079525,-7.653495,7.4131827,1.0469811,-0.17063187,-0.47858053,0.011070779,0
1.1600000000000008,10.926373437315426,-0.1840623220070688,-0.2878467969108891,0.05212523746480488,10.242039,1.1979276,-0.09984057,-0.2929675,7.574555,-6.7346697,1.6565129,-0.3447044,0.10821555,-0.05005224,-0.93110853,-7.6739182,7.4338527,1.0666401,-0.17540698,-0.43373308,0.012944043,0
1.1700000000000008,10.926373437315426,-0.1840623220070688,-0.2878467969108891,0.05212523746480488,10.242039,1.1979276,-0.09984057,-0.2929675,7.497725,-6.6602397,1.6672198,-0.34464908,0.1065504,-0.048512366,-0.9314025,-7.692085,7.4520235,1.0747397,-0.17675649,-0.41098237,0.014866666,0
1.1800000000000008,10.926373437315426,-0.1840623220070688,-0.2878467969108891,0.05212523746480488,10.242039,1.1979276,-0.09984057,-0.2929675,7.4207144,-6.5856304,1.678008,-0.34457758,0.10498387,-0.047003537,-0.93168414,-7.710043,7.4697623,1.0829476,-0.17789555,-0.39177963,0.016694946,0
1.1900000000000008,10.926373437315426,-0.1840623220070688,-0.2878467969108891,0.05212523746480488,10.242039,1.1979276,-0.09984057,-0.2929675,7.343525,-6.5108457,1.6888789,-0.34449148,0.10350054,-0.04552098,-0.9319555,-7.7278085,7.4870815,1.091257,-0.17885691,-0.3755715,0.018433522,0
1.2000000000000008,9.710418817322047,-0.14030095454372143,-0.5540469122147506,0.046304233563446984,10.180471,1.1531523,0.08148964,-0.31265455,7.266158,-6.4358897,1.6998333,-0.3443921,0.10208737,-0.044060666,-0.9322183,-7.7453957,7.5039916,1.0996618,-0.17966843,-0.36189115,0.020086788,0
1.2100000000000009,9.710418817322047,-0.14030095454372143,-0.5540469122147506,0.046304233563446984,10.180471,1.1531523,0.08148964,-0.31265455,7.188627,-6.360776,1.710813,-0.34428766,0.10062804,-0.04259875,-0.9324835,-7.760873,7.5186615,1.0962952,-0.17352849,-0.3918578,0.021373287,0
1.2200000000000009,9.710418817322047,-0.14030095454372143,-0.5540469122147506,0.046304233563446984,10.180471,1.1531523,0.08148964,-0.31265455,7.110941,-6.285517,1.7217596,-0.34418455,0.09902973,-0.04111615,-0.93275917,-7.7761807,7.5329647,1.0930125,-0.16834596,-0.41715118,0.022596657,0
1.2300000000000009,9.710418817322047,-0.14030095454372143,-0.5540469122147506,0.046304233563446984,10.180471,1.1531523,0.08148964,-0.31265455,7.0331035,-6.210118,1.7326736,-0.34408128,0.09731394,-0.03961612,-0.93304276,-7.7912965,7.5468884,1.0898168,-0.16397165,-0.4384999,0.023760004,0
1.2400000000000009,9.710418817322047,-0.14030095454372143,-0.5540469122147506,0.046304233563446984,9.922895,1.2101904,-0.18545716,-0.34284824,6.955116,-6.134581,1.7435561,-0.34397668,0.095498845,-0.038101412,-0.9333319,-7.806201,7.5604224,1.0867109,-0.16027954,-0.45651934,0.024866259,0
1.2500000000000009,9.710418817322047,-0.14030095454372143,-0.5540469122147506,0.046304233563446984,9.922895,1.2101904,-0.18545716,-0.34284824,6.8769803,-6.058911,1.7544081,-0.3438698,0.09359979,-0.036574334,-0.93362474,-7.8208785,7.5735574,1.0836964,-0.15716332,-0.47172883,0.025918236,0
1.260000000000001,9.710418817322047,-0.14030095454372143,-0.5540469122147506,0.046304233563446984,9.922895,1.2101904,-0.18545716,-0.34284824,6.7987,-5.983111,1.7652304,-0.3437599,0.091629714,-0.035036836,-0.9339195,-7.8353148,7.5862865,1.080774,-0.15453325,-0.48456648,0.02691858,0
1.270000000000001,9.710418817322047,-0.14030095454372143,-0.5540469122147506,0.046304233563446984,9.922895,1.2101904,-0.18545716,-0.34284824,6.7202754,-5.907186,1.7760239,-0.3436464,0.089599565,-0.033490553,-0.9342149,-7.8494987,7.5986032,1.0779437,-0.15231323,-0.49540195,0.027869847,0
1.280000000000001,8.949254391367402,-0.1043448895214051,-0.9090591730319564,0.03625134123904389,9.210316,0.83027095,-0.60491043,-0.30017054,6.6417103,-5.8311405,1.7867895,-0.3435288,0.087518595,-0.031936873,-0.9345097,-7.8634195,7.6105022,1.0752052,-0.15043965,-0.5045478,0.02877442,1
1.290000000000001,8.949254391367402,-0.1043448895214051,-0.9090591730319564,0.03625134123904389,9.210316,0.83027095,-0.60491043,-0.30017054,6.5630107,-5.7549806,1.7975037,-0.34348124,0.08524352,-0.030729262,-0.9347779,-7.8763556,7.621399,1.0676419,0.0024964474,-0.5201964,0.01263299,1
1.300000000000001,8.949254391367402,-0.1043448895214051,-0.9090591730319564,0.03625134123904389,9.210316,0.83027095,-0.60491043,-0.30017054,6.484184,-5.6787133,1.8081427,-0.34356716,0.08266135,-0.030147592,-0.9349972,-7.888944,7.6319795,1.0601649,0.13158229,-0.53340775,-0.0027163655,1
1.310000000000001,8.949254391367402,-0.1043448895214051,-0.9090591730319564,0.03625134123904389,9.210316,0.83027095,-0.60491043,-0.30017054,6.405233,-5.6023417,1.8187073,-0.34377137,0.07981999,-0.03009379,-0.9351707,-7.9010973,7.6423283,1.0527742,0.24053724,-0.54456097,-0.017312536,1
1.320000000000001,8.32972817946192,-0.08024373578682134,-1.0087143482294638,0.02771599887964933,8.451829,1.1534047,-0.8261635,-0.46000475,6.3261633,-5.525867,1.8291985,-0.3440807,0.0767598,-0.030485077,-0.93530047,-7.9127398,7.6525164,1.0454686,0.33250085,-0.5539763,-0.031192457,0
1.330000000000001,8.32972817946192,-0.08024373578682134,-1.0087143482294638,0.02771599887964933,8.451829,1.1534047,-0.8261635,-0.46000475,6.246985,-5.4492965,1.8395735,-0.34442303,0.073487855,-0.030858234,-0.935425,-7.9227543,7.661626,1.0295582,0.26813325,-0.6248906,-0.028301807,0
1.340000000000001,8.32972817946192,-0.08024373578682134,-1.0087143482294638,0.02771599887964933,8.451829,1.1534047,-0.8261635,-0.46000475,6.16771,-5.3726354,1.84979,-0.34473646,0.07001147,-0.030842766,-0.9355767,-7.932234,7.670583,1.013728,0.21380419,-0.6847463,-0.025553007,0
1.350000000000001,8.32972817946192,-0.08024373578682134,-1.0087143482294638,0.02771599887964933,8.451829,1.1534047,-0.8261635,-0.46000475,6.088342,-5.2958856,1.8598484,-0.3450238,0.06636233,-0.030499127,-0.935748,-7.9411693,7.6793175,0.9979825,0.16794792,-0.7352678,-0.022939077,0
1.360000000000001,8.051261432404324,-0.18702452225205357,-1.0689267077208067,0.04282684753276278,7.2604923,0.70475066,-1.0750967,-0.43679816,6.0088887,-5.2190495,1.8697499,-0.34528744,0.062567174,-0.029878348,-0.9359322,-7.949554,7.6877737,0.98232394,0.12924312,-0.7779108,-0.0204534,1
1.370000000000001,8.051261432404324,-0.18702452225205357,-1.0689267077208067,0.04282684753276278,7.2604923,0.70475066,-1.0750967,-0.43679816,5.929359,-5.142136,1.8794423,-0.34560278,0.058516897,-0.02930482,-0.93609595,-7.956369,7.694865,0.9561594,0.21898149,-0.82426095,-0.040883552,1
1.380000000000001,8.051261432404324,-0.18702452225205357,-1.0689267077208067,0.04282684753276278,7.2604923,0.70475066,-1.0750967,-0.43679816,5.8497634,-5.0651526,1.8888735,-0.34603554,0.054126244,-0.029037641,-0.93620855,-7.962638,7.701689,0.93007034,0.29472497,-0.86338437,-0.060311195,1
1.390000000000001,8.051261432404324,-0.18702452225205357,-1.0689267077208067,0.04282684753276278,7.2604923,0.70475066,-1.0750967,-0.43679816,5.770108,-4.988103,1.8980441,-0.3465739,0.049448173,-0.029028628,-0.93626845,-7.9683022,7.708267,0.9040541,0.35865614,-0.8964074,-0.07878551,1
1.400000000000001,8.063450413914286,-0.2830424465950458,-0.7830390068524663,0.06503465016978616,8.582483,0.5055955,-0.20601468,-0.3684015,5.6903996,-4.9109883,1.9069548,-0.34720746,0.04452743,-0.029237164,-0.9362742,-7.9733114,7.7146206,0.8781065,0.41261733,-0.92428136,-0.09635329,1
1.410000000000001,8.063450413914286,-0.2830424465950458,-0.7830390068524663,0.06503465016978616,8.582483,0.5055955,-0.20601468,-0.3684015,5.61064,-4.8338056,1.9156721,-0.34790593,0.03975495,-0.029675642,-0.93621594,-7.978421,7.721889,0.8653698,0.42711696,-0.8122726,-0.10970278,1
1.420000000000001,8.063450413914286,-0.2830424465950458,-0.7830390068524663,0.06503465016978616,8.582483,0.5055955,-0.20601468,-0.3684015,5.5308332,-4.7565513,1.9242623,-0.34864527,0.03544269,-0.03035257,-0.9360923,-7.9827566,7.728973,0.85269153,0.43935633,-0.7177315,-0.12239721,1
1.430000000000001,8.063450413914286,-0.2830424465950458,-0.7830390068524663,0.06503465016978616,8.582483,0.5055955,-0.20601468,-0.3684015,5.4509873,-4.6792264,1.932726,-0.34942502,0.031519122,-0.031231062,-0.93591297,-7.9863734,7.7359333,0.84005696,0.4496875,-0.6379338,-0.1344687,1
1.440000000000001,8.063450413914286,-0.2830424465950458,-0.7830390068524663,0.06503465016978616,8.6430435,0.4922677,0.12661262,-0.32698178,5.371108,-4.601833,1.9410635,-0.35024443,0.02792382,-0.03227993,-0.9356852,-7.989319,7.742821,0.8274541,0.45840797,-0.57058036,-0.14594786,1
1.450000000000001,8.063450413914286,-0.2830424465950458,-0.7830390068524663,0.06503465016978616,8.6430435,0.4922677,0.12661262,-0.32698178,5.2912025,-4.5243707,1.9492782,-0.35109326,0.024732023,-0.03351465,-0.9354134,-7.9916515,7.7497315,0.81547606,0.463696,-0.4618566,-0.15483123,1
1.460000000000001,8.063450413914286,-0.2830424465950458,-0.7830390068524663,0.06503465016978616,8.6430435,0.4922677,0.12661262,-0.32698178,5.211277,-4.4468384,1.9573731,-0.35196248,0.022000665,-0.034946237,-0.9351026,-7.993411,7.7566724,0.8035092,0.46815884,-0.3700882,-0.1632787,1
1.470000000000001,8.063450413914286,-0.2830424465950458,-0.7830390068524663,0.06503465016978616,8.6430435,0.4922677,0.12661262,-0.32698178,5.1313367,-4.3692365,1.9653484,-0.3528525,0.019658038,-0.03654433,-0.9347582,-7.9946566,7.7636995,0.7915444,0.47192514,-0.29263097,-0.17131166,1
1.480000000000001,7.695183655526347,-0.4914264070902821,-0.5098961994421126,0.11732430371649248,9.669449,0.5455154,0.28507096,-0.24427786,5.0513854,-4.2915635,1.973204,-0.3537635,0.01764361,-0.038283248,-0.93438435,-7.995436,7.77086,0.77957404,0.47510368,-0.22725272,-0.17895041,0
1.490000000000001,7.695183655526347,-0.4914264070902821,-0.5098961994421126,0.11732430371649248,9.669449,0.5455154,0.28507096,-0.24427786,4.9714293,-4.2138224,1.9808927,-0.35464734,0.015805628,-0.03968422,-0.9340237,-7.9957547,7.777373,0.758149,0.32437104,-0.27131015,-0.16441213,0
1.500000000000001,7.695183655526347,-0.4914264070902821,-0.5098961994421126,0.11732430371649248,9.669449,0.5455154,0.28507096,-0.24427786,4.8914714,-4.136016,1.988367,-0.3554601,0.014021324,-0.04036664,-0.933714,-7.995745,7.7839475,0.73671937,0.19714667,-0.30850196,-0.15058725,0
1.5100000000000011,7.695183655526347,-0.4914264070902821,-0.5098961994421126,0.11732430371649248,9.669449,0.5455154,0.28507096,-0.24427786,4.8115153,-4.0581436,1.995627,-0.35620716,0.012282501,-0.04044261,-0.9334504,-7.995452,7.790489,0.7152919,0.089763865,-0.33989796,-0.13744077,0
1.5200000000000011,7.505319040702147,-0.7097780839832483,-0.07611769503866164,0.17470877462357412,9.795446,0.14415263,0.42746264,-0.04522627,4.731563,-3.9802065,2.002673,-0.35689285,0.010582161,-0.040006712,-0.9332281,-7.994913,7.7969193,0.6938727,-0.00087190606,-0.36640102,-0.12493937,0
1.5300000000000011,7.505319040702147,-0.7097780839832483,-0.07611769503866164,0.17470877462357412,9.795446,0.14415263,0.42746264,-0.04522627,4.6516175,-3.9022064,2.009495,-0.35750642,0.009107269,-0.039119273,-0.9330464,-7.9941854,7.803017,0.6705741,-0.111418605,-0.32112348,-0.11023555,0
1.5400000000000011,7.505319040702147,-0.7097780839832483,-0.07611769503866164,0.17470877462357412,9.795446,0.14415263,0.42746264,-0.04522627,4.5716796,-3.8241467,2.0160844,-0.35803908,0.008005641,-0.037832357,-0.9329053,-7.993323,7.8088975,0.6472916,-0.20472707,-0.28291,-0.09625324,0
1.5500000000000012,7.505319040702147,-0.7097780839832483,-0.07611769503866164,0.17470877462357412,9.795446,0.14415263,0.42746264,-0.04522627,4.491751,-3.7460294,2.0224411,-0.35849687,0.0072190478,-0.036208384,-0.9328004,-7.992397,7.814526,0.6240276,-0.28348535,-0.25065842,-0.08295705,0
1.5600000000000012,7.783743049991977,-0.7670465833608959,0.26797131062520946,0.21668308436038325,9.313719,-0.0126540875,0.35682207,0.106305964,4.411832,-3.6678572,2.0285652,-0.3588848,0.0066983267,-0.03429999,-0.9327272,-7.9914656,7.8198757,0.600784,-0.34996215,-0.22343819,-0.07031332,0
1.5700000000000012,7.783743049991977,-0.7670465833608959,0.26797131062520946,0.21668308436038325,9.313719,-0.0126540875,0.35682207,0.106305964,4.331922,-3.589632,2.0344708,-0.3591977,0.006538467,-0.03217968,-0.93268347,-7.990551,7.8251114,0.58033967,-0.41500145,-0.14680402,-0.05623032,0
1.5800000000000012,7.783743049991977,-0.7670465833608959,0.26797131062520946,0.21668308436038325,9.313719,-0.0126540875,0.35682207,0.106305964,4.2520204,-3.5113559,2.040172,-0.35943142,0.0068125934,-0.029907241,-0.9326671,-7.9897575,7.8300314,0.5599173,-0.4698995,-0.082122184,-0.042838383,0
1.5900000000000012,7.783743049991977,-0.7670465833608959,0.26797131062520946,0.21668308436038325,9.313719,-0.0126540875,0.35682207,0.106305964,4.172126,-3.4330325,2.045669,-0.3595915,0.0074529774,-0.027506491,-0.93267435,-7.989154,7.834637,0.53951585,-0.51623756,-0.027528275,-0.030103581,0
1.6000000000000012,8.539367337677954,-0.6486135427763198,0.6418835144701451,0.2390069703048105,9.31802,-0.19133897,0.5196666,0.36798528,4.0922365,-3.3546643,2.0509624,-0.35968277,0.00840246,-0.024997523,-0.9327017,-7.9887967,7.8389316,0.51913375,-0.55535024,0.018551072,-0.017993681,1
1.6100000000000012,8.539367337677954,-0.6486135427763198,0.6418835144701451,0.2390069703048105,9.31802,-0.19133897,0.5196666,0.36798528,4.012349,-3.2762508,2.0561285,-0.35969162,0.009623423,-0.022648584,-0.9327465,-7.988719,7.8437104,0.51409113,-0.49858314,0.09669286,0.00094643375,1
1.6200000000000012,8.539367337677954,-0.6486135427763198,0.6418835144701451,0.2390069703048105,9.31802,-0.19133897,0.5196666,0.36798528,3.9324608,-3.197791,2.0612442,-0.35960636,0.011083575,-0.020673225,-0.9328091,-7.989017,7.848194,0.50906277,-0.45067048,0.16265006,0.018957134,1
1.6300000000000012,8.539367337677954,-0.6486135427763198,0.6418835144701451,0.2390069703048105,9.31802,-0.19133897,0.5196666,0.36798528,3.8525674,-3.119288,2.0663097,-0.3594332,0.0127456,-0.019013397,-0.93288994,-7.989708,7.8524594,0.5040426,-0.41023088,0.21832249,0.03608405,1
1.6400000000000012,8.539367337677954,-0.6486135427763198,0.6418835144701451,0.2390069703048105,10.310753,-0.015725158,0.49521667,0.4477463,3.7726653,-3.0407429,2.071325,-0.35917765,0.014578004,-0.017620102,-0.9329889,-7.9908047,7.85657,0.49902555,-0.37609878,0.26531363,0.052370533,0
1.6500000000000012,8.539367337677954,-0.6486135427763198,0.6418835144701451,0.2390069703048105,10.310753,-0.015725158,0.49521667,0.4477463,3.6927507,-2.9621587,2.0762513,-0.35885572,0.016665818,-0.01629856,-0.9331018,-7.9921975,7.8602405,0.48622885,-0.41860127,0.32403558,0.06152885,0
1.6600000000000013,8.539367337677954,-0.6486135427763198,0.6418835144701451,0.2390069703048105,10.310753,-0.015725158,0.49521667,0.4477463,3.61282,-2.8835382,2.0810497,-0.35848188,0.019074978,-0.014892157,-0.9332229,-7.9940276,7.86383,0.47342733,-0.45447552,0.37359977,0.070237756,0
1.6700000000000013,8.539367337677954,-0.6486135427763198,0.6418835144701451,0.2390069703048105,10.310753,-0.015725158,0.49521667,0.4477463,3.5328686,-2.8048823,2.0857198,-0.35805872,0.021755258,-0.013414167,-0.93334913,-7.9963474,7.867344,0.46061698,-0.4847555,0.41543454,0.07851932,0
1.6800000000000013,9.417473986513498,-0.5125381847295104,0.9643991884443267,0.24125578514084753,10.046856,-0.12498357,-0.041585013,0.2884133,3.4528913,-2.7261913,2.090262,-0.35758856,0.024664246,-0.011875822,-0.93347794,-7.999202,7.870786,0.44779328,-0.5103133,0.45074514,0.086394496,0
1.6900000000000013,9.417473986513498,-0.5125381847295104,0.9643991884443267,0.24125578514084753,10.046856,-0.12498357,-0.041585013,0.2884133,3.372881,-2.6474648,2.0947194,-0.35707316,0.027867166,-0.010383598,-0.9336029,-8.002983,7.8745136,0.443718,-0.51066726,0.53084666,0.0939936,0
1.7000000000000013,9.417473986513498,-0.5125381847295104,0.9643991884443267,0.24125578514084753,10.046856,-0.12498357,-0.041585013,0.2884133,3.2928293,-2.5687013,2.099136,-0.35651436,0.031413883,-0.009022311,-0.933718,-8.00745,7.8782086,0.43961388,-0.51096594,0.5984566,0.10121982,0
1.7100000000000013,9.417473986513498,-0.5125381847295104,0.9643991884443267,0.24125578514084753,10.046856,-0.12498357,-0.041585013,0.2884133,3.2127292,-2.4899006,2.1035116,-0.3559142,0.035250656,-0.0077715856,-0.9338213,-8.0126505,7.8819146,0.43547156,-0.51121783,0.6555228,0.10809142,0
1.7200000000000013,10.82517263083742,-0.31089233069687827,1.2048984889594325,0.21944712151657925,10.222,-0.1999674,-0.28549904,0.31163344,3.1325736,-2.4110627,2.1078455,-0.3552744,0.039332077,-0.006614251,-0.93391085,-8.018626,7.8856673,0.43128133,-0.51143014,0.70368963,0.11462584,0
1.7300000000000013,10.82517263083742,-0.31089233069687827,1.2048984889594325,0.21944712151657925,10.222,-0.1999674,-0.28549904,0.31163344,3.0523493,-2.332184,2.1122072,-0.35460165,0.043681048,-0.005645275,-0.93397963,-8.026424,7.8900733,0.44106144,-0.4801647,0.7818535,0.119769454,0
1.7400000000000013,10.82517263083742,-0.31089233069687827,1.2048984889594325,0.21944712151657925,10.222,-0.1999674,-0.28549904,0.31163344,2.972042,-2.2532609,2.1166666,-0.35390213,0.048313744,-0.0049390933,-0.9340208,-8.035193,7.89464,0.4507603,-0.45377466,0.8478277,0.12466067,0
1.7500000000000013,10.82517263083742,-0.31089233069687827,1.2048984889594325,0.21944712151657925,10.222,-0.1999674,-0.28549904,0.31163344,2.8916423,-2.174291,2.1212223,-0.35317636,0.05318566,-0.0044547315,-0.9340333,-8.044966,7.8994365,0.46036282,-0.43149948,0.9035132,0.12931186,0
1.7600000000000013,11.65090461293241,-0.055836214573328206,1.1259660299109382,0.17816383533309546,10.540724,-0.5694717,0.30204934,0.5832716,2.8111396,-2.0952713,2.1258736,-0.35242468,0.058259178,-0.004157634,-0.93401587,-8.055772,7.9045196,0.46985334,-0.4126976,0.95051455,0.13373482,0
1.7700000000000014,11.65090461293241,-0.055836214573328206,1.1259660299109382,0.17816383533309546,10.540724,-0.5694717,0.30204934,0.5832716,2.730519,-2.0161974,2.13066,-0.35165843,0.06343705,-0.00410257,-0.9339676,-8.068535,7.9103546,0.48741353,-0.35704908,0.9778804,0.13591498,0
1.7800000000000014,11.65090461293241,-0.055836214573328206,1.1259660299109382,0.17816383533309546,10.540724,-0.5694717,0.30204934,0.5832716,2.6497653,-1.937063,2.1356215,-0.35088825,0.06864069,-0.0043314034,-0.93388826,-8.082422,7.9166145,0.5048218,-0.31007856,1.0009781,0.13798815,0
1.7900000000000014,11.65090461293241,-0.055836214573328206,1.1259660299109382,0.17816383533309546,10.540724,-0.5694717,0.30204934,0.5832716,2.5688672,-1.8578634,2.1407561,-0.35011318,0.07386576,-0.004799864,-0.93377817,-8.097418,7.9233594,0.5220642,-0.27043262,1.020473,0.13995957,0
1.8000000000000014,11.867324957785643,0.1958869112186633,0.7508499719383591,0.125931338735153,11.242672,-0.8208496,-0.6649489,0.68939275,2.4878132,-1.7785939,2.1460624,-0.34933227,0.07910856,-0.005470582,-0.9336375,-8.113506,7.9306364,0.53912693,-0.23696928,1.0369273,0.14183427,0
1.8100000000000014,11.867324957785643,0.1958869112186633,0.7508499719383591,0.125931338735153,11.242672,-0.8208496,-0.6649489,0.68939275,2.4065914,-1.699248,2.1515489,-0.3485597,0.0841907,-0.0063531618,-0.9334762,-8.130984,7.938631,0.558133,-0.16946103,0.99231994,0.1410539,0
1.8200000000000014,11.867324957785643,0.1958869112186633,0.7508499719383591,0.125931338735153,11.242672,-0.8208496,-0.6649489,0.68939275,2.3251898,-1.6198192,2.1572244,-0.34780908,0.08897091,-0.0074535995,-0.93330467,-8.14948,7.947236,0.57693934,-0.112481266,0.9546681,0.14031184,0
1.8300000000000014,11.867324957785643,0.1958869112186633,0.7508499719383591,0.125931338735153,11.242672,-0.8208496,-0.6649489,0.68939275,2.2435985,-1.5403012,2.163087,-0.34707817,0.093496226,-0.0087379115,-0.9331233,-8.168913,7.956471,0.59554535,-0.06438809,0.9228873,0.13960618,0
1.8400000000000014,11.867324957785643,0.1958869112186633,0.7508499719383591,0.125931338735153,11.212156,-0.73613894,-1.0766201,0.70271736,2.1618087,-1.4606875,2.1691346,-0.34636477,0.09780634,-0.010177394,-0.93293196,-8.1892185,7.9663534,0.61395,-0.023795448,0.89606196,0.13893515,0
1.8500000000000014,11.867324957785643,0.1958869112186633,0.7508499719383591,0.125931338735153,11.212156,-0.73613894,-1.0766201,0.70271736,2.0798116,-1.3809718,2.1753654,-0.3456668,0.10193468,-0.011747802,-0.9327304,-8.210336,7.9768977,0.6321519,0.010466327,0.87341934,0.13829707,0
1.8600000000000014,11.867324957785643,0.1958869112186633,0.7508499719383591,0.125931338735153,11.212156,-0.73613894,-1.0766201,0.70271736,1.9975994,-1.3011473,2.1817772,-0.34498224,0.10590944,-0.013428654,-0.93251824,-8.232218,7.988116,0.6501491,0.039384626,0.8543073,0.13769029,0
1.8700000000000014,11.867324957785643,0.1958869112186633,0.7508499719383591,0.125931338735153,11.212156,-0.73613894,-1.0766201,0.70271736,1.9151647,-1.2212073,2.188368,-0.34430918,0.10975437,-0.015202653,-0.9322951,-8.254827,8.000018,0.66793925,0.0637927,0.8381753,0.13711327,0
1.8800000000000014,11.595341953670708,0.3367791095201674,0.10651975032384507,0.08078231799418832,9.451118,-0.9480312,-1.1794434,1.0101125,1.8325005,-1.1411446,2.1951354,-0.34364593,0.11348952,-0.01705519,-0.9320605,-8.278124,8.012612,0.6855193,0.08439433,0.8245589,0.13656457,0
1.8900000000000015,11.595341953670708,0.3367791095201674,0.10651975032384507,0.08078231799418832,9.451118,-0.9480312,-1.1794434,1.0101125,1.7496027,-1.0609542,2.2020643,-0.34300736,0.11687225,-0.018937308,-0.93184125,-8.301521,8.025594,0.7002427,0.1237647,0.7125844,0.1338273,0
1.9000000000000015,11.595341953670708,0.3367791095201674,0.10651975032384507,0.08078231799418832,9.451118,-0.9480312,-1.1794434,1.0101125,1.6664681,-0.9806306,2.2091396,-0.34240744,0.11971156,-0.02080968,-0.9316615,-8.325453,8.039216,0.71477866,0.15699358,0.6180715,0.13122438,0
1.9100000000000015,11.595341953670708,0.3367791095201674,0.10651975032384507,0.08078231799418832,9.451118,-0.9480312,-1.1794434,1.0101125,1.5830921,-0.90016776,2.2163594,-0.34184298,0.12209249,-0.022673843,-0.9315163,-8.349809,8.053436,0.7291495,0.18503863,0.53829736,0.12874916,0
1.9200000000000015,10.785336876073128,0.376151598385297,-0.7109519652257197,0.04824101399956106,9.104748,-0.98951995,-1.66595,0.95244604,1.4994707,-0.8195599,2.223722,-0.34131092,0.12408674,-0.024531059,-0.93140084,-8.374497,8.068219,0.7433751,0.20870891,0.47096363,0.1263954,0
1.9300000000000015,10.785336876073128,0.376151598385297,-0.7109519652257197,0.04824101399956106,9.104748,-0.98951995,-1.66595,0.95244604,1.4156098,-0.7388069,2.231187,-0.34082228,0.12544481,-0.02628497,-0.93135,-8.397688,8.082457,0.74963886,0.23483749,0.28664607,0.12256033,0
1.9400000000000015,10.785336876073128,0.376151598385297,-0.7109519652257197,0.04824101399956106,9.104748,-0.98951995,-1.66595,0.95244604,1.3315167,-0.65790945,2.2387145,-0.340387,0.12597229,-0.027859392,-0.9313922,-8.420966,8.097096,0.7558278,0.25688815,0.13107237,0.11891346,0
1.9500000000000015,10.785336876073128,0.376151598385297,-0.7109519652257197,0.04824101399956106,9.104748,-0.98951995,-1.66595,0.95244604,1.247191,-0.5768639,2.2463038,-0.3400001,0.1257989,-0.029282374,-0.93151325,-8.444188,8.112047,0.7619848,0.27549756,-0.00024013035,0.11544555,0
1.9600000000000015,9.999463639233504,0.3515812150357487,-1.4631907480051363,0.033012134264740145,9.059071,-0.47078088,-2.779872,0.22064763,1.1626337,-0.49566764,2.2539544,-0.3396566,0.12503397,-0.030577522,-0.93169993,-8.467235,8.127235,0.7681465,0.29120263,-0.111074775,0.1121478,0
1.9700000000000015,9.999463639233504,0.3515812150357487,-1.4631907480051363,0.033012134264740145,9.059071,-0.47078088,-2.779872,0.22064763,1.0778557,-0.4143242,2.2616289,-0.3393615,0.12349252,-0.031653102,-0.93197703,-8.488337,8.14147,0.76674724,0.30063325,-0.32193658,0.108264595,0
1.9800000000000015,9.999463639233504,0.3515812150357487,-1.4631907480051363,0.033012134264740145,9.059071,-0.47078088,-2.779872,0.22064763,0.9928685,-0.3328381,2.2692897,-0.33911827,0.12103235,-0.032437436,-0.93236125,-8.509029,8.15575,0.7654297,0.30859002,-0.49991482,0.10457194,0
1.9900000000000015,9.999463639233504,0.3515812150357487,-1.4631907480051363,0.033012134264740145,9.059071,-0.47078088,-2.779872,0.22064763,0.90767705,-0.25120944,2.2769377,-0.33891976,0.11779598,-0.032975785,-0.9328289,-8.529171,8.169969,0.76423705,0.31530318,-0.6501373,0.10106047,0
2.0000000000000013,,,,,8.964949,-1.0770007,-3.3219588,0.078200646,0.82228744,-0.16943926,2.2845747,-0.3387591,0.113903575,-0.03330628,-0.9333587,-8.548644,8.184035,0.7632032,0.32096735,-0.7769329,0.097721316,0
2.010000000000001,,,,,8.964949,-1.0770007,-3.3219588,0.078200646,0.7367115,-0.08753291,2.2921786,-0.33863205,0.10928568,-0.033365034,-0.93395466,-8.566428,8.197191,0.7576116,0.31315792,-0.95978945,0.09478721,0
2.020000000000001,,,,,8.964949,-1.0770007,-3.3219588,0.078200646,0.6509618,-0.0054965597,2.299728,-0.3385338,0.10389209,-0.03310298,-0.9346149,-8.583356,8.210019,0.7522262,0.30656412,-1.1141295,0.09199707,0
2.0300000000000007,,,,,8.964949,-1.0770007,-3.3219588,0.078200646,0.5650476,0.076666005,2.3072243,-0.33845723,0.09784224,-0.032569718,-0.935314,-8.599318,8.222421,0.7470698,0.3009968,-1.2444001,0.089343846,0
2.0400000000000005,,,,,8.964949,-1.0770007,-3.3219588,0.078200646,0.47897908,0.15895009,2.31467,-0.33839583,0.09123702,-0.031807084,-0.93602973,-8.614219,8.234313,0.7421559,0.29629618,-1.3543551,0.08682081,0
2.0500000000000003,,,,,9.379074,-0.87995964,-3.377129,-0.019257538,0.39276716,0.24135022,2.322068,-0.3383438,0.08416172,-0.030850407,-0.9367432,-8.627977,8.245621,0.7374897,0.2923275,-1.4471624,0.0844216,1
2.06,,,,,9.379074,-0.87995964,-3.377129,-0.019257538,0.30642456,0.32385945,2.3294141,-0.33828133,0.07630893,-0.02910406,-0.93749404,-8.640345,8.256105,0.7317673,0.10952069,-1.74815,0.07933404,1
2.07,,,,,9.379074,-0.87995964,-3.377129,-0.019257538,0.21996471,0.4064692,2.3367043,-0.33819205,0.067437574,-0.026096946,-0.93829465,-8.651416,8.265677,0.72630787,-0.04478145,-2.0021963,0.07449612,1
2.0799999999999996,,,,,9.379074,-0.87995964,-3.377129,-0.019257538,0.13340104,0.4891689,2.3439412,-0.33807346,0.05770371,-0.02202449,-0.9390906,-8.661095,8.274067,0.72111833,-0.17502324,-2.216622,0.069895595,1
2.0899999999999994,,,,,9.469435,-0.37310246,-4.2798753,-0.13489187,0.04674788,0.57194567,2.3511276,-0.3379212,0.04723959,-0.017052012,-0.9398332,-8.669298,8.281043,0.7161868,-0.28495622,-2.3976068,0.06552083,1
2.099999999999999,,,,,9.469435,-0.37310246,-4.2798753,-0.13489187,-0.039979912,0.6547845,2.3582706,-0.33775687,0.035749454,-0.011387464,-0.9404851,-8.676002,8.286463,0.71238554,-0.29870728,-2.6911442,0.055686533,1
2.109999999999999,,,,,9.469435,-0.37310246,-4.2798753,-0.13489187,-0.12676612,0.7376687,2.3653765,-0.3375891,0.023004964,-0.005203616,-0.94099784,-8.680953,8.2900715,0.70877856,-0.3103182,-2.9389045,0.0463348,1
2.1199999999999988,,,,,9.469435,-0.37310246,-4.2798753,-0.13489187,-0.2135923,0.8205792,2.3724465,-0.33739543,0.009201447,0.0014173716,-0.94131684,-8.6839695,8.291707,0.7053073,-0.32012123,-3.1480267,0.03744195,1
2.1299999999999986,,,,,10.298609,-0.22806592,-3.890019,-0.090435974,-0.3004383,0.90349555,2.3794823,-0.3371566,-0.005494574,0.008405362,-0.94139487,-8.684895,8.291231,0.7018921,-0.32839757,-3.3245363,0.028985485,1
