t,px,py,pz,qx,qy,qz,qw,vx,vy,vz,wx,wy,wz,throttle_mpc,roll_mpc,pitch_mpc,yaw_mpc,throttle_nw,roll_nw,pitch_nw,yaw_nw,network_used
-2.0,13.102188,-12.048917,1.0737401000000002,0.41923004,-0.18300239999999998,-0.8352849,-0.30504990000000004,-2.280919,2.2024465,0.43906522,-0.029207557000000002,0.0066083769999999995,-0.047825135,7.056468501770878,-0.6460797172250021,-5.999999477555481,0.2657399770716889,10.57765,-0.42024556,-0.48779657,-0.22500810000000002,0
-1.99,13.079141,-12.026664,1.0778762,0.41755956,-0.18217783,-0.8361103000000001,-0.30557293,-2.3283577,2.2476882999999996,0.38791257,-0.020982467,-0.82567024,-0.041802447,7.056468501770878,-0.6460797172250021,-5.999999477555481,0.2657399770716889,10.2838125,-0.54828274,-0.7565594,0.08542052,0
-1.98,13.055628,-12.003967999999999,1.0814937,0.41261727,-0.18013144,-0.8385716000000001,-0.30675277,-2.373733,2.290985,0.33541268,-0.04616938,-1.5602955,-0.033200502,7.056468501770878,-0.6460797172250021,-5.999999477555481,0.2657399770716889,10.2838125,-0.54828274,-0.7565594,0.08542052,0
-1.97,13.0316725,-11.98085,1.0845817,0.40480083,-0.17687088,-0.84245646,-0.30841535,-2.4169269,2.3322467999999996,0.28209504,-0.09745323,-2.210394,-0.022334,7.056468501770878,-0.6460797172250021,-5.999999477555481,0.2657399770716889,10.2838125,-0.54828274,-0.7565594,0.08542052,0
-1.96,13.007296,-11.95733,1.0871341,0.39443874,-0.17240763,-0.8475501,-0.31040677,-2.457866,2.3713922999999997,0.22837208,-0.16883665,-2.7872214,-0.009486465,7.056468501770878,-0.6460797172250021,-5.999999477555481,0.2657399770716889,9.582033000000001,-0.77167654,-0.76290333,-0.055210564000000004,0
-1.95,12.98252,-11.933427,1.0891513000000002,0.38181585,-0.16677986,-0.85362947,-0.31259835,-2.4971377999999995,2.4089490000000002,0.17528613,-0.2432368,-3.2882540000000002,0.0040189805,7.056468501770878,-0.6460797172250021,-5.999999477555481,0.2657399770716889,9.582033000000001,-0.77167654,-0.76290333,-0.055210564000000004,0
-1.94,12.957355999999999,-11.909154,1.090646,0.36721838,-0.16011965,-0.86043507,-0.31490266,-2.535355,2.4454613,0.123931825,-0.3060279,-3.711152,0.0168617,7.056468501770878,-0.6460797172250021,-5.999999477555481,0.2657399770716889,9.582033000000001,-0.77167654,-0.76290333,-0.055210564000000004,0
-1.93,12.931817,-11.8845215,1.0916365,0.35090145,-0.15256624,-0.8677235999999999,-0.31724959999999996,-2.5723437999999996,2.4807265,0.07448366,-0.35902262,-4.0681,0.029074224,7.056468501770878,-0.6460797172250021,-5.999999477555481,0.2657399770716889,9.582033000000001,-0.77167654,-0.76290333,-0.055210564000000004,0
-1.92,12.905914,-11.859544,1.0921427,0.3330825,-0.14423805,-0.8752834999999999,-0.31957787,-2.6079347,2.5145519,0.027057237999999997,-0.40375018,-4.3693824,0.040687482999999997,9.195909507210816,-0.6155203091428693,-5.541289805907064,0.28423599040116065,11.0881,-1.3158971000000002,-0.9221251,0.50133157,0
-1.91,12.879611,-11.834187,1.0922643,0.3141063,-0.13530736,-0.8828739,-0.32181135,-2.6522848999999997,2.556525,-0.0022933204,-0.4367356,-4.5521455,0.052638482,9.195909507210816,-0.6155203091428693,-5.541289805907064,0.28423599040116065,11.0881,-1.3158971000000002,-0.9221251,0.50133157,0
-1.9,12.852875,-11.808422,1.0921059,0.29426503,-0.12591995,-0.89030683,-0.32389146,-2.6944256,2.5961950000000003,-0.028940503,-0.4645768,-4.706405999999999,0.064003035,9.195909507210816,-0.6155203091428693,-5.541289805907064,0.28423599040116065,11.0881,-1.3158971000000002,-0.9221251,0.50133157,0
-1.89,12.825728999999999,-11.782273,1.0916944,0.27366242,-0.11613481,-0.89748544,-0.32579303,-2.7341943,2.6333876,-0.052945253,-0.48807696,-4.83661,0.07480991,9.195909507210816,-0.6155203091428693,-5.541289805907064,0.28423599040116065,11.0881,-1.3158971000000002,-0.9221251,0.50133157,0
-1.8800000000000001,12.7982,-11.755764,1.0910556,0.25239003,-0.10600349,-0.904328,-0.32749498,-2.7714362,2.667941,-0.074403375,-0.50791335,-4.946509,0.08508652,9.195909507210816,-0.6155203091428693,-5.541289805907064,0.28423599040116065,11.0881,-1.3158971000000002,-0.9221251,0.50133157,0
-1.87,12.770309,-11.728923,1.0902146000000001,0.23052932,-0.09557138,-0.9107656999999999,-0.32897982,-2.8060047999999997,2.699706,-0.09344129,-0.5246574,-5.039269,0.09485885,10.99711883896123,-0.2745692220870313,-3.6502663606479633,0.12008420939923466,11.530588,-1.1930846000000002,-0.6784140999999999,0.67884296,0
-1.8599999999999999,12.742057,-11.70175,1.0892739,0.2088036,-0.085248865,-0.9165643,-0.33021683,-2.8440043999999998,2.7342212000000004,-0.09429911,-0.48566574,-4.8226523,0.09609666,10.99711883896123,-0.2745692220870313,-3.6502663606479633,0.12008420939923466,11.530588,-1.1930846000000002,-0.6784140999999999,0.67884296,0
-1.85,12.713442,-11.674251,1.0883367,0.18780808,-0.07537066,-0.92160153,-0.33120626,-2.8786566000000002,2.7652936,-0.09277373,-0.45275322,-4.6398177,0.09727374,10.99711883896123,-0.2745692220870313,-3.6502663606479633,0.12008420939923466,11.530588,-1.1930846000000002,-0.6784140999999999,0.67884296,0
-1.84,12.684495,-11.646457,1.0874253999999999,0.16743453,-0.06587045,-0.92596924,-0.33197509999999997,-2.9099991000000003,2.7930026000000003,-0.089180455,-0.42497206,-4.4854965,0.09839305,11.744975983914099,0.012536543645307437,-1.6779536109037323,-0.039259452306745685,12.751184,-0.49782768,0.32647094,0.5315238,0
-1.83,12.655241,-11.618394,1.0865942,0.14828694,-0.05705771,-0.92961025,-0.3325356,-2.9400012,2.8191082,-0.07677794,-0.3567888,-4.047655600000001,0.091638416,11.744975983914099,0.012536543645307437,-1.6779536109037323,-0.039259452306745685,12.751184,-0.49782768,0.32647094,0.5315238,0
-1.82,12.625705,-11.590086999999999,1.0858951000000001,0.130847,-0.049177438,-0.93253666,-0.33291993,-2.9667413,2.8419895,-0.062832415,-0.29923025,-3.6780972000000003,0.08521522599999999,11.744975983914099,0.012536543645307437,-1.6779536109037323,-0.039259452306745685,12.751184,-0.49782768,0.32647094,0.5315238,0
-1.81,12.595917,-11.561564,1.0853418,0.1148605,-0.04208891,-0.9348972,-0.3331703,-2.9904593999999998,2.8619354,-0.047650997,-0.25064126,-3.3661722999999997,0.07910721,11.744975983914099,0.012536543645307437,-1.6779536109037323,-0.039259452306745685,12.751184,-0.49782768,0.32647094,0.5315238,0
-1.8,12.565906,-11.532858000000001,1.0849456,0.10010902,-0.035671793,-0.9368053,-0.3333183,-3.0113657000000003,2.879197,-0.03147824,-0.20962417,-3.1028929,0.07329893,12.256618353373925,0.1874255490252815,0.3012603534711483,-0.06308810292493572,13.700718,-0.61540484,1.9834325000000002,0.421362,0
-1.79,12.535694,-11.503986,1.08474,0.08712558,-0.030153082999999997,-0.9382761999999999,-0.3333727,-3.0304694,2.8946645,-0.009506246999999999,-0.14774132,-2.5720134,0.06660638,12.256618353373925,0.1874255490252815,0.3012603534711483,-0.06308810292493572,13.700718,-0.61540484,1.9834325000000002,0.421362,0
-1.7799999999999998,12.505303999999999,-11.474971,1.0847573,0.07632448,-0.025707524,-0.9393559000000001,-0.3333525,-3.0472278999999998,2.9079776,0.013073936000000001,-0.09550046,-2.1239252,0.06024223,12.256618353373925,0.1874255490252815,0.3012603534711483,-0.06308810292493572,13.700718,-0.61540484,1.9834325000000002,0.421362,0
-1.77,12.474757,-11.445832000000001,1.0850028,0.06737126,-0.02216941,-0.9401533000000001,-0.33328834,-3.0620177,2.91953,0.036092896,-0.051400132,-1.7457169,0.05419037,12.256618353373925,0.1874255490252815,0.3012603534711483,-0.06308810292493572,13.700718,-0.61540484,1.9834325000000002,0.421362,0
-1.7599999999999998,12.444071000000001,-11.416585000000001,1.0854802,0.059981324,-0.019398099999999998,-0.94074583,-0.33320108,-3.0751617,2.9296563,0.05942949,-0.014172145,-1.4264908,0.048435476,12.256618353373925,0.1874255490252815,0.3012603534711483,-0.06308810292493572,14.189454999999999,-0.42915586,2.5926943,0.50447696,0
-1.75,12.4132595,-11.387242,1.0861923,0.053913083,-0.017274458,-0.9411886,-0.3331047,-3.086934,2.9386412999999996,0.08299681,0.017254485,-1.1570479999999999,0.042962987,12.256618353373925,0.1874255490252815,0.3012603534711483,-0.06308810292493572,14.189454999999999,-0.42915586,2.5926943,0.50447696,0
-1.7399999999999998,12.382336,-11.357814999999999,1.0871408,0.04896177,-0.015697686000000002,-0.9415208,-0.33300838,-3.0975685,2.9467254,0.10673229,0.043782894,-0.929625,0.03775903,12.256618353373925,0.1874255490252815,0.3012603534711483,-0.06308810292493572,14.189454999999999,-0.42915586,2.5926943,0.50447696,0
-1.73,12.351312,-11.32831,1.0883273999999998,0.044954043,-0.014582578,-0.9417705,-0.33291814,-3.1072626,2.9541128,0.13059059,0.06617682,-0.73766875,0.03281043,12.256618353373925,0.1874255490252815,0.3012603534711483,-0.06308810292493572,14.189454999999999,-0.42915586,2.5926943,0.50447696,0
-1.72,12.320194,-11.298735,1.0897529,0.041743275,-0.013857146,-0.9419576999999999,-0.3328377,-3.1161847000000003,2.9609756000000003,0.15453854,0.08508019,-0.5756481999999999,0.028104668,13.678099629829738,0.3563790723504522,2.5503256770927343,-0.08326673677159269,13.118063000000001,-0.53316593,2.6439211,0.63767225,0
-1.71,12.288986,-11.269089,1.0914891000000002,0.040030967,-0.01382374,-0.94205916,-0.3327624,-3.1254783,2.9682492999999996,0.19270936,0.12737969,-0.08815401,0.022639637999999997,13.678099629829738,0.3563790723504522,2.5503256770927343,-0.08326673677159269,13.118063000000001,-0.53316593,2.6439211,0.63767225,0
-1.7,12.257686999999999,-11.23937,1.0936072000000001,0.04036665,-0.014718731,-0.94205743,-0.3326884,-3.1345067,2.9755232000000005,0.23089805,0.16308704,0.32331535,0.01744277,13.678099629829738,0.3563790723504522,2.5503256770927343,-0.08326673677159269,13.118063000000001,-0.53316593,2.6439211,0.63767225,0
-1.69,12.226295,-11.209576,1.096107,0.042430907000000004,-0.016397052,-0.9419646,-0.33261573,-3.1436853,2.9831967,0.26905468,0.19322892,0.6706159,0.01250092,13.678099629829738,0.3563790723504522,2.5503256770927343,-0.08326673677159269,13.118063000000001,-0.53316593,2.6439211,0.63767225,0
-1.68,12.194811,-11.179703,1.0989878999999998,0.045953702,-0.018736105,-0.941782,-0.33254132,-3.1533644,2.991607,0.30713296,0.21867260000000002,0.9637551,0.007801585400000001,15.25405581223875,0.4582260783354532,4.24944596258268,-0.09566851938570786,14.038559,-0.45277622,3.181207,0.7682479,0
-1.67,12.163219,-11.149735,1.1023275,0.051333424,-0.021896614,-0.9414683,-0.33244959999999996,-3.1650805,3.0021548,0.3607559,0.25603306,1.4761561,0.0027242773,15.25405581223875,0.4582260783354532,4.24944596258268,-0.09566851938570786,14.038559,-0.45277622,3.181207,0.7682479,0
-1.66,12.131504,-11.119655,1.1062021,0.05887258,-0.025999947000000002,-0.94096833,-0.3323196,-3.1782197999999995,3.0143418,0.41413835,0.28757015,1.9086483,-0.002103874,15.25405581223875,0.4582260783354532,4.24944596258268,-0.09566851938570786,14.038559,-0.45277622,3.181207,0.7682479,0
-1.65,12.099647500000001,-11.089442,1.1106089,0.068230525,-0.03089705,-0.94025224,-0.3321377,-3.19327,3.0286245,0.46715862,0.31419128,2.2736936,-0.006695116,15.25405581223875,0.4582260783354532,4.24944596258268,-0.09566851938570786,14.038559,-0.45277622,3.181207,0.7682479,0
-1.64,12.067631,-11.059074,1.1155435,0.07911826,-0.03646136,-0.93928695,-0.33188975,-3.2106377999999998,3.0453832000000003,0.51967424,0.33666196,2.58181,-0.011061073999999999,15.258814601796356,0.4610696600019074,4.824496728404355,-0.104518939275124,15.533403,-0.061527632,4.1477113,0.7166634,1
-1.63,12.035424,-11.028523,1.1210138,0.09131727,-0.04238464,-0.9380851999999998,-0.33145252,-3.2310347999999998,3.0652787999999997,0.5742682,0.27450088,2.8260183,0.024648566,15.258814601796356,0.4610696600019074,4.824496728404355,-0.104518939275124,15.533403,-0.061527632,4.1477113,0.7166634,1
-1.6199999999999999,12.003,-10.997758000000001,1.1270258,0.10463899,-0.048419315,-0.9366620999999999,-0.33071175,-3.254471,3.0881824,0.62800103,0.22202717,3.0321398,0.05860593,15.258814601796356,0.4610696600019074,4.824496728404355,-0.104518939275124,15.533403,-0.061527632,4.1477113,0.7166634,1
-1.6099999999999999,11.9703245,-10.966747999999999,1.1335701,0.11889636,-0.05454756,-0.9349902,-0.3296686,-3.2812309999999996,3.1142093999999996,0.6806768,0.17773302,3.2061148,0.09089699400000001,15.258814601796356,0.4610696600019074,4.824496728404355,-0.104518939275124,15.533403,-0.061527632,4.1477113,0.7166634,1
-1.5999999999999999,11.937364,-10.935462,1.140635,0.13392985,-0.060753747999999996,-0.9330455,-0.3283256,-3.3115447000000002,3.1434452999999998,0.7320859000000001,0.14034486,3.352957,0.12160353,13.991395457769912,0.4489048308199899,4.484054171199493,-0.11500067935800387,14.908282,0.69940144,3.3754510000000004,1.0590817,0
-1.5899999999999999,11.904098,-10.903884,1.1481332,0.14966786,-0.067244515,-0.93074065,-0.3268018,-3.3422146,3.1727376,0.7673105,0.18847735,3.5293533999999998,0.109993294,13.991395457769912,0.4489048308199899,4.484054171199493,-0.11500067935800387,14.908282,0.69940144,3.3754510000000004,1.0590817,0
-1.5799999999999998,11.870508000000001,-10.871998,1.1559758999999998,0.16604570000000002,-0.07417705,-0.9279907,-0.3252073,-3.3763660000000004,3.2051184,0.8009644,0.22910666,3.6782396,0.098952755,13.991395457769912,0.4489048308199899,4.484054171199493,-0.11500067935800387,14.908282,0.69940144,3.3754510000000004,1.0590817,0
-1.5699999999999998,11.836558,-10.839772,1.1641463,0.18294583,-0.08147161,-0.9247809000000001,-0.32353259999999995,-3.4140797,3.240712,0.8328049999999999,0.263402,3.8039064,0.08845401,13.991395457769912,0.4489048308199899,4.484054171199493,-0.11500067935800387,14.908282,0.69940144,3.3754510000000004,1.0590817,0
-1.5599999999999998,11.802214999999999,-10.807172999999999,1.172625,0.20026714,-0.08906010000000002,-0.9211002,-0.32176950000000004,-3.455407,3.2796065999999997,0.86258334,0.29235032,3.9099748,0.078470424,13.991395457769912,0.4489048308199899,4.484054171199493,-0.11500067935800387,14.303028,0.9689279000000001,3.065699,0.72786266,0
-1.5499999999999998,11.767439,-10.774167,1.1813898999999999,0.21792233,-0.096884266,-0.9169406999999999,-0.31991088,-3.5003731,3.3218593999999997,0.89004713,0.31678495,3.9995017,0.068976745,13.991395457769912,0.4489048308199899,4.484054171199493,-0.11500067935800387,14.303028,0.9689279000000001,3.065699,0.72786266,0
-1.5399999999999998,11.732194999999999,-10.740723,1.190417,0.23583595,-0.10489417599999999,-0.91229707,-0.31795064,-3.5489788,3.3674994,0.91494256,0.33740956,4.0750665999999995,0.059948905999999996,13.991395457769912,0.4489048308199899,4.484054171199493,-0.11500067935800387,14.303028,0.9689279000000001,3.065699,0.72786266,0
-1.5299999999999998,11.696446,-10.706805000000001,1.1996791,0.25394255,-0.11304694,-0.90716654,-0.31588364,-3.6012042,3.4165301,0.9370165000000001,0.35481775,4.1388464,0.05136408,13.991395457769912,0.4489048308199899,4.484054171199493,-0.11500067935800387,14.303028,0.9689279000000001,3.065699,0.72786266,0
-1.5199999999999998,11.660158000000001,-10.67238,1.2091469,0.27218515,-0.12130564,-0.90154815,-0.3137056,-3.6570096,3.4689343,0.9560181000000001,0.36951113,4.1926794,0.043200504,12.74679391188911,0.4306589447211892,3.494011248045084,-0.13090696064551138,13.717831,1.6066918,2.8005092,0.29634038,0
-1.5099999999999998,11.623321,-10.637439,1.2187371999999999,0.29016179999999997,-0.12950802,-0.8955581,-0.3114635,-3.7110461999999997,3.519704,0.9615923000000001,0.37907290000000005,4.08372,0.034656987,12.74679391188911,0.4306589447211892,3.494011248045084,-0.13090696064551138,13.717831,1.6066918,2.8005092,0.29634038,0
-1.4999999999999998,11.585925999999999,-10.601975,1.2283678999999998,0.30755916,-0.13752708,-0.88931763,-0.30920514,-3.7681199999999997,3.5733788,0.9640288,0.38714108,3.9917529999999997,0.026532715,12.74679391188911,0.4306589447211892,3.494011248045084,-0.13090696064551138,13.717831,1.6066918,2.8005092,0.29634038,0
-1.4899999999999998,11.547948,-10.565961,1.2380067,0.32445052,-0.14538084,-0.8828319,-0.30692708,-3.8280553999999998,3.6298192000000005,0.9632339,0.3939488,3.9141285000000003,0.018807113,12.74679391188911,0.4306589447211892,3.494011248045084,-0.13090696064551138,13.717831,1.6066918,2.8005092,0.29634038,0
-1.4799999999999998,11.5093565,-10.529369,1.2476209999999999,0.3408969,-0.15308414,-0.8761039,-0.30462545,-3.8906906,3.6888955,0.9591178,0.3996929,3.8486097000000004,0.011460607,12.05706634498978,0.3473114454164863,2.124290167455672,-0.1377553968823143,12.439669,1.8251073,2.4808748,0.029751147999999998,0
-1.4699999999999998,11.470142999999998,-10.492189999999999,1.2571528,0.35648274,-0.16045438,-0.8693361,-0.30237272,-3.9523318,3.7471385,0.94671375,0.39154318,3.5797012,0.004138534,12.05706634498978,0.3473114454164863,2.124290167455672,-0.1377553968823143,12.439669,1.8251073,2.4808748,0.029751147999999998,0
-1.4599999999999997,11.430303,-10.454419,1.2665446000000002,0.37089434,-0.16735308,-0.8627212,-0.30023754,-4.016135,3.8075473,0.93117166,0.38466117,3.352729,-0.0028242345000000003,12.05706634498978,0.3473114454164863,2.124290167455672,-0.1377553968823143,12.439669,1.8251073,2.4808748,0.029751147999999998,0
-1.4499999999999997,11.389814,-10.416034,1.2757657,0.38431445,-0.17385063,-0.8562417999999999,-0.2982087,-4.081871499999999,3.8699272000000002,0.9125926999999999,0.37884983,3.161153,-0.009445346,12.05706634498978,0.3473114454164863,2.124290167455672,-0.1377553968823143,12.439669,1.8251073,2.4808748,0.029751147999999998,0
-1.4399999999999997,11.34866,-10.377015,1.2847861999999999,0.3968959,-0.1800059,-0.84987825,-0.29627454,-4.149344999999999,3.9341128,0.89106727,0.37394285,2.9994533,-0.015741559,11.976142231099088,0.21029328311086448,0.5023920073096052,-0.13464180720958574,12.589737,0.76070756,2.202728,0.2510127,0
-1.4299999999999997,11.306826,-10.337348,1.2935747,0.4082349,-0.18563111,-0.8438856,-0.29452103,-4.2179112000000005,3.9995072,0.8662073,0.34842777,2.6100369999999997,-0.021576038,11.976142231099088,0.21029328311086448,0.5023920073096052,-0.13464180720958574,12.589737,0.76070756,2.202728,0.2510127,0
-1.4199999999999997,11.264298,-10.297019,1.3021016,0.4180306,-0.19058563,-0.8384894,-0.29302442,-4.287783999999999,4.0663285,0.8387812,0.32688943,2.28135,-0.027124206,11.976142231099088,0.21029328311086448,0.5023920073096052,-0.13464180720958574,12.589737,0.76070756,2.202728,0.2510127,0
-1.4099999999999997,11.221066,-10.256016,1.3103426,0.42653665,-0.19497720000000002,-0.8336234,-0.2917578,-4.358738400000001,4.134378,0.80906975,0.30870843,2.0039215,-0.032400135,11.976142231099088,0.21029328311086448,0.5023920073096052,-0.13464180720958574,12.589737,0.76070756,2.202728,0.2510127,0
-1.3999999999999997,11.177119,-10.214327,1.318276,0.43396404,-0.19889551,-0.8292238999999999,-0.29069537,-4.4305925,4.203494999999999,0.7773190999999999,0.2933613,1.7697581999999998,-0.037417166,12.799845546543994,0.05932697103397674,-0.9314095006558776,-0.12229354149715675,12.181841,0.51340413,0.24736069,0.5058954000000001,0
-1.3899999999999997,11.132425999999999,-10.171917,1.3259051000000002,0.44003192,-0.20220007,-0.82549655,-0.28990123,-4.5081796999999995,4.278354599999999,0.7482092,0.25685722,1.3485128999999998,-0.041582078,12.799845546543994,0.05932697103397674,-0.9314095006558776,-0.12229354149715675,12.181841,0.51340413,0.24736069,0.5058954000000001,0
-1.3799999999999997,11.086953999999999,-10.128756,1.3332349,0.44453156,-0.20478551,-0.8226095999999999,-0.28942755,-4.5863485,4.3540077,0.7175603,0.22604552,0.9929604999999999,-0.045542615999999994,12.799845546543994,0.05932697103397674,-0.9314095006558776,-0.12229354149715675,12.181841,0.51340413,0.24736069,0.5058954000000001,0
-1.3699999999999997,11.040697999999999,-10.084833,1.3402524,0.44771877,-0.20676689999999998,-0.8204508,-0.2892338,-4.6649075,4.430274,0.6857591,0.20003859999999998,0.69285625,-0.049308814000000006,12.799845546543994,0.05932697103397674,-0.9314095006558776,-0.12229354149715675,12.181841,0.51340413,0.24736069,0.5058954000000001,0
-1.3599999999999997,10.993655,-10.040147,1.3469473,0.44980562,-0.20823982,-0.818918,-0.289283,-4.7436996,4.5070065999999995,0.65313774,0.17808768,0.43955305,-0.05289019,12.799845546543994,0.05932697103397674,-0.9314095006558776,-0.12229354149715675,13.134770999999999,0.08009825,-0.7149916999999999,0.5181972,1
-1.3499999999999996,10.945813000000001,-9.994681,1.3533217,0.45102033,-0.20935136,-0.8179024,-0.28946272,-4.824664,4.5861044,0.62167466,0.16279513,0.25950619999999996,-0.024866767,12.799845546543994,0.05932697103397674,-0.9314095006558776,-0.12229354149715675,13.134770999999999,0.08009825,-0.7149916999999999,0.5181972,1
-1.3399999999999996,10.897162,-9.948424000000001,1.3593795,0.45154825,-0.21022676,-0.8173123999999999,-0.28967157,-4.905643,4.665469,0.58987504,0.14989422,0.107536614,0.0017815344000000001,12.799845546543994,0.05932697103397674,-0.9314095006558776,-0.12229354149715675,13.134770999999999,0.08009825,-0.7149916999999999,0.5181972,1
-1.3299999999999996,10.847703,-9.901372,1.3651185,0.45149425,-0.21090963,-0.8170874,-0.28989407,-4.9865613,4.7450294,0.5579154000000001,0.13901001,-0.020733846,0.0271222,12.799845546543994,0.05932697103397674,-0.9314095006558776,-0.12229354149715675,13.134770999999999,0.08009825,-0.7149916999999999,0.5181972,1
-1.3199999999999996,10.797435,-9.853523,1.3705378000000001,0.45094633,-0.21143626,-0.81717473,-0.29011723,-5.0673547,4.8247256,0.5259451,0.12982658,-0.12900107,0.051219392999999995,14.077715833884886,-0.0895245185386249,-2.0044777545538226,-0.1048085152374013,14.437621,-0.48327127,-1.2761517,0.7224379,1
-1.3099999999999996,10.746317999999999,-9.804838,1.3756707000000001,0.4498549,-0.2115986,-0.81768495,-0.29025564,-5.1559696,4.912405000000001,0.50067484,0.034226708,-0.30790097,0.08415628,14.077715833884886,-0.0895245185386249,-2.0044777545538226,-0.1048085152374013,14.437621,-0.48327127,-1.2761517,0.7224379,1
-1.2999999999999996,10.694316,-9.755276,1.3805524,0.448183,-0.21123421,-0.8187028000000001,-0.29023817,-5.2443647,5.000018,0.47575173,-0.046459287,-0.4589043,0.11547695,14.077715833884886,-0.0895245185386249,-2.0044777545538226,-0.1048085152374013,14.437621,-0.48327127,-1.2761517,0.7224379,1
-1.2899999999999996,10.641430999999999,-9.704838,1.3851875,0.44601536,-0.21043164,-0.8201501,-0.29007438,-5.332522,5.087411,0.4513764,-0.114559114,-0.5863608,0.14526070000000002,14.077715833884886,-0.0895245185386249,-2.0044777545538226,-0.1048085152374013,14.437621,-0.48327127,-1.2761517,0.7224379,1
-1.2799999999999996,10.587666,-9.653528,1.3895823,0.44342297,-0.20926489,-0.82195914,-0.28977236,-5.420423,5.1744533,0.42771682,-0.17203669,-0.6939419,0.17358296,15.151559676977696,-0.2235056288240337,-2.7701660293314143,-0.10738639762333144,15.031715,-0.88415444,-1.635543,0.8289187,0
-1.2699999999999996,10.533002,-9.601329,1.3937633999999999,0.43996432,-0.20766246,-0.82428366,-0.28959402,-5.5123625,5.2653084,0.40866995,-0.18003573,-1.0177269,0.1597957,15.151559676977696,-0.2235056288240337,-2.7701660293314143,-0.10738639762333144,15.031715,-0.88415444,-1.635543,0.8289187,0
-1.2599999999999996,10.477422,-9.5482235,1.3977600000000001,0.43529063,-0.20556307,-0.82722896,-0.28975624,-5.603823,5.3555264000000005,0.39089733,-0.18679725,-1.291018,0.14668499,15.151559676977696,-0.2235056288240337,-2.7701660293314143,-0.10738639762333144,15.031715,-0.88415444,-1.635543,0.8289187,0
-1.2499999999999996,10.420929,-9.494221000000001,1.4015870000000001,0.42958050000000003,-0.20303698,-0.83067375,-0.29020375,-5.6946087,5.4449629999999996,0.37474716,-0.19251215,-1.5216892,0.13421763,15.151559676977696,-0.2235056288240337,-2.7701660293314143,-0.10738639762333144,15.031715,-0.88415444,-1.635543,0.8289187,0
-1.2399999999999995,10.363532000000001,-9.439327,1.4052618000000001,0.42298365,-0.20014298,-0.83451295,-0.29088876,-5.7845416,5.533487999999999,0.36050370000000004,-0.19734177,-1.7163872,0.122362055,15.664442436718687,-0.2703759731039622,-3.2695634398386884,-0.14148105879825812,15.9733305,-0.7863984,-1.5646152,0.29380706,0
-1.2299999999999995,10.305225,-9.38354,1.4088191,0.41546459999999996,-0.19685462,-0.8387416999999999,-0.29180518,-5.8764644,5.623937000000001,0.3513186,-0.20872857,-1.9586033,0.10941518,15.664442436718687,-0.2703759731039622,-3.2695634398386884,-0.14148105879825812,15.9733305,-0.7863984,-1.5646152,0.29380706,0
-1.2199999999999995,10.246006,-9.326853999999999,1.4122968,0.4069986,-0.19315188,-0.8433439,-0.29294380000000003,-5.9671407,5.713161,0.344616,-0.21834503,-2.1630453999999997,0.09710363,15.664442436718687,-0.2703759731039622,-3.2695634398386884,-0.14148105879825812,15.9733305,-0.7863984,-1.5646152,0.29380706,0
-1.2099999999999995,10.185887,-9.269282,1.4157207,0.39771608,-0.18908913,-0.8482202,-0.29426209999999997,-6.0563793,5.801006,0.34062365,-0.22646607,-2.3356049999999997,0.085396215,15.664442436718687,-0.2703759731039622,-3.2695634398386884,-0.14148105879825812,15.9733305,-0.7863984,-1.5646152,0.29380706,0
-1.1999999999999995,10.124885,-9.21084,1.4191191,0.38772747,-0.18471242,-0.85328585,-0.29572365,-6.144003400000001,5.8873253,0.3395155,-0.23332379999999997,-2.4812539,0.07426328,15.645763586325696,-0.2775357519659208,-3.1621210594141265,-0.16314778079869074,16.20651,-1.8375169999999998,-2.4186357999999997,1.3421464,0
-1.1899999999999995,10.063015,-9.151544,1.4225208999999999,0.37716475,-0.18007031,-0.85845226,-0.2972906,-6.229747,5.9718800000000005,0.34129736,-0.24023308,-2.5874333,0.062613465,15.645763586325696,-0.2775357519659208,-3.1621210594141265,-0.16314778079869074,16.20651,-1.8375169999999998,-2.4186357999999997,1.3421464,0
-1.1799999999999995,10.000297,-9.09141,1.4259558,0.36613888,-0.17520393,-0.8636469000000001,-0.29893214,-6.3135695,6.054649400000001,0.34615734,-0.24606612,-2.677054,0.051535292999999996,15.645763586325696,-0.2775357519659208,-3.1621210594141265,-0.16314778079869074,16.20651,-1.8375169999999998,-2.4186357999999997,1.3421464,0
-1.1699999999999995,9.93675,-9.030457,1.4294548,0.35470840000000003,-0.17013976,-0.8688252000000001,-0.30062875,-6.39534,6.135515,0.35413238,-0.25099003,-2.7526982,0.04100073,15.645763586325696,-0.2775357519659208,-3.1621210594141265,-0.16314778079869074,16.20651,-1.8375169999999998,-2.4186357999999997,1.3421464,0
-1.1599999999999995,9.872397,-8.968705,1.4330492,0.34292352,-0.1649006,-0.8739495,-0.3023638,-6.474933999999999,6.2143664,0.3652333,-0.25514644,-2.8165462000000003,0.030983113,15.645763586325696,-0.2775357519659208,-3.1621210594141265,-0.16314778079869074,15.917974,-1.8150679,-2.422964,1.3472756000000001,0
-1.1499999999999995,9.8072605,-8.906176,1.4367702,0.33082733,-0.15950625,-0.87898844,-0.30412304,-6.5522339999999994,6.2910953,0.37944859999999997,-0.25865477,-2.870437,0.021457056000000002,15.645763586325696,-0.2775357519659208,-3.1621210594141265,-0.16314778079869074,15.917974,-1.8150679,-2.422964,1.3472756000000001,0
-1.1399999999999995,9.741361999999999,-8.842891,1.4406488000000002,0.31845698,-0.15397386,-0.8839154,-0.30589423,-6.627130499999999,6.365601,0.39674729999999997,-0.26161575,-2.9159234,0.012398451000000001,15.645763586325696,-0.2775357519659208,-3.1621210594141265,-0.16314778079869074,15.917974,-1.8150679,-2.422964,1.3472756000000001,0
-1.1299999999999994,9.674726,-8.778872,1.4447156,0.3058445,-0.14831841,-0.88870835,-0.30766679999999996,-6.6995176999999995,6.437786,0.41708165,-0.26411477,-2.9543164,0.0037843513,15.645763586325696,-0.2775357519659208,-3.1621210594141265,-0.16314778079869074,15.917974,-1.8150679,-2.422964,1.3472756000000001,0
-1.1199999999999994,9.607379,-8.714143,1.4490007,0.29301757,-0.14255297,-0.8933486999999999,-0.30943176,-6.769299,6.507558,0.44038945,-0.26622376,-2.9867222,-0.0044070640000000005,14.433891984490021,-0.27475968081505303,-2.8095925840581546,-0.1693380481090926,15.268832999999999,-0.7192297,-2.5873310000000003,1.1087368,0
-1.1099999999999994,9.539374,-8.648753999999998,1.4534854,0.2801268,-0.13673373,-0.8977812,-0.3111629,-6.8311906,6.5696216,0.45696196,-0.26757035,-2.9590973999999997,-0.012500268,14.433891984490021,-0.27475968081505303,-2.8095925840581546,-0.1693380481090926,15.268832999999999,-0.7192297,-2.5873310000000003,1.1087368,0
-1.0999999999999994,9.470763,-8.582758,1.4581487,0.26729557,-0.1309072,-0.9019684000000001,-0.31284162,-6.8905573,6.629334,0.47608963,-0.26870605,-2.9357808,-0.020196352,14.433891984490021,-0.27475968081505303,-2.8095925840581546,-0.1693380481090926,15.268832999999999,-0.7192297,-2.5873310000000003,1.1087368,0
-1.0899999999999994,9.401571,-8.516177,1.4630154,0.25450954,-0.12507100000000002,-0.90591985,-0.31447074,-6.9473715,6.6866574000000005,0.49764967,-0.26966387,-2.9161005,-0.027514772000000003,14.433891984490021,-0.27475968081505303,-2.8095925840581546,-0.1693380481090926,15.268832999999999,-0.7192297,-2.5873310000000003,1.1087368,0
-1.0799999999999994,9.331824000000001,-8.449035,1.4681095,0.24175674,-0.119223386,-0.9096433,-0.31605232,-7.0016039999999995,6.741555,0.5215226,-0.27047150000000003,-2.8994892000000005,-0.034474086,13.227484292480602,-0.2589386135659004,-2.2111646185396703,-0.16279903653939445,14.3571,-0.6028973000000001,-2.8569956000000003,1.2608865,0
-1.0699999999999994,9.261571,-8.381377,1.4734015,0.22924393,-0.11344509,-0.91308975,-0.3175611,-7.048922500000001,6.7896160000000005,0.5372060000000001,-0.26868206,-2.7921443,-0.04077103,13.227484292480602,-0.2589386135659004,-2.2111646185396703,-0.16279903653939445,14.3571,-0.6028973000000001,-2.8569956000000003,1.2608865,0
-1.0599999999999994,9.190855,-8.313251,1.4788598999999998,0.21713762,-0.107801676,-0.9162323,-0.31898114,-7.0938973,6.8354482999999995,0.5547446999999999,-0.26717085,-2.7015398,-0.046758972,13.227484292480602,-0.2589386135659004,-2.2111646185396703,-0.16279903653939445,14.3571,-0.6028973000000001,-2.8569956000000003,1.2608865,0
-1.0499999999999994,9.119701,-8.244677000000001,1.4845021999999999,0.20537396,-0.10227131,-0.91910505,-0.3203256,-7.1365795,6.879081200000001,0.57399046,-0.26589462,-2.625065,-0.05245309,13.227484292480602,-0.2589386135659004,-2.2111646185396703,-0.16279903653939445,14.3571,-0.6028973000000001,-2.8569956000000003,1.2608865,0
-1.0399999999999994,9.048131,-8.175677,1.4903451,0.19389871,-0.09683547,-0.9217358,-0.32160497,-7.177011500000001,6.920539999999999,0.5948111,-0.26481682,-2.5605168,-0.0578678,12.73953024333476,-0.22552322925265364,-1.4963067756439832,-0.14710277017652287,13.0943165,-0.6128783,-2.2753897000000003,1.3885714,0
-1.0299999999999994,8.976175,-8.106281,1.4963813999999998,0.18292576,-0.09158354,-0.92409426,-0.3228018,-7.213829,6.958403999999999,0.61263984,-0.2586896,-2.3945534,-0.062246583,12.73953024333476,-0.22552322925265364,-1.4963067756439832,-0.14710277017652287,13.0943165,-0.6128783,-2.2753897000000003,1.3885714,0
-1.0199999999999994,8.903862,-8.036516,1.5026021999999999,0.17262441,-0.0865868,-0.9261688,-0.32390654,-7.2486277,6.9942822,0.63171774,-0.25351775,-2.2544720000000003,-0.06641051,12.73953024333476,-0.22552322925265364,-1.4963067756439832,-0.14710277017652287,13.0943165,-0.6128783,-2.2753897000000003,1.3885714,0
-1.0099999999999993,8.831209,-7.966402,1.5090195,0.16289152,-0.081806086,-0.9280037,-0.32493649999999996,-7.2815175000000005,7.028262,0.651908,-0.24915235,-2.1362360000000002,-0.0703701,12.73953024333476,-0.22552322925265364,-1.4963067756439832,-0.14710277017652287,13.0943165,-0.6128783,-2.2753897000000003,1.3885714,0
-0.9999999999999991,8.758238,-7.895957000000001,1.5156437,0.15363945,-0.07720805,-0.9296344000000001,-0.3259054,-7.3125925,7.0604176999999995,0.67309487,-0.24546783,-2.036439,-0.074135385,12.895898145351252,-0.16009790697070156,-0.6636573332475331,-0.12767793476787126,16.55666,-1.5424562,-3.0771422000000004,2.4556577,0
-0.9899999999999991,8.684961999999999,-7.825197,1.5224918,0.1450953,-0.07289799,-0.9310396000000001,-0.3268013,-7.342307000000001,7.0911979999999994,0.69664836,-0.23214728,-1.8223546999999998,-0.07676273,12.895898145351252,-0.16009790697070156,-0.6636573332475331,-0.12767793476787126,16.55666,-1.5424562,-3.0771422000000004,2.4556577,0
-0.9799999999999991,8.611397,-7.754138,1.5295794,0.1374365,-0.068958685,-0.93221384,-0.32761836,-7.370437599999999,7.120344,0.7209788,-0.22090495,-1.6416568,-0.07926115,12.895898145351252,-0.16009790697070156,-0.6636573332475331,-0.12767793476787126,16.55666,-1.5424562,-3.0771422000000004,2.4556577,0
-0.9699999999999993,8.537558,-7.682795,1.5369136,0.13052686,-0.06533342,-0.93320173,-0.3283738,-7.3971443,7.147997999999999,0.74597263,-0.21141668,-1.4891385,-0.08163696,12.895898145351252,-0.16009790697070156,-0.6636573332475331,-0.12767793476787126,16.55666,-1.5424562,-3.0771422000000004,2.4556577,0
-0.9599999999999993,8.463457,-7.611182,1.5445008,0.12425086,-0.061973993,-0.93403804,-0.32908115,-7.4225645,7.1742805999999995,0.7715382,-0.20340878,-1.3604053,-0.083896205,12.895898145351252,-0.16009790697070156,-0.6636573332475331,-0.12767793476787126,17.572119,-1.8898435000000002,-2.9661336,2.8131318,0
-0.9499999999999993,8.389109,-7.539313000000001,1.5523461,0.11851057400000001,-0.05883949,-0.9347502000000001,-0.32975096,-7.446814999999999,7.199296,0.7976008000000001,-0.19665019,-1.2517481000000001,-0.08604459,12.895898145351252,-0.16009790697070156,-0.6636573332475331,-0.12767793476787126,17.572119,-1.8898435000000002,-2.9661336,2.8131318,0
-0.9399999999999993,8.314524,-7.4671993,1.5604542,0.11322303,-0.055895217000000004,-0.93535995,-0.3303914,-7.469995,7.2231307000000005,0.82409936,-0.19094627,-1.1600358,-0.08808756,12.895898145351252,-0.16009790697070156,-0.6636573332475331,-0.12767793476787126,17.572119,-1.8898435000000002,-2.9661336,2.8131318,0
-0.9299999999999993,8.239711999999999,-7.394853599999999,1.5688294,0.10831800000000001,-0.053111773,-0.93588454,-0.33100903,-7.4921894,7.245858999999999,0.85098374,-0.18613254,-1.0826258999999998,-0.09003027,12.895898145351252,-0.16009790697070156,-0.6636573332475331,-0.12767793476787126,17.572119,-1.8898435000000002,-2.9661336,2.8131318,0
-0.9199999999999993,8.164684,-7.3222857,1.5774752,0.10373608,-0.05046426,-0.93633765,-0.33160890000000004,-7.5134683,7.2675447,0.8782121999999999,-0.18206994,-1.017288,-0.09187763,12.80072874924726,-0.10849939742512543,-0.1257079217237785,-0.10503894604061087,16.807098,-1.3979322,-2.5876377,2.5240874,0
-0.9099999999999993,8.089447,-7.2495065,1.5863901000000002,0.09962170599999999,-0.048022702,-0.9367089,-0.33218405,-7.53375,7.288096400000001,0.90481997,-0.17058887,-0.8782471,-0.092523485,12.80072874924726,-0.10849939742512543,-0.1257079217237785,-0.10503894604061087,16.807098,-1.3979322,-2.5876377,2.5240874,0
-0.8999999999999992,8.014011,-7.176525999999999,1.5955725,0.09608698,-0.045841753,-0.9369937,-0.33272988,-7.5533,7.307775,0.9316853,-0.16089937,-0.76088953,-0.09313764,12.80072874924726,-0.10849939742512543,-0.1257079217237785,-0.10503894604061087,16.807098,-1.3979322,-2.5876377,2.5240874,0
-0.8899999999999992,7.938383,-7.103353500000001,1.6050246000000001,0.09304187400000001,-0.04388117,-0.93720907,-0.33325288,-7.572226,7.3266826,0.95876575,-0.15272188,-0.66183376,-0.093721636,12.80072874924726,-0.10849939742512543,-0.1257079217237785,-0.10503894604061087,16.807098,-1.3979322,-2.5876377,2.5240874,0
-0.8799999999999992,7.862568400000001,-7.0299949999999995,1.6147485000000001,0.090410285,-0.04210689,-0.9373683,-0.33375809999999995,-7.5906199999999995,7.344905000000001,0.9860269,-0.1458205,-0.5782257,-0.09427698,12.175924451789566,-0.0604227678325855,0.253245297873569,-0.08126906330396969,16.02881,-1.1215097,-2.2870493,2.4309847,0
-0.8699999999999992,7.7865767,-6.9564614,1.6247151000000002,0.088263504,-0.040559042000000003,-0.9374686,-0.3342422,-7.607689,7.361662400000001,1.0073133,-0.13249464,-0.44855900000000004,-0.09363867,12.175924451789566,-0.0604227678325855,0.253245297873569,-0.08126906330396969,16.02881,-1.1215097,-2.2870493,2.4309847,0
-0.8599999999999992,7.7104163,-6.882763000000001,1.6348951,0.086654745,-0.039268042999999996,-0.93750936,-0.33470259999999996,-7.62443,7.377942599999999,1.028712,-0.12124833,-0.33911362,-0.093031704,12.175924451789566,-0.0604227678325855,0.253245297873569,-0.08126906330396969,16.02881,-1.1215097,-2.2870493,2.4309847,0
-0.8499999999999992,7.634089,-6.808903699999999,1.6452895,0.08550022,-0.03819415,-0.93750215,-0.33514377,-7.640939,7.393841,1.0501946000000002,-0.11175683,-0.24673620000000002,-0.0924545,12.175924451789566,-0.0604227678325855,0.253245297873569,-0.08126906330396969,16.02881,-1.1215097,-2.2870493,2.4309847,0
-0.8399999999999992,7.557597599999999,-6.734887,1.6558990000000002,0.084729135,-0.037303742,-0.93745583,-0.33556908,-7.6572960000000005,7.409436,1.0717379999999999,-0.10374666,-0.16876486,-0.09190562,10.972591274048419,-0.03064127209281222,0.22002786165465504,-0.05988176599639732,14.227972,-0.5841221999999999,-1.2912201,1.7973002,0
-0.8299999999999992,7.480951299999999,-6.660723700000001,1.6666653000000002,0.08426514,-0.036575336,-0.9373790999999999,-0.33598024,-7.6719593999999995,7.42328,1.081495,-0.092342116,-0.108133614,-0.09033421,10.972591274048419,-0.03064127209281222,0.22002786165465504,-0.05988176599639732,14.227972,-0.5841221999999999,-1.2912201,1.7973002,0
-0.8199999999999992,7.4041586,-6.586423,1.6775291,0.08404461,-0.03599042,-0.9372788000000001,-0.3363782,-7.686591,7.4369645,1.0912765,-0.08271688,-0.056957684,-0.088839896,10.972591274048419,-0.03064127209281222,0.22002786165465504,-0.05988176599639732,14.227972,-0.5841221999999999,-1.2912201,1.7973002,0
-0.8099999999999992,7.327219500000001,-6.511985299999999,1.6884907,0.08402953,-0.035526782,-0.9371591999999999,-0.3367644,-7.7012279999999995,7.450535,1.1010716,-0.07459324,-0.013762381,-0.08741891,10.972591274048419,-0.03064127209281222,0.22002786165465504,-0.05988176599639732,14.227972,-0.5841221999999999,-1.2912201,1.7973002,0
-0.7999999999999992,7.250134,-6.4374123,1.6995505000000002,0.08418779,-0.035165638,-0.93702346,-0.33714002,-7.7159023,7.4640284,1.1108716,-0.06773697599999999,0.022696702000000003,-0.08606765400000001,9.726150422637689,-0.007435679650941227,-0.0784830551363974,-0.0437767163369381,15.423159,-1.1227385,-2.2922091,2.7042439999999996,0
-0.7899999999999991,7.172910000000001,-6.3627124,1.7106468999999997,0.08437717,-0.034859702,-0.93688494,-0.33750924,-7.7289615000000005,7.475944500000001,1.1084128999999998,-0.058333915,0.0069171386,-0.083992414,9.726150422637689,-0.007435679650941227,-0.0784830551363974,-0.0437767163369381,15.423159,-1.1227385,-2.2922091,2.7042439999999996,0
-0.7799999999999991,7.095555,-6.2878940000000005,1.7217188,0.08448358,-0.034570633999999996,-0.9367542,-0.33787507,-7.7420634999999995,7.487822,1.105953,-0.05039691,-0.0064015695999999995,-0.08201902,9.726150422637689,-0.007435679650941227,-0.0784830551363974,-0.0437767163369381,15.423159,-1.1227385,-2.2922091,2.7042439999999996,0
-0.7699999999999991,7.0180683,-6.212956,1.7327659,0.0845199,-0.034295876,-0.93663037,-0.33823702,-7.7551947,7.499658,1.1034943000000002,-0.0436977,-0.01764302,-0.08014247,9.726150422637689,-0.007435679650941227,-0.0784830551363974,-0.0437767163369381,15.423159,-1.1227385,-2.2922091,2.7042439999999996,0
-0.7599999999999991,6.9404506999999995,-6.1379004,1.7437886999999999,0.08449704,-0.034033254,-0.93651277,-0.3385947,-7.768342,7.511451200000001,1.1010387,-0.038042974,-0.027131383999999998,-0.078357995,9.726150422637689,-0.007435679650941227,-0.0784830551363974,-0.0437767163369381,14.744756,-1.1447364,-2.9865043,2.7360756,0
-0.7499999999999991,6.862701400000001,-6.062727,1.7547867,0.08442419,-0.033780944,-0.9364007,-0.33894786,-7.781494,7.523199000000001,1.098588,-0.03327012,-0.035139985,-0.076661095,9.726150422637689,-0.007435679650941227,-0.0784830551363974,-0.0437767163369381,14.744756,-1.1447364,-2.9865043,2.7360756,0
-0.7399999999999989,6.784820599999999,-5.9874363,1.7657604,0.08430911,-0.033537395,-0.9362936,-0.3392963,-7.7946424,7.5349007,1.0961435,-0.029241477999999998,-0.04189945,-0.07504745,9.726150422637689,-0.007435679650941227,-0.0784830551363974,-0.0437767163369381,14.744756,-1.1447364,-2.9865043,2.7360756,0
-0.7299999999999989,6.7068086,-5.912029,1.7767096999999998,0.084158346,-0.033301305,-0.936191,-0.33963990000000005,-7.8077784,7.546555499999999,1.0937063999999999,-0.025841096,-0.04760482,-0.073512994,9.726150422637689,-0.007435679650941227,-0.0784830551363974,-0.0437767163369381,14.744756,-1.1447364,-2.9865043,2.7360756,0
-0.7199999999999989,6.628665400000001,-5.836505000000001,1.7876346,0.08397744,-0.03307157,-0.93609256,-0.33997859999999996,-7.8208966,7.558161699999999,1.0912777,-0.022971032000000002,-0.05242056,-0.07205383,8.925367605562142,-0.012436100029332466,-0.5355056669108398,-0.028727477136001118,11.935504,0.13838902,-1.6565676,1.0759988999999999,0
-0.7099999999999989,6.5503964,-5.760871,1.7984959999999999,0.08360046,-0.032783326,-0.9360136999999998,-0.34031653,-7.832907700000001,7.568763000000001,1.0809819,-0.021331428,-0.12775744,-0.0699278,8.925367605562142,-0.012436100029332466,-0.5355056669108398,-0.028727477136001118,11.935504,0.13838902,-1.6565676,1.0759988999999999,0
-0.6999999999999991,6.4720073,-5.6851306,1.8092543999999997,0.082896166,-0.032385062,-0.93596655,-0.34065658,-7.844852,7.5792828,1.0707048000000001,-0.019946847,-0.19134563,-0.06790608,8.925367605562142,-0.012436100029332466,-0.5355056669108398,-0.028727477136001118,11.935504,0.13838902,-1.6565676,1.0759988999999999,0
-0.6899999999999991,6.3935,-5.609286,1.8199101999999998,0.08191553,-0.031893905,-0.9359458,-0.34099704,-7.856684700000001,7.5896854000000005,1.0604569,-0.018777678,-0.24501729999999997,-0.06598358,8.925367605562142,-0.012436100029332466,-0.5355056669108398,-0.028727477136001118,11.935504,0.13838902,-1.6565676,1.0759988999999999,0
-0.679999999999999,6.3148746,-5.533337,1.8304636000000003,0.08070156,-0.031324316,-0.93594676,-0.34133646,-7.868367699999999,7.5999413,1.0502462,-0.017790247,-0.29031894,-0.06415541,8.304590083309742,-0.015110562724419784,-0.7711559751851716,-0.014283282405785013,11.348528,0.13324371,-1.7011991999999998,0.9257849,0
-0.669999999999999,6.2361374000000005,-5.457290599999999,1.8408846999999997,0.079202585,-0.030655442,-0.9359735999999999,-0.34167483,-7.879067,7.609319999999999,1.0339639999999999,-0.017374856,-0.3653053,-0.06170817,8.304590083309742,-0.015110562724419784,-0.7711559751851716,-0.014283282405785013,11.348528,0.13324371,-1.7011991999999998,0.9257849,0
-0.659999999999999,6.157294,-5.381151,1.8511431,0.077379495,-0.029871346,-0.9360284,-0.34201159999999997,-7.889553,7.6185,1.017732,-0.017023578,-0.42859736,-0.059381027,8.304590083309742,-0.015110562724419784,-0.7711559751851716,-0.014283282405785013,11.348528,0.13324371,-1.7011991999999998,0.9257849,0
-0.649999999999999,6.0783467,-5.304921,1.8612396,0.07528264,-0.028989937,-0.93610525,-0.34234494,-7.8997850000000005,7.627447599999999,1.001558,-0.01672664,-0.48201928,-0.057168067,8.304590083309742,-0.015110562724419784,-0.7711559751851716,-0.014283282405785013,11.348528,0.13324371,-1.7011991999999998,0.9257849,0
-0.639999999999999,5.9992995,-5.228603,1.8711746,0.07295452,-0.028026327,-0.9361986999999999,-0.34267345,-7.909729,7.6361327,0.9854475,-0.016475562,-0.5271100000000001,-0.05506369999999999,8.041180356543878,-0.013015706346850064,-0.9394860429372146,-0.003674389745315646,12.308444999999999,-0.012389563000000001,-2.355268,0.85046023,0
-0.629999999999999,5.9201555,-5.152200700000001,1.8809358,0.070367634,-0.026971062999999997,-0.93630946,-0.34299645,-7.919047999999999,7.644263700000001,0.9668024,-0.015937367,-0.59142,-0.05254201,8.041180356543878,-0.013015706346850064,-0.9394860429372146,-0.003674389745315646,12.308444999999999,-0.012389563000000001,-2.355268,0.85046023,0
-0.619999999999999,5.84092,-5.0757184,1.8905109,0.067501985,-0.025817286000000002,-0.93643683,-0.3433131,-7.928020500000001,7.652086,0.94822806,-0.015482698999999999,-0.6457008000000001,-0.050144047000000004,8.041180356543878,-0.013015706346850064,-0.9394860429372146,-0.003674389745315646,12.308444999999999,-0.012389563000000001,-2.355268,0.85046023,0
-0.6099999999999992,5.7615967,-4.99916,1.8999006,0.064400785,-0.024580272,-0.9365753000000001,-0.3436218,-7.936614,7.6595697,0.92972815,-0.015098531,-0.69151646,-0.047863763,8.041180356543878,-0.013015706346850064,-0.9394860429372146,-0.003674389745315646,12.308444999999999,-0.012389563000000001,-2.355268,0.85046023,0
-0.5999999999999992,5.6821895,-4.9225283,1.9091057,0.06110056,-0.02327292,-0.9367199,-0.34392127,-7.944799000000001,7.666691999999999,0.9113045,-0.014773825,-0.73018724,-0.045695383,7.854764905252908,0.017784519566551905,-0.7704528449097148,0.0020679897227518533,11.536686,-0.1874372,-2.5602345,1.20833,0
-0.5899999999999992,5.602703,-4.845828,1.9181176,0.05769126,-0.021940997,-0.9368625,-0.34420905,-7.9523725999999995,7.6732759999999995,0.8911083000000001,-0.009695486,-0.7364669,-0.043351617,7.854764905252908,0.017784519566551905,-0.7704528449097148,0.0020679897227518533,11.536686,-0.1874372,-2.5602345,1.20833,0
-0.5799999999999992,5.5231433,-4.769064,1.926928,0.054245826,-0.020621373999999998,-0.9369975,-0.34448344,-7.959514599999999,7.6794834000000005,0.8709836999999999,-0.005409175,-0.7417670999999999,-0.041122854,7.854764905252908,0.017784519566551905,-0.7704528449097148,0.0020679897227518533,11.536686,-0.1874372,-2.5602345,1.20833,0
-0.5699999999999992,5.4435142999999995,-4.6922398,1.9355376,0.050769784000000005,-0.019312133999999998,-0.9371242000000001,-0.34474444,-7.9662185,7.685312700000001,0.8509271999999999,-0.0017911689000000002,-0.7462408,-0.03900346,7.854764905252908,0.017784519566551905,-0.7704528449097148,0.0020679897227518533,11.536686,-0.1874372,-2.5602345,1.20833,0
-0.5599999999999992,5.3638205999999995,-4.6153593,1.9439468,0.047267805999999996,-0.018011648,-0.9372421000000001,-0.3449922,-7.9724803,7.690763499999999,0.83093464,0.0012624434,-0.75001657,-0.036988076,7.854764905252908,0.017784519566551905,-0.7704528449097148,0.0020679897227518533,11.00338,-0.07349839,-2.2110157000000004,0.9275216999999999,0
-0.5499999999999992,5.284066,-4.538426,1.9521564999999999,0.043743864,-0.016718548,-0.9373507999999999,-0.34522685,-7.978296,7.695834599999999,0.81100214,0.0038398103999999996,-0.7532036,-0.035071585,7.854764905252908,0.017784519566551905,-0.7704528449097148,0.0020679897227518533,11.00338,-0.07349839,-2.2110157000000004,0.9275216999999999,0
-0.5399999999999991,5.204256,-4.4614434,1.9601671999999999,0.040201314,-0.015431671000000001,-0.9374498,-0.34544864,-7.9836617,7.700526700000001,0.7911255,0.006015229,-0.7558935999999999,-0.033249132,7.854764905252908,0.017784519566551905,-0.7704528449097148,0.0020679897227518533,11.00338,-0.07349839,-2.2110157000000004,0.9275216999999999,0
-0.5299999999999991,5.1243944,-4.384416000000001,1.9679792,0.036642995,-0.014150038,-0.9375388000000001,-0.3456577,-7.988574000000001,7.7048383000000005,0.7713005,0.007851526,-0.75816417,-0.0315161,7.854764905252908,0.017784519566551905,-0.7704528449097148,0.0020679897227518533,11.00338,-0.07349839,-2.2110157000000004,0.9275216999999999,0
-0.5199999999999991,5.044486,-4.307348,1.9755932,0.033071313,-0.01287282,-0.93761754,-0.34585434,-7.9930315,7.7087693,0.7515228,0.00940115,-0.76008064,-0.029868124,7.687983398452243,0.02748511523439681,-0.5100339427530755,0.010191994468069836,9.229114,0.20384893,-1.4582538999999999,0.5067427999999999,0
-0.5099999999999991,4.964535700000001,-4.2302423,1.9830014,0.02958469,-0.011639044,-0.93768287,-0.3460368,-7.996949000000001,7.7122470000000005,0.73012376,0.012223000000000001,-0.72108597,-0.027902357000000003,7.687983398452243,0.02748511523439681,-0.5100339427530755,0.010191994468069836,9.229114,0.20384893,-1.4582538999999999,0.5067427999999999,0
-0.4999999999999991,4.8845487,-4.1531034,1.9901958999999998,0.026261267999999997,-0.010479637,-0.93773377,-0.346204,-8.000438,7.715368700000001,0.70876074,0.014604603,-0.6881725999999999,-0.026033062000000003,7.687983398452243,0.02748511523439681,-0.5100339427530755,0.010191994468069836,9.229114,0.20384893,-1.4582538999999999,0.5067427999999999,0
-0.4899999999999989,4.8045279999999995,-4.0759354,1.9971768,0.023075613999999998,-0.009383032,-0.93777263,-0.34635726,-8.003514,7.718153999999999,0.6874283,0.016614556000000003,-0.66039205,-0.024255502999999998,7.687983398452243,0.02748511523439681,-0.5100339427530755,0.010191994468069836,9.229114,0.20384893,-1.4582538999999999,0.5067427999999999,0
-0.47999999999999887,4.7244797,-3.9987413999999997,2.0039446,0.020006256,-0.008339451999999999,-0.9378011,-0.34649759999999996,-8.006196000000001,7.720617999999999,0.6661216999999999,0.018310912,-0.6369437,-0.022565164,7.6553185918445585,0.040322005645559454,0.06478941363445677,0.018750582300221613,9.02608,0.16332504,-1.271382,0.41387448,0
-0.46999999999999886,4.644406299999999,-3.9215245000000003,2.0104976000000003,0.017249023999999998,-0.007425203000000001,-0.93781716,-0.34662333,-8.008491000000001,7.7227683,0.64451015,0.021745805,-0.5275088000000001,-0.020537784,7.6553185918445585,0.040322005645559454,0.06478941363445677,0.018750582300221613,9.02608,0.16332504,-1.271382,0.41387448,0
-0.45999999999999885,4.564311,-3.8442870000000005,2.0168347,0.014958196000000002,-0.0067003705,-0.9378211,-0.34673390000000004,-8.010461,7.7246619999999995,0.6229145,0.024644546,-0.43514013,-0.018609900000000002,7.6553185918445585,0.040322005645559454,0.06478941363445677,0.018750582300221613,9.02608,0.16332504,-1.271382,0.41387448,0
-0.44999999999999885,4.4841976,-3.7670317000000004,2.022956,0.013061069,-0.0061354669999999995,-0.9378173000000001,-0.34683132,-8.012159,7.7263465,0.60133034,0.027090665,-0.35717633,-0.016776606,7.6553185918445585,0.040322005645559454,0.06478941363445677,0.018750582300221613,9.02608,0.16332504,-1.271382,0.41387448,0
-0.43999999999999884,4.404068,-3.6897602,2.0288613,0.01149626,-0.0057055909999999994,-0.93780875,-0.34691715,-8.013631,7.727864299999999,0.57975423,0.029155107000000003,-0.29137102,-0.015033268999999998,7.923307589248794,0.050274711413994914,0.5091750923314982,0.022975555322684957,9.429149,-0.011884712,-1.1637936000000002,0.313449,0
-0.4299999999999988,4.323925,-3.6124744,2.0345643,0.010377345999999999,-0.0054551573,-0.9377959000000001,-0.34699124,-8.014963,7.729302400000001,0.56086296,0.03245021,-0.16652626,-0.01316816,7.923307589248794,0.050274711413994914,0.5091750923314982,0.022975555322684957,9.429149,-0.011884712,-1.1637936000000002,0.313449,0
-0.4199999999999988,4.243769599999999,-3.5351746,2.0400784,0.009791655500000001,-0.005418289000000001,-0.93777937,-0.34705356,-8.016169,7.730664999999999,0.54197514,0.035230882000000005,-0.061150957,-0.011394573,7.923307589248794,0.050274711413994914,0.5091750923314982,0.022975555322684957,9.429149,-0.011884712,-1.1637936000000002,0.313449,0
-0.4099999999999988,4.163602,-3.4578612,2.0454037,0.009656025,-0.005561717,-0.93776083,-0.3471052,-8.017311,7.732010400000001,0.5230885000000001,0.037577532000000004,0.027791204,-0.009708015,7.923307589248794,0.050274711413994914,0.5091750923314982,0.022975555322684957,9.429149,-0.011884712,-1.1637936000000002,0.313449,0
-0.3999999999999988,4.0834227,-3.3805342000000005,2.0505402,0.009900255,-0.005857350999999999,-0.93774104,-0.34714693,-8.018444,7.733386,0.50420153,0.03955797,0.10286273,-0.008104211,8.658784711616942,0.07830151710418615,0.9095785135726148,0.0204846322636223,9.470657000000001,-0.00043811695999999996,-0.6048068,0.37014648,0
-0.3899999999999988,4.0032315,-3.3031924,2.0555246,0.010611458,-0.0063476209999999995,-0.9377183000000001,-0.34717867,-8.019726,7.7349725000000005,0.49266530000000003,0.045600545,0.22866955,-0.006701342,8.658784711616942,0.07830151710418615,0.9095785135726148,0.0204846322636223,9.470657000000001,-0.00043811695999999996,-0.6048068,0.37014648,0
-0.3799999999999988,3.9230273,-3.2258341,2.0603936000000003,0.011855599,-0.007064924,-0.9376903,-0.34720013,-8.021121,7.736708,0.48112443,0.050700493,0.33485705,-0.005367323,8.658784711616942,0.07830151710418615,0.9095785135726148,0.0204846322636223,9.470657000000001,-0.00043811695999999996,-0.6048068,0.37014648,0
-0.3699999999999988,3.8428080000000002,-3.1484572999999996,2.0651471999999997,0.013549521,-0.0079738675,-0.9376559000000001,-0.3472113,-8.022698,7.7386574999999995,0.46957585,0.055004887,0.42448458,-0.004098753,8.658784711616942,0.07830151710418615,0.9095785135726148,0.0204846322636223,9.470657000000001,-0.00043811695999999996,-0.6048068,0.37014648,0
-0.35999999999999877,3.762572,-3.0710599999999997,2.069785,0.015623023,-0.009044566,-0.9376136,-0.34721214,-8.024517,7.7408752000000005,0.45801607,0.058637735,0.5001346999999999,-0.0028924440999999997,8.658784711616942,0.07830151710418615,0.9095785135726148,0.0204846322636223,10.440296,-0.25879553,-0.29051128,0.62876767,0
-0.34999999999999876,3.6823165,-2.9936388,2.0743072,0.018016838,-0.010251787,-0.9375619000000001,-0.34720233,-8.026626,7.7434072,0.44644105,0.061703975999999994,0.56398726,-0.0017453231,8.658784711616942,0.07830151710418615,0.9095785135726148,0.0204846322636223,10.440296,-0.25879553,-0.29051128,0.62876767,0
-0.33999999999999875,3.6020385999999998,-2.9161906,2.0787136999999998,0.020680923,-0.011574225,-0.93749917,-0.34718174,-8.029064,7.746293,0.43484629999999996,0.06429193,0.61788195,-0.00065449276,8.658784711616942,0.07830151710418615,0.9095785135726148,0.0204846322636223,10.440296,-0.25879553,-0.29051128,0.62876767,0
-0.32999999999999874,3.5217345,-2.8387115,2.0830040000000003,0.023573023999999998,-0.012993891,-0.9374239999999999,-0.3471502,-8.031868,7.749565,0.42322669999999996,0.066476375,0.66337204,0.00038280612000000003,8.658784711616942,0.07830151710418615,0.9095785135726148,0.0204846322636223,10.440296,-0.25879553,-0.29051128,0.62876767,0
-0.31999999999999873,3.4414002999999997,-2.7611976,2.0871782,0.026657464,-0.01449559,-0.9373351999999999,-0.34710762,-8.035065,7.753250599999999,0.41157678,0.06832004,0.70176786,0.0013691996,9.71122236403764,0.07882363156050863,1.1640032052255735,0.0218856585924326,11.018278,-0.5642687,-0.081766024,0.94078547,0
-0.3099999999999987,3.3610296,-2.6836424,2.091288,0.029999457,-0.016102026999999998,-0.93722856,-0.34705213,-8.039124000000001,7.757877000000001,0.41039357,0.06995751,0.7738533000000001,0.0023759513,9.71122236403764,0.07882363156050863,1.1640032052255735,0.0218856585924326,11.018278,-0.5642687,-0.081766024,0.94078547,0
-0.2999999999999987,3.2806157999999996,-2.6060383,2.095386,0.033649072,-0.017830501999999998,-0.9370994,-0.34698164,-8.043700999999999,7.7630367,0.40916026,0.07133941,0.8346971,0.0033333016999999997,9.71122236403764,0.07882363156050863,1.1640032052255735,0.0218856585924326,11.018278,-0.5642687,-0.081766024,0.94078547,0
-0.2899999999999987,3.2001536,-2.5283797000000003,2.0994713,0.03755807,-0.019661888,-0.936946,-0.34689593,-8.0488405,7.76877,0.4078664,0.07250607,0.8860522,0.0042436793,9.71122236403764,0.07882363156050863,1.1640032052255735,0.0218856585924326,11.018278,-0.5642687,-0.081766024,0.94078547,0
-0.2799999999999987,3.119637,-2.450661,2.1035432999999997,0.041685704,-0.021580024,-0.9367665999999999,-0.34679484,-8.054580999999999,7.775111,0.40650088,0.07349047,0.92939866,0.0051093779999999995,11.096781461986053,0.06268782898259846,1.2997969422919198,0.02478156383074602,12.553975999999999,-0.894184,-0.36713544,1.4417294,0
-0.2699999999999989,3.0390553,-2.3728707,2.10767,0.046050675,-0.02358406,-0.93655777,-0.34667626,-8.061864,7.783084,0.41884154,0.07180515,0.98716223,0.0060746963,11.096781461986053,0.06268782898259846,1.2997969422919198,0.02478156383074602,12.553975999999999,-0.894184,-0.36713544,1.4417294,0
-0.2599999999999989,2.958397,-2.2949967,2.1119196,0.05066594,-0.025672588,-0.9363155999999999,-0.34653816,-8.069918,7.791821499999999,0.43107086,0.07038247,1.0359175999999999,0.0069926525,11.096781461986053,0.06268782898259846,1.2997969422919198,0.02478156383074602,12.553975999999999,-0.894184,-0.36713544,1.4417294,0
-0.2499999999999989,2.8776542999999997,-2.2170315,2.116291,0.055491976,-0.02783224,-0.9360386,-0.3463805,-8.078782,7.8013573,0.4431718,0.06918169,1.0770695,0.007865553,11.096781461986053,0.06268782898259846,1.2997969422919198,0.02478156383074602,12.553975999999999,-0.894184,-0.36713544,1.4417294,0
-0.23999999999999888,2.7968187,-2.1389668,2.1207828999999996,0.060495377,-0.030051716000000003,-0.9357254999999999,-0.34620318,-8.088493,7.811719,0.45512667,0.06816814,1.1118038000000001,0.008695625,11.853983636201697,0.0454667060239805,1.1109430720630435,0.025371330161893524,12.436986,-0.9218309000000001,0.46852288,1.2184376000000001,0
-0.22999999999999865,2.7158782,-2.0607905,2.1254306,0.06557958,-0.03228886,-0.9353806,-0.34600820000000004,-8.099799,7.823692299999999,0.47441643,0.06462723,1.1116694999999999,0.009513909000000001,11.853983636201697,0.0454667060239805,1.1109430720630435,0.025371330161893524,12.436986,-0.9218309000000001,0.46852288,1.2184376000000001,0
-0.21999999999999864,2.6348197,-1.9824898000000002,2.1302705,0.07066668599999999,-0.03450982,-0.9350084999999999,-0.34579772,-8.112046000000001,7.8365717,0.49351576,0.06163867,1.1115563,0.010292034,11.853983636201697,0.0454667060239805,1.1109430720630435,0.025371330161893524,12.436986,-0.9218309000000001,0.46852288,1.2184376000000001,0
-0.20999999999999863,2.553634,-1.9040560000000002,2.1353002,0.07575573,-0.036716938,-0.9346093000000001,-0.345572,-8.125236,7.8503523,0.51241016,0.059116174,1.1114608,0.011031984,11.853983636201697,0.0454667060239805,1.1109430720630435,0.025371330161893524,12.436986,-0.9218309000000001,0.46852288,1.2184376000000001,0
-0.19999999999999862,2.4723117,-1.8254799,2.140518,0.0808459,-0.038912199999999994,-0.9341828999999999,-0.34533137,-8.139366,7.86503,0.53108525,0.056987103,1.1113803,0.011735623,12.006277137808857,0.043737159825410314,0.6452025382501709,0.02552960562443393,13.911173000000002,-1.173465,-0.062573805,1.6638736,0
-0.18999999999999884,2.3908427000000003,-1.7467514,2.1459289,0.08576267,-0.041032284,-0.93374527,-0.3450836,-8.154625,7.880795,0.55102575,0.054920696,1.0386800999999999,0.012412504,12.006277137808857,0.043737159825410314,0.6452025382501709,0.02552960562443393,13.911173000000002,-1.173465,-0.062573805,1.6638736,0
-0.17999999999999883,2.3092165000000002,-1.6678611,2.151538,0.09036799999999999,-0.043027267,-0.9333123999999999,-0.34483626,-8.170781,7.897412299999999,0.5707297,0.05317665,0.9773175,0.013056166000000001,12.006277137808857,0.043737159825410314,0.6452025382501709,0.02552960562443393,13.911173000000002,-1.173465,-0.062573805,1.6638736,0
-0.16999999999999882,2.2274244,-1.5888004,2.1573424,0.094710365,-0.044916682,-0.93288404,-0.34458914,-8.1877775,7.9148309999999995,0.5901995,0.051704545,0.9255244,0.013668231000000001,12.006277137808857,0.043737159825410314,0.6452025382501709,0.02552960562443393,13.911173000000002,-1.173465,-0.062573805,1.6638736,0
-0.1599999999999988,2.1454582,-1.5095618,2.1633408,0.09883064,-0.046717,-0.9324594,-0.34434184,-8.205567,7.9330077,0.60943705,0.050462127,0.8818084,0.014250259,12.006277137808857,0.043737159825410314,0.6452025382501709,0.02552960562443393,13.986392000000002,-1.1268301,-0.45920423,1.5963882,0
-0.1499999999999988,2.0633103999999998,-1.4301378999999999,2.1695302000000005,0.10276332,-0.048442114,-0.93203765,-0.344094,-8.224110000000001,7.951905,0.6284441,0.049413316,0.84490997,0.014803746999999999,12.006277137808857,0.043737159825410314,0.6452025382501709,0.02552960562443393,13.986392000000002,-1.1268301,-0.45920423,1.5963882,0
-0.1399999999999988,1.9809736,-1.3505214,2.1759086,0.10653748,-0.05010374,-0.9316177999999999,-0.3438452,-8.24337,7.9714913,0.6472216,0.048528142,0.81376576,0.015330071,12.006277137808857,0.043737159825410314,0.6452025382501709,0.02552960562443393,13.986392000000002,-1.1268301,-0.45920423,1.5963882,0
-0.12999999999999878,1.8984406999999999,-1.2707058,2.1824737,0.11017769,-0.05171175,-0.9311988000000001,-0.343595,-8.26332,7.9917407,0.66577035,0.04778108,0.78747845,0.015830569,12.006277137808857,0.043737159825410314,0.6452025382501709,0.02552960562443393,13.986392000000002,-1.1268301,-0.45920423,1.5963882,0
