time-since-start [s],throttle_mpc,roll_mpc,pitch_mpc,yaw_mpc,throttle_nw,roll_nw,pitch_nw,yaw_nw,position_x [m],position_y [m],position_z [m],rotation_w [quaternion],rotation_x [quaternion],rotation_y [quaternion],rotation_z [quaternion],velocity_x [m/s],velocity_y [m/s],velocity_z [m/s],omega_x [rad/s],omega_y [rad/s],omega_z [rad/s],network_used
0.0,10.8372179794744,5.999999608718663,-5.999999848434976,-0.006254992609840268,13.3617735,-0.47174653,-4.2878485,-0.8861235,12.973533,-10.6136,1.5866098,0.34068125,-0.48335728,0.3229626,0.7389162,-9.882795,0.23084074,-1.6596903,0.65613496,0.34242573,0.68285346,0
0.01,10.8372179794744,5.999999608718663,-5.999999848434976,-0.006254992609840268,10.888718,0.17238139,-6.257558,-0.97907144,12.874444,-10.610852,1.5697037,0.36458012,-0.45055422,0.33460036,0.74305105,-9.933598,0.31908467,-1.7207754,5.9999995,-6.0,-0.0062549924,0
0.02,10.8372179794744,5.999999608718663,-5.999999848434976,-0.006254992609840268,10.888718,0.17238139,-6.257558,-0.97907144,12.774887,-10.607211,1.5522113,0.38782287,-0.41694027,0.3456359,0.7458486,-9.97683,0.40916336,-1.7769845,5.9999995,-6.0,-0.0062549924,0
0.03,10.8372179794744,5.999999608718663,-5.999999848434976,-0.006254992609840268,10.888718,0.17238139,-6.257558,-0.97907144,12.674935,-10.602664,1.5341798,0.4103676,-0.38257593,0.3560494,0.7473038,-10.012178,0.5004283,-1.8286185,5.9999995,-6.0,-0.0062549924,0
0.04,10.8372179794744,5.999999608718663,-5.999999848434976,-0.006254992609840268,12.902123,-2.557116,0.4013202,0.26204094,12.574672,-10.597201,1.5156535,0.43217382,-0.34752306,0.3658221,0.74741405,-10.039392,0.5922225,-1.8760115,5.9999995,-6.0,-0.0062549924,0
0.05,10.8372179794744,5.999999608718663,-5.999999848434976,-0.006254992609840268,12.902123,-2.557116,0.4013202,0.26204094,12.474176,-10.590819,1.4966727,0.45320222,-0.31184474,0.3749364,0.7461791,-10.058273,0.6838851,-1.9195278,5.9999995,-6.0,-0.0062549924,0
0.060000000000000005,10.8372179794744,5.999999608718663,-5.999999848434976,-0.006254992609840268,12.902123,-2.557116,0.4013202,0.26204094,12.373534,-10.583526,1.4772747,0.473415,-0.27560517,0.38337594,0.74360126,-10.0686865,0.77475625,-1.9595598,5.9999995,-6.0,-0.0062549924,0
0.07,10.8372179794744,5.999999608718663,-5.999999848434976,-0.006254992609840268,12.902123,-2.557116,0.4013202,0.26204094,12.272831,-10.575331,1.457492,0.49277574,-0.23886962,0.3911255,0.73968524,-10.070558,0.86418176,-1.9965248,5.9999995,-6.0,-0.0062549924,0
0.08,17.459873896779666,5.999990050900011,-5.999999695081761,-0.15156085308874293,15.495063,-4.0595455,3.7583835,0.71647507,12.1721525,-10.566251,1.437353,0.5112496,-0.20170416,0.39817113,0.7344379,-10.063875,0.95151794,-2.0308623,5.9999995,-6.0,-0.0062549924,0
0.09,17.459873896779666,5.999990050900011,-5.999999695081761,-0.15156085308874293,15.495063,-4.0595455,3.7583835,0.71647507,12.071625,-10.556049,1.4170825,0.5293367,-0.16446488,0.4043535,0.7274972,-10.039402,1.087845,-2.0227377,5.99999,-5.9999995,-0.15156086,0
0.09999999999999999,17.459873896779666,5.999990050900011,-5.999999695081761,-0.15156085308874293,15.495063,-4.0595455,3.7583835,0.71647507,11.971411,-10.544512,1.3969076,0.54647076,-0.12692949,0.40980792,0.71924686,-10.001407,1.2188014,-2.0118678,5.99999,-5.9999995,-0.15156086,0
0.10999999999999999,17.459873896779666,5.999990050900011,-5.999999695081761,-0.15156085308874293,15.495063,-4.0595455,3.7583835,0.71647507,11.871643,-10.531695,1.3768518,0.56262106,-0.08916559,0.41452459,0.7097017,-9.950171,1.3434328,-1.9990191,5.99999,-5.9999995,-0.15156086,0
0.11999999999999998,17.459873896779666,5.999990050900011,-5.999999695081761,-0.15156085308874293,15.495063,-4.0595455,3.7583835,0.71647507,11.772453,-10.517669,1.3569312,0.57775843,-0.051241163,0.41849494,0.6988788,-9.886073,1.4608306,-1.9849735,5.99999,-5.9999995,-0.15156086,0
0.12999999999999998,20.501042242981878,1.8150128835400758,-5.999998370740699,1.2007456127079328,17.969109,-4.7888603,2.7936008,1.353033,11.673965,-10.502508,1.3371538,0.59185565,-0.013224484,0.4217119,0.6867978,-9.809581,1.5701381,-1.9705205,5.99999,-5.9999995,-0.15156086,0
0.13999999999999999,20.501042242981878,1.8150128835400758,-5.999998370740699,1.2007456127079328,17.969109,-4.7888603,2.7936008,1.353033,11.57637,-10.486208,1.3176228,0.60020083,0.015284311,0.41005558,0.68657106,-9.708468,1.6882765,-1.9350691,1.8150129,-5.9999986,1.2007456,0
0.15,20.501042242981878,1.8150128835400758,-5.999998370740699,1.2007456127079328,17.969109,-4.7888603,2.7936008,1.353033,11.479818,-10.468779,1.2984653,0.6079348,0.04377754,0.3979817,0.6856452,-9.600867,1.7959667,-1.8959057,1.8150129,-5.9999986,1.2007456,0
0.16,19.64122381661798,-1.0659847346828295,-2.077792094788529,1.0819640804905661,20.132465,-4.551333,3.666377,0.61253405,11.384374,-10.450326,1.2797152,0.6150498,0.0722262,0.38550258,0.6840212,-9.487093,1.8928152,-1.8536767,1.8150129,-5.9999986,1.2007456,0
0.17,19.64122381661798,-1.0659847346828295,-2.077792094788529,1.0819640804905661,20.132465,-4.551333,3.666377,0.61253405,11.290065,-10.430971,1.2613708,0.6156884,0.07813366,0.37504473,0.68859607,-9.374807,1.9776114,-1.8147441,-1.0659847,-2.0777922,1.0819641,0
0.18000000000000002,19.64122381661798,-1.0659847346828295,-2.077792094788529,1.0819640804905661,20.132465,-4.551333,3.666377,0.61253405,11.196876,-10.410787,1.2434297,0.61622494,0.08402818,0.36452475,0.6930569,-9.263235,2.058799,-1.7730715,-1.0659847,-2.0777922,1.0819641,0
0.19000000000000003,19.64122381661798,-1.0659847346828295,-2.077792094788529,1.0819640804905661,20.132465,-4.551333,3.666377,0.61253405,11.104797,-10.389809,1.2259187,0.61665946,0.08990878,0.35394442,0.697403,-9.152397,2.136312,-1.728754,-1.0659847,-2.0777922,1.0819641,0
0.20000000000000004,18.384552043780733,-1.5200790609137866,0.04392182931760818,0.915702132455707,19.17782,-3.122511,5.3430367,0.4397271,11.013824,-10.368073,1.2088635,0.61699194,0.09577449,0.34330547,0.70163363,-9.042313,2.2100863,-1.6818888,-1.0659847,-2.0777922,1.0819641,0
0.21000000000000005,18.384552043780733,-1.5200790609137866,0.04392182931760818,0.915702132455707,19.17782,-3.122511,5.3430367,0.4397271,10.923912,-10.345638,1.1922415,0.61440784,0.092499115,0.33765632,0.7070611,-8.940568,2.2769473,-1.6422343,-1.520079,0.04392183,0.9157021,0
0.22000000000000006,18.384552043780733,-1.5200790609137866,0.04392182931760818,0.915702132455707,19.17782,-3.122511,5.3430367,0.4397271,10.835005,-10.322535,1.1760243,0.6117752,0.08921646,0.3319806,0.7124329,-8.841092,2.3438406,-1.6009476,-1.520079,0.04392183,0.9157021,0
0.23000000000000007,18.384552043780733,-1.5200790609137866,0.04392182931760818,0.915702132455707,19.17782,-3.122511,5.3430367,0.4397271,10.747082,-10.298761,1.160228,0.60909444,0.08592678,0.32627872,0.7177486,-8.743905,2.4107273,-1.5580535,-1.520079,0.04392183,0.9157021,0
0.24000000000000007,18.384552043780733,-1.5200790609137866,0.04392182931760818,0.915702132455707,18.571747,-2.4524105,4.457952,0.78708375,10.660118,-10.274321,1.1448686,0.60636574,0.08263032,0.32055113,0.72300774,-8.649022,2.4775677,-1.513577,-1.520079,0.04392183,0.9157021,0
0.25000000000000006,18.384552043780733,-1.5200790609137866,0.04392182931760818,0.915702132455707,18.571747,-2.4524105,4.457952,0.78708375,10.574093,-10.249211,1.1299617,0.6035892,0.07932736,0.31479827,0.7282099,-8.556459,2.5443232,-1.4675436,-1.520079,0.04392183,0.9157021,0
0.26000000000000006,18.384552043780733,-1.5200790609137866,0.04392182931760818,0.915702132455707,18.571747,-2.4524105,4.457952,0.78708375,10.488981,-10.223434,1.115523,0.6007651,0.076018155,0.3090206,0.7333547,-8.466232,2.6109543,-1.4199795,-1.520079,0.04392183,0.9157021,0
0.2700000000000001,18.384552043780733,-1.5200790609137866,0.04392182931760818,0.915702132455707,18.571747,-2.4524105,4.457952,0.78708375,10.404759,-10.196993,1.1015674,0.5978937,0.07270295,0.3032186,0.7384417,-8.378357,2.6774213,-1.3709109,-1.520079,0.04392183,0.9157021,0
0.2800000000000001,17.300508052702785,-1.8034746828675476,1.4236512116713445,0.743011076173686,19.248783,-2.4474833,4.0626254,0.5799011,10.321404,-10.169888,1.0881099,0.59497523,0.06938202,0.29739273,0.74347055,-8.292846,2.7436852,-1.3203653,-1.520079,0.04392183,0.9157021,0
0.2900000000000001,17.300508052702785,-1.8034746828675476,1.4236512116713445,0.743011076173686,19.248783,-2.4474833,4.0626254,0.5799011,10.238868,-10.142137,1.0751204,0.59067863,0.059824698,0.2946444,0.7488022,-8.215028,2.8066201,-1.277352,-1.8034747,1.4236512,0.74301106,0
0.3000000000000001,17.300508052702785,-1.8034746828675476,1.4236512116713445,0.743011076173686,19.248783,-2.4474833,4.0626254,0.5799011,10.157093,-10.113748,1.062566,0.586296,0.050258655,0.29185313,0.7540246,-8.14058,2.8714266,-1.2333704,-1.8034747,1.4236512,0.74301106,0
0.3100000000000001,17.300508052702785,-1.8034746828675476,1.4236512116713445,0.743011076173686,19.248783,-2.4474833,4.0626254,0.5799011,10.076045,-10.084702,1.050456,0.5818278,0.040685285,0.2890193,0.75913715,-8.0695505,2.9380465,-1.1884806,-1.8034747,1.4236512,0.74301106,0
0.3200000000000001,16.549024562092143,-1.9070406078218318,2.6132908304395626,0.5798301557157226,18.971432,-2.4812634,3.5687606,-0.09430222,9.995691,-10.05498,1.0387993,0.57727486,0.031105984,0.28614333,0.76413906,-8.001985,3.006421,-1.1427426,-1.8034747,1.4236512,0.74301106,0
0.3300000000000001,16.549024562092143,-1.9070406078218318,2.6132908304395626,0.5798301557157226,18.971432,-2.4812634,3.5687606,-0.09430222,9.915979,-10.02458,1.0275719,0.5715396,0.016442996,0.28627124,0.7688441,-7.941015,3.0740962,-1.1026853,-1.9070406,2.6132908,0.57983017,0
0.34000000000000014,16.549024562092143,-1.9070406078218318,2.6132908304395626,0.5798301557157226,18.971432,-2.4812634,3.5687606,-0.09430222,9.836856,-9.993487,1.016746,0.5656499,0.001775566,0.28632182,0.7733416,-7.8842754,3.1450477,-1.0624694,-1.9070406,2.6132908,0.57983017,0
0.35000000000000014,16.549024562092143,-1.9070406078218318,2.6132908304395626,0.5798301557157226,18.971432,-2.4812634,3.5687606,-0.09430222,9.75828,-9.961669,1.0063226,0.55960745,-0.012892342,0.2862951,0.7776302,-7.831842,3.21918,-1.0222223,-1.9070406,2.6132908,0.57983017,0
0.36000000000000015,16.219398159060034,-1.73067340479852,2.2446048589785343,0.44226693446086307,17.398396,-2.2597783,3.297391,-0.2349657,9.680205,-9.929092,0.99630135,0.55341387,-0.02755677,0.28619102,0.7817089,-7.7837844,3.296395,-0.982072,-1.9070406,2.6132908,0.57983017,0
0.37000000000000016,16.219398159060034,-1.73067340479852,2.2446048589785343,0.44226693446086307,17.398396,-2.2597783,3.297391,-0.2349657,9.602586,-9.895738,0.9866668,0.54817814,-0.04048266,0.2856691,0.78501946,-7.7408543,3.3748295,-0.9448565,-1.7306734,2.2446048,0.44226694,0
0.38000000000000017,16.219398159060034,-1.73067340479852,2.2446048589785343,0.44226693446086307,17.398396,-2.2597783,3.297391,-0.2349657,9.525375,-9.861587,0.9774034,0.5428296,-0.053400215,0.2850884,0.78816843,-7.7018404,3.4556606,-0.907866,-1.7306734,2.2446048,0.44226694,0
0.3900000000000002,16.219398159060034,-1.73067340479852,2.2446048589785343,0.44226693446086307,17.398396,-2.2597783,3.297391,-0.2349657,9.448536,-9.826616,0.96850836,0.5373694,-0.066306785,0.28444904,0.7911553,-7.666783,3.5388095,-0.8711978,-1.7306734,2.2446048,0.44226694,0
0.4000000000000002,16.139908651705078,-1.3915607125556941,1.0287187466884726,0.33162358024913413,17.302116,-1.8286842,1.5996907,-0.28199267,9.372027,-9.790804,0.95997804,0.53179866,-0.079199724,0.2837512,0.79397947,-7.6357193,3.624195,-0.8349491,-1.7306734,2.2446048,0.44226694,0
0.4100000000000002,16.139908651705078,-1.3915607125556941,1.0287187466884726,0.33162358024913413,17.302116,-1.8286842,1.5996907,-0.28199267,9.29581,-9.754129,0.9518051,0.52845097,-0.08651013,0.28108257,0.7963973,-7.6083207,3.710779,-0.79962623,-1.3915607,1.0287187,0.33162358,0
0.4200000000000002,16.139908651705078,-1.3915607125556941,1.0287187466884726,0.33162358024913413,17.302116,-1.8286842,1.5996907,-0.28199267,9.2198515,-9.716586,0.9439859,0.52506226,-0.09381381,0.27839208,0.7987534,-7.583629,3.7980473,-0.76422095,-1.3915607,1.0287187,0.33162358,0
0.4300000000000002,16.139908651705078,-1.3915607125556941,1.0287187466884726,0.33162358024913413,17.302116,-1.8286842,1.5996907,-0.28199267,9.144128,-9.678166,0.9365209,0.52163285,-0.101110205,0.27568,0.8010474,-7.561653,3.885966,-0.72876793,-1.3915607,1.0287187,0.33162358,0
0.4400000000000002,16.139908651705078,-1.3915607125556941,1.0287187466884726,0.33162358024913413,18.300747,-1.5052867,0.8380951,-0.33952296,9.068609,-9.638864,0.9294105,0.51816297,-0.10839876,0.27294654,0.8032793,-7.542401,3.9745016,-0.69330204,-1.3915607,1.0287187,0.33162358,0
0.45000000000000023,16.139908651705078,-1.3915607125556941,1.0287187466884726,0.33162358024913413,18.300747,-1.5052867,0.8380951,-0.33952296,8.99327,-9.598674,0.92265475,0.5146527,-0.1156789,0.27019188,0.8054488,-7.52588,4.0636196,-0.657858,-1.3915607,1.0287187,0.33162358,0
0.46000000000000024,16.139908651705078,-1.3915607125556941,1.0287187466884726,0.33162358024913413,18.300747,-1.5052867,0.8380951,-0.33952296,8.918082,-9.55759,0.9162531,0.5111027,-0.12295006,0.26741624,0.8075558,-7.512097,4.1532865,-0.6224707,-1.3915607,1.0287187,0.33162358,0
0.47000000000000025,16.139908651705078,-1.3915607125556941,1.0287187466884726,0.33162358024913413,18.300747,-1.5052867,0.8380951,-0.33952296,8.843018,-9.515607,0.9102049,0.5075129,-0.13021168,0.26461986,0.8096001,-7.501057,4.243468,-0.5871747,-1.3915607,1.0287187,0.33162358,0
0.48000000000000026,16.11194771213032,-1.0923979245754074,0.29492101951676336,0.30220055439737725,19.799358,-0.8982827,-0.017588401,-0.5173054,8.76805,-9.472719,0.9045091,0.50388384,-0.1374632,0.2618029,0.8115816,-7.492767,4.3341293,-0.552005,-1.3915607,1.0287187,0.33162358,0
0.49000000000000027,16.11194771213032,-1.0923979245754074,0.29492101951676336,0.30220055439737725,19.799358,-0.8982827,-0.017588401,-0.5173054,8.693152,-9.428925,0.8991636,0.50151205,-0.1410142,0.25831634,0.8135563,-7.486876,4.4248137,-0.5170604,-1.0923979,0.294921,0.30220056,0
0.5000000000000002,16.11194771213032,-1.0923979245754074,0.29492101951676336,0.30220055439737725,19.799358,-0.8982827,-0.017588401,-0.5173054,8.618305,-9.384224,0.8941688,0.4991231,-0.14456038,0.25482088,0.8155031,-7.4827666,4.515214,-0.48185533,-1.0923979,0.294921,0.30220056,0
0.5100000000000002,16.11194771213032,-1.0923979245754074,0.29492101951676336,0.30220055439737725,19.799358,-0.8982827,-0.017588401,-0.5173054,8.54349,-9.338621,0.8895273,0.49671698,-0.14810158,0.25131673,0.817422,-7.480438,4.605313,-0.4464039,-1.0923979,0.294921,0.30220056,0
0.5200000000000002,16.02673441256516,-0.6695018501085531,-0.8034149380226875,0.2691240525774639,19.601639,-0.7681335,-0.49641198,-0.59293115,8.468691,-9.292118,0.88524157,0.49429384,-0.15163772,0.24780391,0.81931275,-7.4798903,4.695095,-0.41072017,-1.0923979,0.294921,0.30220056,0
0.5300000000000002,16.02673441256516,-0.6695018501085531,-0.8034149380226875,0.2691240525774639,19.601639,-0.7681335,-0.49641198,-0.59293115,8.393888,-9.244724,0.88131094,0.49367198,-0.14966549,0.2432761,0.8214045,-7.480582,4.783686,-0.37526643,-0.66950184,-0.80341494,0.26912406,0
0.5400000000000003,16.02673441256516,-0.6695018501085531,-0.8034149380226875,0.2691240525774639,19.601639,-0.7681335,-0.49641198,-0.59293115,8.3190775,-9.196451,0.87773937,0.49303576,-0.14768888,0.2387412,0.82347244,-7.481621,4.870905,-0.33891478,-0.66950184,-0.80341494,0.26912406,0
0.5500000000000003,16.02673441256516,-0.6695018501085531,-0.8034149380226875,0.2691240525774639,19.601639,-0.7681335,-0.49641198,-0.59293115,8.244254,-9.147311,0.87453574,0.49238512,-0.14570798,0.23419935,0.82551634,-7.4830017,4.956741,-0.30167937,-0.66950184,-0.80341494,0.26912406,0
0.5600000000000003,15.971524200580427,-0.3411428755084953,-1.294859631033327,0.27283088270308464,17.19903,-1.392054,0.6651909,-0.06757519,8.169415,-9.09732,0.8717088,0.49172017,-0.14372282,0.22965065,0.82753617,-7.48472,5.041184,-0.26357457,-0.66950184,-0.80341494,0.26912406,0
0.5700000000000003,15.971524200580427,-0.3411428755084953,-1.294859631033327,0.27283088270308464,17.19903,-1.392054,0.6651909,-0.06757519,8.094559,-9.046494,0.86926514,0.4918215,-0.13888724,0.2252463,0.8295098,-7.4864516,5.1237993,-0.22499847,-0.34114286,-1.2948596,0.27283087,0
0.5800000000000003,15.971524200580427,-0.3411428755084953,-1.294859631033327,0.27283088270308464,17.19903,-1.392054,0.6651909,-0.06757519,8.019688,-8.99485,0.8672126,0.49189982,-0.13404518,0.22083142,0.83144474,-7.487674,5.2046323,-0.18535534,-0.34114286,-1.2948596,0.27283087,0
0.5900000000000003,15.971524200580427,-0.3411428755084953,-1.294859631033327,0.27283088270308464,17.19903,-1.392054,0.6651909,-0.06757519,7.9448066,-8.942407,0.86556166,0.49195522,-0.12919685,0.21640624,0.8333409,-7.488383,5.2836695,-0.14467053,-0.34114286,-1.2948596,0.27283087,0
0.6000000000000003,15.768283230872068,-0.10837520857837868,-1.2868973144559623,0.2560463145256856,17.332182,-1.0655123,-0.08594442,-0.0823932,7.869921,-8.889183,0.8643227,0.49198765,-0.12434251,0.21197096,0.83519804,-7.488571,5.360898,-0.1029696,-0.34114286,-1.2948596,0.27283087,0
0.6100000000000003,15.768283230872068,-0.10837520857837868,-1.2868973144559623,0.2560463145256856,17.332182,-1.0655123,-0.08594442,-0.0823932,7.795037,-8.8352,0.86349666,0.49220428,-0.11896101,0.20850731,0.83672464,-7.48812,5.4354086,-0.0621036,-0.10837521,-1.2868973,0.25604632,0
0.6200000000000003,15.768283230872068,-0.10837520857837868,-1.2868973144559623,0.2560463145256856,17.332182,-1.0655123,-0.08594442,-0.0823932,7.720161,-8.78048,0.8630836,0.49239957,-0.11357435,0.20503464,0.838215,-7.48683,5.5082765,-0.020374486,-0.10837521,-1.2868973,0.25604632,0
0.6300000000000003,15.768283230872068,-0.10837520857837868,-1.2868973144559623,0.2560463145256856,17.332182,-1.0655123,-0.08594442,-0.0823932,7.645303,-8.72504,0.86309206,0.49257353,-0.108182766,0.20155309,0.8396691,-7.484697,5.5794916,0.022193387,-0.10837521,-1.2868973,0.25604632,0
0.6400000000000003,15.768283230872068,-0.10837520857837868,-1.2868973144559623,0.2560463145256856,16.6193,-1.1836128,0.28791618,-0.009108257,7.57047,-8.668897,0.8635303,0.49272615,-0.1027865,0.19806279,0.8410868,-7.481716,5.6490436,0.06557553,-0.10837521,-1.2868973,0.25604632,0
0.6500000000000004,15.768283230872068,-0.10837520857837868,-1.2868973144559623,0.2560463145256856,16.6193,-1.1836128,0.28791618,-0.009108257,7.4956713,-8.612065,0.8644063,0.49285743,-0.09738578,0.19456391,0.8424681,-7.477884,5.7169228,0.10974731,-0.10837521,-1.2868973,0.25604632,0
0.6600000000000004,15.768283230872068,-0.10837520857837868,-1.2868973144559623,0.2560463145256856,16.6193,-1.1836128,0.28791618,-0.009108257,7.420915,-8.5545635,0.86572784,0.49296734,-0.09198084,0.19105661,0.8438129,-7.473195,5.78312,0.15468395,-0.10837521,-1.2868973,0.25604632,0
0.6700000000000004,15.768283230872068,-0.10837520857837868,-1.2868973144559623,0.2560463145256856,16.6193,-1.1836128,0.28791618,-0.009108257,7.34621,-8.496409,0.8675025,0.49305588,-0.08657191,0.18754102,0.8451211,-7.4676456,5.847626,0.20036055,-0.10837521,-1.2868973,0.25604632,0
0.6800000000000004,15.57715183190765,0.01804019703683703,-1.0350186393566732,0.2644214340218995,16.351507,-0.9025514,0.46400008,-0.058098778,7.271565,-8.437618,0.86973757,0.49312305,-0.081159234,0.18401732,0.8463927,-7.461233,5.9104323,0.24675205,-0.10837521,-1.2868973,0.25604632,0
0.6900000000000004,15.57715183190765,0.01804019703683703,-1.0350186393566732,0.2644214340218995,16.351507,-0.9025514,0.46400008,-0.058098778,7.1969876,-8.37821,0.87243104,0.49295664,-0.076490164,0.18164638,0.847436,-7.454051,5.9709415,0.29201046,0.018040197,-1.0350187,0.26442143,0
0.7000000000000004,15.57715183190765,0.01804019703683703,-1.0350186393566732,0.2644214340218995,16.351507,-0.9025514,0.46400008,-0.058098778,7.1224866,-8.318204,0.87557954,0.49277616,-0.07181892,0.17927027,0.8484551,-7.4460354,6.0301614,0.33776218,0.018040197,-1.0350187,0.26442143,0
0.7100000000000004,15.57715183190765,0.01804019703683703,-1.0350186393566732,0.2644214340218995,16.351507,-0.9025514,0.46400008,-0.058098778,7.04807,-8.257611,0.8791879,0.4925816,-0.067145616,0.17688905,0.84945,-7.4371834,6.0880876,0.3839907,0.018040197,-1.0350187,0.26442143,0
0.7200000000000004,15.196965090146504,0.24219591633734075,-0.9503651113518439,0.2363171637597992,16.03187,-0.3404739,0.28168997,-0.06673396,6.973746,-8.196445,0.8832609,0.492373,-0.062470395,0.17450276,0.8504206,-7.427492,6.1447163,0.43067956,0.018040197,-1.0350187,0.26442143,0
0.7300000000000004,15.196965090146504,0.24219591633734075,-0.9503651113518439,0.2363171637597992,16.03187,-0.3404739,0.28168997,-0.06673396,6.899522,-8.1347275,0.8877852,0.49226674,-0.057626124,0.17326453,0.8510771,-7.417131,6.19879,0.4742243,0.24219592,-0.9503651,0.23631716,0
0.7400000000000004,15.196965090146504,0.24219591633734075,-0.9503651113518439,0.2363171637597992,16.03187,-0.3404739,0.28168997,-0.06673396,6.825407,-8.072474,0.89274645,0.49214798,-0.05278039,0.1720219,0.8517119,-7.4057198,6.2518516,0.5180712,0.24219592,-0.9503651,0.23631716,0
0.7500000000000004,15.196965090146504,0.24219591633734075,-0.9503651113518439,0.2363171637597992,16.03187,-0.3404739,0.28168997,-0.06673396,6.751412,-8.009695,0.8981476,0.49201667,-0.047933314,0.17077488,0.8523251,-7.393257,6.303896,0.5622056,0.24219592,-0.9503651,0.23631716,0
0.7600000000000005,14.818923919706027,0.37677370501230634,-0.6148662838605715,0.25210686625390794,15.8119335,-0.06558729,0.78445023,0.01335552,6.6775465,-7.9464006,0.9039915,0.49187285,-0.043085016,0.16952352,0.85291654,-7.3797417,6.354922,0.6066128,0.24219592,-0.9503651,0.23631716,0
0.7700000000000005,14.818923919706027,0.37677370501230634,-0.6148662838605715,0.25210686625390794,15.8119335,-0.06558729,0.78445023,0.01335552,6.6038194,-7.882606,0.9102629,0.49139643,-0.03932225,0.1696712,0.8533434,-7.365566,6.4038706,0.64766395,0.37677372,-0.61486626,0.25210688,0
0.7800000000000005,14.818923919706027,0.37677370501230634,-0.6148662838605715,0.25210686625390794,15.8119335,-0.06558729,0.78445023,0.01335552,6.530238,-7.8183246,0.9169451,0.49091285,-0.03555891,0.16981639,0.8537579,-7.350446,6.452324,0.6887892,0.37677372,-0.61486626,0.25210688,0
0.7900000000000005,14.818923919706027,0.37677370501230634,-0.6148662838605715,0.25210686625390794,15.8119335,-0.06558729,0.78445023,0.01335552,6.456814,-7.7535615,0.92403895,0.49042213,-0.031795047,0.16995911,0.85415995,-7.334382,6.5002813,0.7299803,0.37677372,-0.61486626,0.25210688,0
0.8000000000000005,14.250560739547945,0.49766468725505636,-0.8282651917000023,0.22210860380577613,13.910611,0.075579405,1.4088553,-0.10362376,6.383555,-7.688321,0.93154496,0.48992425,-0.028030721,0.17009936,0.8545494,-7.317373,6.547743,0.771229,0.37677372,-0.61486626,0.25210688,0
0.8100000000000005,14.250560739547945,0.49766468725505636,-0.8282651917000023,0.22210860380577613,13.910611,0.075579405,1.4088553,-0.10362376,6.310467,-7.6226177,0.939437,0.4897434,-0.02308344,0.17022587,0.8547759,-7.299994,6.592842,0.80718774,0.4976647,-0.8282652,0.2221086,0
0.8200000000000005,14.250560739547945,0.49766468725505636,-0.8282651917000023,0.22210860380577613,13.910611,0.075579405,1.4088553,-0.10362376,6.237559,-7.556466,0.94768894,0.48955053,-0.018135589,0.17034818,0.8549813,-7.281402,6.6372905,0.84320116,0.4976647,-0.8282652,0.2221086,0
0.8300000000000005,14.250560739547945,0.49766468725505636,-0.8282651917000023,0.22210860380577613,13.910611,0.075579405,1.4088553,-0.10362376,6.164843,-7.489874,0.95630115,0.4893456,-0.013187293,0.17046632,0.8551656,-7.261599,6.681086,0.8792558,0.4976647,-0.8282652,0.2221086,0
0.8400000000000005,14.250560739547945,0.49766468725505636,-0.8282651917000023,0.22210860380577613,13.4319515,0.009498112,1.1496167,-0.14687386,6.092331,-7.422847,0.9652741,0.48912868,-0.008238671,0.17058025,0.8553289,-7.2405844,6.724228,0.915338,0.4976647,-0.8282652,0.2221086,0
0.8500000000000005,14.250560739547945,0.49766468725505636,-0.8282651917000023,0.22210860380577613,13.4319515,0.009498112,1.1496167,-0.14687386,6.0200353,-7.355392,0.97460794,0.48889974,-0.0032898476,0.17069,0.85547125,-7.2183585,6.766714,0.9514342,0.4976647,-0.8282652,0.2221086,0
0.8600000000000005,14.250560739547945,0.49766468725505636,-0.8282651917000023,0.22210860380577613,13.4319515,0.009498112,1.1496167,-0.14687386,5.9479675,-7.2875147,0.98430276,0.48865876,0.0016590571,0.17079554,0.8555926,-7.194923,6.8085437,0.98753095,0.4976647,-0.8282652,0.2221086,0
0.8700000000000006,14.250560739547945,0.49766468725505636,-0.8282651917000023,0.22210860380577613,13.4319515,0.009498112,1.1496167,-0.14687386,5.876141,-7.2192225,0.9943585,0.48840576,0.0066079213,0.1708969,0.855693,-7.170278,6.8497148,1.0236148,0.4976647,-0.8282652,0.2221086,0
0.8800000000000006,13.822955119996486,0.5119427523039608,-0.35413230731871487,0.2686196651413647,13.206416,-0.059756815,1.0964738,-0.21139999,5.8045664,-7.1505227,1.0047749,0.4881408,0.011556624,0.17099406,0.85577226,-7.1444244,6.890226,1.0596719,0.4976647,-0.8282652,0.2221086,0
0.8900000000000006,13.822955119996486,0.5119427523039608,-0.35413230731871487,0.2686196651413647,13.206416,-0.059756815,1.0964738,-0.21139999,5.7332525,-7.081426,1.0155315,0.4872618,0.014550998,0.17230375,0.8559648,-7.1182976,6.9290905,1.0916269,0.51194274,-0.3541323,0.26861966,0
0.9000000000000006,13.822955119996486,0.5119427523039608,-0.35413230731871487,0.2686196651413647,13.206416,-0.059756815,1.0964738,-0.21139999,5.662204,-7.011941,1.026607,0.4863772,0.017545205,0.17361146,0.85614747,-7.0913277,6.967874,1.1234338,0.51194274,-0.3541323,0.26861966,0
0.9100000000000006,13.822955119996486,0.5119427523039608,-0.35413230731871487,0.2686196651413647,13.206416,-0.059756815,1.0964738,-0.21139999,5.5914288,-6.9420686,1.0379996,0.485487,0.020539207,0.17491719,0.8563204,-7.0635147,7.006577,1.155087,0.51194274,-0.3541323,0.26861966,0
0.9200000000000006,12.955987152385628,0.5611319472461288,-0.08446875132357125,0.2704719944569097,12.630308,-0.05411935,0.9749946,-0.2000222,5.520936,-6.8718095,1.0497081,0.48459125,0.023532975,0.1762209,0.8564834,-7.0348597,7.0452,1.1865807,0.51194274,-0.3541323,0.26861966,0
0.9300000000000006,12.955987152385628,0.5611319472461288,-0.08446875132357125,0.2704719944569097,12.630308,-0.05411935,0.9749946,-0.2000222,5.450725,-6.8011765,1.06169,0.48343897,0.0254925,0.17838652,0.85663015,-7.007264,7.081447,1.2097667,0.56113195,-0.08446875,0.270472,0
0.9400000000000006,12.955987152385628,0.5611319472461288,-0.08446875132357125,0.2704719944569097,12.630308,-0.05411935,0.9749946,-0.2000222,5.380793,-6.7301793,1.0739026,0.48228192,0.027451772,0.18055041,0.8567684,-6.9790144,7.117944,1.2327274,0.56113195,-0.08446875,0.270472,0
0.9500000000000006,12.955987152385628,0.5611319472461288,-0.08446875132357125,0.2704719944569097,12.630308,-0.05411935,0.9749946,-0.2000222,5.3111467,-6.658816,1.0863438,0.4811201,0.029410772,0.18271251,0.85689825,-6.9501123,7.1546903,1.2554584,0.56113195,-0.08446875,0.270472,0
0.9600000000000006,12.294904908690317,0.48668122661963265,0.495437211572908,0.37088100496024656,12.722249,-0.04333179,0.17616984,-0.23470974,5.241793,-6.5870843,1.099011,0.47995353,0.031369485,0.18487279,0.8570196,-6.92056,7.191687,1.2779553,0.56113195,-0.08446875,0.270472,1
0.9700000000000006,12.294904908690317,0.48668122661963265,0.495437211572908,0.37088100496024656,12.722249,-0.04333179,0.17616984,-0.23470974,5.1727347,-6.5149846,1.1118914,0.4808027,0.030293602,0.18514648,0.8565231,-6.8912044,7.228231,1.2981278,-0.04333179,0.17616984,-0.23470974,1
0.9800000000000006,12.294904908690317,0.48668122661963265,0.495437211572908,0.37088100496024656,12.722249,-0.04333179,0.17616984,-0.23470974,5.1039686,-6.4425187,1.1249735,0.48165083,0.029217653,0.18541977,0.8560248,-6.8620133,7.264936,1.3182911,-0.04333179,0.17616984,-0.23470974,1
0.9900000000000007,12.294904908690317,0.48668122661963265,0.495437211572908,0.37088100496024656,12.722249,-0.04333179,0.17616984,-0.23470974,5.035493,-6.369685,1.1382571,0.4824979,0.02814164,0.18569265,0.8555246,-6.8329873,7.301802,1.3384447,-0.04333179,0.17616984,-0.23470974,1
1.0000000000000007,11.179785365690112,0.7051570268662809,-0.4688420772093863,0.510022409560466,11.5642395,-0.175821,-0.8255568,-0.10356115,4.967307,-6.296482,1.1517423,0.4833439,0.027065568,0.18596512,0.8550225,-6.8041253,7.3388305,1.358588,-0.04333179,0.17616984,-0.23470974,1
1.0100000000000007,11.179785365690112,0.7051570268662809,-0.4688420772093863,0.510022409560466,11.5642395,-0.175821,-0.8255568,-0.10356115,4.899397,-6.2229257,1.1653754,0.4845737,0.030073458,0.18323067,0.85481626,-6.7778563,7.372245,1.3680358,-0.175821,-0.8255568,-0.10356115,1
1.0200000000000007,11.179785365690112,0.7051570268662809,-0.4688420772093863,0.510022409560466,11.5642395,-0.175821,-0.8255568,-0.10356115,4.8317513,-6.14904,1.1791037,0.4857947,0.033080805,0.18049291,0.8545945,-6.751249,7.404764,1.3776745,-0.175821,-0.8255568,-0.10356115,1
1.0300000000000007,11.179785365690112,0.7051570268662809,-0.4688420772093863,0.510022409560466,11.5642395,-0.175821,-0.8255568,-0.10356115,4.764374,-6.074834,1.1929294,0.48700693,0.036087554,0.17775188,0.85435736,-6.7243056,7.4363856,1.3874967,-0.175821,-0.8255568,-0.10356115,1
1.0400000000000007,11.179785365690112,0.7051570268662809,-0.4688420772093863,0.510022409560466,11.625564,0.02496947,-1.2492633,-0.08639324,4.6972666,-6.000316,1.2068542,0.48821035,0.03909365,0.17500764,0.85410476,-6.6970286,7.467107,1.3974953,-0.175821,-0.8255568,-0.10356115,1
1.0500000000000007,11.179785365690112,0.7051570268662809,-0.4688420772093863,0.510022409560466,11.625564,0.02496947,-1.2492633,-0.08639324,4.630435,-5.9254947,1.2208828,0.489658,0.044413213,0.17207824,0.8536111,-6.6691074,7.4969664,1.4082255,0.02496947,-1.2492633,-0.08639324,1
1.0600000000000007,11.179785365690112,0.7051570268662809,-0.4688420772093863,0.510022409560466,11.625564,0.02496947,-1.2492633,-0.08639324,4.5638866,-5.850381,1.2350193,0.49108642,0.049731035,0.16914207,0.85308397,-6.6404114,7.525604,1.4190826,0.02496947,-1.2492633,-0.08639324,1
1.0700000000000007,11.179785365690112,0.7051570268662809,-0.4688420772093863,0.510022409560466,11.625564,0.02496947,-1.2492633,-0.08639324,4.497629,-5.774987,1.2492648,0.4924956,0.055046905,0.16619928,0.8525233,-6.6109467,7.553014,1.4300501,0.02496947,-1.2492633,-0.08639324,1
1.0800000000000007,10.246712835996489,0.9625184950674328,-2.8118126867590085,0.7696565020725629,12.224285,0.37030655,-1.2858721,-0.31296787,4.43167,-5.699325,1.2636205,0.49388546,0.06036062,0.16324997,0.8519293,-6.580718,7.5791917,1.4411113,0.02496947,-1.2492633,-0.08639324,0
1.0900000000000007,10.246712835996489,0.9625184950674328,-2.8118126867590085,0.7696565020725629,12.224285,0.37030655,-1.2858721,-0.31296787,4.366001,-5.6234236,1.2780222,0.4925535,0.07533535,0.160155,0.85209525,-6.5528083,7.600823,1.4391983,0.9625185,-2.8118126,0.7696565,0
1.1000000000000008,10.246712835996489,0.9625184950674328,-2.8118126867590085,0.7696565020725629,12.224285,0.37030655,-1.2858721,-0.31296787,4.300622,-5.547315,1.2924037,0.49110553,0.090292335,0.15702228,0.85206044,-6.5226426,7.620424,1.437039,0.9625185,-2.8118126,0.7696565,0
1.1100000000000008,10.246712835996489,0.9625184950674328,-2.8118126867590085,0.7696565020725629,12.224285,0.37030655,-1.2858721,-0.31296787,4.2355556,-5.471021,1.3067619,0.4895418,0.10522804,0.15385258,0.8518249,-6.490234,7.6379933,1.434541,0.9625185,-2.8118126,0.7696565,0
1.1200000000000008,9.010646253987463,1.03299867025477,-4.892168389456459,0.8743520382163662,11.895436,0.50595117,-1.8035113,-0.118492246,4.170825,-5.394562,1.321093,0.48786274,0.12013894,0.15064663,0.8513886,-6.455596,7.6535335,1.4316118,0.9625185,-2.8118126,0.7696565,0
1.1300000000000008,9.010646253987463,1.03299867025477,-4.892168389456459,0.8743520382163662,11.895436,0.50595117,-1.8035113,-0.118492246,4.106431,-5.3179674,1.335335,0.48704806,0.14410177,0.14253764,0.84953064,-6.4228287,7.6648183,1.4166772,1.0329987,-4.8921685,0.87435204,0
1.1400000000000008,9.010646253987463,1.03299867025477,-4.892168389456459,0.8743520382163662,11.895436,0.50595117,-1.8035113,-0.118492246,4.042379,-5.2412767,1.3494239,0.48591968,0.16797176,0.13433684,0.8471255,-6.3871884,7.672726,1.4009473,1.0329987,-4.8921685,0.87435204,0
1.1500000000000008,9.010646253987463,1.03299867025477,-4.892168389456459,0.8743520382163662,11.895436,0.50595117,-1.8035113,-0.118492246,3.978697,-5.164524,1.3633505,0.4844783,0.19173357,0.12604952,0.84417474,-6.348738,7.677263,1.3842021,1.0329987,-4.8921685,0.87435204,0
1.1600000000000008,8.447675653522934,0.6754021829880702,-5.99999598722003,0.906145701360972,12.113347,0.23257005,-2.9247656,0.35902983,3.9154136,-5.087743,1.3771036,0.4827249,0.21537188,0.11768101,0.84068024,-6.3075485,7.678443,1.3662245,1.0329987,-4.8921685,0.87435204,0
1.1700000000000008,8.447675653522934,0.6754021829880702,-5.99999598722003,0.906145701360972,12.113347,0.23257005,-2.9247656,0.35902983,3.8525417,-5.010967,1.3906451,0.48149434,0.24265103,0.1050096,0.83561784,-6.2663717,7.6760654,1.341834,0.67540216,-5.999996,0.9061457,0
1.1800000000000008,8.447675653522934,0.6754021829880702,-5.99999598722003,0.906145701360972,12.113347,0.23257005,-2.9247656,0.35902983,3.7900944,-4.9342356,1.4039344,0.4798151,0.26970404,0.09224033,0.82977676,-6.2226286,7.66964,1.3157029,0.67540216,-5.999996,0.9061457,0
1.1900000000000008,8.447675653522934,0.6754021829880702,-5.99999598722003,0.906145701360972,12.113347,0.23257005,-2.9247656,0.35902983,3.7280972,-4.8575883,1.4169524,0.47768876,0.29650572,0.07938511,0.82316244,-6.176446,7.6592183,1.287552,0.67540216,-5.999996,0.9061457,0
1.2000000000000008,8.024231415887156,0.33437854952585333,-5.999993314494625,0.8414551419280305,12.913132,0.44935566,-3.6636248,0.30919763,3.6665733,-4.781065,1.4296775,0.4751173,0.32303113,0.066455916,0.81578106,-6.1279607,7.6448665,1.2571092,0.67540216,-5.999996,0.9061457,0
1.2100000000000009,8.024231415887156,0.33437854952585333,-5.999993314494625,0.8414551419280305,12.913132,0.44935566,-3.6636248,0.30919763,3.6055322,-4.7047005,1.4420693,0.47292033,0.3484259,0.05217883,0.8076038,-6.0799303,7.627523,1.2208908,0.33437854,-5.9999933,0.84145516,0
1.2200000000000009,8.024231415887156,0.33437854952585333,-5.999993314494625,0.8414551419280305,12.913132,0.44935566,-3.6636248,0.30919763,3.5449803,-4.628528,1.4540864,0.47028807,0.37349996,0.03785372,0.7986831,-6.030195,7.6064625,1.1821194,0.33437854,-5.9999933,0.84145516,0
1.2300000000000009,8.024231415887156,0.33437854952585333,-5.999993314494625,0.8414551419280305,12.913132,0.44935566,-3.6636248,0.30919763,3.4849336,-4.5525846,1.4657022,0.46722296,0.39823022,0.023493769,0.7890273,-5.9789057,7.5817857,1.1405652,0.33437854,-5.9999933,0.84145516,0
1.2400000000000009,8.024231415887156,0.33437854952585333,-5.999993314494625,0.8414551419280305,12.931523,0.32756406,-1.7815658,0.04603285,3.4254067,-4.476905,1.4768876,0.46372777,0.422594,0.009112194,0.7786453,-5.926218,7.5536056,1.096009,0.33437854,-5.9999933,0.84145516,0
1.2500000000000009,8.024231415887156,0.33437854952585333,-5.999993314494625,0.8414551419280305,12.931523,0.32756406,-1.7815658,0.04603285,3.366413,-4.4015236,1.4876114,0.4598058,0.4465688,-0.005277768,0.76754653,-5.872294,7.522049,1.0482423,0.33437854,-5.9999933,0.84145516,0
1.260000000000001,8.024231415887156,0.33437854952585333,-5.999993314494625,0.8414551419280305,12.931523,0.32756406,-1.7815658,0.04603285,3.3079646,-4.3264747,1.4978409,0.4554606,0.47013253,-0.019662874,0.75574136,-5.8173003,7.4872546,0.9970685,0.33437854,-5.9999933,0.84145516,0
1.270000000000001,8.024231415887156,0.33437854952585333,-5.999993314494625,0.8414551419280305,12.931523,0.32756406,-1.7815658,0.04603285,3.2500706,-4.251789,1.5075407,0.45069617,0.49326357,-0.034029882,0.7432406,-5.7614074,7.4493723,0.9423034,0.33437854,-5.9999933,0.84145516,0
1.280000000000001,8.631599990471233,0.1368930473723211,-5.999995112604879,1.0323272063967122,11.519854,-0.11031518,-1.641833,-0.00127507,3.192739,-4.177497,1.516674,0.4455169,0.51594055,-0.048365563,0.7300558,-5.7047877,7.408565,0.88377625,0.33437854,-5.9999933,0.84145516,0
1.290000000000001,8.631599990471233,0.1368930473723211,-5.999995112604879,1.0323272063967122,11.519854,-0.11031518,-1.641833,-0.00127507,3.135998,-4.1036434,1.5252165,0.4397389,0.53765494,-0.06386964,0.71657395,-5.643335,7.3616705,0.82405317,0.13689305,-5.999995,1.0323272,0
1.300000000000001,8.631599990471233,0.1368930473723211,-5.999995112604879,1.0323272063967122,11.519854,-0.11031518,-1.641833,-0.00127507,3.0798733,-4.0302734,1.5331402,0.43355325,0.55887085,-0.07931451,0.7024278,-5.581595,7.311914,0.7600234,0.13689305,-5.999995,1.0323272,0
1.310000000000001,8.631599990471233,0.1368930473723211,-5.999995112604879,1.0323272063967122,11.519854,-0.11031518,-1.641833,-0.00127507,3.0243666,-3.9574144,1.5404017,0.42696565,0.57956874,-0.09468585,0.68763053,-5.5197525,7.2595077,0.6915452,0.13689305,-5.999995,1.0323272,0
1.320000000000001,8.33794427106992,-0.3532840193340892,-1.4292015831919271,1.0943607698844957,12.7983055,-0.39845765,0.6519434,0.05412576,2.969478,-3.8850915,1.5469556,0.41998222,0.59972936,-0.109969415,0.6721957,-5.4579935,7.204674,0.6184931,0.13689305,-5.999995,1.0323272,0
1.330000000000001,8.33794427106992,-0.3532840193340892,-1.4292015831919271,1.0943607698844957,12.7983055,-0.39845765,0.6519434,0.05412576,2.9151955,-3.813317,1.552756,0.41656,0.60316396,-0.11743487,0.6699856,-5.3985786,7.1500845,0.5414132,-0.35328403,-1.4292016,1.0943608,0
1.340000000000001,8.33794427106992,-0.3532840193340892,-1.4292015831919271,1.0943607698844957,12.7983055,-0.39845765,0.6519434,0.05412576,2.8615055,-3.742092,1.5577806,0.41310275,0.60654783,-0.12489043,0.66771907,-5.339458,7.094812,0.4633568,-0.35328403,-1.4292016,1.0943608,0
1.350000000000001,8.33794427106992,-0.3532840193340892,-1.4292015831919271,1.0943607698844957,12.7983055,-0.39845765,0.6519434,0.05412576,2.8084054,-3.6714227,1.5620198,0.40961075,0.60988075,-0.13233548,0.66539645,-5.2806363,7.0388756,0.38431215,-0.35328403,-1.4292016,1.0943608,0
1.360000000000001,8.146014746067069,-0.6853833127202208,3.2961916552108774,1.199957537393667,11.483597,-1.397434,3.9277165,1.154017,2.7558918,-3.6013165,1.5654635,0.4060843,0.61316234,-0.1397694,0.6630178,-5.222117,6.9822936,0.30426788,-0.35328403,-1.4292016,1.0943608,0
1.370000000000001,8.146014746067069,-0.6853833127202208,3.2961916552108774,1.199957537393667,11.483597,-1.397434,3.9277165,1.154017,2.7039552,-3.531771,1.5681037,0.40644622,0.5999077,-0.13900542,0.67497414,-5.1652064,6.926872,0.22418916,-0.6853833,3.2961917,1.1999575,0
1.380000000000001,8.146014746067069,-0.6853833127202208,3.2961916552108774,1.199957537393667,11.483597,-1.397434,3.9277165,1.154017,2.6525867,-3.4627767,1.5699564,0.40667838,0.5864615,-0.13819703,0.68671495,-5.1085505,6.872117,0.14675792,-0.6853833,3.2961917,1.1999575,0
1.390000000000001,8.146014746067069,-0.6853833127202208,3.2961916552108774,1.199957537393667,11.483597,-1.397434,3.9277165,1.154017,2.601783,-3.3943264,1.5710479,0.40678066,0.5728281,-0.13734452,0.69823647,-5.052235,6.8180704,0.07195404,-0.6853833,3.2961917,1.1999575,0
1.400000000000001,7.660645198279828,-0.9464547996082072,5.343167570654174,1.2120809340157948,9.903533,-2.3388295,5.6486564,2.0297604,2.5515404,-3.3264132,1.5714045,0.40675306,0.55901176,-0.13644814,0.70953506,-4.9963484,6.764769,-0.00024591945,-0.6853833,3.2961917,1.1999575,0
1.410000000000001,7.660645198279828,-0.9464547996082072,5.343167570654174,1.2120809340157948,9.903533,-2.3388295,5.6486564,2.0297604,2.5018375,-3.2590122,1.571045,0.4085863,0.5370909,-0.13227475,0.7260126,-4.9443684,6.7155905,-0.07101918,-0.9464548,5.343168,1.212081,0
1.420000000000001,7.660645198279828,-0.9464547996082072,5.343167570654174,1.2120809340157948,9.903533,-2.3388295,5.6486564,2.0297604,2.4526503,-3.1920965,1.569997,0.41010377,0.51475495,-0.12799913,0.74192905,-4.893264,6.667787,-0.13796952,-0.9464548,5.343168,1.212081,0
1.430000000000001,7.660645198279828,-0.9464547996082072,5.343167570654174,1.2120809340157948,9.903533,-2.3388295,5.6486564,2.0297604,2.403969,-3.1256516,1.5682983,0.4113043,0.49202126,-0.1236246,0.7572721,-4.8432198,6.621465,-0.20118442,-0.9464548,5.343168,1.212081,0
1.440000000000001,7.660645198279828,-0.9464547996082072,5.343167570654174,1.2120809340157948,10.803518,-2.8533816,7.0911446,1.2006407,2.3557823,-3.0596619,1.5659858,0.41218695,0.46890733,-0.11915452,0.77203,-4.794419,6.5767245,-0.26076287,-0.9464548,5.343168,1.212081,0
1.450000000000001,7.660645198279828,-0.9464547996082072,5.343167570654174,1.2120809340157948,10.803518,-2.8533816,7.0911446,1.2006407,2.3080761,-2.994111,1.5630952,0.41275108,0.44543102,-0.11459237,0.7861912,-4.7470403,6.5336614,-0.3168151,-0.9464548,5.343168,1.212081,0
1.460000000000001,7.660645198279828,-0.9464547996082072,5.343167570654174,1.2120809340157948,10.803518,-2.8533816,7.0911446,1.2006407,2.2608364,-2.9289823,1.5596613,0.41299623,0.42161047,-0.10994166,0.7997449,-4.7012587,6.4923663,-0.36946234,-0.9464548,5.343168,1.212081,0
1.470000000000001,7.660645198279828,-0.9464547996082072,5.343167570654174,1.2120809340157948,10.803518,-2.8533816,7.0911446,1.2006407,2.214045,-2.864257,1.5557172,0.4129222,0.3974641,-0.10520599,0.8126805,-4.6572433,6.4529247,-0.41883618,-0.9464548,5.343168,1.212081,0
1.480000000000001,7.223908557371225,-1.2180723960999373,5.9514184507881165,1.042800712681743,7.1446037,-2.061187,7.660848,0.9308064,2.1676843,-2.7999167,1.5512953,0.4125291,0.37301055,-0.10038901,0.82498807,-4.615159,6.4154167,-0.46507844,-0.9464548,5.343168,1.212081,0
1.490000000000001,7.223908557371225,-1.2180723960999373,5.9514184507881165,1.042800712681743,7.1446037,-2.061187,7.660848,0.9308064,2.1217227,-2.7359312,1.5464108,0.41329065,0.34525266,-0.09503587,0.83723354,-4.5775647,6.381995,-0.51134574,-1.2180724,5.9514184,1.0428007,0
1.500000000000001,7.223908557371225,-1.2180723960999373,5.9514184507881165,1.042800712681743,7.1446037,-2.061187,7.660848,0.9308064,2.0761247,-2.6722693,1.5410786,0.4136597,0.3171669,-0.08959248,0.84868395,-4.542422,6.3506913,-0.5546549,-1.2180724,5.9514184,1.0428007,0
1.5100000000000011,7.223908557371225,-1.2180723960999373,5.9514184507881165,1.042800712681743,7.1446037,-2.061187,7.660848,0.9308064,2.0308652,-2.6089094,1.5353271,0.41363585,0.28877994,-0.084064,0.8593283,-4.5098896,6.3215866,-0.5952086,-1.2180724,5.9514184,1.0428007,0
1.5200000000000011,7.135943840458378,-1.3525002103554051,5.999984470507394,0.8101787793896638,7.9310145,-2.7957048,6.335978,1.2004148,1.9859176,-2.5458298,1.5291831,0.4132192,0.2601187,-0.07845569,0.86915666,-4.4801173,6.2947545,-0.63321984,-1.2180724,5.9514184,1.0428007,0
1.5300000000000011,7.135943840458378,-1.3525002103554051,5.999984470507394,0.8101787793896638,7.9310145,-2.7957048,6.335978,1.2004148,1.9412515,-2.4830053,1.5226672,0.41361222,0.2308114,-0.07295367,0.877684,-4.453606,6.270543,-0.6696624,-1.3525002,5.9999843,0.81017876,0
1.5400000000000011,7.135943840458378,-1.3525002103554051,5.999984470507394,0.8101787793896638,7.9310145,-2.7957048,6.335978,1.2004148,1.8968351,-2.4204109,1.5157971,0.4136073,0.20128207,-0.067381464,0.885367,-4.4301734,6.248664,-0.704022,-1.3525002,5.9999843,0.81017876,0
1.5500000000000012,7.135943840458378,-1.3525002103554051,5.999984470507394,0.8101787793896638,7.9310145,-2.7957048,6.335978,1.2004148,1.852637,-2.3580236,1.508593,0.41320443,0.17155908,-0.061744425,0.89219815,-4.4099293,6.229171,-0.73654103,-1.3525002,5.9999843,0.81017876,0
1.5600000000000012,7.628679435726159,-1.3316597799947616,5.999986417855293,0.4860074262051557,7.413975,-2.92207,1.6228635,0.3452217,1.8086252,-2.295819,1.5010718,0.41240406,0.14167105,-0.05604799,0.89817095,-4.3929725,6.21211,-0.7674693,-1.3525002,5.9999843,0.81017876,0
1.5700000000000012,7.628679435726159,-1.3316597799947616,5.999986417855293,0.4860074262051557,7.413975,-2.92207,1.6228635,0.3452217,1.7647709,-2.2337782,1.4932718,0.4126502,0.1117813,-0.04997478,0.9026226,-4.378444,6.196515,-0.79233205,-1.3316598,5.9999866,0.48600742,0
1.5800000000000012,7.628679435726159,-1.3316597799947616,5.999986417855293,0.4860074262051557,7.413975,-2.92207,1.6228635,0.3452217,1.7210435,-2.17188,1.485229,0.41250426,0.081785336,-0.04385409,0.90621656,-4.36758,6.183609,-0.81604564,-1.3316598,5.9999866,0.48600742,0
1.5900000000000012,7.628679435726159,-1.3316597799947616,5.999986417855293,0.4860074262051557,7.413975,-2.92207,1.6228635,0.3452217,1.6774063,-2.110097,1.4769537,0.41196638,0.05171166,-0.03769173,0.9089495,-4.360433,6.173422,-0.838892,-1.3316598,5.9999866,0.48600742,0
1.6000000000000012,8.748239426961316,-1.1424949738833328,5.983174816815404,0.2482791887693271,8.171031,-2.3989742,2.7495391,0.67527,1.6338218,-2.048402,1.468453,0.41103706,0.021588847,-0.031493556,0.91081876,-4.357045,6.1659737,-0.86115664,-1.3316598,5.9999866,0.48600742,0
1.6100000000000012,8.748239426961316,-1.1424949738833328,5.983174816815404,0.2482791887693271,8.171031,-2.3989742,2.7495391,0.67527,1.5902528,-1.9867718,1.4597874,0.41078094,-0.0080516655,-0.024413317,0.9113717,-4.35745,6.160623,-0.87195164,-1.1424949,5.983175,0.24827918,0
1.6200000000000012,8.748239426961316,-1.1424949738833328,5.983174816815404,0.2482791887693271,8.171031,-2.3989742,2.7495391,0.67527,1.5466585,-1.9251785,1.451014,0.41014317,-0.0376847,-0.017310398,0.911078,-4.362068,6.158531,-0.882729,-1.1424949,5.983175,0.24827918,0
1.6300000000000012,8.748239426961316,-1.1424949738833328,5.983174816815404,0.2482791887693271,8.171031,-2.3989742,2.7495391,0.67527,1.502997,-1.8635899,1.4421318,0.4091243,-0.06728272,-0.010191395,0.90993774,-4.3708916,6.1596956,-0.89381325,-1.1424949,5.983175,0.24827918,0
1.6400000000000012,8.748239426961316,-1.1424949738833328,5.983174816815404,0.2482791887693271,8.539539,-2.3147817,2.9441733,0.9853589,1.4592264,-1.8019733,1.4331356,0.4077254,-0.09681823,-0.0030629241,0.90795213,-4.383896,6.1641016,-0.9055278,-1.1424949,5.983175,0.24827918,0
1.6500000000000012,8.748239426961316,-1.1424949738833328,5.983174816815404,0.2482791887693271,8.539539,-2.3147817,2.9441733,0.9853589,1.4153049,-1.7402968,1.4240179,0.4059477,-0.1262638,0.0040683923,0.905123,-4.4010396,6.1717215,-0.91819376,-1.1424949,5.983175,0.24827918,0
1.6600000000000013,8.748239426961316,-1.1424949738833328,5.983174816815404,0.2482791887693271,8.539539,-2.3147817,2.9441733,0.9853589,1.3711916,-1.6785281,1.4147675,0.40379286,-0.15559204,0.01119593,0.9014529,-4.422268,6.182518,-0.9321287,-1.1424949,5.983175,0.24827918,0
1.6700000000000013,8.748239426961316,-1.1424949738833328,5.983174816815404,0.2482791887693271,8.539539,-2.3147817,2.9441733,0.9853589,1.3268459,-1.6166358,1.40537,0.40126285,-0.18477574,0.018313067,0.8969453,-4.4475102,6.1964397,-0.9476456,-1.1424949,5.983175,0.24827918,0
1.6800000000000013,9.900086349661532,-0.8820456327576816,2.8784863212428435,0.11920644941945381,10.387542,-1.3281006,2.3063126,1.1745125,1.2822279,-1.554589,1.3958081,0.39836,-0.21378778,0.02541319,0.89160436,-4.4766808,6.2134237,-0.96505123,-1.1424949,5.983175,0.24827918,0
1.6900000000000013,9.900086349661532,-0.8820456327576816,2.8784863212428435,0.11920644941945381,10.387542,-1.3281006,2.3063126,1.1745125,1.23728,-1.4923465,1.3861148,0.39647484,-0.22833705,0.027338848,0.8887758,-4.513283,6.235295,-0.9738068,-0.8820456,2.8784864,0.11920645,0
1.7000000000000013,9.900086349661532,-0.8820456327576816,2.8784863212428435,0.11920644941945381,10.387542,-1.3281006,2.3063126,1.1745125,1.1919545,-1.4298785,1.3763275,0.3944997,-0.24283448,0.029258301,0.88574564,-4.5521717,6.258544,-0.98388636,-0.8820456,2.8784864,0.11920645,0
1.7100000000000013,9.900086349661532,-0.8820456327576816,2.8784863212428435,0.11920644941945381,10.387542,-1.3281006,2.3063126,1.1745125,1.1462288,-1.367171,1.3664323,0.39243498,-0.2572768,0.031171115,0.8825144,-4.5933137,6.283148,-0.9953697,-0.8820456,2.8784864,0.11920645,0
1.7200000000000013,11.391037968844646,-0.5021531538500857,-0.3442862671067633,0.03278950333689446,10.693459,-1.2788123,1.0797105,0.9587834,1.1000806,-1.3042109,1.3564149,0.39028126,-0.27166075,0.033076856,0.8790829,-4.636674,6.30908,-1.0083351,-0.8820456,2.8784864,0.11920645,0
1.7300000000000013,11.391037968844646,-0.5021531538500857,-0.3442862671067633,0.03278950333689446,10.693459,-1.2788123,1.0797105,0.9587834,1.0534563,-1.2409668,1.3463254,0.38951018,-0.2711207,0.03024223,0.8796935,-4.6882095,6.339612,-1.0095465,-0.50215316,-0.34428626,0.032789502,0
1.7400000000000013,11.391037968844646,-0.5021531538500857,-0.3442862671067633,0.03278950333689446,10.693459,-1.2788123,1.0797105,0.9587834,1.0063158,-1.1774209,1.3362243,0.3887355,-0.27057812,0.027407326,0.88029593,-4.739931,6.369484,-1.0106515,-0.50215316,-0.34428626,0.032789502,0
1.7500000000000013,11.391037968844646,-0.5021531538500857,-0.3442862671067633,0.03278950333689446,10.693459,-1.2788123,1.0797105,0.9587834,0.9586571,-1.1135795,1.3261127,0.3879572,-0.27003303,0.024572164,0.8808902,-4.7918377,6.3986955,-1.0116535,-0.50215316,-0.34428626,0.032789502,0
1.7600000000000013,12.484755386926034,-0.18880797692796544,-1.8378243819661166,0.020563125241564274,11.6426325,-0.16079846,0.3855426,0.39442983,0.91047835,-1.0494493,1.3159916,0.3871753,-0.2694854,0.021736775,0.8814762,-4.843925,6.427245,-1.0125561,-0.50215316,-0.34428626,0.032789502,0
1.7700000000000014,12.484755386926034,-0.18880797692796544,-1.8378243819661166,0.020563125241564274,11.6426325,-0.16079846,0.3855426,0.39442983,0.86175424,-0.98502445,1.3059096,0.3870135,-0.26173732,0.017373666,0.8839752,-4.9007196,6.457442,-1.0036557,-0.18880798,-1.8378243,0.020563126,0
1.7800000000000014,12.484755386926034,-0.18880797692796544,-1.8378243819661166,0.020563125241564274,11.6426325,-0.16079846,0.3855426,0.39442983,0.8124678,-0.9203063,1.2959222,0.38681865,-0.2539669,0.013009075,0.8863988,-4.9563866,6.4859257,-0.9936987,-0.18880798,-1.8378243,0.020563126,0
1.7900000000000014,12.484755386926034,-0.18880797692796544,-1.8378243819661166,0.020563125241564274,11.6426325,-0.16079846,0.3855426,0.39442983,0.76263046,-0.85531193,1.2860392,0.38659078,-0.24617477,0.008643374,0.88874674,-5.0109076,6.512687,-0.9827219,-0.18880798,-1.8378243,0.020563126,0
1.8000000000000014,13.413226743876264,0.004632075562672262,-1.2121954580775625,0.0363059185879593,14.270029,1.271448,-0.51191,0.024541974,0.7122537,-0.7900585,1.276271,0.38632992,-0.23836164,0.004276936,0.8910188,-5.0642633,6.537718,-0.97076243,-0.18880798,-1.8378243,0.020563126,0
1.8100000000000014,13.413226743876264,0.004632075562672262,-1.2121954580775625,0.0363059185879593,14.270029,1.271448,-0.51191,0.024541974,0.6613294,-0.7245539,1.2666681,0.3861925,-0.23294713,0.0019992404,0.89251715,-5.1204343,6.5630264,-0.94971734,0.004632076,-1.2121955,0.03630592,0
1.8200000000000014,13.413226743876264,0.004632075562672262,-1.2121954580775625,0.0363059185879593,14.270029,1.271448,-0.51191,0.024541974,0.6098483,-0.6588018,1.2572789,0.3860409,-0.22752404,-0.00027852872,0.8939827,-5.1756372,6.58722,-0.9279904,0.004632076,-1.2121955,0.03630592,0
1.8300000000000014,13.413226743876264,0.004632075562672262,-1.2121954580775625,0.0363059185879593,14.270029,1.271448,-0.51191,0.024541974,0.5578201,-0.5928134,1.2481105,0.3858751,-0.2220926,-0.0025562875,0.89541537,-5.2298646,6.6102962,-0.905599,0.004632076,-1.2121955,0.03630592,0
1.8400000000000014,13.413226743876264,0.004632075562672262,-1.2121954580775625,0.0363059185879593,15.882684,0.9099533,-1.6114349,-0.02415149,0.50525445,-0.52659976,1.2391692,0.38569513,-0.21665297,-0.004833952,0.8968151,-5.2831073,6.632252,-0.88256085,0.004632076,-1.2121955,0.03630592,0
1.8500000000000014,13.413226743876264,0.004632075562672262,-1.2121954580775625,0.0363059185879593,15.882684,0.9099533,-1.6114349,-0.02415149,0.45216134,-0.46017224,1.2304615,0.38550097,-0.21120538,-0.007111439,0.8981819,-5.335357,6.6530843,-0.8588936,0.004632076,-1.2121955,0.03630592,0
1.8600000000000014,13.413226743876264,0.004632075562672262,-1.2121954580775625,0.0363059185879593,15.882684,0.9099533,-1.6114349,-0.02415149,0.39855072,-0.393542,1.2219936,0.38529262,-0.20575002,-0.009388666,0.8995156,-5.3866057,6.67279,-0.8346151,0.004632076,-1.2121955,0.03630592,0
1.8700000000000014,13.413226743876264,0.004632075562672262,-1.2121954580775625,0.0363059185879593,15.882684,0.9099533,-1.6114349,-0.02415149,0.34443265,-0.3267203,1.2137713,0.38507012,-0.20028712,-0.011665546,0.90081626,-5.436846,6.6913676,-0.8097432,0.004632076,-1.2121955,0.03630592,0
1.8800000000000014,13.910010816847137,0.08731735249865501,-0.9385698717844895,0.04126175807520249,13.802281,0.8051581,0.6300374,0.20482333,0.28981724,-0.25971848,1.2058008,0.38483346,-0.19481684,-0.013941998,0.9020838,-5.4860687,6.7088137,-0.7842959,0.004632076,-1.2121955,0.03630592,0
1.8900000000000015,13.910010816847137,0.08731735249865501,-0.9385698717844895,0.04126175807520249,13.802281,0.8051581,0.6300374,0.20482333,0.23470564,-0.19254446,1.1981102,0.38466272,-0.19041623,-0.0153137725,0.90307355,-5.5361137,6.7258615,-0.753735,0.087317355,-0.93856984,0.04126176,0
1.9000000000000015,13.910010816847137,0.08731735249865501,-0.9385698717844895,0.04126175807520249,13.802281,0.8051581,0.6300374,0.20482333,0.17909811,-0.1252041,1.1907277,0.38448343,-0.18601136,-0.016685208,0.9040431,-5.585251,6.74208,-0.72271794,0.087317355,-0.93856984,0.04126176,0
1.9100000000000015,13.910010816847137,0.08731735249865501,-0.9385698717844895,0.04126175807520249,13.802281,0.8051581,0.6300374,0.20482333,0.12300378,-0.057705715,1.1836575,0.38429555,-0.18160234,-0.018056272,0.9049926,-5.633476,6.7574687,-0.69125605,0.087317355,-0.93856984,0.04126176,0
1.9200000000000015,14.460070037974813,0.17868693213892162,-0.16189035432785623,0.054076487175492176,14.427796,0.48144582,0.05843421,0.06910072,0.06643176,0.009942414,1.1769041,0.3840991,-0.17718929,-0.019426933,0.9059219,-5.6807837,6.7720265,-0.6593608,0.087317355,-0.93856984,0.04126176,1
1.9300000000000015,14.460070037974813,0.17868693213892162,-0.16189035432785623,0.054076487175492176,14.427796,0.48144582,0.05843421,0.06910072,0.009382026,0.07773609,1.1704956,0.38421717,-0.17653555,-0.017072672,0.90604687,-5.7290964,6.7867928,-0.6223167,0.48144582,0.05843421,0.06910072,1
1.9400000000000015,14.460070037974813,0.17868693213892162,-0.16189035432785623,0.054076487175492176,14.427796,0.48144582,0.05843421,0.06910072,-0.04814871,0.14568016,1.164458,0.38433293,-0.17588073,-0.014718309,0.90616643,-5.776984,6.802107,-0.5851823,0.48144582,0.05843421,0.06910072,1
1.9500000000000015,14.460070037974813,0.17868693213892162,-0.16189035432785623,0.054076487175492176,14.427796,0.48144582,0.05843421,0.06910072,-0.10615619,0.2137801,1.1587923,0.38444635,-0.17522487,-0.0123638585,0.9062805,-5.824446,6.8179693,-0.547961,0.48144582,0.05843421,0.06910072,1
1.9600000000000015,14.605846231587524,0.11687363491074317,-0.2992534022847224,0.06139797583873099,16.479443,0.71250355,-0.69514215,-0.0032614935,-0.16463616,0.28204143,1.1534991,0.38455752,-0.17456795,-0.010009334,0.9063892,-5.8714814,6.83438,-0.510656,0.48144582,0.05843421,0.06910072,0
1.9700000000000015,14.605846231587524,0.11687363491074317,-0.2992534022847224,0.06139797583873099,16.479443,0.71250355,-0.69514215,-0.0032614935,-0.22358727,0.35046983,1.148588,0.3843658,-0.17298986,-0.010001467,0.90677303,-5.9186764,6.8512707,-0.47156858,0.11687364,-0.2992534,0.061397977,0
1.9800000000000015,14.605846231587524,0.11687363491074317,-0.2992534022847224,0.06139797583873099,16.479443,0.71250355,-0.69514215,-0.0032614935,-0.28300834,0.4190662,1.1440685,0.38417304,-0.17141129,-0.009993572,0.9071545,-5.9654713,6.8679748,-0.4323214,0.11687364,-0.2992534,0.061397977,0
1.9900000000000015,14.605846231587524,0.11687363491074317,-0.2992534022847224,0.06139797583873099,16.479443,0.71250355,-0.69514215,-0.0032614935,-0.34289533,0.48782867,1.1399423,0.38397923,-0.1698323,-0.00998565,0.9075336,-6.0118656,6.8844934,-0.3929159,0.11687364,-0.2992534,0.061397977,0
2.0000000000000013,,,,,16.16202,0.78936625,-0.4641053,-0.03702181,-0.40324426,0.5567554,1.1362109,0.38378444,-0.16825284,-0.009977701,0.90791017,-6.057859,6.900826,-0.35335347,0.11687364,-0.2992534,0.061397977,0
2.010000000000001,,,,,16.16202,0.78936625,-0.4641053,-0.03702181,-0.4640528,0.6258452,1.1328802,0.3835007,-0.16746755,-0.009686998,0.9081783,-6.1038103,6.9171376,-0.31277415,0.10405007,-0.12987317,0.080324516,0
2.020000000000001,,,,,16.16202,0.78936625,-0.4641053,-0.03702181,-0.5253197,0.69509804,1.1299556,0.38321662,-0.16668211,-0.009396288,0.9084457,-6.1495314,6.9334235,-0.2721158,0.10405007,-0.12987317,0.080324516,0
2.0300000000000007,,,,,16.16202,0.78936625,-0.4641053,-0.03702181,-0.5870427,0.7645136,1.1274382,0.38293222,-0.16589652,-0.00910557,0.9087124,-6.195022,6.9496837,-0.23137878,0.10405007,-0.12987317,0.080324516,0
2.0400000000000005,,,,,16.16202,0.78936625,-0.4641053,-0.03702181,-0.64921945,0.83409166,1.1253284,0.3826475,-0.1651108,-0.008814842,0.9089783,-6.2402825,6.9659185,-0.19056353,0.10405007,-0.12987317,0.080324516,0
2.0500000000000003,,,,,16.41361,0.8940547,-0.31778616,-0.046393555,-0.71184766,0.90383196,1.1236272,0.38236246,-0.16432494,-0.008524108,0.90924335,-6.2853127,6.9821286,-0.14967042,0.10405007,-0.12987317,0.080324516,1
2.06,,,,,16.41361,0.8940547,-0.31778616,-0.046393555,-0.7749499,0.97374433,1.1224166,0.38329008,-0.16116713,-0.0051051234,0.9094436,-6.334921,7.000463,-0.09238905,0.8940547,-0.31778616,-0.046393555,1
2.07,,,,,16.41361,0.8940547,-0.31778616,-0.046393555,-0.83854145,1.0438434,1.1217806,0.38420907,-0.15800567,-0.0016860242,0.9096234,-6.3831677,7.0194697,-0.03476017,0.8940547,-0.31778616,-0.046393555,1
2.0799999999999996,,,,,16.41361,0.8940547,-0.31778616,-0.046393555,-0.90260863,1.1141359,1.1217226,0.38511938,-0.15484066,0.0017331135,0.9097826,-6.4300485,7.0391455,0.023202382,0.8940547,-0.31778616,-0.046393555,1
2.0899999999999994,,,,,16.24709,0.7690375,-0.3881714,0.0412603,-0.96713775,1.1846285,1.1222458,0.38602102,-0.15167217,0.0051522125,0.9099212,-6.475559,7.0594883,0.08148471,0.8940547,-0.31778616,-0.046393555,1
2.099999999999999,,,,,16.24709,0.7690375,-0.3881714,0.0412603,-1.032113,1.2553266,1.1233454,0.38642293,-0.14841935,0.007933052,0.910267,-6.519273,7.0801992,0.1384873,0.7690375,-0.3881714,0.0412603,1
2.109999999999999,,,,,16.24709,0.7690375,-0.3881714,0.0412603,-1.0975189,1.3262341,1.1250166,0.38681766,-0.14516377,0.010713745,0.91059583,-6.5616903,7.1013446,0.19579089,0.7690375,-0.3881714,0.0412603,1
2.1199999999999988,,,,,16.24709,0.7690375,-0.3881714,0.0412603,-1.1633425,1.3973552,1.1272622,0.38720515,-0.14190552,0.013494238,0.9109077,-6.602809,7.122923,0.25338382,0.7690375,-0.3881714,0.0412603,1
2.1299999999999986,,,,,15.635459,0.50119156,-0.1979618,0.03603013,-1.2295707,1.4686942,1.1300852,0.3875855,-0.13864459,0.01627448,0.9112026,-6.6426253,7.1449337,0.31125444,0.7690375,-0.3881714,0.0412603,1
2.1399999999999983,,,,,15.635459,0.50119156,-0.1979618,0.03603013,-1.2961838,1.5402511,1.1334587,0.3877835,-0.13676797,0.018199194,0.91136557,-6.6798725,7.1664987,0.36346838,0.50119156,-0.1979618,0.03603013,1
2.149999999999998,,,,,15.635459,0.50119156,-0.1979618,0.03603013,-1.3631655,1.6120254,1.1373551,0.38797864,-0.13489036,0.020123776,0.91152185,-6.716358,7.188394,0.41582155,0.50119156,-0.1979618,0.03603013,1
2.159999999999998,,,,,15.635459,0.50119156,-0.1979618,0.03603013,-1.4305083,1.6840202,1.1417756,0.38817093,-0.13301174,0.022048213,0.91167146,-6.752079,7.2106194,0.46830946,0.50119156,-0.1979618,0.03603013,1
2.1699999999999977,,,,,14.66712,0.14391738,0.45898548,-0.008665246,-1.4982045,1.7562388,1.1467218,0.38836044,-0.13113217,0.023972487,0.9118144,-6.787036,7.2331743,0.5209277,0.50119156,-0.1979618,0.03603013,1
2.1799999999999975,,,,,14.66712,0.14391738,0.45898548,-0.008665246,-1.5662369,1.828678,1.1521478,0.38843817,-0.13294591,0.025514124,0.91147673,-6.8194904,7.2547574,0.56422526,0.14391738,0.45898548,-0.008665246,1
2.1899999999999973,,,,,14.66712,0.14391738,0.45898548,-0.008665246,-1.6345954,1.9013361,1.1580057,0.38851365,-0.13475889,0.027055614,0.91113377,-6.85224,7.27696,0.6073587,0.14391738,0.45898548,-0.008665246,1
