time-since-start [s],throttle_mpc,roll_mpc,pitch_mpc,yaw_mpc,throttle_nw,roll_nw,pitch_nw,yaw_nw,position_x [m],position_y [m],position_z [m],rotation_w [quaternion],rotation_x [quaternion],rotation_y [quaternion],rotation_z [quaternion],velocity_x [m/s],velocity_y [m/s],velocity_z [m/s],omega_x [rad/s],omega_y [rad/s],omega_z [rad/s],network_used
0.0,10.837217979474406,5.999999608718663,-5.999999848434976,-0.00625499260983092,13.363629,-0.4680715,-4.270302,-0.8872862,12.973533,-10.6136,1.5866098,0.34068125,-0.48335728,0.3229626,0.7389162,-9.882795,0.23084074,-1.6596903,0.65613496,0.34242573,0.68285346,0
0.01,10.837217979474406,5.999999608718663,-5.999999848434976,-0.00625499260983092,10.963975,0.15106113,-6.2635827,-0.96787554,12.874444,-10.610852,1.5697037,0.36458012,-0.45055422,0.33460036,0.74305105,-9.933598,0.31908467,-1.7207754,5.9999995,-6.0,-0.0062549924,0
0.02,10.837217979474406,5.999999608718663,-5.999999848434976,-0.00625499260983092,10.963975,0.15106113,-6.2635827,-0.96787554,12.774887,-10.607211,1.5522113,0.38782287,-0.41694027,0.3456359,0.7458486,-9.97683,0.40916336,-1.7769845,5.9999995,-6.0,-0.0062549924,0
0.03,10.837217979474406,5.999999608718663,-5.999999848434976,-0.00625499260983092,10.963975,0.15106113,-6.2635827,-0.96787554,12.674935,-10.602664,1.5341798,0.4103676,-0.38257593,0.3560494,0.7473038,-10.012178,0.5004283,-1.8286185,5.9999995,-6.0,-0.0062549924,0
0.04,10.837217979474406,5.999999608718663,-5.999999848434976,-0.00625499260983092,12.952163,-2.5689433,0.35450757,0.28889632,12.574672,-10.597201,1.5156535,0.43217382,-0.34752306,0.3658221,0.74741405,-10.039392,0.5922225,-1.8760115,5.9999995,-6.0,-0.0062549924,0
0.05,10.837217979474406,5.999999608718663,-5.999999848434976,-0.00625499260983092,12.952163,-2.5689433,0.35450757,0.28889632,12.474176,-10.590819,1.4966727,0.45320222,-0.31184474,0.3749364,0.7461791,-10.058273,0.6838851,-1.9195278,5.9999995,-6.0,-0.0062549924,0
0.060000000000000005,10.837217979474406,5.999999608718663,-5.999999848434976,-0.00625499260983092,12.952163,-2.5689433,0.35450757,0.28889632,12.373534,-10.583526,1.4772747,0.473415,-0.27560517,0.38337594,0.74360126,-10.0686865,0.77475625,-1.9595598,5.9999995,-6.0,-0.0062549924,0
0.07,10.837217979474406,5.999999608718663,-5.999999848434976,-0.00625499260983092,12.952163,-2.5689433,0.35450757,0.28889632,12.272831,-10.575331,1.457492,0.49277574,-0.23886962,0.3911255,0.73968524,-10.070558,0.86418176,-1.9965248,5.9999995,-6.0,-0.0062549924,0
0.08,17.45987389677967,5.999990050900011,-5.999999695081761,-0.15156085308874573,15.507409,-4.0481653,3.7904289,0.7130279,12.1721525,-10.566251,1.437353,0.5112496,-0.20170416,0.39817113,0.7344379,-10.063875,0.95151794,-2.0308623,5.9999995,-6.0,-0.0062549924,0
0.09,17.45987389677967,5.999990050900011,-5.999999695081761,-0.15156085308874573,15.507409,-4.0481653,3.7904289,0.7130279,12.071625,-10.556049,1.4170825,0.5293367,-0.16446488,0.4043535,0.7274972,-10.039402,1.087845,-2.0227377,5.99999,-5.9999995,-0.15156086,0
0.09999999999999999,17.45987389677967,5.999990050900011,-5.999999695081761,-0.15156085308874573,15.507409,-4.0481653,3.7904289,0.7130279,11.971411,-10.544512,1.3969076,0.54647076,-0.12692949,0.40980792,0.71924686,-10.001407,1.2188014,-2.0118678,5.99999,-5.9999995,-0.15156086,0
0.10999999999999999,17.45987389677967,5.999990050900011,-5.999999695081761,-0.15156085308874573,15.507409,-4.0481653,3.7904289,0.7130279,11.871643,-10.531695,1.3768518,0.56262106,-0.08916559,0.41452459,0.7097017,-9.950171,1.3434328,-1.9990191,5.99999,-5.9999995,-0.15156086,0
0.11999999999999998,17.45987389677967,5.999990050900011,-5.999999695081761,-0.15156085308874573,15.507409,-4.0481653,3.7904289,0.7130279,11.772453,-10.517669,1.3569312,0.57775843,-0.051241163,0.41849494,0.6988788,-9.886073,1.4608306,-1.9849735,5.99999,-5.9999995,-0.15156086,0
0.12999999999999998,20.50104224298185,1.8150128835400492,-5.999998370740699,1.200745612707939,17.985392,-4.790614,2.8298836,1.3467333,11.673965,-10.502508,1.3371538,0.59185565,-0.013224484,0.4217119,0.6867978,-9.809581,1.5701381,-1.9705205,5.99999,-5.9999995,-0.15156086,0
0.13999999999999999,20.50104224298185,1.8150128835400492,-5.999998370740699,1.200745612707939,17.985392,-4.790614,2.8298836,1.3467333,11.57637,-10.486208,1.3176228,0.60020083,0.015284311,0.41005558,0.68657106,-9.708468,1.6882765,-1.9350691,1.8150129,-5.9999986,1.2007456,0
0.15,20.50104224298185,1.8150128835400492,-5.999998370740699,1.200745612707939,17.985392,-4.790614,2.8298836,1.3467333,11.479818,-10.468779,1.2984653,0.6079348,0.04377754,0.3979817,0.6856452,-9.600867,1.7959667,-1.8959057,1.8150129,-5.9999986,1.2007456,0
0.16,19.641223816617977,-1.0659847346828322,-2.0777920947885224,1.081964080490578,20.14522,-4.562737,3.6671526,0.61164606,11.384374,-10.450326,1.2797152,0.6150498,0.0722262,0.38550258,0.6840212,-9.487093,1.8928152,-1.8536767,1.8150129,-5.9999986,1.2007456,0
0.17,19.641223816617977,-1.0659847346828322,-2.0777920947885224,1.081964080490578,20.14522,-4.562737,3.6671526,0.61164606,11.290065,-10.430971,1.2613708,0.6156884,0.07813366,0.37504473,0.68859607,-9.374807,1.9776114,-1.8147441,-1.0659847,-2.0777922,1.0819641,0
0.18000000000000002,19.641223816617977,-1.0659847346828322,-2.0777920947885224,1.081964080490578,20.14522,-4.562737,3.6671526,0.61164606,11.196876,-10.410787,1.2434297,0.61622494,0.08402818,0.36452475,0.6930569,-9.263235,2.058799,-1.7730715,-1.0659847,-2.0777922,1.0819641,0
0.19000000000000003,19.641223816617977,-1.0659847346828322,-2.0777920947885224,1.081964080490578,20.14522,-4.562737,3.6671526,0.61164606,11.104797,-10.389809,1.2259187,0.61665946,0.08990878,0.35394442,0.697403,-9.152397,2.136312,-1.728754,-1.0659847,-2.0777922,1.0819641,0
0.20000000000000004,18.38455204378073,-1.5200790609137849,0.04392182931760834,0.9157021324557119,19.228443,-3.1344514,5.367913,0.4269354,11.013824,-10.368073,1.2088635,0.61699194,0.09577449,0.34330547,0.70163363,-9.042313,2.2100863,-1.6818888,-1.0659847,-2.0777922,1.0819641,0
0.21000000000000005,18.38455204378073,-1.5200790609137849,0.04392182931760834,0.9157021324557119,19.228443,-3.1344514,5.367913,0.4269354,10.923912,-10.345638,1.1922415,0.61440784,0.092499115,0.33765632,0.7070611,-8.940568,2.2769473,-1.6422343,-1.520079,0.04392183,0.9157021,0
0.22000000000000006,18.38455204378073,-1.5200790609137849,0.04392182931760834,0.9157021324557119,19.228443,-3.1344514,5.367913,0.4269354,10.835005,-10.322535,1.1760243,0.6117752,0.08921646,0.3319806,0.7124329,-8.841092,2.3438406,-1.6009476,-1.520079,0.04392183,0.9157021,0
0.23000000000000007,18.38455204378073,-1.5200790609137849,0.04392182931760834,0.9157021324557119,19.228443,-3.1344514,5.367913,0.4269354,10.747082,-10.298761,1.160228,0.60909444,0.08592678,0.32627872,0.7177486,-8.743905,2.4107273,-1.5580535,-1.520079,0.04392183,0.9157021,0
0.24000000000000007,18.38455204378073,-1.5200790609137849,0.04392182931760834,0.9157021324557119,18.570124,-2.451205,4.468802,0.79554015,10.660118,-10.274321,1.1448686,0.60636574,0.08263032,0.32055113,0.72300774,-8.649022,2.4775677,-1.513577,-1.520079,0.04392183,0.9157021,0
0.25000000000000006,18.38455204378073,-1.5200790609137849,0.04392182931760834,0.9157021324557119,18.570124,-2.451205,4.468802,0.79554015,10.574093,-10.249211,1.1299617,0.6035892,0.07932736,0.31479827,0.7282099,-8.556459,2.5443232,-1.4675436,-1.520079,0.04392183,0.9157021,0
0.26000000000000006,18.38455204378073,-1.5200790609137849,0.04392182931760834,0.9157021324557119,18.570124,-2.451205,4.468802,0.79554015,10.488981,-10.223434,1.115523,0.6007651,0.076018155,0.3090206,0.7333547,-8.466232,2.6109543,-1.4199795,-1.520079,0.04392183,0.9157021,0
0.2700000000000001,18.38455204378073,-1.5200790609137849,0.04392182931760834,0.9157021324557119,18.570124,-2.451205,4.468802,0.79554015,10.404759,-10.196993,1.1015674,0.5978937,0.07270295,0.3032186,0.7384417,-8.378357,2.6774213,-1.3709109,-1.520079,0.04392183,0.9157021,0
0.2800000000000001,17.300508052702785,-1.8034746828675494,1.4236512116713538,0.7430110761736889,19.234121,-2.4550965,4.067638,0.5795742,10.321404,-10.169888,1.0881099,0.59497523,0.06938202,0.29739273,0.74347055,-8.292846,2.7436852,-1.3203653,-1.520079,0.04392183,0.9157021,0
0.2900000000000001,17.300508052702785,-1.8034746828675494,1.4236512116713538,0.7430110761736889,19.234121,-2.4550965,4.067638,0.5795742,10.238868,-10.142137,1.0751204,0.59067863,0.059824698,0.2946444,0.7488022,-8.215028,2.8066201,-1.277352,-1.8034747,1.4236512,0.74301106,0
0.3000000000000001,17.300508052702785,-1.8034746828675494,1.4236512116713538,0.7430110761736889,19.234121,-2.4550965,4.067638,0.5795742,10.157093,-10.113748,1.062566,0.586296,0.050258655,0.29185313,0.7540246,-8.14058,2.8714266,-1.2333704,-1.8034747,1.4236512,0.74301106,0
0.3100000000000001,17.300508052702785,-1.8034746828675494,1.4236512116713538,0.7430110761736889,19.234121,-2.4550965,4.067638,0.5795742,10.076045,-10.084702,1.050456,0.5818278,0.040685285,0.2890193,0.75913715,-8.0695505,2.9380465,-1.1884806,-1.8034747,1.4236512,0.74301106,0
0.3200000000000001,16.549024562092153,-1.907040607821831,2.6132908304395666,0.5798301557157193,18.924883,-2.4872866,3.5624194,-0.08962929,9.995691,-10.05498,1.0387993,0.57727486,0.031105984,0.28614333,0.76413906,-8.001985,3.006421,-1.1427426,-1.8034747,1.4236512,0.74301106,0
0.3300000000000001,16.549024562092153,-1.907040607821831,2.6132908304395666,0.5798301557157193,18.924883,-2.4872866,3.5624194,-0.08962929,9.915979,-10.02458,1.0275719,0.5715396,0.016442996,0.28627124,0.7688441,-7.941015,3.0740962,-1.1026853,-1.9070406,2.6132908,0.57983017,0
0.34000000000000014,16.549024562092153,-1.907040607821831,2.6132908304395666,0.5798301557157193,18.924883,-2.4872866,3.5624194,-0.08962929,9.836856,-9.993487,1.016746,0.5656499,0.001775566,0.28632182,0.7733416,-7.8842754,3.1450477,-1.0624694,-1.9070406,2.6132908,0.57983017,0
0.35000000000000014,16.549024562092153,-1.907040607821831,2.6132908304395666,0.5798301557157193,18.924883,-2.4872866,3.5624194,-0.08962929,9.75828,-9.961669,1.0063226,0.55960745,-0.012892342,0.2862951,0.7776302,-7.831842,3.21918,-1.0222223,-1.9070406,2.6132908,0.57983017,0
0.36000000000000015,16.219398159060024,-1.7306734047985222,2.244604858978529,0.44226693446085885,17.394123,-2.2654839,3.2977247,-0.23041815,9.680205,-9.929092,0.99630135,0.55341387,-0.02755677,0.28619102,0.7817089,-7.7837844,3.296395,-0.982072,-1.9070406,2.6132908,0.57983017,0
0.37000000000000016,16.219398159060024,-1.7306734047985222,2.244604858978529,0.44226693446085885,17.394123,-2.2654839,3.2977247,-0.23041815,9.602586,-9.895738,0.9866668,0.54817814,-0.04048266,0.2856691,0.78501946,-7.7408543,3.3748295,-0.9448565,-1.7306734,2.2446048,0.44226694,0
0.38000000000000017,16.219398159060024,-1.7306734047985222,2.244604858978529,0.44226693446085885,17.394123,-2.2654839,3.2977247,-0.23041815,9.525375,-9.861587,0.9774034,0.5428296,-0.053400215,0.2850884,0.78816843,-7.7018404,3.4556606,-0.907866,-1.7306734,2.2446048,0.44226694,0
0.3900000000000002,16.219398159060024,-1.7306734047985222,2.244604858978529,0.44226693446085885,17.394123,-2.2654839,3.2977247,-0.23041815,9.448536,-9.826616,0.96850836,0.5373694,-0.066306785,0.28444904,0.7911553,-7.666783,3.5388095,-0.8711978,-1.7306734,2.2446048,0.44226694,0
0.4000000000000002,16.139908651705074,-1.3915607125556966,1.0287187466884764,0.33162358024913224,17.326319,-1.8324523,1.5856234,-0.28246802,9.372027,-9.790804,0.95997804,0.53179866,-0.079199724,0.2837512,0.79397947,-7.6357193,3.624195,-0.8349491,-1.7306734,2.2446048,0.44226694,0
0.4100000000000002,16.139908651705074,-1.3915607125556966,1.0287187466884764,0.33162358024913224,17.326319,-1.8324523,1.5856234,-0.28246802,9.29581,-9.754129,0.9518051,0.52845097,-0.08651013,0.28108257,0.7963973,-7.6083207,3.710779,-0.79962623,-1.3915607,1.0287187,0.33162358,0
0.4200000000000002,16.139908651705074,-1.3915607125556966,1.0287187466884764,0.33162358024913224,17.326319,-1.8324523,1.5856234,-0.28246802,9.2198515,-9.716586,0.9439859,0.52506226,-0.09381381,0.27839208,0.7987534,-7.583629,3.7980473,-0.76422095,-1.3915607,1.0287187,0.33162358,0
0.4300000000000002,16.139908651705074,-1.3915607125556966,1.0287187466884764,0.33162358024913224,17.326319,-1.8324523,1.5856234,-0.28246802,9.144128,-9.678166,0.9365209,0.52163285,-0.101110205,0.27568,0.8010474,-7.561653,3.885966,-0.72876793,-1.3915607,1.0287187,0.33162358,0
0.4400000000000002,16.139908651705074,-1.3915607125556966,1.0287187466884764,0.33162358024913224,18.325954,-1.5094284,0.8249874,-0.3410634,9.068609,-9.638864,0.9294105,0.51816297,-0.10839876,0.27294654,0.8032793,-7.542401,3.9745016,-0.69330204,-1.3915607,1.0287187,0.33162358,0
0.45000000000000023,16.139908651705074,-1.3915607125556966,1.0287187466884764,0.33162358024913224,18.325954,-1.5094284,0.8249874,-0.3410634,8.99327,-9.598674,0.92265475,0.5146527,-0.1156789,0.27019188,0.8054488,-7.52588,4.0636196,-0.657858,-1.3915607,1.0287187,0.33162358,0
0.46000000000000024,16.139908651705074,-1.3915607125556966,1.0287187466884764,0.33162358024913224,18.325954,-1.5094284,0.8249874,-0.3410634,8.918082,-9.55759,0.9162531,0.5111027,-0.12295006,0.26741624,0.8075558,-7.512097,4.1532865,-0.6224707,-1.3915607,1.0287187,0.33162358,0
0.47000000000000025,16.139908651705074,-1.3915607125556966,1.0287187466884764,0.33162358024913224,18.325954,-1.5094284,0.8249874,-0.3410634,8.843018,-9.515607,0.9102049,0.5075129,-0.13021168,0.26461986,0.8096001,-7.501057,4.243468,-0.5871747,-1.3915607,1.0287187,0.33162358,0
0.48000000000000026,16.111947712130323,-1.0923979245754143,0.2949210195167589,0.30220055439737914,19.825733,-0.876755,-0.016220368,-0.52770126,8.76805,-9.472719,0.9045091,0.50388384,-0.1374632,0.2618029,0.8115816,-7.492767,4.3341293,-0.552005,-1.3915607,1.0287187,0.33162358,0
0.49000000000000027,16.111947712130323,-1.0923979245754143,0.2949210195167589,0.30220055439737914,19.825733,-0.876755,-0.016220368,-0.52770126,8.693152,-9.428925,0.8991636,0.50151205,-0.1410142,0.25831634,0.8135563,-7.486876,4.4248137,-0.5170604,-1.0923979,0.294921,0.30220056,0
0.5000000000000002,16.111947712130323,-1.0923979245754143,0.2949210195167589,0.30220055439737914,19.825733,-0.876755,-0.016220368,-0.52770126,8.618305,-9.384224,0.8941688,0.4991231,-0.14456038,0.25482088,0.8155031,-7.4827666,4.515214,-0.48185533,-1.0923979,0.294921,0.30220056,0
0.5100000000000002,16.111947712130323,-1.0923979245754143,0.2949210195167589,0.30220055439737914,19.825733,-0.876755,-0.016220368,-0.52770126,8.54349,-9.338621,0.8895273,0.49671698,-0.14810158,0.25131673,0.817422,-7.480438,4.605313,-0.4464039,-1.0923979,0.294921,0.30220056,0
0.5200000000000002,16.026734412565148,-0.6695018501085583,-0.8034149380226955,0.2691240525774544,19.622494,-0.7470668,-0.49030197,-0.60294455,8.468691,-9.292118,0.88524157,0.49429384,-0.15163772,0.24780391,0.81931275,-7.4798903,4.695095,-0.41072017,-1.0923979,0.294921,0.30220056,0
0.5300000000000002,16.026734412565148,-0.6695018501085583,-0.8034149380226955,0.2691240525774544,19.622494,-0.7470668,-0.49030197,-0.60294455,8.393888,-9.244724,0.88131094,0.49367198,-0.14966549,0.2432761,0.8214045,-7.480582,4.783686,-0.37526643,-0.66950184,-0.80341494,0.26912406,0
0.5400000000000003,16.026734412565148,-0.6695018501085583,-0.8034149380226955,0.2691240525774544,19.622494,-0.7470668,-0.49030197,-0.60294455,8.3190775,-9.196451,0.87773937,0.49303576,-0.14768888,0.2387412,0.82347244,-7.481621,4.870905,-0.33891478,-0.66950184,-0.80341494,0.26912406,0
0.5500000000000003,16.026734412565148,-0.6695018501085583,-0.8034149380226955,0.2691240525774544,19.622494,-0.7470668,-0.49030197,-0.60294455,8.244254,-9.147311,0.87453574,0.49238512,-0.14570798,0.23419935,0.82551634,-7.4830017,4.956741,-0.30167937,-0.66950184,-0.80341494,0.26912406,0
0.5600000000000003,15.971524200580422,-0.341142875508499,-1.2948596310333373,0.2728308827030889,17.172674,-1.3927401,0.68360394,-0.06516291,8.169415,-9.09732,0.8717088,0.49172017,-0.14372282,0.22965065,0.82753617,-7.48472,5.041184,-0.26357457,-0.66950184,-0.80341494,0.26912406,0
0.5700000000000003,15.971524200580422,-0.341142875508499,-1.2948596310333373,0.2728308827030889,17.172674,-1.3927401,0.68360394,-0.06516291,8.094559,-9.046494,0.86926514,0.4918215,-0.13888724,0.2252463,0.8295098,-7.4864516,5.1237993,-0.22499847,-0.34114286,-1.2948596,0.27283087,0
0.5800000000000003,15.971524200580422,-0.341142875508499,-1.2948596310333373,0.2728308827030889,17.172674,-1.3927401,0.68360394,-0.06516291,8.019688,-8.99485,0.8672126,0.49189982,-0.13404518,0.22083142,0.83144474,-7.487674,5.2046323,-0.18535534,-0.34114286,-1.2948596,0.27283087,0
0.5900000000000003,15.971524200580422,-0.341142875508499,-1.2948596310333373,0.2728308827030889,17.172674,-1.3927401,0.68360394,-0.06516291,7.9448066,-8.942407,0.86556166,0.49195522,-0.12919685,0.21640624,0.8333409,-7.488383,5.2836695,-0.14467053,-0.34114286,-1.2948596,0.27283087,0
0.6000000000000003,15.768283230872068,-0.10837520857837771,-1.2868973144559568,0.2560463145256823,17.331938,-1.056798,-0.113688655,-0.081229724,7.869921,-8.889183,0.8643227,0.49198765,-0.12434251,0.21197096,0.83519804,-7.488571,5.360898,-0.1029696,-0.34114286,-1.2948596,0.27283087,0
0.6100000000000003,15.768283230872068,-0.10837520857837771,-1.2868973144559568,0.2560463145256823,17.331938,-1.056798,-0.113688655,-0.081229724,7.795037,-8.8352,0.86349666,0.49220428,-0.11896101,0.20850731,0.83672464,-7.48812,5.4354086,-0.0621036,-0.10837521,-1.2868973,0.25604632,0
0.6200000000000003,15.768283230872068,-0.10837520857837771,-1.2868973144559568,0.2560463145256823,17.331938,-1.056798,-0.113688655,-0.081229724,7.720161,-8.78048,0.8630836,0.49239957,-0.11357435,0.20503464,0.838215,-7.48683,5.5082765,-0.020374486,-0.10837521,-1.2868973,0.25604632,0
0.6300000000000003,15.768283230872068,-0.10837520857837771,-1.2868973144559568,0.2560463145256823,17.331938,-1.056798,-0.113688655,-0.081229724,7.645303,-8.72504,0.86309206,0.49257353,-0.108182766,0.20155309,0.8396691,-7.484697,5.5794916,0.022193387,-0.10837521,-1.2868973,0.25604632,0
0.6400000000000003,15.768283230872068,-0.10837520857837771,-1.2868973144559568,0.2560463145256823,16.60533,-1.1777779,0.26171318,-0.00589793,7.57047,-8.668897,0.8635303,0.49272615,-0.1027865,0.19806279,0.8410868,-7.481716,5.6490436,0.06557553,-0.10837521,-1.2868973,0.25604632,0
0.6500000000000004,15.768283230872068,-0.10837520857837771,-1.2868973144559568,0.2560463145256823,16.60533,-1.1777779,0.26171318,-0.00589793,7.4956713,-8.612065,0.8644063,0.49285743,-0.09738578,0.19456391,0.8424681,-7.477884,5.7169228,0.10974731,-0.10837521,-1.2868973,0.25604632,0
0.6600000000000004,15.768283230872068,-0.10837520857837771,-1.2868973144559568,0.2560463145256823,16.60533,-1.1777779,0.26171318,-0.00589793,7.420915,-8.5545635,0.86572784,0.49296734,-0.09198084,0.19105661,0.8438129,-7.473195,5.78312,0.15468395,-0.10837521,-1.2868973,0.25604632,0
0.6700000000000004,15.768283230872068,-0.10837520857837771,-1.2868973144559568,0.2560463145256823,16.60533,-1.1777779,0.26171318,-0.00589793,7.34621,-8.496409,0.8675025,0.49305588,-0.08657191,0.18754102,0.8451211,-7.4676456,5.847626,0.20036055,-0.10837521,-1.2868973,0.25604632,0
0.6800000000000004,15.577151831907658,0.018040197036838082,-1.0350186393566707,0.2644214340218948,16.361242,-0.90841675,0.48076028,-0.055873476,7.271565,-8.437618,0.86973757,0.49312305,-0.081159234,0.18401732,0.8463927,-7.461233,5.9104323,0.24675205,-0.10837521,-1.2868973,0.25604632,0
0.6900000000000004,15.577151831907658,0.018040197036838082,-1.0350186393566707,0.2644214340218948,16.361242,-0.90841675,0.48076028,-0.055873476,7.1969876,-8.37821,0.87243104,0.49295664,-0.076490164,0.18164638,0.847436,-7.454051,5.9709415,0.29201046,0.018040197,-1.0350187,0.26442143,0
0.7000000000000004,15.577151831907658,0.018040197036838082,-1.0350186393566707,0.2644214340218948,16.361242,-0.90841675,0.48076028,-0.055873476,7.1224866,-8.318204,0.87557954,0.49277616,-0.07181892,0.17927027,0.8484551,-7.4460354,6.0301614,0.33776218,0.018040197,-1.0350187,0.26442143,0
0.7100000000000004,15.577151831907658,0.018040197036838082,-1.0350186393566707,0.2644214340218948,16.361242,-0.90841675,0.48076028,-0.055873476,7.04807,-8.257611,0.8791879,0.4925816,-0.067145616,0.17688905,0.84945,-7.4371834,6.0880876,0.3839907,0.018040197,-1.0350187,0.26442143,0
0.7200000000000004,15.196965090146502,0.24219591633733747,-0.9503651113518436,0.2363171637598023,16.040955,-0.34539184,0.30090624,-0.06389074,6.973746,-8.196445,0.8832609,0.492373,-0.062470395,0.17450276,0.8504206,-7.427492,6.1447163,0.43067956,0.018040197,-1.0350187,0.26442143,0
0.7300000000000004,15.196965090146502,0.24219591633733747,-0.9503651113518436,0.2363171637598023,16.040955,-0.34539184,0.30090624,-0.06389074,6.899522,-8.1347275,0.8877852,0.49226674,-0.057626124,0.17326453,0.8510771,-7.417131,6.19879,0.4742243,0.24219592,-0.9503651,0.23631716,0
0.7400000000000004,15.196965090146502,0.24219591633733747,-0.9503651113518436,0.2363171637598023,16.040955,-0.34539184,0.30090624,-0.06389074,6.825407,-8.072474,0.89274645,0.49214798,-0.05278039,0.1720219,0.8517119,-7.4057198,6.2518516,0.5180712,0.24219592,-0.9503651,0.23631716,0
0.7500000000000004,15.196965090146502,0.24219591633733747,-0.9503651113518436,0.2363171637598023,16.040955,-0.34539184,0.30090624,-0.06389074,6.751412,-8.009695,0.8981476,0.49201667,-0.047933314,0.17077488,0.8523251,-7.393257,6.303896,0.5622056,0.24219592,-0.9503651,0.23631716,0
0.7600000000000005,14.818923919706027,0.3767737050123075,-0.6148662838605685,0.25210686625390993,15.816565,-0.068503216,0.81406224,0.014916118,6.6775465,-7.9464006,0.9039915,0.49187285,-0.043085016,0.16952352,0.85291654,-7.3797417,6.354922,0.6066128,0.24219592,-0.9503651,0.23631716,0
0.7700000000000005,14.818923919706027,0.3767737050123075,-0.6148662838605685,0.25210686625390993,15.816565,-0.068503216,0.81406224,0.014916118,6.6038194,-7.882606,0.9102629,0.49139643,-0.03932225,0.1696712,0.8533434,-7.365566,6.4038706,0.64766395,0.37677372,-0.61486626,0.25210688,0
0.7800000000000005,14.818923919706027,0.3767737050123075,-0.6148662838605685,0.25210686625390993,15.816565,-0.068503216,0.81406224,0.014916118,6.530238,-7.8183246,0.9169451,0.49091285,-0.03555891,0.16981639,0.8537579,-7.350446,6.452324,0.6887892,0.37677372,-0.61486626,0.25210688,0
0.7900000000000005,14.818923919706027,0.3767737050123075,-0.6148662838605685,0.25210686625390993,15.816565,-0.068503216,0.81406224,0.014916118,6.456814,-7.7535615,0.92403895,0.49042213,-0.031795047,0.16995911,0.85415995,-7.334382,6.5002813,0.7299803,0.37677372,-0.61486626,0.25210688,0
0.8000000000000005,14.250560739547947,0.4976646872550561,-0.8282651917000032,0.22210860380577893,13.8741,0.07635264,1.4261672,-0.106778845,6.383555,-7.688321,0.93154496,0.48992425,-0.028030721,0.17009936,0.8545494,-7.317373,6.547743,0.771229,0.37677372,-0.61486626,0.25210688,0
0.8100000000000005,14.250560739547947,0.4976646872550561,-0.8282651917000032,0.22210860380577893,13.8741,0.07635264,1.4261672,-0.106778845,6.310467,-7.6226177,0.939437,0.4897434,-0.02308344,0.17022587,0.8547759,-7.299994,6.592842,0.80718774,0.4976647,-0.8282652,0.2221086,0
0.8200000000000005,14.250560739547947,0.4976646872550561,-0.8282651917000032,0.22210860380577893,13.8741,0.07635264,1.4261672,-0.106778845,6.237559,-7.556466,0.94768894,0.48955053,-0.018135589,0.17034818,0.8549813,-7.281402,6.6372905,0.84320116,0.4976647,-0.8282652,0.2221086,0
0.8300000000000005,14.250560739547947,0.4976646872550561,-0.8282651917000032,0.22210860380577893,13.8741,0.07635264,1.4261672,-0.106778845,6.164843,-7.489874,0.95630115,0.4893456,-0.013187293,0.17046632,0.8551656,-7.261599,6.681086,0.8792558,0.4976647,-0.8282652,0.2221086,0
0.8400000000000005,14.250560739547947,0.4976646872550561,-0.8282651917000032,0.22210860380577893,13.3989315,0.010058386,1.1727718,-0.15053423,6.092331,-7.422847,0.9652741,0.48912868,-0.008238671,0.17058025,0.8553289,-7.2405844,6.724228,0.915338,0.4976647,-0.8282652,0.2221086,0
0.8500000000000005,14.250560739547947,0.4976646872550561,-0.8282651917000032,0.22210860380577893,13.3989315,0.010058386,1.1727718,-0.15053423,6.0200353,-7.355392,0.97460794,0.48889974,-0.0032898476,0.17069,0.85547125,-7.2183585,6.766714,0.9514342,0.4976647,-0.8282652,0.2221086,0
0.8600000000000005,14.250560739547947,0.4976646872550561,-0.8282651917000032,0.22210860380577893,13.3989315,0.010058386,1.1727718,-0.15053423,5.9479675,-7.2875147,0.98430276,0.48865876,0.0016590571,0.17079554,0.8555926,-7.194923,6.8085437,0.98753095,0.4976647,-0.8282652,0.2221086,0
0.8700000000000006,14.250560739547947,0.4976646872550561,-0.8282651917000032,0.22210860380577893,13.3989315,0.010058386,1.1727718,-0.15053423,5.876141,-7.2192225,0.9943585,0.48840576,0.0066079213,0.1708969,0.855693,-7.170278,6.8497148,1.0236148,0.4976647,-0.8282652,0.2221086,0
0.8800000000000006,13.822955119996482,0.5119427523039637,-0.3541323073187162,0.2686196651413658,13.221095,-0.05656521,1.0897758,-0.210189,5.8045664,-7.1505227,1.0047749,0.4881408,0.011556624,0.17099406,0.85577226,-7.1444244,6.890226,1.0596719,0.4976647,-0.8282652,0.2221086,0
0.8900000000000006,13.822955119996482,0.5119427523039637,-0.3541323073187162,0.2686196651413658,13.221095,-0.05656521,1.0897758,-0.210189,5.7332525,-7.081426,1.0155315,0.4872618,0.014550998,0.17230375,0.8559648,-7.1182976,6.9290905,1.0916269,0.51194274,-0.3541323,0.26861966,0
0.9000000000000006,13.822955119996482,0.5119427523039637,-0.3541323073187162,0.2686196651413658,13.221095,-0.05656521,1.0897758,-0.210189,5.662204,-7.011941,1.026607,0.4863772,0.017545205,0.17361146,0.85614747,-7.0913277,6.967874,1.1234338,0.51194274,-0.3541323,0.26861966,0
0.9100000000000006,13.822955119996482,0.5119427523039637,-0.3541323073187162,0.2686196651413658,13.221095,-0.05656521,1.0897758,-0.210189,5.5914288,-6.9420686,1.0379996,0.485487,0.020539207,0.17491719,0.8563204,-7.0635147,7.006577,1.155087,0.51194274,-0.3541323,0.26861966,0
0.9200000000000006,12.955987152385626,0.5611319472461292,-0.08446875132357214,0.270471994456908,12.644036,-0.04959436,0.9680288,-0.20176676,5.520936,-6.8718095,1.0497081,0.48459125,0.023532975,0.1762209,0.8564834,-7.0348597,7.0452,1.1865807,0.51194274,-0.3541323,0.26861966,0
0.9300000000000006,12.955987152385626,0.5611319472461292,-0.08446875132357214,0.270471994456908,12.644036,-0.04959436,0.9680288,-0.20176676,5.450725,-6.8011765,1.06169,0.48343897,0.0254925,0.17838652,0.85663015,-7.007264,7.081447,1.2097667,0.56113195,-0.08446875,0.270472,0
0.9400000000000006,12.955987152385626,0.5611319472461292,-0.08446875132357214,0.270471994456908,12.644036,-0.04959436,0.9680288,-0.20176676,5.380793,-6.7301793,1.0739026,0.48228192,0.027451772,0.18055041,0.8567684,-6.9790144,7.117944,1.2327274,0.56113195,-0.08446875,0.270472,0
0.9500000000000006,12.955987152385626,0.5611319472461292,-0.08446875132357214,0.270471994456908,12.644036,-0.04959436,0.9680288,-0.20176676,5.3111467,-6.658816,1.0863438,0.4811201,0.029410772,0.18271251,0.85689825,-6.9501123,7.1546903,1.2554584,0.56113195,-0.08446875,0.270472,0
0.9600000000000006,12.294904908690317,0.48668122661963625,0.4954372115729104,0.370881004960245,12.722905,-0.04408794,0.18706095,-0.23509681,5.241793,-6.5870843,1.099011,0.47995353,0.031369485,0.18487279,0.8570196,-6.92056,7.191687,1.2779553,0.56113195,-0.08446875,0.270472,1
0.9700000000000006,12.294904908690317,0.48668122661963625,0.4954372115729104,0.370881004960245,12.722905,-0.04408794,0.18706095,-0.23509681,5.1727347,-6.5149846,1.1118914,0.4807944,0.030244758,0.18516944,0.8565245,-6.891206,7.2282367,1.2981333,-0.04408794,0.18706095,-0.23509681,1
0.9800000000000006,12.294904908690317,0.48668122661963625,0.4954372115729104,0.370881004960245,12.722905,-0.04408794,0.18706095,-0.23509681,5.1039686,-6.4425187,1.1249735,0.48163417,0.029119963,0.18546566,0.8560274,-6.862025,7.264959,1.3183007,-0.04408794,0.18706095,-0.23509681,1
0.9900000000000007,12.294904908690317,0.48668122661963625,0.4954372115729104,0.370881004960245,12.722905,-0.04408794,0.18706095,-0.23509681,5.035493,-6.3696847,1.1382574,0.48247284,0.0279951,0.18576145,0.8555284,-6.8330164,7.301853,1.3384571,-0.04408794,0.18706095,-0.23509681,1
1.0000000000000007,11.180078334354455,0.7052246963804051,-0.47519708538567984,0.5103659740641058,11.578914,-0.173168,-0.8408082,-0.097270355,4.967307,-6.2964807,1.1517427,0.48331037,0.026870174,0.18605681,0.8550275,-6.804181,7.3389206,1.3586015,-0.04408794,0.18706095,-0.23509681,1
1.0100000000000007,11.180078334354455,0.7052246963804051,-0.47519708538567984,0.5103659740641058,11.578914,-0.173168,-0.8408082,-0.097270355,4.8993964,-6.2229238,1.1653765,0.4845272,0.029955525,0.18329598,0.8548326,-6.777904,7.3724127,1.3681806,-0.173168,-0.8408082,-0.097270355,1
1.0200000000000007,11.180078334354455,0.7052246963804051,-0.47519708538567984,0.5103659740641058,11.578914,-0.173168,-0.8408082,-0.097270355,4.83175,-6.1490364,1.179107,0.48573497,0.033040315,0.18053173,0.85462177,-6.7512755,7.4049954,1.3779525,-0.173168,-0.8408082,-0.097270355,1
1.0300000000000007,11.180078334354455,0.7052246963804051,-0.47519708538567984,0.5103659740641058,11.578914,-0.173168,-0.8408082,-0.097270355,4.764372,-6.0748277,1.1929362,0.48693368,0.03612449,0.1777641,0.854395,-6.724299,7.4366655,1.3879093,-0.173168,-0.8408082,-0.097270355,1
1.0400000000000007,11.180078334354455,0.7052246963804051,-0.47519708538567984,0.5103659740641058,11.634564,0.02838308,-1.272044,-0.08377674,4.6972656,-6.000306,1.2068658,0.4881233,0.039207995,0.17499316,0.8541522,-6.696977,7.467421,1.3980435,-0.173168,-0.8408082,-0.097270355,1
1.0500000000000007,11.180078334354455,0.7052246963804051,-0.47519708538567984,0.5103659740641058,11.634564,0.02838308,-1.272044,-0.08377674,4.6304355,-5.925482,1.2209002,0.48957857,0.044635728,0.1720227,0.8536562,-6.66901,7.497283,1.4088573,0.02838308,-1.272044,-0.08377674,1
1.0600000000000007,11.180078334354455,0.7052246963804051,-0.47519708538567984,0.5103659740641058,11.634564,0.02838308,-1.272044,-0.08377674,4.5638885,-5.850365,1.2350434,0.49101397,0.050061643,0.16904524,0.85312545,-6.6402507,7.5259013,1.4197987,0.02838308,-1.272044,-0.08377674,1
1.0700000000000007,11.180078334354455,0.7052246963804051,-0.47519708538567984,0.5103659740641058,11.634564,0.02838308,-1.272044,-0.08377674,4.497633,-5.774968,1.2492965,0.4924294,0.055485524,0.1660609,0.85256004,-6.610704,7.55327,1.4308505,0.02838308,-1.272044,-0.08377674,1
1.0800000000000007,10.242850394980033,0.9612708452462138,-2.809792121571913,0.7684845062164163,12.240544,0.3870509,-1.2794628,-0.32656145,4.4316773,-5.699304,1.2636608,0.49382487,0.06090715,0.16306981,0.85196,-6.580377,7.579385,1.4419951,0.02838308,-1.272044,-0.08377674,0
1.0900000000000007,10.242850394980033,0.9612708452462138,-2.809792121571913,0.7684845062164163,12.240544,0.3870509,-1.2794628,-0.32656145,4.366012,-5.623401,1.2780712,0.49249148,0.07586863,0.15997382,0.85211784,-6.552403,7.6009235,1.4400431,0.96127087,-2.809792,0.76848453,0
1.1000000000000008,10.242850394980033,0.9612708452462138,-2.809792121571913,0.7684845062164163,12.240544,0.3870509,-1.2794628,-0.32656145,4.3006377,-5.5472927,1.2924608,0.49104223,0.090812266,0.15684018,0.85207516,-6.5221767,7.620434,1.4378419,0.96127087,-2.809792,0.76848453,0
1.1100000000000008,10.242850394980033,0.9612708452462138,-2.809792121571913,0.7684845062164163,12.240544,0.3870509,-1.2794628,-0.32656145,4.2355766,-5.4709992,1.3068267,0.4894775,0.10573454,0.15366967,0.8518321,-6.48971,7.6379147,1.4352992,0.96127087,-2.809792,0.76848453,0
1.1200000000000008,9.004016858247843,1.031030047606209,-4.881259210638957,0.8723829444559392,11.931177,0.48670423,-1.77249,-0.1083716,4.170851,-5.3945417,1.3211652,0.48779756,0.12063194,0.150463,0.85138863,-6.455018,7.6533685,1.4323229,0.96127087,-2.809792,0.76848453,0
1.1300000000000008,9.004016858247843,1.031030047606209,-4.881259210638957,0.8723829444559392,11.931177,0.48670423,-1.77249,-0.1083716,4.106463,-5.3179493,1.3354139,0.4869779,0.14454094,0.14237314,0.8495237,-6.4222198,7.664578,1.4173146,1.03103,-4.8812594,0.87238294,0
1.1400000000000008,9.004016858247843,1.031030047606209,-4.881259210638957,0.8723829444559392,11.931177,0.48670423,-1.77249,-0.1083716,4.042417,-5.241262,1.3495088,0.485846,0.16835724,0.13419199,0.8471141,-6.3865576,7.6724205,1.4015088,1.03103,-4.8812594,0.87238294,0
1.1500000000000008,9.004016858247843,1.031030047606209,-4.881259210638957,0.8723829444559392,11.931177,0.48670423,-1.77249,-0.1083716,3.978742,-5.164513,1.3634406,0.48440254,0.19206558,0.12592478,0.8441612,-6.348094,7.6769032,1.3846868,1.03103,-4.8812594,0.87238294,0
1.1600000000000008,8.445078839623134,0.6731766089497562,-5.999995962286599,0.9056127214062657,12.060228,0.22870523,-2.8705802,0.34831458,3.9154646,-5.0877357,1.3771982,0.4826485,0.21565075,0.11757682,0.840667,-6.3068995,7.67804,1.3666328,1.03103,-4.8812594,0.87238294,0
1.1700000000000008,8.445078839623134,0.6731766089497562,-5.999995962286599,0.9056127214062657,12.060228,0.22870523,-2.8705802,0.34831458,3.8525994,-5.0109644,1.3907437,0.48141864,0.24292296,0.10489767,0.8355963,-6.2657065,7.675628,1.3422027,0.6731766,-5.999996,0.9056127,0
1.1800000000000008,8.445078839623134,0.6731766089497562,-5.999995962286599,0.9056127214062657,12.060228,0.22870523,-2.8705802,0.34831458,3.790159,-4.934237,1.4040363,0.47974023,0.26996884,0.092120774,0.82974696,-6.22195,7.66917,1.3160304,0.6731766,-5.999996,0.9056127,0
1.1900000000000008,8.445078839623134,0.6731766089497562,-5.999995962286599,0.9056127214062657,12.060228,0.22870523,-2.8705802,0.34831458,3.7281685,-4.857594,1.4170573,0.47761482,0.29676315,0.07925805,0.8231246,-6.1757574,7.658716,1.2878366,0.6731766,-5.999996,0.9056127,0
1.2000000000000008,8.020177636732347,0.333117598553587,-5.999993281967918,0.8410376644911337,12.818433,0.51556045,-3.6049879,0.29850575,3.6666517,-4.7810755,1.4297851,0.4750444,0.32328096,0.06632147,0.81573516,-6.1272655,7.644334,1.2573498,0.6731766,-5.999996,0.9056127,0
1.2100000000000009,8.020177636732347,0.333117598553587,-5.999993281967918,0.8410376644911337,12.818433,0.51556045,-3.6049879,0.29850575,3.605618,-4.7047157,1.4421792,0.47284698,0.34867042,0.052041043,0.8075498,-6.0792413,7.6269655,1.2210764,0.3331176,-5.9999933,0.8410377,0
1.2200000000000009,8.020177636732347,0.333117598553587,-5.999993281967918,0.8410376644911337,12.818433,0.51556045,-3.6049879,0.29850575,3.545073,-4.628549,1.454198,0.47021434,0.37373897,0.03771271,0.7986211,-6.029514,7.605883,1.1822492,0.3331176,-5.9999933,0.8410377,0
1.2300000000000009,8.020177636732347,0.333117598553587,-5.999993281967918,0.8410376644911337,12.818433,0.51556045,-3.6049879,0.29850575,3.485033,-4.5526114,1.4658147,0.4671489,0.39846355,0.023349676,0.78895736,-5.9782352,7.5811872,1.1406388,0.3331176,-5.9999933,0.8410377,0
1.2400000000000009,8.020177636732347,0.333117598553587,-5.999993281967918,0.8410376644911337,12.8909025,0.4227076,-1.7738057,0.02421945,3.4255128,-4.4769373,1.4770004,0.46365353,0.4228214,0.0089651495,0.7785675,-5.9255614,7.5529904,1.0960261,0.3331176,-5.9999933,0.8410377,0
1.2500000000000009,8.020177636732347,0.333117598553587,-5.999993281967918,0.8410376644911337,12.8909025,0.4227076,-1.7738057,0.02421945,3.366526,-4.4015627,1.4877241,0.45973143,0.44679007,-0.0054276306,0.76746106,-5.871654,7.5214195,1.0482028,0.3331176,-5.9999933,0.8410377,0
1.260000000000001,8.020177636732347,0.333117598553587,-5.999993281967918,0.8410376644911337,12.8909025,0.4227076,-1.7738057,0.02421945,3.3080833,-4.32652,1.4979528,0.45538616,0.47034752,-0.019815413,0.75564826,-5.816679,7.4866133,0.9969727,0.3331176,-5.9999933,0.8410377,0
1.270000000000001,8.020177636732347,0.333117598553587,-5.999993281967918,0.8410376644911337,12.8909025,0.4227076,-1.7738057,0.02421945,3.2501953,-4.251841,1.5076513,0.45062178,0.4934721,-0.03418496,0.74314,-5.7608066,7.448723,0.9421518,0.3331176,-5.9999933,0.8410377,0
1.280000000000001,8.629443329490597,0.1363859872951872,-5.999995094802007,1.0321666134742764,11.580093,-0.0948209,-1.5933731,-0.0038578268,3.1928697,-4.1775556,1.5167829,0.44544268,0.5161424,-0.048523042,0.72994775,-5.7042103,7.4079094,0.8835695,0.3331176,-5.9999933,0.8410377,0
1.290000000000001,8.629443329490597,0.1363859872951872,-5.999995094802007,1.0321666134742764,11.580093,-0.0948209,-1.5933731,-0.0038578268,3.1361344,-4.1037087,1.5253229,0.43966228,0.5378515,-0.06402737,0.71645916,-5.642769,7.3609986,0.8237977,0.13638599,-5.999995,1.0321666,0
1.300000000000001,8.629443329490597,0.1363859872951872,-5.999995094802007,1.0321666134742764,11.580093,-0.0948209,-1.5933731,-0.0038578268,3.0800154,-4.0303454,1.5332439,0.43347427,0.55906206,-0.07947233,0.70230633,-5.581042,7.311229,0.759719,0.13638599,-5.999995,1.0321666,0
1.310000000000001,8.629443329490597,0.1363859872951872,-5.999995094802007,1.0321666134742764,11.580093,-0.0948209,-1.5933731,-0.0038578268,3.0245144,-3.9574933,1.540502,0.42688444,0.5797543,-0.09484363,0.6875025,-5.519214,7.2588124,0.69119173,0.13638599,-5.999995,1.0321666,0
1.320000000000001,8.3344058098195,-0.35364600764016807,-1.4179183731770553,1.0941199220543476,12.931758,-0.39027435,0.7530922,0.042584587,2.9696312,-3.8851779,1.5470519,0.4198989,0.5999091,-0.11012702,0.6720613,-5.4574714,7.2039714,0.6180907,0.13638599,-5.999995,1.0321666,0
1.330000000000001,8.3344058098195,-0.35364600764016807,-1.4179183731770553,1.0941199220543476,12.931758,-0.39027435,0.7530922,0.042584587,2.9153535,-3.8134105,1.552848,0.41648492,0.6033038,-0.11756946,0.66988266,-5.3980846,7.1493874,0.54096335,-0.353646,-1.4179183,1.0941199,0
1.340000000000001,8.3344058098195,-0.35364600764016807,-1.4179183731770553,1.0941199220543476,12.931758,-0.39027435,0.7530922,0.042584587,2.8616686,-3.7421925,1.5578679,0.41303623,0.6066482,-0.12500212,0.66764814,-5.338992,7.0941243,0.4628682,-0.353646,-1.4179183,1.0941199,0
1.350000000000001,8.3344058098195,-0.35364600764016807,-1.4179183731770553,1.0941199220543476,12.931758,-0.39027435,0.7530922,0.042584587,2.8085728,-3.6715302,1.562102,0.4095531,0.6099421,-0.13242435,0.665358,-5.2801976,7.0382023,0.38379374,-0.353646,-1.4179183,1.0941199,0
1.360000000000001,8.143557284153099,-0.6853824803110871,3.3069410123091516,1.1995037426255146,11.467592,-1.3893512,3.9146655,1.1680461,2.7560635,-3.6014307,1.5655404,0.40603587,0.6131851,-0.13983555,0.66301244,-5.221705,6.981639,0.30372867,-0.353646,-1.4179183,1.0941199,0
1.370000000000001,8.143557284153099,-0.6853824803110871,3.3069410123091516,1.1995037426255146,11.467592,-1.3893512,3.9146655,1.1680461,2.7041311,-3.5318918,1.5681752,0.40640768,0.5998946,-0.13904914,0.6750002,-5.1648135,6.926231,0.22364004,-0.6853825,3.306941,1.1995038,0
1.380000000000001,8.143557284153099,-0.6853824803110871,3.3069410123091516,1.1995037426255146,11.467592,-1.3893512,3.9146655,1.1680461,2.6527665,-3.4629037,1.5700223,0.40664902,0.5864114,-0.13821808,0.6867712,-5.108175,6.871494,0.14620616,-0.6853825,3.306941,1.1995038,0
1.390000000000001,8.143557284153099,-0.6853824803110871,3.3069410123091516,1.1995037426255146,11.467592,-1.3893512,3.9146655,1.1680461,2.6019666,-3.3944592,1.5711085,0.40675977,0.5727399,-0.13734262,0.6983217,-5.0518775,6.8174677,0.07140685,-0.6853825,3.306941,1.1995038,0
1.400000000000001,7.658842415229655,-0.9463259071052468,5.346946950322887,1.2115287535823422,9.959628,-2.33327,5.632751,2.020262,2.5517275,-3.3265517,1.5714595,0.4067399,0.5588845,-0.13642307,0.709648,-4.99601,6.76419,-0.0007814616,-0.6853825,3.306941,1.1995038,0
1.410000000000001,7.658842415229655,-0.9463259071052468,5.346946950322887,1.2115287535823422,9.959628,-2.33327,5.632751,2.020262,2.502028,-3.2591565,1.5710948,0.40857512,0.53694785,-0.13224004,0.72613126,-4.944045,6.7150326,-0.07153751,-0.9463259,5.3469467,1.2115288,0
1.420000000000001,7.658842415229655,-0.9463259071052468,5.346946950322887,1.2115287535823422,9.959628,-2.33327,5.632751,2.020262,2.4528437,-3.1922462,1.5700419,0.4100942,0.5145958,-0.12795469,0.7420527,-4.892956,6.667253,-0.13846952,-0.9463259,5.3469467,1.2115288,0
1.430000000000001,7.658842415229655,-0.9463259071052468,5.346946950322887,1.2115287535823422,9.959628,-2.33327,5.632751,2.020262,2.4041653,-3.1258063,1.5683384,0.41129598,0.4918455,-0.123570345,0.7573999,-4.842929,6.620956,-0.20166513,-0.9463259,5.3469467,1.2115288,0
1.440000000000001,7.658842415229655,-0.9463259071052468,5.346946950322887,1.2115287535823422,10.865088,-2.8504338,7.0756855,1.1946695,2.3559809,-3.0598216,1.5660211,0.41217953,0.46871462,-0.11909038,0.77216107,-4.7941475,6.576243,-0.26122355,-0.9463259,5.3469467,1.2115288,0
1.450000000000001,7.658842415229655,-0.9463259071052468,5.346946950322887,1.2115287535823422,10.865088,-2.8504338,7.0756855,1.1946695,2.3082776,-2.9942756,1.5631258,0.41274413,0.44522107,-0.11451826,0.78632474,-4.7467895,6.5332084,-0.31725523,-0.9463259,5.3469467,1.2115288,0
1.460000000000001,7.658842415229655,-0.9463259071052468,5.346946950322887,1.2115287535823422,10.865088,-2.8504338,7.0756855,1.1946695,2.2610397,-2.9291513,1.5596875,0.41298935,0.42138305,-0.10985753,0.79987997,-4.7010307,6.491945,-0.36988154,-0.9463259,5.3469467,1.2115288,0
1.470000000000001,7.658842415229655,-0.9463259071052468,5.346946950322887,1.2115287535823422,10.865088,-2.8504338,7.0756855,1.1946695,2.214251,-2.8644304,1.5557394,0.412915,0.39721894,-0.1051118,0.81281626,-4.65704,6.4525366,-0.41923434,-0.9463259,5.3469467,1.2115288,0
1.480000000000001,7.22309768704098,-1.2181133745725112,5.955264341114361,1.0418967902364382,7.0974865,-2.0580993,7.6645055,0.94209373,2.1678925,-2.800094,1.5513135,0.41252115,0.37274748,-0.10028473,0.82512367,-4.6149826,6.415064,-0.46545577,-0.9463259,5.3469467,1.2115288,0
1.490000000000001,7.22309768704098,-1.2181133745725112,5.955264341114361,1.0418967902364382,7.0974865,-2.0580993,7.6645055,0.94209373,2.1219323,-2.7361119,1.5464253,0.41328278,0.34497058,-0.09492183,0.8373667,-4.577412,6.3816733,-0.51169753,-1.2181134,5.9552646,1.0418968,0
1.500000000000001,7.22309768704098,-1.2181133745725112,5.955264341114361,1.0418967902364382,7.0974865,-2.0580993,7.6645055,0.94209373,2.0763357,-2.6724532,1.5410898,0.41365147,0.31686568,-0.08946867,0.84881353,-4.542295,6.3504033,-0.5549817,-1.2181134,5.9552646,1.0418968,0
1.5100000000000011,7.22309768704098,-1.2181133745725112,5.955264341114361,1.0418967902364382,7.0974865,-2.0580993,7.6645055,0.94209373,2.0310774,-2.609096,1.5353352,0.41362685,0.28845954,-0.083930455,0.8594534,-4.509791,6.321336,-0.5955113,-1.2181134,5.9552646,1.0418968,0
1.5200000000000011,7.135918591947063,-1.3524857894348719,5.999984772112146,0.8089861434843658,7.938535,-2.786273,6.351259,1.2084149,1.9861305,-2.5460184,1.5291883,0.41320896,0.2597791,-0.07831244,0.869276,-4.48005,6.2945423,-0.6334998,-1.2181134,5.9552646,1.0418968,0
1.5300000000000011,7.135918591947063,-1.3524857894348719,5.999984772112146,0.8089861434843658,7.938535,-2.786273,6.351259,1.2084149,1.9414648,-2.4831958,1.5226694,0.41360006,0.23046954,-0.07280862,0.8777916,-4.4535685,6.270368,-0.6699153,-1.3524858,5.9999847,0.8089861,0
1.5400000000000011,7.135918591947063,-1.3524857894348719,5.999984772112146,0.8089861434843658,7.938535,-2.786273,6.351259,1.2084149,1.8970485,-2.420603,1.515797,0.41359326,0.20093827,-0.067234755,0.8854627,-4.4301662,6.2485266,-0.7042507,-1.3524858,5.9999847,0.8089861,0
1.5500000000000012,7.135918591947063,-1.3524857894348719,5.999984772112146,0.8089861434843658,7.938535,-2.786273,6.351259,1.2084149,1.8528504,-2.358217,1.5085907,0.41318858,0.1712137,-0.061596204,0.89228207,-4.4099545,6.229072,-0.7367486,-1.3524858,5.9999847,0.8089861,0
1.5600000000000012,7.629635416971531,-1.3314522982769135,5.999989721606173,0.48492186336926774,7.41727,-2.9290032,1.5874497,0.32723817,1.808838,-2.2960134,1.5010676,0.41238642,0.14132442,-0.055898402,0.89824295,-4.3930306,6.21205,-0.7676587,-1.3524858,5.9999847,0.8089861,0
1.5700000000000012,7.629635416971531,-1.3314522982769135,5.999989721606173,0.48492186336926774,7.41727,-2.9290032,1.5874497,0.32723817,1.764983,-2.2339728,1.493266,0.41263032,0.11143386,-0.04982373,0.90268296,-4.378537,6.196495,-0.792496,-1.3314523,5.9999895,0.48492187,0
1.5800000000000012,7.629635416971531,-1.3314522982769135,5.999989721606173,0.48492186336926774,7.41727,-2.9290032,1.5874497,0.32723817,1.7212547,-2.172074,1.4852217,0.41248217,0.08143744,-0.04370172,0.90626526,-4.3677087,6.1836295,-0.8161874,-1.3314523,5.9999895,0.48492187,0
1.5900000000000012,7.629635416971531,-1.3314522982769135,5.999989721606173,0.48492186336926774,7.41727,-2.9290032,1.5874497,0.32723817,1.6776161,-2.1102908,1.4769452,0.41194212,0.051363636,-0.037538186,0.9089865,-4.3605995,6.173484,-0.83901495,-1.3314523,5.9999895,0.48492187,0
1.6000000000000012,8.74929595581385,-1.1421330707645505,5.977174495731853,0.24752462418208446,8.165063,-2.415645,2.841657,0.715373,1.6340299,-2.0485952,1.4684435,0.41101068,0.021241035,-0.03133899,0.9108441,-4.3572497,6.1660776,-0.8612641,-1.3314523,5.9999895,0.48492187,0
1.6100000000000012,8.74929595581385,-1.1421330707645505,5.977174495731853,0.24752462418208446,8.165063,-2.415645,2.841657,0.715373,1.5904585,-1.9869635,1.4597769,0.41075075,-0.008371537,-0.024269953,0.91138625,-4.3576965,6.160774,-0.8720459,-1.1421331,5.9771743,0.24752462,0
1.6200000000000012,8.74929595581385,-1.1421330707645505,5.977174495731853,0.24752462418208446,8.165063,-2.415645,2.841657,0.715373,1.5468614,-1.9253687,1.4510027,0.41010994,-0.037976347,-0.017178413,0.9110832,-4.362355,6.1587267,-0.8828137,-1.1421331,5.9771743,0.24752462,0
1.6300000000000012,8.74929595581385,-1.1421330707645505,5.977174495731853,0.24752462418208446,8.165063,-2.415645,2.841657,0.715373,1.5031968,-1.8637779,1.4421195,0.40908888,-0.06754594,-0.010070944,0.9099354,-4.3712153,6.1599317,-0.8938915,-1.1421331,5.9771743,0.24752462,0
1.6400000000000012,8.74929595581385,-1.1421330707645505,5.977174495731853,0.24752462418208446,8.516739,-2.329524,3.0386848,1.0253388,1.4594228,-1.8021588,1.4331226,0.4076885,-0.0970529,-0.002954137,0.9079439,-4.3842525,6.164374,-0.9056023,-1.1421331,5.9771743,0.24752462,0
1.6500000000000012,8.74929595581385,-1.1421330707645505,5.977174495731853,0.24752462418208446,8.516739,-2.329524,3.0386848,1.0253388,1.4154977,-1.7404794,1.4240042,0.4059101,-0.12646988,0.0041654096,0.90511054,-4.4014263,6.172027,-0.9182664,-1.1421331,5.9771743,0.24752462,0
1.6600000000000013,8.74929595581385,-1.1421330707645505,5.977174495731853,0.24752462418208446,8.516739,-2.329524,3.0386848,1.0253388,1.3713803,-1.6787075,1.4147528,0.40375534,-0.15576959,0.011281094,0.90143794,-4.422682,6.1828527,-0.93220085,-1.1421331,5.9771743,0.24752462,0
1.6700000000000013,8.74929595581385,-1.1421330707645505,5.977174495731853,0.24752462418208446,8.516739,-2.329524,3.0386848,1.0253388,1.3270303,-1.6168116,1.4053545,0.4012262,-0.18492486,0.018386317,0.89692944,-4.4479475,6.1967993,-0.9477178,-1.1421331,5.9771743,0.24752462,0
1.6800000000000013,9.90069322441429,-0.8817294601085811,2.8725783887091367,0.11874079280428489,10.491042,-1.3289726,2.1482346,1.1386069,1.2824079,-1.554761,1.3957919,0.398325,-0.21390866,0.025474494,0.8915893,-4.477138,6.2138047,-0.96512365,-1.1421331,5.9771743,0.24752462,0
1.6900000000000013,9.90069322441429,-0.8817294601085811,2.8725783887091367,0.11874079280428489,10.491042,-1.3289726,2.1482346,1.1386069,1.2374552,-1.4925146,1.3860978,0.39644176,-0.22843069,0.027388938,0.8887651,-4.5137568,6.235695,-0.973884,-0.8817295,2.8725784,0.11874079,0
1.7000000000000013,9.90069322441429,-0.8817294601085811,2.8725783887091367,0.11874079280428489,10.491042,-1.3289726,2.1482346,1.1386069,1.192125,-1.4300423,1.3763096,0.3944689,-0.24290107,0.029297188,0.8857399,-4.552659,6.258959,-0.98396635,-0.8817295,2.8725784,0.11874079,0
1.7100000000000013,9.90069322441429,-0.8817294601085811,2.8725783887091367,0.11874079280428489,10.491042,-1.3289726,2.1482346,1.1386069,1.1463944,-1.3673308,1.3664137,0.39240688,-0.25731653,0.031198815,0.8825145,-4.593811,6.2835727,-0.99545026,-0.8817295,2.8725784,0.11874079,0
1.7200000000000013,11.39136634115931,-0.5019593250529133,-0.3476739604703424,0.0325357725236579,10.711878,-1.2724974,1.1207577,0.9436311,1.1002411,-1.3043664,1.3563955,0.39025614,-0.27167383,0.033093393,0.87908953,-4.6371775,6.3095117,-1.0084139,-0.8817295,2.8725784,0.11874079,0
1.7300000000000013,11.39136634115931,-0.5019593250529133,-0.3476739604703424,0.0325357725236579,10.711878,-1.2724974,1.1207577,0.9436311,1.0536116,-1.241118,1.3463053,0.38948697,-0.27111846,0.030252691,0.87970424,-4.6887155,6.3400464,-1.0096235,-0.5019593,-0.34767395,0.032535773,0
1.7400000000000013,11.39136634115931,-0.5019593250529133,-0.3476739604703424,0.0325357725236579,10.711878,-1.2724974,1.1207577,0.9436311,1.006466,-1.1775677,1.3362035,0.3887142,-0.27056056,0.027411707,0.8803107,-4.740437,6.3699193,-1.0107248,-0.5019593,-0.34767395,0.032535773,0
1.7500000000000013,11.39136634115931,-0.5019593250529133,-0.3476739604703424,0.0325357725236579,10.711878,-1.2724974,1.1207577,0.9436311,0.9588023,-1.113722,1.326091,0.38793775,-0.27000013,0.024570467,0.88090897,-4.7923408,6.3991294,-1.0117211,-0.5019593,-0.34767395,0.032535773,0
1.7600000000000013,12.48489763215015,-0.1887421149090734,-1.8385345513171625,0.020404761029378885,11.63018,-0.19006574,0.39334086,0.39372122,0.9106186,-1.0495875,1.3159692,0.3871577,-0.26943716,0.021729,0.881499,-4.844424,6.427675,-1.0126163,-0.5019593,-0.34767395,0.032535773,0
1.7700000000000014,12.48489763215015,-0.1887421149090734,-1.8385345513171625,0.020404761029378885,11.63018,-0.19006574,0.39334086,0.39372122,0.86188954,-0.98515844,1.3058866,0.38699675,-0.2616856,0.01736473,0.8839982,-4.90121,6.4578643,-1.0037081,-0.18874212,-1.8385346,0.020404762,0
1.7800000000000014,12.48489763215015,-0.1887421149090734,-1.8385345513171625,0.020404761029378885,11.63018,-0.19006574,0.39334086,0.39372122,0.8125982,-0.9204361,1.2958987,0.3868027,-0.25391164,0.012998974,0.8864219,-4.956868,6.4863405,-0.99374306,-0.18874212,-1.8385346,0.020404762,0
1.7900000000000014,12.48489763215015,-0.1887421149090734,-1.8385345513171625,0.020404761029378885,11.63018,-0.19006574,0.39334086,0.39372122,0.7627561,-0.8554375,1.2860154,0.38657564,-0.24611603,0.00863211,0.88876987,-5.0113797,6.513094,-0.98275787,-0.18874212,-1.8385346,0.020404762,0
1.8000000000000014,13.413189862212333,0.0046159477907574365,-1.2118586705996948,0.03617827975746835,14.236616,1.2683223,-0.38765502,0.007906007,0.7123747,-0.7901801,1.2762469,0.38631555,-0.2382994,0.004264509,0.89104193,-5.0647254,6.538116,-0.9707897,-0.18874212,-1.8385346,0.020404762,0
1.8100000000000014,13.413189862212333,0.0046159477907574365,-1.2118586705996948,0.03617827975746835,14.236616,1.2683223,-0.38765502,0.007906007,0.66144586,-0.7246716,1.2666438,0.3861786,-0.2328863,0.0019873164,0.89253926,-5.1208844,6.5634146,-0.94973713,0.0046159476,-1.2118586,0.03617828,0
1.8200000000000014,13.413189862212333,0.0046159477907574365,-1.2118586705996948,0.03617827975746835,14.236616,1.2683223,-0.38765502,0.007906007,0.60996026,-0.65891564,1.2572546,0.3860275,-0.22746463,-0.000289949,0.89400375,-5.176076,6.587599,-0.9280031,0.0046159476,-1.2118586,0.03617828,0
1.8300000000000014,13.413189862212333,0.0046159477907574365,-1.2118586705996948,0.03617827975746835,14.236616,1.2683223,-0.38765502,0.007906007,0.5579276,-0.5929234,1.248086,0.38586217,-0.22203459,-0.0025672037,0.89543545,-5.2302914,6.610665,-0.90560496,0.0046159476,-1.2118586,0.03617828,0
1.8400000000000014,13.413189862212333,0.0046159477907574365,-1.2118586705996948,0.03617827975746835,15.897178,0.94819295,-1.5683993,-0.0043782927,0.5053578,-0.5267061,1.2391447,0.38568267,-0.2165964,-0.004844364,0.89683425,-5.2835226,6.6326118,-0.88256043,0.0046159476,-1.2118586,0.03617828,0
1.8500000000000014,13.413189862212333,0.0046159477907574365,-1.2118586705996948,0.03617827975746835,15.897178,0.94819295,-1.5683993,-0.0043782927,0.4522606,-0.460275,1.2304369,0.38548902,-0.21115023,-0.007121346,0.8982001,-5.335761,6.6534348,-0.85888714,0.0046159476,-1.2118586,0.03617828,0
1.8600000000000014,13.413189862212333,0.0046159477907574365,-1.2118586705996948,0.03617827975746835,15.897178,0.94819295,-1.5683993,-0.0043782927,0.39864603,-0.39364126,1.221969,0.38528118,-0.2056963,-0.009398066,0.8995329,-5.386999,6.673132,-0.83460295,0.0046159476,-1.2118586,0.03617828,0
1.8700000000000014,13.413189862212333,0.0046159477907574365,-1.2118586705996948,0.03617827975746835,15.897178,0.94819295,-1.5683993,-0.0043782927,0.3445241,-0.32681623,1.2137469,0.38505918,-0.20023483,-0.011674442,0.9008327,-5.4372277,6.6917,-0.80972564,0.0046159476,-1.2118586,0.03617828,0
1.8800000000000014,13.909884063083362,0.08726423041032576,-0.9382701468151441,0.04115566745562771,13.838012,0.81349677,0.5965603,0.2004442,0.28990495,-0.25981116,1.2057765,0.38482305,-0.194766,-0.013950389,0.9020994,-5.4864407,6.709138,-0.78427327,0.0046159476,-1.2118586,0.03617828,0
1.8900000000000015,13.909884063083362,0.08726423041032576,-0.9382701468151441,0.04115566745562771,13.838012,0.81349677,0.5965603,0.2004442,0.23478968,-0.19263396,1.1980861,0.3846527,-0.19036676,-0.015321885,0.90308833,-5.536474,6.726177,-0.7537081,0.08726423,-0.93827015,0.041155666,0
1.9000000000000015,13.909884063083362,0.08726423041032576,-0.9382701468151441,0.04115566745562771,13.838012,0.81349677,0.5965603,0.2004442,0.1791786,-0.12529048,1.1907037,0.38447377,-0.18596329,-0.01669304,0.90405715,-5.5856004,6.742388,-0.7226871,0.08726423,-0.93827015,0.041155666,0
1.9100000000000015,13.909884063083362,0.08726423041032576,-0.9382701468151441,0.04115566745562771,13.838012,0.81349677,0.5965603,0.2004442,0.123080805,-0.05778905,1.1836339,0.38428625,-0.18155567,-0.018063825,0.90500593,-5.6338143,6.7577686,-0.69122165,0.08726423,-0.93827015,0.041155666,0
1.9200000000000015,14.459841271371483,0.17861440208868173,-0.16162310090448287,0.05398958364814116,14.464515,0.4839241,0.042175055,0.06523357,0.066505454,0.0098620355,1.1768808,0.38409024,-0.17714402,-0.019434206,0.9059346,-5.681112,6.772319,-0.65932304,0.08726423,-0.93827015,0.041155666,1
1.9300000000000015,14.459841271371483,0.17861440208868173,-0.16162310090448287,0.05398958364814116,14.464515,0.4839241,0.042175055,0.06523357,0.009451897,0.07765876,1.1704745,0.38422632,-0.17641151,-0.017103357,0.9060668,-5.7295303,6.7871094,-0.6219275,0.4839241,0.042175055,0.06523357,1
1.9400000000000015,14.459841271371483,0.17861440208868173,-0.16162310090448287,0.05398958364814116,14.464515,0.4839241,0.042175055,0.06523357,-0.04808363,0.14560607,1.1644425,0.3843601,-0.17567794,-0.014772408,0.90619355,-5.7775054,6.802436,-0.5844337,0.4839241,0.042175055,0.06523357,1
1.9500000000000015,14.459841271371483,0.17861440208868173,-0.16162310090448287,0.05398958364814116,14.464515,0.4839241,0.042175055,0.06523357,-0.10609668,0.21370934,1.158786,0.38449156,-0.17494331,-0.012441369,0.9063149,-5.8250356,6.818298,-0.5468449,0.4839241,0.042175055,0.06523357,1
1.9600000000000015,14.598749475067601,0.1159754830591071,-0.29077995105368054,0.061652837146138444,16.486313,0.71416557,-0.67397916,-0.0045781527,-0.16458279,0.2819739,1.153506,0.38462073,-0.17420764,-0.010110255,0.90643084,-5.8721204,6.8346953,-0.5091645,0.4839241,0.042175055,0.06523357,0
1.9700000000000015,14.598749475067601,0.1159754830591071,-0.29077995105368054,0.061652837146138444,16.486313,0.71416557,-0.67397916,-0.0045781527,-0.22353977,0.3504051,1.1486096,0.38442713,-0.17266965,-0.010090122,0.9068074,-5.9192142,6.8515162,-0.47010925,0.115975484,-0.29077995,0.061652835,0
1.9800000000000015,14.598749475067601,0.1159754830591071,-0.29077995105368054,0.061652837146138444,16.486313,0.71416557,-0.67397916,-0.0045781527,-0.28296572,0.4190036,1.1441045,0.38423258,-0.17113121,-0.010069963,0.9071816,-5.965917,6.8681593,-0.4308986,0.115975484,-0.29077995,0.061652835,0
1.9900000000000015,14.598749475067601,0.1159754830591071,-0.29077995105368054,0.061652837146138444,16.486313,0.71416557,-0.67397916,-0.0045781527,-0.34285676,0.48776764,1.1399922,0.38403708,-0.16959234,-0.010049778,0.90755355,-6.012228,6.8846235,-0.39153394,0.115975484,-0.29077995,0.061652835,0
2.0000000000000013,,,,,16.159964,0.7934167,-0.40070775,-0.036101423,-0.4032089,0.55669546,1.1362743,0.38384053,-0.16805303,-0.010029567,0.9079232,-6.0581465,6.90091,-0.35201654,0.115975484,-0.29077995,0.061652835,0
2.010000000000001,,,,,16.159964,0.7934167,-0.40070775,-0.036101423,-0.46401995,0.6257859,1.1329567,0.38355458,-0.16730863,-0.009726657,0.9081848,-6.104027,6.917181,-0.31150267,0.10306432,-0.12128279,0.080689214,0
2.020000000000001,,,,,16.159964,0.7934167,-0.40070775,-0.036101423,-0.5252887,0.695039,1.1300446,0.38326836,-0.1665641,-0.009423738,0.90844566,-6.149686,6.9334345,-0.27091378,0.10306432,-0.12128279,0.080689214,0
2.0300000000000007,,,,,16.159964,0.7934167,-0.40070775,-0.036101423,-0.58701295,0.7644545,1.1275387,0.3829818,-0.16581944,-0.009120813,0.9087058,-6.1951237,6.9496703,-0.2302503,0.10306432,-0.12128279,0.080689214,0
2.0400000000000005,,,,,16.159964,0.7934167,-0.40070775,-0.036101423,-0.6491905,0.8340323,1.1254399,0.38269496,-0.16507465,-0.0088178795,0.9089652,-6.240342,6.965888,-0.1895126,0.10306432,-0.12128279,0.080689214,0
2.0500000000000003,,,,,16.427275,0.9012311,-0.2762141,-0.042744257,-0.7118191,0.9037722,1.1237487,0.3824078,-0.16432971,-0.008514939,0.90922385,-6.2853394,6.9820886,-0.14870103,0.10306432,-0.12128279,0.080689214,1
2.06,,,,,16.427275,0.9012311,-0.2762141,-0.042744257,-0.7749218,0.9736844,1.1225485,0.3833266,-0.16134718,-0.004981006,0.9093973,-6.335002,7.000465,-0.09129761,0.9012311,-0.2762141,-0.042744257,1
2.07,,,,,16.427275,0.9012311,-0.2762141,-0.042744257,-0.8385145,1.0437839,1.1219238,0.38423687,-0.15836108,-0.0014469624,0.90955055,-6.383338,7.0195694,-0.03356453,0.9012311,-0.2762141,-0.042744257,1
2.0799999999999996,,,,,16.427275,0.9012311,-0.2762141,-0.042744257,-0.90258396,1.114078,1.1218781,0.38513857,-0.15537143,0.0020871137,0.9096835,-6.4303436,7.039401,0.024484538,0.9012311,-0.2762141,-0.042744257,1
2.0899999999999994,,,,,16.238445,0.7570487,-0.40311065,0.042021167,-0.96711683,1.1845742,1.1224146,0.3860317,-0.15237834,0.005621143,0.90979624,-6.4760146,7.059956,0.082835875,0.9012311,-0.2762141,-0.042744257,1
2.099999999999999,,,,,16.238445,0.7570487,-0.40311065,0.042021167,-1.0320971,1.255278,1.123527,0.38642514,-0.1490808,0.008318831,0.9101548,-6.5198474,7.0808725,0.1396866,0.7570487,-0.40311065,0.042021167,1
2.109999999999999,,,,,16.238445,0.7570487,-0.40311065,0.042021167,-1.0975094,1.3261929,1.1252095,0.38681144,-0.1457805,0.011016366,0.9104966,-6.562383,7.102192,0.19684362,0.7570487,-0.40311065,0.042021167,1
2.1199999999999988,,,,,16.238445,0.7570487,-0.40311065,0.042021167,-1.1633404,1.3973231,1.1274648,0.38719058,-0.14247754,0.013713698,0.9108216,-6.6036186,7.1239133,0.2542954,0.7570487,-0.40311065,0.042021167,1
2.1299999999999986,,,,,15.621089,0.47937042,-0.21182938,0.041107673,-1.2295773,1.4686725,1.1302961,0.38756257,-0.13917196,0.016410777,0.91112983,-6.6435504,7.1460366,0.3120304,0.7570487,-0.40311065,0.042021167,1
2.1399999999999983,,,,,15.621089,0.47937042,-0.21182938,0.041107673,-1.2962002,1.5402409,1.1336764,0.3877249,-0.13727415,0.018212682,0.91131437,-6.680898,7.1676683,0.36406037,0.47937042,-0.21182938,0.041107673,1
2.149999999999998,,,,,15.621089,0.47937042,-0.21182938,0.041107673,-1.3631927,1.612027,1.1375778,0.3878846,-0.13537538,0.02001446,0.91149265,-6.717494,7.1895914,0.4162332,0.47937042,-0.21182938,0.041107673,1
2.159999999999998,,,,,15.621089,0.47937042,-0.21182938,0.041107673,-1.4305476,1.6840339,1.1420015,0.38804156,-0.1334757,0.021816099,0.9116646,-6.753337,7.211805,0.4685447,0.47937042,-0.21182938,0.041107673,1
2.1699999999999977,,,,,14.695312,0.16054074,0.44683924,-0.018789932,-1.4982568,1.7562642,1.1469489,0.38819587,-0.1315751,0.023617588,0.9118303,-6.7884264,7.2343097,0.52099067,0.47937042,-0.21182938,0.041107673,1
2.1799999999999975,,,,,14.695312,0.16054074,0.44683924,-0.018789932,-1.5663042,1.8287147,1.1523767,0.3883333,-0.13330252,0.025204392,0.91147834,-6.8210926,7.2558856,0.564533,0.16054074,0.44683924,-0.018789932,1
2.1899999999999973,,,,,14.695312,0.16054074,0.44683924,-0.018789932,-1.6346797,1.9013842,1.158239,0.3884685,-0.13502923,0.026791057,0.9111212,-6.854026,7.278086,0.60791695,0.16054074,0.44683924,-0.018789932,1
