time-since-start [s],throttle_mpc,roll_mpc,pitch_mpc,yaw_mpc,throttle_nw,roll_nw,pitch_nw,yaw_nw,position_x [m],position_y [m],position_z [m],rotation_w [quaternion],rotation_x [quaternion],rotation_y [quaternion],rotation_z [quaternion],velocity_x [m/s],velocity_y [m/s],velocity_z [m/s],omega_x [rad/s],omega_y [rad/s],omega_z [rad/s],network_used
0.0,12.370871615869355,5.999999194122494,-5.999999813216528,-0.4481239362033503,13.779866,0.48850417,-4.8603115,-0.7392429,18.526423,-10.184901,1.8079443,-0.21424258,0.40547824,-0.28992715,-0.84001774,-9.845901,-2.0507395,-0.4457783,0.83919764,-0.2709996,0.74356097,0
0.01,12.370871615869355,5.999999194122494,-5.999999813216528,-0.4481239362033503,13.263746,0.5667285,-5.8757424,-0.7239556,18.427551,-10.204918,1.8033688,-0.21433327,0.40070072,-0.29546183,-0.8403586,-9.927509,-1.9529753,-0.46971098,1.3984172,-0.91829807,0.7071084,0
0.02,12.370871615869355,5.999999194122494,-5.999999813216528,-0.4481239362033503,13.263746,0.5667285,-5.8757424,-0.7239556,18.327887,-10.223968,1.7985429,-0.21656683,0.39275193,-0.3025011,-0.84103376,-10.004581,-1.857219,-0.49576867,1.9213358,-1.5156611,0.6678864,0
0.03,12.370871615869355,5.999999194122494,-5.999999813216528,-0.4481239362033503,13.263746,0.5667285,-5.8757424,-0.7239556,18.227478,-10.242068,1.7934479,-0.22079726,0.38183668,-0.3109169,-0.84189075,-10.076436,-1.762966,-0.52345276,2.410714,-2.067971,0.6262907,0
0.04,12.370871615869355,5.999999194122494,-5.999999813216528,-0.4481239362033503,13.51544,0.60536927,-6.083855,-0.7737146,18.126377,-10.2592325,1.7880695,-0.22687943,0.36812636,-0.3205761,-0.8427572,-10.142485,-1.669824,-0.5523895,2.8691204,-2.5795863,0.58267623,0
0.05,12.370871615869355,5.999999194122494,-5.999999813216528,-0.4481239362033503,13.51544,0.60536927,-6.083855,-0.7737146,18.024649,-10.275469,1.7823966,-0.23466927,0.35176647,-0.33134216,-0.8434471,-10.202217,-1.5775121,-0.5823186,3.2989385,-3.0544,0.53736126,0
0.060000000000000005,12.370871615869355,5.999999194122494,-5.999999813216528,-0.4481239362033503,13.51544,0.60536927,-6.083855,-0.7737146,17.922358,-10.290785,1.7764201,-0.24402347,0.33288318,-0.3430758,-0.84376556,-10.255184,-1.4858574,-0.61308223,3.702376,-3.4958951,0.49063084,0
0.07,12.370871615869355,5.999999194122494,-5.999999813216528,-0.4481239362033503,13.51544,0.60536927,-6.083855,-0.7737146,17.819569,-10.305182,1.770136,-0.25477147,0.3116286,-0.35561493,-0.84351474,-10.301711,-1.3933302,-0.64354825,4.0606976,-3.8864157,0.44456592,0
0.08,14.54015302170044,5.999998763662196,-5.999999838706033,-1.1435735767346775,14.14055,0.98569924,-6.2988935,-0.7910628,17.716347,-10.318645,1.7635531,-0.266659,0.28827247,-0.3687343,-0.8425123,-10.341813,-1.2986981,-0.67282593,4.3631063,-4.216065,0.4007614,0
0.09,14.54015302170044,5.999998763662196,-5.999999838706033,-1.1435735767346775,14.14055,0.98569924,-6.2988935,-0.7910628,17.612728,-10.331065,1.7567443,-0.27951273,0.26311356,-0.382195,-0.8405777,-10.380606,-1.185184,-0.68879884,4.61823,-4.4944296,0.32498047,0
0.09999999999999999,14.54015302170044,5.999998763662196,-5.999999838706033,-1.1435735767346775,14.14055,0.98569924,-6.2988935,-0.7910628,17.508764,-10.34234,1.7497808,-0.29318455,0.2364189,-0.39578965,-0.8375557,-10.410372,-1.0696853,-0.7037814,4.833544,-4.729404,0.25291812,0
0.10999999999999999,14.54015302170044,5.999998763662196,-5.999999838706033,-1.1435735767346775,14.14055,0.98569924,-6.2988935,-0.7910628,17.404552,-10.352453,1.7426711,-0.3074772,0.20839815,-0.40936124,-0.83333755,-10.430521,-0.9526087,-0.7180907,5.015265,-4.9277463,0.18439187,0
0.11999999999999998,14.54015302170044,5.999998763662196,-5.999999838706033,-1.1435735767346775,14.14055,0.98569924,-6.2988935,-0.7910628,17.300188,-10.361389,1.7354201,-0.322216,0.17924014,-0.4227735,-0.827836,-10.440563,-0.83445024,-0.7321016,5.1686373,-5.095165,0.11922821,0
0.12999999999999998,18.600196589915303,3.6525736196763448,-5.999999757905222,-0.6662071058057013,15.726341,-0.33606246,-6.2526073,-0.41970566,17.195776,-10.369141,1.7280287,-0.33724576,0.14911637,-0.43590832,-0.8209833,-10.440112,-0.7157818,-0.74623543,5.298087,-5.236477,0.057262167,0
0.13999999999999999,18.600196589915303,3.6525736196763448,-5.999999757905222,-0.6662071058057013,15.726341,-0.33606246,-6.2526073,-0.41970566,17.091434,-10.375541,1.72061,-0.35225478,0.11848137,-0.4479105,-0.81317586,-10.425806,-0.5641641,-0.73761475,5.041351,-5.3556743,0.021761313,0
0.15,18.600196589915303,3.6525736196763448,-5.999999757905222,-0.6662071058057013,15.726341,-0.33606246,-6.2526073,-0.41970566,16.987305,-10.380429,1.713273,-0.36703238,0.08773293,-0.45813286,-0.80480087,-10.397893,-0.4137687,-0.729959,4.824653,-5.456266,-0.0119975135,0
0.16,20.159323436797496,0.05386953349143376,-5.999999475619356,0.49626955094292957,16.357063,-1.8617138,-5.4339447,-0.042613223,16.883522,-10.383824,1.706007,-0.38157904,0.056936346,-0.4667611,-0.795795,-10.356663,-0.26563367,-0.7234717,4.6417513,-5.5411563,-0.044099778,0
0.17,20.159323436797496,0.05386953349143376,-5.999999475619356,0.49626955094292957,16.357063,-1.8617138,-5.4339447,-0.042613223,16.780237,-10.385693,1.6988425,-0.39571172,0.026637921,-0.47282782,-0.78685224,-10.29799,-0.10861665,-0.70964724,3.9263687,-5.6126237,-0.017583702,0
0.18000000000000002,20.159323436797496,0.05386953349143376,-5.999999475619356,0.49626955094292957,16.357063,-1.8617138,-5.4339447,-0.042613223,16.677607,-10.386014,1.6918104,-0.40934208,-0.0027116896,-0.475622,-0.7785983,-10.226287,0.04369496,-0.6969081,3.3225467,-5.6729727,0.007631218,0
0.19000000000000003,20.159323436797496,0.05386953349143376,-5.999999475619356,0.49626955094292957,16.357063,-1.8617138,-5.4339447,-0.042613223,16.575752,-10.384841,1.6849021,-0.42257062,-0.03119772,-0.47562417,-0.77087116,-10.142597,0.19024299,-0.68479866,2.8128877,-5.72393,0.03160885,0
0.20000000000000004,19.940154368185766,-2.322382563669139,-5.851214414798385,0.6875991620641909,16.152273,-4.2989874,-2.296176,0.046565562,16.474792,-10.382235,1.6781133,-0.43546128,-0.05889893,-0.47323173,-0.76351553,-10.047867,0.33012417,-0.6729599,2.3827066,-5.7669554,0.054409884,0
0.21000000000000005,19.940154368185766,-2.322382563669139,-5.851214414798385,0.6875991620641909,16.152273,-4.2989874,-2.296176,0.046565562,16.374825,-10.378273,1.671437,-0.44807294,-0.08543428,-0.46807876,-0.7568579,-9.944159,0.46110556,-0.6622579,1.6490684,-5.7800875,0.08548064,0
0.22000000000000006,19.940154368185766,-2.322382563669139,-5.851214414798385,0.6875991620641909,16.152273,-4.2989874,-2.296176,0.046565562,16.27594,-10.373041,1.6648705,-0.46047777,-0.110498406,-0.4599069,-0.75115633,-9.8315935,0.58397067,-0.6508901,1.0298352,-5.791194,0.11502675,0
0.23000000000000007,19.940154368185766,-2.322382563669139,-5.851214414798385,0.6875991620641909,16.152273,-4.2989874,-2.296176,0.046565562,16.17822,-10.366624,1.6584237,-0.47271112,-0.134261,-0.44915685,-0.7461744,-9.711305,0.6980691,-0.63825333,0.5071658,-5.8005834,0.14312308,0
0.24000000000000007,19.940154368185766,-2.322382563669139,-5.851214414798385,0.6875991620641909,16.48835,-5.589028,2.2529612,0.281542,16.081738,-10.359113,1.6521115,-0.48478124,-0.15686783,-0.43619236,-0.7416979,-9.584316,0.8028352,-0.6238879,0.06600112,-5.8085184,0.16984068,0
0.25000000000000006,19.940154368185766,-2.322382563669139,-5.851214414798385,0.6875991620641909,16.48835,-5.589028,2.2529612,0.281542,15.986554,-10.350601,1.6459529,-0.49667794,-0.17844307,-0.42131594,-0.73753774,-9.451566,0.8977698,-0.60746676,-0.30636907,-5.8152223,0.19524723,0
0.26000000000000006,19.940154368185766,-2.322382563669139,-5.851214414798385,0.6875991620641909,16.48835,-5.589028,2.2529612,0.281542,15.892723,-10.341192,1.6399698,-0.508379,-0.19909166,-0.40478104,-0.7335295,-9.313925,0.9824288,-0.5887838,-0.62067306,-5.8208847,0.2194071,0
0.2700000000000001,19.940154368185766,-2.322382563669139,-5.851214414798385,0.6875991620641909,16.48835,-5.589028,2.2529612,0.281542,15.800289,-10.33099,1.6341853,-0.51985484,-0.21890174,-0.3868016,-0.72953224,-9.172217,1.0564178,-0.56774175,-0.8859656,-5.8256655,0.24238141,0
0.2800000000000001,18.36450559245759,-4.36608255805063,-1.1285357641086227,1.059500444132592,15.699748,-5.876274,2.694192,0.3518365,15.70929,-10.320103,1.6286231,-0.53107184,-0.2379469,-0.3675596,-0.7254266,-9.027228,1.1193895,-0.5443401,-1.1098903,-5.829701,0.26422834,0
0.2900000000000001,18.36450559245759,-4.36608255805063,-1.1285357641086227,1.059500444132592,15.699748,-5.876274,2.694192,0.3518365,15.619696,-10.308663,1.6232578,-0.5414952,-0.25450704,-0.34762913,-0.7219162,-8.891453,1.1670972,-0.5283956,-1.6176871,-5.0966845,0.3032526,0
0.3000000000000001,18.36450559245759,-4.36608255805063,-1.1285357641086227,1.059500444132592,15.699748,-5.876274,2.694192,0.3518365,15.531465,-10.296794,1.6180633,-0.5508094,-0.2672515,-0.32753673,-0.71965635,-8.754638,1.2051941,-0.5100968,-2.0463104,-4.4779873,0.3403619,0
0.3100000000000001,18.36450559245759,-4.36608255805063,-1.1285357641086227,1.059500444132592,15.699748,-5.876274,2.694192,0.3518365,15.444602,-10.284588,1.613065,-0.55924827,-0.27675813,-0.30734268,-0.71846133,-8.61794,1.23455,-0.48915374,-2.4081016,-3.9557776,0.3756502,0
0.3200000000000001,17.049046637251173,-5.574334753935796,5.628094878399971,1.6756062102447262,15.518092,-6.195996,3.2194943,0.82482636,15.359101,-10.27213,1.6082902,-0.56698066,-0.28351167,-0.28708115,-0.7181492,-8.482316,1.2559161,-0.46531323,-2.713478,-3.5150046,0.40920693,0
0.3300000000000001,17.049046637251173,-5.574334753935796,5.628094878399971,1.6756062102447262,15.518092,-6.195996,3.2194943,0.82482636,15.2749,-10.2595005,1.6037247,-0.5734645,-0.28572887,-0.26794592,-0.7195153,-8.358212,1.269125,-0.44728038,-3.159919,-2.0893893,0.4713495,0
0.34000000000000014,17.049046637251173,-5.574334753935796,5.628094878399971,1.6756062102447262,15.518092,-6.195996,3.2194943,0.82482636,15.191928,-10.246764,1.599356,-0.5783405,-0.28202474,-0.25090465,-0.7232088,-8.236944,1.2774942,-0.42584866,-3.5367782,-0.88610303,0.5304427,0
0.35000000000000014,17.049046637251173,-5.574334753935796,5.628094878399971,1.6756062102447262,15.518092,-6.195996,3.2194943,0.82482636,15.110148,-10.23396,1.595221,-0.58190507,-0.27329072,-0.2356417,-0.728815,-8.119486,1.2829099,-0.40050632,-3.8548875,0.12953214,0.58663625,0
0.36000000000000015,16.12572829092444,-5.999984951984152,5.999999555420331,0.9104545970466039,15.855375,-5.196283,5.3615084,0.92097116,15.029523,-10.221111,1.5913608,-0.5843432,-0.26026097,-0.22186498,-0.7359231,-8.006687,1.2869499,-0.37084264,-4.123394,0.9867844,0.64007235,1
0.37000000000000016,16.12572829092444,-5.999984951984152,5.999999555420331,0.9104545970466039,15.855375,-5.196283,5.3615084,0.92097116,14.94996,-10.208223,1.5877738,-0.5858201,-0.24369405,-0.20938723,-0.74403274,-7.9068375,1.2906443,-0.34584942,-4.2910094,1.6689119,0.6538561,1
0.38000000000000017,16.12572829092444,-5.999984951984152,5.999999555420331,0.9104545970466039,15.855375,-5.196283,5.3615084,0.92097116,14.8713665,-10.195293,1.5844587,-0.5864597,-0.22422424,-0.19804426,-0.7527063,-7.8126645,1.2952555,-0.31649345,-4.4324503,2.2446723,0.6669635,1
0.3900000000000002,16.12572829092444,-5.999984951984152,5.999999555420331,0.9104545970466039,15.855375,-5.196283,5.3615084,0.92097116,14.793684,-10.182311,1.5814588,-0.5863035,-0.20225237,-0.18762614,-0.76166815,-7.7247515,1.3015815,-0.28281543,-4.5518026,2.7306526,0.67942774,1
0.4000000000000002,16.24788013719572,-5.97453949872193,5.999999739449779,-0.1275969706085231,13.137868,-5.0178146,5.9191704,1.4129016,14.716847,-10.169253,1.5788168,-0.58537257,-0.17812376,-0.17795418,-0.7706769,-7.6436634,1.3102729,-0.24496411,-4.6525145,3.1408527,0.6912803,0
0.4100000000000002,16.24788013719572,-5.97453949872193,5.999999739449779,-0.1275969706085231,13.137868,-5.0178146,5.9191704,1.4129016,14.640795,-10.156094,1.5765903,-0.58377975,-0.15173493,-0.16880688,-0.7795394,-7.5681458,1.3221515,-0.199717,-4.8587914,3.586769,0.6510978,0
0.4200000000000002,16.24788013719572,-5.97453949872193,5.999999739449779,-0.1275969706085231,13.137868,-5.0178146,5.9191704,1.4129016,14.565456,-10.142797,1.5748354,-0.58159953,-0.12302165,-0.15999207,-0.78804183,-7.5009007,1.3375019,-0.15073211,-5.032853,3.9631624,0.612887,0
0.4300000000000002,16.24788013719572,-5.97453949872193,5.999999739449779,-0.1275969706085231,13.137868,-5.0178146,5.9191704,1.4129016,14.4907465,-10.129329,1.5735873,-0.5787862,-0.092322476,-0.1514112,-0.7959632,-7.442629,1.3567296,-0.098415144,-5.179734,4.28087,0.5765512,0
0.4400000000000002,16.24788013719572,-5.97453949872193,5.999999739449779,-0.1275969706085231,15.375937,-5.2200933,5.973624,1.6504924,14.416571,-10.115647,1.5728768,-0.5752976,-0.059938375,-0.14298317,-0.8031161,-7.3939714,1.380131,-0.043300927,-5.3036823,4.54904,0.5419984,0
0.45000000000000023,16.24788013719572,-5.97453949872193,5.999999739449779,-0.1275969706085231,15.375937,-5.2200933,5.973624,1.6504924,14.342832,-10.101711,1.5727286,-0.57109654,-0.026138902,-0.13464196,-0.80934334,-7.355502,1.4079025,0.013962763,-5.4082804,4.7753954,0.50914115,0
0.46000000000000024,16.24788013719572,-5.97453949872193,5.999999739449779,-0.1275969706085231,15.375937,-5.2200933,5.973624,1.6504924,14.2694235,-10.087475,1.5731609,-0.5661515,0.0088329725,-0.12633455,-0.8145144,-7.3277173,1.4401504,0.07263169,-5.496551,4.966454,0.4778962,0
0.47000000000000025,16.24788013719572,-5.97453949872193,5.999999739449779,-0.1275969706085231,15.375937,-5.2200933,5.973624,1.6504924,14.196238,-10.072893,1.5741833,-0.5604367,0.044756968,-0.118019,-0.8185223,-7.311032,1.4768983,0.13188168,-5.571044,5.1277194,0.4481845,0
0.48000000000000026,17.35067390602566,-4.070447152753284,5.9999996903828725,0.4296634446764773,17.634863,-4.695292,6.1771135,1.8204226,14.123163,-10.05792,1.5757974,-0.55393237,0.08143239,-0.10966285,-0.8212804,-7.30577,1.5180943,0.19082487,-5.6339116,5.263836,0.41993076,0
0.49000000000000027,17.35067390602566,-4.070447152753284,5.9999996903828725,0.4296634446764773,17.634863,-4.695292,6.1771135,1.8204226,14.050081,-10.0425,1.5780486,-0.5466462,0.11824941,-0.10187562,-0.8226884,-7.3125396,1.5667294,0.25909656,-5.3901234,5.3787055,0.42040834,0
0.5000000000000002,17.35067390602566,-4.070447152753284,5.9999996903828725,0.4296634446764773,17.634863,-4.695292,6.1771135,1.8204226,13.976871,-10.026569,1.5809712,-0.5386403,0.15471582,-0.09515157,-0.8227245,-7.331483,1.6199636,0.32500365,-5.1843486,5.475651,0.42086247,0
0.5100000000000002,17.35067390602566,-4.070447152753284,5.9999996903828725,0.4296634446764773,17.634863,-4.695292,6.1771135,1.8204226,13.903411,-10.010084,1.5845369,-0.52996725,0.19081832,-0.08931094,-0.82142955,-7.3622417,1.6777331,0.38755205,-5.01066,5.557469,0.42129433,0
0.5200000000000002,18.51834606862794,-1.6793053384844225,5.999999524391272,0.8629259368605259,17.939823,-2.9965823,6.033735,1.3820428,13.829586,-9.992999,1.5887073,-0.520666,0.22653829,-0.08420089,-0.8188391,-7.404437,1.7399126,0.4458002,-4.864055,5.62652,0.421705,0
0.5300000000000002,18.51834606862794,-1.6793053384844225,5.999999524391272,0.8629259368605259,17.939823,-2.9965823,6.033735,1.3820428,13.755267,-9.975249,1.5934862,-0.5109575,0.2613569,-0.080488265,-0.81494576,-7.4611807,1.8108273,0.5090377,-4.3674917,5.684838,0.44335586,0
0.5400000000000003,18.51834606862794,-1.6793053384844225,5.999999524391272,0.8629259368605259,17.939823,-2.9965823,6.033735,1.3820428,13.6803255,-9.956767,1.5988662,-0.5010756,0.2948809,-0.07869756,-0.80979943,-7.528728,1.8862952,0.5659264,-3.9483616,5.7340546,0.46394432,0
0.5500000000000003,18.51834606862794,-1.6793053384844225,5.999999524391272,0.8629259368605259,17.939823,-2.9965823,6.033735,1.3820428,13.60466,-9.937508,1.6047804,-0.4910504,0.32725486,-0.0785152,-0.8034981,-7.6061096,1.9663348,0.6157652,-3.59459,5.775589,0.48352247,0
0.5600000000000003,18.71585818760647,0.6356801113712762,5.999998130042346,1.0102814673094997,18.093145,-0.9236798,5.2366724,1.6391776,13.528174,-9.917425,1.6111552,-0.4808927,0.35859472,-0.07967409,-0.79611814,-7.692444,2.050905,0.657933,-3.295984,5.8106394,0.50213987,0
0.5700000000000003,18.71585818760647,0.6356801113712762,5.999998130042346,1.0102814673094997,18.093145,-0.9236798,5.2366724,1.6391776,13.450779,-9.896471,1.6179179,-0.47093245,0.3885523,-0.0826898,-0.78766245,-7.787863,2.1408982,0.6932977,-2.6829479,5.840326,0.5270746,0
0.5800000000000003,18.71585818760647,0.6356801113712762,5.999998130042346,1.0102814673094997,18.093145,-0.9236798,5.2366724,1.6391776,13.372394,-9.874592,1.6249913,-0.46146724,0.41687414,-0.08795229,-0.778157,-7.8902783,2.235544,0.7199798,-2.165509,5.8653703,0.55078566,0
0.5900000000000003,18.71585818760647,0.6356801113712762,5.999998130042346,1.0102814673094997,18.093145,-0.9236798,5.2366724,1.6391776,13.292953,-9.851743,1.6322867,-0.45243666,0.44376543,-0.09508186,-0.7676801,-7.9985337,2.3349853,0.7376812,-1.728759,5.886496,0.57333326,0
0.6000000000000003,17.843814780212398,2.352338016040805,3.4736157556401603,1.0399678963123833,17.057827,0.8118341,5.243896,1.4802902,13.212404,-9.827874,1.6397132,-0.44377223,0.4693899,-0.10375643,-0.7562896,-8.111608,2.439288,0.74613464,-1.3601152,5.904315,0.5947744,0
0.6100000000000003,17.843814780212398,2.352338016040805,3.4736157556401603,1.0399678963123833,17.057827,0.8118341,5.243896,1.4802902,13.1307335,-9.802964,1.6471541,-0.4358463,0.49282405,-0.11377859,-0.7444575,-8.223077,2.543346,0.74065256,-0.7810926,5.525461,0.6166202,0
0.6200000000000003,17.843814780212398,2.352338016040805,3.4736157556401603,1.0399678963123833,17.057827,0.8118341,5.243896,1.4802902,13.047934,-9.776991,1.6544967,-0.4290041,0.51339704,-0.124986865,-0.7326372,-8.33709,2.651889,0.72652996,-0.29237837,5.205669,0.637394,0
0.6300000000000003,17.843814780212398,2.352338016040805,3.4736157556401603,1.0399678963123833,17.057827,0.8118341,5.243896,1.4802902,12.963986,-9.74991,1.6616566,-0.42312643,0.5315592,-0.13717693,-0.72082686,-8.452602,2.7647824,0.70422995,0.12011205,4.9357285,0.65714836,0
0.6400000000000003,17.843814780212398,2.352338016040805,3.4736157556401603,1.0399678963123833,16.995731,2.0011442,4.517671,1.2470783,12.8788805,-9.72168,1.6685544,-0.41809338,0.5476792,-0.15017556,-0.7090083,-8.56874,2.8819072,0.6741603,0.46826616,4.707867,0.6759334,0
0.6500000000000004,17.843814780212398,2.352338016040805,3.4736157556401603,1.0399678963123833,16.995731,2.0011442,4.517671,1.2470783,12.792611,-9.692258,1.6751142,-0.41378927,0.5620588,-0.16383599,-0.6971557,-8.684762,3.0031502,0.63667166,0.7621181,4.5155244,0.6937967,0
0.6600000000000004,17.843814780212398,2.352338016040805,3.4736157556401603,1.0399678963123833,16.995731,2.0011442,4.517671,1.2470783,12.705187,-9.661603,1.6812632,-0.41010576,0.57494575,-0.17803387,-0.68524045,-8.800036,3.1283937,0.5920604,1.0101372,4.353163,0.7107834,0
0.6700000000000004,17.843814780212398,2.352338016040805,3.4736157556401603,1.0399678963123833,16.995731,2.0011442,4.517671,1.2470783,12.616616,-9.629676,1.6869316,-0.40694335,0.5865433,-0.19266388,-0.6732344,-8.914018,3.25751,0.54057294,1.2194716,4.216107,0.7269366,0
0.6800000000000004,16.464330837909486,3.216509989833986,-1.1138166005768249,1.2920833438835702,16.943226,1.7333202,2.6268227,1.7291853,12.526914,-9.596439,1.6920516,-0.40421197,0.5970188,-0.20763661,-0.66111135,-9.026229,3.3903592,0.4824128,1.3961551,4.100413,0.7422972,0
0.6900000000000004,16.464330837909486,3.216509989833986,-1.1138166005768249,1.2920833438835702,16.943226,1.7333202,2.6268227,1.7291853,12.436142,-9.56191,1.6965445,-0.40241724,0.6051699,-0.22238676,-0.649903,-9.127734,3.5162182,0.4152962,1.6803726,3.2874231,0.7692753,0
0.7000000000000004,16.464330837909486,3.216509989833986,-1.1138166005768249,1.2920833438835702,16.943226,1.7333202,2.6268227,1.7291853,12.344367,-9.526106,1.700341,-0.40201262,0.610116,-0.23648147,-0.64048487,-9.226799,3.6450894,0.34333193,1.9202318,2.6012042,0.7949296,0
0.7100000000000004,16.464330837909486,3.216509989833986,-1.1138166005768249,1.2920833438835702,16.943226,1.7333202,2.6268227,1.7291853,12.251616,-9.488999,1.7033985,-0.4028331,0.61239535,-0.2500242,-0.6326021,-9.323077,3.7767446,0.26765537,2.1226528,2.0219872,0.8193251,0
0.7200000000000004,15.66413382280348,3.1688594546015554,-5.999975652035145,1.559516827194386,14.818251,1.8384665,-4.7458305,1.566506,12.157916,-9.4505625,1.7056847,-0.40471926,0.61244065,-0.26309732,-0.6260181,-9.416291,3.9110208,0.18922596,2.2934763,1.533086,0.8425235,0
0.7300000000000004,15.66413382280348,3.1688594546015554,-5.999975652035145,1.559516827194386,14.818251,1.8384665,-4.7458305,1.566506,12.063323,-9.410803,1.7071723,-0.4080152,0.6093837,-0.27498436,-0.62173855,-9.501848,4.041122,0.10812177,2.4306264,0.3584398,0.8777066,0
0.7400000000000004,15.66413382280348,3.1688594546015554,-5.999975652035145,1.559516827194386,14.818251,1.8384665,-4.7458305,1.566506,11.967891,-9.369731,1.7078465,-0.41300046,0.60255444,-0.28511542,-0.62053853,-9.584165,4.1733217,0.02682461,2.5463326,-0.63303006,0.9111632,0
0.7500000000000004,15.66413382280348,3.1688594546015554,-5.999975652035145,1.559516827194386,14.818251,1.8384665,-4.7458305,1.566506,11.871651,-9.32733,1.7077134,-0.4194227,0.5925101,-0.29373586,-0.62188077,-9.663145,4.307365,-0.053119645,2.6439412,-1.4698898,0.94297814,0
0.7600000000000005,15.158015560419754,2.7420337193141657,-5.999999433890747,1.1046072295162914,15.3506365,1.5414537,-5.7475667,1.3689303,11.774638,-9.28358,1.7067931,-0.42703784,0.5796884,-0.30103904,-0.62528056,-9.738664,4.4430075,-0.13041839,2.7262776,-2.1762502,0.97323185,0
0.7700000000000005,15.158015560419754,2.7420337193141657,-5.999999433890747,1.1046072295162914,15.3506365,1.5414537,-5.7475667,1.3689303,11.676901,-9.238488,1.7051139,-0.43555486,0.56453013,-0.3070395,-0.63033694,-9.808244,4.575559,-0.2047925,2.7291238,-2.7725487,0.97967845,0
0.7800000000000005,15.158015560419754,2.7420337193141657,-5.999999433890747,1.1046072295162914,15.3506365,1.5414537,-5.7475667,1.3689303,11.5784855,-9.192065,1.7027124,-0.4447254,0.5474009,-0.31174815,-0.63669837,-9.874202,4.7090874,-0.27472538,2.731471,-3.275855,0.9858088,0
0.7900000000000005,15.158015560419754,2.7420337193141657,-5.999999433890747,1.1046072295162914,15.3506365,1.5414537,-5.7475667,1.3689303,11.479429,-9.144305,1.6996369,-0.45439088,0.528522,-0.3153016,-0.6440329,-9.936394,4.8432403,-0.3395347,2.7334049,-3.7006724,0.99163824,0
0.8000000000000005,15.341914948363504,1.945992682478206,-5.999999641117364,0.7421972701964666,17.162601,1.6810235,-5.9869447,0.99001944,11.379771,-9.0952015,1.6959413,-0.46440697,0.5080799,-0.31781387,-0.6520548,-9.994643,4.9776354,-0.39867958,2.7349966,-4.0592403,0.99718165,0
0.8100000000000005,15.341914948363504,1.945992682478206,-5.999999641117364,0.7421972701964666,17.162601,1.6810235,-5.9869447,0.99001944,11.279548,-9.044746,1.691687,-0.47451463,0.486399,-0.31915078,-0.66060185,-10.049422,5.1134834,-0.45120072,2.612113,-4.362002,0.98466945,0
0.8200000000000005,15.341914948363504,1.945992682478206,-5.999999641117364,0.7421972701964666,17.162601,1.6810235,-5.9869447,0.99001944,11.178798,-8.992935,1.6869395,-0.48451352,0.4637602,-0.31921044,-0.66953564,-10.099937,5.248664,-0.49727225,2.50836,-4.6175327,0.9727712,0
0.8300000000000005,15.341914948363504,1.945992682478206,-5.999999641117364,0.7421972701964666,17.162601,1.6810235,-5.9869447,0.99001944,11.077564,-8.939777,1.6817644,-0.4943589,0.44025365,-0.3181269,-0.6786616,-10.146114,5.3826666,-0.5366945,2.4207602,-4.8332014,0.96145695,0
0.8400000000000005,15.341914948363504,1.945992682478206,-5.999999641117364,0.7421972701964666,16.907263,0.95859027,-6.010792,0.8704239,10.97589,-8.885287,1.6762288,-0.50400716,0.41595933,-0.316016,-0.6878145,-10.187856,5.5149817,-0.56935555,2.3467994,-5.0152254,0.95069784,0
0.8500000000000005,15.341914948363504,1.945992682478206,-5.999999641117364,0.7421972701964666,16.907263,0.95859027,-6.010792,0.8704239,10.873821,-8.829485,1.6704005,-0.5134168,0.39094943,-0.31297842,-0.6968547,-10.225046,5.645101,-0.59522307,2.2843544,-5.168854,0.94046664,0
0.8600000000000005,15.341914948363504,1.945992682478206,-5.999999641117364,0.7421972701964666,16.907263,0.95859027,-6.010792,0.8704239,10.771403,-8.772395,1.6643475,-0.52254885,0.36528984,-0.30910197,-0.7056644,-10.257561,5.77252,-0.61433864,2.2316332,-5.298517,0.93073756,0
0.8700000000000006,15.341914948363504,1.945992682478206,-5.999999641117364,0.7421972701964666,16.907263,0.95859027,-6.010792,0.8704239,10.668686,-8.7140465,1.6581366,-0.531367,0.33904138,-0.30446368,-0.71414435,-10.285273,5.8967423,-0.6268109,2.1871214,-5.4079533,0.92148584,0
0.8800000000000006,16.018546620612938,0.8454712270777915,-5.999999424525096,0.8684030479178994,16.752115,0.41555223,-5.966844,1.2376561,10.565716,-8.654472,1.6518335,-0.53983784,0.3122607,-0.29913124,-0.72221124,-10.308057,6.01728,-0.63281024,2.1495414,-5.500317,0.91268814,1
0.8900000000000006,16.018546620612938,0.8454712270777915,-5.999999424525096,0.8684030479178994,16.752115,0.41555223,-5.966844,1.2376561,10.462534,-8.59366,1.6455467,-0.5476992,0.28532547,-0.29274768,-0.7300096,-10.327469,6.144347,-0.6235194,1.879228,-5.573212,0.92863446,1
0.9000000000000006,16.018546620612938,0.8454712270777915,-5.999999424525096,0.8684030479178994,16.752115,0.41555223,-5.966844,1.2376561,10.359185,-8.531604,1.6393857,-0.5547607,0.25855044,-0.28503585,-0.73766327,-10.341589,6.266302,-0.6076745,1.6510615,-5.6347203,0.9437983,1
0.9100000000000006,16.018546620612938,0.8454712270777915,-5.999999424525096,0.8684030479178994,16.752115,0.41555223,-5.966844,1.2376561,10.255721,-8.468354,1.6334147,-0.5610855,0.23189908,-0.2761604,-0.7450783,-10.350641,6.382604,-0.58557624,1.4584699,-5.6866193,0.9582179,1
0.9200000000000006,16.125035498049616,-0.0733868031284489,-5.999998952517196,0.7413315006203975,16.977947,-0.4577515,-6.011637,1.2495259,10.152189,-8.403973,1.6276946,-0.5667215,0.2053422,-0.26626328,-0.7521739,-10.35481,6.4927564,-0.55756176,1.2959061,-5.730409,0.97193,1
0.9300000000000006,16.125035498049616,-0.0733868031284489,-5.999998952517196,0.7413315006203975,16.977947,-0.4577515,-6.011637,1.2495259,10.04864,-8.338514,1.6222913,-0.57163864,0.17904593,-0.2551968,-0.7589774,-10.354266,6.59769,-0.5222228,1.0225022,-5.7726154,0.9855517,1
0.9400000000000006,16.125035498049616,-0.0733868031284489,-5.999998952517196,0.7413315006203975,16.977947,-0.4577515,-6.011637,1.2495259,9.94512,-8.272042,1.6172682,-0.57582366,0.15314585,-0.24285166,-0.7655043,-10.349246,6.6954513,-0.48163304,0.79172915,-5.808217,0.99850494,1
0.9500000000000006,16.125035498049616,-0.0733868031284489,-5.999998952517196,0.7413315006203975,16.977947,-0.4577515,-6.011637,1.2495259,9.841671,-8.204631,1.6126754,-0.5793277,0.12758078,-0.22939494,-0.77167404,-10.340044,6.785602,-0.43618697,0.5969396,-5.8382473,1.0108225,1
0.9600000000000006,15.479804420326646,-0.5808311692690588,-5.999995306747413,0.56564856330852,16.121767,-1.2063401,-5.5085077,1.1430484,9.738334,-8.136358,1.6085597,-0.5821885,0.102301225,-0.21497136,-0.77741796,-10.326909,6.867747,-0.3863107,0.43252248,-5.8635774,1.0225358,1
0.9700000000000006,15.479804420326646,-0.5808311692690588,-5.999995306747413,0.56564856330852,16.121767,-1.2063401,-5.5085077,1.1430484,9.635141,-8.067324,1.6049249,-0.58437693,0.07759895,-0.19958733,-0.7827178,-10.310926,6.9378176,-0.34012362,0.17692852,-5.808374,1.0284495,1
0.9800000000000006,15.479804420326646,-0.5808311692690588,-5.999995306747413,0.56564856330852,16.121767,-1.2063401,-5.5085077,1.1430484,9.5321245,-7.99763,1.6017687,-0.5858908,0.053708863,-0.1832601,-0.7875679,-10.291768,6.999709,-0.29062045,-0.038801562,-5.761755,1.034073,1
0.9900000000000007,15.479804420326646,-0.5808311692690588,-5.999995306747413,0.56564856330852,16.121767,-1.2063401,-5.5085077,1.1430484,9.429316,-7.9273586,1.5991223,-0.58678764,0.030517807,-0.1661216,-0.7919297,-10.26977,7.053221,-0.23826481,-0.22088492,-5.7223845,1.0394205,1
1.0000000000000007,14.279474505069869,-0.7490018676937094,-3.69413405870445,0.44072947751983466,14.9827585,-1.5588129,-2.8615801,1.0679094,9.326738,-7.8565946,1.5970118,-0.58711046,0.007931318,-0.14828636,-0.7957699,-10.245213,7.0981836,-0.1835253,-0.37456986,-5.6891356,1.0445055,1
1.0100000000000007,14.279474505069869,-0.7490018676937094,-3.69413405870445,0.44072947751983466,14.9827585,-1.5588129,-2.8615801,1.0679094,9.22441,-7.7854376,1.5954038,-0.5867595,-0.013200374,-0.13036568,-0.79908955,-10.220273,7.131955,-0.13781844,-0.5595476,-5.248306,1.0456538,1
1.0200000000000007,14.279474505069869,-0.7490018676937094,-3.69413405870445,0.44072947751983466,14.9827585,-1.5588129,-2.8615801,1.0679094,9.122339,-7.7139816,1.5942597,-0.5857232,-0.032204404,-0.112859964,-0.8019689,-10.193611,7.158034,-0.09082295,-0.7156321,-4.876204,1.0467459,1
1.0300000000000007,14.279474505069869,-0.7490018676937094,-3.69413405870445,0.44072947751983466,14.9827585,-1.5588129,-2.8615801,1.0679094,9.020542,-7.6423016,1.5935903,-0.58413845,-0.049395915,-0.095708914,-0.80447644,-10.165622,7.1768336,-0.042952638,-0.84733665,-4.5621147,1.0477843,1
1.0400000000000007,14.279474505069869,-0.7490018676937094,-3.69413405870445,0.44072947751983466,13.99369,-1.203283,0.028078591,0.9964328,8.919031,-7.5704684,1.5934025,-0.582109,-0.06504414,-0.07885989,-0.80665964,-10.136635,7.188719,0.005450234,-0.9584691,-4.2969937,1.0487719,0
1.0500000000000007,14.279474505069869,-0.7490018676937094,-3.69413405870445,0.44072947751983466,13.99369,-1.203283,0.028078591,0.9964328,8.817806,-7.4985514,1.5936656,-0.57977563,-0.0798296,-0.062340904,-0.8084562,-10.108294,7.193745,0.047203112,-0.9259491,-4.2029376,1.018935,0
1.0600000000000007,14.279474505069869,-0.7490018676937094,-3.69413405870445,0.44072947751983466,13.99369,-1.203283,0.028078591,0.9964328,8.716867,-7.4266148,1.5943462,-0.5772371,-0.094304,-0.04617473,-0.8097977,-10.079289,7.1926446,0.08890654,-0.8984833,-4.1235547,0.9905623,0
1.0700000000000007,14.279474505069869,-0.7490018676937094,-3.69413405870445,0.44072947751983466,13.99369,-1.203283,0.028078591,0.9964328,8.616222,-7.354719,1.5954424,-0.5745104,-0.10850501,-0.03031294,-0.81070715,-10.049615,7.1855483,0.13029356,-0.87528646,-4.056556,0.96358186,0
1.0800000000000007,13.084513273199757,-0.3372872098707132,-0.4348560258584774,0.3319817407219378,12.976945,-0.58962274,0.8568035,0.7020281,8.515877,-7.2829237,1.5969499,-0.5716085,-0.12246429,-0.014715185,-0.81120294,-10.019265,7.1725802,0.17111208,-0.8556948,-4.00001,0.93792534,0
1.0900000000000007,13.084513273199757,-0.3372872098707132,-0.4348560258584774,0.3319817407219378,12.976945,-0.58962274,0.8568035,0.7020281,8.415825,-7.2112794,1.598804,-0.56852853,-0.13524579,-0.0002272164,-0.8114705,-9.990849,7.1554976,0.19957872,-0.77525645,-3.443962,0.90819144,0
1.1000000000000008,13.084513273199757,-0.3372872098707132,-0.4348560258584774,0.3319817407219378,12.976945,-0.58962274,0.8568035,0.7020281,8.316061,-7.1398296,1.6009388,-0.56532407,-0.14611721,0.01248681,-0.81172836,-9.961923,7.1338024,0.22722259,-0.7072883,-2.9746406,0.8799166,0
1.1100000000000008,13.084513273199757,-0.3372872098707132,-0.4348560258584774,0.3319817407219378,12.976945,-0.58962274,0.8568035,0.7020281,8.216588,-7.068617,1.6033456,-0.5620678,-0.15537775,0.02370322,-0.81201977,-9.932597,7.108134,0.25402445,-0.6498593,-2.5785182,0.85302925,0
1.1200000000000008,12.067258133420793,0.256661335169511,3.7453198294026078,0.14083889999682503,11.721352,0.034745213,3.565265,0.50062734,8.11741,-6.9976783,1.6060164,-0.5588091,-0.16328,0.03365584,-0.8123667,-9.902964,7.0790305,0.27999875,-0.6013374,-2.2441783,0.82746124,1
1.1300000000000008,12.067258133420793,0.256661335169511,3.7453198294026078,0.14083889999682503,11.721352,0.034745213,3.565265,0.50062734,8.018514,-6.9270296,1.6088786,-0.5556038,-0.16881979,0.041532733,-0.81306803,-9.876228,7.050363,0.2923615,-0.5026432,-1.3381402,0.8114234,1
1.1400000000000008,12.067258133420793,0.256661335169511,3.7453198294026078,0.14083889999682503,11.721352,0.034745213,3.565265,0.50062734,7.9198856,-6.856677,1.6118621,-0.5525173,-0.1712146,0.046708327,-0.8143886,-9.849495,7.019947,0.3042569,-0.41924778,-0.5734088,0.79617256,1
1.1500000000000008,12.067258133420793,0.256661335169511,3.7453198294026078,0.14083889999682503,11.721352,0.034745213,3.565265,0.50062734,7.8215237,-6.7866344,1.614963,-0.549572,-0.17095497,0.049613364,-0.8162621,-9.822963,6.9886394,0.3159514,-0.34878206,0.07205503,0.78167003,1
1.1600000000000008,11.706845117788632,0.845910177590427,5.999992658756049,-0.13215511419020418,11.4351635,0.6095715,5.2187977,0.60140234,7.723425,-6.7169056,1.6181811,-0.54676473,-0.16845028,0.050608695,-0.8186037,-9.79681,6.957155,0.32768676,-0.28924316,0.616852,0.7678792,1
1.1700000000000008,11.706845117788632,0.845910177590427,5.999992658756049,-0.13215511419020418,11.4351635,0.6095715,5.2187977,0.60140234,7.625582,-6.6474857,1.6215041,-0.5440616,-0.16362505,0.04944912,-0.8214493,-9.771823,6.926889,0.3369915,-0.1494253,1.3345937,0.75971013,1
1.1800000000000008,11.706845117788632,0.845910177590427,5.999992658756049,-0.13215511419020418,11.4351635,0.6095715,5.2187977,0.60140234,7.5279865,-6.5783634,1.6249224,-0.54141575,-0.15643011,0.045955203,-0.8247952,-9.747513,6.8977914,0.346773,-0.03135012,1.9403918,0.75194186,1
1.1900000000000008,11.706845117788632,0.845910177590427,5.999992658756049,-0.13215511419020418,11.4351635,0.6095715,5.2187977,0.60140234,7.4306297,-6.509523,1.6284418,-0.5387852,-0.14721602,0.040493514,-0.8284918,-9.724026,6.870543,0.3572168,0.06836251,2.4517062,0.7445549,1
1.2000000000000008,11.58436608995571,1.3425377265845897,5.999997152493112,-0.3597430352744626,11.376523,1.0929971,6.2512236,0.30322832,7.333503,-6.4409432,1.6320696,-0.53612363,-0.1362782,0.033372562,-0.83239794,-9.701505,6.845724,0.36844388,0.15256771,2.8832724,0.73753035,1
1.2100000000000009,11.58436608995571,1.3425377265845897,5.999997152493112,-0.3597430352744626,11.376523,1.0929971,6.2512236,0.30322832,7.236595,-6.372597,1.6358109,-0.53339815,-0.12371045,0.024519218,-0.8364097,-9.680196,6.8239594,0.37995124,0.29904038,3.369391,0.716219,1
1.2200000000000009,11.58436608995571,1.3425377265845897,5.999997152493112,-0.3597430352744626,11.376523,1.0929971,6.2512236,0.30322832,7.139894,-6.3044524,1.6396714,-0.53057194,-0.109598026,0.013889483,-0.84041,-9.660102,6.8056636,0.3923173,0.42271587,3.779685,0.69595337,1
1.2300000000000009,11.58436608995571,1.3425377265845897,5.999997152493112,-0.3597430352744626,11.376523,1.0929971,6.2512236,0.30322832,7.0433884,-6.23647,1.64366,-0.52759486,-0.094162375,0.0017643685,-0.8442595,-9.641339,6.791336,0.40549904,0.52714044,4.1259828,0.6766823,1
1.2400000000000009,11.58436608995571,1.3425377265845897,5.999997152493112,-0.3597430352744626,10.502933,1.5444137,5.900514,0.101223975,6.9470625,-6.16861,1.647784,-0.5244211,-0.07759424,-0.0116162235,-0.84783655,-9.624024,6.781401,0.41939083,0.61530924,4.4182663,0.6583568,0
1.2500000000000009,11.58436608995571,1.3425377265845897,5.999997152493112,-0.3597430352744626,10.502933,1.5444137,5.900514,0.101223975,6.8509035,-6.1008263,1.65206,-0.5210723,-0.06011,-0.026137527,-0.850992,-9.607982,6.7761216,0.4358873,0.72876596,4.664962,0.6083983,0
1.260000000000001,11.58436608995571,1.3425377265845897,5.999997152493112,-0.3597430352744626,10.502933,1.5444137,5.900514,0.101223975,6.754897,-6.0330696,1.6565028,-0.517575,-0.041892085,-0.041693974,-0.8535941,-9.593615,6.7759957,0.45272595,0.82455134,4.8731723,0.56089133,0
1.270000000000001,11.58436608995571,1.3425377265845897,5.999997152493112,-0.3597430352744626,10.502933,1.5444137,5.900514,0.101223975,6.6590257,-5.965287,1.6611148,-0.5138974,-0.023049543,-0.05810605,-0.85557115,-9.580998,6.7812843,0.46964756,0.90541524,5.048903,0.51571554,0
1.280000000000001,11.639192916136995,1.6521363598718644,5.999996214238476,-0.4352084645992108,10.891416,1.1462033,6.0917463,-0.28585577,6.5632706,-5.897424,1.665895,-0.51001173,-0.0036787991,-0.07521818,-0.8568645,-9.570206,6.7921934,0.48635808,0.9736798,5.197221,0.4727565,1
1.290000000000001,11.639192916136995,1.6521363598718644,5.999996214238476,-0.4352084645992108,10.891416,1.1462033,6.0917463,-0.28585577,6.4676113,-5.829428,1.6708059,-0.50588626,0.016173676,-0.09282772,-0.85743845,-9.561843,6.807876,0.4957,1.0006753,5.3223977,0.4355312,1
1.300000000000001,11.639192916136995,1.6521363598718644,5.999996214238476,-0.4352084645992108,10.891416,1.1462033,6.0917463,-0.28585577,6.372027,-5.761248,1.6758064,-0.50149214,0.03646175,-0.11076359,-0.8572677,-9.5553465,6.829073,0.5042209,1.0234656,5.4280524,0.40013248,1
1.310000000000001,11.639192916136995,1.6521363598718644,5.999996214238476,-0.4352084645992108,10.891416,1.1462033,6.0917463,-0.28585577,6.2764983,-5.6928287,1.6808865,-0.49681178,0.05710487,-0.12894183,-0.8563243,-9.5507965,6.8558264,0.5115864,1.0427041,5.5172296,0.36647078,1
1.320000000000001,11.795798378496636,1.721030667136881,5.36036775335183,-0.38601270115661146,10.724205,1.1797973,5.204868,-0.06940152,6.181004,-5.624113,1.686033,-0.49183124,0.07803113,-0.14728825,-0.8545873,-9.548258,6.8881407,0.51745117,1.0589435,5.592499,0.3344609,0
1.330000000000001,11.795798378496636,1.721030667136881,5.36036775335183,-0.38601270115661146,10.724205,1.1797973,5.204868,-0.06940152,6.0855265,-5.5550313,1.6912718,-0.48661077,0.09884694,-0.16580755,-0.85202533,-9.54773,6.9291215,0.52994436,1.1623317,5.556294,0.29910704,0
1.340000000000001,11.795798378496636,1.721030667136881,5.36036775335183,-0.38601270115661146,10.724205,1.1797973,5.204868,-0.06940152,5.990042,-5.4855103,1.6966238,-0.48121828,0.11923812,-0.18450001,-0.84862894,-9.549356,6.9759827,0.5400662,1.2495877,5.525729,0.26548803,0
1.350000000000001,11.795798378496636,1.721030667136881,5.36036775335183,-0.38601270115661146,10.724205,1.1797973,5.204868,-0.06940152,5.8945317,-5.4154925,1.7020638,-0.4756514,0.13925116,-0.2032975,-0.844414,-9.55304,7.028589,0.54746336,1.323228,5.4999266,0.2335187,0
1.360000000000001,11.738940767841237,1.5202111695302793,1.8139295208990425,-0.22723561374329643,11.559021,1.3717171,4.1718707,0.1901735,5.7989745,-5.3449197,1.7075627,-0.46990603,0.1589229,-0.22213995,-0.839396,-9.558693,7.0867834,0.55179393,1.3853772,5.478145,0.2031181,0
1.370000000000001,11.738940767841237,1.5202111695302793,1.8139295208990425,-0.22723561374329643,11.559021,1.3717171,4.1718707,0.1901735,5.703351,-5.27374,1.7130858,-0.4642831,0.17713076,-0.24025199,-0.8338734,-9.566164,7.1500316,0.5522886,1.4065479,4.9066963,0.18200052,0
1.380000000000001,11.738940767841237,1.5202111695302793,1.8139295208990425,-0.22723561374329643,11.559021,1.3717171,4.1718707,0.1901735,5.6076455,-5.201903,1.7185968,-0.45908883,0.1930103,-0.25704908,-0.82819694,-9.575178,7.218083,0.5494013,1.424389,4.424365,0.16191919,0
1.390000000000001,11.738940767841237,1.5202111695302793,1.8139295208990425,-0.22723561374329643,11.559021,1.3717171,4.1718707,0.1901735,5.5118437,-5.129364,1.7240624,-0.4543111,0.20693503,-0.27273706,-0.8224316,-9.585414,7.2903843,0.5432027,1.4394257,4.017253,0.14282325,0
1.400000000000001,11.654395579457605,0.9869488925434384,-2.423602068042067,-0.05905111126463589,11.403723,1.2172614,0.07310138,0.5088396,5.4159346,-5.0560822,1.7294499,-0.44992608,0.21921887,-0.28748703,-0.81661546,-9.596595,7.366476,0.5337788,1.4520997,3.67363,0.12466436,0
1.410000000000001,11.654395579457605,0.9869488925434384,-2.423602068042067,-0.05905111126463589,11.403723,1.2172614,0.07310138,0.5088396,5.31991,-4.9820256,1.7347244,-0.44634303,0.22883761,-0.30051723,-0.81123406,-9.608371,7.445345,0.5206622,1.379653,2.7227561,0.11564938,0
1.420000000000001,11.654395579457605,0.9869488925434384,-2.423602068042067,-0.05905111126463589,11.403723,1.2172614,0.07310138,0.5088396,5.2237663,-4.9071665,1.7398545,-0.44392517,0.23501493,-0.3112426,-0.8067382,-9.6204,7.526856,0.50498146,1.3184822,1.9201722,0.10707677,0
1.430000000000001,11.654395579457605,0.9869488925434384,-2.423602068042067,-0.05905111126463589,11.403723,1.2172614,0.07310138,0.5088396,5.127503,-4.8314815,1.7448174,-0.44256055,0.23831864,-0.3200485,-0.80306494,-9.632266,7.6103573,0.48730966,1.2668338,1.2427528,0.09892483,0
1.440000000000001,11.654395579457605,0.9869488925434384,-2.423602068042067,-0.05905111126463589,11.985676,0.8374855,-2.9719481,0.4761529,5.031123,-4.7549534,1.7495956,-0.4421315,0.23921809,-0.3272488,-0.8001267,-9.643619,7.6953287,0.46816033,1.2232263,0.67097795,0.09117291,1
1.450000000000001,11.654395579457605,0.9869488925434384,-2.423602068042067,-0.05905111126463589,11.985676,0.8374855,-2.9719481,0.4761529,4.9346323,-4.677559,1.7541882,-0.44252762,0.23793125,-0.33297125,-0.79792744,-9.65446,7.783784,0.45020705,1.1631024,0.10287656,0.11006399,1
1.460000000000001,11.654395579457605,0.9869488925434384,-2.423602068042067,-0.05905111126463589,11.985676,0.8374855,-2.9719481,0.4761529,4.838038,-4.599276,1.7585979,-0.44363812,0.23464227,-0.33732656,-0.796454,-9.664193,7.8729,0.4316627,1.112361,-0.37663138,0.1280281,1
1.470000000000001,11.654395579457605,0.9869488925434384,-2.423602068042067,-0.05905111126463589,11.985676,0.8374855,-2.9719481,0.4761529,4.7413526,-4.5201,1.7628208,-0.44535187,0.22966208,-0.34052593,-0.7955873,-9.67258,7.9623184,0.41293195,1.0695367,-0.78136116,0.14511071,1
1.480000000000001,11.83298026821501,0.3359585626331904,-5.609534775185071,0.033467199424803334,11.837456,0.09194997,-5.5586905,0.5830293,4.644591,-4.4400296,1.7668571,-0.44756776,0.22324973,-0.34274337,-0.79521674,-9.679416,8.051734,0.39435226,1.0333923,-1.1229745,0.16135503,1
1.490000000000001,11.83298026821501,0.3359585626331904,-5.609534775185071,0.033467199424803334,11.837456,0.09194997,-5.5586905,0.5830293,4.5477695,-4.3590717,1.7707045,-0.4504726,0.21492693,-0.34342298,-0.7955762,-9.684453,8.139744,0.3752532,0.88667166,-1.8147253,0.18204673,1
1.500000000000001,11.83298026821501,0.3359585626331904,-5.609534775185071,0.033467199424803334,11.837456,0.09194997,-5.5586905,0.5830293,4.4509077,-4.2772374,1.7743653,-0.4541975,0.20431966,-0.3421184,-0.7968144,-9.687539,8.226977,0.35710824,0.7628347,-2.3985996,0.20172305,1
1.5100000000000011,11.83298026821501,0.3359585626331904,-5.609534775185071,0.033467199424803334,11.837456,0.09194997,-5.5586905,0.5830293,4.354026,-4.194536,1.7778516,-0.45857546,0.19176573,-0.33910522,-0.7987128,-9.688444,8.312934,0.3403857,0.6583101,-2.8914194,0.22043386,1
1.5200000000000011,12.056486645556973,-0.3424056325318304,-5.999994183446676,0.05890350188460063,12.117987,-0.56616676,-5.7962403,0.67329526,4.257147,-4.1109843,1.7811792,-0.46345547,0.17754854,-0.33461133,-0.8010748,-9.686971,8.397159,0.32544518,0.5700842,-3.3073847,0.23822652,1
1.5300000000000011,12.056486645556973,-0.3424056325318304,-5.999994183446676,0.05890350188460063,12.117987,-0.56616676,-5.7962403,0.67329526,4.1602955,-4.026591,1.7843775,-0.46867993,0.16195008,-0.32857293,-0.8038353,-9.682865,8.481166,0.31457585,0.3929977,-3.6955423,0.25957546,1
1.5400000000000011,12.056486645556973,-0.3424056325318304,-5.999994183446676,0.05890350188460063,12.117987,-0.56616676,-5.7962403,0.67329526,4.063499,-3.94137,1.7874786,-0.47411272,0.14520805,-0.32094634,-0.80692333,-9.676081,8.5625,0.30603996,0.24352495,-4.023167,0.2798768,1
1.5500000000000012,12.056486645556973,-0.3424056325318304,-5.999994183446676,0.05890350188460063,12.117987,-0.56616676,-5.7962403,0.67329526,3.9667838,-3.8553512,1.7905068,-0.479656,0.1274852,-0.3119344,-0.8101695,-9.666572,8.640716,0.29999727,0.117358364,-4.2996984,0.29918197,1
1.5600000000000012,12.28419334966212,-0.8802683858612748,-5.999989802352386,0.12322153852128699,13.283536,-1.0005723,-5.8191476,0.4038707,3.8701773,-3.7685678,1.7934874,-0.48522303,0.10892187,-0.3017097,-0.8134285,-9.654303,8.715397,0.29652524,0.010862522,-4.5331035,0.31753984,1
1.5700000000000012,12.28419334966212,-0.8802683858612748,-5.999989802352386,0.12322153852128699,13.283536,-1.0005723,-5.8191476,0.4038707,3.7737143,-3.6810226,1.7964928,-0.49074942,0.08972708,-0.29027054,-0.8166132,-9.637809,8.792959,0.3049824,-0.14681579,-4.733694,0.32177612,1
1.5800000000000012,12.28419334966212,-0.8802683858612748,-5.999989802352386,0.12322153852128699,13.283536,-1.0005723,-5.8191476,0.4038707,3.6774313,-3.5927248,1.7995968,-0.49618524,0.07007842,-0.27762508,-0.8196423,-9.618316,8.865794,0.3162305,-0.27991027,-4.9029984,0.32580453,1
1.5900000000000012,12.28419334966212,-0.8802683858612748,-5.999989802352386,0.12322153852128699,13.283536,-1.0005723,-5.8191476,0.4038707,3.5813582,-3.5037243,1.8028268,-0.5014779,0.050047487,-0.26392514,-0.8224103,-9.595889,8.933505,0.33017576,-0.39225423,-5.0458965,0.32963526,1
1.6000000000000012,12.12579310340008,-1.1512389534427991,-5.098984778792668,0.2561690431601331,14.520077,-1.0082165,-5.439307,0.41926908,3.4855235,-3.4140737,1.806209,-0.5065804,0.029698167,-0.24930216,-0.8248289,-9.570599,8.995724,0.3466657,-0.48708293,-5.1665063,0.33327803,0
1.6100000000000012,12.12579310340008,-1.1512389534427991,-5.098984778792668,0.2561690431601331,14.520077,-1.0082165,-5.439307,0.41926908,3.3899436,-3.3238547,1.8097173,-0.51139706,0.009360991,-0.23396808,-0.8268279,-9.544979,9.047214,0.3553028,-0.59067273,-5.1559973,0.32949427,0
1.6200000000000012,12.12579310340008,-1.1512389534427991,-5.098984778792668,0.2561690431601331,14.520077,-1.0082165,-5.439307,0.41926908,3.2946322,-3.233148,1.8133216,-0.51586723,-0.010694642,-0.21810648,-0.8283696,-9.516966,9.093203,0.36583412,-0.6781066,-5.1471233,0.32589617,0
1.6300000000000012,12.12579310340008,-1.1512389534427991,-5.098984778792668,0.2561690431601331,14.520077,-1.0082165,-5.439307,0.41926908,3.1996121,-3.14201,1.8170395,-0.5199981,-0.030497998,-0.20178546,-0.8294302,-9.486715,9.13354,0.3779981,-0.7519041,-5.1396303,0.32247463,0
1.6400000000000012,12.12579310340008,-1.1512389534427991,-5.098984778792668,0.2561690431601331,14.678882,-0.7541639,-5.5949626,0.39571276,3.104905,-3.0504973,1.8208861,-0.5237938,-0.05007229,-0.18506473,-0.82999027,-9.4543705,9.168097,0.39152274,-0.81419235,-5.1333036,0.31922096,0
1.6500000000000012,12.12579310340008,-1.1512389534427991,-5.098984778792668,0.2561690431601331,14.678882,-0.7541639,-5.5949626,0.39571276,3.0105312,-2.9586685,1.8248737,-0.5272565,-0.069435515,-0.16799682,-0.83003396,-9.420071,9.196763,0.40612686,-0.8667659,-5.1279607,0.31612694,0
1.6600000000000013,12.12579310340008,-1.1512389534427991,-5.098984778792668,0.2561690431601331,14.678882,-0.7541639,-5.5949626,0.39571276,2.9165096,-2.8665826,1.8290114,-0.5303863,-0.08860121,-0.1506282,-0.82954884,-9.383948,9.219444,0.42152193,-0.91114,-5.1234493,0.31318477,0
1.6700000000000013,12.12579310340008,-1.1512389534427991,-5.098984778792668,0.2561690431601331,14.678882,-0.7541639,-5.5949626,0.39571276,2.8228579,-2.7743003,1.8333057,-0.53318256,-0.1075791,-0.13300021,-0.8285252,-9.346133,9.23607,0.4374132,-0.9485935,-5.11964,0.31038702,0
1.6800000000000013,11.910339043491723,-1.1820563362191518,-2.0286093208543323,0.4062715928664254,13.743517,-0.6279961,-3.4053776,0.5487601,2.7295923,-2.6818821,1.8377602,-0.5356436,-0.12637565,-0.11514983,-0.8269556,-9.306751,9.246585,0.45350114,-0.9802053,-5.1164236,0.30772653,0
1.6900000000000013,11.910339043491723,-1.1820563362191518,-2.0286093208543323,0.4062715928664254,13.743517,-0.6279961,-3.4053776,0.5487601,2.6367245,-2.58939,1.8423651,-0.5376302,-0.14397736,-0.09775878,-0.8250257,-9.266679,9.250935,0.4674636,-1.0117655,-4.63489,0.31256217,0
1.7000000000000013,11.910339043491723,-1.1820563362191518,-2.0286093208543323,0.4062715928664254,13.743517,-0.6279961,-3.4053776,0.5487601,2.544263,-2.496883,1.8471084,-0.53909546,-0.15959455,-0.08137941,-0.822972,-9.225497,9.249681,0.48110306,-1.0383921,-4.228451,0.31716052,0
1.7100000000000013,11.910339043491723,-1.1820563362191518,-2.0286093208543323,0.4062715928664254,13.743517,-0.6279961,-3.4053776,0.5487601,2.4522173,-2.4044142,1.8519855,-0.5401508,-0.17353283,-0.065864265,-0.8208442,-9.183492,9.243271,0.49425977,-1.060856,-3.885394,0.32153323,0
1.7200000000000013,11.66090085805127,-1.0031068567449974,1.9211929163798502,0.5312625355603352,13.171369,-0.6068356,0.056331255,0.36871612,2.3605952,-2.312034,1.8569913,-0.5408807,-0.18605046,-0.051085737,-0.8186717,-9.1409,9.232087,0.50681555,-1.079808,-3.5958362,0.3256914,0
1.7300000000000013,11.66090085805127,-1.0031068567449974,1.9211929163798502,0.5312625355603352,13.171369,-0.6068356,0.056331255,0.36871612,2.2693963,-2.2197862,1.8621079,-0.5412587,-0.19611514,-0.03784551,-0.8167897,-9.098843,9.216863,0.51639897,-1.0680106,-2.7354631,0.33577886,0
1.7400000000000013,11.66090085805127,-1.0031068567449974,1.9211929163798502,0.5312625355603352,13.171369,-0.6068356,0.056331255,0.36871612,2.1786184,-2.1277087,1.8673174,-0.5413136,-0.20293474,-0.02677326,-0.81552446,-9.056745,9.198137,0.52541554,-1.0580347,-2.0092647,0.3453713,0
1.7500000000000013,11.66090085805127,-1.0031068567449974,1.9211929163798502,0.5312625355603352,13.171369,-0.6068356,0.056331255,0.36871612,2.0882604,-2.0358324,1.8726149,-0.5411571,-0.20702882,-0.017533379,-0.81485,-9.014907,9.176708,0.5340283,-1.0495981,-1.3963163,0.35449302,0
1.7600000000000013,11.580919702996729,-0.7510399907260723,5.86933347482006,0.5452026851072095,13.940298,-0.37157756,2.5705388,0.6299275,1.9983183,-1.9441812,1.8779973,-0.5408619,-0.20883031,-0.009840204,-0.8147155,-8.973574,9.153242,0.54240954,-1.0424619,-0.87895685,0.36316714,0
1.7700000000000014,11.580919702996729,-0.7510399907260723,5.86933347482006,0.5452026851072095,13.940298,-0.37157756,2.5705388,0.6299275,1.9087849,-1.8527715,1.8834594,-0.5404403,-0.20746788,-0.0043875207,-0.8153907,-8.933247,9.128539,0.5500218,-0.9972642,0.17344005,0.37209967,0
1.7800000000000014,11.580919702996729,-0.7510399907260723,5.86933347482006,0.5452026851072095,13.940298,-0.37157756,2.5705388,0.6299275,1.8196497,-1.7616118,1.8889987,-0.5398994,-0.20226385,-0.0017114406,-0.8170648,-8.893956,9.103391,0.55791897,-0.9590864,1.0617154,0.3805939,0
1.7900000000000014,11.580919702996729,-0.7510399907260723,5.86933347482006,0.5452026851072095,13.940298,-0.37157756,2.5705388,0.6299275,1.730901,-1.6707019,1.89462,-0.53925043,-0.1938048,-0.00137643,-0.8195405,-8.856017,9.078744,0.56642413,-0.9268369,1.811464,0.3886713,0
1.8000000000000014,11.555918029497592,-0.48355072076090777,5.999995296551093,0.4647876714517276,12.744702,-0.26973593,5.799769,0.49424586,1.6425238,-1.5800325,1.9003302,-0.53847677,-0.18257871,-0.0030149731,-0.8226169,-8.819711,9.055402,0.57578695,-0.8995938,2.4442885,0.39635235,0
1.8100000000000014,11.555918029497592,-0.48355072076090777,5.999995296551093,0.4647876714517276,12.744702,-0.26973593,5.799769,0.49424586,1.5544999,-1.4895868,1.9061381,-0.53753555,-0.16900878,-0.0064347945,-0.82610536,-8.785364,9.034099,0.5859441,-0.83486164,2.998814,0.3997105,0
1.8200000000000014,11.555918029497592,-0.48355072076090777,5.999995296551093,0.4647876714517276,12.744702,-0.26973593,5.799769,0.49424586,1.4668092,-1.3993416,1.912053,-0.5363816,-0.15345071,-0.011467297,-0.829829,-8.753112,9.015394,0.5972185,-0.78020376,3.466859,0.40290385,0
1.8300000000000014,11.555918029497592,-0.48355072076090777,5.999995296551093,0.4647876714517276,12.744702,-0.26973593,5.799769,0.49424586,1.3794297,-1.3092682,1.9180864,-0.53498006,-0.13619259,-0.017857097,-0.833624,-8.723147,8.99982,0.60962677,-0.7340522,3.861911,0.4059405,0
1.8400000000000014,11.555918029497592,-0.48355072076090777,5.999995296551093,0.4647876714517276,12.531283,-0.07968831,5.5963254,0.54703623,1.2923377,-1.2193329,1.9242493,-0.5332964,-0.117480844,-0.025386952,-0.83734614,-8.695655,8.987829,0.62311786,-0.6950828,4.1953535,0.40882817,1
1.8500000000000014,11.555918029497592,-0.48355072076090777,5.999995296551093,0.4647876714517276,12.531283,-0.07968831,5.5963254,0.54703623,1.2055181,-1.1295017,1.9305996,-0.5312776,-0.09774977,-0.033920005,-0.8408557,-8.6687,8.97912,0.64707786,-0.59918994,4.413857,0.41561007,1
1.8600000000000014,11.555918029497592,-0.48355072076090777,5.999995296551093,0.4647876714517276,12.531283,-0.07968831,5.5963254,0.54703623,1.1189535,-1.0397347,1.937194,-0.52888817,-0.07736049,-0.043337617,-0.8440465,-8.644706,8.975026,0.67189366,-0.51824325,4.598282,0.4220592,1
1.8700000000000014,11.555918029497592,-0.48355072076090777,5.999995296551093,0.4647876714517276,12.531283,-0.07968831,5.5963254,0.54703623,1.0326135,-0.94998455,1.9440398,-0.5261213,-0.05641203,-0.053492267,-0.84684855,-8.623746,8.9758,0.697328,-0.4499127,4.7539434,0.42819187,1
1.8800000000000014,11.385258178598875,-0.36293217488198803,5.999992124303505,0.3752444306495242,12.737348,-0.030134346,4.864561,0.3694774,0.94646776,-0.8602013,1.9511418,-0.5229711,-0.03499204,-0.06425731,-0.8492041,-8.605897,8.981644,0.723114,-0.39223143,4.885327,0.4340236,0
1.8900000000000015,11.385258178598875,-0.36293217488198803,5.999992124303505,0.3752444306495242,12.737348,-0.030134346,4.864561,0.3694774,0.8604777,-0.7703383,1.9584455,-0.51944107,-0.012980554,-0.07551216,-0.8510642,-8.592582,8.991707,0.73762554,-0.38770166,5.0591607,0.43113923,0
1.9000000000000015,11.385258178598875,-0.36293217488198803,5.999992124303505,0.3752444306495242,12.737348,-0.030134346,4.864561,0.3694774,0.77460575,-0.68035036,1.9658935,-0.5155261,0.009709817,-0.08715135,-0.8523749,-8.582288,9.006657,0.75191003,-0.38387078,5.2058845,0.42839646,0
1.9100000000000015,11.385258178598875,-0.36293217488198803,5.999992124303505,0.3752444306495242,12.737348,-0.030134346,4.864561,0.3694774,0.6888211,-0.5901881,1.9734819,-0.51121086,0.032960653,-0.0990936,-0.8530869,-8.575138,9.026594,0.76566255,-0.38063082,5.3297267,0.42578825,0
1.9200000000000015,10.95741255712747,-0.49250001274953104,5.13366529801069,0.2941779464850222,13.259448,-0.3008352,2.7447026,0.53403705,0.6030918,-0.49980116,1.9812039,-0.50648373,0.05666724,-0.111268215,-0.8531601,-8.571239,9.051578,0.77855825,-0.377891,5.4342556,0.42330807,0
1.9300000000000015,10.95741255712747,-0.49250001274953104,5.13366529801069,0.2941779464850222,13.259448,-0.3008352,2.7447026,0.53403705,0.51738465,-0.40914464,1.9890285,-0.50138485,0.080468535,-0.12339435,-0.85259104,-8.570695,9.080484,0.78613615,-0.39572904,5.3873754,0.41697162,0
1.9400000000000015,10.95741255712747,-0.49250001274953104,5.13366529801069,0.2941779464850222,13.259448,-0.3008352,2.7447026,0.53403705,0.43166676,-0.31817517,1.9969217,-0.4959643,0.10407194,-0.13524938,-0.85140806,-8.573386,9.114138,0.79226667,-0.41078863,5.3478074,0.4109461,0
1.9500000000000015,10.95741255712747,-0.49250001274953104,5.13366529801069,0.2941779464850222,13.259448,-0.3008352,2.7447026,0.53403705,0.34590575,-0.2268461,2.0048678,-0.49022725,0.12748346,-0.14685424,-0.8496226,-8.57932,9.152383,0.7966653,-0.4235027,5.31441,0.40521625,0
1.9600000000000015,10.327094160758845,-0.6934026754605004,0.9354534905418264,0.29430310148098765,12.315451,-0.99489284,-0.11162331,0.6717701,0.26006922,-0.13511229,2.0128481,-0.48417866,0.15070617,-0.15822558,-0.8472443,-8.588494,9.195059,0.7990565,-0.43423647,5.286222,0.39976755,0
1.9700000000000015,10.327094160758845,-0.6934026754605004,0.9354534905418264,0.29430310148098765,12.315451,-0.99489284,-0.11162331,0.6717701,0.17412828,-0.042943705,2.020813,-0.47809607,0.17236184,-0.16850331,-0.8445838,-8.600147,9.239241,0.79355705,-0.4744611,4.607713,0.39459237,0
1.9800000000000015,10.327094160758845,-0.6934026754605004,0.9354534905418264,0.29430310148098765,12.315451,-0.99489284,-0.11162331,0.6717701,0.088056765,0.04968426,2.0287123,-0.4722674,0.19138092,-0.17703626,-0.8420182,-8.614566,9.286839,0.78595424,-0.50844496,4.0350194,0.3896712,0
1.9900000000000015,10.327094160758845,-0.6934026754605004,0.9354534905418264,0.29430310148098765,12.315451,-0.99489284,-0.11162331,0.6717701,0.0018284153,0.14280283,2.0365255,-0.46669608,0.2081798,-0.18411419,-0.8396175,-8.631475,9.337283,0.7763588,-0.5371555,3.5516381,0.38499147,0
2.0000000000000013,,,,,11.88216,-1.2533993,-5.302773,0.80226564,-0.0845805,0.23643807,2.0442333,-0.461372,0.22310945,-0.18997805,-0.83741635,-8.650644,9.390104,0.7648982,-0.5614109,3.1436412,0.38054135,0
2.010000000000001,,,,,11.88216,-1.2533993,-5.302773,0.80226564,-0.17119104,0.3306105,2.051816,-0.45663935,0.23487127,-0.1938707,-0.8359006,-8.67157,9.444177,0.7507184,-0.6173267,2.0294328,0.3777995,0
2.020000000000001,,,,,11.88216,-1.2533993,-5.302773,0.80226564,-0.25801548,0.42532116,2.0592365,-0.45279047,0.24239434,-0.1950842,-0.8355643,-8.693525,9.498067,0.73329467,-0.6853776,1.0633725,0.37708014,0
2.0300000000000007,,,,,11.88216,-1.2533993,-5.302773,0.80226564,-0.34506544,0.5205734,2.0664797,-0.44971323,0.24633509,-0.19401316,-0.8363227,-8.716613,9.552397,0.7152583,-0.7428538,0.24797136,0.3763961,0
2.0400000000000005,,,,,11.88216,-1.2533993,-5.302773,0.80226564,-0.43235043,0.6163686,2.0735414,-0.44729143,0.24725325,-0.19102876,-0.83803576,-8.740487,9.606579,0.6970918,-0.79139847,-0.44026625,0.3757456,0
2.0500000000000003,,,,,11.670475,-1.401572,-6.114566,0.5194582,-0.51987684,0.71270275,2.0804226,-0.44541034,0.24561264,-0.18643516,-0.84055084,-8.7648535,9.660121,0.6792071,-0.8323994,-1.0211717,0.37512702,1
2.06,,,,,11.670475,-1.401572,-6.114566,0.5194582,-0.6076696,0.80961293,2.0871978,-0.44404617,0.24123807,-0.18004385,-0.8439261,-8.793708,9.721668,0.67597044,-0.920964,-1.7976431,0.3822094,1
2.07,,,,,11.670475,-1.401572,-6.114566,0.5194582,-0.69575065,0.9071296,2.0939462,-0.4431504,0.23399854,-0.1717117,-0.84816116,-8.822481,9.78133,0.6739533,-0.9957409,-2.4530213,0.38894418,1
2.0799999999999996,,,,,11.670475,-1.401572,-6.114566,0.5194582,-0.7841177,1.0052309,2.1006823,-0.4425848,0.22430736,-0.16172872,-0.8530232,-8.85084,9.838509,0.6735545,-1.0588775,-3.0061913,0.39534852,1
2.0899999999999994,,,,,10.575055,-1.909691,-6.0293527,0.63668174,-0.872765,1.1038895,2.1074238,-0.44222528,0.21251184,-0.1503373,-0.85829717,-8.878478,9.8926735,0.67505944,-1.1121868,-3.4730923,0.40143856,1
2.099999999999999,,,,,10.575055,-1.909691,-6.0293527,0.63668174,-0.96167135,1.2030483,2.1141431,-0.44190764,0.19899362,-0.13756959,-0.86382496,-8.902626,9.938587,0.6691052,-1.2364254,-3.8672037,0.41298202,1
2.109999999999999,,,,,10.575055,-1.909691,-6.0293527,0.63668174,-1.0508139,1.3026489,2.120813,-0.4414936,0.184072,-0.12346142,-0.8694584,-8.925695,9.980908,0.6651236,-1.3413014,-4.1998496,0.42395905,1
2.1199999999999988,,,,,10.575055,-1.909691,-6.0293527,0.63668174,-1.1401811,1.4026529,2.1274526,-0.44091722,0.16793673,-0.10820793,-0.87503135,-8.947529,10.019249,0.66312045,-1.4298338,-4.480616,0.4343974,1
2.1299999999999986,,,,,9.910772,-1.9830683,-6.0453463,0.6861585,-1.2297597,1.5030189,2.134082,-0.44012237,0.15075234,-0.09197721,-0.8804009,-8.967975,10.053262,0.663032,-1.50457,-4.7175946,0.44432354,1
2.1399999999999983,,,,,9.910772,-1.9830683,-6.0453463,0.6861585,-1.3195293,1.6036927,2.1406887,-0.43905225,0.13267481,-0.074889824,-0.88544995,-8.9857,10.080791,0.6584644,-1.579096,-4.9176188,0.45619047,1
2.149999999999998,,,,,9.910772,-1.9830683,-6.0453463,0.6861585,-1.4094684,1.7046189,2.147257,-0.4376598,0.11384008,-0.05705256,-0.89007807,-9.001864,10.103718,0.6554081,-1.6420077,-5.0864463,0.4674751,1
2.159999999999998,,,,,9.910772,-1.9830683,-6.0453463,0.6861585,-1.4995608,1.8057505,2.1538017,-0.4359152,0.0943561,-0.03858329,-0.8941956,-9.016354,10.121819,0.65365416,-1.6951162,-5.2289424,0.47820595,1
2.1699999999999977,,,,,10.533482,-2.1402705,-5.986376,0.8217728,-1.5897894,1.9070381,2.1603339,-0.43379474,0.074319,-0.019585617,-0.8977276,-9.0290575,10.134903,0.6529572,-1.7399492,-5.349214,0.48841026,1
2.1799999999999975,,,,,10.533482,-2.1402705,-5.986376,0.8217728,-1.680139,2.0084336,2.1668944,-0.4312603,0.0538466,-9.8053366e-05,-0.9006191,-9.040557,10.143315,0.65921056,-1.8022896,-5.448618,0.50476843,1
2.1899999999999973,,,,,10.533482,-2.1402705,-5.986376,0.8217728,-1.7705932,2.1098852,2.17352,-0.42828098,0.033041608,0.01984059,-0.90282315,-9.049971,10.146094,0.6659733,-1.8549138,-5.532517,0.520324,1
2.199999999999997,,,,,10.533482,-2.1402705,-5.986376,0.8217728,-1.861131,2.2113357,2.1802144,-0.42485037,0.011965206,0.040143408,-0.9042937,-9.057224,10.143138,0.6729022,-1.899337,-5.603329,0.53511614,1
