time-since-start [s],throttle_mpc,roll_mpc,pitch_mpc,yaw_mpc,throttle_nw,roll_nw,pitch_nw,yaw_nw,position_x [m],position_y [m],position_z [m],rotation_w [quaternion],rotation_x [quaternion],rotation_y [quaternion],rotation_z [quaternion],velocity_x [m/s],velocity_y [m/s],velocity_z [m/s],omega_x [rad/s],omega_y [rad/s],omega_z [rad/s],network_used
0.0,9.056360699912675,5.999999669998201,-5.999999917673724,-4.477015763979559,15.118057,-1.556703,-3.7598462,-0.96262884,18.534008,-9.471707,2.1169748,0.02284832,0.38699266,-0.2633276,-0.8833873,-10.956827,-4.328376,0.55791456,1.4621272,-0.13551906,-0.22049215,0
0.01,9.056360699912675,5.999999669998201,-5.999999917673724,-4.477015763979559,11.323485,-1.2245115,-4.6095686,-0.8935034,18.423876,-9.5146265,2.1225185,0.018476753,0.38655558,-0.26914677,-0.881926,-11.069297,-4.255103,0.5504596,1.425974,-0.3064289,-0.36285618,0
0.02,9.056360699912675,5.999999669998201,-5.999999917673724,-4.477015763979559,11.323485,-1.2245115,-4.6095686,-0.8935034,18.312632,-9.556807,2.1279767,0.013297529,0.38553283,-0.27460572,-0.8807834,-11.1793785,-4.1808577,0.54084647,1.4205424,-0.47579792,-0.5004788,0
0.03,9.056360699912675,5.999999669998201,-5.999999917673724,-4.477015763979559,11.323485,-1.2245115,-4.6095686,-0.8935034,18.2003,-9.59824,2.1333287,0.0072739897,0.3839284,-0.2798331,-0.87990886,-11.286853,-4.105685,0.52925384,1.4414314,-0.6442616,-0.63362753,0
0.04,9.056360699912675,5.999999669998201,-5.999999917673724,-4.477015763979559,12.87566,-0.16545859,-3.4855409,-2.1276045,18.086906,-9.638916,2.1385555,0.00037597725,0.3817404,-0.28493738,-0.8792525,-11.391509,-4.0295987,0.5158376,1.4848367,-0.8122646,-0.76254857,0
0.05,9.056360699912675,5.999999669998201,-5.999999917673724,-4.477015763979559,12.87566,-0.16545859,-3.4855409,-2.1276045,17.97248,-9.678827,2.1436396,-0.0074207583,0.37896198,-0.29000917,-0.87876475,-11.493138,-3.9525895,0.50073403,1.5474653,-0.98010015,-0.88746893,0
0.060000000000000005,9.056360699912675,5.999999669998201,-5.999999917673724,-4.477015763979559,12.87566,-0.16545859,-3.4855409,-2.1276045,17.857056,-9.717964,2.1485646,-0.01613505,0.37558237,-0.29512355,-0.8783961,-11.591536,-3.8746347,0.484062,1.626465,-1.1479414,-1.008598,0
0.07,9.056360699912675,5.999999669998201,-5.999999917673724,-4.477015763979559,12.87566,-0.16545859,-3.4855409,-2.1276045,17.740664,-9.756316,2.1533158,-0.025780732,0.37158754,-0.3003417,-0.8780962,-11.6865,-3.7957044,0.46592543,1.7193621,-1.3158675,-1.1261287,0
0.08,10.92409741545779,5.999999807447206,-5.999999947428934,-4.386911859796394,13.622692,-0.57609385,-5.235552,-1.2347035,17.623339,-9.793875,2.1578784,-0.036366962,0.36696082,-0.3057125,-0.8778138,-11.777827,-3.7157676,0.44641516,1.8240107,-1.4838862,-1.2402395,0
0.09,10.92409741545779,5.999999807447206,-5.999999947428934,-4.386911859796394,13.622692,-0.57609385,-5.235552,-1.2347035,17.505081,-9.830592,2.162274,-0.04800824,0.36153713,-0.31140566,-0.87750363,-11.873088,-3.6275861,0.4324863,2.0015116,-1.7150295,-1.3523029,0
0.09999999999999999,10.92409741545779,5.999999807447206,-5.999999947428934,-4.386911859796394,13.622692,-0.57609385,-5.235552,-1.2347035,17.385893,-9.866423,2.1665227,-0.06080457,0.35516003,-0.3175619,-0.87710804,-11.963714,-3.538331,0.41709682,2.1824048,-1.9412509,-1.4616477,0
0.10999999999999999,10.92409741545779,5.999999807447206,-5.999999947428934,-4.386911859796394,13.622692,-0.57609385,-5.235552,-1.2347035,17.265823,-9.901355,2.1706107,-0.07473722,0.34782228,-0.32417232,-0.87655365,-12.049417,-3.4479172,0.40033603,2.3657255,-2.1628795,-1.5683681,0
0.11999999999999998,10.92409741545779,5.999999807447206,-5.999999947428934,-4.386911859796394,13.622692,-0.57609385,-5.235552,-1.2347035,17.144922,-9.935378,2.1745248,-0.08978397,0.33951402,-0.33122113,-0.8757635,-12.129916,-3.3562977,0.3822771,2.5506496,-2.3801825,-1.6725527,0
0.12999999999999998,14.03896935868938,5.999999896006177,-5.999999970613872,-4.101085973352655,13.200903,0.55909497,-4.364398,-1.7374413,17.023243,-9.968478,2.178252,-0.105918854,0.33022338,-0.33868632,-0.8746572,-12.204936,-3.263466,0.3629779,2.736474,-2.5933785,-1.7742856,0
0.13999999999999999,14.03896935868938,5.999999896006177,-5.999999970613872,-4.101085973352655,13.200903,0.55909497,-4.364398,-1.7374413,16.900793,-10.000579,2.1818337,-0.12331449,0.31962284,-0.3467798,-0.8731429,-12.283696,-3.156529,0.3531428,3.0464783,-2.926816,-1.8706985,0
0.15,14.03896935868938,5.999999896006177,-5.999999970613872,-4.101085973352655,13.200903,0.55909497,-4.364398,-1.7374413,16.777592,-10.031605,2.1853094,-0.1421144,0.3074056,-0.3556639,-0.87109613,-12.355191,-3.048558,0.34172702,3.3459458,-3.2461064,-1.9657627,0
0.16,17.69078612332582,5.999999933835105,-5.999999981292327,-3.3852799959596447,14.498388,-0.13094082,-4.9221,-1.2488284,16.653713,-10.061546,2.188663,-0.1622424,0.29358864,-0.36523518,-0.8683815,-12.418979,-2.9395785,0.32878405,3.6354012,-3.5523322,-2.0594444,0
0.17,17.69078612332582,5.999999933835105,-5.999999981292327,-3.3852799959596447,14.498388,-0.13094082,-4.9221,-1.2488284,16.529188,-10.090293,2.1919568,-0.18371654,0.27791065,-0.37557316,-0.8648461,-12.485072,-2.8090305,0.33007398,4.003481,-3.9347072,-2.1245036,0
0.18000000000000002,17.69078612332582,5.999999933835105,-5.999999981292327,-3.3852799959596447,14.498388,-0.13094082,-4.9221,-1.2488284,16.404045,-10.117715,2.1952658,-0.20643033,0.26027113,-0.38662708,-0.8603285,-12.542159,-2.6746266,0.33179793,4.3142204,-4.2573915,-2.1863704,0
0.19000000000000003,17.69078612332582,5.999999933835105,-5.999999981292327,-3.3852799959596447,14.498388,-0.13094082,-4.9221,-1.2488284,16.27838,-10.143774,2.1985939,-0.23013502,0.24090768,-0.39812574,-0.85469145,-12.589256,-2.5366488,0.33385235,4.576556,-4.529699,-2.2452013,0
0.20000000000000004,20.99999210289123,5.999999947486805,-5.999999984039839,-2.85871766697558,14.91247,1.6105167,-4.620837,-1.930958,16.152298,-10.168437,2.2019434,-0.25460657,0.22003166,-0.40983668,-0.8478182,-12.625491,-2.3955572,0.33608204,4.7980328,-4.75949,-2.3011453,0
0.21000000000000005,20.99999210289123,5.999999947486805,-5.999999984039839,-2.85871766697558,14.91247,1.6105167,-4.620837,-1.930958,16.025887,-10.191542,2.2054095,-0.27958733,0.19780622,-0.42157543,-0.8396297,-12.654719,-2.22511,0.35705033,4.9851003,-4.953316,-2.3285055,0
0.22000000000000006,20.99999210289123,5.999999947486805,-5.999999984039839,-2.85871766697558,14.91247,1.6105167,-4.620837,-1.930958,15.899255,-10.212932,2.2090838,-0.30484313,0.17437802,-0.43318447,-0.83006895,-12.66942,-2.0525901,0.37770775,5.1430387,-5.116873,-2.3545232,0
0.23000000000000007,20.99999210289123,5.999999947486805,-5.999999984039839,-2.85871766697558,14.91247,1.6105167,-4.620837,-1.930958,15.772551,-10.23259,2.2129617,-0.33021352,0.14990625,-0.4445161,-0.81908053,-12.6690035,-1.8790182,0.3977349,5.2763853,-5.2548857,-2.379264,0
0.24000000000000007,20.99999210289123,5.999999947486805,-5.999999984039839,-2.85871766697558,16.6239,-0.5125808,-4.3902354,-0.79231966,15.645928,-10.250512,2.2170353,-0.35555246,0.124537386,-0.45544422,-0.8066249,-12.653041,-1.7055193,0.4167835,5.38897,-5.371343,-2.402791,0
0.25000000000000006,20.99999210289123,5.999999947486805,-5.999999984039839,-2.85871766697558,16.6239,-0.5125808,-4.3902354,-0.79231966,15.519545,-10.266705,2.2212927,-0.38072672,0.09840704,-0.46586132,-0.792677,-12.621261,-1.5332992,0.43448496,5.4840264,-5.4696107,-2.4251635,0
0.26000000000000006,20.99999210289123,5.999999947486805,-5.999999984039839,-2.85871766697558,16.6239,-0.5125808,-4.3902354,-0.79231966,15.3935585,-10.281187,2.225719,-0.40561426,0.07164127,-0.4756758,-0.7772242,-12.573555,-1.3636215,0.45045805,5.564285,-5.552529,-2.4464383,0
0.2700000000000001,20.99999210289123,5.999999947486805,-5.999999984039839,-2.85871766697558,16.6239,-0.5125808,-4.3902354,-0.79231966,15.268128,-10.293991,2.230295,-0.43010324,0.04435774,-0.4848098,-0.76026535,-12.509976,-1.1977859,0.46431676,5.632049,-5.6224937,-2.4666688,0
0.2800000000000001,20.99999951094492,4.483398254931239,-5.999997918794846,-1.1267213628961332,16.899117,-0.9523968,-3.7876394,-0.98295707,15.143413,-10.305161,2.2349968,-0.45409092,0.016666682,-0.49319732,-0.7418089,-12.4307375,-1.0371073,0.47567677,5.689265,-5.6815286,-2.4859068,0
0.2900000000000001,20.99999951094492,4.483398254931239,-5.999997918794846,-1.1267213628961332,16.899117,-0.9523968,-3.7876394,-0.98295707,15.019566,-10.314755,2.2397983,-0.477326,-0.011153333,-0.50034577,-0.7222811,-12.336243,-0.8829013,0.48420307,5.5013804,-5.7306504,-2.4192114,0
0.3000000000000001,20.99999951094492,4.483398254931239,-5.999997918794846,-1.1267213628961332,16.899117,-0.9523968,-3.7876394,-0.98295707,14.896737,-10.322845,2.2446706,-0.49962527,-0.03886854,-0.50589556,-0.70209247,-12.227257,-0.7364587,0.4898093,5.342799,-5.7721844,-2.3557885,0
0.3100000000000001,20.99999951094492,4.483398254931239,-5.999997918794846,-1.1267213628961332,16.899117,-0.9523968,-3.7876394,-0.98295707,14.775068,-10.329515,2.2495844,-0.5209897,-0.0664452,-0.5099729,-0.68123615,-12.104692,-0.5989717,0.49247754,5.20895,-5.807301,-2.2954779,0
0.3200000000000001,20.700849352968415,2.531702599596754,-3.9993349518889505,-0.43890287453478694,15.892703,-1.9052387,-3.0701709,-0.48783672,14.654688,-10.33486,2.25451,-0.5414153,-0.09385195,-0.5126837,-0.65970975,-11.969517,-0.47152108,0.49216884,5.095974,-5.8369923,-2.2381268,0
0.3300000000000001,20.700849352968415,2.531702599596754,-3.9993349518889505,-0.43890287453478694,15.892703,-1.9052387,-3.0701709,-0.48783672,14.535708,-10.338992,2.2594106,-0.5605234,-0.12015519,-0.51405436,-0.63806313,-11.824905,-0.35666883,0.48750293,4.6968155,-5.5495567,-2.1498382,0
0.34000000000000014,20.700849352968415,2.531702599596754,-3.9993349518889505,-0.43890287453478694,15.892703,-1.9052387,-3.0701709,-0.48783672,14.418224,-10.342032,2.26425,-0.5780899,-0.14463522,-0.51420045,-0.61683947,-11.670396,-0.25295356,0.47998673,4.3597975,-5.307089,-2.0658822,0
0.35000000000000014,20.700849352968415,2.531702599596754,-3.9993349518889505,-0.43890287453478694,15.892703,-1.9052387,-3.0701709,-0.48783672,14.30233,-10.34409,2.269001,-0.59430903,-0.16755618,-0.5133115,-0.5960145,-11.507428,-0.16047527,0.46978593,4.075248,-5.1025496,-1.986046,0
0.36000000000000015,17.966824236727405,0.46203172661017333,-1.6452743736662496,0.432167162763249,14.948392,-2.8481536,-1.9169322,-0.19528519,14.188101,-10.345281,2.273637,-0.60933864,-0.18914354,-0.5115361,-0.5755539,-11.337267,-0.07926275,0.4570579,3.835,-4.9300027,-1.9101272,0
0.37000000000000016,17.966824236727405,0.46203172661017333,-1.6452743736662496,0.432167162763249,14.948392,-2.8481536,-1.9169322,-0.19528519,14.075489,-10.345761,2.2780788,-0.6229417,-0.20860438,-0.5090915,-0.55610627,-11.184355,-0.018451013,0.4310107,3.3099587,-4.416847,-1.7951902,0
0.38000000000000017,17.966824236727405,0.46203172661017333,-1.6452743736662496,0.432167162763249,14.948392,-2.8481536,-1.9169322,-0.19528519,13.964428,-10.34568,2.2822511,-0.6350063,-0.22535715,-0.5062229,-0.53825635,-11.027343,0.033320107,0.40320036,2.8666174,-3.9838974,-1.6858932,0
0.3900000000000002,17.966824236727405,0.46203172661017333,-1.6452743736662496,0.432167162763249,14.948392,-2.8481536,-1.9169322,-0.19528519,13.854953,-10.345123,2.2861378,-0.6458048,-0.23986045,-0.5030562,-0.52186006,-10.867204,0.076823644,0.3739353,2.492271,-3.618609,-1.5819592,0
0.4000000000000002,15.987360847401002,-1.1432804970741424,0.4471942979897513,0.9725458096020427,15.072674,-3.519375,0.54306,1.1188524,13.747091,-10.34417,2.289726,-0.65555215,-0.25249845,-0.49967706,-0.50677323,-10.704701,0.11276284,0.3434934,2.176188,-3.3104014,-1.4831254,0
0.4100000000000002,15.987360847401002,-1.1432804970741424,0.4471942979897513,0.9725458096020427,15.072674,-3.519375,0.54306,1.1188524,13.640774,-10.342907,2.2929678,-0.6641404,-0.26278558,-0.4963619,-0.49344343,-10.558551,0.13864253,0.3047833,1.6593014,-2.7237742,-1.3626249,0
0.4200000000000002,15.987360847401002,-1.1432804970741424,0.4471942979897513,0.9725458096020427,15.072674,-3.519375,0.54306,1.1188524,13.535924,-10.341413,2.2958198,-0.67152077,-0.2703733,-0.4933575,-0.48224148,-10.41137,0.1593933,0.26554856,1.2228479,-2.2287827,-1.2480375,0
0.4300000000000002,15.987360847401002,-1.1432804970741424,0.4471942979897513,0.9725458096020427,15.072674,-3.519375,0.54306,1.1188524,13.4325485,-10.339733,2.2982779,-0.67791384,-0.27573526,-0.4906608,-0.472922,-10.263566,0.17600077,0.2260698,0.85432094,-1.8111038,-1.1390729,0
0.4400000000000002,15.987360847401002,-1.1432804970741424,0.4471942979897513,0.9725458096020427,16.98326,-4.0656548,2.0795212,3.1293025,13.330652,-10.337905,2.3003411,-0.6834886,-0.27926272,-0.48825097,-0.4652601,-10.115425,0.18931346,0.18658718,0.5431571,-1.4586546,-1.0354553,0
0.45000000000000023,15.987360847401002,-1.1432804970741424,0.4471942979897513,0.9725458096020427,16.98326,-4.0656548,2.0795212,3.1293025,13.23024,-10.335957,2.3020105,-0.6883755,-0.28127936,-0.48609793,-0.45905358,-9.967154,0.20005801,0.14730333,0.28043413,-1.1612425,-0.93692213,0
0.46000000000000024,15.987360847401002,-1.1432804970741424,0.4471942979897513,0.9725458096020427,16.98326,-4.0656548,2.0795212,3.1293025,13.1313095,-10.33391,2.3032885,-0.6926762,-0.28205302,-0.48416758,-0.45412305,-9.8189,0.20885457,0.10838738,0.05861603,-0.91026795,-0.843224,0
0.47000000000000025,15.987360847401002,-1.1432804970741424,0.4471942979897513,0.9725458096020427,16.98326,-4.0656548,2.0795212,3.1293025,13.033861,-10.331783,2.30418,-0.696471,-0.28180572,-0.48242518,-0.4503108,-9.670773,0.21623111,0.069979206,-0.12866166,-0.69847643,-0.75412357,0
0.48000000000000026,16.461258697977467,-4.170678564474892,3.343856263750723,2.8643555837596306,17.480133,-5.1856885,3.2921507,2.9069388,12.937893,-10.329588,2.3046901,-0.6998238,-0.2807216,-0.48083746,-0.447479,-9.522852,0.22263637,0.032193594,-0.28677395,-0.5197475,-0.6693954,0
0.49000000000000027,16.461258697977467,-4.170678564474892,3.343856263750723,2.8643555837596306,17.480133,-5.1856885,3.2921507,2.9069388,12.843471,-10.32733,2.304854,-0.7024707,-0.2776889,-0.4795906,-0.446561,-9.362403,0.22907828,0.00045876484,-0.8902557,0.0849036,-0.50449,0
0.5000000000000002,16.461258697977467,-4.170678564474892,3.343856263750723,2.8643555837596306,17.480133,-5.1856885,3.2921507,2.9069388,12.75063,-10.325005,2.3046975,-0.7041675,-0.27184752,-0.4788214,-0.44830492,-9.206423,0.23598243,-0.03179971,-1.3983928,0.59649277,-0.34366876,0
0.5100000000000002,16.461258697977467,-4.170678564474892,3.343856263750723,2.8643555837596306,17.480133,-5.1856885,3.2921507,2.9069388,12.659327,-10.322604,2.3042173,-0.7049731,-0.2636687,-0.47841543,-0.45233902,-9.054763,0.24450013,-0.064174086,-1.8282973,1.0272926,-0.18707538,0
0.5200000000000002,18.63472494937014,-5.999997786119337,5.7697772002321335,3.5219525220320764,18.054295,-6.294437,4.637198,2.9769459,12.56953,-10.3201065,2.3034186,-0.70493305,-0.25353497,-0.4782464,-0.45833388,-8.904836,0.25571588,-0.09525014,-2.19368,1.3883917,-0.03734078,0
0.5300000000000002,18.63472494937014,-5.999997786119337,5.7697772002321335,3.5219525220320764,18.054295,-6.294437,4.637198,2.9769459,12.481333,-10.317468,2.3023677,-0.7037833,-0.24082017,-0.4784749,-0.46664402,-8.735049,0.27266943,-0.1147383,-2.803083,2.0557702,0.13589972,0
0.5400000000000003,18.63472494937014,-5.999997786119337,5.7697772002321335,3.5219525220320764,18.054295,-6.294437,4.637198,2.9769459,12.394816,-10.314634,2.3011296,-0.70119447,-0.22504584,-0.47926486,-0.47747883,-8.568399,0.29502472,-0.13251519,-3.3020384,2.6345034,0.3020482,0
0.5500000000000003,18.63472494937014,-5.999997786119337,5.7697772002321335,3.5219525220320764,18.054295,-6.294437,4.637198,2.9769459,12.309957,-10.311543,2.2997258,-0.6971456,-0.2066796,-0.48042887,-0.490367,-8.404065,0.32427627,-0.14780004,-3.7231987,3.122984,0.46004987,0
0.5600000000000003,18.611073304286844,-5.999999570084491,5.999998909120763,3.775977383068099,20.096817,-6.944204,5.3896556,3.0088694,12.226727,-10.308122,2.298182,-0.691626,-0.18610924,-0.48176458,-0.5048959,-8.242682,0.3615302,-0.160542,-4.0787315,3.535246,0.61029834,0
0.5700000000000003,18.611073304286844,-5.999999570084491,5.999998909120763,3.775977383068099,20.096817,-6.944204,5.3896556,3.0088694,12.14509,-10.304283,2.2965229,-0.6845576,-0.16363524,-0.48315248,-0.5207383,-8.085182,0.40760255,-0.17089306,-4.3788996,3.9190621,0.76563907,0
0.5800000000000003,18.611073304286844,-5.999999570084491,5.999998909120763,3.775977383068099,20.096817,-6.944204,5.3896556,3.0088694,12.065007,-10.299936,2.2947721,-0.6758684,-0.13952035,-0.48448282,-0.5375989,-7.9321704,0.46323088,-0.1788816,-4.632278,4.243012,0.91335726,0
0.5900000000000003,18.611073304286844,-5.999999570084491,5.999998909120763,3.775977383068099,20.096817,-6.944204,5.3896556,3.0088694,11.986428,-10.294983,2.2929528,-0.66555375,-0.11402631,-0.48560634,-0.5551783,-7.784522,0.52890414,-0.1847147,-4.846148,4.5164433,1.0538268,0
0.6000000000000003,20.22089519858223,-5.999999350227144,5.999975259867961,3.8227718191363973,21.123686,-7.174248,5.562495,2.9304848,11.909294,-10.289322,2.2910845,-0.6536133,-0.087384716,-0.48639756,-0.5732112,-7.643165,0.6049071,-0.18865259,-5.026661,4.7472425,1.1874034,0
0.6100000000000003,20.22089519858223,-5.999999350227144,5.999975259867961,3.8227718191363973,21.123686,-7.174248,5.562495,2.9304848,11.833598,-10.282812,2.2892265,-0.64005005,-0.059804954,-0.48675206,-0.5914659,-7.4974527,0.69880825,-0.18271744,-5.179019,4.9420524,1.3167217,0
0.6200000000000003,20.22089519858223,-5.999999350227144,5.999975259867961,3.8227718191363973,21.123686,-7.174248,5.562495,2.9304848,11.7593155,-10.275307,2.2874348,-0.6248734,-0.031475168,-0.48658422,-0.60973644,-7.3606615,0.8039379,-0.17542416,-5.3076,5.106499,1.4396943,0
0.6300000000000003,20.22089519858223,-5.999999350227144,5.999975259867961,3.8227718191363973,21.123686,-7.174248,5.562495,2.9304848,11.686351,-10.266696,2.2857213,-0.6081034,-0.0025627036,-0.48582542,-0.62783563,-7.233831,0.9200166,-0.16717316,-5.416109,5.245322,1.5566326,0
0.6400000000000003,20.22089519858223,-5.999999350227144,5.999975259867961,3.8227718191363973,21.074472,-6.9838696,5.5854564,2.9409328,11.6146,-10.256871,2.2840931,-0.5897666,0.026780427,-0.48442116,-0.64559615,-7.1179705,1.0465932,-0.15838702,-5.5076737,5.362519,1.6678327,1
0.6500000000000004,20.22089519858223,-5.999999350227144,5.999975259867961,3.8227718191363973,21.074472,-6.9838696,5.5854564,2.9409328,11.543973,-10.245701,2.2825763,-0.5700496,0.05636028,-0.48223054,-0.66281277,-7.00965,1.1888076,-0.14497721,-5.584709,5.396975,1.730304,1
0.6600000000000004,20.22089519858223,-5.999999350227144,5.999975259867961,3.8227718191363973,21.074472,-6.9838696,5.5854564,2.9409328,11.474361,-10.233062,2.2811923,-0.5491329,0.08601103,-0.47914988,-0.67931634,-6.9146605,1.3404617,-0.13185564,-5.649716,5.4260764,1.7897099,1
0.6700000000000004,20.22089519858223,-5.999999350227144,5.999975259867961,3.8227718191363973,21.074472,-6.9838696,5.5854564,2.9409328,11.40563,-10.2188635,2.2799366,-0.5270438,0.11563928,-0.47519162,-0.69501466,-6.8338037,1.500569,-0.11941278,-5.704572,5.4506583,1.8462007,1
0.6800000000000004,19.30262064513384,-5.92200978177433,3.7119405968861816,1.5615237851451758,20.208225,-7.1789546,5.2215276,2.9116263,11.337634,-10.203026,2.2788002,-0.503816,0.1451584,-0.47036982,-0.7098245,-6.767783,1.6680497,-0.10804492,-5.75086,5.471423,1.8999195,0
0.6900000000000004,19.30262064513384,-5.92200978177433,3.7119405968861816,1.5615237851451758,20.208225,-7.1789546,5.2215276,2.9116263,11.2702,-10.185554,2.2777252,-0.4799733,0.17401873,-0.4643326,-0.7236978,-6.7214217,1.827105,-0.10718518,-5.777155,5.197063,1.8833144,0
0.7000000000000004,19.30262064513384,-5.92200978177433,3.7119405968861816,1.5615237851451758,20.208225,-7.1789546,5.2215276,2.9116263,11.203156,-10.166469,2.2766519,-0.45598635,0.20178424,-0.45684463,-0.73664963,-6.6893916,1.9904826,-0.10769622,-5.79941,4.9654913,1.867524,0
0.7100000000000004,19.30262064513384,-5.92200978177433,3.7119405968861816,1.5615237851451758,20.208225,-7.1789546,5.2215276,2.9116263,11.136362,-10.145734,2.2755666,-0.43181744,0.22853604,-0.4480734,-0.7486891,-6.6717563,2.1568344,-0.109576076,-5.8182445,4.770035,1.8525087,0
0.7200000000000004,17.127623096220464,-4.221445298396392,1.8033235467388702,0.9124539707049665,19.149391,-6.880813,4.6577086,1.7989852,11.069673,-10.123326,2.2744555,-0.40743804,0.25434253,-0.43815896,-0.7598164,-6.668496,2.3248818,-0.11284871,-5.8341846,4.60506,1.8382299,0
0.7300000000000004,17.127623096220464,-4.221445298396392,1.8033235467388702,0.9124539707049665,19.149391,-6.880813,4.6577086,1.7989852,11.002949,-10.099328,2.2732518,-0.3834097,0.27844772,-0.42742428,-0.76991725,-6.678201,2.474412,-0.12806311,-5.582032,4.168598,1.7928017,0
0.7400000000000004,17.127623096220464,-4.221445298396392,1.8033235467388702,0.9124539707049665,19.149391,-6.880813,4.6577086,1.7989852,10.936068,-10.073839,2.27189,-0.36023456,0.30029672,-0.41619453,-0.7789963,-6.6998625,2.623334,-0.14444482,-5.369312,3.8001344,1.7496028,0
0.7500000000000004,17.127623096220464,-4.221445298396392,1.8033235467388702,0.9124539707049665,19.149391,-6.880813,4.6577086,1.7989852,10.868914,-10.046868,2.270359,-0.3378038,0.3202125,-0.40456828,-0.78719574,-6.7327256,2.7707686,-0.1618663,-5.189854,3.4890761,1.7085236,0
0.7600000000000005,15.271706251610166,-2.097190651286669,-0.19529333183524808,0.3091324158383732,17.548632,-5.8867745,3.6093655,0.7772064,10.801377,-10.018433,2.2686493,-0.3160178,0.33846742,-0.39261702,-0.7946223,-6.7760935,2.9159756,-0.18021023,-5.038457,3.2264805,1.6694602,0
0.7700000000000005,15.271706251610166,-2.097190651286669,-0.19529333183524808,0.3091324158383732,17.548632,-5.8867745,3.6093655,0.7772064,10.733382,-9.9886265,2.266714,-0.2954098,0.3544893,-0.38077956,-0.8012974,-6.823945,3.044189,-0.20720404,-4.5943933,2.7088428,1.6041135,0
0.7800000000000005,15.271706251610166,-2.097190651286669,-0.19529333183524808,0.3091324158383732,17.548632,-5.8867745,3.6093655,0.7772064,10.664872,-9.957562,2.2645016,-0.2765033,0.36778304,-0.3694909,-0.80731547,-6.87908,3.1682525,-0.23540314,-4.2043886,2.2565265,1.5405684,0
0.7900000000000005,15.271706251610166,-2.097190651286669,-0.19529333183524808,0.3091324158383732,17.548632,-5.8867745,3.6093655,0.7772064,10.595777,-9.925273,2.2620053,-0.2591001,0.37878287,-0.35872573,-0.8128387,-6.940942,3.2892544,-0.2638593,-3.875314,1.87465,1.4801416,0
0.8000000000000005,14.249503554130163,-0.08649486439671185,-1.8666455041872165,-0.22739779056845277,16.35855,-4.697922,2.3530138,-0.5768114,10.526032,-9.8917885,2.2592242,-0.24300466,0.38787085,-0.34843588,-0.8179838,-7.0086703,3.407096,-0.29234928,-3.5976472,1.5522462,1.4226799,0
0.8100000000000005,14.249503554130163,-0.08649486439671185,-1.8666455041872165,-0.22739779056845277,16.35855,-4.697922,2.3530138,-0.5768114,10.455585,-9.85714,2.25616,-0.22841378,0.39494488,-0.338889,-0.82280016,-7.081427,3.5216599,-0.3207279,-3.1541905,1.1241883,1.3510925,0
0.8200000000000005,14.249503554130163,-0.08649486439671185,-1.8666455041872165,-0.22739779056845277,16.35855,-4.697922,2.3530138,-0.5768114,10.384397,-9.821377,2.2528045,-0.2155969,0.3998082,-0.3303827,-0.8273565,-7.1563306,3.630175,-0.3505927,-2.7371185,0.71999073,1.2791878,0
0.8300000000000005,14.249503554130163,-0.08649486439671185,-1.8666455041872165,-0.22739779056845277,16.35855,-4.697922,2.3530138,-0.5768114,10.312454,-9.784555,2.249144,-0.20448373,0.4026306,-0.32290268,-0.8317506,-7.2324224,3.7331574,-0.3816514,-2.3441675,0.33779317,1.2071472,0
0.8400000000000005,14.249503554130163,-0.08649486439671185,-1.8666455041872165,-0.22739779056845277,15.925698,-3.29452,1.3675085,-1.6955248,10.239744,-9.746727,2.245171,-0.19497775,0.4035915,-0.31640822,-0.83605236,-7.309829,3.8323202,-0.41282624,-1.9918138,-0.0056186467,1.1367537,0
0.8500000000000005,14.249503554130163,-0.08649486439671185,-1.8666455041872165,-0.22739779056845277,15.925698,-3.29452,1.3675085,-1.6955248,10.16625,-9.707917,2.240891,-0.18688685,0.4029703,-0.31077924,-0.8403003,-7.388965,3.9293933,-0.44296616,-1.6944779,-0.29555014,1.0698143,0
0.8600000000000005,14.249503554130163,-0.08649486439671185,-1.8666455041872165,-0.22739779056845277,15.925698,-3.29452,1.3675085,-1.6955248,10.09196,-9.668146,2.2363157,-0.1800166,0.40103227,-0.30588582,-0.8445123,-7.469279,4.024628,-0.47189665,-1.4435651,-0.54032624,1.0061598,0
0.8700000000000006,14.249503554130163,-0.08649486439671185,-1.8666455041872165,-0.22739779056845277,15.925698,-3.29452,1.3675085,-1.6955248,10.016862,-9.627431,2.2314577,-0.17420053,0.39799613,-0.30161336,-0.8486946,-7.5503087,4.118251,-0.49947336,-1.2318243,-0.7469772,0.94562876,0
0.8800000000000006,14.509989229092737,1.4758547305659122,-2.9370003926059676,-0.7492023706247875,14.345493,-1.5801331,1.2491908,-1.9773489,9.940952,-9.585787,2.2263312,-0.16929646,0.39404276,-0.2978615,-0.8528467,-7.6316657,4.210459,-0.52557886,-1.0531375,-0.9214388,0.8880681,0
0.8900000000000006,14.509989229092737,1.4758547305659122,-2.9370003926059676,-0.7492023706247875,14.345493,-1.5801331,1.2491908,-1.9773489,9.864218,-9.543214,2.2209616,-0.16558425,0.38890558,-0.29495782,-0.85693294,-7.7149673,4.303673,-0.5483239,-0.66728055,-1.2268534,0.8085248,0
0.9000000000000006,14.509989229092737,1.4758547305659122,-2.9370003926059676,-0.7492023706247875,14.345493,-1.5801331,1.2491908,-1.9773489,9.786657,-9.499719,2.2153695,-0.16332477,0.3823245,-0.29319447,-0.8609238,-7.797205,4.3954344,-0.56980544,-0.33299327,-1.4933562,0.7320867,0
0.9100000000000006,14.509989229092737,1.4758547305659122,-2.9370003926059676,-0.7492023706247875,14.345493,-1.5801331,1.2491908,-1.9773489,9.708279,-9.455308,2.2095716,-0.16232194,0.37451836,-0.29239053,-0.86480933,-7.8783374,4.4866533,-0.5894818,-0.050877996,-1.718354,0.65939945,0
0.9200000000000006,14.937648298544104,2.4941909832706664,-3.6409492170239535,-1.132026976062014,13.033382,0.28513202,0.5614652,-2.051083,9.629097,-9.4099865,2.2035866,-0.16240071,0.3656783,-0.29238287,-0.86857206,-7.9579024,4.5776234,-0.6072866,0.18721122,-1.9083067,0.590279,0
0.9300000000000006,14.937648298544104,2.4941909832706664,-3.6409492170239535,-1.132026976062014,13.033382,0.28513202,0.5614652,-2.051083,9.549116,-9.363741,2.1974452,-0.16368024,0.3556688,-0.2933199,-0.8721649,-8.037806,4.6713367,-0.6207087,0.5461704,-2.1776047,0.5058396,0
0.9400000000000006,14.937648298544104,2.4941909832706664,-3.6409492170239535,-1.132026976062014,13.033382,0.28513202,0.5614652,-2.051083,9.46835,-9.316559,2.191179,-0.16625087,0.3443786,-0.29531106,-0.8755314,-8.115081,4.765333,-0.63217413,0.849913,-2.4057558,0.425469,0
0.9500000000000006,14.937648298544104,2.4941909832706664,-3.6409492170239535,-1.132026976062014,13.033382,0.28513202,0.5614652,-2.051083,9.386826,-9.268433,2.1848085,-0.16992815,0.33199552,-0.2981664,-0.87863535,-8.189252,4.8599553,-0.6416317,1.1062616,-2.5983665,0.34904227,0
0.9600000000000006,15.434111082566357,2.8644985729636576,-3.8206952040281523,-1.3897461233662978,12.929183,1.2401382,-0.2830169,-2.0065305,9.304578,-9.219357,2.178353,-0.17455442,0.31867778,-0.30172297,-0.8814411,-8.259859,4.955422,-0.6491079,1.3226149,-2.7609696,0.2763658,0
0.9700000000000006,15.434111082566357,2.8644985729636576,-3.8206952040281523,-1.3897461233662978,12.929183,1.2401382,-0.2830169,-2.0065305,9.221631,-9.169305,2.171848,-0.18009113,0.30447865,-0.30594954,-0.8838863,-8.3287,5.0551014,-0.6515822,1.562945,-2.9262724,0.19460918,0
0.9800000000000006,15.434111082566357,2.8644985729636576,-3.8206952040281523,-1.3897461233662978,12.929183,1.2401382,-0.2830169,-2.0065305,9.138019,-9.11825,2.1653278,-0.18650003,0.28944656,-0.31081033,-0.88590944,-8.392996,5.155967,-0.65215665,1.7657843,-3.0658202,0.11686443,0
0.9900000000000007,15.434111082566357,2.8644985729636576,-3.8206952040281523,-1.3897461233662978,12.929183,1.2401382,-0.2830169,-2.0065305,9.053788,-9.066181,2.1588109,-0.19365618,0.27369934,-0.3161709,-0.88748074,-8.452341,5.258117,-0.6509479,1.936984,-3.1836224,0.042934604,0
1.0000000000000007,15.601569197027983,2.6429456727979197,-3.530842056438219,-1.5262984426955573,13.829812,1.2434018,-0.62748104,-2.0738971,8.96899,-9.013083,2.1523144,-0.20145214,0.257338,-0.321917,-0.888574,-8.506378,5.361591,-0.64809406,2.081482,-3.2830646,-0.027367445,0
1.0100000000000007,15.601569197027983,2.6429456727979197,-3.530842056438219,-1.5262984426955573,13.829812,1.2434018,-0.62748104,-2.0738971,8.883677,-8.958939,2.1458597,-0.20975062,0.24057685,-0.32789296,-0.8891646,-8.555322,5.4675117,-0.6426412,2.1688821,-3.3218107,-0.100920424,0
1.0200000000000007,15.601569197027983,2.6429456727979197,-3.530842056438219,-1.5262984426955573,13.829812,1.2434018,-0.62748104,-2.0738971,8.797903,-8.9037285,2.1394663,-0.21844074,0.22359598,-0.33397365,-0.88924134,-8.598369,5.5746846,-0.6358664,2.242657,-3.354516,-0.17086414,0
1.0300000000000007,15.601569197027983,2.6429456727979197,-3.530842056438219,-1.5262984426955573,13.829812,1.2434018,-0.62748104,-2.0738971,8.71173,-8.847441,2.1331463,-0.2274713,0.20643006,-0.34011084,-0.8888015,-8.6353445,5.6830044,-0.6279596,2.304932,-3.3821206,-0.23737569,0
1.0400000000000007,15.601569197027983,2.6429456727979197,-3.530842056438219,-1.5262984426955573,13.553623,0.44040963,-0.43391094,-1.8283669,8.625218,-8.790065,2.1269102,-0.236797,0.18910982,-0.3462639,-0.88784355,-8.666099,5.7923393,-0.6191125,2.357501,-3.405419,-0.3006235,0
1.0500000000000007,15.601569197027983,2.6429456727979197,-3.530842056438219,-1.5262984426955573,13.553623,0.44040963,-0.43391094,-1.8283669,8.538432,-8.731591,2.1207664,-0.24637735,0.17166252,-0.35239863,-0.8863665,-8.690505,5.902538,-0.6095179,2.4018779,-3.4250815,-0.3607677,0
1.0600000000000007,15.601569197027983,2.6429456727979197,-3.530842056438219,-1.5262984426955573,13.553623,0.44040963,-0.43391094,-1.8283669,8.451432,-8.672012,2.1147218,-0.25617602,0.15411258,-0.3584864,-0.88437027,-8.708454,6.013432,-0.599369,2.43934,-3.4416742,-0.4179606,0
1.0700000000000007,15.601569197027983,2.6429456727979197,-3.530842056438219,-1.5262984426955573,13.553623,0.44040963,-0.43391094,-1.8283669,8.364285,-8.611322,2.1087804,-0.26616025,0.13648179,-0.36450303,-0.8818554,-8.71986,6.124838,-0.5888588,2.470966,-3.4556758,-0.47234708,0
1.0800000000000007,15.048243889999727,1.9430091126150502,-2.878343635514194,-1.5020961302514715,12.763289,-0.26542678,-0.013528067,-1.5452049,8.277059,-8.549516,2.1029449,-0.27630016,0.11878988,-0.3704281,-0.8788232,-8.724655,6.236558,-0.57817894,2.497666,-3.46749,-0.5240647,0
1.0900000000000007,15.048243889999727,1.9430091126150502,-2.878343635514194,-1.5020961302514715,12.763289,-0.26542678,-0.013528067,-1.5452049,8.189816,-8.486611,2.097197,-0.28643844,0.10136174,-0.3760741,-0.8753554,-8.722881,6.344416,-0.5713727,2.411093,-3.375659,-0.57205695,0
1.1000000000000008,15.048243889999727,1.9430091126150502,-2.878343635514194,-1.5020961302514715,12.763289,-0.26542678,-0.013528067,-1.5452049,8.102623,-8.422628,2.091517,-0.29645655,0.084460765,-0.38130364,-0.8715431,-8.714845,6.4521503,-0.56473106,2.338026,-3.2981453,-0.6176942,0
1.1100000000000008,15.048243889999727,1.9430091126150502,-2.878343635514194,-1.5020961302514715,12.763289,-0.26542678,-0.013528067,-1.5452049,8.01554,-8.35757,2.0859017,-0.30638015,0.06801954,-0.38616744,-0.86739796,-8.700722,6.559543,-0.5583828,2.2763581,-3.2327173,-0.6610921,0
1.1200000000000008,14.337071013564149,0.8431390184623064,-2.1509020303259456,-1.3580422817656979,12.703147,-1.0536736,0.6700496,-1.3153081,7.928629,-8.291438,2.080348,-0.31622857,0.051980533,-0.3907077,-0.86292815,-8.680671,6.6663923,-0.55244666,2.2243106,-3.1774905,-0.70236045,0
1.1300000000000008,14.337071013564149,0.8431390184623064,-2.1509020303259456,-1.3580422817656979,12.703147,-1.0536736,0.6700496,-1.3153081,7.8419414,-8.224268,2.0748265,-0.32586783,0.036679555,-0.39467657,-0.85830945,-8.656093,6.767487,-0.5519129,2.0089273,-3.0173385,-0.7345349,0
1.1400000000000008,14.337071013564149,0.8431390184623064,-2.1509020303259456,-1.3580422817656979,12.703147,-1.0536736,0.6700496,-1.3153081,7.755525,-8.156091,2.0693078,-0.33520263,0.022382706,-0.39789376,-0.8537088,-8.626372,6.8676844,-0.55187833,1.8271303,-2.8821678,-0.76513064,0
1.1500000000000008,14.337071013564149,0.8431390184623064,-2.1509020303259456,-1.3580422817656979,12.703147,-1.0536736,0.6700496,-1.3153081,7.66943,-8.086917,2.0637872,-0.34429574,0.0089492,-0.40047994,-0.84911495,-8.591862,6.9668126,-0.5523262,1.6736815,-2.7680829,-0.794225,0
1.1600000000000008,13.846923277588896,-0.48104863876104426,-1.1751661081791813,-1.0606135490917903,13.484015,-2.4888241,1.1593403,-0.9661038,7.5837026,-8.016758,2.0582595,-0.35319695,-0.0037415845,-0.40253463,-0.84451395,-8.552866,7.0647283,-0.5532388,1.5441601,-2.671795,-0.8218916,0
1.1700000000000008,13.846923277588896,-0.48104863876104426,-1.1751661081791813,-1.0606135490917903,13.484015,-2.4888241,1.1593403,-0.9661038,7.4983797,-7.945643,2.052704,-0.3617634,-0.015289675,-0.40383482,-0.8401255,-8.511163,7.158006,-0.557891,1.2284361,-2.4382372,-0.83360577,0
1.1800000000000008,13.846923277588896,-0.48104863876104426,-1.1751661081791813,-1.0606135490917903,13.484015,-2.4888241,1.1593403,-0.9661038,7.4134917,-7.8736024,2.0471008,-0.36989164,-0.025383996,-0.40422118,-0.8361466,-8.465885,7.2499022,-0.5628367,0.96193355,-2.2411244,-0.8447451,0
1.1900000000000008,13.846923277588896,-0.48104863876104426,-1.1751661081791813,-1.0606135490917903,13.484015,-2.4888241,1.1593403,-0.9661038,7.3290725,-7.8006496,2.0414472,-0.37766767,-0.03424084,-0.40385118,-0.8325257,-8.4175005,7.340355,-0.5679301,0.7369784,-2.07477,-0.8553378,0
1.2000000000000008,13.766359082277669,-1.7800347115109312,-0.17187626929543928,-0.6283405742769527,14.406273,-3.6372087,1.624929,-0.14769568,7.245151,-7.7268004,2.0357423,-0.38515994,-0.04204441,-0.40285352,-0.82921237,-8.366406,7.429323,-0.5730402,0.5470931,-1.9343753,-0.8654107,0
1.2100000000000009,13.766359082277669,-1.7800347115109312,-0.17187626929543928,-0.6283405742769527,14.406273,-3.6372087,1.624929,-0.14769568,7.161751,-7.6520715,2.029984,-0.39224136,-0.04843894,-0.40105802,-0.82640964,-8.313285,7.5162764,-0.57857627,0.18434653,-1.6593088,-0.8537776,0
1.2200000000000009,13.766359082277669,-1.7800347115109312,-0.17187626929543928,-0.6283405742769527,14.406273,-3.6372087,1.624929,-0.14769568,7.0788918,-7.5764804,2.0241718,-0.39881396,-0.05315213,-0.39834085,-0.8242857,-8.258362,7.60175,-0.58378613,-0.12185817,-1.4271752,-0.84271526,0
1.2300000000000009,13.766359082277669,-1.7800347115109312,-0.17187626929543928,-0.6283405742769527,14.406273,-3.6372087,1.624929,-0.14769568,6.996588,-7.500042,2.0183098,-0.40496352,-0.05644148,-0.39485744,-0.8227433,-8.202148,7.6857824,-0.588454,-0.38033384,-1.2312727,-0.83219576,0
1.2400000000000009,13.766359082277669,-1.7800347115109312,-0.17187626929543928,-0.6283405742769527,14.987389,-4.348194,2.2603364,0.7582702,6.9148517,-7.42277,2.012405,-0.4107579,-0.058525074,-0.39073414,-0.8216932,-8.145078,7.7684155,-0.59239644,-0.5985198,-1.0659461,-0.82219255,0
1.2500000000000009,13.766359082277669,-1.7800347115109312,-0.17187626929543928,-0.6283405742769527,14.987389,-4.348194,2.2603364,0.7582702,6.8336883,-7.344679,2.006465,-0.4162512,-0.059587594,-0.38607413,-0.8210549,-8.087517,7.849692,-0.5954598,-0.78269583,-0.9264227,-0.8126802,0
1.260000000000001,13.766359082277669,-1.7800347115109312,-0.17187626929543928,-0.6283405742769527,14.987389,-4.348194,2.2603364,0.7582702,6.753102,-7.265781,2.0004992,-0.4214868,-0.059785407,-0.38096207,-0.8207574,-8.0297785,7.92965,-0.5975176,-0.93816304,-0.80867493,-0.8036346,0
1.270000000000001,13.766359082277669,-1.7800347115109312,-0.17187626929543928,-0.6283405742769527,14.987389,-4.348194,2.2603364,0.7582702,6.6730924,-7.18609,1.9945185,-0.42649946,-0.059250936,-0.37546778,-0.8207385,-7.9721313,8.008325,-0.5984674,-1.0693965,-0.7093039,-0.7950329,0
1.280000000000001,14.226249523454847,-2.7722582056596767,0.729250450517648,-0.061336738063237486,15.643721,-4.541613,2.3586814,1.0825322,6.593658,-7.1056185,1.9885341,-0.43131748,-0.05809633,-0.369649,-0.8209445,-7.914806,8.085747,-0.598228,-1.1801733,-0.6254413,-0.7868533,0
1.290000000000001,14.226249523454847,-2.7722582056596767,0.729250450517648,-0.061336738063237486,15.643721,-4.541613,2.3586814,1.0825322,6.5148034,-7.0243664,1.9825749,-0.43579605,-0.05597434,-0.36337957,-0.82152545,-7.8561344,8.164496,-0.59339845,-1.4283401,-0.41408345,-0.751252,0
1.300000000000001,14.226249523454847,-2.7722582056596767,0.729250450517648,-0.061336738063237486,15.643721,-4.541613,2.3586814,1.0825322,6.436531,-6.9423323,1.976671,-0.43981212,-0.052615587,-0.3565608,-0.8225943,-7.798416,8.242065,-0.58714306,-1.6378307,-0.23571458,-0.7173977,0
1.310000000000001,14.226249523454847,-2.7722582056596767,0.729250450517648,-0.061336738063237486,15.643721,-4.541613,2.3586814,1.0825322,6.35883,-6.8595285,1.9708372,-0.44341466,-0.048212875,-0.34927237,-0.82405573,-7.742043,8.318533,-0.57935107,-1.8146716,-0.0851841,-0.68520457,0
1.320000000000001,14.410150814368759,-3.510288976392985,1.1348148357007286,0.509543179905879,16.151964,-5.0853972,2.5569057,1.7666004,6.281685,-6.775965,1.9650894,-0.44664335,-0.04292933,-0.34158006,-0.82582676,-7.687354,8.393962,-0.5699447,-1.9639506,0.041853957,-0.65459126,0
1.330000000000001,14.410150814368759,-3.510288976392985,1.1348148357007286,0.509543179905879,16.151964,-5.0853972,2.5569057,1.7666004,6.20508,-6.691648,1.9594511,-0.44942865,-0.03666056,-0.33336368,-0.82797253,-7.6339808,8.469365,-0.5574551,-2.2050362,0.21232174,-0.5974668,0
1.340000000000001,14.410150814368759,-3.510288976392985,1.1348148357007286,0.509543179905879,16.151964,-5.0853972,2.5569057,1.7666004,6.128997,-6.606581,1.9539464,-0.4517034,-0.029332438,-0.32452738,-0.83053327,-7.583021,8.543811,-0.5431928,-2.4085462,0.35617834,-0.54314554,0
1.350000000000001,14.410150814368759,-3.510288976392985,1.1348148357007286,0.509543179905879,16.151964,-5.0853972,2.5569057,1.7666004,6.05341,-6.5207744,1.9485935,-0.4535007,-0.021113504,-0.31515428,-0.8334081,-7.534855,8.617325,-0.52710056,-2.5803354,0.47758055,-0.49148983,0
1.360000000000001,14.618199955452173,-3.9425286565768682,1.294649917560684,1.0099275851303722,16.422005,-5.0708437,2.2403975,2.3871925,5.978289,-6.4342375,1.9434108,-0.45484802,-0.012146614,-0.30531445,-0.8365099,-7.489812,8.689917,-0.509159,-2.7253468,0.58003527,-0.44236884,0
1.370000000000001,14.618199955452173,-3.9425286565768682,1.294649917560684,1.0099275851303722,16.422005,-5.0708437,2.2403975,2.3871925,5.9036045,-6.346974,1.9384252,-0.45569852,-0.002439375,-0.29495054,-0.83984345,-7.447592,8.762614,-0.4876753,-2.9151657,0.69139886,-0.37110424,0
1.380000000000001,14.618199955452173,-3.9425286565768682,1.294649917560684,1.0099275851303722,16.422005,-5.0708437,2.2403975,2.3871925,5.8293233,-6.258988,1.9336636,-0.45600453,0.007993824,-0.28401884,-0.8434034,-7.4091735,8.834342,-0.46433842,-3.075394,0.78537863,-0.30333662,0
1.390000000000001,14.618199955452173,-3.9425286565768682,1.294649917560684,1.0099275851303722,16.422005,-5.0708437,2.2403975,2.3871925,5.755406,-6.17029,1.9291446,-0.45578745,0.019031653,-0.27259323,-0.847106,-7.3748655,8.905051,-0.43918863,-3.2106435,0.8646914,-0.23889436,0
1.400000000000001,14.653919693247417,-3.979259678402394,1.0453883863297986,1.3694290462429022,16.249788,-4.7973375,2.3787766,2.552652,5.6818104,-6.08089,1.9248857,-0.45506647,0.030571003,-0.26073727,-0.85087955,-7.3449345,8.974686,-0.41229865,-3.3248072,0.93162835,-0.1776143,0
1.410000000000001,14.653919693247417,-3.979259678402394,1.0453883863297986,1.3694290462429022,16.249788,-4.7973375,2.3787766,2.552652,5.6084914,-5.9907994,1.9209058,-0.45384642,0.04243437,-0.2484496,-0.8546903,-7.3195453,9.043337,-0.3834572,-3.4269133,0.9492115,-0.10170044,0
1.420000000000001,14.653919693247417,-3.979259678402394,1.0453883863297986,1.3694290462429022,16.249788,-4.7973375,2.3787766,2.552652,5.535403,-5.9000278,1.9172219,-0.45212665,0.05447455,-0.2357344,-0.8585123,-7.2989497,9.110721,-0.35307834,-3.5130956,0.9640508,-0.029511696,0
1.430000000000001,14.653919693247417,-3.979259678402394,1.0453883863297986,1.3694290462429022,16.249788,-4.7973375,2.3787766,2.552652,5.462496,-5.80859,1.9138489,-0.44991717,0.066651456,-0.2226508,-0.86229855,-7.2832913,9.176709,-0.32128704,-3.5858374,0.9765766,0.03913472,0
1.440000000000001,14.653919693247417,-3.979259678402394,1.0453883863297986,1.3694290462429022,16.703268,-4.76136,1.4962623,2.8372726,5.3897195,-5.716499,1.9108005,-0.4472287,0.078931,-0.2092501,-0.8660085,-7.27269,9.241177,-0.28822657,-3.6472337,0.9871512,0.104412645,0
1.450000000000001,14.653919693247417,-3.979259678402394,1.0453883863297986,1.3694290462429022,16.703268,-4.76136,1.4962623,2.8372726,5.3170238,-5.6237717,1.9080883,-0.4440725,0.091284126,-0.19557704,-0.86960703,-7.2672424,9.303992,-0.25405523,-3.6990538,0.9960801,0.16648737,0
1.460000000000001,14.653919693247417,-3.979259678402394,1.0453883863297986,1.3694290462429022,16.703268,-4.76136,1.4962623,2.8372726,5.244356,-5.530425,1.9057226,-0.44046023,0.10368604,-0.18167073,-0.8730634,-7.2670245,9.365032,-0.21894357,-3.7427914,1.0036211,0.22551608,0
1.470000000000001,14.653919693247417,-3.979259678402394,1.0453883863297986,1.3694290462429022,16.703268,-4.76136,1.4962623,2.8372726,5.1716647,-5.436477,1.903712,-0.43640372,0.11611549,-0.16756551,-0.87635076,-7.2720933,9.42417,-0.18307212,-3.7797062,1.009991,0.28164822,0
1.480000000000001,14.43320189732704,-3.69836713449752,0.4684875643740684,1.5516575655932885,16.59703,-4.742334,0.8794504,2.9583457,5.098896,-5.3419485,1.9020631,-0.43191493,0.12855418,-0.15329164,-0.87944573,-7.282485,9.481277,-0.14662944,-3.810863,1.015373,0.3350259,0
1.490000000000001,14.43320189732704,-3.69836713449752,0.4684875643740684,1.5516575655932885,16.59703,-4.742334,0.8794504,2.9583457,5.0259976,-5.2468634,1.9007705,-0.42703632,0.14073154,-0.13887882,-0.8823532,-7.297969,9.5354,-0.11183807,-3.793337,0.9299428,0.3947264,0
1.500000000000001,14.43320189732704,-3.69836713449752,0.4684875643740684,1.5516575655932885,16.59703,-4.742334,0.8794504,2.9583457,4.9529185,-5.1512485,1.8998271,-0.4218023,0.15243313,-0.12435668,-0.8850888,-7.318608,9.587238,-0.0768361,-3.7785401,0.8578431,0.45149732,0
1.5100000000000011,14.43320189732704,-3.69836713449752,0.4684875643740684,1.5516575655932885,16.59703,-4.742334,0.8794504,2.9583457,4.879608,-5.055127,1.899234,-0.41621456,0.16372006,-0.1097497,-0.8876463,-7.3442807,9.636628,-0.04177943,-3.7660477,0.7969945,0.50548255,0
1.5200000000000011,13.87907608572338,-3.1544420653642136,-0.5141156589827762,1.568454844159991,16.765709,-4.3605523,-0.28653178,2.7491302,4.806016,-4.9585247,1.8989911,-0.41027644,0.17464404,-0.09507889,-0.8900182,-7.3748703,9.683424,-0.0068244133,-3.7555013,0.74564165,0.55681866,0
1.5300000000000011,13.87907608572338,-3.1544420653642136,-0.5141156589827762,1.568454844159991,16.765709,-4.3605523,-0.28653178,2.7491302,4.732101,-4.861477,1.8990711,-0.40406692,0.18481006,-0.08039661,-0.8922507,-7.408878,9.725792,0.022783363,-3.6617134,0.54909843,0.60646,0
1.5400000000000011,13.87907608572338,-3.1544420653642136,-0.5141156589827762,1.568454844159991,16.765709,-4.3605523,-0.28653178,2.7491302,4.6578236,-4.764019,1.8994457,-0.39765164,0.19391057,-0.065750085,-0.8943984,-7.447204,9.765353,0.052068207,-3.5825515,0.3832115,0.65366536,0
1.5500000000000012,13.87907608572338,-3.1544420653642136,-0.5141156589827762,1.568454844159991,16.765709,-4.3605523,-0.28653178,2.7491302,4.5831428,-4.6661806,1.9001112,-0.391018,0.20210361,-0.051148165,-0.8964612,-7.4895544,9.801943,0.08096655,-3.5157359,0.24319921,0.69855434,0
1.5600000000000012,13.548104523648313,-2.4350883220376605,-1.3703498310518805,1.4295813694210393,17.300158,-3.7066662,-1.8177326,2.5398247,4.50802,-4.5679913,1.9010634,-0.3841571,0.20952266,-0.036597468,-0.89843416,-7.5356665,9.835419,0.10941333,-3.4593422,0.12502556,0.74124056,0
1.5700000000000012,13.548104523648313,-2.4350883220376605,-1.3703498310518805,1.4295813694210393,17.300158,-3.7066662,-1.8177326,2.5398247,4.4324236,-4.469487,1.9022827,-0.37715173,0.21586375,-0.022227606,-0.90036935,-7.584095,9.864933,0.1343461,-3.299496,-0.10817319,0.7750177,0
1.5800000000000012,13.548104523648313,-2.4350883220376605,-1.3703498310518805,1.4295813694210393,17.300158,-3.7066662,-1.8177326,2.5398247,4.356327,-4.3707037,1.9037488,-0.37007222,0.22089583,-0.008143995,-0.9023219,-7.6355658,9.8911705,0.15878583,-3.1645865,-0.30500716,0.8071373,0
1.5900000000000012,13.548104523648313,-2.4350883220376605,-1.3703498310518805,1.4295813694210393,17.300158,-3.7066662,-1.8177326,2.5398247,4.279703,-4.271675,1.9054568,-0.36289632,0.22482045,0.005682624,-0.9042838,-7.6897025,9.914034,0.18275216,-3.0507252,-0.4711479,0.8376808,0
1.6000000000000012,13.289403732727521,-1.6298610506154798,-1.970690802066835,1.17376234234025,18.902817,-3.06019,-3.5411854,2.8819818,4.202525,-4.172435,1.9074022,-0.35560644,0.22780716,0.01927827,-0.90624267,-7.746177,9.933442,0.20625685,-2.9546292,-0.61138165,0.8667256,0
1.6100000000000012,13.289403732727521,-1.6298610506154798,-1.970690802066835,1.17376234234025,18.902817,-3.06019,-3.5411854,2.8819818,4.1247783,-4.07302,1.9095688,-0.3482866,0.22966695,0.03246565,-0.90823734,-7.803562,9.949031,0.22699957,-2.7479048,-0.8232756,0.881792,0
1.6200000000000012,13.289403732727521,-1.6298610506154798,-1.970690802066835,1.17376234234025,18.902817,-3.06019,-3.5411854,2.8819818,4.046449,-3.9734666,1.9119408,-0.34100837,0.2302607,0.045105014,-0.91030675,-7.8625455,9.961154,0.24736375,-2.5734346,-1.0021383,0.89611906,0
1.6300000000000012,13.289403732727521,-1.6298610506154798,-1.970690802066835,1.17376234234025,18.902817,-3.06019,-3.5411854,2.8819818,3.9675233,-3.8738093,1.9145149,-0.33374247,0.22978626,0.05726907,-0.912433,-7.9227476,9.969811,0.26741844,-2.4261866,-1.1531193,0.90974313,0
1.6400000000000012,13.289403732727521,-1.6298610506154798,-1.970690802066835,1.17376234234025,18.517399,-2.5159175,-3.822397,2.335318,3.887991,-3.7740827,1.9172882,-0.32646477,0.22840953,0.06902034,-0.9145959,-7.983841,9.975011,0.28721854,-2.3019137,-1.280565,0.9226986,0
1.6500000000000012,13.289403732727521,-1.6298610506154798,-1.970690802066835,1.17376234234025,18.517399,-2.5159175,-3.822397,2.335318,3.8078446,-3.6743212,1.9202585,-0.31915596,0.22626975,0.08041251,-0.9167743,-8.045538,9.97676,0.3068052,-2.1970317,-1.3881445,0.9350184,0
1.6600000000000013,13.289403732727521,-1.6298610506154798,-1.970690802066835,1.17376234234025,18.517399,-2.5159175,-3.822397,2.335318,3.7270792,-3.5745595,1.9234236,-0.3118007,0.22348393,0.09149154,-0.91894734,-8.10759,9.975074,0.32620665,-2.1085153,-1.4789546,0.9467336,0
1.6700000000000013,13.289403732727521,-1.6298610506154798,-1.970690802066835,1.17376234234025,18.517399,-2.5159175,-3.822397,2.335318,3.645692,-3.4748316,1.9267821,-0.30438712,0.22015038,0.102296814,-0.92109567,-8.169775,9.969969,0.34543937,-2.033811,-1.5556092,0.95787394,0
1.6800000000000013,13.118132240903485,-0.9211604467895981,-2.2701690572812923,0.8845244514631517,18.165752,-2.2039552,-3.7626464,1.9207826,3.5636835,-3.375172,1.9303321,-0.29690635,0.2163518,0.112861946,-0.92320114,-8.231894,9.961463,0.36450928,-1.9707638,-1.6203154,0.9684676,0
1.6900000000000013,13.118132240903485,-0.9211604467895981,-2.2701690572812923,0.8845244514631517,18.165752,-2.2039552,-3.7626464,1.9207826,3.481059,-3.2756133,1.9340644,-0.28943238,0.21195988,0.12299663,-0.92529637,-8.292959,9.94974,0.38191327,-1.8070194,-1.7215515,0.9643485,0
1.7000000000000013,13.118132240903485,-0.9211604467895981,-2.2701690572812923,0.8845244514631517,18.165752,-2.2039552,-3.7626464,1.9207826,3.397826,-3.1761882,1.93797,-0.28202766,0.20687848,0.13255157,-0.9274111,-8.353529,9.934776,0.39920405,-1.668821,-1.8070171,0.9604315,0
1.7100000000000013,13.118132240903485,-0.9211604467895981,-2.2701690572812923,0.8845244514631517,18.165752,-2.2039552,-3.7626464,1.9207826,3.3139908,-3.0769286,1.9420482,-0.27467105,0.20121448,0.14160882,-0.9295241,-8.413364,9.916665,0.41642758,-1.5521833,-1.8791687,0.95670676,0
1.7200000000000013,12.620824387595992,-0.27529553853046446,-2.4641036000348278,0.5431818840662617,16.989563,-1.4502853,-3.2987394,1.1084156,3.229562,-2.9778655,1.9462984,-0.26734528,0.1950574,0.15023804,-0.93161535,-8.472256,9.895497,0.43361622,-1.453742,-1.9400803,0.95316476,0
1.7300000000000013,12.620824387595992,-0.27529553853046446,-2.4641036000348278,0.5431818840662617,16.989563,-1.4502853,-3.2987394,1.1084156,3.1445608,-2.8790243,1.9506985,-0.2601142,0.1883355,0.15828614,-0.9337105,-8.527821,9.872279,0.4464268,-1.2699397,-2.0216706,0.9330468,0
1.7400000000000013,12.620824387595992,-0.27529553853046446,-2.4641036000348278,0.5431818840662617,16.989563,-1.4502853,-3.2987394,1.1084156,3.0590103,-2.7804291,1.955227,-0.25303197,0.18099655,0.16563508,-0.935831,-8.582074,9.846343,0.45928484,-1.1148096,-2.0905597,0.913916,0
1.7500000000000013,12.620824387595992,-0.27529553853046446,-2.4641036000348278,0.5431818840662617,16.989563,-1.4502853,-3.2987394,1.1084156,2.9729247,-2.6821065,1.9598846,-0.2460731,0.1731357,0.17238674,-0.9379522,-8.634809,9.817832,0.47224364,-0.9838788,-2.148724,0.895724,0
1.7600000000000013,12.2064511969954,0.28329133765777914,-2.234884704540258,0.20787324846822022,16.309889,-1.2034181,-3.1362176,0.8267457,2.88632,-2.5840812,1.9646724,-0.23921643,0.16483264,0.17862725,-0.9400518,-8.6858425,9.786874,0.48534086,-0.87337184,-2.197833,0.8784247,0
1.7700000000000014,12.2064511969954,0.28329133765777914,-2.234884704540258,0.20787324846822022,16.309889,-1.2034181,-3.1362176,0.8267457,2.7992222,-2.4863715,1.9695736,-0.23253669,0.15618043,0.18420458,-0.9421265,-8.733407,9.75469,0.4949482,-0.69303495,-2.203493,0.84552056,0
1.7800000000000014,12.2064511969954,0.28329133765777914,-2.234884704540258,0.20787324846822022,16.309889,-1.2034181,-3.1362176,0.8267457,2.7116585,-2.3889945,1.974572,-0.2260978,0.14725737,0.18900369,-0.9441779,-8.779043,9.7204485,0.5047555,-0.5408199,-2.2082937,0.81423104,0
1.7900000000000014,12.2064511969954,0.28329133765777914,-2.234884704540258,0.20787324846822022,16.309889,-1.2034181,-3.1362176,0.8267457,2.6236484,-2.291969,1.9796697,-0.21986908,0.13810466,0.19314167,-0.9461925,-8.822637,9.684338,0.5147978,-0.41234094,-2.2123644,0.78447694,0
1.8000000000000014,11.86791038264131,0.6246244910853324,-1.7911650747162877,-0.08351109108829562,16.846188,-0.9687714,-3.271863,0.68026876,2.5352132,-2.1953135,1.9848689,-0.21382451,0.12875652,0.19671725,-0.9481574,-8.864088,9.646521,0.5250989,-0.30389664,-2.2158155,0.75618285,0
1.8100000000000014,11.86791038264131,0.6246244910853324,-1.7911650747162877,-0.08351109108829562,16.846188,-0.9687714,-3.271863,0.68026876,2.44638,-2.0990384,1.9901576,-0.20802899,0.11937415,0.19965136,-0.9500592,-8.902232,9.608245,0.53266,-0.15918474,-2.149516,0.7149788,0
1.8200000000000014,11.86791038264131,0.6246244910853324,-1.7911650747162877,-0.08351109108829562,16.846188,-0.9687714,-3.271863,0.68026876,2.3571758,-2.003153,1.9955232,-0.20253794,0.11008732,0.20188782,-0.9518928,-8.938186,9.568655,0.54050416,-0.037029818,-2.0935733,0.6757967,0
1.8300000000000014,11.86791038264131,0.6246244910853324,-1.7911650747162877,-0.08351109108829562,16.846188,-0.9687714,-3.271863,0.68026876,2.2676237,-1.9076693,2.0009687,-0.19731814,0.100879565,0.20353386,-0.9536573,-8.971936,9.527937,0.5486452,0.06608443,-2.046369,0.6385373,0
1.8400000000000014,11.86791038264131,0.6246244910853324,-1.7911650747162877,-0.08351109108829562,16.338879,-1.0295693,-3.1227784,0.74528664,2.1777449,-1.8125976,2.0064971,-0.19234103,0.09173658,0.20467961,-0.95535076,-9.003472,9.48625,0.557091,0.15312546,-2.0065374,0.6031061,0
1.8500000000000014,11.86791038264131,0.6246244910853324,-1.7911650747162877,-0.08351109108829562,16.338879,-1.0295693,-3.1227784,0.74528664,2.0875618,-1.7179471,2.012112,-0.18758206,0.082646035,0.2054009,-0.95697045,-9.032784,9.443734,0.56584376,0.22659893,-1.9729264,0.5694136,0
1.8600000000000014,11.86791038264131,0.6246244910853324,-1.7911650747162877,-0.08351109108829562,16.338879,-1.0295693,-3.1227784,0.74528664,1.9970968,-1.6237254,2.0178154,-0.18302004,0.0735974,0.20576142,-0.9585138,-9.059865,9.400511,0.5749008,0.28861967,-1.9445636,0.53737444,0
1.8700000000000014,11.86791038264131,0.6246244910853324,-1.7911650747162877,-0.08351109108829562,16.338879,-1.0295693,-3.1227784,0.74528664,1.9063722,-1.5299389,2.0236108,-0.17863664,0.064581744,0.20581473,-0.9599781,-9.084708,9.356684,0.58425486,0.34097266,-1.9206297,0.50690746,0
1.8800000000000014,11.482028607018028,0.7352250698729227,-1.2942679750839883,-0.3146103488684983,15.052869,-0.85710424,-2.2812781,0.2796726,1.8154103,-1.4365934,2.0295014,-0.174416,0.055591572,0.2056059,-0.9613607,-9.107308,9.312347,0.59389454,0.38516554,-1.9004327,0.47793546,0
1.8900000000000015,11.482028607018028,0.7352250698729227,-1.2942679750839883,-0.3146103488684983,15.052869,-0.85710424,-2.2812781,0.2796726,1.724237,-1.3436862,2.0354722,-0.17041512,0.04679843,0.20509762,-0.9626542,-9.127009,9.269045,0.6002937,0.4396818,-1.8058956,0.439045,0
1.9000000000000015,11.482028607018028,0.7352250698729227,-1.2942679750839883,-0.3146103488684983,15.052869,-0.85710424,-2.2812781,0.2796726,1.6328773,-1.2512136,2.041508,-0.1666822,0.038337927,0.20426396,-0.96385837,-9.144601,9.225441,0.6069434,0.48570713,-1.7261059,0.40206292,0
1.9100000000000015,11.482028607018028,0.7352250698729227,-1.2942679750839883,-0.3146103488684983,15.052869,-0.85710424,-2.2812781,0.2796726,1.541352,-1.159178,2.0476115,-0.16319215,0.030155748,0.20315464,-0.9649801,-9.160148,9.181636,0.61383283,0.5245635,-1.6587629,0.36689556,0
1.9200000000000015,11.074109822355348,0.6819415156329892,-0.8652305088026533,-0.4912503549963553,13.920228,-0.7205414,-1.3658215,0.0124008525,1.4496813,-1.0675812,2.0537853,-0.15992303,0.022206046,0.20181137,-0.9660244,-9.173705,9.137717,0.6209503,0.55736744,-1.6019244,0.33345386,0
1.9300000000000015,11.074109822355348,0.6819415156329892,-0.8652305088026533,-0.4912503549963553,13.920228,-0.7205414,-1.3658215,0.0124008525,1.3578867,-0.976416,2.0600126,-0.15691105,0.014615094,0.20026305,-0.9669848,-9.184917,9.095323,0.62453765,0.57673043,-1.4870483,0.2929854,0
1.9400000000000015,11.074109822355348,0.6819415156329892,-0.8652305088026533,-0.4912503549963553,13.920228,-0.7205414,-1.3658215,0.0124008525,1.265989,-0.8856746,2.0662766,-0.15418668,0.0074806027,0.19853531,-0.96786046,-9.19436,9.052965,0.62832004,0.59308463,-1.3900878,0.2545027,0
1.9500000000000015,11.074109822355348,0.6819415156329892,-0.8652305088026533,-0.4912503549963553,13.920228,-0.7205414,-1.3658215,0.0124008525,1.1740052,-0.7953563,2.0725796,-0.15172403,0.0007284448,0.19665568,-0.96866167,-9.20213,9.010709,0.6322858,0.60689694,-1.3082489,0.21790841,0
1.9600000000000015,10.68752654613674,0.5446438577983999,-0.3038923843789227,-0.5924969782919155,13.301241,-0.6752619,-0.87792355,-0.11384164,1.0819517,-0.7054599,2.078923,-0.14950024,-0.0057038646,0.194647,-0.9693964,-9.20831,8.968608,0.63642466,0.6185621,-1.2391729,0.18310978,0
1.9700000000000015,10.68752654613674,0.5446438577983999,-0.3038923843789227,-0.5924969782919155,13.301241,-0.6752619,-0.87792355,-0.11384164,0.989845,-0.61597615,2.0852907,-0.14755148,-0.0116454,0.19254827,-0.97006077,-9.212819,8.928173,0.637152,0.60698986,-1.0933329,0.14505054,0
1.9800000000000015,10.68752654613674,0.5446438577983999,-0.3038923843789227,-0.5924969782919155,13.301241,-0.6752619,-0.87792355,-0.11384164,0.89769983,-0.52689564,2.0916665,-0.1459067,-0.016963627,0.19039232,-0.9706566,-9.2160015,8.887977,0.638028,0.5972324,-0.9702352,0.10885887,0
1.9900000000000015,10.68752654613674,0.5446438577983999,-0.3038923843789227,-0.5924969782919155,13.301241,-0.6752619,-0.87792355,-0.11384164,0.805529,-0.4382157,2.0980515,-0.144537,-0.021758756,0.188188,-0.9711955,-9.217991,8.848052,0.63904583,0.5890043,-0.86633325,0.07444314,0
2.0000000000000013,,,,,12.558742,-0.73061115,-0.49261925,-0.2284673,0.71334374,-0.34993353,2.1044474,-0.14341708,-0.026115246,0.18594247,-0.9716866,-9.218898,8.808432,0.64020085,0.5820653,-0.77863353,0.0417162,0
2.010000000000001,,,,,12.558742,-0.73061115,-0.49261925,-0.2284673,0.62115437,-0.26203996,2.1108406,-0.14256759,-0.029901111,0.18369077,-0.9721307,-9.218829,8.770337,0.638456,0.5529426,-0.62627685,0.008979073,0
2.020000000000001,,,,,12.558742,-0.73061115,-0.49261925,-0.2284673,0.5289699,-0.17452565,2.117217,-0.14200354,-0.033015408,0.18146133,-0.97253114,-9.217953,8.732578,0.63683933,0.5283681,-0.49767846,-0.022151643,0
2.0300000000000007,,,,,12.558742,-0.73061115,-0.49261925,-0.2284673,0.4367976,-0.087387174,2.123578,-0.14169632,-0.03556549,0.17925037,-0.97289604,-9.216408,8.69517,0.63535106,0.5076311,-0.38913345,-0.051754765,0
2.0400000000000005,,,,,12.558742,-0.73061115,-0.49261925,-0.2284673,0.34464362,-0.0006209854,2.1299248,-0.141621,-0.037641816,0.17705448,-0.973231,-9.214311,8.658126,0.6339924,0.49013153,-0.2975148,-0.07990526,0
2.0500000000000003,,,,,11.954068,-0.94203514,-0.24261065,-0.3336574,0.25251296,0.08577663,2.1362586,-0.14175573,-0.039320584,0.17487055,-0.9735398,-9.211759,8.621454,0.63276505,0.47536373,-0.22018334,-0.10667441,1
2.06,,,,,11.954068,-0.94203514,-0.24261065,-0.3336574,0.16041195,0.17178142,2.1426551,-0.14203694,-0.040755603,0.17324364,-0.9737307,-9.2083845,8.579558,0.64657253,0.25431934,-0.2236675,-0.11781253,1
2.07,,,,,11.954068,-0.94203514,-0.24261065,-0.3336574,0.06834649,0.2573686,2.1491902,-0.14240919,-0.04207108,0.17260624,-0.97373354,-9.204658,8.537896,0.66045624,0.06774676,-0.2266079,-0.1284041,1
2.0799999999999996,,,,,11.954068,-0.94203514,-0.24261065,-0.3336574,-0.0236802,0.3425394,2.1558642,-0.14286518,-0.043286353,0.17280392,-0.9735784,-9.200641,8.496262,0.67434025,-0.08972985,-0.22908986,-0.13847592,1
2.0899999999999994,,,,,11.40286,-1.0365369,-0.2182538,-0.44798473,-0.1156655,0.4272933,2.1626768,-0.14339803,-0.04441766,0.17370595,-0.9732885,-9.196385,8.45448,0.6881609,-0.22264795,-0.23118524,-0.14805353,1
2.099999999999999,,,,,11.40286,-1.0365369,-0.2182538,-0.44798473,-0.20760828,0.5116377,2.1696012,-0.1440185,-0.045466192,0.17523657,-0.97287405,-9.192145,8.414344,0.69670826,-0.34957564,-0.22915307,-0.16277124,1
2.109999999999999,,,,,11.40286,-1.0365369,-0.2182538,-0.44798473,-0.29950795,0.59557873,2.1766107,-0.14473622,-0.046433907,0.17732973,-0.97234243,-9.187769,8.373797,0.7050949,-0.45670882,-0.22743775,-0.17676675,1
2.1199999999999988,,,,,11.40286,-1.0365369,-0.2182538,-0.44798473,-0.39136332,0.67911184,2.1837027,-0.1455435,-0.04733439,0.17989641,-0.9717068,-9.183294,8.332731,0.7132776,-0.5471344,-0.22599043,-0.19007549,1
2.1299999999999986,,,,,10.892773,-0.9298038,-0.0358059,-0.45595813,-0.4831736,0.76223135,2.1908755,-0.14643332,-0.0481791,0.1828615,-0.97097784,-9.178758,8.291052,0.7212183,-0.623458,-0.22476928,-0.20273118,1
2.1399999999999983,,,,,10.892773,-0.9298038,-0.0358059,-0.45595813,-0.57493937,0.84494,2.1981027,-0.14741157,-0.048913244,0.1861093,-0.9701757,-9.174396,8.250579,0.7241532,-0.67123,-0.1952887,-0.21515709,1
2.149999999999998,,,,,10.892773,-0.9298038,-0.0358059,-0.45595813,-0.6666615,0.9272405,2.2053578,-0.1484826,-0.04949406,0.18954484,-0.96931744,-9.170047,8.209405,0.7268051,-0.7115523,-0.1704063,-0.22697327,1
2.159999999999998,,,,,10.892773,-0.9298038,-0.0358059,-0.45595813,-0.7583405,1.0091256,2.212638,-0.14963818,-0.04994659,0.19313757,-0.9684069,-9.165753,8.167499,0.7291574,-0.74558645,-0.14940505,-0.2382096,1
2.1699999999999977,,,,,10.325884,-0.66060835,0.20378523,-0.38343236,-0.8499769,1.0905879,2.21994,-0.15087089,-0.050291944,0.19686164,-0.9674474,-9.161551,8.124837,0.73119473,-0.7743132,-0.13167948,-0.24889459,1
2.1799999999999975,,,,,10.325884,-0.66060835,0.20378523,-0.38343236,-0.94157296,1.1716309,2.2272348,-0.15217906,-0.050469715,0.2005771,-0.9664696,-9.157687,8.083666,0.7277112,-0.7565728,-0.07936353,-0.25549638,1
2.1899999999999973,,,,,10.325884,-0.66060835,0.20378523,-0.38343236,-1.0331311,1.2522587,2.2344933,-0.15356004,-0.05043297,0.20417221,-0.9654998,-9.153985,8.041785,0.7239225,-0.74160004,-0.03520618,-0.2617742,1
