time-since-start [s],throttle_mpc,roll_mpc,pitch_mpc,yaw_mpc,throttle_nw,roll_nw,pitch_nw,yaw_nw,position_x [m],position_y [m],position_z [m],rotation_w [quaternion],rotation_x [quaternion],rotation_y [quaternion],rotation_z [quaternion],velocity_x [m/s],velocity_y [m/s],velocity_z [m/s],omega_x [rad/s],omega_y [rad/s],omega_z [rad/s],network_used
0.0,7.798953771300024,5.999999540283251,-5.999999909782415,-5.130419931124068,8.772088,-0.23317006,-3.279546,-0.6245509,18.724861,-9.577698,1.9181669,-0.034169633,0.39878064,-0.14949742,-0.90413326,-11.772057,-0.9804559,-0.24686976,1.2901868,0.08155303,-0.012028043,0
0.01,7.798953771300024,5.999999540283251,-5.999999909782415,-5.130419931124068,15.53947,-1.7456188,-5.3807745,1.4978967,18.606527,-9.587242,1.9157578,-0.037037928,0.39875296,-0.15489599,-0.9031232,-11.8943405,-0.9284459,-0.23545901,1.1834828,-0.025794132,-0.17545706,0
0.02,7.798953771300024,5.999999540283251,-5.999999909782415,-5.130419931124068,15.53947,-1.7456188,-5.3807745,1.4978967,18.486986,-9.596264,1.9134468,-0.040515095,0.3984068,-0.15950675,-0.9023237,-12.013203,-0.8758129,-0.22724721,1.0938984,-0.116876654,-0.33483848,0
0.03,7.798953771300024,5.999999540283251,-5.999999909782415,-5.130419931124068,15.53947,-1.7456188,-5.3807745,1.4978967,18.366274,-9.604757,1.9112028,-0.044604223,0.39781055,-0.1634108,-0.9016952,-12.128644,-0.8227606,-0.22200404,1.018679,-0.19414665,-0.49027258,0
0.04,7.798953771300024,5.999999540283251,-5.999999909782415,-5.130419931124068,10.274491,-0.23500058,-4.19182,-0.24629046,18.244423,-9.612719,1.9089973,-0.04930497,0.39702025,-0.16667733,-0.9012007,-12.240716,-0.76944274,-0.21950115,0.9560259,-0.2602003,-0.6418133,0
0.05,7.798953771300024,5.999999540283251,-5.999999909782415,-5.130419931124068,10.274491,-0.23500058,-4.19182,-0.24629046,18.121468,-9.620144,1.9068072,-0.05462947,0.3960516,-0.16939317,-0.90081346,-12.350342,-0.7155571,-0.21875736,0.9181159,-0.3309375,-0.78835744,0
0.060000000000000005,7.798953771300024,5.999999540283251,-5.999999909782415,-5.130419931124068,10.274491,-0.23500058,-4.19182,-0.24629046,17.997425,-9.6270275,1.9046178,-0.060617264,0.39485243,-0.17168927,-0.9005221,-12.457845,-0.6610256,-0.21933283,0.9078138,-0.41236353,-0.92965096,0
0.07,7.798953771300024,5.999999540283251,-5.999999909782415,-5.130419931124068,10.274491,-0.23500058,-4.19182,-0.24629046,17.872318,-9.633364,1.9024163,-0.06730519,0.39336443,-0.17368592,-0.9003154,-12.563099,-0.60593414,-0.2211739,0.92151034,-0.5035151,-1.066014,0
0.08,8.775943882294886,5.999999770111317,-5.999999945641118,-5.220609601901405,12.148838,0.5168544,-4.6880364,-0.52237356,17.74617,-9.639145,1.9001902,-0.074723534,0.3915319,-0.17548653,-0.90017986,-12.665974,-0.5503339,-0.22422116,0.95603794,-0.60345626,-1.1977402,0
0.09,8.775943882294886,5.999999770111317,-5.999999945641118,-5.220609601901405,12.148838,0.5168544,-4.6880364,-0.52237356,17.618979,-9.644353,1.8979548,-0.082928956,0.38927057,-0.17720254,-0.9001059,-12.772041,-0.49105525,-0.22306497,1.0223969,-0.72509784,-1.3307562,0
0.09999999999999999,8.775943882294886,5.999999770111317,-5.999999945641118,-5.220609601901405,12.148838,0.5168544,-4.6880364,-0.52237356,17.490738,-9.648965,1.8957251,-0.09197159,0.38649887,-0.17893091,-0.9000799,-12.875248,-0.43127054,-0.22306512,1.104045,-0.8534555,-1.4595387,0
0.10999999999999999,8.775943882294886,5.999999770111317,-5.999999945641118,-5.220609601901405,12.148838,0.5168544,-4.6880364,-0.52237356,17.361483,-9.652976,1.8934898,-0.101863556,0.38316905,-0.18073328,-0.9000783,-12.97542,-0.37095213,-0.22413477,1.1988382,-0.9877235,-1.5843168,0
0.11999999999999998,8.775943882294886,5.999999770111317,-5.999999945641118,-5.220609601901405,12.148838,0.5168544,-4.6880364,-0.52237356,17.231241,-9.656383,1.891239,-0.11261219,0.37923563,-0.18266073,-0.9000745,-13.072382,-0.31006676,-0.22618666,1.30489,-1.1271433,-1.7053021,0
0.12999999999999998,11.349571458515644,5.999999912893609,-5.99999998218247,-4.691453488762354,11.433692,0.3685083,-4.636436,-0.80051136,17.100046,-9.659177,1.8889631,-0.12422028,0.37465492,-0.18475486,-0.90003824,-13.165952,-0.248581,-0.22913417,1.4205383,-1.271005,-1.8226888,0
0.13999999999999999,11.349571458515644,5.999999912893609,-5.99999998218247,-4.691453488762354,11.433692,0.3685083,-4.636436,-0.80051136,16.967897,-9.661327,1.8866932,-0.13685885,0.36900324,-0.18734103,-0.90000546,-13.263389,-0.18129039,-0.22504932,1.6875273,-1.5621884,-1.9234986,0
0.15,11.349571458515644,5.999999912893609,-5.99999998218247,-4.691453488762354,11.433692,0.3685083,-4.636436,-0.80051136,16.834797,-9.662802,1.8844582,-0.15067054,0.36189443,-0.19069183,-0.89998204,-13.356143,-0.113441065,-0.22210054,1.9480634,-1.8431932,-2.0225096,0
0.16,13.86625369220307,5.999999965972657,-6.0,-3.883043893358395,13.118167,4.106469,-6.6341586,0.065152094,16.700792,-9.663593,1.8822479,-0.16561002,0.3533402,-0.19476122,-0.89988464,-13.443861,-0.044874974,-0.22008,2.2022762,-2.1147258,-2.1197312,0
0.17,13.86625369220307,5.999999965972657,-6.0,-3.883043893358395,13.118167,4.106469,-6.6341586,0.065152094,16.565914,-9.663677,1.880081,-0.18182515,0.34284192,-0.19985558,-0.89969826,-13.530564,0.02823383,-0.21349189,2.6309068,-2.5584567,-2.1916606,0
0.18000000000000002,13.86625369220307,5.999999965972657,-6.0,-3.883043893358395,13.118167,4.106469,-6.6341586,0.065152094,16.430204,-9.663027,1.8779743,-0.19942527,0.3299439,-0.20621759,-0.89935595,-13.610534,0.101988405,-0.2080251,3.03579,-2.9760952,-2.2639146,0
0.19000000000000003,13.86625369220307,5.999999965972657,-6.0,-3.883043893358395,13.118167,4.106469,-6.6341586,0.065152094,16.293732,-9.661635,1.8759174,-0.21830216,0.31471315,-0.21370693,-0.89868206,-13.683247,0.17651398,-0.20343883,3.4187884,-3.3698678,-2.3363125,0
0.20000000000000004,16.608122659820022,5.999999979453267,-6.0,-3.134675527570454,14.473677,3.2668378,-7.6428514,-0.2072924,16.156569,-9.659494,1.8739029,-0.23834363,0.29720962,-0.22218722,-0.89749205,-13.74822,0.2518181,-0.19957566,3.781603,-3.741784,-2.4086945,0
0.21000000000000005,16.608122659820022,5.999999979453267,-6.0,-3.134675527570454,14.473677,3.2668378,-7.6428514,-0.2072924,16.01874,-9.656524,1.872021,-0.25936076,0.27744797,-0.2315639,-0.89561886,-13.81615,0.34273404,-0.17644745,4.1269135,-4.0945888,-2.4443188,0
0.22000000000000006,16.608122659820022,5.999999979453267,-6.0,-3.134675527570454,14.473677,3.2668378,-7.6428514,-0.2072924,15.880275,-9.65263,1.8703821,-0.28109214,0.25558725,-0.24166486,-0.8928946,-13.875301,0.43658215,-0.15098007,4.4184504,-4.392298,-2.4781947,0
0.23000000000000007,16.608122659820022,5.999999979453267,-6.0,-3.134675527570454,14.473677,3.2668378,-7.6428514,-0.2072924,15.741266,-9.647783,1.8690091,-0.3033289,0.2318813,-0.25226545,-0.88914853,-13.924786,0.5330316,-0.12329081,4.66459,-4.643513,-2.5104082,0
0.24000000000000007,16.608122659820022,5.999999979453267,-6.0,-3.134675527570454,14.973093,3.5500782,-7.603741,-0.08653231,15.601815,-9.641962,1.8679231,-0.3258833,0.20655805,-0.26317382,-0.8842363,-13.963821,0.63161635,-0.09359993,4.872403,-4.8554935,-2.541041,0
0.25000000000000006,16.608122659820022,5.999999979453267,-6.0,-3.134675527570454,14.973093,3.5500782,-7.603741,-0.08653231,15.4620285,-9.635147,1.8671428,-0.348586,0.17982414,-0.27422592,-0.8780385,-13.991737,0.7317551,-0.062218525,5.0478606,-5.034365,-2.5701709,0
0.26000000000000006,16.608122659820022,5.999999979453267,-6.0,-3.134675527570454,14.973093,3.5500782,-7.603741,-0.08653231,15.322021,-9.627325,1.8666832,-0.37128395,0.15186843,-0.2852814,-0.87045914,-14.007977,0.83277,-0.029536132,5.1960006,-5.185297,-2.597871,0
0.2700000000000001,16.608122659820022,5.999999979453267,-6.0,-3.134675527570454,14.973093,3.5500782,-7.603741,-0.08653231,15.1819105,-9.618491,1.8665551,-0.39383858,0.12286477,-0.29622003,-0.8614229,-14.012106,0.9339048,0.003991479,5.321078,-5.312652,-2.6242123,0
0.2800000000000001,20.999999090924252,5.999999965077628,-5.999999987922158,-2.2356434508486256,15.384521,3.2295284,-7.244578,-0.24785323,15.0418215,-9.608649,1.8667642,-0.41612393,0.09297397,-0.3069388,-0.8508734,-14.003816,1.0343423,0.037854336,5.4266834,-5.4201126,-2.6492608,0
0.2900000000000001,20.999999090924252,5.999999965077628,-5.999999987922158,-2.2356434508486256,15.384521,3.2295284,-7.244578,-0.24785323,14.901903,-9.597678,1.8674856,-0.43793163,0.06231133,-0.31735924,-0.8388186,-13.9774,1.1593677,0.10633862,5.516009,-5.5106263,-2.6289647,0
0.3000000000000001,20.999999090924252,5.999999965077628,-5.999999987922158,-2.2356434508486256,15.384521,3.2295284,-7.244578,-0.24785323,14.762328,-9.585472,1.8688875,-0.4590732,0.030983187,-0.32741162,-0.82528406,-13.934983,1.2812971,0.17380688,5.591427,-5.5870023,-2.6096642,0
0.3100000000000001,20.999999090924252,5.999999965077628,-5.999999987922158,-2.2356434508486256,15.384521,3.2295284,-7.244578,-0.24785323,14.623257,-9.572067,1.8709556,-0.47946805,-0.0008781906,-0.33702537,-0.81026155,-13.876657,1.3989924,0.2394873,5.6551023,-5.6514497,-2.5913112,0
0.3200000000000001,20.99999990492761,5.288777887603461,-5.999993317000493,-0.5053751013715926,15.217389,2.9148638,-6.5349793,0.023251582,14.484848,-9.557511,1.8736682,-0.49904373,-0.03314847,-0.34613967,-0.79375315,-13.802669,1.5113195,0.3025895,5.7088623,-5.705832,-2.5738585,0
0.3300000000000001,20.99999990492761,5.288777887603461,-5.999993317000493,-0.5053751013715926,15.217389,2.9148638,-6.5349793,0.023251582,14.347257,-9.541864,1.8769957,-0.51758236,-0.06564113,-0.35447207,-0.7759829,-13.713441,1.6171577,0.36233228,5.6436543,-5.751223,-2.4723575,0
0.34000000000000014,20.99999990492761,5.288777887603461,-5.999993317000493,-0.5053751013715926,15.217389,2.9148638,-6.5349793,0.023251582,14.210629,-9.525195,1.880901,-0.53491116,-0.09819977,-0.3618018,-0.7571833,-13.609652,1.7153978,0.41803244,5.588614,-5.7895775,-2.3758373,0
0.35000000000000014,20.99999990492761,5.288777887603461,-5.999993317000493,-0.5053751013715926,15.217389,2.9148638,-6.5349793,0.023251582,14.07511,-9.5075865,1.8853402,-0.5510307,-0.13075434,-0.36816266,-0.7373771,-13.492123,1.8050033,0.46904784,5.5421524,-5.821988,-2.2840533,0
0.36000000000000015,20.999999728700786,3.6437470727394965,-3.72878124558507,0.20262346505557233,13.686431,2.1330671,-5.4196362,0.5470951,13.940831,-9.489128,1.8902637,-0.5659411,-0.16323783,-0.3735827,-0.71658945,-13.36176,1.885031,0.5147491,5.5029306,-5.849376,-2.1967733,0
0.37000000000000016,20.999999728700786,3.6437470727394965,-3.72878124558507,0.20262346505557233,13.686431,2.1330671,-5.4196362,0.5470951,13.807916,-9.46992,1.895615,-0.57936996,-0.19460368,-0.37813458,-0.6953232,-13.219614,1.9547093,0.5545561,5.2138906,-5.517855,-2.0790343,0
0.38000000000000017,20.999999728700786,3.6437470727394965,-3.72878124558507,0.20262346505557233,13.686431,2.1330671,-5.4196362,0.5470951,13.676475,-9.450069,1.9013332,-0.5911822,-0.22405477,-0.3819455,-0.6741077,-13.067125,2.0138195,0.5881145,4.969789,-5.238156,-1.9670727,0
0.3900000000000002,20.999999728700786,3.6437470727394965,-3.72878124558507,0.20262346505557233,13.686431,2.1330671,-5.4196362,0.5470951,13.546604,-9.42968,1.907355,-0.60155696,-0.25186956,-0.3851008,-0.6529845,-12.905718,2.0623736,0.6152057,4.7636437,-5.002174,-1.8606051,0
0.4000000000000002,20.643484645671496,1.6320675387371948,-1.0922287093822791,0.7940859580406218,13.609514,1.1689081,-3.0492544,1.0290017,13.418386,-9.408857,1.9136145,-0.6106424,-0.2782826,-0.3876648,-0.631974,-12.736663,2.1004264,0.6356664,4.589555,-4.8030744,-1.759362,0
0.4100000000000002,20.643484645671496,1.6320675387371948,-1.0922287093822791,0.7940859580406218,13.609514,1.1689081,-3.0492544,1.0290017,13.291879,-9.387709,1.9200355,-0.61835337,-0.30237406,-0.38982084,-0.6117591,-12.56413,2.1276922,0.64752525,4.129348,-4.2235036,-1.6340635,0
0.4200000000000002,20.643484645671496,1.6320675387371948,-1.0922287093822791,0.7940859580406218,13.609514,1.1689081,-3.0492544,1.0290017,13.167123,-9.366335,1.9265431,-0.62470645,-0.32347816,-0.39177522,-0.5929726,-12.386523,2.145593,0.65306014,3.7407105,-3.734477,-1.5149134,0
0.4300000000000002,20.643484645671496,1.6320675387371948,-1.0922287093822791,0.7940859580406218,13.609514,1.1689081,-3.0492544,1.0290017,13.044164,-9.344826,1.9330761,-0.62993664,-0.34211326,-0.39358738,-0.57552415,-12.204937,2.155037,0.65265334,3.4125226,-3.3218427,-1.4016101,0
0.4400000000000002,20.643484645671496,1.6320675387371948,-1.0922287093822791,0.7940859580406218,12.734178,-0.13581285,-0.046679974,0.6358003,12.923036,-9.323261,1.9395771,-0.63422763,-0.3587104,-0.3952924,-0.55930924,-12.020223,2.1568308,0.6466719,3.1353896,-2.9736612,-1.2938666,0
0.45000000000000023,20.643484645671496,1.6320675387371948,-1.0922287093822791,0.7940859580406218,12.734178,-0.13581285,-0.046679974,0.6358003,12.803768,-9.301714,1.9459916,-0.6377245,-0.3736274,-0.39690876,-0.54421896,-11.833048,2.1516817,0.63545483,2.9013746,-2.6798608,-1.1914102,0
0.46000000000000024,20.643484645671496,1.6320675387371948,-1.0922287093822791,0.7940859580406218,12.734178,-0.13581285,-0.046679974,0.6358003,12.686382,-9.280251,1.9522692,-0.6405425,-0.38716087,-0.39844415,-0.530146,-11.643938,2.140204,0.61930805,2.7037742,-2.4319446,-1.0939814,0
0.47000000000000025,20.643484645671496,1.6320675387371948,-1.0922287093822791,0.7940859580406218,12.734178,-0.13581285,-0.046679974,0.6358003,12.570894,-9.258931,1.9583619,-0.64277416,-0.3995565,-0.39989948,-0.5169885,-11.453312,2.1229298,0.5985022,2.5369263,-2.2227442,-1.0013335,0
0.48000000000000026,17.937204154374076,-0.10247912771469522,1.0010514083443531,1.1646500831214797,13.028215,-0.41718557,0.81814957,0.22994594,12.45732,-9.237811,1.9642242,-0.64449435,-0.41101772,-0.4012714,-0.5046518,-11.261504,2.100316,0.5732741,2.3960474,-2.0462112,-0.91323173,0
0.49000000000000027,17.937204154374076,-0.10247912771469522,1.0010514083443531,1.1646500831214797,13.028215,-0.41718557,0.81814957,0.22994594,12.345542,-9.216923,1.9697676,-0.6456989,-0.42086846,-0.40273294,-0.49371,-11.094058,2.076443,0.5348736,2.0067925,-1.5706259,-0.8112695,0
0.5000000000000002,17.937204154374076,-0.10247912771469522,1.0010514083443531,1.1646500831214797,13.028215,-0.41718557,0.81814957,0.22994594,12.235442,-9.196293,1.9749107,-0.64641285,-0.42860624,-0.40443972,-0.48464042,-10.92604,2.0491278,0.49330875,1.6781399,-1.1692933,-0.7143105,0
0.5100000000000002,17.937204154374076,-0.10247912771469522,1.0010514083443531,1.1646500831214797,13.028215,-0.41718557,0.81814957,0.22994594,12.127024,-9.17595,1.9796245,-0.6467216,-0.43461177,-0.4063556,-0.47722062,-10.7575865,2.019179,0.44906032,1.400662,-0.83061516,-0.6221094,0
0.5200000000000002,16.845860831956376,-2.1236751834641954,3.067679762897172,1.88463954068049,14.827464,-1.6304531,2.7748609,0.7572263,12.020291,-9.155917,1.9838841,-0.6466874,-0.43919712,-0.40844256,-0.47125,-10.588779,1.9872789,0.40253824,1.1663958,-0.5448056,-0.53443253,0
0.5300000000000002,16.845860831956376,-2.1236751834641954,3.067679762897172,1.88463954068049,14.827464,-1.6304531,2.7748609,0.7572263,11.915196,-9.1362,1.9876536,-0.64633393,-0.44174522,-0.41078106,-0.46730408,-10.429952,1.956099,0.35111988,0.6535082,0.018790826,-0.415728,0
0.5400000000000003,16.845860831956376,-2.1236751834641954,3.067679762897172,1.88463954068049,14.827464,-1.6304531,2.7748609,0.7572263,11.811692,-9.1167965,1.9909027,-0.64567554,-0.44178647,-0.41342902,-0.46583772,-10.270848,1.9246216,0.29855397,0.22050227,0.49439856,-0.3028483,0
0.5500000000000003,16.845860831956376,-2.1236751834641954,3.067679762897172,1.88463954068049,14.827464,-1.6304531,2.7748609,0.7572263,11.709781,-9.097706,1.9936229,-0.64472896,-0.43974477,-0.41631347,-0.46651113,-10.11147,1.8937676,0.2454536,-0.14505255,0.8957635,-0.19550768,0
0.5600000000000003,19.453278922123236,-5.78716651950698,5.99999271933903,1.7712578851150864,16.795216,-2.709293,3.959328,1.1475947,11.609465,-9.078916,1.9958116,-0.6434947,-0.4359656,-0.41936404,-0.46902323,-9.951821,1.8643184,0.19233085,-0.4536553,1.234483,-0.09343426,0
0.5700000000000003,19.453278922123236,-5.78716651950698,5.99999271933903,1.7712578851150864,16.795216,-2.709293,3.959328,1.1475947,11.510868,-9.0604315,1.9975061,-0.64210784,-0.42922673,-0.42258292,-0.47422156,-9.7671795,1.8328221,0.14674331,-1.2854836,1.9776382,-0.001933286,0
0.5800000000000003,19.453278922123236,-5.78716651950698,5.99999271933903,1.7712578851150864,16.795216,-2.709293,3.959328,1.1475947,11.414121,-9.042245,1.9987522,-0.6406161,-0.4185374,-0.42593047,-0.48272255,-9.582394,1.8052982,0.10284131,-1.9876634,2.6048124,0.0850777,0
0.5900000000000003,19.453278922123236,-5.78716651950698,5.99999271933903,1.7712578851150864,16.795216,-2.709293,3.959328,1.1475947,11.319221,-9.024306,1.9995725,-0.6388705,-0.40445468,-0.42927462,-0.49394792,-9.397723,1.7832364,0.0617429,-2.5803907,3.1341188,0.16781904,0
0.6000000000000003,19.28521233286063,-5.999999687734036,5.999999612062301,1.8279501949037413,17.579803,-3.8748128,5.6079593,0.89828306,11.226165,-9.0065565,1.9999998,-0.6367203,-0.38743457,-0.43248746,-0.5073821,-9.213555,1.7679065,0.024345025,-3.0807168,3.580839,0.24650024,0
0.6100000000000003,19.28521233286063,-5.999999687734036,5.999999612062301,1.8279501949037413,17.579803,-3.8748128,5.6079593,0.89828306,11.134938,-8.988921,2.0000718,-0.634052,-0.3678055,-0.43540445,-0.52260923,-9.031999,1.7604499,-0.009208632,-3.536237,3.957855,0.32410246,0
0.6200000000000003,19.28521233286063,-5.999999687734036,5.999999612062301,1.8279501949037413,17.579803,-3.8748128,5.6079593,0.89828306,11.045519,-8.971318,1.9998325,-0.630755,-0.34584782,-0.4378801,-0.5392575,-8.852124,1.761631,-0.03783193,-3.9207315,4.2760577,0.3978967,0
0.6300000000000003,19.28521233286063,-5.999999687734036,5.999999612062301,1.8279501949037413,17.579803,-3.8748128,5.6079593,0.89828306,10.957887,-8.953656,1.9993335,-0.62670344,-0.32185203,-0.4398318,-0.5569582,-8.674718,1.7721812,-0.061117355,-4.2452693,4.544628,0.46806982,0
0.6400000000000003,19.28521233286063,-5.999999687734036,5.999999612062301,1.8279501949037413,18.7278,-4.159635,5.707108,0.99060756,10.872012,-8.935841,1.9986293,-0.6217908,-0.29607165,-0.4411897,-0.57538664,-8.500663,1.7926694,-0.078811504,-4.5191946,4.7713137,0.5347996,0
0.6500000000000004,19.28521233286063,-5.999999687734036,5.999999612062301,1.8279501949037413,18.7278,-4.159635,5.707108,0.99060756,10.787858,-8.917768,1.9977769,-0.61593,-0.268731,-0.44189632,-0.5942575,-8.330919,1.823509,-0.09080077,-4.7503967,4.96265,0.5982548,0
0.6600000000000004,19.28521233286063,-5.999999687734036,5.999999612062301,1.8279501949037413,18.7278,-4.159635,5.707108,0.99060756,10.705376,-8.899334,1.996833,-0.60905164,-0.24003075,-0.4419057,-0.61331975,-8.166506,1.8649609,-0.09709829,-4.945535,5.1241536,0.6585963,0
0.6700000000000004,19.28521233286063,-5.999999687734036,5.999999612062301,1.8279501949037413,18.7278,-4.159635,5.707108,0.99060756,10.624506,-8.880432,1.995854,-0.60110277,-0.21015236,-0.44118243,-0.6323528,-8.008474,1.9171392,-0.097832024,-5.1102333,5.2604804,0.7159769,0
0.6800000000000004,20.3972599077178,-5.999999733593854,5.999999597680746,2.0096633712689123,19.225275,-4.7160172,6.267897,0.98539144,10.545181,-8.860954,1.9948947,-0.59204483,-0.1792611,-0.43970034,-0.65116245,-7.85789,1.9800162,-0.09323338,-5.2492366,5.375557,0.7705418,0
0.6900000000000004,20.3972599077178,-5.999999733593854,5.999999597680746,2.0096633712689123,19.225275,-4.7160172,6.267897,0.98539144,10.4673605,-8.840774,1.9940374,-0.5818377,-0.14751858,-0.4374375,-0.66959095,-7.7076225,2.057661,-0.0774157,-5.366583,5.4726667,0.8313458,0
0.7000000000000004,20.3972599077178,-5.999999733593854,5.999999597680746,2.0096633712689123,19.225275,-4.7160172,6.267897,0.98539144,10.390994,-8.819762,1.993363,-0.5704528,-0.11507399,-0.43438014,-0.68749976,-7.5674524,2.1461363,-0.056730337,-5.465617,5.5546446,0.8891662,0
0.7100000000000004,20.3972599077178,-5.999999733593854,5.999999597680746,2.0096633712689123,19.225275,-4.7160172,6.267897,0.98539144,10.315974,-8.797815,1.9929178,-0.5578864,-0.082056284,-0.43052492,-0.704754,-7.438435,2.2449996,-0.03168234,-5.5491953,5.6238503,0.94414926,0
0.7200000000000004,20.511409378830916,-5.999998176639715,4.993425782434532,1.3840856930818073,18.933796,-4.2065606,5.6375666,1.2218819,10.242184,-8.77483,1.9927424,-0.5441435,-0.0485857,-0.42587352,-0.7212346,-7.3215685,2.353686,-0.002842098,-5.6197276,5.682276,0.9964343,0
0.7300000000000004,20.511409378830916,-5.999998176639715,4.993425782434532,1.3840856930818073,18.933796,-4.2065606,5.6375666,1.2218819,10.1695,-8.750707,1.9928755,-0.5294676,-0.015034939,-0.4202215,-0.73678505,-7.217183,2.4721465,0.029907603,-5.6790304,5.5747414,1.0154564,0
0.7400000000000004,20.511409378830916,-5.999998176639715,4.993425782434532,1.3840856930818073,18.933796,-4.2065606,5.6375666,1.2218819,10.097793,-8.725358,1.9933497,-0.5140836,0.018281497,-0.41342908,-0.7513059,-7.126668,2.5988,0.065287724,-5.7290897,5.4839845,1.0335451,0
0.7500000000000004,20.511409378830916,-5.999998176639715,4.993425782434532,1.3840856930818073,18.933796,-4.2065606,5.6375666,1.2218819,10.026918,-8.698706,1.9941885,-0.49798,0.051337354,-0.40558952,-0.76477313,-7.050627,2.7325828,0.10272772,-5.771347,5.4073887,1.0507463,0
0.7600000000000005,17.655619268722347,-4.676878643766728,2.8274962781707096,0.31623950404833595,17.916515,-4.286531,4.0238757,1.1026676,9.95673,-8.670686,1.9954095,-0.48115295,0.08410517,-0.3967847,-0.7771618,-6.989564,2.8724148,0.1416296,-5.807018,5.342745,1.0671034,0
0.7700000000000005,17.655619268722347,-4.676878643766728,2.8274962781707096,0.31623950404833595,17.916515,-4.286531,4.0238757,1.1026676,9.887042,-8.641342,1.9969283,-0.4641121,0.11568232,-0.38708714,-0.7882775,-6.950171,2.9970098,0.16219658,-5.6303816,4.950751,1.0302582,0
0.7800000000000005,17.655619268722347,-4.676878643766728,2.8274962781707096,0.31623950404833595,17.916515,-4.286531,4.0238757,1.1026676,9.817683,-8.610736,1.9986546,-0.44733816,0.14536591,-0.3766157,-0.79807156,-6.9237313,3.1246936,0.18307805,-5.481355,4.619856,0.9952212,0
0.7900000000000005,17.655619268722347,-4.676878643766728,2.8274962781707096,0.31623950404833595,17.916515,-4.286531,4.0238757,1.1026676,9.748525,-8.578842,2.0005898,-0.43078613,0.17340276,-0.3654905,-0.8067043,-6.9098577,3.2543852,0.20392144,-5.3556223,4.3405366,0.96190333,0
0.8000000000000005,14.612891879843447,-2.6167100518021043,0.7694647818622624,-0.08116591867451112,15.290342,-3.3856359,1.521146,0.7204119,9.679443,-8.545645,2.0027318,-0.4144121,0.20000374,-0.35380596,-0.814299,-6.908162,3.3851318,0.2244102,-5.24954,4.104754,0.9302204,1
0.8100000000000005,14.612891879843447,-2.6167100518021043,0.7694647818622624,-0.08116591867451112,15.290342,-3.3856359,1.521146,0.7204119,9.610326,-8.511227,2.0049968,-0.39843145,0.22469556,-0.34186083,-0.8209116,-6.9168577,3.4985392,0.22846183,-4.958596,3.7020512,0.91992503,1
0.8200000000000005,14.612891879843447,-2.6167100518021043,0.7694647818622624,-0.08116591867451112,15.290342,-3.3856359,1.521146,0.7204119,9.541074,-8.4756775,2.0072987,-0.38303402,0.2471307,-0.32992786,-0.8266555,-6.9350667,3.6114624,0.23179957,-4.713069,3.3621173,0.9101349,1
0.8300000000000005,14.612891879843447,-2.6167100518021043,0.7694647818622624,-0.08116591867451112,15.290342,-3.3856359,1.521146,0.7204119,9.471594,-8.439002,2.0096297,-0.3681407,0.26764402,-0.3180325,-0.83168197,-6.9621058,3.7233486,0.23431715,-4.505868,3.0751688,0.9008252,1
0.8400000000000005,14.612891879843447,-2.6167100518021043,0.7694647818622624,-0.08116591867451112,14.092725,-3.2130384,0.7142287,0.45107982,9.401803,-8.401215,2.0119817,-0.3536775,0.28651834,-0.30618715,-0.8361037,-6.9973674,3.8337426,0.23593682,-4.3310103,2.8329475,0.8919723,1
0.8500000000000005,14.612891879843447,-2.6167100518021043,0.7694647818622624,-0.08116591867451112,14.092725,-3.2130384,0.7142287,0.45107982,9.331637,-8.362375,2.0143065,-0.3397245,0.30370873,-0.29433236,-0.8400697,-7.036934,3.933757,0.22887619,-4.1564355,2.5026946,0.87033755,1
0.8600000000000005,14.612891879843447,-2.6167100518021043,0.7694647818622624,-0.08116591867451112,14.092725,-3.2130384,0.7142287,0.45107982,9.261043,-8.322547,2.0165565,-0.32634407,0.31919637,-0.2824238,-0.84371233,-7.0830255,4.0317073,0.22098902,-4.009125,2.2239218,0.8497644,1
0.8700000000000006,14.612891879843447,-2.6167100518021043,0.7694647818622624,-0.08116591867451112,14.092725,-3.2130384,0.7142287,0.45107982,9.189957,-8.28175,2.0187235,-0.31344882,0.33323556,-0.27048185,-0.8470797,-7.135139,4.1273084,0.21234272,-3.8848202,1.9886045,0.83020085,1
0.8800000000000006,12.676385125491555,-0.49493255034577344,-0.9881691768675417,-0.4239232806700845,13.9827585,-2.4676251,0.21789306,0.17202877,9.11832,-8.240009,2.0208008,-0.30096275,0.34603974,-0.25851887,-0.8502038,-7.1928315,4.2203245,0.20299643,-3.7799273,1.789969,0.8115973,0
0.8900000000000006,12.676385125491555,-0.49493255034577344,-0.9881691768675417,-0.4239232806700845,13.9827585,-2.4676251,0.21789306,0.17202877,9.046099,-8.197378,2.0227566,-0.28935778,0.357105,-0.24714461,-0.85303473,-7.2518387,4.3051195,0.18767005,-3.3254223,1.4151199,0.756191,0
0.9000000000000006,12.676385125491555,-0.49493255034577344,-0.9881691768675417,-0.4239232806700845,13.9827585,-2.4676251,0.21789306,0.17202877,8.973275,-8.153923,2.0245447,-0.27912477,0.36592555,-0.23692651,-0.8556017,-7.313196,4.3850427,0.16953659,-2.9028568,1.0597068,0.70001805,0
0.9100000000000006,12.676385125491555,-0.49493255034577344,-0.9881691768675417,-0.4239232806700845,13.9827585,-2.4676251,0.21789306,0.17202877,8.899826,-8.109689,2.0261424,-0.27019787,0.37270427,-0.2277896,-0.8580193,-7.376926,4.461492,0.14993551,-2.5271697,0.74060464,0.6448659,0
0.9200000000000006,11.510889931343373,1.595158578560501,-2.5915282062142975,-0.8091584481565841,13.287756,-1.2225546,-0.47359318,-0.11143871,8.8257265,-8.064701,2.027543,-0.26242986,0.37774837,-0.21959552,-0.8603575,-7.443304,4.535794,0.13020365,-2.210114,0.4712126,0.59242004,0
0.9300000000000006,11.510889931343373,1.595158578560501,-2.5915282062142975,-0.8091584481565841,13.287756,-1.2225546,-0.47359318,-0.11143871,8.750945,-8.018971,2.0287552,-0.2559077,0.38101423,-0.21252075,-0.8626557,-7.51299,4.6093845,0.11187346,-1.760567,0.1378361,0.53654927,0
0.9400000000000006,11.510889931343373,1.595158578560501,-2.5915282062142975,-0.8091584481565841,13.287756,-1.2225546,-0.47359318,-0.11143871,8.6754675,-7.972525,2.0297735,-0.2507765,0.38234645,-0.20677003,-0.86496764,-7.5822535,4.679224,0.09154926,-1.343859,-0.1808897,0.48008478,0
0.9500000000000006,11.510889931343373,1.595158578560501,-2.5915282062142975,-0.8091584481565841,13.287756,-1.2225546,-0.47359318,-0.11143871,8.599302,-7.925398,2.03058,-0.2469673,0.3818652,-0.2022465,-0.8673425,-7.6505413,4.7457705,0.06951971,-0.9565598,-0.48555282,0.42320716,0
0.9600000000000006,11.25125894025298,3.132504789868712,-3.644917640753666,-1.0904636258985927,12.518972,0.683038,-1.6868978,-0.7049366,8.522461,-7.8776197,2.031159,-0.24441193,0.37967476,-0.19886056,-0.86980736,-7.717388,4.8094397,0.046050746,-0.5956522,-0.77677256,0.3660771,0
0.9700000000000006,11.25125894025298,3.132504789868712,-3.644917640753666,-1.0904636258985927,12.518972,0.683038,-1.6868978,-0.7049366,8.444929,-7.8291874,2.0315332,-0.24314694,0.37576467,-0.19672774,-0.87234116,-7.7887335,4.876584,0.028551292,-0.1633052,-1.0748597,0.30796108,0
0.9800000000000006,11.25125894025298,3.132504789868712,-3.644917640753666,-1.0904636258985927,12.518972,0.683038,-1.6868978,-0.7049366,8.366695,-7.780096,2.0317261,-0.24319802,0.37011674,-0.19593811,-0.8749155,-7.8575416,4.9413443,0.009881044,0.2372633,-1.3621691,0.24950702,0
0.9900000000000007,11.25125894025298,3.132504789868712,-3.644917640753666,-1.0904636258985927,12.518972,0.683038,-1.6868978,-0.7049366,8.287787,-7.7303677,2.0317273,-0.2444839,0.3628044,-0.19637644,-0.8775177,-7.9234285,5.004119,-0.009750029,0.6094687,-1.6388354,0.19086945,0
1.0000000000000007,11.501155059728749,3.8999100647032003,-4.200423761369592,-1.2793558841795434,11.804102,1.400556,-2.8609931,-0.17068647,8.208238,-7.68002,2.0315282,-0.24692644,0.3538912,-0.19793753,-0.880119,-7.9860625,5.0652447,-0.030164342,0.9563017,-1.9050817,0.1321856,0
1.0100000000000007,11.501155059728749,3.8999100647032003,-4.200423761369592,-1.2793558841795434,11.804102,1.400556,-2.8609931,-0.17068647,8.128055,-7.6290436,2.031153,-0.2505097,0.34336528,-0.20062338,-0.882664,-8.049914,5.12983,-0.044998918,1.3302485,-2.1780155,0.07055073,0
1.0200000000000007,11.501155059728749,3.8999100647032003,-4.200423761369592,-1.2793558841795434,11.804102,1.400556,-2.8609931,-0.17068647,8.047255,-7.577428,2.0306263,-0.2552129,0.33120924,-0.20442815,-0.8850855,-8.10959,5.193193,-0.06043653,1.6789193,-2.4414785,0.008983803,0
1.0300000000000007,11.501155059728749,3.8999100647032003,-4.200423761369592,-1.2793558841795434,11.804102,1.400556,-2.8609931,-0.17068647,7.96588,-7.5251837,2.0299425,-0.26095495,0.31746784,-0.20924781,-0.8873176,-8.1648,5.255563,-0.07639004,2.0049455,-2.6956325,-0.052401174,0
1.0400000000000007,11.501155059728749,3.8999100647032003,-4.200423761369592,-1.2793558841795434,11.781373,1.7146772,-2.6871502,-0.6071286,7.8839746,-7.472318,2.029099,-0.26764813,0.30219913,-0.2149768,-0.8892838,-8.215715,5.3176436,-0.092103556,2.3000207,-2.9300826,-0.11257815,0
1.0500000000000007,11.501155059728749,3.8999100647032003,-4.200423761369592,-1.2793558841795434,11.781373,1.7146772,-2.6871502,-0.6071286,7.8015785,-7.418828,2.0281062,-0.2751526,0.28556514,-0.22146177,-0.8908977,-8.262798,5.3805494,-0.106226705,2.5493915,-3.1283047,-0.16983229,0
1.0600000000000007,11.501155059728749,3.8999100647032003,-4.200423761369592,-1.2793558841795434,11.781373,1.7146772,-2.6871502,-0.6071286,7.7187324,-7.3647046,2.02698,-0.2833234,0.26774916,-0.22854777,-0.8920788,-8.305658,5.4443417,-0.11877269,2.759869,-3.2956219,-0.22427694,0
1.0700000000000007,11.501155059728749,3.8999100647032003,-4.200423761369592,-1.2793558841795434,11.781373,1.7146772,-2.6871502,-0.6071286,7.6354804,-7.3099384,2.0257359,-0.29203528,0.24890956,-0.23610254,-0.89275724,-8.343933,5.5090146,-0.12982029,2.9375212,-3.43685,-0.27604997,0
1.0800000000000007,12.12476654273817,3.8941303900644004,-4.094071100008076,-1.3721468573920927,12.1029215,1.3033739,-2.1046932,-0.9994596,7.5518703,-7.254522,2.024388,-0.30117983,0.2291838,-0.24401328,-0.89287376,-8.377301,5.5745225,-0.13948493,3.0874698,-3.5560548,-0.32528245,0
1.0900000000000007,12.12476654273817,3.8941303900644004,-4.094071100008076,-1.3721468573920927,12.1029215,1.3033739,-2.1046932,-0.9994596,7.467944,-7.198428,2.0229745,-0.3106625,0.20873371,-0.25219235,-0.8923668,-8.407008,5.644376,-0.14305252,3.2131283,-3.6400921,-0.3766524,0
1.1000000000000008,12.12476654273817,3.8941303900644004,-4.094071100008076,-1.3721468573920927,12.1029215,1.3033739,-2.1046932,-0.9994596,7.38375,-7.141632,2.0215309,-0.32040292,0.1876989,-0.26056543,-0.89118856,-8.431,5.714908,-0.14550854,3.3191948,-3.7110214,-0.42550159,0
1.1100000000000008,12.12476654273817,3.8941303900644004,-4.094071100008076,-1.3721468573920927,12.1029215,1.3033739,-2.1046932,-0.9994596,7.299345,-7.084128,2.0200675,-0.33033246,0.16616225,-0.26906148,-0.8893125,-8.449067,5.78598,-0.14706634,3.4087248,-3.7708857,-0.47195375,0
1.1200000000000008,12.302428594199911,3.0649958244224997,-3.64442204231773,-1.323591792623584,12.103502,0.84648013,-1.8890481,-0.82765764,7.2147894,-7.025911,2.0185916,-0.34039095,0.14419761,-0.27762,-0.8867178,-8.461038,5.857428,-0.14795567,3.4842982,-3.8214097,-0.5161265,0
1.1300000000000008,12.302428594199911,3.0649958244224997,-3.64442204231773,-1.323591792623584,12.103502,0.84648013,-1.8890481,-0.82765764,7.1301446,-6.9669733,2.0171168,-0.35042635,0.12214388,-0.28595987,-0.88346446,-8.466874,5.9301114,-0.14698541,3.4188194,-3.7938747,-0.5557491,0
1.1400000000000008,12.302428594199911,3.0649958244224997,-3.64442204231773,-1.323591792623584,12.103502,0.84648013,-1.8890481,-0.82765764,7.045473,-6.9073086,2.0156524,-0.36032802,0.10028204,-0.29386562,-0.8796308,-8.466422,6.0027475,-0.14580944,3.3635566,-3.7706304,-0.59342736,0
1.1500000000000008,12.302428594199911,3.0649958244224997,-3.64442204231773,-1.323591792623584,12.103502,0.84648013,-1.8890481,-0.82765764,6.9608374,-6.846919,2.0142004,-0.37010103,0.07859481,-0.30137762,-0.87522554,-8.459754,6.0750947,-0.14464569,3.3169162,-3.7510078,-0.6292567,0
1.1600000000000008,12.227991437979277,1.7082596641641392,-2.620606142640034,-1.1288179079224467,12.2974825,-0.18965468,-1.3214426,-1.2761362,6.876299,-6.785808,2.012759,-0.3797471,0.05706846,-0.3085296,-0.8702557,-8.446944,6.1469216,-0.14370641,3.277553,-3.7344422,-0.663328,0
1.1700000000000008,12.227991437979277,1.7082596641641392,-2.620606142640034,-1.1288179079224467,12.2974825,-0.18965468,-1.3214426,-1.2761362,6.7919188,-6.7239847,2.0113218,-0.3890939,0.03624936,-0.31503972,-0.8648942,-8.428229,6.217573,-0.14378746,3.0328445,-3.56068,-0.6861697,0
1.1800000000000008,12.227991437979277,1.7082596641641392,-2.620606142640034,-1.1288179079224467,12.2974825,-0.18965468,-1.3214426,-1.2761362,6.707754,-6.6614594,2.0098813,-0.39802614,0.016573796,-0.32070658,-0.8593299,-8.403856,6.2872705,-0.14442888,2.8262932,-3.4140239,-0.70789057,0
1.1900000000000008,12.227991437979277,1.7082596641641392,-2.620606142640034,-1.1288179079224467,12.2974825,-0.18965468,-1.3214426,-1.2761362,6.62386,-6.5982428,2.008431,-0.40661612,-0.0021186871,-0.32566157,-0.8535827,-8.374187,6.3558292,-0.1457323,2.6519492,-3.2902462,-0.72854567,0
1.2000000000000008,11.973390137567144,0.1355784905393243,-1.4294531529880323,-0.7983145031033833,11.293962,-1.1764737,0.6936342,-0.7778595,6.5402875,-6.534347,2.006964,-0.41492084,-0.019965615,-0.33001354,-0.8476633,-8.33954,6.4230924,-0.14778262,2.5047898,-3.1857786,-0.7481872,0
1.2100000000000009,11.973390137567144,0.1355784905393243,-1.4294531529880323,-0.7983145031033833,11.293962,-1.1764737,0.6936342,-0.7778595,6.457081,-6.4697924,2.0054624,-0.42281267,-0.036432218,-0.333522,-0.8418225,-8.30105,6.487556,-0.15262207,2.1354413,-2.9117043,-0.7506469,0
1.2200000000000009,11.973390137567144,0.1355784905393243,-1.4294531529880323,-0.7983145031033833,11.293962,-1.1764737,0.6936342,-0.7778595,6.3742805,-6.4046006,2.0039089,-0.43021083,-0.051103234,-0.336019,-0.8363003,-8.258496,6.5505366,-0.15821508,1.8236727,-2.6803985,-0.75298595,0
1.2300000000000009,11.973390137567144,0.1355784905393243,-1.4294531529880323,-0.7983145031033833,11.293962,-1.1764737,0.6936342,-0.7778595,6.291923,-6.338787,2.002296,-0.4372141,-0.0642498,-0.337681,-0.83107597,-8.212379,6.6119857,-0.16448735,1.5605074,-2.4851875,-0.7552102,0
1.2400000000000009,11.973390137567144,0.1355784905393243,-1.4294531529880323,-0.7983145031033833,11.026322,-2.060951,1.2341669,-0.5363513,6.2100434,-6.272367,2.000617,-0.4438997,-0.07610263,-0.33865196,-0.8261212,-8.163118,6.671874,-0.17136228,1.3383682,-2.320439,-0.7573254,0
1.2500000000000009,11.973390137567144,0.1355784905393243,-1.4294531529880323,-0.7983145031033833,11.026322,-2.060951,1.2341669,-0.5363513,6.1286707,-6.2053556,1.9988668,-0.45032835,-0.08685774,-0.33904976,-0.82140446,-8.111069,6.7301874,-0.17876565,1.1508594,-2.1813996,-0.75933677,0
1.260000000000001,11.973390137567144,0.1355784905393243,-1.4294531529880323,-0.7983145031033833,11.026322,-2.060951,1.2341669,-0.5363513,6.047831,-6.137769,1.9970402,-0.45654765,-0.09668142,-0.33897105,-0.8168938,-8.056531,6.786917,-0.1866283,0.9925824,-2.0640569,-0.7612494,0
1.270000000000001,11.973390137567144,0.1355784905393243,-1.4294531529880323,-0.7983145031033833,11.026322,-2.060951,1.2341669,-0.5363513,5.967548,-6.069623,1.9951329,-0.46259513,-0.105714634,-0.33849522,-0.8125584,-7.999757,6.842062,-0.19488747,0.8589798,-1.9650258,-0.7630682,0
1.280000000000001,11.775857933510522,-1.2412077918405142,-0.3074445180760853,-0.39670477134282656,12.311988,-3.086358,1.1347952,0.025560547,5.8878427,-6.000933,1.9931413,-0.46850035,-0.11407678,-0.33768752,-0.8083694,-7.940963,6.8956223,-0.2034875,0.7462052,-1.8814485,-0.76479775,0
1.290000000000001,11.775857933510522,-1.2412077918405142,-0.3074445180760853,-0.39670477134282656,12.311988,-3.086358,1.1347952,0.025560547,5.80873,-5.9317203,1.9910549,-0.47416115,-0.12126454,-0.33636424,-0.8045653,-7.8813643,6.9467525,-0.21383543,0.43641105,-1.6358238,-0.7467353,0
1.300000000000001,11.775857933510522,-1.2412077918405142,-0.3074445180760853,-0.39670477134282656,12.311988,-3.086358,1.1347952,0.025560547,5.730221,-5.8620033,1.9888641,-0.47950244,-0.12688689,-0.3343899,-0.8013493,-7.820357,6.9964104,-0.22430563,0.17490429,-1.4285347,-0.7295592,0
1.310000000000001,11.775857933510522,-1.2412077918405142,-0.3074445180760853,-0.39670477134282656,12.311988,-3.086358,1.1347952,0.025560547,5.6523266,-5.791797,1.9865688,-0.4845786,-0.13118815,-0.3318759,-0.79864377,-7.758308,7.0446863,-0.23473464,-0.045841105,-1.2535969,-0.7132259,0
1.320000000000001,11.678768145759772,-2.372482011661414,0.44610635043848357,0.09168315148292909,12.470902,-3.8286214,1.2778193,0.5907722,5.575057,-5.721114,1.98417,-0.48943168,-0.13437441,-0.3289127,-0.7963773,-7.695524,7.0916634,-0.24498071,-0.23217803,-1.1059607,-0.6976941,0
1.330000000000001,11.678768145759772,-2.372482011661414,0.44610635043848357,0.09168315148292909,12.470902,-3.8286214,1.2778193,0.5907722,5.498415,-5.6499696,1.9816666,-0.4940088,-0.13617696,-0.3253543,-0.7947049,-7.6328106,7.137047,-0.25563553,-0.5658249,-0.863779,-0.65895915,0
1.340000000000001,11.678768145759772,-2.372482011661414,0.44610635043848357,0.09168315148292909,12.470902,-3.8286214,1.2778193,0.5907722,5.422401,-5.5783772,1.9790591,-0.49826327,-0.13639246,-0.3210881,-0.7937464,-7.5700245,7.1813345,-0.26578236,-0.8474683,-0.65940225,-0.62212497,0
1.350000000000001,11.678768145759772,-2.372482011661414,0.44610635043848357,0.09168315148292909,12.470902,-3.8286214,1.2778193,0.5907722,5.347013,-5.5063467,1.9763534,-0.50223047,-0.13526879,-0.31622472,-0.7933908,-7.5075293,7.224637,-0.27523428,-1.0852121,-0.48692694,-0.58709824,0
1.360000000000001,11.8473196144512,-3.221153240582359,1.2695179698806383,0.516747473080805,12.570259,-4.024176,2.1084838,1.0989535,5.272248,-5.4338875,1.9735572,-0.50593686,-0.13301463,-0.3108549,-0.79353917,-7.4456353,7.2670507,-0.28383887,-1.285898,-0.34137192,-0.5537903,1
1.370000000000001,11.8473196144512,-3.221153240582359,1.2695179698806383,0.516747473080805,12.570259,-4.024176,2.1084838,1.0989535,5.1981206,-5.360992,1.9707142,-0.5091841,-0.12898079,-0.30484906,-0.79445755,-7.3799944,7.311857,-0.28454998,-1.7127942,0.040746227,-0.47268963,1
1.380000000000001,11.8473196144512,-3.221153240582359,1.2695179698806383,0.516747473080805,12.570259,-4.024176,2.1084838,1.0989535,5.124643,-5.2876525,1.9678706,-0.5117938,-0.12266127,-0.29810244,-0.7963394,-7.315869,7.356038,-0.28397533,-2.073171,0.36321646,-0.39556864,1
1.390000000000001,11.8473196144512,-3.221153240582359,1.2695179698806383,0.516747473080805,12.570259,-4.024176,2.1084838,1.0989535,5.051796,-5.213873,1.9650398,-0.5138061,-0.11441046,-0.29071432,-0.79899865,-7.253811,7.399818,-0.28191233,-2.3773887,0.6353554,-0.32223198,1
1.400000000000001,11.837665188339855,-3.519285393724682,1.6253223464797038,0.8529358118203422,13.154086,-3.6760256,1.6312277,1.3381641,4.979558,-5.139657,1.9622378,-0.51524985,-0.104527116,-0.28276557,-0.802269,-7.194302,7.4433775,-0.27822036,-2.6341946,0.8650236,-0.252494,0
1.410000000000001,11.837665188339855,-3.519285393724682,1.6253223464797038,0.8529358118203422,13.154086,-3.6760256,1.6312277,1.3381641,4.9078836,-5.065018,1.9594512,-0.5162052,-0.093515016,-0.27438954,-0.8059142,-7.1410503,7.4843197,-0.27885166,-2.772239,0.9835167,-0.19825026,0
1.420000000000001,11.837665188339855,-3.519285393724682,1.6253223464797038,0.8529358118203422,13.154086,-3.6760256,1.6312277,1.3381641,4.8367267,-4.9899707,1.9566664,-0.5167452,-0.08178831,-0.26569882,-0.8097465,-7.090854,7.525245,-0.27786848,-2.888764,1.0835239,-0.14666826,0
1.430000000000001,11.837665188339855,-3.519285393724682,1.6253223464797038,0.8529358118203422,13.154086,-3.6760256,1.6312277,1.3381641,4.7660556,-4.9145136,1.9538993,-0.5168801,-0.06945961,-0.25672796,-0.8136961,-7.043925,7.566185,-0.27530324,-2.9871225,1.1679311,-0.09761742,0
1.440000000000001,11.837665188339855,-3.519285393724682,1.6253223464797038,0.8529358118203422,13.076226,-3.6202483,1.4700916,1.4008695,4.6958365,-4.838647,1.9511656,-0.5166192,-0.056624796,-0.24750704,-0.8177033,-7.00045,7.6071544,-0.27121067,-3.0701463,1.239173,-0.050973497,0
1.450000000000001,11.837665188339855,-3.519285393724682,1.6253223464797038,0.8529358118203422,13.076226,-3.6202483,1.4700916,1.4008695,4.6260343,-4.7623706,1.9484801,-0.51597136,-0.043365616,-0.2380625,-0.8217173,-6.960598,7.6481557,-0.26566455,-3.1402247,1.2993046,-0.0066183954,0
1.460000000000001,11.837665188339855,-3.519285393724682,1.6253223464797038,0.8529358118203422,13.076226,-3.6202483,1.4700916,1.4008695,4.556612,-4.6856837,1.9458569,-0.5149451,-0.029751895,-0.22841775,-0.82569474,-6.9245157,7.689177,-0.2587548,-3.1993759,1.3500594,0.035560194,0
1.470000000000001,11.837665188339855,-3.519285393724682,1.6253223464797038,0.8529358118203422,13.076226,-3.6202483,1.4700916,1.4008695,4.4875307,-4.608587,1.9433093,-0.5135487,-0.015843382,-0.21859367,-0.8295985,-6.892334,7.730198,-0.250585,-3.2493029,1.3929005,0.07566905,0
1.480000000000001,11.769625659180399,-3.235111271524594,1.4344373593475648,1.067810554795502,13.168572,-3.6913455,2.4237893,2.333122,4.4187517,-4.53108,1.9408492,-0.51179016,-0.0016913158,-0.2086089,-0.83339685,-6.8641663,7.771189,-0.24127007,-3.2914438,1.4290624,0.11380976,0
1.490000000000001,11.769625659180399,-3.235111271524594,1.4344373593475648,1.067810554795502,13.168572,-3.6913455,2.4237893,2.333122,4.350233,-4.4531646,1.9384842,-0.50967216,0.012532922,-0.19853647,-0.83705467,-6.840244,7.811877,-0.2315589,-3.2827024,1.4298012,0.16062285,0
1.500000000000001,11.769625659180399,-3.235111271524594,1.4344373593475648,1.067810554795502,13.168572,-3.6913455,2.4237893,2.333122,4.281933,-4.3748426,1.9362209,-0.5071992,0.026690159,-0.1884385,-0.8405519,-6.820443,7.852447,-0.22097124,-3.2753224,1.4304302,0.20513882,0
1.5100000000000011,11.769625659180399,-3.235111271524594,1.4344373593475648,1.067810554795502,13.168572,-3.6913455,2.4237893,2.333122,4.21381,-4.296116,1.9340672,-0.50438166,0.04078314,-0.17831592,-0.8438835,-6.8047805,7.8928447,-0.20964667,-3.2690911,1.4309657,0.24747038,0
1.5200000000000011,11.315501124578038,-2.64478363992853,0.6032908300881427,1.1899834196021508,12.727264,-3.5693612,2.1567214,2.2867,4.1458225,-4.216986,1.93203,-0.5012293,0.054813877,-0.16817014,-0.84704405,-6.793269,7.9330134,-0.19772395,-3.2638295,1.4314224,0.28772473,0
1.5300000000000011,11.315501124578038,-2.64478363992853,0.6032908300881427,1.1899834196021508,12.727264,-3.5693612,2.1567214,2.2867,4.077928,-4.137464,1.9300929,-0.49780953,0.06838126,-0.15803851,-0.8500198,-6.7861824,7.971347,-0.189602,-3.1673033,1.3022021,0.33199883,0
1.5400000000000011,11.315501124578038,-2.64478363992853,0.6032908300881427,1.1899834196021508,12.727264,-3.5693612,2.1567214,2.2867,4.0100856,-4.0575604,1.9282391,-0.49418297,0.08116806,-0.14795616,-0.85282123,-6.7829566,8.009284,-0.18115033,-3.085826,1.19314,0.37410042,0
1.5500000000000012,11.315501124578038,-2.64478363992853,0.6032908300881427,1.1899834196021508,12.727264,-3.5693612,2.1567214,2.2867,3.9422567,-3.9772801,1.9264709,-0.49034885,0.09328897,-0.13792102,-0.8554724,-6.7834487,8.046708,-0.1724694,-3.0170524,1.1010914,0.41413602,0
1.5600000000000012,11.05777605848569,-1.8813563709991405,0.06149797423805169,1.185546491536003,12.397445,-2.9523125,1.2307343,1.7868454,3.8744047,-3.8966286,1.9247901,-0.48630694,0.10484119,-0.12793079,-0.85799044,-6.7875338,8.083517,-0.16365112,-2.959002,1.0234017,0.45220706,0
1.5700000000000012,11.05777605848569,-1.8813563709991405,0.06149797423805169,1.185546491536003,12.397445,-2.9523125,1.2307343,1.7868454,3.806495,-3.8156166,1.9231858,-0.4821201,0.115573116,-0.11814091,-0.86037534,-6.79491,8.118793,-0.15721557,-2.7909203,0.87337714,0.48819223,0
1.5800000000000012,11.05777605848569,-1.8813563709991405,0.06149797423805169,1.185546491536003,12.397445,-2.9523125,1.2307343,1.7868454,3.7384956,-3.7342556,1.9216459,-0.47784683,0.12529239,-0.10867757,-0.8626432,-6.805455,8.15329,-0.150791,-2.649051,0.7467508,0.5224116,0
1.5900000000000012,11.05777605848569,-1.8813563709991405,0.06149797423805169,1.185546491536003,12.397445,-2.9523125,1.2307343,1.7868454,3.6703756,-3.6525536,1.9201698,-0.47348064,0.1341546,-0.0994982,-0.86482286,-6.8189464,8.186933,-0.14442618,-2.5293067,0.63987285,0.5549518,0
1.6000000000000012,10.881392860831337,-1.1075364217351131,-0.4063404745687146,1.1072247115173919,12.14132,-2.357908,0.5887638,1.4626575,3.6021068,-3.5705197,1.9187571,-0.46901566,0.14229116,-0.09056581,-0.86693436,-6.8351917,8.219657,-0.13816123,-2.4282377,0.54966295,0.58589524,0
1.6100000000000012,10.881392860831337,-1.1075364217351131,-0.4063404745687146,1.1072247115173919,12.14132,-2.357908,0.5887638,1.4626575,3.5336642,-3.488166,1.9173979,-0.46451765,0.14950705,-0.08202844,-0.8689891,-6.8537083,8.250902,-0.13369009,-2.222225,0.4006161,0.6114771,0
1.6200000000000012,10.881392860831337,-1.1075364217351131,-0.4063404745687146,1.1072247115173919,12.14132,-2.357908,0.5887638,1.4626575,3.4650247,-3.4055052,1.9160827,-0.46004528,0.15565613,-0.07400324,-0.8710067,-6.8745027,8.281152,-0.12935632,-2.0483441,0.2748083,0.6358035,0
1.6300000000000012,10.881392860831337,-1.1075364217351131,-0.4063404745687146,1.1072247115173919,12.14132,-2.357908,0.5887638,1.4626575,3.396167,-3.3225467,1.9148103,-0.45558283,0.16090612,-0.06641807,-0.8730074,-6.897324,8.310376,-0.12515643,-1.9015843,0.1686153,0.65893626,0
1.6400000000000012,10.881392860831337,-1.1075364217351131,-0.4063404745687146,1.1072247115173919,11.960922,-1.9584022,-0.103889644,1.3944294,3.327072,-3.2393012,1.9135792,-0.45111635,0.16539814,-0.05921091,-0.8750037,-6.92196,8.338552,-0.12108352,-1.7777156,0.0789789,0.6809339,0
1.6500000000000012,10.881392860831337,-1.1075364217351131,-0.4063404745687146,1.1072247115173919,11.960922,-1.9584022,-0.103889644,1.3944294,3.2577221,-3.1557794,1.9123882,-0.44663364,0.16925089,-0.05232855,-0.87700295,-6.94823,8.365663,-0.117129385,-1.673168,0.0033170898,0.70185214,0
1.6600000000000013,10.881392860831337,-1.1075364217351131,-0.4063404745687146,1.1072247115173919,11.960922,-1.9584022,-0.103889644,1.3944294,3.1881022,-3.0719917,1.9112362,-0.44212422,0.17256428,-0.04572534,-0.87900907,-6.9759803,8.391695,-0.11328572,-1.5849283,-0.06054907,0.7217439,0
1.6700000000000013,10.881392860831337,-1.1075364217351131,-0.4063404745687146,1.1072247115173919,11.960922,-1.9584022,-0.103889644,1.3944294,3.118198,-2.987949,1.910122,-0.4375794,0.1754224,-0.0393622,-0.8810232,-7.0050783,8.4166355,-0.109544925,-1.5104526,-0.1144587,0.74065953,0
1.6800000000000013,10.753716909514381,-0.49084817425421773,-0.7763292259159978,0.9910476113935311,13.016762,-1.9242011,-2.031843,2.1170228,3.0479965,-2.9036624,1.909045,-0.432992,0.177896,-0.033205677,-0.88304496,-7.035411,8.440474,-0.105900526,-1.4475942,-0.15996416,0.75864697,0
1.6900000000000013,10.753716909514381,-0.49084817425421773,-0.7763292259159978,0.9910476113935311,13.016762,-1.9242011,-2.031843,2.1170228,2.9774878,-2.8191447,1.9079978,-0.42841825,0.17980799,-0.02737893,-0.88508606,-7.066499,8.462935,-0.1035365,-1.2983407,-0.25602198,0.77005094,0
1.7000000000000013,10.753716909514381,-0.49084817425421773,-0.7763292259159978,0.9910476113935311,13.016762,-1.9242011,-2.031843,2.1170228,2.9066632,-2.7344074,1.9069741,-0.42390558,0.18102261,-0.021978784,-0.8871594,-7.0985293,8.484307,-0.1012305,-1.1723696,-0.3371088,0.7808953,0
1.7100000000000013,10.753716909514381,-0.49084817425421773,-0.7763292259159978,0.9910476113935311,13.016762,-1.9242011,-2.031843,2.1170228,2.8355143,-2.649462,1.9059732,-0.4194368,0.18164997,-0.016942894,-0.88926315,-7.1313305,8.504602,-0.098949805,-1.0660492,-0.40555817,0.7912075,0
1.7200000000000013,10.513009202594516,0.02966563044879511,-1.5095492962879493,0.8241197147203378,13.576431,-1.669887,-2.8193471,2.0777419,2.7640343,-2.5643191,1.9049952,-0.41499725,0.18178254,-0.012218064,-0.8913939,-7.164758,8.523831,-0.0966658,-0.9763142,-0.46333972,0.8010137,0
1.7300000000000013,10.513009202594516,0.02966563044879511,-1.5095492962879493,0.8241197147203378,13.576431,-1.669887,-2.8193471,2.0777419,2.6922212,-2.4789913,1.9040289,-0.41063407,0.18115039,-0.007819828,-0.89359,-7.1979146,8.5415945,-0.09659564,-0.81934667,-0.6264143,0.8021475,0
1.7400000000000013,10.513009202594516,0.02966563044879511,-1.5095492962879493,0.8241197147203378,13.576431,-1.669887,-2.8193471,2.0777419,2.6200752,-2.3934908,1.9030637,-0.40638506,0.17954358,-0.0037592454,-0.8958801,-7.2313433,8.558308,-0.09643342,-0.6868712,-0.76407003,0.80322564,0
1.7500000000000013,10.513009202594516,0.02966563044879511,-1.5095492962879493,0.8241197147203378,13.576431,-1.669887,-2.8193471,2.0777419,2.5475943,-2.307829,1.9021007,-0.40222588,0.17711417,1.2108008e-05,-0.8982455,-7.2648377,8.573956,-0.09611856,-0.5750662,-0.88026893,0.80425096,0
1.7600000000000013,10.530632364974366,0.2812874182287164,-1.3171824583069223,0.6855733772127773,13.753403,-1.5475094,-3.648102,2.0579693,2.474779,-2.2220156,1.901142,-0.3981357,0.17398998,0.0035357384,-0.9006681,-7.2982235,8.588528,-0.0956017,-0.48070648,-0.97835577,0.8052259,0
1.7700000000000014,10.530632364974366,0.2812874182287164,-1.3171824583069223,0.6855733772127773,13.753403,-1.5475094,-3.648102,2.0579693,2.4016306,-2.136062,1.9001905,-0.39413035,0.17030813,0.0067288564,-0.9031119,-7.331404,8.602045,-0.09467831,-0.36185026,-1.0311319,0.7993545,0
1.7800000000000014,10.530632364974366,0.2812874182287164,-1.3171824583069223,0.6855733772127773,13.753403,-1.5475094,-3.648102,2.0579693,2.3281522,-2.0499783,1.8992493,-0.3902243,0.16618349,0.009528563,-0.905548,-7.3641872,8.614518,-0.09348585,-0.26153404,-1.0756881,0.7937712,0
1.7900000000000014,10.530632364974366,0.2812874182287164,-1.3171824583069223,0.6855733772127773,13.753403,-1.5475094,-3.648102,2.0579693,2.2543485,-1.963775,1.8983215,-0.38639963,0.16168517,0.011994552,-0.9079699,-7.396454,8.62599,-0.092003964,-0.17686574,-1.1133046,0.7884619,0
1.8000000000000014,10.617289761589397,0.3232228646418043,-1.0108697957026553,0.5885703413764448,13.703117,-1.3687223,-3.2604935,1.9165342,2.1802251,-1.8774618,1.8974102,-0.3826411,0.15687124,0.014177463,-0.9103715,-7.4281025,8.636499,-0.090217926,-0.105404556,-1.1450623,0.7834132,0
1.8100000000000014,10.617289761589397,0.3232228646418043,-1.0108697957026553,0.5885703413764448,13.703117,-1.3687223,-3.2604935,1.9165342,2.1057873,-1.7910477,1.8965223,-0.37895152,0.15189582,0.016060129,-0.9127242,-7.459304,8.646163,-0.08729491,-0.038578,-1.1241007,0.77385217,0
1.8200000000000014,10.617289761589397,0.3232228646418043,-1.0108697957026553,0.5885703413764448,13.703117,-1.3687223,-3.2604935,1.9165342,2.0310414,-1.7045416,1.8956652,-0.3753351,0.14688401,0.017632043,-0.91500694,-7.489743,8.654957,-0.08406051,0.017829038,-1.1064138,0.7647603,0
1.8300000000000014,10.617289761589397,0.3232228646418043,-1.0108697957026553,0.5885703413764448,13.703117,-1.3687223,-3.2604935,1.9165342,1.9559951,-1.6179515,1.894842,-0.37178183,0.14184178,0.01894174,-0.9172242,-7.519382,8.662945,-0.08052229,0.06544124,-1.0914904,0.7561146,0
1.8400000000000014,10.617289761589397,0.3232228646418043,-1.0108697957026553,0.5885703413764448,13.825503,-1.4921881,-3.23728,1.9354671,1.8806567,-1.5312852,1.8940557,-0.36828318,0.13677399,0.020030191,-0.9193797,-7.548186,8.670178,-0.07668812,0.10562991,-1.0788983,0.74789315,0
1.8500000000000014,10.617289761589397,0.3232228646418043,-1.0108697957026553,0.5885703413764448,13.825503,-1.4921881,-3.23728,1.9354671,1.8050344,-1.4445502,1.8933091,-0.3648319,0.1316846,0.020931976,-0.92147636,-7.5761266,8.676705,-0.07256627,0.13955282,-1.0682734,0.7400752,0
1.8600000000000014,10.617289761589397,0.3232228646418043,-1.0108697957026553,0.5885703413764448,13.825503,-1.4921881,-3.23728,1.9354671,1.7291371,-1.3577533,1.8926052,-0.36142176,0.12657689,0.021676278,-0.9235165,-7.603178,8.682568,-0.068165466,0.16818658,-1.0593084,0.73264074,0
1.8700000000000014,10.617289761589397,0.3232228646418043,-1.0108697957026553,0.5885703413764448,13.825503,-1.4921881,-3.23728,1.9354671,1.6529738,-1.270901,1.8919467,-0.35804743,0.12145349,0.022287719,-0.9255022,-7.629319,8.6878,-0.06349473,0.19235612,-1.0517437,0.72557116,0
1.8800000000000014,10.662827386885503,0.12161018400058692,-0.7115086952892304,0.5341218863969751,13.452353,-1.5749875,-2.6464167,1.660021,1.5765538,-1.1839994,1.8913362,-0.35470435,0.11631664,0.022787072,-0.92743516,-7.6545315,8.692434,-0.05856342,0.21275717,-1.0453607,0.7188485,0
1.8900000000000015,10.662827386885503,0.12161018400058692,-0.7115086952892304,0.5341218863969751,13.452353,-1.5749875,-2.6464167,1.660021,1.4998859,-1.0970542,1.8907785,-0.35138848,0.111307755,0.023225216,-0.92929935,-7.6789083,8.696515,-0.05293978,0.1985126,-0.99330443,0.7097839,0
1.9000000000000015,10.662827386885503,0.12161018400058692,-0.7115086952892304,0.5341218863969751,13.452353,-1.5749875,-2.6464167,1.660021,1.4229788,-1.0100709,1.8902782,-0.34809855,0.106539115,0.023644106,-0.9310842,-7.702371,8.700054,-0.047085635,0.18649408,-0.9493651,0.70116407,0
1.9100000000000015,10.662827386885503,0.12161018400058692,-0.7115086952892304,0.5341218863969751,13.452353,-1.5749875,-2.6464167,1.660021,1.3458415,-0.9230548,1.8898376,-0.34483415,0.101973094,0.024047717,-0.9327983,-7.724957,8.703079,-0.04102125,0.17635371,-0.912277,0.6929673,0
1.9200000000000015,10.492739029680854,-0.0885813304241255,-0.6064903347873336,0.4228563884643852,13.517983,-1.8603765,-2.5926573,1.7977005,1.2684826,-0.83601093,1.8894585,-0.34159476,0.09757789,0.024439253,-0.9344487,-7.7466984,8.705614,-0.034764085,0.16779791,-0.88097197,0.6851727,0
1.9300000000000015,10.492739029680854,-0.0885813304241255,-0.6064903347873336,0.4228563884643852,13.517983,-1.8603765,-2.5926573,1.7977005,1.1909119,-0.74894434,1.8891345,-0.33838555,0.09339424,0.024886984,-0.9360307,-7.7672906,8.7076435,-0.029997557,0.12778956,-0.83818567,0.67230076,0
1.9400000000000015,10.492739029680854,-0.0885813304241255,-0.6064903347873336,0.4228563884643852,13.517983,-1.8603765,-2.5926573,1.7977005,1.113139,-0.6618597,1.888859,-0.3352129,0.089452796,0.025445472,-0.93754095,-7.7871284,8.709215,-0.025074866,0.09402434,-0.8020683,0.66006047,0
1.9500000000000015,10.492739029680854,-0.0885813304241255,-0.6064903347873336,0.4228563884643852,13.517983,-1.8603765,-2.5926573,1.7977005,1.0351715,-0.57476157,1.8886335,-0.33207732,0.08571522,0.026098501,-0.9389869,-7.80626,8.71033,-0.02001264,0.06552807,-0.7715808,0.6484208,0
1.9600000000000015,10.932547248998794,-0.571675452367741,-0.09694375168595552,0.5250133024482484,14.251145,-2.2603352,-2.4031537,1.9402019,0.9570161,-0.48765463,1.8884592,-0.32897902,0.08214919,0.026832215,-0.9403746,-7.824725,8.71099,-0.014825056,0.041478585,-0.7458454,0.6373523,0
1.9700000000000015,10.932547248998794,-0.571675452367741,-0.09694375168595552,0.5250133024482484,14.251145,-2.2603352,-2.4031537,1.9402019,0.87867546,-0.40054327,1.8883591,-0.3258957,0.07898304,0.027748872,-0.941692,-7.843317,8.711205,-0.0051925043,-0.054186814,-0.644689,0.63183975,0
1.9800000000000015,10.932547248998794,-0.571675452367741,-0.09694375168595552,0.5250133024482484,14.251145,-2.2603352,-2.4031537,1.9402019,0.80015165,-0.3134322,1.8883556,-0.32280907,0.076396115,0.028929748,-0.9429322,-7.8613796,8.7109375,0.00452996,-0.13492578,-0.55930114,0.62659776,0
1.9900000000000015,10.932547248998794,-0.571675452367741,-0.09694375168595552,0.5250133024482484,14.251145,-2.2603352,-2.4031537,1.9402019,0.72144926,-0.22632624,1.8884499,-0.31972367,0.07429734,0.030335383,-0.9441062,-7.879039,8.71018,0.014316967,-0.20306765,-0.4872238,0.62161297,0
2.0000000000000013,,,,,15.197969,-2.674385,-2.5222378,2.2370725,0.6425719,-0.13923034,1.8886422,-0.3166426,0.07260983,0.031932183,-0.94522256,-7.8963995,8.708923,0.024147725,-0.26057777,-0.42638224,0.61687285,0
2.010000000000001,,,,,15.197969,-2.674385,-2.5222378,2.2370725,0.5635196,-0.052149765,1.8889478,-0.31355092,0.07148884,0.03380764,-0.9462728,-7.9140377,8.7071085,0.03698908,-0.37964115,-0.30799818,0.6164405,0
2.020000000000001,,,,,15.197969,-2.674385,-2.5222378,2.2370725,0.4842913,0.034909956,1.8893819,-0.31043556,0.07105372,0.03603013,-0.94725025,-7.9316287,8.704748,0.04982758,-0.48012915,-0.20806867,0.6160294,0
2.0300000000000007,,,,,15.197969,-2.674385,-2.5222378,2.2370725,0.40488663,0.12194325,1.8899443,-0.3073007,0.071196295,0.038547244,-0.9481622,-7.9493284,8.701818,0.06263524,-0.5649398,-0.12371672,0.61563843,0
2.0400000000000005,,,,,15.197969,-2.674385,-2.5222378,2.2370725,0.32530388,0.2089443,1.8906345,-0.30414927,0.07182533,0.0413144,-0.949014,-7.967266,8.698297,0.07538734,-0.6365187,-0.05251383,0.6152667,0
2.0500000000000003,,,,,14.880489,-2.8180995,-2.1287022,2.276746,0.2455401,0.29590708,1.8914518,-0.30098346,0.07286387,0.04429367,-0.9498095,-7.985551,8.694162,0.08806146,-0.69693065,0.0075894482,0.61491317,1
2.06,,,,,14.880489,-2.8180995,-2.1287022,2.276746,0.16556096,0.3828176,1.8925762,-0.29751197,0.07353926,0.048407,-0.9506501,-8.010346,8.68777,0.13668856,-1.0262066,-0.32437927,0.69633156,1
2.07,,,,,14.880489,-2.8180995,-2.1287022,2.276746,0.08533155,0.46965757,1.894185,-0.29346418,0.07322573,0.054391336,-0.9516084,-8.035598,8.679948,0.1850257,-1.3054938,-0.6059543,0.773883,1
2.0799999999999996,,,,,14.880489,-2.8180995,-2.1287022,2.276746,0.0048478004,0.55640954,1.8962761,-0.2888725,0.07207251,0.06194698,-0.952639,-8.061197,8.670093,0.23317891,-1.5412242,-0.84361804,0.8476289,1
2.0899999999999994,,,,,14.104211,-2.7505007,-2.1982596,2.586207,-0.07589316,0.6430507,1.8988478,-0.2837651,0.07020668,0.07081961,-0.9536945,-8.087022,8.657706,0.28109932,-1.7401944,-1.044215,0.9177561,1
2.099999999999999,,,,,14.104211,-2.7505007,-2.1982596,2.586207,-0.15688622,0.72955734,1.9018592,-0.27813032,0.06770486,0.0807735,-0.9547437,-8.111595,8.64317,0.32111913,-1.8975787,-1.2243824,0.99962753,1
2.109999999999999,,,,,14.104211,-2.7505007,-2.1982596,2.586207,-0.23812494,0.8159033,1.905269,-0.27195624,0.064635225,0.09160977,-0.95575625,-8.136132,8.625512,0.36078024,-2.030423,-1.3764472,1.0774814,1
2.1199999999999988,,,,,14.104211,-2.7505007,-2.1982596,2.586207,-0.3196083,0.902056,1.9090732,-0.26526716,0.061086588,0.10317935,-0.95669013,-8.160502,8.604464,0.39999336,-2.1425562,-1.5047901,1.151515,1
2.1299999999999986,,,,,13.311623,-2.6326451,-2.2792041,2.6185102,-0.40133396,0.98798025,1.913267,-0.25808626,0.057134885,0.11535588,-0.95750743,-8.184577,8.579806,0.43865663,-2.23721,-1.6131096,1.2219157,1
2.1399999999999983,,,,,13.311623,-2.6326451,-2.2792041,2.6185102,-0.48329172,1.073647,1.917806,-0.25043076,0.05280263,0.12799494,-0.95818263,-8.206898,8.552965,0.46900988,-2.298719,-1.7171382,1.290447,1
2.149999999999998,,,,,13.311623,-2.6326451,-2.2792041,2.6185102,-0.5654701,1.1590269,1.9226449,-0.24231714,0.048112523,0.14097568,-0.9586938,-8.228676,8.522436,0.4986298,-2.350644,-1.8049356,1.3556155,1
2.159999999999998,,,,,13.311623,-2.6326451,-2.2792041,2.6185102,-0.6478629,1.2440827,1.9277756,-0.23376627,0.043125235,0.15423061,-0.95901346,-8.249773,8.4881315,0.5274027,-2.394481,-1.8790327,1.4175861,1
2.1699999999999977,,,,,14.007837,-3.013317,-1.6999449,3.145247,-0.7304628,1.3287764,1.9331894,-0.22479862,0.03789274,0.16770214,-0.95911735,-8.270056,8.449993,0.5552098,-2.4314902,-1.9415668,1.4765159,1
2.1799999999999975,,,,,14.007837,-3.013317,-1.6999449,3.145247,-0.813266,1.4130584,1.9389087,-0.21540603,0.032726776,0.18143356,-0.95896375,-8.290422,8.405785,0.5884538,-2.5221603,-1.9041077,1.558401,1
2.1899999999999973,,,,,14.007837,-3.013317,-1.6999449,3.145247,-0.89626783,1.4968779,1.944954,-0.20558119,0.027878266,0.19545832,-0.9585174,-8.309791,8.357474,0.6203976,-2.598693,-1.872478,1.636268,1
