time-since-start [s],throttle_mpc,roll_mpc,pitch_mpc,yaw_mpc,throttle_nw,roll_nw,pitch_nw,yaw_nw,position_x [m],position_y [m],position_z [m],rotation_w [quaternion],rotation_x [quaternion],rotation_y [quaternion],rotation_z [quaternion],velocity_x [m/s],velocity_y [m/s],velocity_z [m/s],omega_x [rad/s],omega_y [rad/s],omega_z [rad/s],network_used
0.0,7.798953771334993,5.999999540283251,-5.999999909782415,-5.130419931103433,8.802316,-0.26509395,-3.4311125,-0.5711972,18.724861,-9.577698,1.9181669,-0.034169633,0.39878064,-0.14949742,-0.90413326,-11.772057,-0.9804559,-0.24686976,1.2901868,0.08155303,-0.012028043,0
0.01,7.798953771334993,5.999999540283251,-5.999999909782415,-5.130419931103433,15.744135,-1.8392054,-5.6053095,1.6532797,18.606527,-9.587242,1.9157578,-0.037037928,0.39875296,-0.15489599,-0.9031232,-11.8943405,-0.9284459,-0.23545901,1.1834828,-0.025794132,-0.17545706,0
0.02,7.798953771334993,5.999999540283251,-5.999999909782415,-5.130419931103433,15.744135,-1.8392054,-5.6053095,1.6532797,18.486986,-9.596264,1.9134468,-0.040515095,0.3984068,-0.15950675,-0.9023237,-12.013203,-0.8758129,-0.22724721,1.0938984,-0.116876654,-0.33483848,0
0.03,7.798953771334993,5.999999540283251,-5.999999909782415,-5.130419931103433,15.744135,-1.8392054,-5.6053095,1.6532797,18.366274,-9.604757,1.9112028,-0.044604223,0.39781055,-0.1634108,-0.9016952,-12.128644,-0.8227606,-0.22200404,1.018679,-0.19414665,-0.49027258,0
0.04,7.798953771334993,5.999999540283251,-5.999999909782415,-5.130419931103433,10.321432,-0.322229,-4.276428,-0.16641666,18.244423,-9.612719,1.9089973,-0.04930497,0.39702025,-0.16667733,-0.9012007,-12.240716,-0.76944274,-0.21950115,0.9560259,-0.2602003,-0.6418133,0
0.05,7.798953771334993,5.999999540283251,-5.999999909782415,-5.130419931103433,10.321432,-0.322229,-4.276428,-0.16641666,18.121468,-9.620144,1.9068072,-0.05462947,0.3960516,-0.16939317,-0.90081346,-12.350342,-0.7155571,-0.21875736,0.9181159,-0.3309375,-0.78835744,0
0.060000000000000005,7.798953771334993,5.999999540283251,-5.999999909782415,-5.130419931103433,10.321432,-0.322229,-4.276428,-0.16641666,17.997425,-9.6270275,1.9046178,-0.060617264,0.39485243,-0.17168927,-0.9005221,-12.457845,-0.6610256,-0.21933283,0.9078138,-0.41236353,-0.92965096,0
0.07,7.798953771334993,5.999999540283251,-5.999999909782415,-5.130419931103433,10.321432,-0.322229,-4.276428,-0.16641666,17.872318,-9.633364,1.9024163,-0.06730519,0.39336443,-0.17368592,-0.9003154,-12.563099,-0.60593414,-0.2211739,0.92151034,-0.5035151,-1.066014,0
0.08,8.775943882294879,5.999999770111317,-5.999999945641118,-5.220609601901409,12.423281,0.6031877,-4.6521215,-0.42748895,17.74617,-9.639145,1.9001902,-0.074723534,0.3915319,-0.17548653,-0.90017986,-12.665974,-0.5503339,-0.22422116,0.95603794,-0.60345626,-1.1977402,0
0.09,8.775943882294879,5.999999770111317,-5.999999945641118,-5.220609601901409,12.423281,0.6031877,-4.6521215,-0.42748895,17.618979,-9.644353,1.8979548,-0.082928956,0.38927057,-0.17720254,-0.9001059,-12.772041,-0.49105525,-0.22306497,1.0223969,-0.72509784,-1.3307562,0
0.09999999999999999,8.775943882294879,5.999999770111317,-5.999999945641118,-5.220609601901409,12.423281,0.6031877,-4.6521215,-0.42748895,17.490738,-9.648965,1.8957251,-0.09197159,0.38649887,-0.17893091,-0.9000799,-12.875248,-0.43127054,-0.22306512,1.104045,-0.8534555,-1.4595387,0
0.10999999999999999,8.775943882294879,5.999999770111317,-5.999999945641118,-5.220609601901409,12.423281,0.6031877,-4.6521215,-0.42748895,17.361483,-9.652976,1.8934898,-0.101863556,0.38316905,-0.18073328,-0.9000783,-12.97542,-0.37095213,-0.22413477,1.1988382,-0.9877235,-1.5843168,0
0.11999999999999998,8.775943882294879,5.999999770111317,-5.999999945641118,-5.220609601901409,12.423281,0.6031877,-4.6521215,-0.42748895,17.231241,-9.656383,1.891239,-0.11261219,0.37923563,-0.18266073,-0.9000745,-13.072382,-0.31006676,-0.22618666,1.30489,-1.1271433,-1.7053021,0
0.12999999999999998,11.349571458515639,5.999999912893609,-5.99999998218247,-4.691453488762358,11.773058,0.6981909,-4.6586337,-0.7716094,17.100046,-9.659177,1.8889631,-0.12422028,0.37465492,-0.18475486,-0.90003824,-13.165952,-0.248581,-0.22913417,1.4205383,-1.271005,-1.8226888,0
0.13999999999999999,11.349571458515639,5.999999912893609,-5.99999998218247,-4.691453488762358,11.773058,0.6981909,-4.6586337,-0.7716094,16.967897,-9.661327,1.8866932,-0.13685885,0.36900324,-0.18734103,-0.90000546,-13.263389,-0.18129039,-0.22504932,1.6875273,-1.5621884,-1.9234986,0
0.15,11.349571458515639,5.999999912893609,-5.99999998218247,-4.691453488762358,11.773058,0.6981909,-4.6586337,-0.7716094,16.834797,-9.662802,1.8844582,-0.15067054,0.36189443,-0.19069183,-0.89998204,-13.356143,-0.113441065,-0.22210054,1.9480634,-1.8431932,-2.0225096,0
0.16,13.86625369220306,5.999999965972657,-6.0,-3.883043893358394,13.008178,3.9893756,-6.716275,-0.023366641,16.700792,-9.663593,1.8822479,-0.16561002,0.3533402,-0.19476122,-0.89988464,-13.443861,-0.044874974,-0.22008,2.2022762,-2.1147258,-2.1197312,0
0.17,13.86625369220306,5.999999965972657,-6.0,-3.883043893358394,13.008178,3.9893756,-6.716275,-0.023366641,16.565914,-9.663677,1.880081,-0.18182515,0.34284192,-0.19985558,-0.89969826,-13.530564,0.02823383,-0.21349189,2.6309068,-2.5584567,-2.1916606,0
0.18000000000000002,13.86625369220306,5.999999965972657,-6.0,-3.883043893358394,13.008178,3.9893756,-6.716275,-0.023366641,16.430204,-9.663027,1.8779743,-0.19942527,0.3299439,-0.20621759,-0.89935595,-13.610534,0.101988405,-0.2080251,3.03579,-2.9760952,-2.2639146,0
0.19000000000000003,13.86625369220306,5.999999965972657,-6.0,-3.883043893358394,13.008178,3.9893756,-6.716275,-0.023366641,16.293732,-9.661635,1.8759174,-0.21830216,0.31471315,-0.21370693,-0.89868206,-13.683247,0.17651398,-0.20343883,3.4187884,-3.3698678,-2.3363125,0
0.20000000000000004,16.608122659820015,5.999999979453267,-6.0,-3.1346755275704536,15.316108,3.1159668,-7.7162294,-0.37222606,16.156569,-9.659494,1.8739029,-0.23834363,0.29720962,-0.22218722,-0.89749205,-13.74822,0.2518181,-0.19957566,3.781603,-3.741784,-2.4086945,0
0.21000000000000005,16.608122659820015,5.999999979453267,-6.0,-3.1346755275704536,15.316108,3.1159668,-7.7162294,-0.37222606,16.01874,-9.656524,1.872021,-0.25936076,0.27744797,-0.2315639,-0.89561886,-13.81615,0.34273404,-0.17644745,4.1269135,-4.0945888,-2.4443188,0
0.22000000000000006,16.608122659820015,5.999999979453267,-6.0,-3.1346755275704536,15.316108,3.1159668,-7.7162294,-0.37222606,15.880275,-9.65263,1.8703821,-0.28109214,0.25558725,-0.24166486,-0.8928946,-13.875301,0.43658215,-0.15098007,4.4184504,-4.392298,-2.4781947,0
0.23000000000000007,16.608122659820015,5.999999979453267,-6.0,-3.1346755275704536,15.316108,3.1159668,-7.7162294,-0.37222606,15.741266,-9.647783,1.8690091,-0.3033289,0.2318813,-0.25226545,-0.88914853,-13.924786,0.5330316,-0.12329081,4.66459,-4.643513,-2.5104082,0
0.24000000000000007,16.608122659820015,5.999999979453267,-6.0,-3.1346755275704536,15.392563,3.6645942,-7.6584253,-0.18081959,15.601815,-9.641962,1.8679231,-0.3258833,0.20655805,-0.26317382,-0.8842363,-13.963821,0.63161635,-0.09359993,4.872403,-4.8554935,-2.541041,0
0.25000000000000006,16.608122659820015,5.999999979453267,-6.0,-3.1346755275704536,15.392563,3.6645942,-7.6584253,-0.18081959,15.4620285,-9.635147,1.8671428,-0.348586,0.17982414,-0.27422592,-0.8780385,-13.991737,0.7317551,-0.062218525,5.0478606,-5.034365,-2.5701709,0
0.26000000000000006,16.608122659820015,5.999999979453267,-6.0,-3.1346755275704536,15.392563,3.6645942,-7.6584253,-0.18081959,15.322021,-9.627325,1.8666832,-0.37128395,0.15186843,-0.2852814,-0.87045914,-14.007977,0.83277,-0.029536132,5.1960006,-5.185297,-2.597871,0
0.2700000000000001,16.608122659820015,5.999999979453267,-6.0,-3.1346755275704536,15.392563,3.6645942,-7.6584253,-0.18081959,15.1819105,-9.618491,1.8665551,-0.39383858,0.12286477,-0.29622003,-0.8614229,-14.012106,0.9339048,0.003991479,5.321078,-5.312652,-2.6242123,0
0.2800000000000001,20.999999090924252,5.999999965077628,-5.999999987922158,-2.2356434508486247,16.0504,3.4301608,-7.681024,-0.26324552,15.0418215,-9.608649,1.8667642,-0.41612393,0.09297397,-0.3069388,-0.8508734,-14.003816,1.0343423,0.037854336,5.4266834,-5.4201126,-2.6492608,0
0.2900000000000001,20.999999090924252,5.999999965077628,-5.999999987922158,-2.2356434508486247,16.0504,3.4301608,-7.681024,-0.26324552,14.901903,-9.597678,1.8674856,-0.43793163,0.06231133,-0.31735924,-0.8388186,-13.9774,1.1593677,0.10633862,5.516009,-5.5106263,-2.6289647,0
0.3000000000000001,20.999999090924252,5.999999965077628,-5.999999987922158,-2.2356434508486247,16.0504,3.4301608,-7.681024,-0.26324552,14.762328,-9.585472,1.8688875,-0.4590732,0.030983187,-0.32741162,-0.82528406,-13.934983,1.2812971,0.17380688,5.591427,-5.5870023,-2.6096642,0
0.3100000000000001,20.999999090924252,5.999999965077628,-5.999999987922158,-2.2356434508486247,16.0504,3.4301608,-7.681024,-0.26324552,14.623257,-9.572067,1.8709556,-0.47946805,-0.0008781906,-0.33702537,-0.81026155,-13.876657,1.3989924,0.2394873,5.6551023,-5.6514497,-2.5913112,0
0.3200000000000001,20.99999990492761,5.288777887603459,-5.999993317000493,-0.5053751013715845,15.625003,2.9949014,-6.8373704,0.0014341362,14.484848,-9.557511,1.8736682,-0.49904373,-0.03314847,-0.34613967,-0.79375315,-13.802669,1.5113195,0.3025895,5.7088623,-5.705832,-2.5738585,0
0.3300000000000001,20.99999990492761,5.288777887603459,-5.999993317000493,-0.5053751013715845,15.625003,2.9949014,-6.8373704,0.0014341362,14.347257,-9.541864,1.8769957,-0.51758236,-0.06564113,-0.35447207,-0.7759829,-13.713441,1.6171577,0.36233228,5.6436543,-5.751223,-2.4723575,0
0.34000000000000014,20.99999990492761,5.288777887603459,-5.999993317000493,-0.5053751013715845,15.625003,2.9949014,-6.8373704,0.0014341362,14.210629,-9.525195,1.880901,-0.53491116,-0.09819977,-0.3618018,-0.7571833,-13.609652,1.7153978,0.41803244,5.588614,-5.7895775,-2.3758373,0
0.35000000000000014,20.99999990492761,5.288777887603459,-5.999993317000493,-0.5053751013715845,15.625003,2.9949014,-6.8373704,0.0014341362,14.07511,-9.5075865,1.8853402,-0.5510307,-0.13075434,-0.36816266,-0.7373771,-13.492123,1.8050033,0.46904784,5.5421524,-5.821988,-2.2840533,0
0.36000000000000015,20.999999728700786,3.6437470727394965,-3.7287812455850693,0.20262346505557144,14.40226,1.7858679,-4.938272,0.53665763,13.940831,-9.489128,1.8902637,-0.5659411,-0.16323783,-0.3735827,-0.71658945,-13.36176,1.885031,0.5147491,5.5029306,-5.849376,-2.1967733,0
0.37000000000000016,20.999999728700786,3.6437470727394965,-3.7287812455850693,0.20262346505557144,14.40226,1.7858679,-4.938272,0.53665763,13.807916,-9.46992,1.895615,-0.57936996,-0.19460368,-0.37813458,-0.6953232,-13.219614,1.9547093,0.5545561,5.2138906,-5.517855,-2.0790343,0
0.38000000000000017,20.999999728700786,3.6437470727394965,-3.7287812455850693,0.20262346505557144,14.40226,1.7858679,-4.938272,0.53665763,13.676475,-9.450069,1.9013332,-0.5911822,-0.22405477,-0.3819455,-0.6741077,-13.067125,2.0138195,0.5881145,4.969789,-5.238156,-1.9670727,0
0.3900000000000002,20.999999728700786,3.6437470727394965,-3.7287812455850693,0.20262346505557144,14.40226,1.7858679,-4.938272,0.53665763,13.546604,-9.42968,1.907355,-0.60155696,-0.25186956,-0.3851008,-0.6529845,-12.905718,2.0623736,0.6152057,4.7636437,-5.002174,-1.8606051,0
0.4000000000000002,20.643484645671496,1.6320675387371946,-1.092228709382281,0.7940859580406228,13.695353,1.2773297,-3.0493646,1.1155779,13.418386,-9.408857,1.9136145,-0.6106424,-0.2782826,-0.3876648,-0.631974,-12.736663,2.1004264,0.6356664,4.589555,-4.8030744,-1.759362,0
0.4100000000000002,20.643484645671496,1.6320675387371946,-1.092228709382281,0.7940859580406228,13.695353,1.2773297,-3.0493646,1.1155779,13.291879,-9.387709,1.9200355,-0.61835337,-0.30237406,-0.38982084,-0.6117591,-12.56413,2.1276922,0.64752525,4.129348,-4.2235036,-1.6340635,0
0.4200000000000002,20.643484645671496,1.6320675387371946,-1.092228709382281,0.7940859580406228,13.695353,1.2773297,-3.0493646,1.1155779,13.167123,-9.366335,1.9265431,-0.62470645,-0.32347816,-0.39177522,-0.5929726,-12.386523,2.145593,0.65306014,3.7407105,-3.734477,-1.5149134,0
0.4300000000000002,20.643484645671496,1.6320675387371946,-1.092228709382281,0.7940859580406228,13.695353,1.2773297,-3.0493646,1.1155779,13.044164,-9.344826,1.9330761,-0.62993664,-0.34211326,-0.39358738,-0.57552415,-12.204937,2.155037,0.65265334,3.4125226,-3.3218427,-1.4016101,0
0.4400000000000002,20.643484645671496,1.6320675387371946,-1.092228709382281,0.7940859580406228,12.648804,0.021106265,-0.06535411,0.74296933,12.923036,-9.323261,1.9395771,-0.63422763,-0.3587104,-0.3952924,-0.55930924,-12.020223,2.1568308,0.6466719,3.1353896,-2.9736612,-1.2938666,0
0.45000000000000023,20.643484645671496,1.6320675387371946,-1.092228709382281,0.7940859580406228,12.648804,0.021106265,-0.06535411,0.74296933,12.803768,-9.301714,1.9459916,-0.6377245,-0.3736274,-0.39690876,-0.54421896,-11.833048,2.1516817,0.63545483,2.9013746,-2.6798608,-1.1914102,0
0.46000000000000024,20.643484645671496,1.6320675387371946,-1.092228709382281,0.7940859580406228,12.648804,0.021106265,-0.06535411,0.74296933,12.686382,-9.280251,1.9522692,-0.6405425,-0.38716087,-0.39844415,-0.530146,-11.643938,2.140204,0.61930805,2.7037742,-2.4319446,-1.0939814,0
0.47000000000000025,20.643484645671496,1.6320675387371946,-1.092228709382281,0.7940859580406228,12.648804,0.021106265,-0.06535411,0.74296933,12.570894,-9.258931,1.9583619,-0.64277416,-0.3995565,-0.39989948,-0.5169885,-11.453312,2.1229298,0.5985022,2.5369263,-2.2227442,-1.0013335,0
0.48000000000000026,17.93720415437407,-0.10247912771469754,1.0010514083443538,1.1646500831214794,13.453349,0.1113899,0.455101,0.1490163,12.45732,-9.237811,1.9642242,-0.64449435,-0.41101772,-0.4012714,-0.5046518,-11.261504,2.100316,0.5732741,2.3960474,-2.0462112,-0.91323173,0
0.49000000000000027,17.93720415437407,-0.10247912771469754,1.0010514083443538,1.1646500831214794,13.453349,0.1113899,0.455101,0.1490163,12.345542,-9.216923,1.9697676,-0.6456989,-0.42086846,-0.40273294,-0.49371,-11.094058,2.076443,0.5348736,2.0067925,-1.5706259,-0.8112695,0
0.5000000000000002,17.93720415437407,-0.10247912771469754,1.0010514083443538,1.1646500831214794,13.453349,0.1113899,0.455101,0.1490163,12.235442,-9.196293,1.9749107,-0.64641285,-0.42860624,-0.40443972,-0.48464042,-10.92604,2.0491278,0.49330875,1.6781399,-1.1692933,-0.7143105,0
0.5100000000000002,17.93720415437407,-0.10247912771469754,1.0010514083443538,1.1646500831214794,13.453349,0.1113899,0.455101,0.1490163,12.127024,-9.17595,1.9796245,-0.6467216,-0.43461177,-0.4063556,-0.47722062,-10.7575865,2.019179,0.44906032,1.400662,-0.83061516,-0.6221094,0
0.5200000000000002,16.845860831956376,-2.1236751834641936,3.0676797628971695,1.8846395406804786,15.316763,-1.3337742,2.395884,0.65772206,12.020291,-9.155917,1.9838841,-0.6466874,-0.43919712,-0.40844256,-0.47125,-10.588779,1.9872789,0.40253824,1.1663958,-0.5448056,-0.53443253,0
0.5300000000000002,16.845860831956376,-2.1236751834641936,3.0676797628971695,1.8846395406804786,15.316763,-1.3337742,2.395884,0.65772206,11.915196,-9.1362,1.9876536,-0.64633393,-0.44174522,-0.41078106,-0.46730408,-10.429952,1.956099,0.35111988,0.6535082,0.018790826,-0.415728,0
0.5400000000000003,16.845860831956376,-2.1236751834641936,3.0676797628971695,1.8846395406804786,15.316763,-1.3337742,2.395884,0.65772206,11.811692,-9.1167965,1.9909027,-0.64567554,-0.44178647,-0.41342902,-0.46583772,-10.270848,1.9246216,0.29855397,0.22050227,0.49439856,-0.3028483,0
0.5500000000000003,16.845860831956376,-2.1236751834641936,3.0676797628971695,1.8846395406804786,15.316763,-1.3337742,2.395884,0.65772206,11.709781,-9.097706,1.9936229,-0.64472896,-0.43974477,-0.41631347,-0.46651113,-10.11147,1.8937676,0.2454536,-0.14505255,0.8957635,-0.19550768,0
0.5600000000000003,19.453278922123243,-5.787166519506982,5.99999271933903,1.771257885115083,17.144018,-2.5515246,3.8913276,1.2558427,11.609465,-9.078916,1.9958116,-0.6434947,-0.4359656,-0.41936404,-0.46902323,-9.951821,1.8643184,0.19233085,-0.4536553,1.234483,-0.09343426,0
0.5700000000000003,19.453278922123243,-5.787166519506982,5.99999271933903,1.771257885115083,17.144018,-2.5515246,3.8913276,1.2558427,11.510868,-9.0604315,1.9975061,-0.64210784,-0.42922673,-0.42258292,-0.47422156,-9.7671795,1.8328221,0.14674331,-1.2854836,1.9776382,-0.001933286,0
0.5800000000000003,19.453278922123243,-5.787166519506982,5.99999271933903,1.771257885115083,17.144018,-2.5515246,3.8913276,1.2558427,11.414121,-9.042245,1.9987522,-0.6406161,-0.4185374,-0.42593047,-0.48272255,-9.582394,1.8052982,0.10284131,-1.9876634,2.6048124,0.0850777,0
0.5900000000000003,19.453278922123243,-5.787166519506982,5.99999271933903,1.771257885115083,17.144018,-2.5515246,3.8913276,1.2558427,11.319221,-9.024306,1.9995725,-0.6388705,-0.40445468,-0.42927462,-0.49394792,-9.397723,1.7832364,0.0617429,-2.5803907,3.1341188,0.16781904,0
0.6000000000000003,19.285212332860635,-5.999999687734036,5.999999612062301,1.8279501949037398,17.251333,-3.89154,5.565047,0.93935937,11.226165,-9.0065565,1.9999998,-0.6367203,-0.38743457,-0.43248746,-0.5073821,-9.213555,1.7679065,0.024345025,-3.0807168,3.580839,0.24650024,0
0.6100000000000003,19.285212332860635,-5.999999687734036,5.999999612062301,1.8279501949037398,17.251333,-3.89154,5.565047,0.93935937,11.134938,-8.988921,2.0000718,-0.634052,-0.3678055,-0.43540445,-0.52260923,-9.031999,1.7604499,-0.009208632,-3.536237,3.957855,0.32410246,0
0.6200000000000003,19.285212332860635,-5.999999687734036,5.999999612062301,1.8279501949037398,17.251333,-3.89154,5.565047,0.93935937,11.045519,-8.971318,1.9998325,-0.630755,-0.34584782,-0.4378801,-0.5392575,-8.852124,1.761631,-0.03783193,-3.9207315,4.2760577,0.3978967,0
0.6300000000000003,19.285212332860635,-5.999999687734036,5.999999612062301,1.8279501949037398,17.251333,-3.89154,5.565047,0.93935937,10.957887,-8.953656,1.9993335,-0.62670344,-0.32185203,-0.4398318,-0.5569582,-8.674718,1.7721812,-0.061117355,-4.2452693,4.544628,0.46806982,0
0.6400000000000003,19.285212332860635,-5.999999687734036,5.999999612062301,1.8279501949037398,18.769312,-4.151485,5.835683,1.1405339,10.872012,-8.935841,1.9986293,-0.6217908,-0.29607165,-0.4411897,-0.57538664,-8.500663,1.7926694,-0.078811504,-4.5191946,4.7713137,0.5347996,0
0.6500000000000004,19.285212332860635,-5.999999687734036,5.999999612062301,1.8279501949037398,18.769312,-4.151485,5.835683,1.1405339,10.787858,-8.917768,1.9977769,-0.61593,-0.268731,-0.44189632,-0.5942575,-8.330919,1.823509,-0.09080077,-4.7503967,4.96265,0.5982548,0
0.6600000000000004,19.285212332860635,-5.999999687734036,5.999999612062301,1.8279501949037398,18.769312,-4.151485,5.835683,1.1405339,10.705376,-8.899334,1.996833,-0.60905164,-0.24003075,-0.4419057,-0.61331975,-8.166506,1.8649609,-0.09709829,-4.945535,5.1241536,0.6585963,0
0.6700000000000004,19.285212332860635,-5.999999687734036,5.999999612062301,1.8279501949037398,18.769312,-4.151485,5.835683,1.1405339,10.624506,-8.880432,1.995854,-0.60110277,-0.21015236,-0.44118243,-0.6323528,-8.008474,1.9171392,-0.097832024,-5.1102333,5.2604804,0.7159769,0
0.6800000000000004,20.397259907717793,-5.999999733593854,5.999999597680746,2.0096633712689145,19.967964,-4.780034,5.913036,1.0664787,10.545181,-8.860954,1.9948947,-0.59204483,-0.1792611,-0.43970034,-0.65116245,-7.85789,1.9800162,-0.09323338,-5.2492366,5.375557,0.7705418,0
0.6900000000000004,20.397259907717793,-5.999999733593854,5.999999597680746,2.0096633712689145,19.967964,-4.780034,5.913036,1.0664787,10.4673605,-8.840774,1.9940374,-0.5818377,-0.14751858,-0.4374375,-0.66959095,-7.7076225,2.057661,-0.0774157,-5.366583,5.4726667,0.8313458,0
0.7000000000000004,20.397259907717793,-5.999999733593854,5.999999597680746,2.0096633712689145,19.967964,-4.780034,5.913036,1.0664787,10.390994,-8.819762,1.993363,-0.5704528,-0.11507399,-0.43438014,-0.68749976,-7.5674524,2.1461363,-0.056730337,-5.465617,5.5546446,0.8891662,0
0.7100000000000004,20.397259907717793,-5.999999733593854,5.999999597680746,2.0096633712689145,19.967964,-4.780034,5.913036,1.0664787,10.315974,-8.797815,1.9929178,-0.5578864,-0.082056284,-0.43052492,-0.704754,-7.438435,2.2449996,-0.03168234,-5.5491953,5.6238503,0.94414926,0
0.7200000000000004,20.511409378830916,-5.999998176639715,4.993425782434529,1.3840856930818075,19.627182,-4.295737,5.332621,1.2240689,10.242184,-8.77483,1.9927424,-0.5441435,-0.0485857,-0.42587352,-0.7212346,-7.3215685,2.353686,-0.002842098,-5.6197276,5.682276,0.9964343,0
0.7300000000000004,20.511409378830916,-5.999998176639715,4.993425782434529,1.3840856930818075,19.627182,-4.295737,5.332621,1.2240689,10.1695,-8.750707,1.9928755,-0.5294676,-0.015034939,-0.4202215,-0.73678505,-7.217183,2.4721465,0.029907603,-5.6790304,5.5747414,1.0154564,0
0.7400000000000004,20.511409378830916,-5.999998176639715,4.993425782434529,1.3840856930818075,19.627182,-4.295737,5.332621,1.2240689,10.097793,-8.725358,1.9933497,-0.5140836,0.018281497,-0.41342908,-0.7513059,-7.126668,2.5988,0.065287724,-5.7290897,5.4839845,1.0335451,0
0.7500000000000004,20.511409378830916,-5.999998176639715,4.993425782434529,1.3840856930818075,19.627182,-4.295737,5.332621,1.2240689,10.026918,-8.698706,1.9941885,-0.49798,0.051337354,-0.40558952,-0.76477313,-7.050627,2.7325828,0.10272772,-5.771347,5.4073887,1.0507463,0
0.7600000000000005,17.65561926872235,-4.676878643766734,2.8274962781707127,0.3162395040483367,18.347237,-4.5034103,4.2285485,1.186357,9.95673,-8.670686,1.9954095,-0.48115295,0.08410517,-0.3967847,-0.7771618,-6.989564,2.8724148,0.1416296,-5.807018,5.342745,1.0671034,0
0.7700000000000005,17.65561926872235,-4.676878643766734,2.8274962781707127,0.3162395040483367,18.347237,-4.5034103,4.2285485,1.186357,9.887042,-8.641342,1.9969283,-0.4641121,0.11568232,-0.38708714,-0.7882775,-6.950171,2.9970098,0.16219658,-5.6303816,4.950751,1.0302582,0
0.7800000000000005,17.65561926872235,-4.676878643766734,2.8274962781707127,0.3162395040483367,18.347237,-4.5034103,4.2285485,1.186357,9.817683,-8.610736,1.9986546,-0.44733816,0.14536591,-0.3766157,-0.79807156,-6.9237313,3.1246936,0.18307805,-5.481355,4.619856,0.9952212,0
0.7900000000000005,17.65561926872235,-4.676878643766734,2.8274962781707127,0.3162395040483367,18.347237,-4.5034103,4.2285485,1.186357,9.748525,-8.578842,2.0005898,-0.43078613,0.17340276,-0.3654905,-0.8067043,-6.9098577,3.2543852,0.20392144,-5.3556223,4.3405366,0.96190333,0
0.8000000000000005,14.612891879843447,-2.616710051802105,0.7694647818622622,-0.0811659186745113,15.641377,-3.572007,1.7813776,0.82301474,9.679443,-8.545645,2.0027318,-0.4144121,0.20000374,-0.35380596,-0.814299,-6.908162,3.3851318,0.2244102,-5.24954,4.104754,0.9302204,0
0.8100000000000005,14.612891879843447,-2.616710051802105,0.7694647818622622,-0.0811659186745113,15.641377,-3.572007,1.7813776,0.82301474,9.610328,-8.5112505,2.0049741,-0.39868546,0.22436094,-0.34197208,-0.82083344,-6.9164453,3.4935133,0.22394042,-4.8385196,3.5850234,0.8805914,0
0.8200000000000005,14.612891879843447,-2.616710051802105,0.7694647818622622,-0.0811659186745113,15.641377,-3.572007,1.7813776,0.82301474,9.541084,-8.475776,2.0072086,-0.3840269,0.24587664,-0.33036235,-0.8263952,-6.933611,3.6014326,0.2228291,-4.4916806,3.1462762,0.8333977,0
0.8300000000000005,14.612891879843447,-2.616710051802105,0.7694647818622622,-0.0811659186745113,15.641377,-3.572007,1.7813776,0.82301474,9.471628,-8.439226,2.0094285,-0.37031996,0.26499823,-0.31898257,-0.83119756,-6.9588037,3.7083907,0.22103228,-4.1989975,2.775896,0.7885198,0
0.8400000000000005,14.612891879843447,-2.616710051802105,0.7694647818622622,-0.0811659186745113,14.524447,-3.2944393,0.9806121,0.4391218,9.401883,-8.401612,2.011627,-0.35745332,0.2821025,-0.3078239,-0.8353981,-6.991279,3.8140037,0.21854042,-3.952011,2.4632313,0.74584407,1
0.8500000000000005,14.612891879843447,-2.616710051802105,0.7694647818622622,-0.0811659186745113,14.524447,-3.2944393,0.9806121,0.4391218,9.33178,-8.362955,2.0137942,-0.34516492,0.29765144,-0.29668874,-0.8391906,-7.0301743,3.9173367,0.21479067,-3.849329,2.2321053,0.7307932,1
0.8600000000000005,14.612891879843447,-2.616710051802105,0.7694647818622622,-0.0811659186745113,14.524447,-3.2944393,0.9806121,0.4391218,9.261258,-8.323273,2.0159206,-0.33321837,0.31201553,-0.2854095,-0.8427061,-7.075242,4.0187387,0.2103883,-3.7626824,2.0370119,0.7164808,1
0.8700000000000006,14.612891879843447,-2.616710051802105,0.7694647818622622,-0.0811659186745113,14.524447,-3.2944393,0.9806121,0.4391218,9.190256,-8.282587,2.018,-0.3215541,0.32536355,-0.27401045,-0.84596694,-7.1261234,4.117947,0.20535663,-3.6895666,1.8723339,0.7028708,1
0.8800000000000006,12.827460385646658,-0.595094046759349,-0.8895246317868485,-0.39718127021741834,13.173563,-2.4185734,0.39649314,0.24246465,9.118716,-8.240922,2.0200257,-0.31012124,0.33783743,-0.26250955,-0.84898746,-7.1824975,4.214733,0.19970979,-3.6278682,1.7333293,0.68992853,0
0.8900000000000006,12.827460385646658,-0.595094046759349,-0.8895246317868485,-0.39718127021741834,13.173563,-2.4185734,0.39649314,0.24246465,9.046618,-8.198349,2.021946,-0.2994889,0.348694,-0.25154564,-0.8517299,-7.23757,4.299089,0.18387452,-3.1728673,1.3427898,0.63824224,0
0.9000000000000006,12.827460385646658,-0.595094046759349,-0.8895246317868485,-0.39718127021741834,13.173563,-2.4185734,0.39649314,0.24246465,8.973955,-8.154951,2.023698,-0.29020277,0.35727698,-0.24169286,-0.8542367,-7.295778,4.380015,0.1664947,-2.7706869,0.9949213,0.5874337,0
0.9100000000000006,12.827460385646658,-0.595094046759349,-0.8895246317868485,-0.39718127021741834,13.173563,-2.4185734,0.39649314,0.24246465,8.900693,-8.110755,2.025275,-0.2821097,0.36393443,-0.23281163,-0.85660076,-7.357185,4.458798,0.14886677,-2.4312694,0.70125,0.5391183,0
0.9200000000000006,11.588203810685195,1.3935730985309125,-2.418593533949658,-0.7434468668837929,12.72346,-1.265885,-0.15595746,-0.061744407,8.826802,-8.065782,2.026675,-0.2750534,0.3689874,-0.22476102,-0.85888106,-7.4212184,4.5355635,0.13114384,-2.1448178,0.45333493,0.4931738,0
0.9300000000000006,11.588203810685195,1.3935730985309125,-2.418593533949658,-0.7434468668837929,12.72346,-1.265885,-0.15595746,-0.061744407,8.752265,-8.020056,2.0278916,-0.26918018,0.3722782,-0.21776515,-0.8611211,-7.4860415,4.608951,0.11185981,-1.6946813,0.10745097,0.44162282,0
0.9400000000000006,11.588203810685195,1.3935730985309125,-2.418593533949658,-0.7434468668837929,12.72346,-1.265885,-0.15595746,-0.061744407,8.677082,-7.973615,2.0289054,-0.26468343,0.37355974,-0.21206677,-0.8633793,-7.5504723,4.6786847,0.09057073,-1.2775476,-0.22175387,0.3892727,0
0.9500000000000006,11.588203810685195,1.3935730985309125,-2.418593533949658,-0.7434468668837929,12.72346,-1.265885,-0.15595746,-0.061744407,8.601259,-7.9264936,2.0296972,-0.2614931,0.37296048,-0.20757042,-0.86570007,-7.6139584,4.7451954,0.0675686,-0.89002204,-0.53512406,0.33631948,0
0.9600000000000006,11.298444138989545,2.8668747753808677,-3.407903141046197,-0.9976428175579699,12.716386,0.519889,-1.6017873,-0.77996236,8.524807,-7.8787208,2.0302527,-0.25953496,0.37059993,-0.20418322,-0.86810523,-7.6763606,4.809208,0.043510426,-0.5357692,-0.82684475,0.28351364,0
0.9700000000000006,11.298444138989545,2.8668747753808677,-3.407903141046197,-0.9976428175579699,12.716386,0.519889,-1.6017873,-0.77996236,8.447713,-7.8302927,2.0305936,-0.25882593,0.3664962,-0.20200704,-0.87056476,-7.742143,4.87601,0.024486067,-0.10534958,-1.1290375,0.22963682,0
0.9800000000000006,11.298444138989545,2.8668747753808677,-3.407903141046197,-0.9976428175579699,12.716386,0.519889,-1.6017873,-0.77996236,8.369972,-7.781209,2.0307386,-0.25940177,0.360609,-0.20114389,-0.87304825,-7.805453,4.940428,0.004280952,0.2931072,-1.4193218,0.1752574,0
0.9900000000000007,11.298444138989545,2.8668747753808677,-3.407903141046197,-0.9976428175579699,12.716386,0.519889,-1.6017873,-0.77996236,8.291613,-7.731491,2.0306764,-0.2611801,0.3530174,-0.20147838,-0.8755401,-7.8659115,5.00283,-0.016899701,0.6630138,-1.6979778,0.120540775,0
1.0000000000000007,11.53791698574217,3.5604324917098165,-3.865186729111686,-1.1681816541118757,11.854811,1.5259303,-2.4353573,-0.21772777,8.212665,-7.681158,2.0303984,-0.2640789,0.34379482,-0.20290254,-0.8780081,-7.92339,5.063735,-0.0386183,1.0030686,-1.9610604,0.06600447,0
1.0100000000000007,11.53791698574217,3.5604324917098165,-3.865186729111686,-1.1681816541118757,11.854811,1.5259303,-2.4353573,-0.21772777,8.133138,-7.630201,2.029928,-0.268066,0.33296284,-0.20540844,-0.88038856,-7.9812646,5.1274467,-0.05558308,1.3719387,-2.2281656,0.0081405435,0
1.0200000000000007,11.53791698574217,3.5604324917098165,-3.865186729111686,-1.1681816541118757,11.854811,1.5259303,-2.4353573,-0.21772777,8.053051,-7.578613,2.0292852,-0.27312082,0.32050717,-0.20899476,-0.88261074,-8.035315,5.1900826,-0.0728514,1.7102952,-2.4806728,-0.049316913,0
1.0300000000000007,11.53791698574217,3.5604324917098165,-3.865186729111686,-1.1681816541118757,11.854811,1.5259303,-2.4353573,-0.21772777,7.9724407,-7.5263977,2.0284758,-0.27911046,0.30657297,-0.21350755,-0.8846046,-8.086225,5.2530518,-0.08876641,1.9987199,-2.6966672,-0.10421992,0
1.0400000000000007,11.53791698574217,3.5604324917098165,-3.865186729111686,-1.1681816541118757,11.969488,1.6911795,-2.2150257,-0.46593425,7.891338,-7.4735494,2.0275152,-0.2858775,0.29136083,-0.21877433,-0.8862963,-8.133705,5.3166146,-0.10310286,2.242158,-2.8789895,-0.15642883,0
1.0500000000000007,11.53791698574217,3.5604324917098165,-3.865186729111686,-1.1681816541118757,11.969488,1.6911795,-2.2150257,-0.46593425,7.8097796,-7.420063,2.026419,-0.2932849,0.2750443,-0.22464673,-0.8876198,-8.177379,5.380827,-0.1158786,2.4476285,-3.032886,-0.20607585,0
1.0600000000000007,11.53791698574217,3.5604324917098165,-3.865186729111686,-1.1681816541118757,11.969488,1.6911795,-2.2150257,-0.46593425,7.727805,-7.3659315,2.0252025,-0.3012148,0.25777236,-0.23099838,-0.88851744,-8.216908,5.445701,-0.12714858,2.6210554,-3.1627867,-0.25328666,0
1.0700000000000007,11.53791698574217,3.5604324917098165,-3.865186729111686,-1.1681816541118757,11.969488,1.6911795,-2.2150257,-0.46593425,7.6454573,-7.311147,2.0238807,-0.30956566,0.23967369,-0.23772177,-0.88894004,-8.251995,5.5112123,-0.13700022,2.767437,-3.2724307,-0.29818082,0
1.0800000000000007,12.07902802889245,3.505094833565405,-3.677138040857108,-1.2484640208815077,12.189825,1.0439488,-1.4991474,-0.75885713,7.5627813,-7.255705,2.022467,-0.31824982,0.22086011,-0.24472553,-0.8888463,-8.282375,5.577303,-0.1455487,2.8909929,-3.3649747,-0.34087202,0
1.0900000000000007,12.07902802889245,3.505094833565405,-3.677138040857108,-1.2484640208815077,12.189825,1.0439488,-1.4991474,-0.75885713,7.4798203,-7.1995835,2.020995,-0.32717732,0.20150593,-0.2519346,-0.88818896,-8.309017,5.6470118,-0.14868042,2.9866521,-3.4137642,-0.38540784,0
1.1000000000000008,12.07902802889245,3.505094833565405,-3.677138040857108,-1.2484640208815077,12.189825,1.0439488,-1.4991474,-0.75885713,7.39662,-7.1427636,2.019497,-0.3362736,0.18175901,-0.25928682,-0.88693535,-8.330312,5.7171326,-0.15077245,3.0673976,-3.454942,-0.42775825,0
1.1100000000000008,12.07902802889245,3.505094833565405,-3.677138040857108,-1.2484640208815077,12.189825,1.0439488,-1.4991474,-0.75885713,7.313233,-7.0852404,2.0179822,-0.34548894,0.16167516,-0.26672775,-0.8850735,-8.346111,5.7875423,-0.15201831,3.135555,-3.4896946,-0.4680305,0
1.1200000000000008,12.153529873955344,2.7331577582004525,-3.230544031779808,-1.194535817085198,12.29281,0.7109865,-1.3360384,-0.6864865,7.2297163,-7.027012,2.0164585,-0.35477957,0.1413042,-0.27421102,-0.8825946,-8.356296,5.858099,-0.15262072,3.193088,-3.5190232,-0.5063266,0
1.1300000000000008,12.153529873955344,2.7331577582004525,-3.230544031779808,-1.194535817085198,12.29281,0.7109865,-1.3360384,-0.6864865,7.1461267,-6.9680758,2.0149343,-0.36401203,0.120958,-0.28149128,-0.87956095,-8.360813,5.929079,-0.15218319,3.1213005,-3.47408,-0.54009724,0
1.1400000000000008,12.153529873955344,2.7331577582004525,-3.230544031779808,-1.194535817085198,12.29281,0.7109865,-1.3360384,-0.6864865,7.06252,-6.9084306,2.0134158,-0.3730898,0.100893155,-0.28838068,-0.8760488,-8.359652,5.999856,-0.15150242,3.0607111,-3.4361436,-0.5722107,0
1.1500000000000008,12.153529873955344,2.7331577582004525,-3.230544031779808,-1.194535817085198,12.29281,0.7109865,-1.3360384,-0.6864865,6.9789524,-6.8480797,2.0119042,-0.38202557,0.08107593,-0.29492012,-0.8720697,-8.352901,6.0702357,-0.15076137,3.0095735,-3.4041214,-0.60274845,0
1.1600000000000008,12.060400977476808,1.5025270988856632,-2.2784964824633227,-1.0058167056665832,11.862767,-0.16545239,-0.8292589,-1.0135901,6.8954806,-6.787028,2.0103998,-0.39082795,0.061478227,-0.30114362,-0.86763287,-8.340653,6.1400332,-0.15013589,2.9664133,-3.3770914,-0.63178766,0
1.1700000000000008,12.060400977476808,1.5025270988856632,-2.2784964824633227,-1.0058167056665832,11.862767,-0.16545239,-0.8292589,-1.0135901,6.812157,-6.725284,2.0088964,-0.39934275,0.04259423,-0.3068073,-0.86289084,-8.323165,6.2085423,-0.15054399,2.738153,-3.2057052,-0.6501414,0
1.1800000000000008,12.060400977476808,1.5025270988856632,-2.2784964824633227,-1.0058167056665832,11.862767,-0.16545239,-0.8292589,-1.0135901,6.7290344,-6.66286,2.0073874,-0.40746573,0.024817403,-0.31173578,-0.8580075,-8.300646,6.2761364,-0.15134378,2.5454838,-3.0610552,-0.6675945,0
1.1900000000000008,12.060400977476808,1.5025270988856632,-2.2784964824633227,-1.0058167056665832,11.862767,-0.16545239,-0.8292589,-1.0135901,6.64616,-6.599765,2.0058682,-0.41526568,0.0079886615,-0.3160453,-0.8529984,-8.27343,6.3426776,-0.15261833,2.3828564,-2.9389708,-0.68419117,0
1.2000000000000008,11.832205794777014,0.09143006417796987,-1.2067388406592057,-0.6983384015867423,11.546502,-1.0421876,0.77826864,-0.69159925,6.5635805,-6.5360103,2.0043333,-0.42279717,-0.008028043,-0.3198321,-0.84787136,-8.241805,6.4080486,-0.15443611,2.2455862,-2.8359323,-0.69997346,0
1.2100000000000009,11.832205794777014,0.09143006417796987,-1.2067388406592057,-0.6983384015867423,11.546502,-1.0421876,0.77826864,-0.69159925,6.4813347,-6.471615,2.0027683,-0.42994437,-0.022757929,-0.32288253,-0.8428387,-8.206736,6.47094,-0.15865473,1.9097626,-2.581707,-0.69989324,0
1.2200000000000009,11.832205794777014,0.09143006417796987,-1.2067388406592057,-0.6983384015867423,11.546502,-1.0421876,0.77826864,-0.69159925,6.3994584,-6.4065967,2.0011582,-0.43663147,-0.035832383,-0.32504556,-0.8381018,-8.168073,6.5325313,-0.1634233,1.6262925,-2.367152,-0.69981694,0
1.2300000000000009,11.832205794777014,0.09143006417796987,-1.2067388406592057,-0.6983384015867423,11.546502,-1.0421876,0.77826864,-0.69159925,6.317984,-6.3409686,1.9994981,-0.44294792,-0.047502905,-0.32647488,-0.8336396,-8.126265,6.5927944,-0.1686815,1.3870142,-2.186077,-0.6997444,0
1.2400000000000009,11.832205794777014,0.09143006417796987,-1.2067388406592057,-0.6983384015867423,11.281589,-1.9831494,1.3313601,-0.41402534,6.236943,-6.274745,1.9977833,-0.4489641,-0.057983294,-0.32729623,-0.82942545,-8.081687,6.6517167,-0.17436685,1.1850382,-2.033258,-0.6996754,0
1.2500000000000009,11.832205794777014,0.09143006417796987,-1.2067388406592057,-0.6983384015867423,11.281589,-1.9831494,1.3313601,-0.41402534,6.156359,-6.2079387,1.9960097,-0.4547356,-0.06745502,-0.3276128,-0.82543045,-8.034658,6.709293,-0.18041864,1.0145494,-1.9042852,-0.6996098,0
1.260000000000001,11.832205794777014,0.09143006417796987,-1.2067388406592057,-0.6983384015867423,11.281589,-1.9831494,1.3313601,-0.41402534,6.076257,-6.140564,1.994174,-0.46030653,-0.07607197,-0.32750925,-0.8216257,-7.9854465,6.7655234,-0.18678012,0.8706391,-1.7954377,-0.6995474,0
1.270000000000001,11.832205794777014,0.09143006417796987,-1.2067388406592057,-0.6983384015867423,11.281589,-1.9831494,1.3313601,-0.41402534,5.9966574,-6.0726333,1.9922733,-0.46571177,-0.08396451,-0.3270554,-0.81798375,-7.934279,6.820413,-0.19339979,0.7491637,-1.7035751,-0.6994881,0
1.280000000000001,11.650218169095703,-1.137993168165931,-0.22242075227588315,-0.3319931461633639,11.953768,-2.9313333,1.4743131,0.27452272,5.917578,-6.00416,1.9903053,-0.47097924,-0.091243036,-0.32630867,-0.814479,-7.8813477,6.8739686,-0.20023173,0.6466259,-1.6260469,-0.6994317,0
1.290000000000001,11.650218169095703,-1.137993168165931,-0.22242075227588315,-0.3319931461633639,11.953768,-2.9313333,1.4743131,0.27452272,5.839032,-5.935162,1.9882611,-0.47601324,-0.09746301,-0.32509962,-0.8113093,-7.8276834,6.9254,-0.20862426,0.36843196,-1.407021,-0.68140143,0
1.300000000000001,11.650218169095703,-1.137993168165931,-0.22242075227588315,-0.3319931461633639,11.953768,-2.9313333,1.4743131,0.27452272,5.7610292,-5.8656564,1.9861326,-0.4807417,-0.10227885,-0.3233018,-0.8086424,-7.7727995,6.975595,-0.21705382,0.13360153,-1.2221773,-0.66425586,0
1.310000000000001,11.650218169095703,-1.137993168165931,-0.22242075227588315,-0.3319931461633639,11.953768,-2.9313333,1.4743131,0.27452272,5.6835794,-5.7956543,1.9839202,-0.48521423,-0.10590995,-0.3210144,-0.80641186,-7.717027,7.0246305,-0.22538961,-0.06462405,-1.0661806,-0.64795166,0
1.320000000000001,11.527083257198859,-2.1433906239899763,0.387582532757602,0.11056845004157917,12.268409,-3.5954566,1.540485,0.7431125,5.6066904,-5.7251673,1.9816256,-0.48946965,-0.10854143,-0.31831864,-0.8045568,-7.660644,7.0725765,-0.23351832,-0.2319502,-0.93452835,-0.63244754,0
1.330000000000001,11.527083257198859,-2.1433906239899763,0.387582532757602,0.11056845004157917,12.268409,-3.5954566,1.540485,0.7431125,5.5303645,-5.6542087,1.9792461,-0.49346104,-0.10995306,-0.31507164,-0.80320394,-7.6045055,7.119004,-0.24228618,-0.52993566,-0.7282355,-0.5959875,0
1.340000000000001,11.527083257198859,-2.1433906239899763,0.387582532757602,0.11056845004157917,12.268409,-3.5954566,1.540485,0.7431125,5.4546003,-5.5827904,1.9767814,-0.49714658,-0.10997905,-0.31116277,-0.8024512,-7.54835,7.164503,-0.25058863,-0.7814728,-0.554144,-0.5613166,0
1.350000000000001,11.527083257198859,-2.1433906239899763,0.387582532757602,0.11056845004157917,12.268409,-3.5954566,1.540485,0.7431125,5.3793964,-5.5109215,1.9742365,-0.50055885,-0.10883654,-0.30669507,-0.80220556,-7.4925027,7.209158,-0.2582768,-0.9938006,-0.40722573,-0.528347,0
1.360000000000001,11.656389736041406,-2.9094164383380003,1.0913768423348853,0.496377026790227,12.418812,-3.7044096,2.1789074,0.7980736,5.304748,-5.43861,1.9716184,-0.50372314,-0.106708534,-0.30175352,-0.8023848,-7.4372406,7.2530394,-0.2652297,-1.17303,-0.28323805,-0.49699533,0
1.370000000000001,11.656389736041406,-2.9094164383380003,1.0913768423348853,0.496377026790227,12.418812,-3.7044096,2.1789074,0.7980736,5.2306514,-5.365861,1.9689401,-0.50656813,-0.10338275,-0.2962993,-0.8030614,-7.3822093,7.2967005,-0.2703122,-1.4437464,-0.06882559,-0.44825026,0
1.380000000000001,11.656389736041406,-2.9094164383380003,1.0913768423348853,0.496377026790227,12.418812,-3.7044096,2.1789074,0.7980736,5.1570997,-5.2926784,1.9662156,-0.5090295,-0.0986988,-0.29030293,-0.80428344,-7.3283596,7.3397517,-0.27442464,-1.672267,0.11212389,-0.40189713,0
1.390000000000001,11.656389736041406,-2.9094164383380003,1.0913768423348853,0.496377026790227,12.418812,-3.7044096,2.1789074,0.7980736,5.0840793,-5.219068,1.9634553,-0.5111334,-0.09286878,-0.28384084,-0.80594826,-7.276014,7.3822947,-0.27746227,-1.8651671,0.2648349,-0.35781854,0
1.400000000000001,11.7990838798672,-3.2339951470074966,1.447255152523286,0.8157994674781637,13.632475,-3.7981174,1.9640331,1.0092533,5.0115733,-5.145034,1.9606704,-0.5129001,-0.086071715,-0.27697656,-0.80796605,-7.2254515,7.42441,-0.27935156,-2.0279977,0.39371645,-0.31590292,0
1.410000000000001,11.7990838798672,-3.2339951470074966,1.447255152523286,0.8157994674781637,13.632475,-3.7981174,1.9640331,1.0092533,4.9395666,-5.070578,1.9578785,-0.5142852,-0.07828777,-0.26972783,-0.8103262,-7.1763306,7.466677,-0.27885172,-2.2160587,0.55797404,-0.26036993,0
1.420000000000001,11.7990838798672,-3.2339951470074966,1.447255152523286,0.8157994674781637,13.632475,-3.7981174,1.9640331,1.0092533,4.8680396,-4.995701,1.9550977,-0.51524687,-0.06950955,-0.26210982,-0.81301135,-7.1295433,7.5086584,-0.27710316,-2.3748057,0.6966024,-0.20756198,0
1.430000000000001,11.7990838798672,-3.2339951470074966,1.447255152523286,0.8157994674781637,13.632475,-3.7981174,1.9640331,1.0092533,4.796967,-4.9204054,1.9523407,-0.51580346,-0.05989359,-0.25416842,-0.81593984,-7.085346,7.5504203,-0.27409086,-2.5088067,0.8136025,-0.15734534,0
1.440000000000001,11.7990838798672,-3.2339951470074966,1.447255152523286,0.8157994674781637,13.586105,-3.736023,2.0548272,1.1564362,4.7263227,-4.844693,1.9496202,-0.51597047,-0.049572498,-0.24594274,-0.8190415,-7.043965,7.592011,-0.26982468,-2.6219175,0.9123505,-0.10959285,0
1.450000000000001,11.7990838798672,-3.2339951470074966,1.447255152523286,0.8157994674781637,13.586105,-3.736023,2.0548272,1.1564362,4.6560774,-4.7685657,1.9469486,-0.5157614,-0.03865875,-0.23746635,-0.82225615,-7.005595,7.6334615,-0.26433587,-2.7173939,0.9956952,-0.06418356,0
1.460000000000001,11.7990838798672,-3.2339951470074966,1.447255152523286,0.8157994674781637,13.586105,-3.736023,2.0548272,1.1564362,4.5862,-4.692024,1.9443377,-0.5151883,-0.027247844,-0.22876835,-0.82553214,-6.9704113,7.674789,-0.25767413,-2.7979844,1.0660405,-0.021002544,0
1.470000000000001,11.7990838798672,-3.2339951470074966,1.447255152523286,0.8157994674781637,13.586105,-3.736023,2.0548272,1.1564362,4.5166583,-4.6150703,1.941799,-0.5142621,-0.0154209845,-0.21987408,-0.8288256,-6.9385633,7.715998,-0.24990462,-2.8660092,1.1254151,0.020059582,0
1.480000000000001,11.767903893142186,-3.114920721385776,1.3894860805416631,1.0514219393470918,12.124156,-3.3526468,1.5495765,2.318386,4.4474173,-4.5377045,1.9393432,-0.5129929,-0.0032472878,-0.2108058,-0.8320988,-6.9101834,7.757083,-0.24110557,-2.9234269,1.1755308,0.05910678,0
1.490000000000001,11.767903893142186,-3.114920721385776,1.3894860805416631,1.0514219393470918,12.124156,-3.3526468,1.5495765,2.318386,4.378442,-4.4599295,1.9369788,-0.5113712,0.009164558,-0.20161107,-0.83532524,-6.885449,7.79792,-0.23165183,-2.9533296,1.2088022,0.10779996,0
1.500000000000001,11.767903893142186,-3.114920721385776,1.3894860805416631,1.0514219393470918,12.124156,-3.3526468,1.5495765,2.318386,4.3096957,-4.381747,1.9347131,-0.50938874,0.021724336,-0.1923305,-0.8384867,-6.864366,7.8385944,-0.2213623,-2.9785688,1.236888,0.15410377,0
1.5100000000000011,11.767903893142186,-3.114920721385776,1.3894860805416631,1.0514219393470918,12.124156,-3.3526468,1.5495765,2.318386,4.241142,-4.303158,1.9325541,-0.5070569,0.034402456,-0.18297319,-0.8415643,-6.846997,7.8790774,-0.2103446,-2.9998713,1.2605975,0.19813542,0
1.5200000000000011,11.355035871744406,-2.66834571071577,0.6692022136202602,1.1976433567100475,11.941993,-3.3463564,1.5473385,2.3417723,4.172743,-4.2241654,1.9305085,-0.50438637,0.04717359,-0.1735475,-0.84454143,-6.8333955,7.919333,-0.19871014,-3.0178504,1.2806128,0.24000642,0
1.5300000000000011,11.355035871744406,-2.66834571071577,0.6692022136202602,1.1976433567100475,11.941993,-3.3463564,1.5473385,2.3417723,4.104459,-4.144779,1.9285624,-0.5014319,0.059679367,-0.16406862,-0.8473995,-6.823934,7.957911,-0.19043909,-2.963367,1.1851814,0.2869979,0
1.5400000000000011,11.355035871744406,-2.66834571071577,0.6692022136202602,1.1976433567100475,11.941993,-3.3463564,1.5473385,2.3417723,4.0362515,-4.065008,1.9267012,-0.49824134,0.07163462,-0.15455343,-0.85013956,-6.81807,7.9961295,-0.18177943,-2.9173756,1.1046382,0.33168358,0
1.5500000000000012,11.355035871744406,-2.66834571071577,0.6692022136202602,1.1976433567100475,11.941993,-3.3463564,1.5473385,2.3417723,3.9680853,-3.9848576,1.9249281,-0.49481532,0.083118215,-0.14501098,-0.85277253,-6.8157153,8.033886,-0.1728205,-2.8785536,1.0366609,0.37417647,0
1.5600000000000012,11.118141442041848,-2.0163185115635334,0.2014149365607359,1.217272700400457,11.842709,-2.7962391,1.6818802,1.7359643,3.8999255,-3.9043324,1.9232457,-0.49115524,0.09419703,-0.13544877,-0.85530525,-6.816792,8.071089,-0.1636472,-2.8457837,0.9792889,0.41458422,0
1.5700000000000012,11.118141442041848,-2.0163185115635334,0.2014149365607359,1.217272700400457,11.842709,-2.7962391,1.6818802,1.7359643,3.8317385,-3.823442,1.9216443,-0.48731282,0.10463958,-0.1260055,-0.85772914,-6.821123,8.106891,-0.1565807,-2.7164185,0.8579449,0.4539724,0
1.5800000000000012,11.118141442041848,-2.0163185115635334,0.2014149365607359,1.217272700400457,11.842709,-2.7962391,1.6818802,1.7359643,3.7634926,-3.742197,1.9201142,-0.48333663,0.11426742,-0.11679429,-0.860051,-6.828564,8.141985,-0.14944963,-2.6072268,0.755528,0.49142775,0
1.5900000000000012,11.118141442041848,-2.0163185115635334,0.2014149365607359,1.217272700400457,11.842709,-2.7962391,1.6818802,1.7359643,3.6951575,-3.660605,1.9186554,-0.4792236,0.123204224,-0.10778583,-0.86229205,-6.83894,8.176299,-0.14230944,-2.515063,0.66908544,0.5270452,0
1.6000000000000012,10.934924452684696,-1.304159296722882,-0.24066179450069555,1.1583199852105397,12.250308,-2.730453,-0.5094489,2.2519505,3.6267045,-3.578674,1.9172679,-0.4749713,0.13155454,-0.09895464,-0.8644672,-6.8521004,8.209769,-0.13520855,-2.4372725,0.5961252,0.5609149,0
1.6100000000000012,10.934924452684696,-1.304159296722882,-0.24066179450069555,1.1583199852105397,12.250308,-2.730453,-0.5094489,2.2519505,3.5581076,-3.4964154,1.9159423,-0.47064066,0.13911976,-0.0904408,-0.86658144,-6.8676367,8.241804,-0.12992023,-2.2605257,0.4656499,0.5902297,0
1.6200000000000012,10.934924452684696,-1.304159296722882,-0.24066179450069555,1.1583199852105397,12.250308,-2.730453,-0.5094489,2.2519505,3.4893434,-3.413841,1.9146692,-0.46628645,0.14574948,-0.08235586,-0.8686492,-6.8855476,8.272909,-0.124732226,-2.111345,0.35551977,0.618106,0
1.6300000000000012,10.934924452684696,-1.304159296722882,-0.24066179450069555,1.1583199852105397,12.250308,-2.730453,-0.5094489,2.2519505,3.4203894,-3.3309605,1.9134473,-0.46189776,0.15158981,-0.07464018,-0.8706892,-6.9056153,8.303052,-0.11965477,-1.9854321,0.26256177,0.64461446,0
1.6400000000000012,10.934924452684696,-1.304159296722882,-0.24066179450069555,1.1583199852105397,12.812134,-2.5722752,-1.975255,2.7968388,3.3512244,-3.2477832,1.9122757,-0.45746502,0.1567638,-0.06724246,-0.87271374,-6.927653,8.332202,-0.114694014,-1.8791583,0.18409799,0.6698221,0
1.6500000000000012,10.934924452684696,-1.304159296722882,-0.24066179450069555,1.1583199852105397,12.812134,-2.5722752,-1.975255,2.7968388,3.28183,-3.1643198,1.911153,-0.45297986,0.16137515,-0.06011866,-0.8747303,-6.9515023,8.360335,-0.10985384,-1.7894604,0.117868,0.6937928,0
1.6600000000000013,10.934924452684696,-1.304159296722882,-0.24066179450069555,1.1583199852105397,12.812134,-2.5722752,-1.975255,2.7968388,3.212189,-3.08058,1.9100782,-0.4484354,0.1655111,-0.053230975,-0.87674296,-6.9770265,8.387431,-0.10513704,-1.7137535,0.061964214,0.7165873,0
1.6700000000000013,10.934924452684696,-1.304159296722882,-0.24066179450069555,1.1583199852105397,12.812134,-2.5722752,-1.975255,2.7968388,3.1422846,-2.9965749,1.9090499,-0.44382605,0.16924517,-0.046547014,-0.87875354,-7.0041084,8.413472,-0.10054613,-1.6498559,0.014776295,0.73826325,0
1.6800000000000013,10.785770318469869,-0.6973877468475917,-0.6277015345121368,1.0541540310592685,12.623061,-2.3536596,-2.0319886,2.4180465,3.0721018,-2.9123144,1.9080667,-0.43914738,0.17263927,-0.040039018,-0.88076216,-7.032648,8.43844,-0.09608382,-1.5959252,-0.025054608,0.75887555,0
1.6900000000000013,10.785770318469869,-0.6973877468475917,-0.6277015345121368,1.0541540310592685,12.623061,-2.3536596,-2.0319886,2.4180465,3.0016289,-2.8278115,1.9071207,-0.43445596,0.17550349,-0.033827398,-0.8827809,-7.0621367,8.462,-0.093146995,-1.4557512,-0.118981816,0.7733649,0
1.7000000000000013,10.785770318469869,-0.6973877468475917,-0.6277015345121368,1.0541540310592685,12.623061,-2.3536596,-2.0319886,2.4180465,2.9308548,-2.7430782,1.9062035,-0.4298002,0.17769173,-0.02800722,-0.8848236,-7.0928006,8.484488,-0.09031592,-1.3374432,-0.19826898,0.78714335,0
1.7100000000000013,10.785770318469869,-0.6973877468475917,-0.6277015345121368,1.0541540310592685,12.623061,-2.3536596,-2.0319886,2.4180465,2.859769,-2.6581254,1.9053141,-0.42516556,0.17931052,-0.022521917,-0.8868904,-7.124476,8.505907,-0.087564625,-1.2375904,-0.2651981,0.8002456,0
1.7200000000000013,10.513094854503057,-0.148089991643071,-1.4056578003105982,0.8934218924062357,13.241833,-2.0815952,-2.7934234,2.1519458,2.788362,-2.5729637,1.904452,-0.42053962,0.1804494,-0.017323175,-0.8889793,-7.157022,8.526263,-0.084870026,-1.1533141,-0.32169592,0.8127049,0
1.7300000000000013,10.513094854503057,-0.148089991643071,-1.4056578003105982,0.8934218924062357,13.241833,-2.0815952,-2.7934234,2.1519458,2.71663,-2.4876063,1.9036038,-0.41597456,0.18081503,-0.012431448,-0.8911321,-7.189461,8.545067,-0.08475319,-0.99645936,-0.49065888,0.81666577,0
1.7400000000000013,10.513094854503057,-0.148089991643071,-1.4056578003105982,0.8934218924062357,13.241833,-2.0815952,-2.7934234,2.1519458,2.644571,-2.402066,1.9027569,-0.41151264,0.180179,-0.007862086,-0.8933817,-7.2224097,8.562808,-0.08460832,-0.86407924,-0.63328433,0.82043225,0
1.7500000000000013,10.513094854503057,-0.148089991643071,-1.4056578003105982,0.8934218924062357,13.241833,-2.0815952,-2.7934234,2.1519458,2.572181,-2.3163538,1.9019119,-0.40713045,0.17869787,-0.0035695452,-0.8957114,-7.2556577,8.579466,-0.08437451,-0.752355,-0.7536776,0.8240139,0
1.7600000000000013,10.515855808232603,0.15296939568346402,-1.2740965113311828,0.748547377626299,13.710547,-1.4971222,-3.74985,2.1760905,2.4994576,-2.2304807,1.9010698,-0.402808,0.17650327,0.0004853193,-0.89810467,-7.289027,8.595019,-0.0840012,-0.65806377,-0.85530424,0.82741976,0
1.7700000000000014,10.515855808232603,0.15296939568346402,-1.2740965113311828,0.748547377626299,13.710547,-1.4971222,-3.74985,2.1760905,2.4264004,-2.1444576,1.9002326,-0.39856595,0.17370503,0.0042098314,-0.9005298,-7.3223715,8.609467,-0.08342141,-0.53155077,-0.9205452,0.82354945,0
1.7800000000000014,10.515855808232603,0.15296939568346402,-1.2740965113311828,0.748547377626299,13.710547,-1.4971222,-3.74985,2.1760905,2.353011,-2.058295,1.899402,-0.3944227,0.17039657,0.007533091,-0.9029612,-7.3555336,8.62283,-0.08262786,-0.42477307,-0.975623,0.8198691,0
1.7900000000000014,10.515855808232603,0.15296939568346402,-1.2740965113311828,0.748547377626299,13.710547,-1.4971222,-3.74985,2.1760905,2.279291,-1.972004,1.8985808,-0.39035973,0.16665775,0.010515586,-0.9053916,-7.3883815,8.635147,-0.08159419,-0.33465204,-1.022121,0.81636935,0
1.8000000000000014,10.598861664241436,0.25528791748606605,-1.0276676239134974,0.6406754818322589,14.876184,-1.6122857,-3.519222,2.0396008,2.2052443,-1.8855952,1.897771,-0.38636127,0.16255562,0.013208686,-0.90781397,-7.420804,8.646453,-0.08030008,-0.25858924,-1.0613755,0.8130413,0
1.8100000000000014,10.598861664241436,0.25528791748606605,-1.0276676239134974,0.6406754818322589,14.876184,-1.6122857,-3.519222,2.0396008,2.130875,-1.799078,1.8969796,-0.3824344,0.15822037,0.015583033,-0.9102019,-7.452958,8.656863,-0.07794482,-0.17845899,-1.0560755,0.80458325,0
1.8200000000000014,10.598861664241436,0.25528791748606605,-1.0276676239134974,0.6406754818322589,14.876184,-1.6122857,-3.519222,2.0396008,2.0561872,-1.7124614,1.8962129,-0.37858662,0.15375857,0.017618429,-0.912535,-7.484515,8.666346,-0.07530896,-0.11082427,-1.0516093,0.79654026,0
1.8300000000000014,10.598861664241436,0.25528791748606605,-1.0276676239134974,0.6406754818322589,14.876184,-1.6122857,-3.519222,2.0396008,1.981187,-1.6257542,1.8954742,-0.37480628,0.14919025,0.019367434,-0.91481555,-7.5154176,8.674959,-0.07239266,-0.053736404,-1.0478458,0.7888919,0
1.8400000000000014,10.598861664241436,0.25528791748606605,-1.0276676239134974,0.6406754818322589,14.849544,-1.6037759,-3.5277305,2.0395522,1.9058812,-1.5389651,1.894766,-0.37108347,0.14453213,0.02087448,-0.9170452,-7.545616,8.682758,-0.06919753,-0.0055508846,-1.0446744,0.7816189,0
1.8500000000000014,10.598861664241436,0.25528791748606605,-1.0276676239134974,0.6406754818322589,14.849544,-1.6037759,-3.5277305,2.0395522,1.8302772,-1.4521017,1.8940911,-0.36740974,0.13979822,0.022177108,-0.9192251,-7.575068,8.689788,-0.06572654,0.035120808,-1.0420016,0.7747028,0
1.8600000000000014,10.598861664241436,0.25528791748606605,-1.0276676239134974,0.6406754818322589,14.849544,-1.6037759,-3.5277305,2.0395522,1.7543825,-1.3651719,1.8934523,-0.36377797,0.1350002,0.02330704,-0.92135626,-7.603737,8.696085,-0.061983842,0.06945029,-1.0397493,0.7681261,0
1.8700000000000014,10.598861664241436,0.25528791748606605,-1.0276676239134974,0.6406754818322589,14.849544,-1.6037759,-3.5277305,2.0395522,1.6782051,-1.2781825,1.8928522,-0.36018208,0.13014786,0.024291081,-0.92343944,-7.6315904,8.701688,-0.057974648,0.098426424,-1.0378511,0.76187205,0
1.8800000000000014,10.646312760904065,0.10895338860724084,-0.7748979988854887,0.5717559353917662,14.309556,-1.7887356,-3.4011416,2.010811,1.6017535,-1.1911404,1.8922936,-0.3566169,0.1252494,0.025151864,-0.92547524,-7.6586013,8.706624,-0.053705096,0.12288406,-1.0362514,0.75592494,0
1.8900000000000015,10.646312760904065,0.10895338860724084,-0.7748979988854887,0.5717559353917662,14.309556,-1.7887356,-3.4011416,2.010811,1.5250355,-1.1040521,1.8917812,-0.35308146,0.120426,0.025927903,-0.9274475,-7.6848674,8.710942,-0.048723996,0.12068561,-0.9954952,0.7468877,0
1.9000000000000015,10.646312760904065,0.10895338860724084,-0.7748979988854887,0.5717559353917662,14.309556,-1.7887356,-3.4011416,2.010811,1.4480591,-1.0169237,1.89132,-0.34957665,0.11577416,0.026651397,-0.9293451,-7.7102823,8.714652,-0.04350596,0.118833974,-0.96109474,0.7382939,0
1.9100000000000015,10.646312760904065,0.10895338860724084,-0.7748979988854887,0.5717559353917662,14.309556,-1.7887356,-3.4011416,2.010811,1.3708327,-0.929761,1.8909119,-0.34610108,0.11126694,0.027331334,-0.9311749,-7.7348676,8.717783,-0.038068164,0.11727406,-0.9320589,0.7301218,0
1.9200000000000015,10.4762906640063,-0.05253630184866884,-0.7026616769957666,0.4449185341625107,14.39856,-2.0181255,-3.2911625,2.0968037,1.2933645,-0.8425699,1.8905593,-0.3426532,0.10688153,0.027975174,-0.93294287,-7.7586403,8.720359,-0.03242565,0.11596024,-0.9075509,0.72235066,0
1.9300000000000015,10.4762906640063,-0.05253630184866884,-0.7026616769957666,0.4449185341625107,14.39856,-2.0181255,-3.2911625,2.0968037,1.2156645,-0.7553559,1.8902557,-0.33924016,0.102647275,0.028641252,-0.934644,-7.7812524,8.722369,-0.02825222,0.08966052,-0.8756117,0.708737,0
1.9400000000000015,10.4762906640063,-0.05253630184866884,-0.7026616769957666,0.4449185341625107,14.39856,-2.0181255,-3.2911625,2.0968037,1.137742,-0.6681243,1.8899947,-0.33587012,0.09858619,0.029376432,-0.93627405,-7.8031135,8.723864,-0.023906887,0.0674655,-0.8486511,0.69579136,0
1.9500000000000015,10.4762906640063,-0.05253630184866884,-0.7026616769957666,0.4449185341625107,14.39856,-2.0181255,-3.2911625,2.0968037,1.0596046,-0.5808804,1.889778,-0.3325426,0.094670676,0.030170858,-0.9378394,-7.8242555,8.724848,-0.019404512,0.048734214,-0.8258931,0.683481,0
1.9600000000000015,10.920215686962583,-0.49964023659467177,-0.21576620824610368,0.5308275781912313,14.18565,-2.4767857,-2.333887,1.8695551,0.9812593,-0.49362922,1.8896071,-0.3292568,0.09087746,0.031016074,-0.9393451,-7.8447037,8.725327,-0.014758123,0.0329264,-0.8066827,0.6717747,0
1.9700000000000015,10.920215686962583,-0.49964023659467177,-0.21576620824610368,0.5308275781912313,14.18565,-2.4767857,-2.333887,1.8695551,0.90270865,-0.40637568,1.889505,-0.32599187,0.08742909,0.032008182,-0.94077677,-7.865331,8.725303,-0.0056221923,-0.050170623,-0.7145659,0.6648584,0
1.9800000000000015,10.920215686962583,-0.49964023659467177,-0.21576620824610368,0.5308275781912313,14.18565,-2.4767857,-2.333887,1.8695551,0.8239547,-0.319125,1.889495,-0.32273096,0.084500805,0.03322386,-0.9421255,-7.8853726,8.724753,0.0036234322,-0.12030143,-0.63680804,0.6582815,0
1.9900000000000015,10.920215686962583,-0.49964023659467177,-0.21576620824610368,0.5308275781912313,14.18565,-2.4767857,-2.333887,1.8695551,0.74500287,-0.23188245,1.8895777,-0.31947795,0.08201074,0.034629963,-0.94340277,-7.904939,8.723674,0.012952756,-0.17948966,-0.5711714,0.6520273,0
2.0000000000000013,,,,,15.263982,-2.525639,-2.384337,2.3312082,0.6658573,-0.14465337,1.8897542,-0.31623548,0.079889834,0.036198225,-0.94461757,-7.924123,8.72206,0.022344418,-0.22944242,-0.5157666,0.64608,0
2.010000000000001,,,,,15.263982,-2.525639,-2.384337,2.3312082,0.5865188,-0.057443388,1.8900396,-0.31298977,0.07829681,0.038014397,-0.94575995,-7.9435325,8.719846,0.03473432,-0.33943734,-0.4022795,0.64386004,0
2.020000000000001,,,,,15.263982,-2.525639,-2.384337,2.3312082,0.50698715,0.029741595,1.8904489,-0.30972904,0.07735411,0.040145796,-0.94682235,-7.9627857,8.71706,0.04713859,-0.43227082,-0.30648312,0.641749,0
2.0300000000000007,,,,,15.263982,-2.525639,-2.384337,2.3312082,0.42726314,0.11689578,1.8909823,-0.3064573,0.07695916,0.042545047,-0.94781387,-7.982028,8.713681,0.059528217,-0.5106206,-0.22561994,0.63974154,0
2.0400000000000005,,,,,15.263982,-2.525639,-2.384337,2.3312082,0.34734625,0.20401311,1.8916394,-0.30317736,0.07702543,0.045171816,-0.94874126,-8.001382,8.709693,0.071878105,-0.5767461,-0.15736207,0.63783264,0
2.0500000000000003,,,,,14.897761,-2.8006368,-2.0353289,2.362226,0.26723477,0.29108745,1.8924197,-0.29989117,0.07747992,0.04799177,-0.9496098,-8.020948,8.705079,0.08416605,-0.63255507,-0.09974451,0.6360174,1
2.06,,,,,14.897761,-2.8006368,-2.0353289,2.362226,0.1868935,0.37810376,1.893505,-0.29629228,0.077645764,0.051925104,-0.95051867,-8.0473385,8.698019,0.13272125,-0.9685623,-0.39983064,0.7205397,1
2.07,,,,,14.897761,-2.8006368,-2.0353289,2.362226,0.10628691,0.4650429,1.8950734,-0.2920959,0.076969884,0.057713863,-0.9515381,-8.074021,8.689532,0.18094301,-1.2541201,-0.6550846,0.80109775,1
2.0799999999999996,,,,,14.897761,-2.8006368,-2.0353289,2.362226,0.025412256,0.5518875,1.8971233,-0.28733766,0.075578205,0.065061405,-0.9526237,-8.10094,8.679031,0.22899021,-1.4951433,-0.87053263,0.8777028,1
2.0899999999999994,,,,,14.292658,-2.9152808,-1.9529366,2.4982586,-0.055732373,0.63861495,1.8996526,-0.28204837,0.07357838,0.073715515,-0.95373,-8.128,8.666028,0.27680933,-1.6985809,-1.0523784,0.95054877,1
2.099999999999999,,,,,14.292658,-2.9152808,-1.9529366,2.4982586,-0.1371424,0.7252012,1.9026289,-0.27623853,0.07110763,0.083496206,-0.95481116,-8.154007,8.650761,0.31841558,-1.8881791,-1.1930301,1.0264953,1
2.109999999999999,,,,,14.292658,-2.9152808,-1.9529366,2.4982586,-0.21881244,0.8116194,1.9060196,-0.26991752,0.06828043,0.09424939,-0.95582396,-8.179986,8.632367,0.3596493,-2.0482144,-1.31174,1.0987153,1
2.1199999999999988,,,,,14.292658,-2.9152808,-1.9529366,2.4982586,-0.3007418,0.89783686,1.9098203,-0.26311028,0.06515121,0.10581276,-0.95672995,-8.205864,8.610569,0.40040955,-2.1832983,-1.4119282,1.1673913,1
2.1299999999999986,,,,,13.553327,-2.7725382,-1.9152937,2.4673152,-0.3829291,0.9838183,1.9140258,-0.25584015,0.06176692,0.11804857,-0.9574944,-8.231559,8.585137,0.44058424,-2.2973228,-1.4964824,1.2326975,1
2.1399999999999983,,,,,13.553327,-2.7725382,-1.9152937,2.4673152,-0.46536544,1.0695338,1.9185939,-0.2481383,0.058167767,0.13078155,-0.9580921,-8.255666,8.557404,0.47293663,-2.3713183,-1.5619485,1.2932806,1
2.149999999999998,,,,,13.553327,-2.7725382,-1.9152937,2.4673152,-0.54804116,1.1549535,1.9234817,-0.24003395,0.054389134,0.14386636,-0.9585032,-8.279423,8.525937,0.50450367,-2.4337811,-1.6171966,1.3508908,1
2.159999999999998,,,,,13.553327,-2.7725382,-1.9152937,2.4673152,-0.6309523,1.2400393,1.9286809,-0.2315461,0.050462298,0.15723504,-0.95870614,-8.3027315,8.490657,0.5351668,-2.4865098,-1.6638197,1.405674,1
2.1699999999999977,,,,,13.712614,-3.1535401,-1.5588735,3.309195,-0.71409386,1.3247532,1.9341816,-0.22269304,0.046414312,0.17082949,-0.958682,-8.325493,8.451504,0.56480443,-2.5310223,-1.7031636,1.4577692,1
2.1799999999999975,,,,,13.712614,-3.1535401,-1.5588735,3.309195,-0.7974612,1.4090534,1.9399805,-0.21341056,0.042456776,0.18470998,-0.95840275,-8.347879,8.407933,0.59477717,-2.6280255,-1.680909,1.5486192,1
2.1899999999999973,,,,,13.712614,-3.1535401,-1.5588735,3.309195,-0.88104916,1.492898,1.9460727,-0.2036387,0.038761623,0.19892138,-0.957841,-8.3695965,8.360361,0.62343425,-2.7099047,-1.6621125,1.6350111,1
