time-since-start [s],throttle_mpc,roll_mpc,pitch_mpc,yaw_mpc,throttle_nw,roll_nw,pitch_nw,yaw_nw,position_x [m],position_y [m],position_z [m],rotation_w [quaternion],rotation_x [quaternion],rotation_y [quaternion],rotation_z [quaternion],velocity_x [m/s],velocity_y [m/s],velocity_z [m/s],omega_x [rad/s],omega_y [rad/s],omega_z [rad/s],network_used
0.0,9.556696181188713,5.99999961628983,-5.999999920120676,-4.9137386748579015,12.598164,-1.0750672,-4.4120183,1.3542715,19.549566,-9.904492,2.1588354,-0.0028117856,-0.4517316,0.3372738,0.8259401,-10.176278,-4.246452,-0.36299986,1.1184235,-0.045388874,0.30253765,0
0.01,9.556696181188713,5.99999961628983,-5.999999920120676,-4.9137386748579015,10.612291,-3.3215249,-5.380724,-1.0950663,19.447115,-9.9464445,2.1550493,-0.0011233318,-0.4510143,0.3421956,0.82430995,-10.313269,-4.1441164,-0.39463744,1.0340909,-0.1285281,0.12842101,0
0.02,9.556696181188713,5.99999961628983,-5.999999920120676,-4.9137386748579015,10.612291,-3.3215249,-5.380724,-1.0950663,19.343315,-9.987378,2.1509337,0.00123056,-0.4502621,0.34640166,0.8229632,-10.446169,-4.042816,-0.42882004,0.96331,-0.19909804,-0.04138335,0
0.03,9.556696181188713,5.99999961628983,-5.999999920120676,-4.9137386748579015,10.612291,-3.3215249,-5.380724,-1.0950663,19.238203,-10.027303,2.1464663,0.0042557158,-0.4495044,0.34997147,0.82185614,-10.575836,-3.942017,-0.4649291,0.91563994,-0.2707345,-0.20598277,0
0.04,9.556696181188713,5.99999961628983,-5.999999920120676,-4.9137386748579015,13.909051,-1.361206,-5.3859453,-2.1662972,19.131805,-10.066219,2.1416304,0.00801054,-0.44869807,0.35303798,0.82095665,-10.703018,-3.8411925,-0.5024271,0.8993912,-0.3551969,-0.36465013,0
0.05,9.556696181188713,5.99999961628983,-5.999999920120676,-4.9137386748579015,13.909051,-1.361206,-5.3859453,-2.1662972,19.02415,-10.104126,2.1364133,0.012559307,-0.4477838,0.3557322,0.8202355,-10.827594,-3.7404163,-0.5412025,0.9104679,-0.4513016,-0.51774883,0
0.060000000000000005,9.556696181188713,5.99999961628983,-5.999999920120676,-4.9137386748579015,13.909051,-1.361206,-5.3859453,-2.1662972,18.915264,-10.141026,2.1308024,0.017957093,-0.4467048,0.35816664,0.8196638,-10.949427,-3.6397161,-0.5811533,0.9452762,-0.55790883,-0.66561204,0
0.07,9.556696181188713,5.99999961628983,-5.999999920120676,-4.9137386748579015,13.909051,-1.361206,-5.3859453,-2.1662972,18.805174,-10.176918,2.1247864,0.024250647,-0.44540688,0.36043718,0.8192126,-11.068366,-3.5390847,-0.6221852,1.0006586,-0.6739307,-0.80854553,0
0.08,11.198723480725674,5.999999809332383,-5.999999957328786,-5.02434719984428,12.588064,-1.9794699,-5.6688643,-2.1814988,18.693907,-10.211807,2.1183553,0.03147914,-0.4438381,0.36262503,0.8188526,-11.184254,-3.438488,-0.6642097,1.0738384,-0.7983359,-0.94683003,0
0.09,11.198723480725674,5.999999809332383,-5.999999957328786,-5.02434719984428,12.588064,-1.9794699,-5.6688643,-2.1814988,18.58145,-10.2456455,2.111523,0.0397499,-0.4418933,0.3648459,0.8185581,-11.3064785,-3.3293266,-0.7024591,1.191255,-0.9590866,-1.0887322,0
0.09999999999999999,11.198723480725674,5.999999809332383,-5.999999957328786,-5.02434719984428,12.588064,-1.9794699,-5.6688643,-2.1814988,18.46779,-10.278393,2.104303,0.04916032,-0.43947068,0.36719888,0.81829906,-11.424908,-3.2200954,-0.7416317,1.320678,-1.1251442,-1.2263839,0
0.10999999999999999,11.198723480725674,5.999999809332383,-5.999999957328786,-5.02434719984428,12.588064,-1.9794699,-5.6688643,-2.1814988,18.352966,-10.310046,2.096687,0.059724994,-0.43652514,0.36972174,0.8180368,-11.539307,-3.110671,-0.78162867,1.4602932,-1.2957399,-1.3599987,0
0.11999999999999998,11.198723480725674,5.999999809332383,-5.999999957328786,-5.02434719984428,12.588064,-1.9794699,-5.6688643,-2.1814988,18.237019,-10.340606,2.0886679,0.07145304,-0.43301216,0.3724422,0.81772935,-11.649433,-3.0009387,-0.822353,1.6085037,-1.4701579,-1.4897743,0
0.12999999999999998,14.625414541279996,5.999999922171234,-5.999999989352048,-4.752359346463622,11.944336,-0.62817967,-6.28843,-2.821115,18.119991,-10.370065,2.080238,0.0843483,-0.42888767,0.37537873,0.8173317,-11.755046,-2.8907986,-0.86370885,1.7639033,-1.6477356,-1.6158931,0
0.13999999999999999,14.625414541279996,5.999999922171234,-5.999999989352048,-4.752359346463622,11.944336,-0.62817967,-6.28843,-2.821115,18.001863,-10.398345,2.0714307,0.09867102,-0.42380467,0.37878224,0.8168091,-11.869587,-2.7650964,-0.89794856,2.0556235,-1.9585215,-1.7368355,0
0.15,14.625414541279996,5.999999922171234,-5.999999989352048,-4.752359346463622,11.944336,-0.62817967,-6.28843,-2.821115,17.882622,-10.425365,2.0622773,0.11464737,-0.41743702,0.38285515,0.8161028,-11.977881,-2.6389854,-0.9328351,2.34153,-2.2605908,-1.8553938,0
0.16,17.624743131578416,5.999999957493577,-6.0,-4.362986982429522,16.49102,-1.2824335,-6.8986497,-1.811885,17.762327,-10.451122,2.0527723,0.13222304,-0.4097696,0.38753238,0.8151221,-12.079466,-2.5122576,-0.96819824,2.6216495,-2.5544167,-1.9716064,0
0.17,17.624743131578416,5.999999957493577,-6.0,-4.362986982429522,16.49102,-1.2824335,-6.8986497,-1.811885,17.641008,-10.475544,2.0429432,0.15159743,-0.40044618,0.39298102,0.8137729,-12.18328,-2.3720515,-0.99764293,3.0312178,-2.9759538,-2.078496,0
0.18000000000000002,17.624743131578416,5.999999957493577,-6.0,-4.362986982429522,16.49102,-1.2824335,-6.8986497,-1.811885,17.518694,-10.498561,2.032818,0.17293039,-0.38912866,0.39931485,0.8119243,-12.278196,-2.231269,-1.027426,3.4233124,-3.3782098,-2.184292,0
0.19000000000000003,17.624743131578416,5.999999957493577,-6.0,-4.362986982429522,16.49102,-1.2824335,-6.8986497,-1.811885,17.395475,-10.520167,2.0223942,0.19610092,-0.37582168,0.4063833,0.8094162,-12.363544,-2.089839,-1.0573398,3.7991168,-3.7626438,-2.2889094,0
0.20000000000000004,20.772287773454565,5.9999999645205095,-6.0,-3.611647721031971,18.584583,-0.7600655,-7.56833,-1.7712858,17.271452,-10.540353,2.0116735,0.22095725,-0.36055383,0.4140173,0.80608183,-12.439409,-1.9464725,-1.086547,4.1415515,-4.1123424,-2.3906848,0
0.21000000000000005,20.772287773454565,5.9999999645205095,-6.0,-3.611647721031971,18.584583,-0.7600655,-7.56833,-1.7712858,17.146656,-10.558954,2.0007322,0.24715286,-0.3434519,0.4220099,0.8017876,-12.517856,-1.7731547,-1.1013188,4.430745,-4.4073443,-2.4505978,0
0.22000000000000006,20.772287773454565,5.9999999645205095,-6.0,-3.611647721031971,18.584583,-0.7600655,-7.56833,-1.7712858,17.021135,-10.575803,1.9896547,0.2743336,-0.32467136,0.43015933,0.79642457,-12.584249,-1.5959538,-1.1138223,4.6749005,-4.656281,-2.5075707,0
0.23000000000000007,20.772287773454565,5.9999999645205095,-6.0,-3.611647721031971,18.584583,-0.7600655,-7.56833,-1.7712858,16.895016,-10.590862,1.9784639,0.302251,-0.30438757,0.4382645,0.78988373,-12.63763,-1.4155395,-1.1239756,4.8810353,-4.866342,-2.561748,0
0.24000000000000007,20.772287773454565,5.9999999645205095,-6.0,-3.611647721031971,20.09186,-1.4631398,-7.2967987,-0.6310386,16.768429,-10.604106,1.9671835,0.3306806,-0.28275982,0.44615504,0.7820757,-12.677182,-1.2327583,-1.1317487,5.055073,-5.0435953,-2.6132667,0
0.25000000000000006,20.772287773454565,5.9999999645205095,-6.0,-3.611647721031971,20.09186,-1.4631398,-7.2967987,-0.6310386,16.64152,-10.615513,1.9558371,0.3594189,-0.25993434,0.4536873,0.7729292,-12.702229,-1.0486048,-1.1371591,5.202014,-5.1931624,-2.6622577,0
0.26000000000000006,20.772287773454565,5.9999999645205095,-6.0,-3.611647721031971,20.09186,-1.4631398,-7.2967987,-0.6310386,16.514437,-10.625076,1.9444482,0.3882806,-0.23604652,0.46074057,0.7623896,-12.712248,-0.8641958,-1.1402689,5.32608,-5.3193645,-2.7088444,0
0.2700000000000001,20.772287773454565,5.9999999645205095,-6.0,-3.611647721031971,20.09186,-1.4631398,-7.2967987,-0.6310386,16.38733,-10.632799,1.9330393,0.41709664,-0.2112225,0.46721375,0.7504175,-12.706874,-0.6807432,-1.1411803,5.4308333,-5.425851,-2.7531452,0
0.2800000000000001,20.99999999748541,5.999999762508063,-5.999999932910327,-3.566181885347893,19.190102,-1.5102242,-6.3589487,-0.41149557,16.260353,-10.638699,1.9216317,0.44571206,-0.18558042,0.47302264,0.73698705,-12.685895,-0.49952996,-1.1400317,5.519283,-5.5156994,-2.795272,0
0.2900000000000001,20.99999999748541,5.999999762508063,-5.999999932910327,-3.566181885347893,19.190102,-1.5102242,-6.3589487,-0.41149557,16.133665,-10.642793,1.9102507,0.47398052,-0.15922886,0.47809854,0.7220874,-12.648862,-0.319939,-1.135885,5.5939746,-5.5915,-2.833101,0
0.3000000000000001,20.99999999748541,5.999999762508063,-5.999999932910327,-3.566181885347893,19.190102,-1.5102242,-6.3589487,-0.41149557,16.00743,-10.645114,1.8989199,0.5017675,-0.13227046,0.482385,0.70571834,-12.596115,-0.14532715,-1.1300293,5.6570435,-5.6554546,-2.8690736,0
0.3100000000000001,20.99999999748541,5.999999762508063,-5.999999932910327,-3.566181885347893,19.190102,-1.5102242,-6.3589487,-0.41149557,15.881798,-10.6457205,1.8876553,0.52895296,-0.10480513,0.48583522,0.6878871,-12.5279255,0.02293089,-1.1226907,5.7102995,-5.709413,-2.9032812,0
0.3200000000000001,20.999999985221162,3.423180082752896,-5.651438622021526,-0.5372848834537154,18.543505,-1.5798118,-5.4628897,-0.16344424,15.756923,-10.644682,1.8764703,0.555426,-0.076927945,0.48841143,0.66860914,-12.44472,0.183476,-1.1141157,5.75527,-5.754937,-2.93581,0
0.3300000000000001,20.999999985221162,3.423180082752896,-5.651438622021526,-0.5372848834537154,18.543505,-1.5798118,-5.4628897,-0.16344424,15.632953,-10.642081,1.8653762,0.5807115,-0.049223006,0.48952085,0.6486297,-12.347156,0.33500472,-1.1045215,5.392054,-5.737686,-2.8181136,0
0.34000000000000014,20.999999985221162,3.423180082752896,-5.651438622021526,-0.5372848834537154,18.543505,-1.5798118,-5.4628897,-0.16344424,15.510024,-10.638016,1.8543835,0.60448647,-0.022170564,0.48876318,0.6286613,-12.23647,0.47642928,-1.0938696,5.085453,-5.7233005,-2.7061927,0
0.35000000000000014,20.999999985221162,3.423180082752896,-5.651438622021526,-0.5372848834537154,18.543505,-1.5798118,-5.4628897,-0.16344424,15.388263,-10.63259,1.8435029,0.6268568,0.0042927423,0.48636374,0.60867256,-12.11404,0.60686326,-1.0820693,4.8266397,-5.7113013,-2.5997639,0
0.36000000000000015,20.99999964373429,1.5154408559294086,-3.5361830368218365,0.28099955122126097,17.785538,-2.138716,-4.297314,0.7005684,15.267779,-10.625918,1.8327463,0.64790606,0.03022318,0.48250875,0.58863354,-11.981186,0.72556293,-1.0690798,4.6081634,-5.701291,-2.4985573,0
0.37000000000000016,20.99999964373429,1.5154408559294086,-3.5361830368218365,0.28099955122126097,17.785538,-2.138716,-4.297314,0.7005684,15.148671,-10.618121,1.8221256,0.66728145,0.054727055,0.47747356,0.5689984,-11.839234,0.8319935,-1.0549082,4.1268845,-5.362491,-2.3621638,0
0.38000000000000017,20.99999964373429,1.5154408559294086,-3.5361830368218365,0.28099955122126097,17.785538,-2.138716,-4.297314,0.7005684,15.03102,-10.609321,1.8116522,0.68479484,0.07711557,0.47156435,0.5502146,-11.689769,0.9262448,-1.0395973,3.7205007,-5.0767374,-2.232463,0
0.3900000000000002,20.99999964373429,1.5154408559294086,-3.5361830368218365,0.28099955122126097,17.785538,-2.138716,-4.297314,0.7005684,14.914895,-10.599637,1.8013375,0.70071805,0.0977139,0.46494848,0.53223014,-11.534264,1.0086538,-1.0231812,3.3773625,-4.8357162,-2.1091263,0
0.4000000000000002,20.999997329929183,-0.42581804627818265,-1.331388196009921,0.9972150501597749,17.668179,-2.800244,-2.5833652,0.7862621,14.800351,-10.589187,1.7911922,0.71527004,0.11680049,0.45775166,0.514985,-11.373967,1.0795805,-1.0056832,3.0876307,-4.632419,-1.9918424,0
0.4100000000000002,20.999997329929183,-0.42581804627818265,-1.331388196009921,0.9972150501597749,17.668179,-2.800244,-2.5833652,0.7862621,14.687429,-10.578083,1.7812274,0.72829103,0.13364701,0.45030758,0.49895236,-11.209982,1.1394894,-0.98712003,2.540775,-4.11667,-1.8451685,0
0.4200000000000002,20.999997329929183,-0.42581804627818265,-1.331388196009921,0.9972150501597749,17.668179,-2.800244,-2.5833652,0.7862621,14.57616,-10.56643,1.7714536,0.73973006,0.14771016,0.44293362,0.4845521,-11.043441,1.1894239,-0.967478,2.078996,-3.6815603,-1.7056918,0
0.4300000000000002,20.999997329929183,-0.42581804627818265,-1.331388196009921,0.9972150501597749,17.668179,-2.800244,-2.5833652,0.7862621,14.466565,-10.554323,1.7618817,0.7498787,0.15945646,0.43567646,0.47163692,-10.87529,1.230533,-0.9467106,1.6890675,-3.314471,-1.5730594,0
0.4400000000000002,20.999997329929183,-0.42581804627818265,-1.331388196009921,0.9972150501597749,17.361807,-3.9696434,-0.69362354,0.9457415,14.358657,-10.541845,1.7525234,0.75896406,0.16927782,0.42855597,0.4600633,-10.706252,1.2638338,-0.9247561,1.3598177,-3.0047598,-1.4469353,0
0.45000000000000023,20.999997329929183,-0.42581804627818265,-1.331388196009921,0.9972150501597749,17.361807,-3.9696434,-0.69362354,0.9457415,14.252442,-10.52907,1.7433909,0.76716405,0.17750274,0.42157474,0.44969624,-10.536885,1.2902164,-0.9015481,1.0818104,-2.7434504,-1.327,0
0.46000000000000024,20.999997329929183,-0.42581804627818265,-1.331388196009921,0.9972150501597749,17.361807,-3.9696434,-0.69362354,0.9457415,14.147921,-10.516062,1.7344971,0.77461916,0.184406,0.41472495,0.4404119,-10.36762,1.310454,-0.8770216,0.84707534,-2.5229733,-1.2129501,0
0.47000000000000025,20.999997329929183,-0.42581804627818265,-1.331388196009921,0.9972150501597749,17.361807,-3.9696434,-0.69362354,0.9457415,14.045089,-10.502879,1.7258552,0.7814411,0.19021724,0.40799278,0.43209836,-10.198793,1.3252138,-0.8511172,0.6488813,-2.3369431,-1.1044967,0
0.48000000000000026,20.33329838799679,-2.8323405179167898,1.2826723096629948,4.8102238688162915,17.809494,-3.792989,0.5060725,1.3184283,13.943942,-10.489574,1.7174796,0.78771913,0.1951282,0.40136144,0.4246557,-10.030665,1.3350698,-0.82378244,0.4815426,-2.1799738,-1.0013652,0
0.49000000000000027,20.33329838799679,-2.8323405179167898,1.2826723096629948,4.8102238688162915,17.809494,-3.792989,0.5060725,1.3184283,13.8446455,-10.476186,1.7095156,0.793181,0.19822305,0.3951116,0.41887742,-9.829723,1.3417784,-0.7693483,-0.05197124,-1.6569513,-0.76184255,0
0.5000000000000002,20.33329838799679,-2.8323405179167898,1.2826723096629948,4.8102238688162915,17.809494,-3.792989,0.5060725,1.3184283,13.747327,-10.46275,1.7020863,0.7976099,0.19881624,0.3894803,0.41544622,-9.635151,1.3448057,-0.7167604,-0.49995923,-1.2131681,-0.528252,0
0.5100000000000002,20.33329838799679,-2.8323405179167898,1.2826723096629948,4.8102238688162915,17.809494,-3.792989,0.5060725,1.3184283,13.65192,-10.449296,1.6951748,0.80112964,0.19735818,0.38437557,0.41412112,-9.447,1.3458704,-0.6658318,-0.8767268,-0.8372315,-0.30044675,0
0.5200000000000002,20.259799707738843,-5.0360712591365715,3.9468531779000045,5.130806732710067,16.589489,-5.0648093,2.782338,1.8108845,13.558365,-10.435835,1.6887646,0.80382717,0.19422072,0.3797027,0.41468772,-9.2652445,1.3463365,-0.61642444,-1.1942307,-0.5194092,-0.07828346,0
0.5300000000000002,20.259799707738843,-5.0360712591365715,3.9468531779000045,5.130806732710067,16.589489,-5.0648093,2.782338,1.8108845,13.466625,-10.422366,1.682867,0.8055713,0.1885294,0.375743,0.41752666,-9.083692,1.3474499,-0.56330425,-1.8421222,0.12809269,0.14597182,0
0.5400000000000003,20.259799707738843,-5.0360712591365715,3.9468531779000045,5.130806732710067,16.589489,-5.0648093,2.782338,1.8108845,13.376669,-10.408876,1.6774942,0.8062261,0.17959212,0.37269163,0.42290306,-8.908747,1.3509654,-0.51147103,-2.3906674,0.6729306,0.36467308,0
0.5500000000000003,20.259799707738843,-5.0360712591365715,3.9468531779000045,5.130806732710067,16.589489,-5.0648093,2.782338,1.8108845,13.288428,-10.395333,1.6726338,0.80581903,0.16793235,0.3703315,0.43047515,-8.740492,1.3585076,-0.46080118,-2.8567848,1.1296866,0.5779578,0
0.5600000000000003,20.999968356866265,-5.999998791994947,5.999990663507824,5.752911605330239,14.919912,-5.4136906,4.742703,1.4560508,13.201836,-10.381688,1.6682744,0.80434924,0.15398595,0.36846083,0.43993995,-8.579046,1.3712937,-0.41125482,-3.254612,1.5108109,0.7859602,0
0.5700000000000003,20.999968356866265,-5.999998791994947,5.999990663507824,5.752911605330239,14.919912,-5.4136906,4.742703,1.4560508,13.116896,-10.367877,1.6644729,0.80163807,0.13738121,0.36710075,0.45137548,-8.410215,1.392048,-0.34921864,-3.831969,2.0614114,1.0076982,0
0.5800000000000003,20.999968356866265,-5.999998791994947,5.999990663507824,5.752911605330239,14.919912,-5.4136906,4.742703,1.4560508,13.033605,-10.353819,1.6612854,0.7974789,0.11783167,0.36621258,0.46479172,-8.249403,1.4207798,-0.28851265,-4.3278255,2.5175958,1.2239444,0
0.5900000000000003,20.999968356866265,-5.999998791994947,5.999990663507824,5.752911605330239,14.919912,-5.4136906,4.742703,1.4560508,12.951884,-10.339429,1.6587025,0.7917911,0.0958049,0.3655863,0.479828,-8.095811,1.4587789,-0.22796734,-4.7357383,2.9132776,1.4330728,0
0.6000000000000003,20.999994230927985,-5.999999362441602,5.999998209026246,5.315109989991035,15.791578,-4.8441696,5.415936,1.3853308,12.871665,-10.324607,1.6567276,0.7844458,0.07173595,0.36518425,0.49612412,-7.9492493,1.507061,-0.16697031,-5.0548935,3.272458,1.6341906,0
0.6100000000000003,20.999994230927985,-5.999999362441602,5.999998209026246,5.315109989991035,15.791578,-4.8441696,5.415936,1.3853308,12.792854,-10.3092575,1.6553415,0.77527744,0.046034746,0.36521316,0.5132689,-7.8142376,1.5645875,-0.11032094,-5.2371597,3.6629784,1.8117473,0
0.6200000000000003,20.999994230927985,-5.999999362441602,5.999998209026246,5.315109989991035,15.791578,-4.8441696,5.415936,1.3853308,12.715351,-10.293279,1.6545177,0.76416045,0.019049462,0.36585796,0.5308897,-7.6876388,1.6328937,-0.054606356,-5.3633065,4.0203753,1.9830755,0
0.6300000000000003,20.999994230927985,-5.999999362441602,5.999998209026246,5.315109989991035,15.791578,-4.8441696,5.415936,1.3853308,12.639074,-10.27656,1.6542492,0.7510667,-0.008961612,0.36702207,0.5487379,-7.5688915,1.712829,0.00089491997,-5.4634566,4.328386,2.1465795,0
0.6400000000000003,20.999994230927985,-5.999999362441602,5.999998209026246,5.315109989991035,14.175197,-4.446375,4.4200487,0.20709364,12.563945,-10.258982,1.6545336,0.7360141,-0.03779038,0.3685174,0.5666127,-7.45841,1.8047377,0.055861056,-5.5479574,4.588393,2.3020601,0
0.6500000000000004,20.999994230927985,-5.999999362441602,5.999998209026246,5.315109989991035,14.175197,-4.446375,4.4200487,0.20709364,12.489876,-10.240423,1.6553619,0.71902686,-0.067248486,0.3701758,0.5843354,-7.3570323,1.9085572,0.10950387,-5.619244,4.807884,2.4499114,0
0.6600000000000004,20.999994230927985,-5.999999362441602,5.999998209026246,5.315109989991035,14.175197,-4.446375,4.4200487,0.20709364,12.416771,-10.220769,1.6567166,0.7001329,-0.097162545,0.37185612,0.60174435,-7.265616,2.0240245,0.16104066,-5.6793747,4.9931774,2.5905075,0
0.6700000000000004,20.999994230927985,-5.999999362441602,5.999998209026246,5.315109989991035,14.175197,-4.446375,4.4200487,0.20709364,12.344526,-10.199904,1.6585728,0.67936563,-0.1273723,0.37344003,0.61869305,-7.185011,2.150688,0.20970297,-5.730088,5.149606,2.7242048,0
0.6800000000000004,20.99378096865754,-5.930733208359465,4.565555982961138,3.90357042424831,13.06263,-4.4684567,3.8482678,0.3861789,12.27303,-10.177719,1.6608981,0.6567638,-0.15772904,0.37482876,0.6350482,-7.116043,2.2879214,0.25474545,-5.772853,5.281671,2.8513412,0
0.6900000000000004,20.99378096865754,-5.930733208359465,4.565555982961138,3.90357042424831,13.06263,-4.4684567,3.8482678,0.3861789,12.202163,-10.154112,1.6636527,0.63271177,-0.1877761,0.3755621,0.6506681,-7.0595016,2.4348536,0.295451,-5.797441,5.169752,2.9029746,0
0.7000000000000004,20.99378096865754,-5.930733208359465,4.565555982961138,3.90357042424831,13.06263,-4.4684567,3.8482678,0.3861789,12.131796,-10.128992,1.6667908,0.60758036,-0.21714288,0.37529746,0.6654674,-7.016016,2.590356,0.33144483,-5.818212,5.0753026,2.952074,0
0.7100000000000004,20.99378096865754,-5.930733208359465,4.565555982961138,3.90357042424831,13.06263,-4.4684567,3.8482678,0.3861789,12.061795,-10.10228,1.6702641,0.5813941,-0.24581826,0.37411597,0.6794052,-6.986115,2.7531433,0.36241725,-5.8357587,4.9955964,2.998764,0
0.7200000000000004,19.472571056455426,-4.602049011735629,2.6429165701593478,2.979712556860488,13.943217,-3.5880659,3.9592066,0.5166194,11.992024,-10.073908,1.6740209,0.5541821,-0.2737887,0.3720861,0.6924404,-6.9702215,2.9219105,0.38808602,-5.8505816,4.9283333,3.043163,0
0.7300000000000004,19.472571056455426,-4.602049011735629,2.6429165701593478,2.979712556860488,13.943217,-3.5880659,3.9592066,0.5166194,11.922339,-10.043887,1.6779636,0.5265061,-0.3002622,0.36919564,0.7045057,-6.968709,3.082743,0.39967725,-5.655159,4.572322,3.0400496,0
0.7400000000000004,19.472571056455426,-4.602049011735629,2.6429165701593478,2.979712556860488,13.943217,-3.5880659,3.9592066,0.5166194,11.852605,-10.012241,1.6819971,0.4988949,-0.32464805,0.3654955,0.7156258,-6.980213,3.246486,0.4062615,-5.490324,4.271769,3.0370889,0
0.7500000000000004,19.472571056455426,-4.602049011735629,2.6429165701593478,2.979712556860488,13.943217,-3.5880659,3.9592066,0.5166194,11.782692,-9.97895,1.6860722,0.47132483,-0.34720388,0.36111477,0.7258776,-7.0043597,3.4118445,0.40804973,-5.3512893,4.0180345,3.0342734,0
0.7600000000000005,17.230078366873116,-2.855278579339894,0.3928342158336066,2.0422021468289437,14.768763,-1.9894894,3.2053733,0.48460287,11.712475,-9.944002,1.6901424,0.4437706,-0.36814728,0.35615417,0.7353157,-7.04076,3.5776665,0.40525597,-5.2340155,3.803826,3.031596,0
0.7700000000000005,17.230078366873116,-2.855278579339894,0.3928342158336066,2.0422021468289437,14.768763,-1.9894894,3.2053733,0.48460287,11.641862,-9.907494,1.6941099,0.41688487,-0.38674334,0.3507837,0.74403435,-7.0833874,3.7238827,0.38766885,-4.8618994,3.272772,2.983046,0
0.7800000000000005,17.230078366873116,-2.855278579339894,0.3928342158336066,2.0422021468289437,14.768763,-1.9894894,3.2053733,0.48460287,11.570774,-9.869529,1.6978846,0.39123994,-0.4024716,0.3451931,0.75218976,-7.135603,3.8687694,0.36677918,-4.5480113,2.8243937,2.9368784,0
0.7900000000000005,17.230078366873116,-2.855278579339894,0.3928342158336066,2.0422021468289437,14.768763,-1.9894894,3.2053733,0.48460287,11.499121,-9.830124,1.7014362,0.3666902,-0.41578484,0.33946574,0.75988424,-7.1965203,4.011679,0.34315768,-4.2832355,2.445822,2.8929765,0
0.8000000000000005,15.786321175745044,-1.1403579065386245,-1.6099099625376916,1.1352126101925917,14.356973,-1.4054794,1.3742595,0.5171317,11.426817,-9.789303,1.70474,0.3430992,-0.42705992,0.33365604,0.76718724,-7.265357,4.1521153,0.31731626,-4.0598855,2.1261907,2.8512287,0
0.8100000000000005,15.786321175745044,-1.1403579065386245,-1.6099099625376916,1.1352126101925917,14.356973,-1.4054794,1.3742595,0.5171317,11.353806,-9.747124,1.7077599,0.32085362,-0.43598825,0.32794705,0.77422076,-7.3374753,4.2826843,0.286144,-3.6616533,1.6026014,2.7722583,0
0.8200000000000005,15.786321175745044,-1.1403579065386245,-1.6099099625376916,1.1352126101925917,14.356973,-1.4054794,1.3742595,0.5171317,11.280054,-9.7036705,1.7104533,0.30040205,-0.44220492,0.32256874,0.7811291,-7.413429,4.4069777,0.2521843,-3.280593,1.1155441,2.6931295,0
0.8300000000000005,15.786321175745044,-1.1403579065386245,-1.6099099625376916,1.1352126101925917,14.356973,-1.4054794,1.3742595,0.5171317,11.205523,-9.658997,1.7128009,0.28164563,-0.4460017,0.31758013,0.7879726,-7.4935503,4.527408,0.21729532,-2.946045,0.69124484,2.616682,0
0.8400000000000005,15.786321175745044,-1.1403579065386245,-1.6099099625376916,1.1352126101925917,13.492817,-0.4411319,0.32680088,-0.24126652,11.130169,-9.613132,1.7147999,0.26437548,-0.44776565,0.31295854,0.7947756,-7.5776405,4.645035,0.18253587,-2.6638222,0.33298832,2.5439858,0
0.8500000000000005,15.786321175745044,-1.1403579065386245,-1.6099099625376916,1.1352126101925917,13.492817,-0.4411319,0.32680088,-0.24126652,11.053958,-9.566105,1.7164537,0.24839303,-0.44783336,0.30866536,0.80154324,-7.665005,4.759931,0.14835483,-2.4257352,0.030498318,2.474857,0
0.8600000000000005,15.786321175745044,-1.1403579065386245,-1.6099099625376916,1.1352126101925917,13.492817,-0.4411319,0.32680088,-0.24126652,10.976859,-9.517941,1.7177701,0.23352578,-0.4464826,0.30465925,0.8082707,-7.7550507,4.872194,0.11512725,-2.2248783,-0.22490318,2.4091203,0
0.8700000000000006,15.786321175745044,-1.1403579065386245,-1.6099099625376916,1.1352126101925917,13.492817,-0.4411319,0.32680088,-0.24126652,10.8988495,-9.468669,1.7187604,0.21962479,-0.443943,0.30089894,0.8149473,-7.847268,4.981929,0.0831644,-2.055427,-0.44054446,2.3466094,0
0.8800000000000006,15.091813253522714,0.20291135670683408,-3.0747657843155243,0.27075013452566205,12.552388,0.16323261,0.0060405843,-0.6406373,10.819908,-9.418312,1.7194386,0.20656213,-0.44040495,0.29734513,0.8215602,-7.9412155,5.0892425,0.052722853,-1.9124681,-0.6226137,2.2871659,0
0.8900000000000006,15.091813253522714,0.20291135670683408,-3.0747657843155243,0.27075013452566205,12.552388,0.16323261,0.0060405843,-0.6406373,10.740027,-9.366901,1.7198154,0.19463184,-0.4355852,0.29417148,0.82815874,-8.034592,5.192189,0.022656854,-1.6215156,-0.96509826,2.1917725,0
0.9000000000000006,15.091813253522714,0.20291135670683408,-3.0747657843155243,0.27075013452566205,12.552388,0.16323261,0.0060405843,-0.6406373,10.65922,-9.314483,1.7198935,0.18416691,-0.4291527,0.29159006,0.83479667,-8.126706,5.2909904,-0.0068790168,-1.3422471,-1.2879843,2.0980294,0
0.9100000000000006,15.091813253522714,0.20291135670683408,-3.0747657843155243,0.27075013452566205,12.552388,0.16323261,0.0060405843,-0.6406373,10.577494,-9.261087,1.7196851,0.1750508,-0.42126828,0.28956753,0.8414515,-8.218585,5.387727,-0.03443887,-1.100991,-1.5662374,2.0083642,0
0.9200000000000006,14.552053028511992,1.1265382577105272,-4.126545719691009,-0.44982487232959306,12.819149,0.62138706,-0.6487958,-1.0741274,10.494849,-9.206733,1.7192131,0.16710716,-0.41215774,0.28801385,0.8480855,-8.310045,5.4830294,-0.05954674,-0.89744025,-1.8011751,1.923099,0
0.9300000000000006,14.552053028511992,1.1265382577105272,-4.126545719691009,-0.44982487232959306,12.819149,0.62138706,-0.6487958,-1.0741274,10.411283,-9.151419,1.718514,0.16032733,-0.40187946,0.2868845,0.85468435,-8.402954,5.5795555,-0.08008891,-0.6779371,-2.0671668,1.815297,0
0.9400000000000006,14.552053028511992,1.1265382577105272,-4.126545719691009,-0.44982487232959306,12.819149,0.62138706,-0.6487958,-1.0741274,10.326801,-9.095154,1.7176152,0.15478645,-0.39037892,0.28620902,0.8612374,-8.492572,5.673123,-0.09943531,-0.45952973,-2.324889,1.7098185,0
0.9500000000000006,14.552053028511992,1.1265382577105272,-4.126545719691009,-0.44982487232959306,12.819149,0.62138706,-0.6487958,-1.0741274,10.241444,-9.037966,1.7165294,0.15044977,-0.37768266,0.28600925,0.86770934,-8.578508,5.7640495,-0.1175366,-0.24274257,-2.5749316,1.6066121,0
0.9600000000000006,14.416212458015664,1.548770943852557,-4.71280525637812,-1.0655669512304735,13.070379,0.47189325,-1.1473958,-1.1894937,10.155245,-8.97988,1.7152693,0.14727771,-0.3638177,0.28629792,0.87405926,-8.660629,5.852881,-0.13414961,-0.03252308,-2.813297,1.5060167,0
0.9700000000000006,14.416212458015664,1.548770943852557,-4.71280525637812,-1.0655669512304735,13.070379,0.47189325,-1.1473958,-1.1894937,10.068218,-8.920884,1.7138803,0.14518118,-0.34893492,0.28693447,0.8802475,-8.744111,5.946025,-0.14342508,0.11801493,-3.0133543,1.3884368,0
0.9800000000000006,14.416212458015664,1.548770943852557,-4.71280525637812,-1.0655669512304735,13.070379,0.47189325,-1.1473958,-1.1894937,9.98038,-8.860967,1.7124057,0.14410858,-0.3331344,0.2878207,0.8862356,-8.822789,6.0373306,-0.15124112,0.27439857,-3.2115784,1.274003,0
0.9900000000000007,14.416212458015664,1.548770943852557,-4.71280525637812,-1.0655669512304735,13.070379,0.47189325,-1.1473958,-1.1894937,9.891781,-8.800144,1.7108599,0.14404128,-0.31640762,0.2889937,0.8919759,-8.896386,6.1269493,-0.15769954,0.4354166,-3.407955,1.162588,0
1.0000000000000007,14.274660039340905,1.4955187107813188,-4.6418887520883825,-1.4889803314551968,13.351038,0.41973466,-1.8566248,-1.6891896,9.802471,-8.738434,1.7092559,0.14495677,-0.29874697,0.290483,0.89741707,-8.964652,6.215036,-0.16290744,0.5996484,-3.6020744,1.0541043,0
1.0100000000000007,14.274660039340905,1.4955187107813188,-4.6418887520883825,-1.4889803314551968,13.351038,0.41973466,-1.8566248,-1.6891896,9.712498,-8.675837,1.707619,0.14676313,-0.28034234,0.29217318,0.9024985,-9.029156,6.304198,-0.16431035,0.7003326,-3.7254012,0.9328049,0
1.0200000000000007,14.274660039340905,1.4955187107813188,-4.6418887520883825,-1.4889803314551968,13.351038,0.41973466,-1.8566248,-1.6891896,9.621908,-8.612353,1.7059739,0.14938447,-0.2613582,0.29396757,0.907171,-9.087917,6.3921494,-0.16455276,0.8102765,-3.8544729,0.81522584,0
1.0300000000000007,14.274660039340905,1.4955187107813188,-4.6418887520883825,-1.4889803314551968,13.351038,0.41973466,-1.8566248,-1.6891896,9.530759,-8.547996,1.7043334,0.15280147,-0.24177526,0.29589707,0.91139525,-9.141162,6.4795284,-0.16313365,0.9169122,-3.9772801,0.70215774,0
1.0400000000000007,14.274660039340905,1.4955187107813188,-4.6418887520883825,-1.4889803314551968,12.700632,-0.04013224,-2.066333,-2.0018811,9.439103,-8.482762,1.7027196,0.1569414,-0.2216622,0.297927,0.91513646,-9.189145,6.5671573,-0.15928894,1.0069073,-4.0809546,0.59463793,0
1.0500000000000007,14.274660039340905,1.4955187107813188,-4.6418887520883825,-1.4889803314551968,12.700632,-0.04013224,-2.066333,-2.0018811,9.346995,-8.416652,1.7011553,0.16172443,-0.2011043,0.3000104,0.91836596,-9.231593,6.6549983,-0.1531976,1.0828624,-4.168474,0.49239427,0
1.0600000000000007,14.274660039340905,1.4955187107813188,-4.6418887520883825,-1.4889803314551968,12.700632,-0.04013224,-2.066333,-2.0018811,9.254491,-8.349663,1.6996626,0.16708055,-0.18017547,0.30210835,0.92105997,-9.268269,6.7429843,-0.14505747,1.1469709,-4.242355,0.39516765,0
1.0700000000000007,14.274660039340905,1.4955187107813188,-4.6418887520883825,-1.4889803314551968,12.700632,-0.04013224,-2.066333,-2.0018811,9.161651,-8.281793,1.6982604,0.17294793,-0.15894005,0.30418864,0.92319894,-9.298964,6.8310237,-0.135082,1.2010834,-4.3047204,0.30271196,0
1.0800000000000007,13.620308592890785,1.0129784523182603,-4.047683981693011,-1.6900779164063773,11.9270935,-0.1934181,-2.3190598,-2.105814,9.068533,-8.213042,1.6969664,0.1792717,-0.13745427,0.30622482,0.92476714,-9.323501,6.919004,-0.12349718,1.2467612,-4.357364,0.21479313,0
1.0900000000000007,13.620308592890785,1.0129784523182603,-4.047683981693011,-1.6900779164063773,11.9270935,-0.1934181,-2.3190598,-2.105814,8.975206,-8.143434,1.6957698,0.18592842,-0.11603074,0.30805787,0.9257796,-9.340915,7.002764,-0.11562863,1.2100334,-4.3091483,0.12132055,0
1.1000000000000008,13.620308592890785,1.0129784523182603,-4.047683981693011,-1.6900779164063773,11.9270935,-0.1934181,-2.3190598,-2.105814,8.881735,-8.0729885,1.6946576,0.19282585,-0.09492605,0.30956832,0.9262692,-9.352332,7.086168,-0.10666834,1.1790521,-4.2684445,0.03243471,0
1.1100000000000008,13.620308592890785,1.0129784523182603,-4.047683981693011,-1.6900779164063773,11.9270935,-0.1934181,-2.3190598,-2.105814,8.788179,-8.001712,1.6936395,0.19995862,-0.07410981,0.31078985,0.9262472,-9.3578,7.169037,-0.096827365,1.1529189,-4.2340813,-0.052089494,0
1.1200000000000008,12.75059864680283,0.2571297446901356,-3.161937742541378,-1.7314614834832378,11.157301,-0.61917156,-1.8066676,-2.1937127,8.694599,-7.9296103,1.6927234,0.20731872,-0.053556334,0.31175134,0.92572224,-9.357365,7.251199,-0.08630991,1.130876,-4.2050714,-0.13246605,0
1.1300000000000008,12.75059864680283,0.2571297446901356,-3.161937742541378,-1.7314614834832378,11.157301,-0.61917156,-1.8066676,-2.1937127,8.601049,-7.8567176,1.6918802,0.21477738,-0.03363748,0.31227374,0.92478335,-9.351505,7.327288,-0.082274936,0.9944223,-4.0424347,-0.21092921,0
1.1400000000000008,12.75059864680283,0.2571297446901356,-3.161937742541378,-1.7314614834832378,11.157301,-0.61917156,-1.8066676,-2.1937127,8.507586,-7.783068,1.691079,0.22224139,-0.014649818,0.31222743,0.92353016,-9.340412,7.402366,-0.07792582,0.8792705,-3.905149,-0.28554216,0
1.1500000000000008,12.75059864680283,0.2571297446901356,-3.161937742541378,-1.7314614834832378,11.157301,-0.61917156,-1.8066676,-2.1937127,8.414258,-7.708674,1.6903224,0.2297466,0.003529454,0.3117009,0.9219796,-9.324333,7.4762597,-0.07337606,0.78209406,-3.789264,-0.35649386,0
1.1600000000000008,12.044260019090153,-0.7530999804784014,-1.9408387897688322,-1.5464598419665994,10.641079,-1.0866266,-0.88132983,-1.8140739,8.3211155,-7.6335473,1.6896118,0.23731919,0.021005567,0.31076807,0.92014205,-9.303484,7.5488133,-0.0687278,0.7000862,-3.6914449,-0.4239639,0
1.1700000000000008,12.044260019090153,-0.7530999804784014,-1.9408387897688322,-1.5464598419665994,10.641079,-1.0866266,-0.88132983,-1.8140739,8.228198,-7.5577226,1.6889194,0.24481711,0.037329488,0.3092376,0.91817373,-9.2795,7.615947,-0.069756806,0.47341457,-3.4183939,-0.4790451,0
1.1800000000000008,12.044260019090153,-0.7530999804784014,-1.9408387897688322,-1.5464598419665994,10.641079,-1.0866266,-0.88132983,-1.8140739,8.13554,-7.481234,1.6882167,0.25213706,0.05215084,0.30697277,0.91622853,-9.251605,7.6815457,-0.07078059,0.28210294,-3.1879206,-0.53142345,0
1.1900000000000008,12.044260019090153,-0.7530999804784014,-1.9408387897688322,-1.5464598419665994,10.641079,-1.0866266,-0.88132983,-1.8140739,8.043178,-7.4040976,1.6875038,0.25934455,0.06568707,0.30410087,0.91430193,-9.220183,7.7454944,-0.07177964,0.12063335,-2.9933875,-0.5812316,0
1.2000000000000008,11.742677041504098,-1.6907020054366184,-0.4765198050129001,-1.1651710656721357,10.780955,-1.9739999,-0.15485857,-0.9476094,7.9511466,-7.3263297,1.6867812,0.26648983,0.078123525,0.3007267,0.9123832,-9.185568,7.8076997,-0.072731756,-0.015650362,-2.8291914,-0.62859565,1
1.2100000000000009,11.742677041504098,-1.6907020054366184,-0.4765198050129001,-1.1651710656721357,10.780955,-1.9739999,-0.15485857,-0.9476094,7.8594575,-7.247981,1.6859984,0.27337137,0.08885773,0.29667917,0.9106885,-9.152018,7.861754,-0.08379848,-0.32090807,-2.4120026,-0.64424974,1
1.2200000000000009,11.742677041504098,-1.6907020054366184,-0.4765198050129001,-1.1651710656721357,10.780955,-1.9739999,-0.15485857,-0.9476094,7.768114,-7.1691003,1.6851058,0.27983344,0.09742391,0.29183623,0.90941364,-9.11638,7.914147,-0.0946786,-0.5785794,-2.0598888,-0.6591357,1
1.2300000000000009,11.742677041504098,-1.6907020054366184,-0.4765198050129001,-1.1651710656721357,10.780955,-1.9739999,-0.15485857,-0.9476094,7.677135,-7.0897036,1.6841059,0.28596842,0.1041522,0.28633836,0.9085067,-9.079132,7.964865,-0.105241165,-0.7960834,-1.7627,-0.67329115,1
1.2400000000000009,11.742677041504098,-1.6907020054366184,-0.4765198050129001,-1.1651710656721357,10.800942,-2.9471788,1.5769023,0.24945721,7.586535,-7.009809,1.6830025,0.2918483,0.10932187,0.28029904,0.9079126,-9.04068,8.013906,-0.11536939,-0.9796823,-1.5118692,-0.686752,0
1.2500000000000009,11.742677041504098,-1.6907020054366184,-0.4765198050129001,-1.1651710656721357,10.800942,-2.9471788,1.5769023,0.24945721,7.496342,-6.929411,1.6818398,0.29757673,0.113311715,0.27387837,0.90752345,-8.99785,8.065496,-0.11707072,-1.0905141,-1.3503408,-0.71022815,0
1.260000000000001,11.742677041504098,-1.6907020054366184,-0.4765198050129001,-1.1651710656721357,10.800942,-2.9471788,1.5769023,0.24945721,7.4065814,-6.848506,1.6806632,0.3032369,0.11643431,0.2672048,0.907244,-8.954338,8.11527,-0.11812444,-1.184068,-1.2140086,-0.7325523,0
1.270000000000001,11.742677041504098,-1.6907020054366184,-0.4765198050129001,-1.1651710656721357,10.800942,-2.9471788,1.5769023,0.24945721,7.3172574,-6.767112,1.6794795,0.3088523,0.118818514,0.2603207,0.907042,-8.910353,8.163233,-0.11848216,-1.2630378,-1.0989424,-0.7537811,0
1.280000000000001,12.242346422666127,-2.3378649869868564,0.804250277411721,-0.5995726894758504,11.963444,-3.263732,1.8689828,0.63558984,7.228375,-6.685247,1.6782959,0.31444076,0.120573536,0.25326082,0.90688896,-8.866076,8.209394,-0.11810613,-1.3296975,-1.0018258,-0.7739681,0
1.290000000000001,12.242346422666127,-2.3378649869868564,0.804250277411721,-0.5995726894758504,11.963444,-3.263732,1.8689828,0.63558984,7.139946,-6.6029196,1.677141,0.31985512,0.12126289,0.24597289,0.9069095,-8.819805,8.255656,-0.112736024,-1.4867746,-0.72009844,-0.7654105,0
1.300000000000001,12.242346422666127,-2.3378649869868564,0.804250277411721,-0.5995726894758504,11.963444,-3.263732,1.8689828,0.63558984,7.0519786,-6.520139,1.6760442,0.32497358,0.12054619,0.23841836,0.9072029,-8.773755,8.300116,-0.10648099,-1.6193806,-0.48231947,-0.7572727,0
1.310000000000001,12.242346422666127,-2.3378649869868564,0.804250277411721,-0.5995726894758504,11.963444,-3.263732,1.8689828,0.63558984,6.964469,-6.4369235,1.6750146,0.32984063,0.11863824,0.23064043,0.90770847,-8.728269,8.342844,-0.09926094,-1.7313273,-0.28163308,-0.7495343,0
1.320000000000001,12.591413936189124,-2.8515027087705107,1.7777773575840516,0.0132057530391667,13.699215,-3.8926642,2.431166,1.2886308,6.8774104,-6.3532887,1.6740625,0.3344914,0.115720525,0.22267392,0.9083722,-8.683639,8.383907,-0.091016896,-1.8258333,-0.11225276,-0.74217564,0
1.330000000000001,12.591413936189124,-2.8515027087705107,1.7777773575840516,0.0132057530391667,13.699215,-3.8926642,2.431166,1.2886308,6.790798,-6.269245,1.6732134,0.33882222,0.111540005,0.21448249,0.9092608,-8.638898,8.42449,-0.07863984,-1.9856476,0.18252587,-0.7051089,0
1.340000000000001,12.591413936189124,-2.8515027087705107,1.7777773575840516,0.0132057530391667,13.699215,-3.8926642,2.431166,1.2886308,6.7046266,-6.184804,1.6724938,0.34274164,0.10590396,0.20603763,0.9104179,-8.595695,8.463515,-0.06509607,-2.1205726,0.43131787,-0.66986096,0
1.350000000000001,12.591413936189124,-2.8515027087705107,1.7777773575840516,0.0132057530391667,13.699215,-3.8926642,2.431166,1.2886308,6.6188774,-6.09998,1.6719155,0.34629032,0.09903531,0.19737515,0.91176635,-8.554399,8.501076,-0.05033528,-2.2344828,0.6412984,-0.6363426,0
1.360000000000001,13.000401995790376,-3.1437282227814825,2.329323463056599,0.5919518570657234,14.513117,-4.451374,2.4743624,1.6453849,6.53353,-6.0147877,1.6714911,0.3495008,0.09112258,0.18852444,0.91323835,-8.515327,8.537249,-0.0343363,-2.3306499,0.8185232,-0.60446906,0
1.370000000000001,13.000401995790376,-3.1437282227814825,2.329323463056599,0.5919518570657234,14.513117,-4.451374,2.4743624,1.6453849,6.448568,-5.9292345,1.6712518,0.35230282,0.08209605,0.17947386,0.9148399,-8.477581,8.573234,-0.013354581,-2.457396,1.0540879,-0.54576033,0
1.380000000000001,13.000401995790376,-3.1437282227814825,2.329323463056599,0.5919518570657234,14.513117,-4.451374,2.4743624,1.6453849,6.363969,-5.843328,1.6712285,0.3546306,0.07190912,0.17021462,0.916566,-8.442764,8.607935,0.008893585,-2.5644038,1.2529051,-0.4899325,0
1.390000000000001,13.000401995790376,-3.1437282227814825,2.329323463056599,0.5919518570657234,14.513117,-4.451374,2.4743624,1.6453849,6.2797017,-5.75708,1.6714339,0.35651422,0.060740855,0.16077326,0.9183464,-8.411195,8.641424,0.032374147,-2.6547444,1.4207094,-0.43684414,0
1.400000000000001,13.17324192917055,-3.208065314325722,2.3458177186379023,1.0386697874802293,14.9372,-4.5184836,2.0202048,1.7678885,6.1957326,-5.670503,1.6718799,0.35797873,0.048743322,0.1511725,0.9201208,-8.383147,8.673756,0.05702519,-2.731012,1.5623393,-0.38636085,0
1.410000000000001,13.17324192917055,-3.208065314325722,2.3458177186379023,1.0386697874802293,14.9372,-4.5184836,2.0202048,1.7678885,6.112027,-5.5836067,1.6725862,0.35899466,0.036038797,0.14140828,0.92186105,-8.358537,8.705386,0.08440766,-2.805454,1.6844134,-0.3164342,0
1.420000000000001,13.17324192917055,-3.208065314325722,2.3458177186379023,1.0386697874802293,14.9372,-4.5184836,2.0202048,1.7678885,6.0285482,-5.496399,1.6735715,0.35953227,0.02273232,0.13147946,0.92354375,-8.337947,8.735911,0.11278432,-2.868297,1.7874478,-0.24993885,0
1.430000000000001,13.17324192917055,-3.208065314325722,2.3458177186379023,1.0386697874802293,14.9372,-4.5184836,2.0202048,1.7678885,5.945254,-5.4088917,1.6748449,0.35961148,0.008920426,0.12140895,0.92512697,-8.321566,8.76534,0.14203194,-2.9213467,1.8744136,-0.18670645,0
1.440000000000001,13.17324192917055,-3.208065314325722,2.3458177186379023,1.0386697874802293,14.702593,-4.2475524,1.3543284,1.5975437,5.8621016,-5.321096,1.6764146,0.3592505,-0.005314459,0.11121715,0.92657524,-8.309546,8.793677,0.17201123,-2.9661276,1.9478179,-0.12657687,0
1.450000000000001,13.17324192917055,-3.208065314325722,2.3458177186379023,1.0386697874802293,14.702593,-4.2475524,1.3543284,1.5975437,5.779047,-5.2330227,1.6782871,0.35846597,-0.019901838,0.1009223,0.9278582,-8.30202,8.820918,0.20256962,-3.0039275,2.009777,-0.069397874,0
1.460000000000001,13.17324192917055,-3.208065314325722,2.3458177186379023,1.0386697874802293,14.702593,-4.2475524,1.3543284,1.5975437,5.6960454,-5.1446824,1.6804674,0.35727346,-0.03478128,0.09054088,0.92895013,-8.299093,8.847051,0.23354371,-3.0358336,2.0620763,-0.015024662,0
1.470000000000001,13.17324192917055,-3.208065314325722,2.3458177186379023,1.0386697874802293,14.702593,-4.2475524,1.3543284,1.5975437,5.6130495,-5.0560856,1.6829587,0.3556875,-0.04990086,0.08008782,0.9298292,-8.300852,8.872059,0.26476136,-3.0627635,2.1062226,0.036680434,0
1.480000000000001,12.740912749380653,-2.996756624350871,1.6889343243981902,1.2554573679439944,14.486157,-3.8536077,0.29028013,1.2065551,5.5300126,-4.9672446,1.6857629,0.35372186,-0.06521584,0.06957673,0.93047667,-8.307363,8.895922,0.29604352,-3.0854928,2.143488,0.08584835,0
1.490000000000001,12.740912749380653,-2.996756624350871,1.6889343243981902,1.2554573679439944,14.486157,-3.8536077,0.29028013,1.2065551,5.446888,-4.878175,1.6888582,0.35138884,-0.080411464,0.059008006,0.93090165,-8.318286,8.917861,0.322966,-3.0717282,2.0724864,0.14324139,0
1.500000000000001,12.740912749380653,-2.996756624350871,1.6889343243981902,1.2554573679439944,14.486157,-3.8536077,0.29028013,1.2065551,5.363631,-4.7888913,1.6922212,0.3486989,-0.095236674,0.04838562,0.93112713,-8.333774,8.938594,0.34961233,-3.0601027,2.0125637,0.19781815,0
1.5100000000000011,12.740912749380653,-2.996756624350871,1.6889343243981902,1.2554573679439944,14.486157,-3.8536077,0.29028013,1.2065551,5.2801967,-4.699407,1.6958487,0.34566236,-0.10974167,0.03772593,0.93115574,-8.353735,8.958045,0.37582886,-3.0502837,1.9619919,0.24971682,0
1.5200000000000011,12.150605397732415,-2.5546360966071266,0.5853129688707798,1.2983973490621592,14.254948,-3.3599985,-1.0416117,0.89531946,5.196541,-4.6097355,1.6997358,0.34228966,-0.12396864,0.027043141,0.9309878,-8.378083,8.976146,0.40146625,-3.041991,1.9193124,0.29906878,0
1.5300000000000011,12.150605397732415,-2.5546360966071266,0.5853129688707798,1.2983973490621592,14.254948,-3.3599985,-1.0416117,0.89531946,5.1126266,-4.519893,1.703847,0.3386213,-0.13748187,0.01636456,0.9306807,-8.405385,8.992054,0.42068577,-2.966003,1.7111958,0.34810615,0
1.5400000000000011,12.150605397732415,-2.5546360966071266,0.5853129688707798,1.2983973490621592,14.254948,-3.3599985,-1.0416117,0.89531946,5.02842,-4.429899,1.7081468,0.33469373,-0.14994113,0.0057149837,0.9303038,-8.436534,9.006503,0.4391335,-2.9018574,1.5355413,0.3947372,0
1.5500000000000012,12.150605397732415,-2.5546360966071266,0.5853129688707798,1.2983973490621592,14.254948,-3.3599985,-1.0416117,0.89531946,4.9438834,-4.3397684,1.7126268,0.330512,-0.16150764,-0.004898129,0.9298673,-8.471279,9.01939,0.4567451,-2.8477108,1.3872854,0.4390801,0
1.5600000000000012,11.092808009209026,-1.8274069385263716,-0.5662622279090506,1.1507351160420967,13.228878,-2.9030917,-2.3718216,1.0702004,4.8589826,-4.249517,1.7172785,0.3260815,-0.17231742,-0.015468979,0.92937523,-8.509403,9.0306225,0.4734622,-2.802005,1.2621542,0.48124707,0
1.5700000000000012,11.092808009209026,-1.8274069385263716,-0.5662622279090506,1.1507351160420967,13.228878,-2.9030917,-2.3718216,1.0702004,4.773702,-4.159166,1.722043,0.32146928,-0.18196298,-0.02587534,0.928912,-8.5470915,9.039294,0.47932634,-2.649949,0.97700435,0.51409906,0
1.5800000000000012,11.092808009209026,-1.8274069385263716,-0.5662622279090506,1.1507351160420967,13.228878,-2.9030917,-2.3718216,1.0702004,4.688032,-4.068736,1.7268621,0.3167352,-0.19013175,-0.036019377,0.92856413,-8.587344,9.046306,0.48435187,-2.5216088,0.73632437,0.5453389,0
1.5900000000000012,11.092808009209026,-1.8274069385263716,-0.5662622279090506,1.1507351160420967,13.228878,-2.9030917,-2.3718216,1.0702004,4.601948,-3.978245,1.7317274,0.311875,-0.19705665,-0.04593063,0.9283281,-8.629838,9.051588,0.48857847,-2.4132867,0.53317827,0.57504594,0
1.6000000000000012,10.342637517389036,-0.9788511389515949,-1.3602509179115463,0.9185317691714325,11.360916,-2.2375462,-3.0128481,1.181277,4.515428,-3.88771,1.736631,0.3068853,-0.20293349,-0.05563497,0.928194,-8.674299,9.055086,0.49204344,-2.3218617,0.36171257,0.6032952,0
1.6100000000000012,10.342637517389036,-0.9788511389515949,-1.3602509179115463,0.9185317691714325,11.360916,-2.2375462,-3.0128481,1.181277,4.428471,-3.79715,1.7415316,0.30184248,-0.2075273,-0.06494269,0.92822725,-8.71735,9.056644,0.48796937,-2.1123157,0.093233995,0.618764,0
1.6200000000000012,10.342637517389036,-0.9788511389515949,-1.3602509179115463,0.9185317691714325,11.360916,-2.2375462,-3.0128481,1.181277,4.3410764,-3.706583,1.7463886,0.29681277,-0.21066327,-0.073705144,0.9284884,-8.761681,9.056492,0.48331133,-1.9354601,-0.13338377,0.6334737,0
1.6300000000000012,10.342637517389036,-0.9788511389515949,-1.3602509179115463,0.9185317691714325,11.360916,-2.2375462,-3.0128481,1.181277,4.253234,-3.616026,1.7511963,0.29178005,-0.21257307,-0.08199905,0.92895275,-8.80699,9.05463,0.47816476,-1.7861958,-0.32466793,0.6474616,0
1.6400000000000012,10.342637517389036,-0.9788511389515949,-1.3602509179115463,0.9185317691714325,10.283269,-1.2876934,-3.040323,0.89814055,4.1649346,-3.525496,1.7559505,0.2867307,-0.21345085,-0.0898899,0.9295935,-8.85302,9.051066,0.4726134,-1.6602186,-0.48612788,0.6607631,0
1.6500000000000012,10.342637517389036,-0.9788511389515949,-1.3602509179115463,0.9185317691714325,10.283269,-1.2876934,-3.040323,0.89814055,4.0761714,-3.4350102,1.7606474,0.28165346,-0.21345948,-0.0974336,0.9303833,-8.899553,9.045808,0.46672934,-1.5538961,-0.62241405,0.67341185,0
1.6600000000000013,10.342637517389036,-0.9788511389515949,-1.3602509179115463,0.9185317691714325,10.283269,-1.2876934,-3.040323,0.89814055,3.9869418,-3.3445854,1.7652841,0.2765393,-0.21273564,-0.10467787,0.93129593,-8.946403,9.038862,0.46057326,-1.464162,-0.7374515,0.68543994,0
1.6700000000000013,10.342637517389036,-0.9788511389515949,-1.3602509179115463,0.9185317691714325,10.283269,-1.2876934,-3.040323,0.89814055,3.8972428,-3.2542386,1.769858,0.2713812,-0.21139413,-0.111663416,0.9323068,-8.993407,9.030238,0.4541954,-1.3884287,-0.8345534,0.6968779,0
1.6800000000000013,9.850133681635546,-0.26020108396460756,-1.9238772390710746,0.6278196707963656,9.811803,-0.52792096,-2.8655555,0.25441638,3.8070736,-3.1639867,1.7743673,0.2661738,-0.20953141,-0.11842501,0.9333936,-9.040429,9.019948,0.44763657,-1.3245118,-0.9165162,0.7077545,1
1.6900000000000013,9.850133681635546,-0.26020108396460756,-1.9238772390710746,0.6278196707963656,9.811803,-0.52792096,-2.8655555,0.25441638,3.7164466,-3.0738425,1.7787869,0.26095483,-0.20660825,-0.12499992,0.93466073,-9.084916,9.008606,0.43624943,-1.2001612,-1.220393,0.6855091,1
1.7000000000000013,9.850133681635546,-0.26020108396460756,-1.9238772390710746,0.6278196707963656,9.811803,-0.52792096,-2.8655555,0.25441638,3.6253767,-2.98382,1.7830923,0.25575867,-0.20219816,-0.13141699,0.93618,-9.1290245,8.995644,0.42482883,-1.0952314,-1.4768932,0.66435516,1
1.7100000000000013,9.850133681635546,-0.26020108396460756,-1.9238772390710746,0.6278196707963656,9.811803,-0.52792096,-2.8655555,0.25441638,3.5338686,-2.8939352,1.7872837,0.2505774,-0.19652717,-0.1376925,0.9378852,-9.172484,8.98102,0.4134715,-1.006688,-1.6934029,0.6442393,1
1.7200000000000013,9.684396096650175,0.4375503555080003,-2.27954422266597,0.2695832110882271,9.631211,0.5122374,-3.2385244,-0.47089598,3.4419298,-2.8042052,1.7913623,0.24540436,-0.18978547,-0.14384025,0.93971705,-9.21506,8.964704,0.40225026,-0.93197095,-1.8761566,0.62511057,1
1.7300000000000013,9.684396096650175,0.4375503555080003,-2.27954422266597,0.2695832110882271,9.631211,0.5122374,-3.2385244,-0.47089598,3.349574,-2.7146456,1.7953228,0.2403739,-0.181888,-0.14953907,0.9416874,-9.255844,8.946987,0.38977292,-0.7083993,-2.0868359,0.57148474,1
1.7400000000000013,9.684396096650175,0.4375503555080003,-2.27954422266597,0.2695832110882271,9.631211,0.5122374,-3.2385244,-0.47089598,3.2568176,-2.625271,1.7991585,0.23560183,-0.17275874,-0.15452555,0.9438051,-9.295219,8.927695,0.37742344,-0.5180502,-2.2663527,0.52033484,1
1.7500000000000013,9.684396096650175,0.4375503555080003,-2.27954422266597,0.2695832110882271,9.631211,0.5122374,-3.2385244,-0.47089598,3.163675,-2.536097,1.8028724,0.23105569,-0.16258073,-0.15890157,0.9460079,-9.333011,8.906887,0.36543068,-0.3574026,-2.4178965,0.4716949,1
1.7600000000000013,9.90087578290151,1.0711021346387348,-2.0240669095518995,-0.14097918582993427,10.075944,1.6869991,-3.3686402,-1.4235644,3.0701635,-2.4471383,1.8064686,0.22670779,-0.15150963,-0.16275376,0.9482403,-9.369004,8.88464,0.3538471,-0.22182001,-2.5458245,0.4254417,0
1.7700000000000014,9.90087578290151,1.0711021346387348,-2.0240669095518995,-0.14097918582993427,10.075944,1.6869991,-3.3686402,-1.4235644,2.976297,-2.3584123,1.809963,0.22260965,-0.14009517,-0.16582797,0.9504312,-9.403983,8.860386,0.34513664,-0.020256665,-2.4644005,0.3976473,0
1.7800000000000014,9.90087578290151,1.0711021346387348,-2.0240669095518995,-0.14097918582993427,10.075944,1.6869991,-3.3686402,-1.4235644,2.8820908,-2.269935,1.8133727,0.21879782,-0.12878576,-0.16793072,0.9525446,-9.43687,8.834939,0.33688727,0.14988098,-2.3956892,0.3712167,0
1.7900000000000014,9.90087578290151,1.0711021346387348,-2.0240669095518995,-0.14097918582993427,10.075944,1.6869991,-3.3686402,-1.4235644,2.7875667,-2.181717,1.8167024,0.2152305,-0.117565356,-0.1692107,0.9545796,-9.467638,8.8085,0.329101,0.2934925,-2.337705,0.3460831,0
1.8000000000000014,10.190283561843051,1.5464177030309516,-1.1186520033526923,-0.4540216024364416,10.660409,1.6873679,-2.4066284,-1.3976604,2.6927457,-2.0937676,1.8199564,0.21187258,-0.10641983,-0.1697931,0.956533,-9.496265,8.781244,0.32177454,0.41471353,-2.288772,0.32218283,0
1.8100000000000014,10.190283561843051,1.5464177030309516,-1.1186520033526923,-0.4540216024364416,10.660409,1.6873679,-2.4066284,-1.3976604,2.597645,-2.0060983,1.8231528,0.20881331,-0.09563733,-0.1695295,0.9583895,-9.523518,8.752519,0.31756708,0.5911113,-2.1062698,0.28409424,0
1.8200000000000014,10.190283561843051,1.5464177030309516,-1.1186520033526923,-0.4540216024364416,10.660409,1.6873679,-2.4066284,-1.3976604,2.5022829,-1.9187187,1.8263094,0.20612668,-0.08544658,-0.16831,0.96014714,-9.548618,8.723345,0.31382108,0.74001604,-1.9522412,0.2478747,0
1.8300000000000014,10.190283561843051,1.5464177030309516,-1.1186520033526923,-0.4540216024364416,10.660409,1.6873679,-2.4066284,-1.3976604,2.4066799,-1.8316321,1.8294308,0.20376474,-0.07575558,-0.16628323,0.96181655,-9.571642,8.693946,0.310534,0.8657119,-1.8222425,0.21343245,0
1.8400000000000014,10.190283561843051,1.5464177030309516,-1.1186520033526923,-0.4540216024364416,11.431688,0.90210646,-1.335249,-0.6213368,2.3108568,-1.7448399,1.8325217,0.20168674,-0.066486046,-0.16357408,0.9634032,-9.592651,8.664508,0.30770156,0.9718157,-1.7125238,0.18068029,0
1.8500000000000014,10.190283561843051,1.5464177030309516,-1.1186520033526923,-0.4540216024364416,11.431688,0.90210646,-1.335249,-0.6213368,2.2148337,-1.6583415,1.8355864,0.19985802,-0.05757158,-0.16028754,0.96490955,-9.611704,8.635191,0.305317,1.0613807,-1.6199206,0.14953528,0
1.8600000000000014,10.190283561843051,1.5464177030309516,-1.1186520033526923,-0.4540216024364416,11.431688,0.90210646,-1.335249,-0.6213368,2.1186295,-1.5721352,1.8386295,0.1982491,-0.04895594,-0.15651195,0.9663358,-9.628844,8.60613,0.30337068,1.1369845,-1.5417625,0.11991856,0
1.8700000000000014,10.190283561843051,1.5464177030309516,-1.1186520033526923,-0.4540216024364416,11.431688,0.90210646,-1.335249,-0.6213368,2.022263,-1.4862176,1.8416553,0.19683488,-0.0405916,-0.15232167,0.9676811,-9.644114,8.577438,0.30185002,1.200803,-1.4757956,0.09175513,0
1.8800000000000014,10.302655256397857,1.6485606762156098,-0.512774559037001,-0.6875913168709661,11.705701,0.32640564,-1.6692173,-0.768467,1.9257532,-1.4005847,1.8446679,0.19559392,-0.032438464,-0.14777936,0.96894395,-9.657545,8.549216,0.3007395,1.2546735,-1.4201179,0.06497371,0
1.8900000000000015,10.302655256397857,1.6485606762156098,-0.512774559037001,-0.6875913168709661,11.705701,0.32640564,-1.6692173,-0.768467,1.8291175,-1.3152329,1.8476769,0.19457275,-0.024685612,-0.14285187,0.9701164,-9.669304,8.521246,0.30109534,1.3160628,-1.2786472,0.028045118,0
1.9000000000000015,10.302655256397857,1.6485606762156098,-0.512774559037001,-0.6875913168709661,11.705701,0.32640564,-1.6692173,-0.768467,1.732373,-1.2301575,1.8506912,0.1938099,-0.017481243,-0.13751622,0.97119606,-9.679332,8.493952,0.30183178,1.3678869,-1.15924,-0.0070713814,0
1.9100000000000015,10.302655256397857,1.6485606762156098,-0.512774559037001,-0.6875913168709661,11.705701,0.32640564,-1.6692173,-0.768467,1.6355364,-1.145351,1.8537147,0.1932776,-0.010739104,-0.13183449,0.9721874,-9.687721,8.467439,0.30293298,1.4116349,-1.058455,-0.0404647,0
1.9200000000000015,10.031705139007872,1.43418358713857,-0.19790711591678056,-0.8116934569580395,11.597243,-0.07941125,-1.4067628,-0.78182405,1.5386239,-1.0608056,1.856751,0.1929519,-0.0043864315,-0.125859,0.97309303,-9.694548,8.441796,0.30438226,1.4485652,-0.9733874,-0.0722194,0
1.9300000000000015,10.031705139007872,1.43418358713857,-0.19790711591678056,-0.8116934569580395,11.597243,-0.07941125,-1.4067628,-0.78182405,1.4416513,-0.9765086,1.8597903,0.19284275,0.0015008093,-0.11969314,0.973901,-9.699747,8.417749,0.30353433,1.4463077,-0.85248595,-0.10850562,0
1.9400000000000015,10.031705139007872,1.43418358713857,-0.19790711591678056,-0.8116934569580395,11.597243,-0.07941125,-1.4067628,-0.78182405,1.3446336,-0.89244723,1.8628228,0.19295892,0.0068655405,-0.11342138,0.97460526,-9.703593,8.394676,0.30298486,1.444407,-0.7504371,-0.14301124,0
1.9500000000000015,10.031705139007872,1.43418358713857,-0.19790711591678056,-0.8116934569580395,11.597243,-0.07941125,-1.4067628,-0.78182405,1.2475837,-0.8086115,1.865851,0.19327956,0.01178975,-0.10705882,0.9752141,-9.706184,8.37262,0.30271164,1.4428064,-0.66430104,-0.17582366,0
1.9600000000000015,9.57386207751797,1.0642735728839319,-0.0029535859138128,-0.8377994141542456,10.403195,-0.17149483,-0.56430465,-0.65167993,1.1505139,-0.72499114,1.868878,0.19378647,0.016342543,-0.10061814,0.97573346,-9.7076,8.351614,0.30269372,1.4414579,-0.5915965,-0.20702599,0
1.9700000000000015,9.57386207751797,1.0642735728839319,-0.0029535859138128,-0.8377994141542456,10.403195,-0.17149483,-0.56430465,-0.65167993,1.0534356,-0.6415709,1.8718834,0.1944773,0.020477602,-0.09423935,0.97615486,-9.707897,8.332596,0.29842302,1.3826385,-0.4998179,-0.23797822,0
1.9800000000000015,9.57386207751797,1.0642735728839319,-0.0029535859138128,-0.8377994141542456,10.403195,-0.17149483,-0.56430465,-0.65167993,0.95635915,-0.5583357,1.8748472,0.19535002,0.024161052,-0.08803422,0.97647566,-9.707232,8.3146,0.2943519,1.3329935,-0.42235014,-0.26741162,0
1.9900000000000015,9.57386207751797,1.0642735728839319,-0.0029535859138128,-0.8377994141542456,10.403195,-0.17149483,-0.56430465,-0.65167993,0.85929394,-0.47527543,1.8777711,0.19638988,0.027463365,-0.08197453,0.9767073,-9.705691,8.297612,0.29045802,1.2910917,-0.35696176,-0.2954007,0
2.0000000000000013,,,,,10.131593,-0.44971955,-0.42468596,-0.5190181,0.76224816,-0.39238003,1.880657,0.19758378,0.030443966,-0.076036416,0.97685844,-9.703347,8.28162,0.28672183,1.2557249,-0.3017694,-0.3220164,0
2.010000000000001,,,,,10.131593,-0.44971955,-0.42468596,-0.5190181,0.6652288,-0.30963594,1.8834829,0.19892657,0.03298585,-0.0703204,0.9769316,-9.700419,8.267348,0.27848908,1.1668433,-0.20073852,-0.34380308,0
2.020000000000001,,,,,10.131593,-0.44971955,-0.42468596,-0.5190181,0.5682418,-0.22702998,1.8862271,0.20041177,0.034998644,-0.06490517,0.97693276,-9.696891,8.253978,0.27037358,1.0918218,-0.11546327,-0.3645207,0
2.0300000000000007,,,,,10.131593,-0.44971955,-0.42468596,-0.5190181,0.47129264,-0.14455336,1.8888907,0.20202649,0.03656448,-0.059742752,0.97687215,-9.692859,8.241477,0.26236194,1.028499,-0.043486953,-0.3842217,0
2.0400000000000005,,,,,10.131593,-0.44971955,-0.42468596,-0.5190181,0.374386,-0.062197544,1.8914747,0.20375942,0.037752707,-0.05479268,0.97675717,-9.688407,8.229817,0.25444335,0.9750502,0.017264225,-0.40295595,0
2.0500000000000003,,,,,9.759638,-0.9239608,-0.32336318,-0.31850216,0.27752572,0.020045782,1.8939798,0.2056005,0.038621854,-0.050020847,0.9765934,-9.683604,8.218974,0.24660875,0.9299357,0.06854099,-0.4207709,1
2.06,,,,,9.759638,-0.9239608,-0.32336318,-0.31850216,0.1807168,0.10218096,1.8964396,0.2074993,0.039347306,-0.046085093,0.9763564,-9.678141,8.208177,0.24535175,0.6408047,0.0075050956,-0.41575256,1
2.07,,,,,9.759638,-0.9239608,-0.32336318,-0.31850216,0.0839638,0.1842114,1.898887,0.20941038,0.040069293,-0.04350635,0.97603726,-9.672421,8.197988,0.24414597,0.39676648,-0.044026252,-0.41098046,1
2.0799999999999996,,,,,9.759638,-0.9239608,-0.32336318,-0.31850216,-0.012730934,0.26614195,1.9013226,0.21133159,0.040786304,-0.042073425,0.9756562,-9.666495,8.188164,0.24296565,0.19078833,-0.087532975,-0.40644252,1
2.0899999999999994,,,,,9.681696,-1.7300099,-1.837953,0.16526219,-0.109365575,0.3479752,1.9037464,0.21326025,0.041497257,-0.041607857,0.9752264,-9.66041,8.1785,0.24179149,0.016934369,-0.124264486,-0.40212724,1
2.099999999999999,,,,,9.681696,-1.7300099,-1.837953,0.16526219,-0.20593892,0.4297122,1.9061545,0.21512336,0.042720854,-0.04240566,0.9747299,-9.654235,8.168878,0.2398308,-0.25556383,-0.39144623,-0.37428528,1
2.109999999999999,,,,,9.681696,-1.7300099,-1.837953,0.16526219,-0.30244952,0.5113516,1.9085428,0.21685347,0.044866707,-0.04469492,0.9741476,-9.647838,8.158917,0.23782124,-0.48554736,-0.61698025,-0.34780952,1
2.1199999999999988,,,,,9.681696,-1.7300099,-1.837953,0.16526219,-0.39889455,0.5928885,1.9109105,0.21845482,0.04778724,-0.048244555,0.9734814,-9.641115,8.148322,0.23572122,-0.6796507,-0.8073573,-0.3226329,1
2.1299999999999986,,,,,8.995405,-1.1611887,-1.0275141,-0.3056033,-0.49527037,0.67431504,1.9132568,0.21993041,0.0513579,-0.052858986,0.9727274,-9.633983,8.136837,0.2334891,-0.8434725,-0.96805674,-0.29869175,1
2.1399999999999983,,,,,8.995405,-1.1611887,-1.0275141,-0.3056033,-0.59157515,0.75562584,1.915546,0.22134523,0.055211563,-0.058076788,0.97189754,-9.626918,8.125155,0.2243007,-0.8930221,-0.97731924,-0.29903093,1
2.149999999999998,,,,,8.995405,-1.1611887,-1.0275141,-0.3056033,-0.68780714,0.8368144,1.9177424,0.22276154,0.059053756,-0.06352278,0.971007,-9.619415,8.112389,0.21492678,-0.93484426,-0.9851388,-0.29935345,1
2.159999999999998,,,,,8.995405,-1.1611887,-1.0275141,-0.3056033,-0.783962,0.91786975,1.9198438,0.22417769,0.06288528,-0.0691604,0.97005486,-9.611487,8.098499,0.20534708,-0.97014403,-0.9917401,-0.29966012,1
2.1699999999999977,,,,,9.090799,-0.6773364,-0.40729746,-0.2772492,-0.8800355,0.9987804,1.9218484,0.22559209,0.06670681,-0.07495878,0.96904045,-9.60315,8.083457,0.19554096,-0.9999388,-0.99731296,-0.29995176,1
2.1799999999999975,,,,,9.090799,-0.6773364,-0.40729746,-0.2772492,-0.9760232,1.0795339,1.9237585,0.22700618,0.070322104,-0.08064838,0.9679972,-9.594329,8.067076,0.1864239,-0.9496104,-0.90531087,-0.29883775,1
2.1899999999999973,,,,,9.090799,-0.6773364,-0.40729746,-0.2772492,-1.0719209,1.1601181,1.925576,0.22842251,0.07357665,-0.08601456,0.9669596,-9.585158,8.049568,0.177057,-0.90713376,-0.82765484,-0.29777837,1
2.199999999999997,,,,,9.090799,-0.6773364,-0.40729746,-0.2772492,-1.1677254,1.2405218,1.9272987,0.229841,0.07652702,-0.09110718,0.9659275,-9.575692,8.031004,0.1674436,-0.8712839,-0.76210773,-0.29677096,1
2.209999999999997,,,,,9.568589,-0.36553806,0.40168518,0.11117204,-1.263434,1.3207347,1.9289241,0.23126134,0.07922086,-0.09596834,0.9649,-9.565971,8.011439,0.1575868,-0.8410268,-0.7067818,-0.295813,1
