time-since-start [s],throttle_mpc,roll_mpc,pitch_mpc,yaw_mpc,throttle_nw,roll_nw,pitch_nw,yaw_nw,position_x [m],position_y [m],position_z [m],rotation_w [quaternion],rotation_x [quaternion],rotation_y [quaternion],rotation_z [quaternion],velocity_x [m/s],velocity_y [m/s],velocity_z [m/s],omega_x [rad/s],omega_y [rad/s],omega_z [rad/s],network_used
0.0,10.692674404968072,5.999999703314515,-5.9999999667496065,-5.99999832657287,12.660773,-2.0294967,-5.1512556,-0.795411,19.701073,-9.040716,1.4638128,-0.21353997,-0.41930658,0.22965811,0.8519623,-11.232557,-7.1480403,0.046952076,1.8408781,-0.21887502,-0.5144682,0
0.01,10.692674404968072,5.999999703314515,-5.9999999667496065,-5.99999832657287,12.719216,-2.1202404,-6.1960793,-1.9538519,19.587946,-9.111984,1.4643244,-0.20688725,-0.42067048,0.23624687,0.85112953,-11.39202,-7.105253,0.054677814,1.7167853,-0.34798506,-0.70059377,0
0.02,10.692674404968072,5.999999703314515,-5.9999999667496065,-5.99999832657287,12.719216,-2.1202404,-6.1960793,-1.9538519,19.473244,-9.182816,1.4648921,-0.19953255,-0.42158908,0.24206685,0.85079557,-11.547696,-7.060516,0.058266822,1.61269,-0.4576007,-0.8821096,0
0.03,10.692674404968072,5.999999703314515,-5.9999999667496065,-5.99999832657287,12.719216,-2.1202404,-6.1960793,-1.9538519,19.357004,-9.253189,1.4654768,-0.19147627,-0.42216107,0.24718198,0.85089254,-11.699468,-7.0140004,0.058092225,1.5253592,-0.5506483,-1.0591298,0
0.04,10.692674404968072,5.999999703314515,-5.9999999667496065,-5.99999832657287,13.153321,-1.3716348,-4.272656,-3.2099872,19.239267,-9.32309,1.4660422,-0.18272091,-0.42246702,0.251647,0.85135704,-11.847329,-6.9658403,0.05452194,1.4530679,-0.6306026,-1.2316817,0
0.05,10.692674404968072,5.999999703314515,-5.9999999667496065,-5.99999832657287,13.153321,-1.3716348,-4.272656,-3.2099872,19.120068,-9.392499,1.4665594,-0.17324632,-0.42254388,0.2555519,0.85213614,-11.992467,-6.915745,0.04861996,1.4103079,-0.7163714,-1.3984516,0
0.060000000000000005,10.692674404968072,5.999999703314515,-5.9999999667496065,-5.99999832657287,13.153321,-1.3716348,-4.272656,-3.2099872,18.999428,-9.461397,1.4670081,-0.16299394,-0.4223691,0.2590479,0.85318923,-12.135151,-6.863652,0.04082139,1.3990349,-0.813628,-1.5592581,0
0.07,10.692674404968072,5.999999703314515,-5.9999999667496065,-5.99999832657287,13.153321,-1.3716348,-4.272656,-3.2099872,18.877373,-9.529765,1.4673698,-0.15190846,-0.4219098,0.2622725,0.85447615,-12.275177,-6.8096046,0.031238565,1.4151181,-0.92136765,-1.714464,0
0.08,13.46091860326594,5.9999999199983725,-5.99999999644386,-5.740583978381426,14.184967,-2.431948,-5.597178,-1.416214,18.753933,-9.597583,1.467627,-0.1399421,-0.4211296,0.26534322,0.85595524,-12.412347,-6.7536054,0.019974317,1.4549351,-1.0386041,-1.8644017,0
0.09,13.46091860326594,5.9999999199983725,-5.99999999644386,-5.740583978381426,14.184967,-2.431948,-5.597178,-1.416214,18.629066,-9.664802,1.4678072,-0.12686695,-0.4197833,0.26864082,0.8576242,-12.559958,-6.6897583,0.015715167,1.6261395,-1.2754987,-2.0065598,0
0.09999999999999999,13.46091860326594,5.9999999199983725,-5.99999999644386,-5.740583978381426,14.184967,-2.431948,-5.597178,-1.416214,18.502747,-9.731369,1.467935,-0.112478636,-0.41763702,0.2724908,0.8594632,-12.703475,-6.623643,0.009569277,1.8058362,-1.5107187,-2.1448913,0
0.10999999999999999,13.46091860326594,5.9999999199983725,-5.99999999644386,-5.740583978381426,14.184967,-2.431948,-5.597178,-1.416214,18.375011,-9.797264,1.4679925,-0.09677338,-0.41466632,0.2769058,0.8614002,-12.842595,-6.5549726,0.0016781136,1.9924313,-1.7442513,-2.27956,0
0.11999999999999998,13.46091860326594,5.9999999199983725,-5.99999999644386,-5.740583978381426,14.184967,-2.431948,-5.597178,-1.416214,18.245909,-9.862458,1.467963,-0.07975142,-0.41084236,0.28188905,0.8633581,-12.97701,-6.4834995,-0.007825084,2.184542,-1.9760499,-2.4107182,0
0.12999999999999998,17.629634119751305,5.9999999878166825,-6.0,-4.585233263358987,15.894246,3.0064938,-3.9716916,-4.580641,18.115486,-9.926924,1.4678309,-0.061417248,-0.40613258,0.2874351,0.8652547,-13.106392,-6.4090185,-0.018814607,2.3809693,-2.2060428,-2.5385072,0
0.13999999999999999,17.629634119751305,5.9999999878166825,-6.0,-4.585233263358987,15.894246,3.0064938,-3.9716916,-4.580641,17.983742,-9.990592,1.4676217,-0.041367795,-0.39990848,0.2941998,0.8670691,-13.241637,-6.324243,-0.023366163,2.8541234,-2.7084224,-2.6308322,0
0.15,17.629634119751305,5.9999999878166825,-6.0,-4.585233263358987,15.894246,3.0064938,-3.9716916,-4.580641,17.850681,-10.053396,1.4673569,-0.019256089,-0.3915762,0.30271426,0.8687128,-13.369363,-6.236035,-0.02988644,3.3032978,-3.1822891,-2.7230814,0
0.16,20.999998764557855,5.999999998190185,-6.0,-3.4455664294416186,15.433355,2.5867088,-3.878098,-4.217219,17.716381,-10.115298,1.467019,0.004814804,-0.38115564,0.3127697,0.8699844,-13.489521,-6.1434283,-0.037692983,3.720312,-3.6201243,-2.8142195,0
0.17,20.999998764557855,5.999999998190185,-6.0,-3.4455664294416186,15.433355,2.5867088,-3.878098,-4.217219,17.580801,-10.176148,1.4666919,0.030514954,-0.36872876,0.32410714,0.8706682,-13.625275,-6.0253234,-0.027571887,4.0750675,-3.991997,-2.8451998,0
0.18000000000000002,20.999998764557855,5.999999998190185,-6.0,-3.4455664294416186,15.433355,2.5867088,-3.878098,-4.217219,17.443903,-10.235776,1.4664705,0.05747097,-0.35443932,0.33642936,0.8705663,-13.752602,-5.8989573,-0.016549857,4.3745966,-4.305783,-2.87466,0
0.19000000000000003,20.999998764557855,5.999999998190185,-6.0,-3.4455664294416186,15.433355,2.5867088,-3.878098,-4.217219,17.30578,-10.294099,1.4663639,0.08545932,-0.3384575,0.34943193,0.8695062,-13.870264,-5.764299,-0.0046079876,4.627499,-4.570553,-2.9026744,0
0.20000000000000004,21.0,5.999999968677332,-5.999999995539052,-2.5713727477252357,17.41433,3.861235,-3.926781,-4.432237,17.166536,-10.351034,1.4663813,0.11427682,-0.3209377,0.36285362,0.86733925,-13.977074,-5.6215687,0.0082174875,4.841035,-4.7939625,-2.9293141,0
0.21000000000000005,21.0,5.999999968677332,-5.999999995539052,-2.5713727477252357,17.41433,3.861235,-3.926781,-4.432237,17.026281,-10.406504,1.466531,0.14364403,-0.3019828,0.37650502,0.8639543,-14.071913,-5.4712114,0.02183965,5.021473,-4.9823303,-2.91175,0
0.22000000000000006,21.0,5.999999968677332,-5.999999995539052,-2.5713727477252357,17.41433,3.861235,-3.926781,-4.432237,16.885143,-10.460435,1.4668205,0.17330372,-0.2816876,0.3902251,0.8592686,-14.153746,-5.313872,0.03612407,5.1738286,-5.1412683,-2.8950474,0
0.23000000000000007,21.0,5.999999968677332,-5.999999995539052,-2.5713727477252357,17.41433,3.861235,-3.926781,-4.432237,16.743256,-10.512761,1.4672552,0.20310915,-0.26017857,0.40384385,0.85320824,-14.221637,-5.15037,0.05089196,5.3024716,-5.275375,-2.8791647,0
0.24000000000000007,21.0,5.999999968677332,-5.999999995539052,-2.5713727477252357,18.324116,2.9839623,-4.1266365,-3.8768024,16.600763,-10.563425,1.4678392,0.2329253,-0.23757505,0.41721466,0.84571636,-14.274769,-4.9816747,0.065925986,5.411092,-5.3885303,-2.8640614,0
0.25000000000000006,21.0,5.999999968677332,-5.999999995539052,-2.5713727477252357,18.324116,2.9839623,-4.1266365,-3.8768024,16.457817,-10.61238,1.4685738,0.26262766,-0.2139901,0.4302113,0.83675176,-14.312449,-4.8088837,0.080976374,5.502805,-5.484008,-2.849699,0
0.26000000000000006,21.0,5.999999968677332,-5.999999995539052,-2.5713727477252357,18.324116,2.9839623,-4.1266365,-3.8768024,16.314571,-10.659592,1.4694577,0.29210111,-0.1895312,0.44272488,0.8262868,-14.334121,-4.633199,0.09576687,5.5802426,-5.5645704,-2.8360415,0
0.2700000000000001,21.0,5.999999968677332,-5.999999995539052,-2.5713727477252357,18.324116,2.9839623,-4.1266365,-3.8768024,16.17119,-10.705038,1.4704871,0.3212389,-0.16430086,0.45466143,0.8143059,-14.339371,-4.455909,0.1100008,5.6456256,-5.6325483,-2.823054,0
0.2800000000000001,21.0,5.072810243441634,-5.999999043884449,-0.2818498628821209,19.04512,1.8406881,-4.307085,-2.7914267,16.02784,-10.74871,1.4716547,0.34994212,-0.13839704,0.46594003,0.80080396,-14.327934,-4.278363,0.12336661,5.7008305,-5.6899076,-2.810704,0
0.2900000000000001,21.0,5.072810243441634,-5.999999043884449,-0.2818498628821209,19.04512,1.8406881,-4.307085,-2.7914267,15.884688,-10.79061,1.4729502,0.3778481,-0.111916155,0.4762382,0.78606814,-14.299719,-4.101967,0.13556589,5.6032677,-5.737634,-2.6866124,0
0.3000000000000001,21.0,5.072810243441634,-5.999999043884449,-0.2818498628821209,19.04512,1.8406881,-4.307085,-2.7914267,15.741902,-10.830758,1.4743614,0.40465677,-0.08494338,0.48531678,0.7703931,-14.254923,-3.9281862,0.146422,5.5209165,-5.7779803,-2.5686097,0
0.3100000000000001,21.0,5.072810243441634,-5.999999043884449,-0.2818498628821209,19.04512,1.8406881,-4.307085,-2.7914267,15.599647,-10.869187,1.4758737,0.43036705,-0.057551548,0.49322253,0.753793,-14.1939125,-3.758455,0.15577877,5.451402,-5.8120885,-2.4563978,0
0.3200000000000001,21.0,3.6543042837375777,-3.9681967738896016,1.0652270773697887,18.386978,-0.808654,-3.8507342,-0.34461063,15.45808,-10.905946,1.4774714,0.4549756,-0.029808765,0.49999398,0.7362845,-14.117163,-3.5941405,0.1634535,5.3927207,-5.8409243,-2.3496919,0
0.3300000000000001,21.0,3.6543042837375777,-3.9681967738896016,1.0652270773697887,18.386978,-0.808654,-3.8507342,-0.34461063,15.317357,-10.9410925,1.4791363,0.47794816,-0.0025528935,0.50564355,0.7182505,-14.02533,-3.4364932,0.16924267,5.122671,-5.5478983,-2.1821208,0
0.34000000000000014,21.0,3.6543042837375777,-3.9681967738896016,1.0652270773697887,18.386978,-0.808654,-3.8507342,-0.34461063,15.177622,-10.9747,1.4808489,0.49890968,0.023559414,0.51026314,0.70011836,-13.919583,-3.2863762,0.17294407,4.894583,-5.30071,-2.0227728,0
0.35000000000000014,21.0,3.6543042837375777,-3.9681967738896016,1.0652270773697887,18.386978,-0.808654,-3.8507342,-0.34461063,15.039009,-11.006846,1.4825875,0.5180703,0.048716396,0.51397854,0.6819501,-13.801168,-3.144416,0.1743822,4.7019405,-5.092186,-1.8712437,0
0.36000000000000015,21.0,2.2397794356141145,-1.2640406067911614,1.3631914615059288,17.165688,-1.778983,-2.6337256,-0.053196263,14.901639,-11.037617,1.4843284,0.5356087,0.07307767,0.5168864,0.6637856,-13.6712265,-3.0111265,0.17340355,4.539239,-4.916275,-1.7271503,0
0.37000000000000016,21.0,2.2397794356141145,-1.2640406067911614,1.3631914615059288,17.165688,-1.778983,-2.6337256,-0.053196263,14.76562,-11.0671,1.4860468,0.5511517,0.0957806,0.51928526,0.6460654,-13.530876,-2.8868468,0.16986515,4.181713,-4.3458934,-1.5755064,0
0.38000000000000017,21.0,2.2397794356141145,-1.2640406067911614,1.3631914615059288,17.165688,-1.778983,-2.6337256,-0.053196263,14.631052,-11.095385,1.4877164,0.56447375,0.11617292,0.5214874,0.62922484,-13.38153,-2.7713218,0.16362204,3.8797293,-3.8646035,-1.4313037,0
0.3900000000000002,21.0,2.2397794356141145,-1.2640406067911614,1.3631914615059288,17.165688,-1.778983,-2.6337256,-0.053196263,14.498015,-11.122556,1.4893095,0.5759059,0.13466145,0.52356213,0.61325455,-13.224493,-2.6640818,0.1545681,3.6246696,-3.458484,-1.294177,0
0.4000000000000002,20.99999992009316,0.5127661715428615,1.4540870247635531,1.19212254087366,15.642069,-1.7907062,-0.74699944,0.056960512,14.366584,-11.148694,1.4907978,0.5857207,0.15158825,0.5255499,0.59812146,-13.060836,-2.5646653,0.14263438,3.409252,-3.1157892,-1.1637793,0
0.4100000000000002,20.99999992009316,0.5127661715428615,1.4540870247635531,1.19212254087366,15.642069,-1.7907062,-0.74699944,0.056960512,14.236819,-11.173875,1.4921521,0.593702,0.1661792,0.5277151,0.5843107,-12.8914995,-2.4725344,0.12778427,2.9582713,-2.4025524,-1.0481745,0
0.4200000000000002,20.99999992009316,0.5127661715428615,1.4540870247635531,1.19212254087366,15.642069,-1.7907062,-0.74699944,0.056960512,14.108771,-11.198167,1.4933435,0.5997318,0.17785278,0.53031117,0.5722413,-12.717575,-2.3865871,0.110052064,2.5774384,-1.8006653,-0.9382425,0
0.4300000000000002,20.99999992009316,0.5127661715428615,1.4540870247635531,1.19212254087366,15.642069,-1.7907062,-0.74699944,0.056960512,13.982481,-11.221623,1.4943435,0.6041342,0.18712674,0.5333237,0.5617572,-12.540016,-2.305626,0.089506716,2.2558541,-1.2927369,-0.8337048,0
0.4400000000000002,20.99999992009316,0.5127661715428615,1.4540870247635531,1.19212254087366,14.628974,-2.6767745,1.7592729,0.6342251,13.857982,-11.244291,1.4951242,0.6071667,0.19443062,0.5367195,0.55270004,-12.359552,-2.2285988,0.06622094,1.984311,-0.86409444,-0.7342969,0
0.45000000000000023,20.99999992009316,0.5127661715428615,1.4540870247635531,1.19212254087366,14.628974,-2.6767745,1.7592729,0.6342251,13.735298,-11.266206,1.4956588,0.60903543,0.20012039,0.54045606,0.5449171,-12.176749,-2.1545901,0.04026298,1.7550296,-0.5023568,-0.63976693,0
0.46000000000000024,20.99999992009316,0.5127661715428615,1.4540870247635531,1.19212254087366,14.628974,-2.6767745,1.7592729,0.6342251,13.614453,-11.287391,1.4959207,0.60990703,0.20449096,0.54448736,0.5382658,-11.992054,-2.0828116,0.011692606,1.5614389,-0.19707792,-0.54987556,0
0.47000000000000025,20.99999992009316,0.5127661715428615,1.4540870247635531,1.19212254087366,14.628974,-2.6767745,1.7592729,0.6342251,13.495462,-11.307868,1.4958838,0.6099174,0.20778659,0.5487675,0.5326157,-11.8058195,-2.0125875,-0.01944031,1.3979888,0.06055733,-0.46439523,0
0.48000000000000026,20.99999972597515,-1.3217705821426442,3.6062830655819127,1.0874819619197396,13.187887,-3.389865,3.3828557,0.6908511,13.378342,-11.327647,1.4955231,0.6091781,0.21020955,0.55325305,0.5278492,-11.618333,-1.9433415,-0.05309557,1.2599906,0.2779864,-0.38310942,0
0.49000000000000027,20.99999972597515,-1.3217705821426442,3.6062830655819127,1.0874819619197396,13.187887,-3.389865,3.3828557,0.6908511,13.2631,-11.346737,1.4948134,0.6074664,0.21102013,0.55804545,0.5244428,-11.429871,-1.8744888,-0.08922068,0.8574597,0.7971742,-0.31094706,0
0.5000000000000002,20.99999972597515,-1.3217705821426442,3.6062830655819127,1.0874819619197396,13.187887,-3.389865,3.3828557,0.6908511,13.149746,-11.365135,1.4937308,0.6046049,0.20964132,0.5632214,0.52276665,-11.240904,-1.8049855,-0.12765296,0.5176445,1.2353462,-0.24232572,0
0.5100000000000002,20.99999972597515,-1.3217705821426442,3.6062830655819127,1.0874819619197396,13.187887,-3.389865,3.3828557,0.6908511,13.038281,-11.382832,1.4922532,0.6007326,0.20644207,0.56870174,0.5225707,-11.051916,-1.7337625,-0.16822097,0.2307798,1.6051481,-0.17707169,0
0.5200000000000002,20.999999730360457,-3.1973075099234545,5.028359610338083,1.020382095774537,15.101433,-4.5885296,4.496118,0.12976693,12.928706,-11.399802,1.4903597,0.5959591,0.20172817,0.5744105,0.52363235,-10.863334,-1.659924,-0.21079022,-0.011380468,1.9172518,-0.11501967,0
0.5300000000000002,20.999999730360457,-3.1973075099234545,5.028359610338083,1.020382095774537,15.101433,-4.5885296,4.496118,0.12976693,12.821012,-11.416019,1.488031,0.590196,0.19500363,0.5802211,0.5262941,-10.67559,-1.582654,-0.25522465,-0.5082737,2.4024472,-0.05930519,0
0.5400000000000003,20.999999730360457,-3.1973075099234545,5.028359610338083,1.020382095774537,15.101433,-4.5885296,4.496118,0.12976693,12.715188,-11.431441,1.4852499,0.5833518,0.18588342,0.58600503,0.53079754,-10.489324,-1.5008719,-0.30122903,-0.9277075,2.8119416,-0.0063246386,0
0.5500000000000003,20.999999730360457,-3.1973075099234545,5.028359610338083,1.020382095774537,15.101433,-4.5885296,4.496118,0.12976693,12.611217,-11.446018,1.4820021,0.575498,0.1747485,0.5916873,0.5368157,-10.30523,-1.4135599,-0.34850842,-1.2817519,3.1575506,0.044056155,0
0.5600000000000003,20.999999896952513,-4.4956010460054,5.258358700921916,0.9483891800617154,16.733175,-5.3711724,4.558178,-1.2297063,12.509073,-11.459691,1.4782761,0.5666899,0.16191766,0.59719586,0.5440608,-10.123991,-1.3199072,-0.39683703,-1.5805974,3.4492447,0.091964744,0
0.5700000000000003,20.999999896952513,-4.4956010460054,5.258358700921916,0.9483891800617154,16.733175,-5.3711724,4.558178,-1.2297063,12.408725,-11.472392,1.4740626,0.55700207,0.14731011,0.6022313,0.55259895,-9.946306,-1.2192631,-0.44601136,-2.0353093,3.7312927,0.13398975,0
0.5800000000000003,20.999999896952513,-4.4956010460054,5.258358700921916,0.9483891800617154,16.733175,-5.3711724,4.558178,-1.2297063,12.310132,-11.48405,1.4693544,0.5464773,0.13087752,0.60653186,0.56245226,-9.773016,-1.1110129,-0.4956766,-2.419114,3.9693415,0.17395256,0
0.5900000000000003,20.999999896952513,-4.4956010460054,5.258358700921916,0.9483891800617154,16.733175,-5.3711724,4.558178,-1.2297063,12.213246,-11.494584,1.4641485,0.5351156,0.11291188,0.6100852,0.57332206,-9.605003,-0.9946842,-0.54549104,-2.743067,4.1702585,0.21195439,0
0.6000000000000003,20.999999963593282,-4.776401658716658,4.469088158043169,0.7828062701585768,19.050648,-6.3233423,4.6195383,-0.598001,12.1180105,-11.503915,1.458445,0.5229195,0.093661815,0.61287814,0.584947,-9.443141,-0.8699868,-0.5951969,-3.0164993,4.3398385,0.24809144,0
0.6100000000000003,20.999999963593282,-4.776401658716658,4.469088158043169,0.7828062701585768,19.050648,-6.3233423,4.6195383,-0.598001,12.02436,-11.511955,1.4522456,0.5101127,0.07345589,0.61467284,0.59713185,-9.288279,-0.73681414,-0.6445828,-3.291033,4.3598948,0.27433005,0
0.6200000000000003,20.999999963593282,-4.776401658716658,4.469088158043169,0.7828062701585768,19.050648,-6.3233423,4.6195383,-0.598001,11.9322195,-11.518622,1.4455553,0.49688512,0.052574247,0.6152922,0.60971844,-9.141199,-0.5953067,-0.69335985,-3.5227497,4.3768253,0.29928112,0
0.6300000000000003,20.999999963593282,-4.776401658716658,4.469088158043169,0.7828062701585768,19.050648,-6.3233423,4.6195383,-0.598001,11.841507,-11.523834,1.4383814,0.48319918,0.031148626,0.61480767,0.622543,-9.002633,-0.4457446,-0.7412643,-3.7183266,4.391118,0.32300785,0
0.6400000000000003,20.999999963593282,-4.776401658716658,4.469088158043169,0.7828062701585768,19.383572,-6.4134955,4.16517,-0.562389,11.752135,-11.527512,1.4307338,0.46902847,0.009292519,0.61328155,0.6354618,-8.873276,-0.28849548,-0.78810245,-3.8834002,4.4031854,0.34557027,0
0.6500000000000004,20.999999963593282,-4.776401658716658,4.469088158043169,0.7828062701585768,19.383572,-6.4134955,4.16517,-0.562389,11.664009,-11.52958,1.4226236,0.45435604,-0.012895679,0.6107682,0.64834917,-8.753781,-0.124006234,-0.8337406,-4.022727,4.413376,0.36702555,0
0.6600000000000004,20.999999963593282,-4.776401658716658,4.469088158043169,0.7828062701585768,19.383572,-6.4134955,4.16517,-0.562389,11.577025,-11.529969,1.4140635,0.43917292,-0.035330128,0.6073159,0.66109484,-8.644758,0.047204573,-0.8780969,-4.1403227,4.4219813,0.38742802,0
0.6700000000000004,20.999999963593282,-4.776401658716658,4.469088158043169,0.7828062701585768,19.383572,-6.4134955,4.16517,-0.562389,11.491076,-11.528615,1.4050663,0.4234769,-0.057935447,0.60296804,0.6736025,-8.546767,0.2245545,-0.9211337,-4.239577,4.4292493,0.40682936,0
0.6800000000000004,20.99999997620139,-4.262522328241097,3.1296194370781847,0.550821310439432,19.30441,-6.224937,3.817316,-0.5250984,11.406051,-11.525459,1.3956454,0.40727136,-0.080644995,0.5977635,0.6857881,-8.460317,0.4074046,-0.9628515,-4.323349,4.4353886,0.42527863,0
0.6900000000000004,20.99999997620139,-4.262522328241097,3.1296194370781847,0.550821310439432,19.30441,-6.224937,3.817316,-0.5250984,11.321829,-11.520451,1.3858138,0.39092574,-0.10296527,0.5916683,0.69749826,-8.385813,0.59504426,-1.0032676,-4.3138237,4.23174,0.43143904,0
0.7000000000000004,20.99999997620139,-4.262522328241097,3.1296194370781847,0.550821310439432,19.30441,-6.224937,3.817316,-0.5250984,11.238293,-11.513545,1.3755848,0.37475884,-0.124503255,0.5846969,0.70864964,-8.323337,0.78661525,-1.0423342,-4.305791,4.0598507,0.43729717,0
0.7100000000000004,20.99999997620139,-4.262522328241097,3.1296194370781847,0.550821310439432,19.30441,-6.224937,3.817316,-0.5250984,11.155321,-11.504707,1.3649721,0.35870844,-0.14534114,0.57694334,0.71926385,-8.272852,0.98126084,-1.0799989,-4.299016,3.9147682,0.4428678,0
0.7200000000000004,20.99999989595804,-3.2163550833308068,1.4942644853588223,0.20254641005776297,19.770302,-6.1125007,2.6759079,-1.1055135,11.072795,-11.493912,1.3539898,0.34272295,-0.1655489,0.5684858,0.72935474,-8.234304,1.178176,-1.116237,-4.293302,3.7923117,0.4481651,0
0.7300000000000004,20.99999989595804,-3.2163550833308068,1.4942644853588223,0.20254641005776297,19.770302,-6.1125007,2.6759079,-1.1055135,10.990594,-11.48114,1.3426523,0.32723853,-0.18459195,0.5594756,0.7388016,-8.207555,1.3765868,-1.1510376,-4.1252213,3.4340138,0.4361125,0
0.7400000000000004,20.99999989595804,-3.2163550833308068,1.4942644853588223,0.20254641005776297,19.770302,-6.1125007,2.6759079,-1.1055135,10.908605,-11.466379,1.3309742,0.31262407,-0.20206358,0.5500784,0.7475628,-8.19205,1.5757138,-1.1843411,-3.9833746,3.1315813,0.42465132,0
0.7500000000000004,20.99999989595804,-3.2163550833308068,1.4942644853588223,0.20254641005776297,19.770302,-6.1125007,2.6759079,-1.1055135,10.826717,-11.449627,1.3189709,0.29874566,-0.21819149,0.5403655,0.75574374,-8.18715,1.774871,-1.2160794,-3.8636675,2.8763032,0.41375256,0
0.7600000000000005,20.999999755648176,-1.9415112905845897,-0.3634719802097538,-0.18715034332288244,20.272268,-5.8238854,1.8930168,-1.7286209,10.744827,-11.430885,1.3066581,0.28548706,-0.23316874,0.53038925,0.7634243,-8.192286,1.9734771,-1.2461977,-3.762643,2.6608279,0.40338862,0
0.7700000000000005,20.999999755648176,-1.9415112905845897,-0.3634719802097538,-0.18715034332288244,20.272268,-5.8238854,1.8930168,-1.7286209,10.662839,-11.410162,1.2940527,0.27330148,-0.24647437,0.5203651,0.7705691,-8.20687,2.1710336,-1.2746418,-3.4784727,2.1893306,0.3744107,0
0.7800000000000005,20.999999755648176,-1.9415112905845897,-0.3634719802097538,-0.18715034332288244,20.272268,-5.8238854,1.8930168,-1.7286209,10.580662,-11.38747,1.2811716,0.26255822,-0.25771976,0.5104963,0.7771983,-8.229908,2.3671405,-1.3012859,-3.2386549,1.7913394,0.34685472,0
0.7900000000000005,20.999999755648176,-1.9415112905845897,-0.3634719802097538,-0.18715034332288244,20.272268,-5.8238854,1.8930168,-1.7286209,10.498217,-11.362826,1.2680336,0.25304696,-0.26723188,0.5007912,0.7834299,-8.260384,2.56151,-1.3259872,-3.036265,1.4553953,0.32065096,0
0.8000000000000005,20.999999356718266,-0.6457518774784962,-1.9707180040005257,-0.5224835310706522,19.72129,-5.1999745,1.6731546,-1.9604892,10.415433,-11.336247,1.254659,0.24458574,-0.27528515,0.49124548,0.7893501,-8.297431,2.7539375,-1.3486183,-2.8654604,1.1718264,0.295733,0
0.8100000000000005,20.999999356718266,-0.6457518774784962,-1.9707180040005257,-0.5224835310706522,19.72129,-5.1999745,1.6731546,-1.9604892,10.332248,-11.3077545,1.2410688,0.2375105,-0.28149742,0.4820941,0.79494214,-8.340241,2.9442878,-1.3690583,-2.5191853,0.6818813,0.25558287,0
0.8200000000000005,20.999999356718266,-0.6457518774784962,-1.9707180040005257,-0.5224835310706522,19.72129,-5.1999745,1.6731546,-1.9604892,10.248611,-11.2773695,1.2272859,0.23208447,-0.28558522,0.4735335,0.8002147,-8.387692,3.132553,-1.387143,-2.2269483,0.26831442,0.21740294,0
0.8300000000000005,20.999999356718266,-0.6457518774784962,-1.9707180040005257,-0.5224835310706522,19.72129,-5.1999745,1.6731546,-1.9604892,10.164482,-11.245111,1.2133346,0.22806251,-0.2878903,0.4654923,0.8052473,-8.438695,3.318792,-1.4027061,-1.9803137,-0.08077927,0.18109646,0
0.8400000000000005,20.999999356718266,-0.6457518774784962,-1.9707180040005257,-0.5224835310706522,18.19825,-3.9711092,1.1837214,-2.1760926,10.079828,-11.211,1.1992409,0.22523458,-0.28869724,0.45790038,0.8100927,-8.492331,3.5030801,-1.4156017,-1.7721628,-0.3754494,0.14657158,0
0.8500000000000005,20.999999356718266,-0.6457518774784962,-1.9707180040005257,-0.5224835310706522,18.19825,-3.9711092,1.1837214,-2.1760926,9.994629,-11.1750555,1.1850321,0.22342154,-0.28824362,0.4506917,0.8147853,-8.547829,3.6854954,-1.4257048,-1.596489,-0.62417954,0.113740854,0
0.8600000000000005,20.999999356718266,-0.6457518774784962,-1.9707180040005257,-0.5224835310706522,18.19825,-3.9711092,1.1837214,-2.1760926,9.908868,-11.137296,1.1707368,0.22247113,-0.28672814,0.44380593,0.819347,-8.604539,3.866109,-1.4329112,-1.4482232,-0.83413076,0.082521126,0
0.8700000000000006,20.999999356718266,-0.6457518774784962,-1.9707180040005257,-0.5224835310706522,18.19825,-3.9711092,1.1837214,-2.1760926,9.8225355,-11.097739,1.1563842,0.22225414,-0.28431714,0.4371891,0.8237914,-8.661911,4.0449796,-1.4371356,-1.323088,-1.0113485,0.05283338,0
0.8800000000000006,20.999998986167682,0.37593686981442603,-2.959446757518217,-0.8312242585779327,17.597576,-3.1005538,0.018530052,-2.0556617,9.735628,-11.056403,1.1420046,0.22266115,-0.2811503,0.43079355,0.8281262,-8.71948,4.2221527,-1.4383107,-1.217474,-1.1609355,0.024602415,0
0.8900000000000006,20.999998986167682,0.37593686981442603,-2.959446757518217,-0.8312242585779327,17.597576,-3.1005538,0.018530052,-2.0556617,9.648147,-11.013303,1.1276287,0.22391526,-0.27694193,0.42481795,0.83228266,-8.776798,4.3976755,-1.4363836,-0.969017,-1.4413816,-0.017393254,0
0.9000000000000006,20.999998986167682,0.37593686981442603,-2.959446757518217,-0.8312242585779327,17.597576,-3.1005538,0.018530052,-2.0556617,9.560096,-10.968454,1.1132878,0.22618766,-0.27147013,0.41941556,0.8362017,-8.833196,4.5716653,-1.4313055,-0.75931835,-1.6781051,-0.057328187,0
0.9100000000000006,20.999998986167682,0.37593686981442603,-2.959446757518217,-0.8312242585779327,17.597576,-3.1005538,0.018530052,-2.0556617,9.471488,-10.921875,1.0990136,0.22932246,-0.26492837,0.41448477,0.83989656,-8.8880005,4.744239,-1.4230409,-0.58232975,-1.8779217,-0.09530349,0
0.9200000000000006,20.999996911846672,1.0724055609415881,-3.5595508273184993,-0.9970329969481317,17.283838,-1.7215781,-0.7913442,-1.8847742,9.382343,-10.873575,1.0848382,0.23318744,-0.2574792,0.40993768,0.84337354,-8.940642,4.915475,-1.4115711,-0.4329471,-2.046584,-0.13141535,0
0.9300000000000006,20.999996911846672,1.0724055609415881,-3.5595508273184993,-0.9970329969481317,17.283838,-1.7215781,-0.7913442,-1.8847742,9.2926855,-10.82357,1.0707933,0.2378566,-0.24899937,0.40587193,0.84657615,-8.990602,5.0854278,-1.3968952,-0.1982711,-2.2825444,-0.17389147,0
0.9400000000000006,20.999996911846672,1.0724055609415881,-3.5595508273184993,-0.9970329969481317,17.283838,-1.7215781,-0.7913442,-1.8847742,9.202543,-10.771872,1.0569112,0.2433793,-0.23939538,0.40235668,0.84944993,-9.037246,5.254174,-1.3790334,-0.00019725412,-2.481715,-0.21428329,0
0.9500000000000006,20.999996911846672,1.0724055609415881,-3.5595508273184993,-0.9970329969481317,17.283838,-1.7215781,-0.7913442,-1.8847742,9.111954,-10.718491,1.0432236,0.24961856,-0.22883381,0.39928284,0.85199684,-9.079969,5.4217625,-1.3580263,0.16698493,-2.64983,-0.25269306,0
0.9600000000000006,20.738664285008863,1.3975956156840277,-3.796023213166631,-1.0869164392842714,17.092731,-1.1878408,-1.7286361,-1.5676732,9.020958,-10.663439,1.0297614,0.25645804,-0.21745577,0.3965574,0.85421556,-9.118257,5.588196,-1.3339314,0.3080952,-2.7917309,-0.28921804,0
0.9700000000000006,20.738664285008863,1.3975956156840277,-3.796023213166631,-1.0869164392842714,17.092731,-1.1878408,-1.7286361,-1.5676732,8.929607,-10.606739,1.0165477,0.26387322,-0.20527084,0.39418522,0.8560681,-9.1512375,5.7513824,-1.3083832,0.47789755,-2.9483938,-0.32836133,0
0.9800000000000006,20.738664285008863,1.3975956156840277,-3.796023213166631,-1.0869164392842714,17.092731,-1.1878408,-1.7286361,-1.5676732,8.837953,-10.548414,1.0036037,0.2718369,-0.1922921,0.39216352,0.85751736,-9.178926,5.9133453,-1.2799623,0.6212211,-3.0806267,-0.36558387,0
0.9900000000000007,20.738664285008863,1.3975956156840277,-3.796023213166631,-1.0869164392842714,17.092731,-1.1878408,-1.7286361,-1.5676732,8.746049,-10.488477,0.99095774,0.28025377,-0.1786359,0.3904089,0.8585614,-9.200901,6.074004,-1.2487893,0.7421962,-3.1922383,-0.40097988,0
1.0000000000000007,20.057432595167214,1.2921289658223503,-3.579206117934848,-1.091122135962787,16.527983,-1.0961226,-1.9403259,-1.435076,8.653955,-10.426939,0.9786368,0.28904256,-0.16440193,0.38885108,0.85919785,-9.216806,6.233243,-1.214998,0.8443088,-3.2864435,-0.43463898,0
1.0100000000000007,20.057432595167214,1.2921289658223503,-3.579206117934848,-1.091122135962787,16.527983,-1.0961226,-1.9403259,-1.435076,8.561737,-10.363844,0.96664435,0.29809403,-0.1497631,0.38742042,0.85942775,-9.226044,6.3857374,-1.1831498,0.91406333,-3.3321383,-0.46685278,0
1.0200000000000007,20.057432595167214,1.2921289658223503,-3.579206117934848,-1.091122135962787,16.527983,-1.0961226,-1.9403259,-1.435076,8.469458,-10.299232,0.95498157,0.30731958,-0.13486347,0.38606164,0.859257,-9.228952,6.5365596,-1.1490741,0.97294337,-3.3707058,-0.4974859,0
1.0300000000000007,20.057432595167214,1.2921289658223503,-3.579206117934848,-1.091122135962787,16.527983,-1.0961226,-1.9403259,-1.435076,8.37718,-10.23312,0.94367003,0.31668216,-0.119743615,0.38473985,0.85869014,-9.225408,6.685538,-1.1129388,1.0226451,-3.403257,-0.5266158,0
1.0400000000000007,20.057432595167214,1.2921289658223503,-3.579206117934848,-1.091122135962787,15.771788,-1.4723357,-1.5056683,-1.0404496,8.284972,-10.165528,0.93272936,0.32614964,-0.104438916,0.38342583,0.85773146,-9.215308,6.8324876,-1.0749147,1.0645994,-3.4307299,-0.5543162,0
1.0500000000000007,20.057432595167214,1.2921289658223503,-3.579206117934848,-1.091122135962787,15.771788,-1.4723357,-1.5056683,-1.0404496,8.192897,-10.0964775,0.9221776,0.33569396,-0.08898028,0.3820955,0.85638475,-9.198586,6.9772162,-1.0351744,1.1000147,-3.453916,-0.58065736,0
1.0600000000000007,20.057432595167214,1.2921289658223503,-3.579206117934848,-1.091122135962787,15.771788,-1.4723357,-1.5056683,-1.0404496,8.101023,-10.025992,0.9120311,0.3452905,-0.07339478,0.38072875,0.85465384,-9.175195,7.119522,-0.9938913,1.1299107,-3.4734848,-0.60570604,0
1.0700000000000007,20.057432595167214,1.2921289658223503,-3.579206117934848,-1.091122135962787,15.771788,-1.4723357,-1.5056683,-1.0404496,8.009416,-9.954097,0.9023044,0.35491756,-0.05770628,0.37930906,0.8525421,-9.14511,7.2592,-0.9512407,1.1551479,-3.4899998,-0.6295255,0
1.0800000000000007,19.32306946478806,0.7818509331560352,-2.729427516714281,-0.9460800221486338,15.448641,-1.9705333,-1.1049879,-0.8170281,7.9181433,-9.880817,0.8930104,0.36455578,-0.041935854,0.3778228,0.85005313,-9.108334,7.3960414,-0.9073982,1.1764525,-3.5039375,-0.6521762,0
1.0900000000000007,19.32306946478806,0.7818509331560352,-2.729427516714281,-0.9460800221486338,15.448641,-1.9705333,-1.1049879,-0.8170281,7.8272643,-9.8062105,0.8841338,0.3740386,-0.026459478,0.37621307,0.8472654,-9.066505,7.524946,-0.8677732,1.1149341,-3.3831375,-0.6665982,0
1.1000000000000008,19.32306946478806,0.7818509331560352,-2.729427516714281,-0.9460800221486338,15.448641,-1.9705333,-1.1049879,-0.8170281,7.736834,-9.7303295,0.8756578,0.3832414,-0.011577374,0.37444574,0.8442644,-9.018528,7.6507936,-0.8273262,1.0630049,-3.2811787,-0.68031245,0
1.1100000000000008,19.32306946478806,0.7818509331560352,-2.729427516714281,-0.9460800221486338,15.448641,-1.9705333,-1.1049879,-0.8170281,7.646914,-9.653205,0.8675897,0.39220363,0.0027958634,0.3725397,0.8410604,-8.964691,7.77348,-0.78619844,1.0191698,-3.195123,-0.6933537,0
1.1200000000000008,18.452351211507338,-0.03691219051575254,-1.6690246513851537,-0.6881007826144504,16.578787,-3.1641047,-0.89752644,-0.06412549,7.5575604,-9.574871,0.85993576,0.40095726,0.016732652,0.37051007,0.83766073,-8.905252,7.8929086,-0.744518,0.9821675,-3.1224892,-0.70575505,0
1.1300000000000008,18.452351211507338,-0.03691219051575254,-1.6690246513851537,-0.6881007826144504,16.578787,-3.1641047,-0.89752644,-0.06412549,7.4688134,-9.495385,0.8526693,0.40935352,0.029818894,0.3682676,0.8342178,-8.843404,8.003772,-0.70871276,0.8233483,-2.8957489,-0.70488876,0
1.1400000000000008,18.452351211507338,-0.03691219051575254,-1.6690246513851537,-0.6881007826144504,16.578787,-3.1641047,-0.89752644,-0.06412549,7.380708,-9.414806,0.8457628,0.4172855,0.04173063,0.3657538,0.8308763,-8.776937,8.11146,-0.6725294,0.6892805,-2.70438,-0.70406497,0
1.1500000000000008,18.452351211507338,-0.03691219051575254,-1.6690246513851537,-0.6881007826144504,16.578787,-3.1641047,-0.89752644,-0.06412549,7.293289,-9.333167,0.8392199,0.424831,0.052646592,0.36301845,0.8276258,-8.70633,8.216018,-0.63598424,0.5761063,-2.542865,-0.7032816,0
1.1600000000000008,17.51544415306509,-0.9587322516637138,-0.6813132371426022,-0.2807803347165223,18.006346,-4.0237365,-0.42217597,1.1234299,7.206595,-9.250498,0.83304435,0.43205318,0.062718384,0.36010104,0.82445353,-8.631994,8.317492,-0.5990861,0.48057014,-2.406546,-0.7025366,0
1.1700000000000008,17.51544415306509,-0.9587322516637138,-0.6813132371426022,-0.2807803347165223,18.006346,-4.0237365,-0.42217597,1.1234299,7.120641,-9.166854,0.8272051,0.43884578,0.07160708,0.35689917,0.8215289,-8.55826,8.410936,-0.56869906,0.25626385,-2.1373909,-0.6818409,0
1.1800000000000008,17.51544415306509,-0.9587322516637138,-0.6813132371426022,-0.2807803347165223,18.006346,-4.0237365,-0.42217597,1.1234299,7.035439,-9.082289,0.8216719,0.4451308,0.07905289,0.35333952,0.81899965,-8.481882,8.501633,-0.5378855,0.066911474,-1.9102314,-0.6621607,0
1.1900000000000008,17.51544415306509,-0.9587322516637138,-0.6813132371426022,-0.2807803347165223,18.006346,-4.0237365,-0.42217597,1.1234299,6.951011,-8.996829,0.81644934,0.45099077,0.085281126,0.34948733,0.8168189,-8.403381,8.5897255,-0.50654185,-0.09293343,-1.7185144,-0.6434463,0
1.2000000000000008,16.65510662401486,-1.7800252151253873,0.10376424045348631,0.19839388152884024,18.056915,-4.4412074,-0.044400055,2.1756287,6.8673773,-8.910502,0.8115432,0.45649222,0.090482205,0.34539455,0.814942,-8.3231945,8.675346,-0.47457516,-0.22786832,-1.5567095,-0.6256502,0
1.2100000000000009,16.65510662401486,-1.7800252151253873,0.10376424045348631,0.19839388152884024,18.056915,-4.4412074,-0.044400055,2.1756287,6.784532,-8.823352,0.8069282,0.46156338,0.09443096,0.34097424,0.8134977,-8.24572,8.754537,-0.44831496,-0.46978647,-1.297673,-0.58521414,0
1.2200000000000009,16.65510662401486,-1.7800252151253873,0.10376424045348631,0.19839388152884024,18.056915,-4.4412074,-0.044400055,2.1756287,6.7024655,-8.735419,0.8025798,0.4661464,0.096958816,0.33616033,0.8125901,-8.16751,8.831673,-0.4212264,-0.6740068,-1.0790583,-0.5467622,0
1.2300000000000009,16.65510662401486,-1.7800252151253873,0.10376424045348631,0.19839388152884024,18.056915,-4.4412074,-0.044400055,2.1756287,6.621183,-8.646724,0.79850703,0.47030735,0.098290116,0.3310171,0.8121438,-8.089036,8.906927,-0.39316183,-0.84640265,-0.89455634,-0.5101972,0
1.2400000000000009,16.65510662401486,-1.7800252151253873,0.10376424045348631,0.19839388152884024,17.547071,-4.4778643,0.34959784,2.8790872,6.5406847,-8.557285,0.79472035,0.47409934,0.09861395,0.3255965,0.812091,-8.0106945,8.98045,-0.36399856,-0.9919319,-0.73884284,-0.47542647,0
1.2500000000000009,16.65510662401486,-1.7800252151253873,0.10376424045348631,0.19839388152884024,17.547071,-4.4778643,0.34959784,2.8790872,6.460967,-8.46712,0.7912313,0.47756538,0.0980897,0.3199407,0.81237143,-7.9328237,9.05237,-0.333637,-1.1147807,-0.60742456,-0.4423619,0
1.260000000000001,16.65510662401486,-1.7800252151253873,0.10376424045348631,0.19839388152884024,17.547071,-4.4778643,0.34959784,2.8790872,6.382025,-8.376243,0.78805214,0.48074076,0.09685174,0.31408408,0.81293225,-7.8557096,9.122798,-0.30199847,-1.2184829,-0.4965102,-0.4109198,0
1.270000000000001,16.65510662401486,-1.7800252151253873,0.10376424045348631,0.19839388152884024,17.547071,-4.4778643,0.34959784,2.8790872,6.3038497,-8.284669,0.78519595,0.4836545,0.09501331,0.30805513,0.8137275,-7.7795978,9.191829,-0.26902282,-1.306022,-0.40289983,-0.3810206,0
1.280000000000001,16.53310512918142,-2.4348135389629917,0.8940859002755887,0.7045405791116865,17.2453,-4.01875,0.26346484,3.200365,6.2264295,-8.192411,0.78267646,0.48633084,0.09266994,0.30187735,0.8147173,-7.7046995,9.259536,-0.23466615,-1.379917,-0.32389295,-0.3525886,0
1.290000000000001,16.53310512918142,-2.4348135389629917,0.8940859002755887,0.7045405791116865,17.2453,-4.01875,0.26346484,3.200365,6.149748,-8.099484,0.7805027,0.48866776,0.08953541,0.29550496,0.8160047,-7.631761,9.325511,-0.19987154,-1.544379,-0.13396393,-0.30071494,0
1.300000000000001,16.53310512918142,-2.4348135389629917,0.8940859002755887,0.7045405791116865,17.2453,-4.01875,0.26346484,3.200365,6.073788,-8.005904,0.77868414,0.49057722,0.08538757,0.28890097,0.81766665,-7.5605617,9.390389,-0.16360153,-1.6832111,0.026333213,-0.25138676,0
1.310000000000001,16.53310512918142,-2.4348135389629917,0.8940859002755887,0.7045405791116865,17.2453,-4.01875,0.26346484,3.200365,5.9985304,-7.9116797,0.7772359,0.4920959,0.08038697,0.28209502,0.81963503,-7.4914374,9.454308,-0.12579747,-1.8004056,0.16162308,-0.20447914,0
1.320000000000001,16.067637024464748,-2.8982135939218425,1.2804420848918712,1.130228744917233,16.914356,-4.2182436,0.71287996,3.8810143,5.9239516,-7.816821,0.77617365,0.4932541,0.07466898,0.2751117,0.82185036,-7.4246774,9.517379,-0.08642489,-1.8993336,0.2758083,-0.15987328,0
1.330000000000001,16.067637024464748,-2.8982135939218425,1.2804420848918712,1.130228744917233,16.914356,-4.2182436,0.71287996,3.8810143,5.8500185,-7.7213445,0.77549344,0.49400464,0.06814346,0.26789123,0.8243481,-7.3623533,9.57794,-0.049380317,-2.0551095,0.43241215,-0.0965676,0
1.340000000000001,16.067637024464748,-2.8982135939218425,1.2804420848918712,1.130228744917233,16.914356,-4.2182436,0.71287996,3.8810143,5.7766953,-7.625265,0.7751915,0.49430192,0.06074544,0.26038533,0.8271485,-7.3029027,9.637863,-0.010766105,-2.186605,0.5645847,-0.036368348,0
1.350000000000001,16.067637024464748,-2.8982135939218425,1.2804420848918712,1.130228744917233,16.914356,-4.2182436,0.71287996,3.8810143,5.70395,-7.5285892,0.7752835,0.49417183,0.052614357,0.25262865,0.83018327,-7.246632,9.697227,0.029428568,-2.2976024,0.6761394,0.02087691,0
1.360000000000001,15.419648489921435,-3.131377682818971,1.1044230330712423,1.440442560855615,17.452843,-4.5094457,-0.027513463,4.4748793,5.6317506,-7.431322,0.7757854,0.4936364,0.043868046,0.24465081,0.8333932,-7.193808,9.756084,0.071189046,-2.3912961,0.7702941,0.07531313,0
1.370000000000001,15.419648489921435,-3.131377682818971,1.1044230330712423,1.440442560855615,17.452843,-4.5094457,-0.027513463,4.4748793,5.5600514,-7.333481,0.7766841,0.49270344,0.034628205,0.23636301,0.83676535,-7.146648,9.812114,0.10878027,-2.5067496,0.8222865,0.14230043,0
1.380000000000001,15.419648489921435,-3.131377682818971,1.1044230330712423,1.440442560855615,17.452843,-4.5094457,-0.027513463,4.4748793,5.488805,-7.2350817,0.7779659,0.4913732,0.024997827,0.2276962,0.8402865,-7.1032333,9.867657,0.14781296,-2.6042001,0.86616886,0.20600063,0
1.390000000000001,15.419648489921435,-3.131377682818971,1.1044230330712423,1.440442560855615,17.452843,-4.5094457,-0.027513463,4.4748793,5.417973,-7.13613,0.7796451,0.48965427,0.015043631,0.21870111,0.84390855,-7.0637546,9.922665,0.18824348,-2.6864538,0.9032074,0.26657504,0
1.400000000000001,14.780425649254274,-3.1553358044985687,0.493641132277569,1.6393858411061544,17.814352,-4.6613007,-0.77927905,4.6050706,5.347516,-7.0366306,0.7817353,0.48755544,0.0048220013,0.20942146,0.8475898,-7.028375,9.977079,0.23000892,-2.7558799,0.9344714,0.3241771,0
1.410000000000001,14.780425649254274,-3.1553358044985687,0.493641132277569,1.6393858411061544,17.814352,-4.6613007,-0.77927905,4.6050706,5.2773848,-6.9366016,0.78422034,0.4851155,-0.00541146,0.19976805,0.8513082,-6.99852,10.028597,0.2671835,-2.8181968,0.8655924,0.38871476,0
1.420000000000001,14.780425649254274,-3.1553358044985687,0.493641132277569,1.6393858411061544,17.814352,-4.6613007,-0.77927905,4.6050706,5.2075315,-6.8360615,0.7870829,0.48236233,-0.015450219,0.18967451,0.85505015,-6.972786,10.07932,0.30550033,-2.8707914,0.80745876,0.45008552,0
1.430000000000001,14.780425649254274,-3.1553358044985687,0.493641132277569,1.6393858411061544,17.814352,-4.6613007,-0.77927905,4.6050706,5.137915,-6.7350187,0.790334,0.47929075,-0.025316775,0.17920662,0.85879195,-6.95121,10.129078,0.344889,-2.9151807,0.7583952,0.50844485,0
1.440000000000001,14.780425649254274,-3.1553358044985687,0.493641132277569,1.6393858411061544,18.28475,-4.5895324,-1.8954781,4.8074985,5.068493,-6.6334834,0.79398406,0.47589839,-0.035030495,0.16842063,0.8625122,-6.9338207,10.177716,0.38526815,-2.952645,0.71698785,0.5639404,0
1.450000000000001,14.780425649254274,-3.1553358044985687,0.493641132277569,1.6393858411061544,18.28475,-4.5895324,-1.8954781,4.8074985,4.999223,-6.5314684,0.79804254,0.47218516,-0.044608023,0.15736464,0.866191,-6.9206405,10.225091,0.42654705,-2.984265,0.6820428,0.6167128,0
1.460000000000001,14.780425649254274,-3.1553358044985687,0.493641132277569,1.6393858411061544,18.28475,-4.5895324,-1.8954781,4.8074985,4.930065,-6.428987,0.80251783,0.46815288,-0.05406364,0.14607988,0.8698103,-6.911682,10.271066,0.46862718,-3.0109532,0.6525525,0.6668957,0
1.470000000000001,14.780425649254274,-3.1553358044985687,0.493641132277569,1.6393858411061544,18.28475,-4.5895324,-1.8954781,4.8074985,4.8609757,-6.326053,0.80741745,0.46380475,-0.063409574,0.13460179,0.8733533,-6.906954,10.315518,0.5114034,-3.0334783,0.62766623,0.71461606,0
1.480000000000001,14.502849959975823,-2.83034661086739,0.2622327453864718,1.6520424166574186,18.522163,-4.5878034,-2.539102,4.721169,4.791912,-6.222683,0.81274784,0.45914516,-0.07265626,0.12296087,0.8768048,-6.9064555,10.35833,0.5547652,-3.0524905,0.606666,0.75999475,0
1.490000000000001,14.502849959975823,-2.83034661086739,0.2622327453864718,1.6520424166574186,18.522163,-4.5878034,-2.539102,4.721169,4.7228327,-6.1188965,0.81850106,0.4541995,-0.081671715,0.11125561,0.8801443,-6.9101,10.398617,0.59593266,-3.0178368,0.5528828,0.8037678,0
1.500000000000001,14.502849959975823,-2.83034661086739,0.2622327453864718,1.6520424166574186,18.522163,-4.5878034,-2.539102,4.721169,4.653696,-6.0147166,0.8246677,0.44899228,-0.09035274,0.09956765,0.8833617,-6.917797,10.437079,0.6374502,-2.9885876,0.5074904,0.8453928,0
1.5100000000000011,14.502849959975823,-2.83034661086739,0.2622327453864718,1.6520424166574186,18.522163,-4.5878034,-2.539102,4.721169,4.5844626,-5.910162,0.83125085,0.44352752,-0.09874632,0.0878984,0.8864568,-6.9294496,10.473623,0.6792089,-2.9639008,0.46917972,0.8849754,0
1.5200000000000011,14.168238825561918,-2.3741153953154326,-0.245159344810358,1.5972128691632543,18.71298,-4.242035,-3.265756,4.3742886,4.515093,-5.8052516,0.83825237,0.43780985,-0.10689219,0.076249145,0.88942784,-6.9449677,10.5081625,0.72110194,-2.9430654,0.4368462,0.9226156,0
1.5300000000000011,14.168238825561918,-2.3741153953154326,-0.245159344810358,1.5972128691632543,18.71298,-4.242035,-3.265756,4.3742886,4.445552,-5.70001,0.8456569,0.431886,-0.11456428,0.064694695,0.89227986,-6.9638042,10.539861,0.7597972,-2.8542814,0.33047947,0.9557183,0
1.5400000000000011,14.168238825561918,-2.3741153953154326,-0.245159344810358,1.5972128691632543,18.71298,-4.242035,-3.265756,4.3742886,4.375805,-5.594462,0.85344815,0.42579743,-0.12158668,0.053296804,0.8950262,-6.986128,10.569424,0.7984463,-2.779349,0.24069844,0.9871966,0
1.5500000000000012,14.168238825561918,-2.3741153953154326,-0.245159344810358,1.5972128691632543,18.71298,-4.242035,-3.265756,4.3742886,4.305818,-5.4886293,0.86162543,0.41954216,-0.12805785,0.042038403,0.8976734,-7.0117364,10.5967655,0.83698195,-2.7161078,0.16491675,1.0171304,0
1.5600000000000012,13.57582677819162,-1.7954776258173433,-0.9084864276587818,1.409874663254612,19.21201,-4.1299224,-3.957731,4.1442904,4.2355595,-5.3825345,0.8701872,0.41311926,-0.13406089,0.030904582,0.9002245,-7.0404515,10.62181,0.8753406,-2.6627338,0.10095124,1.0455953,0
1.5700000000000012,13.57582677819162,-1.7954776258173433,-0.9084864276587818,1.409874663254612,19.21201,-4.1299224,-3.957731,4.1442904,4.1650057,-5.276206,0.879103,0.40658924,-0.1393325,0.019979075,0.9027024,-7.0707684,10.64354,0.9077702,-2.527378,-0.056407247,1.0634705,0
1.5800000000000012,13.57582677819162,-1.7954776258173433,-0.9084864276587818,1.409874663254612,19.21201,-4.1299224,-3.957731,4.1442904,4.094136,-5.169672,0.88834184,0.40000525,-0.14366952,0.009329425,0.9051336,-7.1036158,10.6629305,0.93995637,-2.4131446,-0.18923633,1.0804687,0
1.5900000000000012,13.57582677819162,-1.7954776258173433,-0.9084864276587818,1.409874663254612,19.21201,-4.1299224,-3.957731,4.1442904,4.0229263,-5.062956,0.8979013,0.39335716,-0.14721724,-0.0010789635,0.9075214,-7.138715,10.679915,0.971891,-2.3167381,-0.3013596,1.0966328,0
1.6000000000000012,13.164974640291643,-1.2443980687631062,-1.599579349244351,1.1474083936833104,20.115013,-4.1222634,-4.9464455,4.0013537,3.9513552,-4.9560814,0.9077788,0.38663673,-0.15009795,-0.011276178,0.90986514,-7.175824,10.694444,1.0035652,-2.2353764,-0.3960051,1.1120037,0
1.6100000000000012,13.164974640291643,-1.2443980687631062,-1.599579349244351,1.1474083936833104,20.115013,-4.1222634,-4.9464455,4.0013537,3.8794098,-4.8490767,0.91795206,0.37989694,-0.15207787,-0.021198478,0.9121953,-7.2135353,10.706104,1.0310552,-2.080697,-0.5835924,1.1137409,0
1.6200000000000012,13.164974640291643,-1.2443980687631062,-1.599579349244351,1.1474083936833104,20.115013,-4.1222634,-4.9464455,4.0013537,3.8070798,-4.741968,0.9283991,0.37318322,-0.15297796,-0.030795421,0.91453964,-7.252661,10.715289,1.0583179,-1.9501611,-0.74194235,1.115393,0
1.6300000000000012,13.164974640291643,-1.2443980687631062,-1.599579349244351,1.1474083936833104,20.115013,-4.1222634,-4.9464455,4.0013537,3.7343528,-4.63478,0.9391178,0.36647937,-0.15296657,-0.04010975,0.9168885,-7.2928953,10.721955,1.0853893,-1.8399999,-0.8756122,1.1169641,0
1.6400000000000012,13.164974640291643,-1.2443980687631062,-1.599579349244351,1.1474083936833104,20.63447,-4.2364163,-5.2577734,3.8850691,3.6612191,-4.5275383,0.9501063,0.35977194,-0.15218529,-0.049178414,0.91923034,-7.333972,10.726072,1.1122967,-1.7470331,-0.9884486,1.1184579,0
1.6500000000000012,13.164974640291643,-1.2443980687631062,-1.599579349244351,1.1474083936833104,20.63447,-4.2364163,-5.2577734,3.8850691,3.587671,-4.420268,0.96136326,0.35305,-0.15075326,-0.058033288,0.9215533,-7.3756604,10.727619,1.1390598,-1.6685771,-1.0836987,1.1198785,0
1.6600000000000013,13.164974640291643,-1.2443980687631062,-1.599579349244351,1.1474083936833104,20.63447,-4.2364163,-5.2577734,3.8850691,3.513704,-4.312995,0.9728871,0.3463047,-0.14877075,-0.0667018,0.92384547,-7.4177594,10.726581,1.1656904,-1.6023669,-1.1641032,1.1212295,0
1.6700000000000013,13.164974640291643,-1.2443980687631062,-1.599579349244351,1.1474083936833104,20.63447,-4.2364163,-5.2577734,3.8850691,3.439315,-4.205745,0.98467666,0.33952922,-0.14632224,-0.07520753,0.9260955,-7.4600916,10.722947,1.1921935,-1.5464914,-1.231976,1.1225141,0
1.6800000000000013,13.372038043912662,-0.68944035877919,-1.2058694357032196,0.9092250679804225,21.082026,-4.3062506,-5.0098424,3.9955711,3.3645022,-4.098545,0.99673057,0.33271825,-0.14347886,-0.083570704,0.92829293,-7.5025,10.716715,1.2185674,-1.4993372,-1.2892702,1.1237358,0
1.6900000000000013,13.372038043912662,-0.68944035877919,-1.2058694357032196,0.9092250679804225,21.082026,-4.3062506,-5.0098424,3.9955711,3.289262,-3.9914207,1.0090574,0.3259411,-0.14037149,-0.09155467,0.93041676,-7.5455117,10.707761,1.2467624,-1.3730526,-1.2761619,1.1132097,0
1.7000000000000013,13.372038043912662,-0.68944035877919,-1.2058694357032196,0.9092250679804225,21.082026,-4.3062506,-5.0098424,3.9955711,3.2135928,-3.8843985,1.0216653,0.31925994,-0.13710931,-0.098974876,0.9324578,-7.58833,10.696295,1.2748202,-1.2664598,-1.2651144,1.1032002,0
1.7100000000000013,13.372038043912662,-0.68944035877919,-1.2058694357032196,0.9092250679804225,21.082026,-4.3062506,-5.0098424,3.9955711,3.1374967,-3.7775028,1.0345532,0.31266123,-0.13371785,-0.10591745,0.9344214,-7.630841,10.682444,1.3027425,-1.1764885,-1.2558033,1.0936817,0
1.7200000000000013,13.188910853523183,-0.11369008231602613,-0.7422919897158464,0.6562288442637648,20.93484,-3.8573534,-4.726348,3.6120496,3.0609772,-3.6707573,1.0477196,0.3061333,-0.13021807,-0.112455145,0.93631136,-7.672948,10.666319,1.3305302,-1.1005466,-1.2479554,1.0846304,0
1.7300000000000013,13.188910853523183,-0.11369008231602613,-0.7422919897158464,0.6562288442637648,20.93484,-3.8573534,-4.726348,3.6120496,2.984042,-3.5641825,1.0611545,0.2997468,-0.12672786,-0.118381426,0.93812436,-7.713999,10.648287,1.3564626,-0.9467188,-1.1689757,1.0636085,0
1.7400000000000013,13.188910853523183,-0.11369008231602613,-0.7422919897158464,0.6562288442637648,20.93484,-3.8573534,-4.726348,3.6120496,2.906699,-3.457798,1.0748483,0.29356363,-0.123343244,-0.123537906,0.9398643,-7.7545066,10.628321,1.3822776,-0.8168691,-1.1023338,1.0436182,0
1.7500000000000013,13.188910853523183,-0.11369008231602613,-0.7422919897158464,0.6562288442637648,20.93484,-3.8573534,-4.726348,3.6120496,2.8289537,-3.3516219,1.0887997,0.28756174,-0.12004998,-0.12804584,0.94154143,-7.7944236,10.606625,1.4079937,-0.70725995,-1.046102,1.0246089,0
1.7600000000000013,12.73712724623842,0.3850706185798804,-0.35182641031506523,0.39970876278201445,21.27297,-3.6510136,-4.595682,3.278974,2.7508125,-3.2456706,1.1030079,0.2817217,-0.11683531,-0.13200732,0.9431629,-7.8337092,10.583369,1.4336286,-0.61473644,-0.99865377,1.0065323,0
1.7700000000000014,12.73712724623842,0.3850706185798804,-0.35182641031506523,0.39970876278201445,21.27297,-3.6510136,-4.595682,3.278974,2.6722882,-3.1399548,1.1174508,0.2761006,-0.113775484,-0.13528007,0.9447342,-7.8710117,10.559561,1.4549645,-0.4589009,-0.8976701,0.9767553,0
1.7800000000000014,12.73712724623842,0.3850706185798804,-0.35182641031506523,0.39970876278201445,21.27297,-3.6510136,-4.595682,3.278974,2.5933945,-3.034483,1.132107,0.27074742,-0.11093111,-0.13775715,0.9462626,-7.907663,10.534614,1.4762702,-0.3273534,-0.8124564,0.9484395,0
1.7900000000000014,12.73712724623842,0.3850706185798804,-0.35182641031506523,0.39970876278201445,21.27297,-3.6510136,-4.595682,3.278974,2.5141377,-2.9292655,1.1469762,0.26563466,-0.10826999,-0.13956504,0.94775385,-7.9436584,10.508739,1.4975779,-0.21630877,-0.7405489,0.92151314,0
1.8000000000000014,11.977494938668272,0.8075921659002776,-0.0016780283183583209,0.174665644667345,21.547487,-3.520072,-4.4561434,2.8581324,2.4345238,-2.8243108,1.1620586,0.2607382,-0.105764285,-0.14081009,0.94921124,-7.978996,10.482113,1.518917,-0.12257183,-0.67986965,0.89590806,0
1.8100000000000014,11.977494938668272,0.8075921659002776,-0.0016780283183583209,0.174665644667345,21.547487,-3.520072,-4.4561434,2.8581324,2.3545704,-2.7196171,1.177319,0.25610086,-0.103475496,-0.14138788,0.950639,-8.011611,10.456519,1.533188,0.022411637,-0.57402176,0.8605165,0
1.8200000000000014,11.977494938668272,0.8075921659002776,-0.0016780283183583209,0.174665644667345,21.547487,-3.520072,-4.4561434,2.8581324,2.274294,-2.6151812,1.1927227,0.25175858,-0.10145141,-0.14122102,0.9520408,-8.043629,10.430565,1.5475483,0.14479943,-0.4846996,0.8268616,0
1.8300000000000014,11.977494938668272,0.8075921659002776,-0.0016780283183583209,0.174665644667345,21.547487,-3.520072,-4.4561434,2.8581324,2.1937,-2.511006,1.2082704,0.24768172,-0.099651046,-0.14042802,0.95341665,-8.07507,10.404438,1.5620307,0.2481123,-0.4093221,0.7948582,0
1.8400000000000014,11.977494938668272,0.8075921659002776,-0.0016780283183583209,0.174665644667345,21.677979,-3.2234578,-4.226045,1.9478799,2.1127946,-2.4070923,1.2239637,0.24384438,-0.09803938,-0.13910854,0.9547654,-8.105956,10.378294,1.5766629,0.33532304,-0.3457116,0.76442516,0
1.8500000000000014,11.977494938668272,0.8075921659002776,-0.0016780283183583209,0.174665644667345,21.677979,-3.2234578,-4.226045,1.9478799,2.0315828,-2.3034396,1.2398044,0.24022377,-0.096586525,-0.13734637,0.9560855,-8.136307,10.352268,1.5914675,0.40894085,-0.2920307,0.7354855,0
1.8600000000000014,11.977494938668272,0.8075921659002776,-0.0016780283183583209,0.174665644667345,21.677979,-3.2234578,-4.226045,1.9478799,1.95007,-2.200046,1.2557939,0.23679997,-0.09526703,-0.135212,0.9573754,-8.166141,10.326472,1.6064626,0.4710842,-0.24672903,0.70796597,0
1.8700000000000014,11.977494938668272,0.8075921659002776,-0.0016780283183583209,0.174665644667345,21.677979,-3.2234578,-4.226045,1.9478799,1.8682616,-2.096909,1.2719345,0.2335554,-0.09405927,-0.13276476,0.95863354,-8.195474,10.301003,1.6216626,0.5235413,-0.20849814,0.6817968,0
1.8800000000000014,12.280173155286834,0.8285826295682021,0.644148961640865,0.01960323162501569,22.241592,-3.5597274,-4.2545652,2.0227652,1.7861621,-1.9940246,1.2882279,0.2304747,-0.09294491,-0.13005452,0.9598586,-8.224321,10.275942,1.6370778,0.56782174,-0.1762342,0.6569117,0
1.8900000000000015,12.280173155286834,0.8285826295682021,0.644148961640865,0.01960323162501569,22.241592,-3.5597274,-4.2545652,2.0227652,1.7037731,-1.8913915,1.304691,0.22759676,-0.09215223,-0.12705779,0.9610224,-8.2534275,10.250744,1.6555889,0.6084314,-0.04829079,0.6256387,0
1.9000000000000015,12.280173155286834,0.8285826295682021,0.644148961640865,0.01960323162501569,22.241592,-3.5597274,-4.2545652,2.0227652,1.621095,-1.7890074,1.3213403,0.22495304,-0.09186141,-0.12375915,0.96210253,-8.282157,10.226149,1.6743217,0.642721,0.059696417,0.5959004,0
1.9100000000000015,12.280173155286834,0.8285826295682021,0.644148961640865,0.01960323162501569,22.241592,-3.5597274,-4.2545652,2.0227652,1.5381309,-1.6868659,1.3381783,0.2225205,-0.091993235,-0.1202079,0.9631053,-8.310614,10.202258,1.6932673,0.6716733,0.15084036,0.5676213,0
1.9200000000000015,11.957767225646597,0.8387631343008694,1.165201287595565,-0.09574408585671032,21.33304,-3.6946688,-3.983311,2.6808243,1.4548833,-1.5849595,1.3552066,0.22027902,-0.09248075,-0.11644535,0.9640357,-8.338887,10.17916,1.7124163,0.6961187,0.22776847,0.5407299,0
1.9300000000000015,11.957767225646597,0.8387631343008694,1.165201287595565,-0.09574408585671032,21.33304,-3.6946688,-3.983311,2.6808243,1.3713572,-1.4832768,1.3724118,0.21824913,-0.09346595,-0.112457775,0.9648754,-8.366324,10.157515,1.7286731,0.71832013,0.37395385,0.50949794,0
1.9400000000000015,11.957767225646597,0.8387631343008694,1.165201287595565,-0.09574408585671032,21.33304,-3.6946688,-3.983311,2.6808243,1.2875568,-1.381806,1.3897806,0.21644641,-0.09505835,-0.1082365,0.9656084,-8.393797,10.136809,1.7450955,0.7370717,0.4973404,0.4797985,0
1.9500000000000015,11.957767225646597,0.8387631343008694,1.165201287595565,-0.09574408585671032,21.33304,-3.6946688,-3.983311,2.6808243,1.2034807,-1.2805371,1.4073143,0.21484771,-0.09716199,-0.10382005,0.96624076,-8.42143,10.117132,1.76166,0.7529089,0.6014841,0.45155644,0
1.9600000000000015,11.33637866714242,0.7568547314708837,1.4245465838699487,-0.18299497600303355,19.47441,-3.045742,-3.2215621,1.860193,1.1191272,-1.1794595,1.4250143,0.21343286,-0.09969577,-0.09924068,0.96677727,-8.449333,10.098557,1.7783427,0.7662839,0.6893861,0.42470026,0
1.9700000000000015,11.33637866714242,0.7568547314708837,1.4245465838699487,-0.18299497600303355,19.47441,-3.045742,-3.2215621,1.860193,1.0345001,-1.0785573,1.4428517,0.21220155,-0.10269746,-0.09453617,0.96720546,-8.476134,10.082052,1.7891486,0.7647973,0.8040187,0.39488044,0
1.9800000000000015,11.33637866714242,0.7568547314708837,1.4245465838699487,-0.18299497600303355,19.47441,-3.045742,-3.2215621,1.860193,0.94960296,-0.9778143,1.4607973,0.21115272,-0.10619327,-0.089738004,0.9675146,-8.503391,10.066704,1.8000106,0.76355016,0.90077513,0.3665239,0
1.9900000000000015,11.33637866714242,0.7568547314708837,1.4245465838699487,-0.18299497600303355,19.47441,-3.045742,-3.2215621,1.860193,0.8644304,-0.8772189,1.4788519,0.21026899,-0.11010441,-0.084862635,0.96770984,-8.531205,10.05256,1.8108947,0.7625036,0.98244333,0.33955884,0
2.0000000000000013,,,,,19.168907,-1.8359962,-2.9348578,-0.102907136,0.77897656,-0.7767588,1.4970154,0.20953518,-0.11436436,-0.07992386,0.96779543,-8.559661,10.039661,1.8217677,0.7616249,1.0513763,0.31391698,0
2.010000000000001,,,,,19.168907,-1.8359962,-2.9348578,-0.102907136,0.6932419,-0.6764183,1.5152603,0.20893815,-0.11896072,-0.07498638,0.9677656,-8.587388,10.028614,1.8272029,0.7370052,1.1221861,0.2875886,0
2.020000000000001,,,,,19.168907,-1.8359962,-2.9348578,-0.102907136,0.6072262,-0.57618225,1.5335593,0.20846654,-0.12388071,-0.07010217,0.9676161,-8.615868,10.018791,1.8325573,0.7162281,1.181955,0.2625521,0
2.0300000000000007,,,,,19.168907,-1.8359962,-2.9348578,-0.102907136,0.52092165,-0.47603822,1.5519111,0.20811026,-0.12907195,-0.065264754,0.9673526,-8.6451645,10.010202,1.837793,0.69869375,1.2324046,0.23874418,0
2.0400000000000005,,,,,19.168907,-1.8359962,-2.9348578,-0.102907136,0.43431985,-0.3759739,1.5703146,0.20786032,-0.13449022,-0.060468685,0.96697986,-8.675334,10.002851,1.8428732,0.6838956,1.2749882,0.2161045,0
2.0500000000000003,,,,,19.623522,-1.9994632,-3.558569,-0.42856076,0.3474118,-0.27597696,1.588768,0.20770875,-0.14009818,-0.055709332,0.96650195,-8.706419,9.99674,1.8477623,0.6714063,1.3109322,0.19457574,1
2.06,,,,,19.623522,-1.9994632,-3.558569,-0.42856076,0.26005757,-0.17605598,1.6076913,0.20741719,-0.14412197,-0.052414253,0.9661572,-8.764642,9.987724,1.936843,0.25499386,0.551478,0.16399826,1
2.07,,,,,19.623522,-1.9994632,-3.558569,-0.42856076,0.17211598,-0.07621877,1.6275041,0.20680751,-0.14515819,-0.051715206,0.96617043,-8.823744,9.979789,2.025698,-0.09651991,-0.08951767,0.13492122,1
2.0799999999999996,,,,,19.623522,-1.9994632,-3.558569,-0.42856076,0.08358261,0.023539448,1.6482052,0.2059469,-0.1436723,-0.05320863,0.9664952,-8.8828745,9.971757,2.1145399,-0.39324602,-0.6305336,0.107271,1
2.0899999999999994,,,,,22.046339,-0.41592887,-4.2652864,-3.0366073,-0.005539112,0.12321262,1.6697954,0.20488492,-0.140053,-0.056552336,0.9670622,-8.94131,9.962638,2.2035496,-0.643721,-1.0871656,0.0809776,1
2.099999999999999,,,,,22.046339,-0.41592887,-4.2652864,-3.0366073,-0.09526943,0.22278002,1.6923767,0.20404182,-0.13420404,-0.06094602,0.9678026,-9.004453,9.950469,2.312781,-0.608326,-1.5827291,-0.072003186,1
2.109999999999999,,,,,22.046339,-0.41592887,-4.2652864,-3.0366073,-0.1856199,0.32221314,1.7160529,0.20378901,-0.12606068,-0.06574317,0.9686365,-9.065197,9.935734,2.4225607,-0.5785287,-2.0010188,-0.21747716,1
2.1199999999999988,,,,,22.046339,-0.41592887,-4.2652864,-3.0366073,-0.27656215,0.42148474,1.7408303,0.20409197,-0.11596534,-0.07088199,0.96947116,-9.122681,9.918111,2.5330405,-0.5534316,-2.3540835,-0.35581267,1
2.1299999999999986,,,,,22.101625,-0.9836373,-4.663448,-1.8582683,-0.36805978,0.5205645,1.7667164,0.2049169,-0.10420701,-0.07630806,0.9702201,-9.176167,9.897327,2.64429,-0.53228325,-2.6520936,-0.48736003,1
2.1399999999999983,,,,,22.101625,-0.9836373,-4.663448,-1.8582683,-0.46006954,0.6194196,1.7937187,0.20605431,-0.090933554,-0.08221138,0.9708316,-9.225019,9.873122,2.7563016,-0.6029003,-2.9657145,-0.55463094,1
2.149999999999998,,,,,22.101625,-0.9836373,-4.663448,-1.8582683,-0.55254227,0.71801394,1.8218447,0.20731346,-0.07627821,-0.0887376,0.9712509,-9.268665,9.84512,2.8689847,-0.66250587,-3.230426,-0.61860085,1
2.159999999999998,,,,,22.101625,-0.9836373,-4.663448,-1.8582683,-0.6454233,0.81630766,1.8511002,0.20868841,-0.060448147,-0.0957813,0.9714016,-9.306606,9.812954,2.9821756,-0.71281254,-3.4538565,-0.6794316,1
2.1699999999999977,,,,,20.738796,-2.4443767,-4.8173523,0.6065938,-0.73865336,0.91425765,1.8814893,0.21017192,-0.043620303,-0.10325124,0.97121793,-9.338421,9.776318,3.0956483,-0.7552678,-3.6424444,-0.7372775,1
2.1799999999999975,,,,,20.738796,-2.4443767,-4.8173523,0.6065938,-0.83216363,1.0118266,1.9129659,0.21143088,-0.026041824,-0.11163651,0.97064734,-9.362642,9.73675,3.1996684,-1.0186073,-3.8255875,-0.6713334,1
2.1899999999999973,,,,,20.738796,-2.4443767,-4.8173523,0.6065938,-0.9258844,1.108975,1.9454812,0.21216653,-0.00792715,-0.121322066,0.969641,-9.380521,9.69209,3.3032863,-1.2408601,-3.9802058,-0.60862505,1
2.199999999999997,,,,,20.738796,-2.4443767,-4.8173523,0.6065938,-1.0197519,1.2056491,1.9790287,0.21241687,0.010626648,-0.13209337,0.9681516,-9.391956,9.641819,3.4060488,-1.4284402,-4.110739,-0.54899395,1
2.209999999999997,,,,,18.776768,2.4123392,-4.4189534,-5.28492,-1.1137011,1.3017907,2.0135975,0.21221317,0.029534925,-0.143767,0.9661389,-9.396873,9.585525,3.5074735,-1.5867585,-4.220937,-0.49228892,1
2.2199999999999966,,,,,18.776768,2.4123392,-4.4189534,-5.28492,-1.2076666,1.3973202,2.0492296,0.21232602,0.048083216,-0.15489317,0.9636462,-9.3951845,9.519508,3.6182284,-1.288685,-3.9265897,-0.6983253,1
