time-since-start [s],throttle_mpc,roll_mpc,pitch_mpc,yaw_mpc,throttle_nw,roll_nw,pitch_nw,yaw_nw,position_x [m],position_y [m],position_z [m],rotation_w [quaternion],rotation_x [quaternion],rotation_y [quaternion],rotation_z [quaternion],velocity_x [m/s],velocity_y [m/s],velocity_z [m/s],omega_x [rad/s],omega_y [rad/s],omega_z [rad/s],network_used,gaze_2d_norm_x,gaze_2d_norm_y,gaze_2d_x,gaze_2d_y,gaze_3d_x,gaze_3d_y,gaze_3d_z,angle_rad,angle_deg,high_level_label
0.0,6.232789902895838,1.385577502904043,-5.999993405205789,0.23824245925566778,11.659458,-0.70755684,0.22453651,0.6086356,11.269273,-7.075402,1.7777624,0.37744662,-0.13045914,0.036251187,0.91607875,-2.0270457,0.429316,1.3014181,-0.0896947,-0.9398634,-0.97604316,0,-0.29398326873779296,0.04239630063374837,0.3530083656311035,0.5211981503168742,-0.8707647449008553,0.45256884888073834,0.19222433784646628,0.2706025547022044,15.504384309894302,0
0.01,6.232789902895838,1.385577502904043,-5.999993405205789,0.23824245925566778,13.37635,-1.385646,-0.39839104,0.49051714,11.24894,-7.071059,1.7905873,0.37816742,-0.10026157,0.031413257,0.9197555,-2.03905,0.43886486,1.2637194,1.3855776,-5.9999933,0.23824246,0,-0.29398326873779296,0.04239630063374837,0.3530083656311035,0.5211981503168742,-0.8707647449008553,0.45256884888073834,0.19222433784646628,0.2706025547022044,15.504384309894302,0
0.02,6.232789902895838,1.385577502904043,-5.999993405205789,0.23824245925566778,13.37635,-1.385646,-0.39839104,0.49051714,11.228502,-7.0666313,1.8030396,0.37852922,-0.069968805,0.0265455,0.92255914,-2.0478597,0.44645432,1.2268438,1.3855776,-5.9999933,0.23824246,0,-0.29398326873779296,0.04239630063374837,0.3530083656311035,0.5211981503168742,-0.8707647449008553,0.45256884888073834,0.19222433784646628,0.2706025547022044,15.504384309894302,0
0.03,6.232789902895838,1.385577502904043,-5.999993405205789,0.23824245925566778,13.37635,-1.385646,-0.39839104,0.49051714,11.207993,-7.062137,1.8151261,0.37853166,-0.039609622,0.021652542,0.92448694,-2.0534365,0.45206335,1.1905584,1.3855776,-5.9999933,0.23824246,0,-0.29398326873779296,0.04239630063374837,0.3530083656311035,0.5211981503168742,-0.8707647449008553,0.45256884888073834,0.19222433784646628,0.2706025547022044,15.504384309894302,0
0.04,6.232789902895838,1.385577502904043,-5.999993405205789,0.23824245925566778,10.369071,-1.609405,1.8571666,0.019615328,11.187444,-7.057597,1.8268517,0.37817475,-0.009212835,0.01673903,0.92553705,-2.0557544,0.45567852,1.1546289,1.3855776,-5.9999933,0.23824246,0,-0.29398326873779296,0.04239630063374837,0.3530083656311035,0.5211981503168742,-0.8707647449008553,0.45256884888073834,0.19222433784646628,0.2706025547022044,15.504384309894302,0
0.05,6.232789902895838,1.385577502904043,-5.999993405205789,0.23824245925566778,10.369071,-1.609405,1.8571666,0.019615328,11.166889,-7.0530305,1.8382189,0.3774588,0.0211927,0.011809623,0.92570853,-2.0548,0.45729393,1.1188194,1.3855776,-5.9999933,0.23824246,0,-0.29398326873779296,0.04239630063374837,0.3530083656311035,0.5211981503168742,-0.8707647449008553,0.45256884888073834,0.19222433784646628,0.2706025547022044,15.504384309894302,0
0.060000000000000005,6.232789902895838,1.385577502904043,-5.999993405205789,0.23824245925566778,10.369071,-1.609405,1.8571666,0.019615328,11.146359,-7.048458,1.8492275,0.37638453,0.051578116,0.0068690074,0.9250012,-2.0505722,0.45691118,1.0828934,1.3855776,-5.9999933,0.23824246,0,-0.29398326873779296,0.04239630063374837,0.3530083656311035,0.5211981503168742,-0.8707647449008553,0.45256884888073834,0.19222433784646628,0.2706025547022044,15.504384309894302,0
0.07,6.232789902895838,1.385577502904043,-5.999993405205789,0.23824245925566778,10.369071,-1.609405,1.8571666,0.019615328,11.125889,-7.0438995,1.8598756,0.37495294,0.08191457,0.00192187,0.9234158,-2.0430822,0.45453954,1.0466148,1.3855776,-5.9999933,0.23824246,0,0.11086389541625977,-0.18334569295247397,0.5554319477081299,0.40832715352376303,-0.3606954223821442,0.5651968575747711,0.7419240692012696,0.7838657110580658,44.912196948648436,1
0.08,7.20056036012633,0.9451362827762911,-4.602842446640617,0.07471765664538173,9.876451,-0.69484496,2.3150458,-0.6492636,11.105509,-7.039374,1.870158,0.3731654,0.11217326,-0.0030270917,0.9209537,-2.0323539,0.45019582,1.009749,1.3855776,-5.9999933,0.23824246,0,0.11086389541625977,-0.18334569295247397,0.5554319477081299,0.40832715352376303,-0.3606954223821442,0.5651968575747711,0.7419240692012696,0.7838657110580658,44.912196948648436,1
0.09,7.20056036012633,0.9451362827762911,-4.602842446640617,0.07471765664538173,9.876451,-0.69484496,2.3150458,-0.6492636,11.085261,-7.0349064,1.880115,0.37211865,0.13509753,-0.0073037427,0.9182718,-2.0166018,0.44309872,0.9815448,0.9451363,-4.6028423,0.074717656,0,0.11086389541625977,-0.18334569295247397,0.5554319477081299,0.40832715352376303,-0.3606954223821442,0.5651968575747711,0.7419240692012696,0.7838657110580658,44.912196948648436,1
0.09999999999999999,7.20056036012633,0.9451362827762911,-4.602842446640617,0.07471765664538173,9.876451,-0.69484496,2.3150458,-0.6492636,11.065186,-7.030518,1.8897858,0.37086648,0.15794723,-0.011576361,0.9150829,-1.9981039,0.43423295,0.9524602,0.9451363,-4.6028423,0.074717656,0,0.11086389541625977,-0.18334569295247397,0.5554319477081299,0.40832715352376303,-0.3606954223821442,0.5651968575747711,0.7419240692012696,0.7838657110580658,44.912196948648436,1
0.10999999999999999,7.20056036012633,0.9451362827762911,-4.602842446640617,0.07471765664538173,9.876451,-0.69484496,2.3150458,-0.6492636,11.045308,-7.0262275,1.8991606,0.36940953,0.18070972,-0.01584259,0.91138875,-1.9768993,0.4236202,0.9223429,0.9451363,-4.6028423,0.074717656,0,0.11086389541625977,-0.18334569295247397,0.5554319477081299,0.40832715352376303,-0.3606954223821442,0.5651968575747711,0.7419240692012696,0.7838657110580658,44.912196948648436,1
0.11999999999999998,7.20056036012633,0.9451362827762911,-4.602842446640617,0.07471765664538173,9.876451,-0.69484496,2.3150458,-0.6492636,11.025656,-7.0220513,1.9082286,0.36774865,0.20337242,-0.020100072,0.90719146,-1.9530337,0.41128606,0.8910427,0.9451363,-4.6028423,0.074717656,0,0.11086389541625977,-0.18334569295247397,0.5554319477081299,0.40832715352376303,-0.3606954223821442,0.5651968575747711,0.7419240692012696,0.7838657110580658,44.912196948648436,1
0.12999999999999998,7.786062879174635,0.2592877061545623,1.9363140011088176,-0.01964809350150275,10.070469,0.3015809,0.46896783,-0.7536781,11.006257,-7.0180073,1.9169769,0.36588472,0.22592285,-0.024346458,0.9024933,-1.9265583,0.3972599,0.858412,0.9451363,-4.6028423,0.074717656,0,0.11086389541625977,-0.18334569295247397,0.5554319477081299,0.40832715352376303,-0.3606954223821442,0.5651968575747711,0.7419240692012696,0.7838657110580658,44.912196948648436,1
0.13999999999999999,7.786062879174635,0.2592877061545623,1.9363140011088176,-0.01964809350150275,10.070469,0.3015809,0.46896783,-0.7536781,10.987143,-7.014115,1.9254203,0.36589873,0.21765138,-0.019610813,0.9046331,-1.8965014,0.3813893,0.83036065,0.25928771,1.936314,-0.019648094,0,-0.02884326457977295,-0.230201899210612,0.48557836771011353,0.384899050394694,-0.22666457113146304,0.3247779726825768,0.918227880568863,0.7630224275094397,43.717964770117696,1
0.15,7.786062879174635,0.2592877061545623,1.9363140011088176,-0.01964809350150275,10.070469,0.3015809,0.46896783,-0.7536781,10.968325,-7.010375,1.9335862,0.36587784,0.20935915,-0.014873296,0.9066866,-1.8672689,0.3666508,0.80290294,0.25928771,1.936314,-0.019648094,0,-0.02884326457977295,-0.230201899210612,0.48557836771011353,0.384899050394694,-0.22666457113146304,0.3247779726825768,0.918227880568863,0.7630224275094397,43.717964770117696,1
0.16,8.134265147270144,-0.12643972897273817,5.722053537707979,-0.034774985919482776,10.6971245,0.27570668,1.1916313,-0.7040554,10.949794,-7.0067773,1.9414803,0.36582202,0.20104696,-0.010134359,0.9086536,-1.8388717,0.35305014,0.7760118,0.25928771,1.936314,-0.019648094,0,-0.02884326457977295,-0.230201899210612,0.48557836771011353,0.384899050394694,-0.22666457113146304,0.3247779726825768,0.918227880568863,0.7630224275094397,43.717964770117696,1
0.17,8.134265147270144,-0.12643972897273817,5.722053537707979,-0.034774985919482776,10.6971245,0.27570668,1.1916313,-0.7040554,10.931547,-7.0033107,1.9491256,0.36624718,0.1747419,-0.00020479062,0.9139628,-1.8109281,0.34071675,0.7532907,-0.12643974,5.7220535,-0.034774985,0,-0.02884326457977295,-0.230201899210612,0.48557836771011353,0.384899050394694,-0.22666457113146304,0.3247779726825768,0.918227880568863,0.7630224275094397,43.717964770117696,1
0.18000000000000002,8.134265147270144,-0.12643972897273817,5.722053537707979,-0.034774985919482776,10.6971245,0.27570668,1.1916313,-0.7040554,10.913564,-6.999953,1.9565516,0.3663724,0.1482937,0.009724944,0.9185235,-1.7861634,0.33141845,0.732101,-0.12643974,5.7220535,-0.034774985,0,-0.02884326457977295,-0.230201899210612,0.48557836771011353,0.384899050394694,-0.22666457113146304,0.3247779726825768,0.918227880568863,0.7630224275094397,43.717964770117696,1
0.19000000000000003,8.134265147270144,-0.12643972897273817,5.722053537707979,-0.034774985919482776,10.6971245,0.27570668,1.1916313,-0.7040554,10.895812,-6.996672,1.9637722,0.36619762,0.12172409,0.019646715,0.922332,-1.7646579,0.32518697,0.71219057,-0.12643974,5.7220535,-0.034774985,0,-0.02884326457977295,-0.230201899210612,0.48557836771011353,0.384899050394694,-0.22666457113146304,0.3247779726825768,0.918227880568863,0.7630224275094397,43.717964770117696,1
0.20000000000000004,8.190996267664527,-0.29447419793978946,5.999786385718306,-0.0748285008662361,12.567085,0.5578031,2.8693132,-0.87992775,10.878259,-6.9934382,1.9707989,0.36572292,0.0950548,0.029552396,0.9253852,-1.7464808,0.3220439,0.6933032,-0.12643974,5.7220535,-0.034774985,0,0.06341996669769287,-0.12414554595947265,0.5317099833488464,0.43792722702026365,-0.40783870898337815,0.5804077370368524,0.7048364677303035,0.7759288184574751,44.45744650018597,1
0.21000000000000005,8.190996267664527,-0.29447419793978946,5.999786385718306,-0.0748285008662361,12.567085,0.5578031,2.8693132,-0.87992775,10.86087,-6.9902196,1.9776436,0.36515766,0.066706076,0.03918197,0.92772555,-1.7316834,0.3220211,0.6757537,-0.29447418,5.9997864,-0.0748285,0,0.06341996669769287,-0.12414554595947265,0.5317099833488464,0.43792722702026365,-0.40783870898337815,0.5804077370368524,0.7048364677303035,0.7759288184574751,44.45744650018597,1
0.22000000000000006,8.190996267664527,-0.29447419793978946,5.999786385718306,-0.0748285008662361,12.567085,0.5578031,2.8693132,-0.87992775,10.843612,-6.9869857,1.9843159,0.36426297,0.038297173,0.048776194,0.92922896,-1.7206017,0.32517707,0.6587375,-0.29447418,5.9997864,-0.0748285,0,0.06341996669769287,-0.12414554595947265,0.5317099833488464,0.43792722702026365,-0.40783870898337815,0.5804077370368524,0.7048364677303035,0.7759288184574751,44.45744650018597,1
0.23000000000000007,8.190996267664527,-0.29447419793978946,5.999786385718306,-0.0748285008662361,12.567085,0.5578031,2.8693132,-0.87992775,10.826446,-6.983705,1.9908195,0.36303964,0.009853717,0.058326412,0.92989403,-1.7132734,0.33150324,0.64196175,-0.29447418,5.9997864,-0.0748285,0,0.06341996669769287,-0.12414554595947265,0.5317099833488464,0.43792722702026365,-0.40783870898337815,0.5804077370368524,0.7048364677303035,0.7759288184574751,44.45744650018597,1
0.24000000000000007,8.190996267664527,-0.29447419793978946,5.999786385718306,-0.0748285008662361,12.648557,1.550103,1.6787086,-1.0828724,10.809333,-6.9803452,1.9971551,0.3614888,-0.018598627,0.067824006,0.92972016,-1.7097225,0.34097955,0.6251326,-0.29447418,5.9997864,-0.0748285,0,0.06341996669769287,-0.12414554595947265,0.5317099833488464,0.43792722702026365,-0.40783870898337815,0.5804077370368524,0.7048364677303035,0.7759288184574751,44.45744650018597,1
0.25000000000000006,8.190996267664527,-0.29447419793978946,5.999786385718306,-0.0748285008662361,12.648557,1.550103,1.6787086,-1.0828724,10.792237,-6.976875,2.003321,0.3596118,-0.047034197,0.07726042,0.92870754,-1.7099596,0.35357463,0.6079564,-0.29447418,5.9997864,-0.0748285,0,0.06341996669769287,-0.12414554595947265,0.5317099833488464,0.43792722702026365,-0.40783870898337815,0.5804077370368524,0.7048364677303035,0.7759288184574751,44.45744650018597,1
0.26000000000000006,8.190996267664527,-0.29447419793978946,5.999786385718306,-0.0748285008662361,12.648557,1.550103,1.6787086,-1.0828724,10.775122,-6.9732633,2.0093122,0.35741037,-0.07542733,0.08662712,0.926857,-1.7139815,0.36924586,0.5901409,-0.29447418,5.9997864,-0.0748285,0,0.06341996669769287,-0.12414554595947265,0.5317099833488464,0.43792722702026365,-0.40783870898337815,0.5804077370368524,0.7048364677303035,0.7759288184574751,44.45744650018597,1
0.2700000000000001,8.190996267664527,-0.29447419793978946,5.999786385718306,-0.0748285008662361,12.648557,1.550103,1.6787086,-1.0828724,10.757945,-6.96948,2.0151207,0.35488653,-0.10375241,0.09591567,0.9241703,-1.7217712,0.38793948,0.57139593,-0.29447418,5.9997864,-0.0748285,0,-0.15660782814025878,0.2468878682454427,0.4216960859298706,0.6234439341227214,-0.8256107085440281,0.5633022417895139,0.03251987595818709,0.37712430354900217,21.60763094516836,0
0.2800000000000001,8.294042048139,-0.429662906205054,5.4594866256135255,-0.12451619457323526,10.52341,-1.6085569,-0.33076534,0.1945467,10.740672,-6.9654946,2.020736,0.35204247,-0.13198389,0.10511769,0.9206499,-1.7332983,0.4095909,0.5514348,-0.29447418,5.9997864,-0.0748285,0,-0.15660782814025878,0.2468878682454427,0.4216960859298706,0.6234439341227214,-0.8256107085440281,0.5633022417895139,0.03251987595818709,0.37712430354900217,21.60763094516836,0
0.2900000000000001,8.294042048139,-0.429662906205054,5.4594866256135255,-0.12451619457323526,10.52341,-1.6085569,-0.33076534,0.1945467,10.723266,-6.961277,2.0261493,0.34933093,-0.15788426,0.112627156,0.9167089,-1.7486192,0.4343003,0.53100216,-0.4296629,5.4594865,-0.1245162,0,-0.15660782814025878,0.2468878682454427,0.4216960859298706,0.6234439341227214,-0.8256107085440281,0.5633022417895139,0.03251987595818709,0.37712430354900217,21.60763094516836,0
0.3000000000000001,8.294042048139,-0.429662906205054,5.4594866256135255,-0.12451619457323526,10.52341,-1.6085569,-0.33076534,0.1945467,10.7056875,-6.9568,2.0313506,0.3463574,-0.1836662,0.120052144,0.9120802,-1.7673844,0.46149707,0.50896597,-0.4296629,5.4594865,-0.1245162,0,-0.15660782814025878,0.2468878682454427,0.4216960859298706,0.6234439341227214,-0.8256107085440281,0.5633022417895139,0.03251987595818709,0.37712430354900217,21.60763094516836,0
0.3100000000000001,8.294042048139,-0.429662906205054,5.4594866256135255,-0.12451619457323526,10.52341,-1.6085569,-0.33076534,0.1945467,10.687906,-6.9520392,2.0363226,0.34312406,-0.20931037,0.12738709,0.9067674,-1.789534,0.49110407,0.4850975,-0.4296629,5.4594865,-0.1245162,0,-0.15660782814025878,0.2468878682454427,0.4216960859298706,0.6234439341227214,-0.8256107085440281,0.5633022417895139,0.03251987595818709,0.37712430354900217,21.60763094516836,0
0.3200000000000001,8.389956008319302,-0.5225222917660174,4.145555642024062,-0.17983473237085834,11.342777,-1.3130132,-0.8925581,0.42778742,10.669887,-6.9469705,2.0410457,0.33963332,-0.23479754,0.13462648,0.90077454,-1.8149979,0.52303684,0.4591735,-0.4296629,5.4594865,-0.1245162,0,-0.15660782814025878,0.2468878682454427,0.4216960859298706,0.6234439341227214,-0.8256107085440281,0.5633022417895139,0.03251987595818709,0.37712430354900217,21.60763094516836,0
0.3300000000000001,8.389956008319302,-0.5225222917660174,4.145555642024062,-0.17983473237085834,11.342777,-1.3130132,-0.8925581,0.42778742,10.651595,-6.94157,2.045503,0.33696526,-0.2544242,0.13907206,0.8957575,-1.8437798,0.5573558,0.43201002,-0.5225223,4.1455555,-0.17983474,0,-0.15660782814025878,0.2468878682454427,0.4216960859298706,0.6234439341227214,-0.8256107085440281,0.5633022417895139,0.03251987595818709,0.37712430354900217,21.60763094516836,0
0.34000000000000014,8.389956008319302,-0.5225222917660174,4.145555642024062,-0.17983473237085834,11.342777,-1.3130132,-0.8925581,0.42778742,10.633003,-6.935818,2.0496795,0.33414987,-0.27393964,0.14345685,0.89034873,-1.875102,0.59321326,0.40298492,-0.5225223,4.1455555,-0.17983474,0,-0.1538037872314453,-0.1079141108194987,0.42309810638427736,0.4460429445902506,-0.8305107754087435,0.5567487318112875,0.016813731188836806,0.284160974077702,16.281224516978718,0
0.35000000000000014,8.389956008319302,-0.5225222917660174,4.145555642024062,-0.17983473237085834,11.342777,-1.3130132,-0.8925581,0.42778742,10.614085,-6.9297004,2.053556,0.33118835,-0.2933353,0.14777888,0.88455063,-1.9089061,0.6305516,0.37197667,-0.5225223,4.1455555,-0.17983474,0,-0.1538037872314453,-0.1079141108194987,0.42309810638427736,0.4460429445902506,-0.8305107754087435,0.5567487318112875,0.016813731188836806,0.284160974077702,16.281224516978718,0
0.36000000000000015,8.495065643248926,-0.5728148145385551,2.473223599717249,-0.20535356974979677,12.206736,-1.3797905,0.22990736,0.46900964,10.594816,-6.9232025,2.057112,0.32808203,-0.31260267,0.1520363,0.87836576,-1.9451295,0.6693106,0.33886728,-0.5225223,4.1455555,-0.17983474,0,-0.1538037872314453,-0.1079141108194987,0.42309810638427736,0.4460429445902506,-0.8305107754087435,0.5567487318112875,0.016813731188836806,0.284160974077702,16.281224516978718,0
0.37000000000000016,8.495065643248926,-0.5728148145385551,2.473223599717249,-0.20535356974979677,12.206736,-1.3797905,0.22990736,0.46900964,10.575171,-6.9163084,2.0603306,0.32618192,-0.3245347,0.15324436,0.8745276,-1.9838899,0.7096668,0.30468324,-0.5728148,2.4732237,-0.20535357,0,-0.1538037872314453,-0.1079141108194987,0.42309810638427736,0.4460429445902506,-0.8305107754087435,0.5567487318112875,0.016813731188836806,0.284160974077702,16.281224516978718,0
0.38000000000000017,8.495065643248926,-0.5728148145385551,2.473223599717249,-0.20535356974979677,12.206736,-1.3797905,0.22990736,0.46900964,10.555132,-6.909007,2.0632007,0.3242289,-0.33641416,0.15442757,0.87054753,-2.0241911,0.7506552,0.26912928,-0.5728148,2.4732237,-0.20535357,0,-0.1538037872314453,-0.1079141108194987,0.42309810638427736,0.4460429445902506,-0.8305107754087435,0.5567487318112875,0.016813731188836806,0.284160974077702,16.281224516978718,0
0.3900000000000002,8.495065643248926,-0.5728148145385551,2.473223599717249,-0.20535356974979677,12.206736,-1.3797905,0.22990736,0.46900964,10.534682,-6.901293,2.0657082,0.32222334,-0.34823903,0.15558575,0.8664263,-2.066005,0.79225314,0.23216408,-0.5728148,2.4732237,-0.20535357,0,-0.1538037872314453,-0.1079141108194987,0.42309810638427736,0.4460429445902506,-0.8305107754087435,0.5567487318112875,0.016813731188836806,0.284160974077702,16.281224516978718,0
0.4000000000000002,8.576123086618539,-0.5664580660431647,1.3760188378722746,-0.20765910748720218,12.498316,-1.3478688,0.27562478,0.056716926,10.513807,-6.89316,2.067839,0.32016551,-0.36000744,0.15671869,0.8621645,-2.1093023,0.8344375,0.19374743,-0.5728148,2.4732237,-0.20535357,0,-0.1917465591430664,-0.29539042154947914,0.4041267204284668,0.35230478922526043,-0.8542739745057917,0.5196917909781806,0.011679848970293283,0.16982514293839124,9.730263945575754,0
0.4100000000000002,8.576123086618539,-0.5664580660431647,1.3760188378722746,-0.20765910748720218,12.498316,-1.3478688,0.27562478,0.056716926,10.492491,-6.8846006,2.0695815,0.31895378,-0.36699852,0.15610133,0.8597747,-2.1542912,0.87744087,0.15465231,-0.56645805,1.3760189,-0.20765911,0,-0.1917465591430664,-0.29539042154947914,0.4041267204284668,0.35230478922526043,-0.8542739745057917,0.5196917909781806,0.011679848970293283,0.16982514293839124,9.730263945575754,0
0.4200000000000002,8.576123086618539,-0.5664580660431647,1.3760188378722746,-0.20765910748720218,12.498316,-1.3478688,0.27562478,0.056716926,10.470719,-6.8756104,2.0709293,0.31772405,-0.3739689,0.15547517,0.85733646,-2.2002256,0.92059386,0.11471336,-0.56645805,1.3760189,-0.20765911,0,-0.1917465591430664,-0.29539042154947914,0.4041267204284668,0.35230478922526043,-0.8542739745057917,0.5196917909781806,0.011679848970293283,0.16982514293839124,9.730263945575754,0
0.4300000000000002,8.576123086618539,-0.5664580660431647,1.3760188378722746,-0.20765910748720218,12.498316,-1.3478688,0.27562478,0.056716926,10.448483,-6.866188,2.071873,0.3164764,-0.38091812,0.15484025,0.8548498,-2.2470944,0.96388924,0.07391688,-0.56645805,1.3760189,-0.20765911,0,-0.1917465591430664,-0.29539042154947914,0.4041267204284668,0.35230478922526043,-0.8542739745057917,0.5196917909781806,0.011679848970293283,0.16982514293839124,9.730263945575754,0
0.4400000000000002,8.576123086618539,-0.5664580660431647,1.3760188378722746,-0.20765910748720218,12.130326,-1.2056185,0.3656381,-0.028531546,10.425775,-6.856332,2.0724044,0.31521088,-0.38784587,0.15419658,0.85231495,-2.2948859,1.0073196,0.032249376,-0.56645805,1.3760189,-0.20765911,0,-0.1917465591430664,-0.29539042154947914,0.4041267204284668,0.35230478922526043,-0.8542739745057917,0.5196917909781806,0.011679848970293283,0.16982514293839124,9.730263945575754,0
0.45000000000000023,8.576123086618539,-0.5664580660431647,1.3760188378722746,-0.20765910748720218,12.130326,-1.2056185,0.3656381,-0.028531546,10.402582,-6.8460407,2.0725148,0.31392756,-0.39475176,0.1535442,0.849732,-2.3435886,1.0508777,-0.010302471,-0.56645805,1.3760189,-0.20765911,0,-0.1917465591430664,-0.29539042154947914,0.4041267204284668,0.35230478922526043,-0.8542739745057917,0.5196917909781806,0.011679848970293283,0.16982514293839124,9.730263945575754,0
0.46000000000000024,8.576123086618539,-0.5664580660431647,1.3760188378722746,-0.20765910748720218,12.130326,-1.2056185,0.3656381,-0.028531546,10.378899,-6.835314,2.072195,0.31262657,-0.40163532,0.15288317,0.84710103,-2.3931906,1.094556,-0.053751763,-0.56645805,1.3760189,-0.20765911,0,-0.1917465591430664,-0.29539042154947914,0.4041267204284668,0.35230478922526043,-0.8542739745057917,0.5196917909781806,0.011679848970293283,0.16982514293839124,9.730263945575754,0
0.47000000000000025,8.576123086618539,-0.5664580660431647,1.3760188378722746,-0.20765910748720218,12.130326,-1.2056185,0.3656381,-0.028531546,10.354715,-6.8241496,2.0714366,0.31130794,-0.40849626,0.15221351,0.8444222,-2.44368,1.1383473,-0.0981114,-0.56645805,1.3760189,-0.20765911,0,-0.11603336334228516,-0.3555179087320964,0.4419833183288574,0.32224104563395184,-0.8255429165666888,0.5631614209839964,-0.036443199939786564,0.1627171302263304,9.323004816449329,0
0.48000000000000026,8.781006061334075,-0.5635960093245882,1.0183083838019917,-0.1917997117594171,11.615473,-1.1421756,0.1252611,-0.052737944,10.330022,-6.8125467,2.0702298,0.3099717,-0.41533414,0.15153527,0.84169585,-2.495044,1.1822441,-0.1433941,-0.56645805,1.3760189,-0.20765911,0,-0.11603336334228516,-0.3555179087320964,0.4419833183288574,0.32224104563395184,-0.8255429165666888,0.5631614209839964,-0.036443199939786564,0.1627171302263304,9.323004816449329,0
0.49000000000000027,8.781006061334075,-0.5635960093245882,1.0183083838019917,-0.1917997117594171,11.615473,-1.1421756,0.1252611,-0.052737944,10.304805,-6.800499,2.068572,0.30883154,-0.42063123,0.15034068,0.8396963,-2.5484638,1.2272444,-0.18827896,-0.563596,1.0183084,-0.19179972,0,-0.11603336334228516,-0.3555179087320964,0.4419833183288574,0.32224104563395184,-0.8255429165666888,0.5631614209839964,-0.036443199939786564,0.1627171302263304,9.323004816449329,0
0.5000000000000002,8.781006061334075,-0.5635960093245882,1.0183083838019917,-0.1917997117594171,11.615473,-1.1421756,0.1252611,-0.052737944,10.27905,-6.788001,2.0664618,0.30768064,-0.4259137,0.14914086,0.8376675,-2.6026106,1.2722179,-0.23388113,-0.563596,1.0183084,-0.19179972,0,-0.11603336334228516,-0.3555179087320964,0.4419833183288574,0.32224104563395184,-0.8255429165666888,0.5631614209839964,-0.036443199939786564,0.1627171302263304,9.323004816449329,0
0.5100000000000002,8.781006061334075,-0.5635960093245882,1.0183083838019917,-0.1917997117594171,11.615473,-1.1421756,0.1252611,-0.052737944,10.252751,-6.7750545,2.063892,0.30651903,-0.43118134,0.14793587,0.8356096,-2.6574771,1.3171599,-0.28020844,-0.563596,1.0183084,-0.19179972,0,-0.11603336334228516,-0.3555179087320964,0.4419833183288574,0.32224104563395184,-0.8255429165666888,0.5631614209839964,-0.036443199939786564,0.1627171302263304,9.323004816449329,0
0.5200000000000002,8.986057977077426,-0.5173616124863912,0.14441590179563174,-0.16828271486461324,11.455937,-1.1565592,-0.6884951,0.025180465,10.225899,-6.761658,2.060855,0.3053468,-0.436434,0.14672571,0.8335226,-2.7130547,1.3620663,-0.32726875,-0.563596,1.0183084,-0.19179972,0,-0.11603336334228516,-0.3555179087320964,0.4419833183288574,0.32224104563395184,-0.8255429165666888,0.5631614209839964,-0.036443199939786564,0.1627171302263304,9.323004816449329,0
0.5300000000000002,8.986057977077426,-0.5173616124863912,0.14441590179563174,-0.16828271486461324,11.455937,-1.1565592,-0.6884951,0.025180465,10.198482,-6.747809,2.0573504,0.30481195,-0.43794748,0.14442223,0.83332676,-2.7705133,1.4078803,-0.37365344,-0.51736164,0.1444159,-0.16828272,0,-0.11603336334228516,-0.3555179087320964,0.4419833183288574,0.32224104563395184,-0.8255429165666888,0.5631614209839964,-0.036443199939786564,0.1627171302263304,9.323004816449329,0
0.5400000000000003,8.986057977077426,-0.5173616124863912,0.14441590179563174,-0.16828271486461324,11.455937,-1.1565592,-0.6884951,0.025180465,10.170488,-6.7335024,2.0533812,0.30427474,-0.43945748,0.1421176,0.83312434,-2.828323,1.453385,-0.4201562,-0.51736164,0.1444159,-0.16828272,0,-0.09161057472229003,-0.3561733245849609,0.45419471263885497,0.3219133377075195,-0.8210364625686626,0.5627105691168724,-0.09620780912640303,0.12615632210947325,7.228224815765772,0
0.5500000000000003,8.986057977077426,-0.5173616124863912,0.14441590179563174,-0.16828271486461324,11.455937,-1.1565592,-0.6884951,0.025180465,10.141915,-6.7187424,2.0489466,0.30373514,-0.440964,0.13981186,0.83291537,-2.886482,1.4985794,-0.4667792,-0.51736164,0.1444159,-0.16828272,0,-0.09161057472229003,-0.3561733245849609,0.45419471263885497,0.3219133377075195,-0.8210364625686626,0.5627105691168724,-0.09620780912640303,0.12615632210947325,7.228224815765772,0
0.5600000000000003,9.367353340825993,-0.46346029299871055,-0.13190941693649166,-0.14484322772301378,11.406819,-0.7145307,-1.7785215,-0.030803794,10.112759,-6.703532,2.0440452,0.30319315,-0.44246703,0.137505,0.8326997,-2.9449894,1.5434626,-0.5135246,-0.51736164,0.1444159,-0.16828272,0,-0.09161057472229003,-0.3561733245849609,0.45419471263885497,0.3219133377075195,-0.8210364625686626,0.5627105691168724,-0.09620780912640303,0.12615632210947325,7.228224815765772,0
0.5700000000000003,9.367353340825993,-0.46346029299871055,-0.13190941693649166,-0.14484322772301378,11.406819,-0.7145307,-1.7785215,-0.030803794,10.083003,-6.687865,2.038687,0.30286056,-0.44271857,0.13505454,0.833088,-3.0062878,1.5899025,-0.55814016,-0.4634603,-0.13190942,-0.14484322,0,-0.09161057472229003,-0.3561733245849609,0.45419471263885497,0.3219133377075195,-0.8210364625686626,0.5627105691168724,-0.09620780912640303,0.12615632210947325,7.228224815765772,0
0.5800000000000003,9.367353340825993,-0.46346029299871055,-0.13190941693649166,-0.14484322772301378,11.406819,-0.7145307,-1.7785215,-0.030803794,10.052632,-6.6717353,2.032883,0.30252606,-0.44296736,0.13260323,0.833471,-3.0678048,1.6359563,-0.602673,-0.4634603,-0.13190942,-0.14484322,0,-0.09161057472229003,-0.3561733245849609,0.45419471263885497,0.3219133377075195,-0.8210364625686626,0.5627105691168724,-0.09620780912640303,0.12615632210947325,7.228224815765772,0
0.5900000000000003,9.367353340825993,-0.46346029299871055,-0.13190941693649166,-0.14484322772301378,11.406819,-0.7145307,-1.7785215,-0.030803794,10.021646,-6.655147,2.026634,0.30218965,-0.44321328,0.13015106,0.8338487,-3.1295395,1.681623,-0.6471248,-0.4634603,-0.13190942,-0.14484322,0,-0.09161057472229003,-0.3561733245849609,0.45419471263885497,0.3219133377075195,-0.8210364625686626,0.5627105691168724,-0.09620780912640303,0.12615632210947325,7.228224815765772,0
0.6000000000000003,9.670334755542848,-0.38107898274321167,-0.4641640283214967,-0.11577080083870948,11.300822,-0.020028437,-2.1987445,-0.059227698,9.990041,-6.6381044,2.0199409,0.30185133,-0.44345647,0.1276981,0.8342211,-3.1914904,1.7269017,-0.69149745,-0.4634603,-0.13190942,-0.14484322,0,-0.06851123332977295,-0.34153045654296876,0.46574438333511353,0.3292347717285156,-0.8166787777155677,0.5667970275760588,-0.1085214428578557,0.11072477355317423,6.34406221213864,0
0.6100000000000003,9.670334755542848,-0.38107898274321167,-0.4641640283214967,-0.11577080083870948,11.300822,-0.020028437,-2.1987445,-0.059227698,9.957807,-6.6206036,2.012813,0.30178422,-0.44216737,0.12515074,0.835315,-3.2555978,1.7732196,-0.7339524,-0.381079,-0.46416402,-0.1157708,0,-0.06851123332977295,-0.34153045654296876,0.46574438333511353,0.3292347717285156,-0.8166787777155677,0.5667970275760588,-0.1085214428578557,0.11072477355317423,6.34406221213864,0
0.6200000000000003,9.670334755542848,-0.38107898274321167,-0.4641640283214967,-0.11577080083870948,11.300822,-0.020028437,-2.1987445,-0.059227698,9.924932,-6.602642,2.0052629,0.30171424,-0.44087416,0.12260222,0.83640105,-3.3197405,1.8190713,-0.77606285,-0.381079,-0.46416402,-0.1157708,0,-0.06851123332977295,-0.34153045654296876,0.46574438333511353,0.3292347717285156,-0.8166787777155677,0.5667970275760588,-0.1085214428578557,0.11072477355317423,6.34406221213864,0
0.6300000000000003,9.670334755542848,-0.38107898274321167,-0.4641640283214967,-0.11577080083870948,11.300822,-0.020028437,-2.1987445,-0.059227698,9.891412,-6.584224,1.9972931,0.30164152,-0.4395768,0.120052546,0.8374793,-3.3839166,1.8644547,-0.8178312,-0.381079,-0.46416402,-0.1157708,0,-0.06851123332977295,-0.34153045654296876,0.46574438333511353,0.3292347717285156,-0.8166787777155677,0.5667970275760588,-0.1085214428578557,0.11072477355317423,6.34406221213864,0
0.6400000000000003,9.670334755542848,-0.38107898274321167,-0.4641640283214967,-0.11577080083870948,11.3300295,0.33198968,-1.9320959,-0.09776043,9.857251,-6.5653543,1.9889073,0.30156595,-0.43827537,0.11750176,0.8385497,-3.4481246,1.9093683,-0.85925996,-0.381079,-0.46416402,-0.1157708,0,-0.06851123332977295,-0.34153045654296876,0.46574438333511353,0.3292347717285156,-0.8166787777155677,0.5667970275760588,-0.1085214428578557,0.11072477355317423,6.34406221213864,0
0.6500000000000004,9.670334755542848,-0.38107898274321167,-0.4641640283214967,-0.11577080083870948,11.3300295,0.33198968,-1.9320959,-0.09776043,9.82245,-6.546038,1.9801091,0.3014875,-0.43696982,0.11494986,0.83961225,-3.5123622,1.95381,-0.90035146,-0.381079,-0.46416402,-0.1157708,0,-0.06851123332977295,-0.34153045654296876,0.46574438333511353,0.3292347717285156,-0.8166787777155677,0.5667970275760588,-0.1085214428578557,0.11072477355317423,6.34406221213864,0
0.6600000000000004,9.670334755542848,-0.38107898274321167,-0.4641640283214967,-0.11577080083870948,11.3300295,0.33198968,-1.9320959,-0.09776043,9.7870035,-6.52628,1.9709015,0.30140632,-0.43566018,0.11239689,0.84066695,-3.576628,1.9977779,-0.9411081,-0.381079,-0.46416402,-0.1157708,0,-0.06851123332977295,-0.34153045654296876,0.46574438333511353,0.3292347717285156,-0.8166787777155677,0.5667970275760588,-0.1085214428578557,0.11072477355317423,6.34406221213864,0
0.6700000000000004,9.670334755542848,-0.38107898274321167,-0.4641640283214967,-0.11577080083870948,11.3300295,0.33198968,-1.9320959,-0.09776043,9.7509165,-6.506084,1.961288,0.30132228,-0.4343465,0.10984287,0.8417138,-3.64092,2.0412705,-0.9815324,-0.381079,-0.46416402,-0.1157708,0,-0.05909442901611328,-0.3151885477701823,0.47045278549194336,0.3424057261149088,-0.8209377981432083,0.5618926004964918,-0.10167515471869731,0.08923398187539,5.11273055060673,0
0.6800000000000004,10.125953522579982,-0.30987676464071845,-0.2568967080289436,-0.0901692765556083,11.620988,0.35314932,-1.6789917,-0.03716182,9.714185,-6.485456,1.9512719,0.3012354,-0.4330287,0.107287824,0.84275275,-3.7052357,2.0842857,-1.0216268,-0.381079,-0.46416402,-0.1157708,0,-0.05909442901611328,-0.3151885477701823,0.47045278549194336,0.3424057261149088,-0.8209377981432083,0.5618926004964918,-0.10167515471869731,0.08923398187539,5.11273055060673,0
0.6900000000000004,10.125953522579982,-0.30987676464071845,-0.2568967080289436,-0.0901692765556083,11.620988,0.35314932,-1.6789917,-0.03716182,9.676796,-6.46439,1.9408702,0.3010816,-0.43246037,0.10539969,0.8433376,-3.7726245,2.12888,-1.0587056,-0.30987677,-0.2568967,-0.09016927,0,-0.05909442901611328,-0.3151885477701823,0.47045278549194336,0.3424057261149088,-0.8209377981432083,0.5618926004964918,-0.10167515471869731,0.08923398187539,5.11273055060673,0
0.7000000000000004,10.125953522579982,-0.30987676464071845,-0.2568967080289436,-0.0901692765556083,11.620988,0.35314932,-1.6789917,-0.03716182,9.638733,-6.442879,1.9300984,0.3009265,-0.4318902,0.1035111,0.84391886,-3.8400855,2.1731162,-1.0956038,-0.30987677,-0.2568967,-0.09016927,0,-0.05909442901611328,-0.3151885477701823,0.47045278549194336,0.3424057261149088,-0.8209377981432083,0.5618926004964918,-0.10167515471869731,0.08923398187539,5.11273055060673,0
0.7100000000000004,10.125953522579982,-0.30987676464071845,-0.2568967080289436,-0.0901692765556083,11.620988,0.35314932,-1.6789917,-0.03716182,9.599995,-6.4209285,1.9189587,0.30077013,-0.4313182,0.101622075,0.84449655,-3.907618,2.2169933,-1.1323229,-0.30987677,-0.2568967,-0.09016927,0,-0.05909442901611328,-0.3151885477701823,0.47045278549194336,0.3424057261149088,-0.8209377981432083,0.5618926004964918,-0.10167515471869731,0.08923398187539,5.11273055060673,0
0.7200000000000004,10.54881897913315,-0.18663561907687787,-0.3240926003545619,-0.06825808771568334,12.076708,0.14081553,-1.7458376,0.1697185,9.56058,-6.398541,1.9074527,0.3006125,-0.43074435,0.09973262,0.8450706,-3.9752214,2.260511,-1.1688641,-0.30987677,-0.2568967,-0.09016927,0,-0.05909442901611328,-0.3151885477701823,0.47045278549194336,0.3424057261149088,-0.8209377981432083,0.5618926004964918,-0.10167515471869731,0.08923398187539,5.11273055060673,0
0.7300000000000004,10.54881897913315,-0.18663561907687787,-0.3240926003545619,-0.06825808771568334,12.076708,0.14081553,-1.7458376,0.1697185,9.520476,-6.375711,1.895595,0.30066004,-0.42968872,0.098309696,0.84575754,-4.0456796,2.305498,-1.2026249,-0.18663561,-0.3240926,-0.068258084,0,-0.05909442901611328,-0.3151885477701823,0.47045278549194336,0.3424057261149088,-0.8209377981432083,0.5618926004964918,-0.10167515471869731,0.08923398187539,5.11273055060673,0
0.7400000000000004,10.54881897913315,-0.18663561907687787,-0.3240926003545619,-0.06825808771568334,12.076708,0.14081553,-1.7458376,0.1697185,9.479667,-6.3524323,1.8834009,0.30070648,-0.42863154,0.09688641,0.84644145,-4.1161013,2.3501823,-1.236135,-0.18663561,-0.3240926,-0.068258084,0,-0.05900290012359619,-0.35505144755045576,0.4704985499382019,0.3224742762247721,-0.8325281506143353,0.552011226309253,-0.04669565786269131,0.06669488762794984,3.8213355761808163,0
0.7500000000000004,10.54881897913315,-0.18663561907687787,-0.3240926003545619,-0.06825808771568334,12.076708,0.14081553,-1.7458376,0.1697185,9.438154,-6.3287086,1.8708731,0.30075184,-0.42757282,0.095462784,0.84712225,-4.1864853,2.3945637,-1.2693954,-0.18663561,-0.3240926,-0.068258084,0,-0.05900290012359619,-0.35505144755045576,0.4704985499382019,0.3224742762247721,-0.8325281506143353,0.552011226309253,-0.04669565786269131,0.06669488762794984,3.8213355761808163,0
0.7600000000000005,11.0476121425438,-0.07923938874785766,-0.2535947011085231,-0.05003236223268954,12.6740465,0.06814591,-1.7112339,0.28261244,9.395937,-6.3045425,1.858014,0.3007961,-0.42651254,0.094038814,0.8478,-4.2568307,2.438641,-1.3024073,-0.18663561,-0.3240926,-0.068258084,0,-0.05900290012359619,-0.35505144755045576,0.4704985499382019,0.3224742762247721,-0.8325281506143353,0.552011226309253,-0.04669565786269131,0.06669488762794984,3.8213355761808163,0
0.7700000000000005,11.0476121425438,-0.07923938874785766,-0.2535947011085231,-0.05003236223268954,12.6740465,0.06814591,-1.7112339,0.28261244,9.353001,-6.2799263,1.8448412,0.30095816,-0.42557988,0.093214735,0.84830207,-4.3304486,2.4845319,-1.3321004,-0.07923939,-0.2535947,-0.050032362,0,-0.05900290012359619,-0.35505144755045576,0.4704985499382019,0.3224742762247721,-0.8325281506143353,0.552011226309253,-0.04669565786269131,0.06669488762794984,3.8213355761808163,0
0.7800000000000005,11.0476121425438,-0.07923938874785766,-0.2535947011085231,-0.05003236223268954,12.6740465,0.06814591,-1.7112339,0.28261244,9.309328,-6.2548523,1.8313726,0.30111966,-0.4246464,0.092390485,0.84880257,-4.4039903,2.530232,-1.3615841,-0.07923939,-0.2535947,-0.050032362,0,-0.05900290012359619,-0.35505144755045576,0.4704985499382019,0.3224742762247721,-0.8325281506143353,0.552011226309253,-0.04669565786269131,0.06669488762794984,3.8213355761808163,0
0.7900000000000005,11.0476121425438,-0.07923938874785766,-0.2535947011085231,-0.05003236223268954,12.6740465,0.06814591,-1.7112339,0.28261244,9.264921,-6.229322,1.8176103,0.30128065,-0.4237122,0.09156606,0.8493015,-4.4774547,2.5757403,-1.3908589,-0.07923939,-0.2535947,-0.050032362,0,-0.05900290012359619,-0.35505144755045576,0.4704985499382019,0.3224742762247721,-0.8325281506143353,0.552011226309253,-0.04669565786269131,0.06669488762794984,3.8213355761808163,0
0.8000000000000005,11.392824626301275,0.02447619703307898,-0.4980834502112089,-0.04028998935345326,13.082217,0.014123356,-1.7930112,0.33236217,9.219779,-6.2033377,1.8035562,0.30144104,-0.42277718,0.09074148,0.8497989,-4.550842,2.6210573,-1.4199252,-0.07923939,-0.2535947,-0.050032362,0,0.0018826954066753388,-0.3567674001057943,0.5009413477033376,0.32161629994710283,-0.8031897374232227,0.5952548277482815,-0.02362066341951069,0.11524163105713603,6.602859083777647,0
0.8100000000000005,11.392824626301275,0.02447619703307898,-0.4980834502112089,-0.04028998935345326,13.082217,0.014123356,-1.7930112,0.33236217,9.173892,-6.176895,1.7892236,0.30188903,-0.4206409,0.09000931,0.8507773,-4.626368,2.6675818,-1.446535,0.024476197,-0.49808344,-0.04028999,0,0.0018826954066753388,-0.3567674001057943,0.5009413477033376,0.32161629994710283,-0.8031897374232227,0.5952548277482815,-0.02362066341951069,0.11524163105713603,6.602859083777647,0
0.8200000000000005,11.392824626301275,0.02447619703307898,-0.4980834502112089,-0.04028998935345326,13.082217,0.014123356,-1.7930112,0.33236217,9.127253,-6.1499877,1.774627,0.3023351,-0.41850197,0.08927658,0.85175043,-4.701615,2.7138803,-1.4727048,0.024476197,-0.49808344,-0.04028999,0,0.0018826954066753388,-0.3567674001057943,0.5009413477033376,0.32161629994710283,-0.8031897374232227,0.5952548277482815,-0.02362066341951069,0.11524163105713603,6.602859083777647,0
0.8300000000000005,11.392824626301275,0.02447619703307898,-0.4980834502112089,-0.04028998935345326,13.082217,0.014123356,-1.7930112,0.33236217,9.079861,-6.122618,1.759771,0.3027793,-0.41636044,0.088543296,0.8527182,-4.7765803,2.7599516,-1.4984362,0.024476197,-0.49808344,-0.04028999,0,0.0018826954066753388,-0.3567674001057943,0.5009413477033376,0.32161629994710283,-0.8031897374232227,0.5952548277482815,-0.02362066341951069,0.11524163105713603,6.602859083777647,0
0.8400000000000005,11.392824626301275,0.02447619703307898,-0.4980834502112089,-0.04028998935345326,13.203214,0.15082148,-2.084269,0.3045292,9.031721,-6.09479,1.7446599,0.30322155,-0.41421628,0.08780945,0.85368055,-4.851263,2.8057942,-1.5237312,0.024476197,-0.49808344,-0.04028999,0,0.0018826954066753388,-0.3567674001057943,0.5009413477033376,0.32161629994710283,-0.8031897374232227,0.5952548277482815,-0.02362066341951069,0.11524163105713603,6.602859083777647,0
0.8500000000000005,11.392824626301275,0.02447619703307898,-0.4980834502112089,-0.04028998935345326,13.203214,0.15082148,-2.084269,0.3045292,8.982836,-6.066504,1.7292979,0.3036619,-0.41206956,0.08707506,0.8546376,-4.925661,2.8514068,-1.5485916,0.024476197,-0.49808344,-0.04028999,0,0.0018826954066753388,-0.3567674001057943,0.5009413477033376,0.32161629994710283,-0.8031897374232227,0.5952548277482815,-0.02362066341951069,0.11524163105713603,6.602859083777647,0
0.8600000000000005,11.392824626301275,0.02447619703307898,-0.4980834502112089,-0.04028998935345326,13.203214,0.15082148,-2.084269,0.3045292,8.933208,-6.037763,1.7136896,0.30410036,-0.40992025,0.08634012,0.85558933,-4.9997725,2.896788,-1.5730193,0.024476197,-0.49808344,-0.04028999,0,0.0018826954066753388,-0.3567674001057943,0.5009413477033376,0.32161629994710283,-0.8031897374232227,0.5952548277482815,-0.02362066341951069,0.11524163105713603,6.602859083777647,0
0.8700000000000006,11.392824626301275,0.02447619703307898,-0.4980834502112089,-0.04028998935345326,13.203214,0.15082148,-2.084269,0.3045292,8.882841,-6.0085692,1.6978391,0.3045369,-0.40776837,0.085604645,0.85653573,-5.0735965,2.9419363,-1.5970161,0.024476197,-0.49808344,-0.04028999,0,-0.04462101459503174,-0.31133026123046875,0.4776894927024841,0.34433486938476565,-0.8263360182648893,0.5621648319742395,-0.03375628251901064,0.07191548411498694,4.1204537214288655,0
0.8800000000000006,11.863048862043248,0.10366105483171194,-0.3377637854574021,-0.030012003218883594,13.322736,0.23667493,-2.044138,0.22359586,8.8317375,-5.9789248,1.6817508,0.30497155,-0.40561393,0.08486863,0.8574767,-5.1471305,2.986851,-1.6205839,0.024476197,-0.49808344,-0.04028999,0,-0.04462101459503174,-0.31133026123046875,0.4776894927024841,0.34433486938476565,-0.8263360182648893,0.5621648319742395,-0.03375628251901064,0.07191548411498694,4.1204537214288655,0
0.8900000000000006,11.863048862043248,0.10366105483171194,-0.3377637854574021,-0.030012003218883594,13.322736,0.23667493,-2.044138,0.22359586,8.779884,-5.948824,1.6654443,0.30545327,-0.40401983,0.084737025,0.8580706,-5.22341,3.033435,-1.6406802,0.10366105,-0.3377638,-0.030012004,0,-0.04462101459503174,-0.31133026123046875,0.4776894927024841,0.34433486938476565,-0.8263360182648893,0.5621648319742395,-0.03375628251901064,0.07191548411498694,4.1204537214288655,0
0.9000000000000006,11.863048862043248,0.10366105483171194,-0.3377637854574021,-0.030012003218883594,13.322736,0.23667493,-2.044138,0.22359586,8.72727,-5.9182577,1.6489382,0.30593404,-0.40242445,0.08460515,0.8586618,-5.2994213,3.079935,-1.6604654,0.10366105,-0.3377638,-0.030012004,0,-0.04462101459503174,-0.31133026123046875,0.4776894927024841,0.34433486938476565,-0.8263360182648893,0.5621648319742395,-0.03375628251901064,0.07191548411498694,4.1204537214288655,0
0.9100000000000006,11.863048862043248,0.10366105483171194,-0.3377637854574021,-0.030012003218883594,13.322736,0.23667493,-2.044138,0.22359586,8.673897,-5.887226,1.632236,0.30641386,-0.40082783,0.08447301,0.8592503,-5.375164,3.12635,-1.6799405,0.10366105,-0.3377638,-0.030012004,0,-0.04462101459503174,-0.31133026123046875,0.4776894927024841,0.34433486938476565,-0.8263360182648893,0.5621648319742395,-0.03375628251901064,0.07191548411498694,4.1204537214288655,0
0.9200000000000006,12.246319862087493,0.2341414406827585,-0.5770541106840256,-0.029895200653545524,13.411215,0.35015097,-2.1430256,0.15403962,8.619768,-5.855731,1.6153406,0.30689272,-0.39922994,0.0843406,0.8598361,-5.450637,3.172679,-1.6991062,0.10366105,-0.3377638,-0.030012004,0,-0.04462101459503174,-0.31133026123046875,0.4776894927024841,0.34433486938476565,-0.8263360182648893,0.5621648319742395,-0.03375628251901064,0.07191548411498694,4.1204537214288655,0
0.9300000000000006,12.246319862087493,0.2341414406827585,-0.5770541106840256,-0.029895200653545524,13.411215,0.35015097,-2.1430256,0.15403962,8.564874,-5.8237658,1.5982679,0.3077305,-0.3964005,0.08440166,0.8608392,-5.5281787,3.2204127,-1.7153168,0.23414144,-0.5770541,-0.029895201,0,-0.04462101459503174,-0.31133026123046875,0.4776894927024841,0.34433486938476565,-0.8263360182648893,0.5621648319742395,-0.03375628251901064,0.07191548411498694,4.1204537214288655,0
0.9400000000000006,12.246319862087493,0.2341414406827585,-0.5770541106840256,-0.029895200653545524,13.411215,0.35015097,-2.1430256,0.15403962,8.509206,-5.7913237,1.5810361,0.30856526,-0.39356714,0.084461905,0.86183393,-5.6051993,3.2680478,-1.7309796,0.23414144,-0.5770541,-0.029895201,0,-0.06819319248199462,-0.3494249979654948,0.4659034037590027,0.32528750101725257,-0.837459807627802,0.5457242403856397,0.029088211762186733,0.04967428178839395,2.84612669681854,0
0.9500000000000006,12.246319862087493,0.2341414406827585,-0.5770541106840256,-0.029895200653545524,13.411215,0.35015097,-2.1430256,0.15403962,8.452771,-5.7584057,1.5636504,0.30939704,-0.39072996,0.08452132,0.86282027,-5.6816955,3.3155828,-1.7460978,0.23414144,-0.5770541,-0.029895201,0,-0.06819319248199462,-0.3494249979654948,0.4659034037590027,0.32528750101725257,-0.837459807627802,0.5457242403856397,0.029088211762186733,0.04967428178839395,2.84612669681854,0
0.9600000000000006,12.806404713841605,0.34930796567760763,-0.5125401961693279,-0.0287772052971751,13.425496,0.52179366,-2.2304459,0.06473208,8.395574,-5.7250123,1.5461161,0.3102258,-0.387889,0.08457993,0.86379826,-5.757664,3.363015,-1.7606747,0.23414144,-0.5770541,-0.029895201,0,-0.06819319248199462,-0.3494249979654948,0.4659034037590027,0.32528750101725257,-0.837459807627802,0.5457242403856397,0.029088211762186733,0.04967428178839395,2.84612669681854,0
0.9700000000000006,12.806404713841605,0.34930796567760763,-0.5125401961693279,-0.0287772052971751,13.425496,0.52179366,-2.2304459,0.06473208,8.337603,-5.691135,1.5284579,0.31124282,-0.38514385,0.085237354,0.8645958,-5.836536,3.4125655,-1.7708861,0.34930795,-0.5125402,-0.028777204,0,-0.06819319248199462,-0.3494249979654948,0.4659034037590027,0.32528750101725257,-0.837459807627802,0.5457242403856397,0.029088211762186733,0.04967428178839395,2.84612669681854,0
0.9800000000000006,12.806404713841605,0.34930796567760763,-0.5125401961693279,-0.0287772052971751,13.425496,0.52179366,-2.2304459,0.06473208,8.278845,-5.6567616,1.5107001,0.31225684,-0.38239497,0.085893944,0.86538494,-5.914803,3.4621603,-1.7805836,0.34930795,-0.5125402,-0.028777204,0,-0.06819319248199462,-0.3494249979654948,0.4659034037590027,0.32528750101725257,-0.837459807627802,0.5457242403856397,0.029088211762186733,0.04967428178839395,2.84612669681854,0
0.9900000000000007,12.806404713841605,0.34930796567760763,-0.5125401961693279,-0.0287772052971751,13.425496,0.52179366,-2.2304459,0.06473208,8.219307,-5.6218925,1.4928479,0.31326783,-0.3796424,0.08654973,0.86616576,-5.9924626,3.5117974,-1.7897708,0.34930795,-0.5125402,-0.028777204,0,-0.06819319248199462,-0.3494249979654948,0.4659034037590027,0.32528750101725257,-0.837459807627802,0.5457242403856397,0.029088211762186733,0.04967428178839395,2.84612669681854,0
1.0000000000000007,13.177609398274056,0.4503462176357631,-0.6944424059601942,-0.03894250410770459,13.558316,0.8166371,-2.1383684,-0.04901599,8.158997,-5.586526,1.4749064,0.3142758,-0.3768862,0.08720468,0.86693823,-6.069512,3.5614743,-1.7984512,0.34930795,-0.5125402,-0.028777204,0,-0.08590807914733886,-0.32251022338867186,0.45704596042633056,0.33874488830566407,-0.8388457068475301,0.543077053734121,0.037485914833897294,0.04390939015496498,2.515822736872781,0
1.0100000000000007,13.177609398274056,0.4503462176357631,-0.6944424059601942,-0.03894250410770459,13.558316,0.8166371,-2.1383684,-0.04901599,8.097908,-5.5506554,1.4568939,0.31559333,-0.3731821,0.087991424,0.86798185,-6.148087,3.612626,-1.8039536,0.45034623,-0.6944424,-0.038942505,0,-0.08590807914733886,-0.32251022338867186,0.45704596042633056,0.33874488830566407,-0.8388457068475301,0.543077053734121,0.037485914833897294,0.04390939015496498,2.515822736872781,0
1.0200000000000007,13.177609398274056,0.4503462176357631,-0.6944424059601942,-0.03894250410770459,13.558316,0.8166371,-2.1383684,-0.04901599,8.036039,-5.5142736,1.4388298,0.31690547,-0.36947158,0.088776655,0.86901057,-6.225821,3.663803,-1.8087626,0.45034623,-0.6944424,-0.038942505,0,-0.08590807914733886,-0.32251022338867186,0.45704596042633056,0.33874488830566407,-0.8388457068475301,0.543077053734121,0.037485914833897294,0.04390939015496498,2.515822736872781,0
1.0300000000000007,13.177609398274056,0.4503462176357631,-0.6944424059601942,-0.03894250410770459,13.558316,0.8166371,-2.1383684,-0.04901599,7.9733963,-5.4773793,1.420721,0.31821215,-0.36575472,0.08956037,0.8700244,-6.302708,3.7150016,-1.8128842,0.45034623,-0.6944424,-0.038942505,0,-0.08590807914733886,-0.32251022338867186,0.45704596042633056,0.33874488830566407,-0.8388457068475301,0.543077053734121,0.037485914833897294,0.04390939015496498,2.515822736872781,0
1.0400000000000007,13.177609398274056,0.4503462176357631,-0.6944424059601942,-0.03894250410770459,13.674844,0.85685045,-1.7521824,-0.12473535,7.909989,-5.4399734,1.4025743,0.31951338,-0.36203164,0.090342544,0.87102324,-6.3787427,3.7662177,-1.8163248,0.45034623,-0.6944424,-0.038942505,0,-0.08590807914733886,-0.32251022338867186,0.45704596042633056,0.33874488830566407,-0.8388457068475301,0.543077053734121,0.037485914833897294,0.04390939015496498,2.515822736872781,0
1.0500000000000007,13.177609398274056,0.4503462176357631,-0.6944424059601942,-0.03894250410770459,13.674844,0.85685045,-1.7521824,-0.12473535,7.845825,-5.402055,1.3843967,0.32080913,-0.3583023,0.09112317,0.87200713,-6.453921,3.8174474,-1.8190907,0.45034623,-0.6944424,-0.038942505,0,-0.08590807914733886,-0.32251022338867186,0.45704596042633056,0.33874488830566407,-0.8388457068475301,0.543077053734121,0.037485914833897294,0.04390939015496498,2.515822736872781,0
1.0600000000000007,13.177609398274056,0.4503462176357631,-0.6944424059601942,-0.03894250410770459,13.674844,0.85685045,-1.7521824,-0.12473535,7.780914,-5.3636246,1.3661948,0.32209936,-0.3545668,0.091902226,0.8729761,-6.5282373,3.8686864,-1.8211884,0.45034623,-0.6944424,-0.038942505,0,-0.08590807914733886,-0.32251022338867186,0.45704596042633056,0.33874488830566407,-0.8388457068475301,0.543077053734121,0.037485914833897294,0.04390939015496498,2.515822736872781,0
1.0700000000000007,13.177609398274056,0.4503462176357631,-0.6944424059601942,-0.03894250410770459,13.674844,0.85685045,-1.7521824,-0.12473535,7.7152634,-5.3246813,1.3479754,0.32338405,-0.35082522,0.09267971,0.8739301,-6.6016874,3.9199317,-1.8226243,0.45034623,-0.6944424,-0.038942505,0,-0.09560722351074219,-0.32782951354980466,0.45219638824462893,0.3360852432250977,-0.8293635700940617,0.5508536059926278,0.09336151972708778,0.0504535060554101,2.890772958612741,0
1.0800000000000007,13.800977751472747,0.5182280684203601,-0.5721476926130717,-0.04754274150046016,14.012933,0.57973284,-1.2784106,-0.2652111,7.648883,-5.285226,1.3297447,0.3246632,-0.34707764,0.0934556,0.87486905,-6.674265,3.9711785,-1.8234049,0.45034623,-0.6944424,-0.038942505,1,-0.09560722351074219,-0.32782951354980466,0.45219638824462893,0.3360852432250977,-0.8293635700940617,0.5508536059926278,0.09336151972708778,0.0504535060554101,2.890772958612741,0
1.0900000000000007,13.800977751472747,0.5182280684203601,-0.5721476926130717,-0.04754274150046016,14.012933,0.57973284,-1.2784106,-0.2652111,7.5817585,-5.2452416,1.3115412,0.32741842,-0.34065947,0.09345366,0.8763638,-6.7502985,4.025569,-1.8171186,0.57973284,-1.2784106,-0.2652111,1,-0.09560722351074219,-0.32782951354980466,0.45219638824462893,0.3360852432250977,-0.8293635700940617,0.5508536059926278,0.09336151972708778,0.0504535060554101,2.890772958612741,0
1.1000000000000008,13.800977751472747,0.5182280684203601,-0.5721476926130717,-0.04754274150046016,14.012933,0.57973284,-1.2784106,-0.2652111,7.513882,-5.2047153,1.2934067,0.33015695,-0.33422396,0.093446955,0.87781394,-6.824825,4.0796714,-1.8096024,0.57973284,-1.2784106,-0.2652111,1,-0.09560722351074219,-0.32782951354980466,0.45219638824462893,0.3360852432250977,-0.8293635700940617,0.5508536059926278,0.09336151972708778,0.0504535060554101,2.890772958612741,0
1.1100000000000008,13.800977751472747,0.5182280684203601,-0.5721476926130717,-0.04754274150046016,14.012933,0.57973284,-1.2784106,-0.2652111,7.4452677,-5.163649,1.2753536,0.33287865,-0.32777137,0.09343548,0.8792193,-6.89783,4.1334705,-1.8008761,0.57973284,-1.2784106,-0.2652111,1,-0.09560722351074219,-0.32782951354980466,0.45219638824462893,0.3360852432250977,-0.8293635700940617,0.5508536059926278,0.09336151972708778,0.0504535060554101,2.890772958612741,0
1.1200000000000008,14.318422788085575,0.5962440583720647,-0.478127586350225,-0.052915676096742664,14.477989,0.50644153,-0.8786668,-0.529343,7.3759303,-5.1220465,1.2573935,0.33558336,-0.32130206,0.09341924,0.88057977,-6.9693017,4.18695,-1.7909597,0.57973284,-1.2784106,-0.2652111,1,-0.09560722351074219,-0.32782951354980466,0.45219638824462893,0.3360852432250977,-0.8293635700940617,0.5508536059926278,0.09336151972708778,0.0504535060554101,2.890772958612741,0
1.1300000000000008,14.318422788085575,0.5962440583720647,-0.478127586350225,-0.052915676096742664,14.477989,0.50644153,-0.8786668,-0.529343,7.3058743,-5.0799017,1.2395561,0.33913252,-0.31682563,0.0933228,0.8808522,-7.041699,4.2419453,-1.7763866,0.50644153,-0.8786668,-0.529343,1,-0.09560722351074219,-0.32782951354980466,0.45219638824462893,0.3360852432250977,-0.8293635700940617,0.5508536059926278,0.09336151972708778,0.0504535060554101,2.890772958612741,0
1.1400000000000008,14.318422788085575,0.5962440583720647,-0.478127586350225,-0.052915676096742664,14.477989,0.50644153,-0.8786668,-0.529343,7.2351003,-5.0372076,1.2218685,0.34267056,-0.31233883,0.0932233,0.8810958,-7.1128917,4.2968087,-1.7609848,0.50644153,-0.8786668,-0.529343,1,-0.09723821640014649,-0.21722821553548177,0.45138089179992674,0.3913858922322591,-0.8083392005451429,0.5845596108758517,0.06984123563277261,0.08268240257892723,4.737352707774123,0
1.1500000000000008,14.318422788085575,0.5962440583720647,-0.478127586350225,-0.052915676096742664,14.477989,0.50644153,-0.8786668,-0.529343,7.163621,-4.9939656,1.204339,0.34619743,-0.3078418,0.09312076,0.88131064,-7.1828747,4.351528,-1.7447637,0.50644153,-0.8786668,-0.529343,1,-0.09723821640014649,-0.21722821553548177,0.45138089179992674,0.3913858922322591,-0.8083392005451429,0.5845596108758517,0.06984123563277261,0.08268240257892723,4.737352707774123,0
1.1600000000000008,14.916326946333186,0.657183511826514,-0.04106427786767104,-0.008907380352402678,14.825478,0.9290324,-0.9918418,-0.7794837,7.0914474,-4.9501777,1.186976,0.34971294,-0.30333468,0.09301517,0.8814966,-7.251642,4.4060903,-1.7277334,0.50644153,-0.8786668,-0.529343,1,-0.09723821640014649,-0.21722821553548177,0.45138089179992674,0.3913858922322591,-0.8083392005451429,0.5845596108758517,0.06984123563277261,0.08268240257892723,4.737352707774123,0
1.1700000000000008,14.916326946333186,0.657183511826514,-0.04106427786767104,-0.008907380352402678,14.825478,0.9290324,-0.9918418,-0.7794837,7.0185847,-4.905838,1.1698011,0.355008,-0.29769194,0.09419048,0.8811788,-7.3206167,4.461925,-1.7070725,0.9290324,-0.9918418,-0.7794837,1,-0.09723821640014649,-0.21722821553548177,0.45138089179992674,0.3913858922322591,-0.8083392005451429,0.5845596108758517,0.06984123563277261,0.08268240257892723,4.737352707774123,0
1.1800000000000008,14.916326946333186,0.657183511826514,-0.04106427786767104,-0.008907380352402678,14.825478,0.9290324,-0.9918418,-0.7794837,6.945041,-4.860939,1.1528376,0.36028135,-0.29203093,0.09536001,0.8808069,-7.387814,4.517931,-1.6854773,0.9290324,-0.9918418,-0.7794837,1,-0.09723821640014649,-0.21722821553548177,0.45138089179992674,0.3913858922322591,-0.8083392005451429,0.5845596108758517,0.06984123563277261,0.08268240257892723,4.737352707774123,0
1.1900000000000008,14.916326946333186,0.657183511826514,-0.04106427786767104,-0.008907380352402678,14.825478,0.9290324,-0.9918418,-0.7794837,6.8708344,-4.815479,1.1360947,0.36553255,-0.286352,0.09652368,0.88038105,-7.4532237,4.5740833,-1.6629641,0.9290324,-0.9918418,-0.7794837,1,-0.09723821640014649,-0.21722821553548177,0.45138089179992674,0.3913858922322591,-0.8083392005451429,0.5845596108758517,0.06984123563277261,0.08268240257892723,4.737352707774123,0
1.2000000000000008,15.228048078243795,0.5974209993648152,-0.040022702382052036,0.06411762340532483,15.222891,0.987072,-0.53289837,-0.8254695,6.795983,-4.7694564,1.1195815,0.37076133,-0.28065553,0.09768144,0.8799011,-7.516836,4.6303577,-1.6395495,0.9290324,-0.9918418,-0.7794837,1,-0.15007797241210938,-0.16963868459065756,0.4249610137939453,0.4151806577046712,-0.8018530706131783,0.5917700367292299,0.08270354755210707,0.08367890832203084,4.794448281114509,0
1.2100000000000009,15.228048078243795,0.5974209993648152,-0.040022702382052036,0.06411762340532483,15.222891,0.987072,-0.53289837,-0.8254695,6.720495,-4.722863,1.1033229,0.37602937,-0.27687758,0.09987543,0.87861526,-7.580423,4.6884203,-1.6121154,0.987072,-0.53289837,-0.8254695,1,-0.15007797241210938,-0.16963868459065756,0.4249610137939453,0.4151806577046712,-0.8018530706131783,0.5917700367292299,0.08270354755210707,0.08367890832203084,4.794448281114509,0
1.2200000000000009,15.228048078243795,0.5974209993648152,-0.040022702382052036,0.06411762340532483,15.222891,0.987072,-0.53289837,-0.8254695,6.64438,-4.675686,1.0873411,0.38127917,-0.27308625,0.10206457,0.8772868,-7.6424775,4.7470417,-1.5841752,0.987072,-0.53289837,-0.8254695,1,-0.15007797241210938,-0.16963868459065756,0.4249610137939453,0.4151806577046712,-0.8018530706131783,0.5917700367292299,0.08270354755210707,0.08367890832203084,4.794448281114509,0
1.2300000000000009,15.228048078243795,0.5974209993648152,-0.040022702382052036,0.06411762340532483,15.222891,0.987072,-0.53289837,-0.8254695,6.5676513,-4.62792,1.0716412,0.3865105,-0.26928163,0.10424877,0.87591577,-7.7029905,4.8062024,-1.5557383,0.987072,-0.53289837,-0.8254695,1,-0.15007797241210938,-0.16963868459065756,0.4249610137939453,0.4151806577046712,-0.8018530706131783,0.5917700367292299,0.08270354755210707,0.08367890832203084,4.794448281114509,0
1.2400000000000009,15.228048078243795,0.5974209993648152,-0.040022702382052036,0.06411762340532483,15.371127,0.8342404,-0.53025216,-0.69002223,6.490325,-4.5795603,1.056228,0.39172304,-0.26546395,0.10642791,0.8745023,-7.7619514,4.8658834,-1.5268139,0.987072,-0.53289837,-0.8254695,1,-0.15007797241210938,-0.16963868459065756,0.4249610137939453,0.4151806577046712,-0.8018530706131783,0.5917700367292299,0.08270354755210707,0.08367890832203084,4.794448281114509,0
1.2500000000000009,15.228048078243795,0.5974209993648152,-0.040022702382052036,0.06411762340532483,15.371127,0.8342404,-0.53025216,-0.69002223,6.412414,-4.530598,1.0411127,0.39612246,-0.26187384,0.10811925,0.87339485,-7.819977,4.926593,-1.4961721,0.8342404,-0.53025216,-0.69002223,1,-0.15007797241210938,-0.16963868459065756,0.4249610137939453,0.4151806577046712,-0.8018530706131783,0.5917700367292299,0.08270354755210707,0.08367890832203084,4.794448281114509,0
1.260000000000001,15.228048078243795,0.5974209993648152,-0.040022702382052036,0.06411762340532483,15.371127,0.8342404,-0.53025216,-0.69002223,6.33393,-4.481028,1.0263062,0.4005075,-0.25827423,0.109806664,0.8722556,-7.8765955,4.987636,-1.4650627,0.8342404,-0.53025216,-0.69002223,1,-0.15007797241210938,-0.16963868459065756,0.4249610137939453,0.4151806577046712,-0.8018530706131783,0.5917700367292299,0.08270354755210707,0.08367890832203084,4.794448281114509,0
1.270000000000001,15.228048078243795,0.5974209993648152,-0.040022702382052036,0.06411762340532483,15.371127,0.8342404,-0.53025216,-0.69002223,6.2548866,-4.4308453,1.011813,0.40487802,-0.25466523,0.11149009,0.8710847,-7.9318013,5.048998,-1.4334939,0.8342404,-0.53025216,-0.69002223,1,-0.23210252761840822,-0.19597423553466797,0.3839487361907959,0.402012882232666,-0.7943417658934427,0.5894899935606167,0.14670619090274017,0.07157045415726682,4.100684961045926,0
1.280000000000001,15.713678716769833,0.3979223687930461,0.005501403221339363,0.17059754650053,15.64515,0.4174687,-0.27419332,-0.4680513,6.175298,-4.3800473,0.9976378,0.40923387,-0.251047,0.11316947,0.86988217,-7.985588,5.110663,-1.4014735,0.8342404,-0.53025216,-0.69002223,1,-0.23210252761840822,-0.19597423553466797,0.3839487361907959,0.402012882232666,-0.7943417658934427,0.5894899935606167,0.14670619090274017,0.07157045415726682,4.100684961045926,0
