time-since-start [s],throttle_mpc,roll_mpc,pitch_mpc,yaw_mpc,throttle_nw,roll_nw,pitch_nw,yaw_nw,position_x [m],position_y [m],position_z [m],rotation_w [quaternion],rotation_x [quaternion],rotation_y [quaternion],rotation_z [quaternion],velocity_x [m/s],velocity_y [m/s],velocity_z [m/s],omega_x [rad/s],omega_y [rad/s],omega_z [rad/s],network_used,gaze_2d_norm_x,gaze_2d_norm_y,gaze_2d_x,gaze_2d_y,gaze_3d_x,gaze_3d_y,gaze_3d_z,angle_rad,angle_deg,high_level_label
0.0,8.35159936855212,5.99999939356078,-5.999999695329803,-2.611886397779508,11.380649,-0.9040819,-1.8126202,0.20459497,11.430893,-10.660917,1.1162364,0.33975524,-0.22464582,0.27857757,0.8697673,-7.6850853,4.049173,0.6414331,0.16845267,0.31872636,0.38726002,0,-0.13366270065307617,-0.20496941884358724,0.4331686496734619,0.3975152905782064,-0.7211547406324209,0.6851633534526218,0.10240614800364015,0.27488593005607376,15.749803639741371,0
0.01,8.35159936855212,5.99999939356078,-5.999999695329803,-2.611886397779508,11.095779,1.8709813,-4.8719187,-0.20865965,11.353966,-10.620159,1.1224722,0.3658672,-0.19178763,0.2912655,0.8628575,-7.6993,4.102614,0.6058873,5.9999995,-5.9999995,-2.6118865,0,-0.13366270065307617,-0.20496941884358724,0.4331686496734619,0.3975152905782064,-0.7211547406324209,0.6851633534526218,0.10240614800364015,0.27488593005607376,15.749803639741371,0
0.02,8.35159936855212,5.99999939356078,-5.999999695329803,-2.611886397779508,11.095779,1.8709813,-4.8719187,-0.20865965,11.276932,-10.578864,1.1283574,0.39125833,-0.15855157,0.30337957,0.85424775,-7.706502,4.156336,0.5712939,5.9999995,-5.9999995,-2.6118865,0,-0.13366270065307617,-0.20496941884358724,0.4331686496734619,0.3975152905782064,-0.7211547406324209,0.6851633534526218,0.10240614800364015,0.27488593005607376,15.749803639741371,0
0.03,8.35159936855212,5.99999939356078,-5.999999695329803,-2.611886397779508,11.095779,1.8709813,-4.8719187,-0.20865965,11.199862,-10.537034,1.1339002,0.4158786,-0.12500313,0.3148959,0.8439548,-7.706653,4.2098103,0.5373142,5.9999995,-5.9999995,-2.6118865,0,-0.13366270065307617,-0.20496941884358724,0.4331686496734619,0.3975152905782064,-0.7211547406324209,0.6851633534526218,0.10240614800364015,0.27488593005607376,15.749803639741371,0
0.04,8.35159936855212,5.99999939356078,-5.999999695329803,-2.611886397779508,12.164674,-0.7562121,-1.3363686,0.23218906,11.122824,-10.494672,1.1391047,0.4396795,-0.091208406,0.3257918,0.8319991,-7.6997695,4.262512,0.5036048,5.9999995,-5.9999995,-2.6118865,0,-0.13366270065307617,-0.20496941884358724,0.4331686496734619,0.3975152905782064,-0.7211547406324209,0.6851633534526218,0.10240614800364015,0.27488593005607376,15.749803639741371,0
0.05,8.35159936855212,5.99999939356078,-5.999999695329803,-2.611886397779508,12.164674,-0.7562121,-1.3363686,0.23218906,11.045889,-10.451788,1.143972,0.46261415,-0.05723399,0.33604586,0.81840426,-7.6859236,4.313921,0.46982023,5.9999995,-5.9999995,-2.6118865,0,-0.13366270065307617,-0.20496941884358724,0.4331686496734619,0.3975152905782064,-0.7211547406324209,0.6851633534526218,0.10240614800364015,0.27488593005607376,15.749803639741371,0
0.060000000000000005,8.35159936855212,5.99999939356078,-5.999999695329803,-2.611886397779508,12.164674,-0.7562121,-1.3363686,0.23218906,10.969128,-10.408399,1.1484997,0.48463732,-0.023146804,0.34563783,0.8031969,-7.665242,4.363526,0.43561542,5.9999995,-5.9999995,-2.6118865,0,-0.13366270065307617,-0.20496941884358724,0.4331686496734619,0.3975152905782064,-0.7211547406324209,0.6851633534526218,0.10240614800364015,0.27488593005607376,15.749803639741371,0
0.07,8.35159936855212,5.99999939356078,-5.999999695329803,-2.611886397779508,12.164674,-0.7562121,-1.3363686,0.23218906,10.892607,-10.364524,1.1526818,0.50570565,0.010985983,0.3545488,0.7864071,-7.6379056,4.4108324,0.40064874,5.9999995,-5.9999995,-2.6118865,0,-0.10346753120422364,0.18017096201578775,0.44826623439788815,0.5900854810078939,-0.4102917188916602,0.9119009188967134,-0.00987013294016606,0.6242950929176663,35.769473994909845,1
0.08,13.611533955818931,5.999999254152618,-5.999999442589856,-4.270704807628962,10.07255,-1.9490466,1.8593044,-0.9760636,10.816391,-10.32019,1.1565089,0.52577764,0.045097128,0.36276123,0.7680679,-7.604147,4.4553623,0.3645845,5.9999995,-5.9999995,-2.6118865,0,-0.10346753120422364,0.18017096201578775,0.44826623439788815,0.5900854810078939,-0.4102917188916602,0.9119009188967134,-0.00987013294016606,0.6242950929176663,35.769473994909845,1
0.09,13.611533955818931,5.999999254152618,-5.999999442589856,-4.270704807628962,10.07255,-1.9490466,1.8593044,-0.9760636,10.740666,-10.275296,1.1601602,0.5511059,0.076103725,0.37058073,0.74374753,-7.539128,4.522655,0.365283,5.999999,-5.9999995,-4.2707047,0,-0.10346753120422364,0.18017096201578775,0.44826623439788815,0.5900854810078939,-0.4102917188916602,0.9119009188967134,-0.00987013294016606,0.6242950929176663,35.769473994909845,1
0.09999999999999999,13.611533955818931,5.999999254152618,-5.999999442589856,-4.270704807628962,10.07255,-1.9490466,1.8593044,-0.9760636,10.66564,-10.229758,1.1638051,0.5751911,0.10693866,0.37756434,0.71774966,-7.464689,4.58386,0.3632549,5.999999,-5.9999995,-4.2707047,0,-0.10346753120422364,0.18017096201578775,0.44826623439788815,0.5900854810078939,-0.4102917188916602,0.9119009188967134,-0.00987013294016606,0.6242950929176663,35.769473994909845,1
0.10999999999999999,13.611533955818931,5.999999254152618,-5.999999442589856,-4.270704807628962,10.07255,-1.9490466,1.8593044,-0.9760636,10.591403,-10.183642,1.1674145,0.59797883,0.1375324,0.38369632,0.6901328,-7.381507,4.6381955,0.35813522,5.999999,-5.9999995,-4.2707047,0,-0.10346753120422364,0.18017096201578775,0.44826623439788815,0.5900854810078939,-0.4102917188916602,0.9119009188967134,-0.00987013294016606,0.6242950929176663,35.769473994909845,1
0.11999999999999998,13.611533955818931,5.999999254152618,-5.999999442589856,-4.270704807628962,10.07255,-1.9490466,1.8593044,-0.9760636,10.518038,-10.13702,1.170956,0.61941785,0.16781594,0.38896286,0.66095936,-7.290335,4.6849403,0.34958687,5.999999,-5.9999995,-4.2707047,0,-0.10346753120422364,0.18017096201578775,0.44826623439788815,0.5900854810078939,-0.4102917188916602,0.9119009188967134,-0.00987013294016606,0.6242950929176663,35.769473994909845,1
0.12999999999999998,17.291388093254103,5.467005733758859,-4.417044880503973,-5.515024616980593,11.018368,-2.6085398,2.8364885,-0.5088775,10.4456215,-10.089971,1.1743935,0.6394597,0.19772094,0.3933521,0.63029504,-7.191999,4.723443,0.33730373,5.999999,-5.9999995,-4.2707047,0,-0.10346753120422364,0.18017096201578775,0.44826623439788815,0.5900854810078939,-0.4102917188916602,0.9119009188967134,-0.00987013294016606,0.6242950929176663,35.769473994909845,1
0.13999999999999999,17.291388093254103,5.467005733758859,-4.417044880503973,-5.515024616980593,11.018368,-2.6085398,2.8364885,-0.5088775,10.374359,-10.042536,1.1777998,0.659478,0.21807002,0.40151557,0.596925,-7.059406,4.7621827,0.34315497,5.4670057,-4.417045,-5.5150247,0,0.14391962051391602,-0.15982126871744792,0.571959810256958,0.420089365641276,0.5522078481872432,0.8322828738044697,0.04870020915958864,1.563127823306568,89.56062711493743,1
0.15,17.291388093254103,5.467005733758859,-4.417044880503973,-5.515024616980593,11.018368,-2.6085398,2.8364885,-0.5088775,10.304455,-9.994758,1.1812388,0.67818063,0.23798403,0.40887806,0.5623642,-6.920647,4.7918344,0.34382012,5.4670057,-4.417045,-5.5150247,0,0.14391962051391602,-0.15982126871744792,0.571959810256958,0.420089365641276,0.5522078481872432,0.8322828738044697,0.04870020915958864,1.563127823306568,89.56062711493743,1
0.16,16.45145014581417,2.363648980910355,-3.8752526329201387,-5.999994168036293,12.341608,-4.041218,2.8060737,-0.087140724,10.235966,-9.946732,1.1846584,0.69553024,0.25742325,0.4154248,0.52668136,-6.7766547,4.811841,0.33928064,5.4670057,-4.417045,-5.5150247,0,0.14391962051391602,-0.15982126871744792,0.571959810256958,0.420089365641276,0.5522078481872432,0.8322828738044697,0.04870020915958864,1.563127823306568,89.56062711493743,1
0.17,16.45145014581417,2.363648980910355,-3.8752526329201387,-5.999994168036293,12.341608,-4.041218,2.8060737,-0.087140724,10.1689,-9.898556,1.1879891,0.7158408,0.26320207,0.41560113,0.49555263,-6.636514,4.8221884,0.3267033,2.363649,-3.8752527,-5.9999943,0,0.14391962051391602,-0.15982126871744792,0.571959810256958,0.420089365641276,0.5522078481872432,0.8322828738044697,0.04870020915958864,1.563127823306568,89.56062711493743,1
0.18000000000000002,16.45145014581417,2.363648980910355,-3.8752526329201387,-5.999994168036293,12.341608,-4.041218,2.8060737,-0.087140724,10.103239,-9.850313,1.1911892,0.73513854,0.26860845,0.41518945,0.46372274,-6.495443,4.8251925,0.31316417,2.363649,-3.8752527,-5.9999943,0,0.14391962051391602,-0.15982126871744792,0.571959810256958,0.420089365641276,0.5522078481872432,0.8322828738044697,0.04870020915958864,1.563127823306568,89.56062711493743,1
0.19000000000000003,16.45145014581417,2.363648980910355,-3.8752526329201387,-5.999994168036293,12.341608,-4.041218,2.8060737,-0.087140724,10.038992,-9.802077,1.19425,0.75339603,0.27363476,0.41419026,0.43123665,-6.3539586,4.820782,0.29886973,2.363649,-3.8752527,-5.9999943,0,0.14391962051391602,-0.15982126871744792,0.571959810256958,0.420089365641276,0.5522078481872432,0.8322828738044697,0.04870020915958864,1.563127823306568,89.56062711493743,1
0.20000000000000004,15.085323524806896,1.394567920940384,-4.174346033537927,-5.999995944818674,12.3384075,-3.758937,3.3111997,0.3972158,9.97616,-9.753923,1.1971648,0.7705875,0.2782739,0.41260502,0.39814043,-6.212581,4.8089285,0.2840308,2.363649,-3.8752527,-5.9999943,0,0.1598685646057129,-0.27800745646158853,0.5799342823028565,0.36099627176920573,0.9003973851498093,0.4326120814149015,-0.04616639285511476,2.034968207787444,116.59508974952166,1
0.21000000000000005,15.085323524806896,1.394567920940384,-4.174346033537927,-5.999995944818674,12.3384075,-3.758937,3.3111997,0.3972158,9.91468,-9.705917,1.1998963,0.78866553,0.27938595,0.40736154,0.36606956,-6.083781,4.7914014,0.26245916,1.394568,-4.174346,-5.9999957,0,0.1598685646057129,-0.27800745646158853,0.5799342823028565,0.36099627176920573,0.9003973851498093,0.4326120814149015,-0.04616639285511476,2.034968207787444,116.59508974952166,1
0.22000000000000006,15.085323524806896,1.394567920940384,-4.174346033537927,-5.999995944818674,12.3384075,-3.758937,3.3111997,0.3972158,9.854478,-9.658118,1.202418,0.80565196,0.2801113,0.4015542,0.333492,-5.95671,4.7675767,0.24206743,1.394568,-4.174346,-5.9999957,0,0.1598685646057129,-0.27800745646158853,0.5799342823028565,0.36099627176920573,0.9003973851498093,0.4326120814149015,-0.04616639285511476,2.034968207787444,116.59508974952166,1
0.23000000000000007,15.085323524806896,1.394567920940384,-4.174346033537927,-5.999995944818674,12.3384075,-3.758937,3.3111997,0.3972158,9.795537,-9.610587,1.2047424,0.82152337,0.28044897,0.3951911,0.30045286,-5.831794,4.737625,0.22303778,1.394568,-4.174346,-5.9999957,0,0.1598685646057129,-0.27800745646158853,0.5799342823028565,0.36099627176920573,0.9003973851498093,0.4326120814149015,-0.04616639285511476,2.034968207787444,116.59508974952166,1
0.24000000000000007,15.085323524806896,1.394567920940384,-4.174346033537927,-5.999995944818674,12.87629,-3.3828526,1.0177753,0.2392906,9.737833,-9.563386,1.206884,0.8362577,0.28039843,0.388281,0.26699787,-5.709447,4.7017508,0.20554483,1.394568,-4.174346,-5.9999957,0,0.1598685646057129,-0.27800745646158853,0.5799342823028565,0.36099627176920573,0.9003973851498093,0.4326120814149015,-0.04616639285511476,2.034968207787444,116.59508974952166,1
0.25000000000000006,15.085323524806896,1.394567920940384,-4.174346033537927,-5.999995944818674,12.87629,-3.3828526,1.0177753,0.2392906,9.681338,-9.516572,1.2088591,0.84983456,0.27995983,0.38083348,0.23317336,-5.5900693,4.6601906,0.18975472,1.394568,-4.174346,-5.9999957,0,0.1598685646057129,-0.27800745646158853,0.5799342823028565,0.36099627176920573,0.9003973851498093,0.4326120814149015,-0.04616639285511476,2.034968207787444,116.59508974952166,1
0.26000000000000006,15.085323524806896,1.394567920940384,-4.174346033537927,-5.999995944818674,12.87629,-3.3828526,1.0177753,0.2392906,9.62602,-9.470201,1.2106854,0.86223525,0.27913374,0.37285885,0.19902606,-5.4740434,4.6132135,0.17582415,1.394568,-4.174346,-5.9999957,0,0.1598685646057129,-0.27800745646158853,0.5799342823028565,0.36099627176920573,0.9003973851498093,0.4326120814149015,-0.04616639285511476,2.034968207787444,116.59508974952166,1
0.2700000000000001,15.085323524806896,1.394567920940384,-4.174346033537927,-5.999995944818674,12.87629,-3.3828526,1.0177753,0.2392906,9.571844,-9.424326,1.2123823,0.8734425,0.2779213,0.36436817,0.16460331,-5.361735,4.5611186,0.16389953,1.394568,-4.174346,-5.9999957,0,0.0652943754196167,-0.3444615173339844,0.5326471877098083,0.3277692413330078,0.9990783188463251,-0.0032810970878256462,0.042798916027169315,2.43998827097912,139.80102998852664,1
0.2800000000000001,13.578348185779515,1.2580512337033314,-5.376775382352619,-5.999997992478804,14.240766,-2.3826282,1.1429094,-0.09690595,9.518771,-9.378995,1.2139707,0.88344073,0.27632418,0.35537317,0.12995273,-5.253488,4.5042315,0.15411615,1.394568,-4.174346,-5.9999957,0,0.0652943754196167,-0.3444615173339844,0.5326471877098083,0.3277692413330078,0.9990783188463251,-0.0032810970878256462,0.042798916027169315,2.43998827097912,139.80102998852664,1
0.2900000000000001,13.578348185779515,1.2580512337033314,-5.376775382352619,-5.999997992478804,14.240766,-2.3826282,1.1429094,-0.09690595,9.466704,-9.334227,1.2154286,0.8944175,0.27448452,0.34043875,0.09368748,-5.1604505,4.448844,0.13792507,1.2580513,-5.3767753,-5.999998,0,0.0652943754196167,-0.3444615173339844,0.5326471877098083,0.3277692413330078,0.9990783188463251,-0.0032810970878256462,0.042798916027169315,2.43998827097912,139.80102998852664,1
0.3000000000000001,13.578348185779515,1.2580512337033314,-5.376775382352619,-5.999997992478804,14.240766,-2.3826282,1.1429094,-0.09690595,9.415543,-9.290033,1.2167399,0.9039078,0.2721886,0.3249385,0.05726652,-5.0728803,4.3893876,0.12484947,1.2580513,-5.3767753,-5.999998,0,0.0652943754196167,-0.3444615173339844,0.5326471877098083,0.3277692413330078,0.9990783188463251,-0.0032810970878256462,0.042798916027169315,2.43998827097912,139.80102998852664,1
0.3100000000000001,13.578348185779515,1.2580512337033314,-5.376775382352619,-5.999997992478804,14.240766,-2.3826282,1.1429094,-0.09690595,9.365227,-9.246452,1.2179363,0.9118957,0.2694403,0.30889812,0.020750374,-4.991105,4.3263755,0.114926,1.2580513,-5.3767753,-5.999998,0,0.0652943754196167,-0.3444615173339844,0.5326471877098083,0.3277692413330078,0.9990783188463251,-0.0032810970878256462,0.042798916027169315,2.43998827097912,139.80102998852664,1
0.3200000000000001,12.075883845617039,1.6832124660821919,-5.9999981284122965,-5.999998548684306,15.995651,-1.6491731,2.2702312,-0.539539,9.315699,-9.203517,1.2190492,0.9183679,0.2662442,0.2923444,-0.015800256,-4.9154143,4.2603464,0.1081704,1.2580513,-5.3767753,-5.999998,0,0.0652943754196167,-0.3444615173339844,0.5326471877098083,0.3277692413330078,0.9990783188463251,-0.0032810970878256462,0.042798916027169315,2.43998827097912,139.80102998852664,1
0.3300000000000001,12.075883845617039,1.6832124660821919,-5.9999981284122965,-5.999998548684306,15.995651,-1.6491731,2.2702312,-0.539539,9.266856,-9.161217,1.2200587,0.9235627,0.26448038,0.2723804,-0.05377238,-4.854008,4.1992445,0.09417807,1.6832125,-5.999998,-5.9999986,0,0.0652943754196167,-0.3444615173339844,0.5326471877098083,0.3277692413330078,0.9990783188463251,-0.0032810970878256462,0.042798916027169315,2.43998827097912,139.80102998852664,1
0.34000000000000014,12.075883845617039,1.6832124660821919,-5.9999981284122965,-5.999998548684306,15.995651,-1.6491731,2.2702312,-0.539539,9.218595,-9.119539,1.2209427,0.92702997,0.26222184,0.25190693,-0.091643915,-4.7991934,4.1360064,0.08311049,1.6832125,-5.999998,-5.9999986,0,-0.16109725952148438,-0.03779905319213867,0.4194513702392578,0.48110047340393064,0.9838704581100347,-0.17697903603954937,0.026025803750555826,2.6082575603590232,149.4421500916606,1
0.35000000000000014,12.075883845617039,1.6832124660821919,-5.9999981284122965,-5.999998548684306,15.995651,-1.6491731,2.2702312,-0.539539,9.170848,-9.078502,1.2217306,0.92876315,0.2594728,0.23096228,-0.12934403,-4.751171,4.0712476,0.07489026,1.6832125,-5.999998,-5.9999986,0,-0.16109725952148438,-0.03779905319213867,0.4194513702392578,0.48110047340393064,0.9838704581100347,-0.17697903603954937,0.026025803750555826,2.6082575603590232,149.4421500916606,1
0.36000000000000015,10.814612472201452,2.4770971006656146,-5.999999131669366,-5.999999027261958,15.343155,-1.6819804,2.3093843,-0.66705143,9.123546,-9.038117,1.2224501,0.92875904,0.25623837,0.20958559,-0.1668022,-4.7100916,4.0055914,0.06941875,1.6832125,-5.999998,-5.9999986,0,-0.16109725952148438,-0.03779905319213867,0.4194513702392578,0.48110047340393064,0.9838704581100347,-0.17697903603954937,0.026025803750555826,2.6082575603590232,149.4421500916606,1
0.37000000000000016,10.814612472201452,2.4770971006656146,-5.999999131669366,-5.999999027261958,15.343155,-1.6819804,2.3093843,-0.66705143,9.076602,-8.998359,1.2230783,0.92596257,0.25619957,0.18714662,-0.20477262,-4.6797485,3.9462974,0.05649641,2.477097,-5.999999,-5.999999,0,-0.16109725952148438,-0.03779905319213867,0.4194513702392578,0.48110047340393064,0.9838704581100347,-0.17697903603954937,0.026025803750555826,2.6082575603590232,149.4421500916606,1
0.38000000000000017,10.814612472201452,2.4770971006656146,-5.999999131669366,-5.999999027261958,15.343155,-1.6819804,2.3093843,-0.66705143,9.029927,-8.959195,1.2235866,0.9213576,0.25566036,0.16434214,-0.24234313,-4.6561556,3.8866642,0.045453843,2.477097,-5.999999,-5.999999,0,-0.16109725952148438,-0.03779905319213867,0.4194513702392578,0.48110047340393064,0.9838704581100347,-0.17697903603954937,0.026025803750555826,2.6082575603590232,149.4421500916606,1
0.3900000000000002,10.814612472201452,2.4770971006656146,-5.999999131669366,-5.999999027261958,15.343155,-1.6819804,2.3093843,-0.66705143,8.983457,-8.920627,1.2239932,0.9149532,0.25462186,0.14121667,-0.27944028,-4.639354,3.8272939,0.03614931,2.477097,-5.999999,-5.999999,0,-0.16109725952148438,-0.03779905319213867,0.4194513702392578,0.48110047340393064,0.9838704581100347,-0.17697903603954937,0.026025803750555826,2.6082575603590232,149.4421500916606,1
0.4000000000000002,10.867365888468909,3.3831238579802583,-5.999999177780599,-5.999999236764712,14.523258,-2.369096,2.9110088,-0.30983475,8.937119,-8.882647,1.2243148,0.90676177,0.25308606,0.117815405,-0.31599167,-4.6293335,3.7687864,0.028427506,2.477097,-5.999999,-5.999999,0,-0.1842454719543457,0.018276925086975097,0.40787726402282715,0.5091384625434876,0.8049935801466335,-0.57399907965247,0.1500346376035332,3.0777364806158674,176.34131079273672,1
0.4100000000000002,10.867365888468909,3.3831238579802583,-5.999999177780599,-5.999999236764712,14.523258,-2.369096,2.9110088,-0.30983475,8.890846,-8.845247,1.2245682,0.8955933,0.25514552,0.09274575,-0.3524377,-4.6262507,3.7112157,0.022423683,3.3831239,-5.999999,-5.999999,0,-0.1842454719543457,0.018276925086975097,0.40787726402282715,0.5091384625434876,0.8049935801466335,-0.57399907965247,0.1500346376035332,3.0777364806158674,176.34131079273672,1
0.4200000000000002,10.867365888468909,3.3831238579802583,-5.999999177780599,-5.999999236764712,14.523258,-2.369096,2.9110088,-0.30983475,8.844568,-8.808417,1.2247661,0.8825568,0.25667283,0.06748266,-0.38814864,-4.63046,3.6550872,0.017261485,3.3831239,-5.999999,-5.999999,0,-0.1842454719543457,0.018276925086975097,0.40787726402282715,0.5091384625434876,0.8049935801466335,-0.57399907965247,0.1500346376035332,3.0777364806158674,176.34131079273672,1
0.4300000000000002,10.867365888468909,3.3831238579802583,-5.999999177780599,-5.999999236764712,14.523258,-2.369096,2.9110088,-0.30983475,8.798212,-8.772139,1.2249156,0.8676795,0.25766474,0.042078804,-0.42304996,-4.641827,3.6010356,0.012728635,3.3831239,-5.999999,-5.999999,0,-0.1842454719543457,0.018276925086975097,0.40787726402282715,0.5091384625434876,0.8049935801466335,-0.57399907965247,0.1500346376035332,3.0777364806158674,176.34131079273672,1
0.4400000000000002,10.867365888468909,3.3831238579802583,-5.999999177780599,-5.999999236764712,15.951278,-2.6550875,2.7961879,-0.2211346,8.751709,-8.736386,1.2250221,0.85099244,0.25811926,0.016587181,-0.45706886,-4.6601605,3.5496798,0.008607604,3.3831239,-5.999999,-5.999999,0,-0.1842454719543457,0.018276925086975097,0.40787726402282715,0.5091384625434876,0.8049935801466335,-0.57399907965247,0.1500346376035332,3.0777364806158674,176.34131079273672,1
0.45000000000000023,10.867365888468909,3.3831238579802583,-5.999999177780599,-5.999999236764712,15.951278,-2.6550875,2.7961879,-0.2211346,8.704988,-8.701133,1.2250884,0.8325304,0.2580354,-0.008939043,-0.49013448,-4.6852083,3.5016148,0.004677421,3.3831239,-5.999999,-5.999999,0,-0.1842454719543457,0.018276925086975097,0.40787726402282715,0.5091384625434876,0.8049935801466335,-0.57399907965247,0.1500346376035332,3.0777364806158674,176.34131079273672,1
0.46000000000000024,10.867365888468909,3.3831238579802583,-5.999999177780599,-5.999999236764712,15.951278,-2.6550875,2.7961879,-0.2211346,8.657983,-8.666341,1.2251155,0.81233186,0.2574133,-0.03444662,-0.5221777,-4.7166643,3.4574094,0.0007155384,3.3831239,-5.999999,-5.999999,0,-0.1842454719543457,0.018276925086975097,0.40787726402282715,0.5091384625434876,0.8049935801466335,-0.57399907965247,0.1500346376035332,3.0777364806158674,176.34131079273672,1
0.47000000000000025,10.867365888468909,3.3831238579802583,-5.999999177780599,-5.999999236764712,15.951278,-2.6550875,2.7961879,-0.2211346,8.610633,-8.631969,1.225102,0.790439,0.25625432,-0.05988235,-0.5531318,-4.754168,3.4175994,-0.0035003386,3.3831239,-5.999999,-5.999999,0,-0.092706937789917,0.1954248046875,0.4536465311050415,0.59771240234375,0.31301223066539896,-0.9388674202290765,0.14335728333876113,-2.515875207191624,-144.14903115368162,2
0.48000000000000026,11.146711938243662,3.822885886826164,-5.999999346671013,-5.999999411931554,15.467728,2.275952,2.6703815,1.6326376,8.56288,-8.597973,1.2250439,0.7668974,0.25456086,-0.08519319,-0.5829323,-4.797309,3.3826845,-0.008190382,3.3831239,-5.999999,-5.999999,0,-0.092706937789917,0.1954248046875,0.4536465311050415,0.59771240234375,0.31301223066539896,-0.9388674202290765,0.14335728333876113,-2.515875207191624,-144.14903115368162,2
0.49000000000000027,11.146711938243662,3.822885886826164,-5.999999346671013,-5.999999411931554,15.467728,2.275952,2.6703815,1.6326376,8.514663,-8.564302,1.2249473,0.7411667,0.25401202,-0.11160392,-0.6113062,-4.8470263,3.3523316,-0.01128019,3.822886,-5.9999995,-5.9999995,0,-0.092706937789917,0.1954248046875,0.4536465311050415,0.59771240234375,0.31301223066539896,-0.9388674202290765,0.14335728333876113,-2.515875207191624,-144.14903115368162,2
0.5000000000000002,11.146711938243662,3.822885886826164,-5.999999346671013,-5.999999411931554,15.467728,2.275952,2.6703815,1.6326376,8.46592,-8.530907,1.224814,0.71383137,0.25291327,-0.13777304,-0.63835657,-4.901951,3.3278337,-0.015555133,3.822886,-5.9999995,-5.9999995,0,-0.092706937789917,0.1954248046875,0.4536465311050415,0.59771240234375,0.31301223066539896,-0.9388674202290765,0.14335728333876113,-2.515875207191624,-144.14903115368162,2
0.5100000000000002,11.146711938243662,3.822885886826164,-5.999999346671013,-5.999999411931554,15.467728,2.275952,2.6703815,1.6326376,8.416607,-8.497725,1.2246313,0.6849506,0.25126693,-0.16364388,-0.66402495,-4.961516,3.3096018,-0.021245254,3.822886,-5.9999995,-5.9999995,0,-0.092706937789917,0.1954248046875,0.4536465311050415,0.59771240234375,0.31301223066539896,-0.9388674202290765,0.14335728333876113,-2.515875207191624,-144.14903115368162,2
0.5200000000000002,12.261852048305244,3.9634143822266963,-5.999999191897649,-5.999999490837465,15.174278,2.002507,3.1366336,1.5486189,8.366676,-8.464692,1.2243836,0.654587,0.24907662,-0.18916042,-0.6882557,-5.0251145,3.297993,-0.028568337,3.822886,-5.9999995,-5.9999995,0,-0.092706937789917,0.1954248046875,0.4536465311050415,0.59771240234375,0.31301223066539896,-0.9388674202290765,0.14335728333876113,-2.515875207191624,-144.14903115368162,2
0.5300000000000002,12.261852048305244,3.9634143822266963,-5.999999191897649,-5.999999490837465,15.174278,2.002507,3.1366336,1.5486189,8.316058,-8.431744,1.2240982,0.6226224,0.24680348,-0.21474816,-0.71085405,-5.0988574,3.2928436,-0.028869214,3.9634144,-5.999999,-5.9999995,0,-0.092706937789917,0.1954248046875,0.4536465311050415,0.59771240234375,0.31301223066539896,-0.9388674202290765,0.14335728333876113,-2.515875207191624,-144.14903115368162,2
0.5400000000000003,12.261852048305244,3.9634143822266963,-5.999999191897649,-5.999999490837465,15.174278,2.002507,3.1366336,1.5486189,8.264688,-8.3988085,1.2237983,0.5892928,0.24398924,-0.23986511,-0.7318939,-5.175724,3.2955954,-0.0315061,3.9634144,-5.999999,-5.9999995,0,0.3011836051940918,0.051845741271972653,0.6505918025970459,0.5259228706359863,-0.6522294607747074,-0.7531426245057211,0.08586569542121986,-1.42407811311769,-81.59366557859747,2
0.5500000000000003,12.261852048305244,3.9634143822266963,-5.999999191897649,-5.999999490837465,15.174278,2.002507,3.1366336,1.5486189,8.212536,-8.365804,1.2234595,0.55467135,0.24064012,-0.26445618,-0.7513293,-5.2549396,3.3064535,-0.036674432,3.9634144,-5.999999,-5.9999995,0,0.3011836051940918,0.051845741271972653,0.6505918025970459,0.5259228706359863,-0.6522294607747074,-0.7531426245057211,0.08586569542121986,-1.42407811311769,-81.59366557859747,2
0.5600000000000003,13.19636250086276,3.5244918882434724,-5.999999198028946,-5.999999552893234,14.098988,1.4429895,3.4263113,1.7306148,8.159582,-8.33265,1.2230555,0.5188339,0.23676343,-0.28846747,-0.76911753,-5.335708,3.325552,-0.044547476,3.9634144,-5.999999,-5.9999995,0,0.3011836051940918,0.051845741271972653,0.6505918025970459,0.5259228706359863,-0.6522294607747074,-0.7531426245057211,0.08586569542121986,-1.42407811311769,-81.59366557859747,2
0.5700000000000003,13.19636250086276,3.5244918882434724,-5.999999198028946,-5.999999552893234,14.098988,1.4429895,3.4263113,1.7306148,8.105787,-8.299255,1.2225926,0.48239917,0.23123911,-0.31017125,-0.7858843,-5.423295,3.3549747,-0.048463035,3.5244918,-5.999999,-5.9999995,0,0.3011836051940918,0.051845741271972653,0.6505918025970459,0.5259228706359863,-0.6522294607747074,-0.7531426245057211,0.08586569542121986,-1.42407811311769,-81.59366557859747,2
0.5800000000000003,13.19636250086276,3.5244918882434724,-5.999999198028946,-5.999999552893234,14.098988,1.4429895,3.4263113,1.7306148,8.051118,-8.265522,1.2220767,0.4449465,0.22522685,-0.3312205,-0.8009927,-5.51046,3.393132,-0.05516177,3.5244918,-5.999999,-5.9999995,0,0.3011836051940918,0.051845741271972653,0.6505918025970459,0.5259228706359863,-0.6522294607747074,-0.7531426245057211,0.08586569542121986,-1.42407811311769,-81.59366557859747,2
0.5900000000000003,13.19636250086276,3.5244918882434724,-5.999999198028946,-5.999999552893234,14.098988,1.4429895,3.4263113,1.7306148,7.995582,-8.231364,1.2214795,0.40655494,0.2187393,-0.35157079,-0.8144108,-5.5963707,3.4399161,-0.064726874,3.5244918,-5.999999,-5.9999995,0,0.3011836051940918,0.051845741271972653,0.6505918025970459,0.5259228706359863,-0.6522294607747074,-0.7531426245057211,0.08586569542121986,-1.42407811311769,-81.59366557859747,2
0.6000000000000003,14.015337794797125,2.6726798720869476,-5.9999989682608295,-5.99999960204988,13.437281,1.0070863,4.936435,1.4955891,7.9391975,-8.196695,1.2207721,0.36730546,0.21179017,-0.3711792,-0.8261104,-5.680207,3.4951465,-0.077217385,3.5244918,-5.999999,-5.9999995,0,0.1605721664428711,-0.15315992991129557,0.5802860832214356,0.4234200350443522,-0.9486159110894091,-0.23494395024340242,0.21196507606687454,-0.7943930050632106,-45.5153664648366,2
0.6100000000000003,14.015337794797125,2.6726798720869476,-5.9999989682608295,-5.99999960204988,13.437281,1.0070863,4.936435,1.4955891,7.8819633,-8.161415,1.2199519,0.32820597,0.2028441,-0.38651195,-0.83770186,-5.7659965,3.5623028,-0.08718981,2.67268,-5.999999,-5.9999995,0,0.1605721664428711,-0.15315992991129557,0.5802860832214356,0.4234200350443522,-0.9486159110894091,-0.23494395024340242,0.21196507606687454,-0.7943930050632106,-45.5153664648366,2
0.6200000000000003,14.015337794797125,2.6726798720869476,-5.9999989682608295,-5.99999960204988,13.437281,1.0070863,4.936435,1.4955891,7.8238926,-8.125423,1.2190208,0.28845727,0.19349673,-0.40108013,-0.8476361,-5.8474455,3.6372657,-0.099365674,2.67268,-5.999999,-5.9999995,0,0.1605721664428711,-0.15315992991129557,0.5802860832214356,0.4234200350443522,-0.9486159110894091,-0.23494395024340242,0.21196507606687454,-0.7943930050632106,-45.5153664648366,2
0.6300000000000003,14.015337794797125,2.6726798720869476,-5.9999989682608295,-5.99999960204988,13.437281,1.0070863,4.936435,1.4955891,7.765032,-8.088644,1.2179571,0.2481379,0.18376659,-0.41485485,-0.8558935,-5.923853,3.7196155,-0.11369949,2.67268,-5.999999,-5.9999995,0,0.1605721664428711,-0.15315992991129557,0.5802860832214356,0.4234200350443522,-0.9486159110894091,-0.23494395024340242,0.21196507606687454,-0.7943930050632106,-45.5153664648366,2
0.6400000000000003,14.015337794797125,2.6726798720869476,-5.9999989682608295,-5.99999960204988,13.476767,0.30343625,5.8158336,1.3738168,7.7054353,-8.051006,1.2167397,0.20732763,0.1736729,-0.4278089,-0.86245775,-5.994558,3.8088737,-0.13012871,2.67268,-5.999999,-5.9999995,0,0.1605721664428711,-0.15315992991129557,0.5802860832214356,0.4234200350443522,-0.9486159110894091,-0.23494395024340242,0.21196507606687454,-0.7943930050632106,-45.5153664648366,2
0.6500000000000004,14.015337794797125,2.6726798720869476,-5.9999989682608295,-5.99999960204988,13.476767,0.30343625,5.8158336,1.3738168,7.645162,-8.0124445,1.2153476,0.16610724,0.16323563,-0.43991667,-0.8673158,-6.0589447,3.9045076,-0.14857423,2.67268,-5.999999,-5.9999995,0,0.1605721664428711,-0.15315992991129557,0.5802860832214356,0.4234200350443522,-0.9486159110894091,-0.23494395024340242,0.21196507606687454,-0.7943930050632106,-45.5153664648366,2
0.6600000000000004,14.015337794797125,2.6726798720869476,-5.9999989682608295,-5.99999960204988,13.476767,0.30343625,5.8158336,1.3738168,7.5842795,-7.9728966,1.2137614,0.124558225,0.15247546,-0.4511541,-0.87045807,-6.1164474,4.0059342,-0.16894095,2.67268,-5.999999,-5.9999995,0,0.1605721664428711,-0.15315992991129557,0.5802860832214356,0.4234200350443522,-0.9486159110894091,-0.23494395024340242,0.21196507606687454,-0.7943930050632106,-45.5153664648366,2
0.6700000000000004,14.015337794797125,2.6726798720869476,-5.9999989682608295,-5.99999960204988,13.476767,0.30343625,5.8158336,1.3738168,7.522858,-7.9323087,1.2119626,0.08276282,0.14141364,-0.46149907,-0.8718784,-6.1665545,4.1125245,-0.19111857,2.67268,-5.999999,-5.9999995,0,0.1335142993927002,-0.26559794108072915,0.5667571496963502,0.3672010294596354,-0.8928627528073891,0.42528342383690854,0.148088196892149,-0.14364946912796084,-8.230508310326972,0
0.6800000000000004,14.406222058751903,1.7581304296688662,-5.999998896235288,-5.999999626172855,12.746503,-1.1856291,1.3036224,0.1815046,7.460975,-7.8906317,1.2099334,0.040803686,0.13007209,-0.47093108,-0.87157387,-6.2088127,4.2236085,-0.21498254,2.67268,-5.999999,-5.9999995,0,0.1335142993927002,-0.26559794108072915,0.5667571496963502,0.3672010294596354,-0.8928627528073891,0.42528342383690854,0.148088196892149,-0.14364946912796084,-8.230508310326972,0
0.6900000000000004,14.406222058751903,1.7581304296688662,-5.999998896235288,-5.999999626172855,12.746503,-1.1856291,1.3036224,0.1815046,7.398705,-7.847809,1.207669,-0.0006402144,0.118293084,-0.4754712,-0.87174207,-6.2438154,4.3414145,-0.23795536,1.7581304,-5.999999,-5.9999995,0,0.1335142993927002,-0.26559794108072915,0.5667571496963502,0.3672010294596354,-0.8928627528073891,0.42528342383690854,0.148088196892149,-0.14364946912796084,-8.230508310326972,0
0.7000000000000004,14.406222058751903,1.7581304296688662,-5.999998896235288,-5.999999626172855,12.746503,-1.1856291,1.3036224,0.1815046,7.336128,-7.803795,1.2051731,-0.042082913,0.10629203,-0.47911885,-0.87027407,-6.27016,4.461661,-0.2612603,1.7581304,-5.999999,-5.9999995,0,0.1335142993927002,-0.26559794108072915,0.5667571496963502,0.3672010294596354,-0.8928627528073891,0.42528342383690854,0.148088196892149,-0.14364946912796084,-8.230508310326972,0
0.7100000000000004,14.406222058751903,1.7581304296688662,-5.999998896235288,-5.999999626172855,12.746503,-1.1856291,1.3036224,0.1815046,7.2733326,-7.7585692,1.2024434,-0.08344662,0.09409147,-0.48186722,-0.86717254,-6.2876663,4.583608,-0.28472823,1.7581304,-5.999999,-5.9999995,0,0.1335142993927002,-0.26559794108072915,0.5667571496963502,0.3672010294596354,-0.8928627528073891,0.42528342383690854,0.148088196892149,-0.14364946912796084,-8.230508310326972,0
0.7200000000000004,14.704026940816416,0.45042037815000857,-5.999998807727373,-5.999999647323252,14.041452,-1.6320716,0.6541911,0.13410616,7.2104063,-7.7121186,1.1994786,-0.124653704,0.0817143,-0.48371112,-0.8624434,-6.2962213,4.706504,-0.30818877,1.7581304,-5.999999,-5.9999995,0,0.1335142993927002,-0.26559794108072915,0.5667571496963502,0.3672010294596354,-0.8928627528073891,0.42528342383690854,0.148088196892149,-0.14364946912796084,-8.230508310326972,0
0.7300000000000004,14.704026940816416,0.45042037815000857,-5.999998807727373,-5.999999647323252,14.041452,-1.6320716,0.6541911,0.13410616,7.1474385,-7.664426,1.1962895,-0.16509767,0.07000137,-0.47902718,-0.85928833,-6.2959933,4.831778,-0.32933918,0.45042038,-5.9999986,-5.9999995,0,0.1335142993927002,-0.26559794108072915,0.5667571496963502,0.3672010294596354,-0.8928627528073891,0.42528342383690854,0.148088196892149,-0.14364946912796084,-8.230508310326972,0
0.7400000000000004,14.704026940816416,0.45042037815000857,-5.999998807727373,-5.999999647323252,14.041452,-1.6320716,0.6541911,0.13410616,7.084516,-7.6154876,1.1928983,-0.20524366,0.0581621,-0.4734787,-0.8545824,-6.287262,4.955553,-0.34858286,0.45042038,-5.9999986,-5.9999995,0,0.010081127882003785,-0.13489676157633462,0.5050405639410019,0.4325516192118327,-0.6572499390134859,0.7479459316681243,0.09273295513392661,0.18235428516618324,10.448130916147374,0
0.7500000000000004,14.704026940816416,0.45042037815000857,-5.999998807727373,-5.999999647323252,14.041452,-1.6320716,0.6541911,0.13410616,7.0217223,-7.565322,1.1893249,-0.24501926,0.04621786,-0.46707568,-0.8483341,-6.270219,5.0771174,-0.3657735,0.45042038,-5.9999986,-5.9999995,0,0.010081127882003785,-0.13489676157633462,0.5050405639410019,0.4325516192118327,-0.6572499390134859,0.7479459316681243,0.09273295513392661,0.18235428516618324,10.448130916147374,0
0.7600000000000005,14.86813563352831,-0.8713428456485672,-5.999998856995011,-5.999999639071437,15.911471,-2.7206452,0.7039358,-0.04366862,6.9591393,-7.513955,1.1855904,-0.28435263,0.034190204,-0.45982966,-0.8405547,-6.2451158,5.1957765,-0.3807795,0.45042038,-5.9999986,-5.9999995,0,0.010081127882003785,-0.13489676157633462,0.5050405639410019,0.4325516192118327,-0.6572499390134859,0.7479459316681243,0.09273295513392661,0.18235428516618324,10.448130916147374,0
0.7700000000000005,14.86813563352831,-0.8713428456485672,-5.999998856995011,-5.999999639071437,15.911471,-2.7206452,0.7039358,-0.04366862,6.896847,-7.4614134,1.1817236,-0.32294485,0.023979295,-0.44619718,-0.8342905,-6.2122817,5.311839,-0.39198154,-0.87134284,-5.999999,-5.9999995,0,0.010081127882003785,-0.13489676157633462,0.5050405639410019,0.4325516192118327,-0.6572499390134859,0.7479459316681243,0.09273295513392661,0.18235428516618324,10.448130916147374,0
0.7800000000000005,14.86813563352831,-0.8713428456485672,-5.999998856995011,-5.999999639071437,15.911471,-2.7206452,0.7039358,-0.04366862,6.834915,-7.407736,1.177764,-0.36094972,0.013724773,-0.43175322,-0.82650894,-6.1730657,5.422852,-0.39931825,-0.87134284,-5.999999,-5.9999995,0,0.010081127882003785,-0.13489676157633462,0.5050405639410019,0.4325516192118327,-0.6572499390134859,0.7479459316681243,0.09273295513392661,0.18235428516618324,10.448130916147374,0
0.7900000000000005,14.86813563352831,-0.8713428456485672,-5.999998856995011,-5.999999639071437,15.911471,-2.7206452,0.7039358,-0.04366862,6.773406,-7.352976,1.1737508,-0.39829814,0.003445292,-0.41652402,-0.8172242,-6.1279807,5.528245,-0.40276384,-0.87134284,-5.999999,-5.9999995,0,0.010081127882003785,-0.13489676157633462,0.5050405639410019,0.4325516192118327,-0.6572499390134859,0.7479459316681243,0.09273295513392661,0.18235428516618324,10.448130916147374,0
0.8000000000000005,15.218530486295464,-1.728504288025381,-5.9999981702695635,-5.9999996337926715,16.920097,-3.4585445,1.3545346,-0.16040969,6.7123747,-7.2971916,1.1697223,-0.43492216,-0.0068404553,-0.40053725,-0.8064532,-6.0775833,5.6274886,-0.4023208,-0.87134284,-5.999999,-5.9999995,0,-0.20260467529296874,0.10274974822998047,0.3986976623535156,0.5513748741149902,-0.5495275883717546,0.8295700136325077,0.09916159589319214,0.23877215924866846,13.680636990174289,0
0.8100000000000005,15.218530486295464,-1.728504288025381,-5.9999981702695635,-5.9999996337926715,16.920097,-3.4585445,1.3545346,-0.16040969,6.6518764,-7.2404375,1.1657305,-0.47077206,-0.015250063,-0.38035583,-0.7959092,-6.021517,5.7221355,-0.39529327,-1.7285043,-5.999998,-5.9999995,0,-0.20260467529296874,0.10274974822998047,0.3986976623535156,0.5513748741149902,-0.5495275883717546,0.8295700136325077,0.09916159589319214,0.23877215924866846,13.680636990174289,0
0.8200000000000005,15.218530486295464,-1.728504288025381,-5.9999981702695635,-5.9999996337926715,16.920097,-3.4585445,1.3545346,-0.16040969,6.5919557,-7.182775,1.1618326,-0.50573957,-0.023631085,-0.35946146,-0.7838735,-5.962224,5.8091826,-0.38357317,-1.7285043,-5.999998,-5.9999995,0,-0.20260467529296874,0.10274974822998047,0.3986976623535156,0.5513748741149902,-0.5495275883717546,0.8295700136325077,0.09916159589319214,0.23877215924866846,13.680636990174289,0
0.8300000000000005,15.218530486295464,-1.728504288025381,-5.9999981702695635,-5.9999996337926715,16.920097,-3.4585445,1.3545346,-0.16040969,6.532641,-7.124281,1.1580747,-0.5397591,-0.031967815,-0.3378933,-0.7703684,-5.900431,5.8882747,-0.367308,-1.7285043,-5.999998,-5.9999995,0,-0.20260467529296874,0.10274974822998047,0.3986976623535156,0.5513748741149902,-0.5495275883717546,0.8295700136325077,0.09916159589319214,0.23877215924866846,13.680636990174289,0
0.8400000000000005,15.218530486295464,-1.728504288025381,-5.9999981702695635,-5.9999996337926715,18.135738,-3.0941808,2.061184,-0.40076363,6.4739532,-7.0650373,1.1545014,-0.5727669,-0.040244628,-0.31569183,-0.7554193,-5.836884,5.9591165,-0.34667924,-1.7285043,-5.999998,-5.9999995,0,-0.20260467529296874,0.10274974822998047,0.3986976623535156,0.5513748741149902,-0.5495275883717546,0.8295700136325077,0.09916159589319214,0.23877215924866846,13.680636990174289,0
0.8500000000000005,15.218530486295464,-1.728504288025381,-5.9999981702695635,-5.9999996337926715,18.135738,-3.0941808,2.061184,-0.40076363,6.4159064,-7.005128,1.1511554,-0.6047011,-0.048446003,-0.29289863,-0.73905426,-5.7723413,6.021475,-0.32190114,-1.7285043,-5.999998,-5.9999995,0,-0.20260467529296874,0.10274974822998047,0.3986976623535156,0.5513748741149902,-0.5495275883717546,0.8295700136325077,0.09916159589319214,0.23877215924866846,13.680636990174289,0
0.8600000000000005,15.218530486295464,-1.728504288025381,-5.9999981702695635,-5.9999996337926715,18.135738,-3.0941808,2.061184,-0.40076363,6.3585076,-6.9446383,1.1480769,-0.63550186,-0.056556575,-0.2695564,-0.7213039,-5.7075686,6.075178,-0.29321897,-1.7285043,-5.999998,-5.9999995,0,-0.20260467529296874,0.10274974822998047,0.3986976623535156,0.5513748741149902,-0.5495275883717546,0.8295700136325077,0.09916159589319214,0.23877215924866846,13.680636990174289,0
0.8700000000000006,15.218530486295464,-1.728504288025381,-5.9999981702695635,-5.9999996337926715,18.135738,-3.0941808,2.061184,-0.40076363,6.301754,-6.8836546,1.1453035,-0.66511136,-0.064561136,-0.24570891,-0.7022016,-5.643334,6.120123,-0.26090732,-1.7285043,-5.999998,-5.9999995,0,-0.02789731025695801,0.23808453877766927,0.486051344871521,0.6190422693888347,-0.007608025407926461,0.9993830619854726,0.03428721869638732,0.7372763704926595,42.24282436395301,1
0.8800000000000006,15.306465027561412,-3.436770765584742,-5.999996866110603,-5.999999577405665,19.0153,-3.6389246,4.8333683,-0.7131002,6.2456365,-6.8222656,1.1428701,-0.69347423,-0.072444685,-0.22140086,-0.6817831,-5.580401,6.1562686,-0.22526793,-1.7285043,-5.999998,-5.9999995,0,-0.02789731025695801,0.23808453877766927,0.486051344871521,0.6190422693888347,-0.007608025407926461,0.9993830619854726,0.03428721869638732,0.7372763704926595,42.24282436395301,1
0.8900000000000006,15.306465027561412,-3.436770765584742,-5.999996866110603,-5.999999577405665,19.0153,-3.6389246,4.8333683,-0.7131002,6.190138,-6.760558,1.1408135,-0.72107834,-0.074263036,-0.19083302,-0.66190255,-5.5200734,6.183872,-0.18545985,-3.4367707,-5.9999967,-5.9999995,0,-0.02789731025695801,0.23808453877766927,0.486051344871521,0.6190422693888347,-0.007608025407926461,0.9993830619854726,0.03428721869638732,0.7372763704926595,42.24282436395301,1
0.9000000000000006,15.306465027561412,-3.436770765584742,-5.999996866110603,-5.999999577405665,19.0153,-3.6389246,4.8333683,-0.7131002,6.1352167,-6.698617,1.1391733,-0.7471719,-0.07592581,-0.15986538,-0.64063543,-5.464986,6.203016,-0.14207146,-3.4367707,-5.9999967,-5.9999995,0,-0.02789731025695801,0.23808453877766927,0.486051344871521,0.6190422693888347,-0.007608025407926461,0.9993830619854726,0.03428721869638732,0.7372763704926595,42.24282436395301,1
0.9100000000000006,15.306465027561412,-3.436770765584742,-5.999996866110603,-5.999999577405665,19.0153,-3.6389246,4.8333683,-0.7131002,6.080817,-6.6365256,1.1379825,-0.7717001,-0.07742953,-0.12856285,-0.6180262,-5.415889,6.2139897,-0.095641,-3.4367707,-5.9999967,-5.9999995,0,-0.02789731025695801,0.23808453877766927,0.486051344871521,0.6190422693888347,-0.007608025407926461,0.9993830619854726,0.03428721869638732,0.7372763704926595,42.24282436395301,1
0.9200000000000006,15.29654169645881,-5.355722802465696,-5.894404439789526,-5.999999476344091,19.588526,-2.7701993,5.7163486,-0.5766808,6.026876,-6.5743637,1.1372689,-0.79461163,-0.07877104,-0.096991,-0.5941223,-5.373481,6.217155,-0.046732213,-3.4367707,-5.9999967,-5.9999995,0,-0.02789731025695801,0.23808453877766927,0.486051344871521,0.6190422693888347,-0.007608025407926461,0.9993830619854726,0.03428721869638732,0.7372763704926595,42.24282436395301,1
0.9300000000000006,15.29654169645881,-5.355722802465696,-5.894404439789526,-5.999999476344091,19.588526,-2.7701993,5.7163486,-0.5766808,5.973319,-6.512206,1.1370546,-0.8164064,-0.07199759,-0.059920333,-0.56983125,-5.3394337,6.2133265,0.004207937,-5.355723,-5.8944044,-5.9999995,0,-0.02789731025695801,0.23808453877766927,0.486051344871521,0.6190422693888347,-0.007608025407926461,0.9993830619854726,0.03428721869638732,0.7372763704926595,42.24282436395301,1
0.9400000000000006,15.29654169645881,-5.355722802465696,-5.894404439789526,-5.999999476344091,19.588526,-2.7701993,5.7163486,-0.5766808,5.92005,-6.4501166,1.1373591,-0.8361723,-0.06504521,-0.022700755,-0.54412407,-5.315962,6.2037377,0.056918953,-5.355723,-5.8944044,-5.9999995,0,0.16300182342529296,0.052483107248942056,0.5815009117126465,0.526241553624471,0.5522364579864034,0.7010413138939403,0.4511939391043379,1.375703225359009,78.82198867560598,1
0.9500000000000006,15.29654169645881,-5.355722802465696,-5.894404439789526,-5.999999476344091,19.588526,-2.7701993,5.7163486,-0.5766808,5.8669615,-6.3881493,1.138196,-0.8538601,-0.057931177,0.014575237,-0.5170646,-5.30353,6.1891003,0.11053586,-5.355723,-5.8944044,-5.9999995,0,0.16300182342529296,0.052483107248942056,0.5815009117126465,0.526241553624471,0.5522364579864034,0.7010413138939403,0.4511939391043379,1.375703225359009,78.82198867560598,1
0.9600000000000006,15.067397612605909,-5.989085138806948,-3.5391134979207557,-5.999999314714405,20.548147,-1.0327063,4.5478373,-0.571206,5.8139405,-6.3263497,1.1395699,-0.8694259,-0.050673176,0.05181501,-0.48872015,-5.3024917,6.170178,0.16418469,-5.355723,-5.8944044,-5.9999995,0,0.16300182342529296,0.052483107248942056,0.5815009117126465,0.526241553624471,0.5522364579864034,0.7010413138939403,0.4511939391043379,1.375703225359009,78.82198867560598,1
0.9700000000000006,15.067397612605909,-5.989085138806948,-3.5391134979207557,-5.999999314714405,20.548147,-1.0327063,4.5478373,-0.571206,5.760874,-6.2647524,1.1414661,-0.88376564,-0.0347926,0.08025006,-0.4596836,-5.3125257,6.1494107,0.21495414,-5.989085,-3.5391135,-5.9999995,0,0.16300182342529296,0.052483107248942056,0.5815009117126465,0.526241553624471,0.5522364579864034,0.7010413138939403,0.4511939391043379,1.375703225359009,78.82198867560598,1
0.9800000000000006,15.067397612605909,-5.989085138806948,-3.5391134979207557,-5.999999314714405,20.548147,-1.0327063,4.5478373,-0.571206,5.7076545,-6.203359,1.1438658,-0.8962411,-0.018838622,0.10851583,-0.42967737,-5.3329597,6.129439,0.26476502,-5.989085,-3.5391135,-5.9999995,0,0.16300182342529296,0.052483107248942056,0.5815009117126465,0.526241553624471,0.5522364579864034,0.7010413138939403,0.4511939391043379,1.375703225359009,78.82198867560598,1
0.9900000000000007,15.067397612605909,-5.989085138806948,-3.5391134979207557,-5.999999314714405,20.548147,-1.0327063,4.5478373,-0.571206,5.654179,-6.1421585,1.146756,-0.9068259,-0.0028449073,0.13655266,-0.39876473,-5.363638,6.1109776,0.31299376,-5.989085,-3.5391135,-5.9999995,0,0.16300182342529296,0.052483107248942056,0.5815009117126465,0.526241553624471,0.5522364579864034,0.7010413138939403,0.4511939391043379,1.375703225359009,78.82198867560598,1
1.0000000000000007,14.295688320918172,-5.796279858962827,-0.201913888667791,-5.999999152933656,17.23463,0.8537391,2.7920752,0.2778788,5.600347,-6.081132,1.1501181,-0.91549784,0.013154807,0.16430146,-0.3670109,-5.404317,6.0947294,0.35903016,-5.989085,-3.5391135,-5.9999995,0,0.06701457023620605,-0.27013570149739585,0.5335072851181031,0.3649321492513021,0.30003448825573864,0.36086840662888525,0.8830364086232496,1.4190393471491036,81.30496555464333,1
1.0100000000000007,14.295688320918172,-5.796279858962827,-0.201913888667791,-5.999999152933656,17.23463,0.8537391,2.7920752,0.2778788,5.5460763,-6.020247,1.1538924,-0.9251612,0.03437004,0.17611039,-0.33448747,-5.450798,6.0831704,0.39560425,-5.79628,-0.2019139,-5.999999,0,0.06701457023620605,-0.27013570149739585,0.5335072851181031,0.3649321492513021,0.30003448825573864,0.36086840662888525,0.8830364086232496,1.4190393471491036,81.30496555464333,1
1.0200000000000007,14.295688320918172,-5.796279858962827,-0.201913888667791,-5.999999152933656,17.23463,0.8537391,2.7920752,0.2778788,5.491313,-5.9594474,1.1580249,-0.9332142,0.055525444,0.18761276,-0.3013818,-5.502575,6.0777936,0.4306265,-5.79628,-0.2019139,-5.999999,0,0.06701457023620605,-0.27013570149739585,0.5335072851181031,0.3649321492513021,0.30003448825573864,0.36086840662888525,0.8830364086232496,1.4190393471491036,81.30496555464333,1
1.0300000000000007,14.295688320918172,-5.796279858962827,-0.201913888667791,-5.999999152933656,17.23463,0.8537391,2.7920752,0.2778788,5.436008,-5.898669,1.1624986,-0.9396427,0.076584205,0.19878854,-0.26775151,-5.559122,6.0789356,0.463799,-5.79628,-0.2019139,-5.999999,0,0.06701457023620605,-0.27013570149739585,0.5335072851181031,0.3649321492513021,0.30003448825573864,0.36086840662888525,0.8830364086232496,1.4190393471491036,81.30496555464333,1
1.0400000000000007,14.295688320918172,-5.796279858962827,-0.201913888667791,-5.999999152933656,13.83489,3.6347797,2.239431,0.25675485,5.3801155,-5.837845,1.1672935,-0.94443566,0.097509645,0.2096183,-0.23365517,-5.6198797,6.086888,0.4948367,-5.79628,-0.2019139,-5.999999,0,0.06701457023620605,-0.27013570149739585,0.5335072851181031,0.3649321492513021,0.30003448825573864,0.36086840662888525,0.8830364086232496,1.4190393471491036,81.30496555464333,1
1.0500000000000007,14.295688320918172,-5.796279858962827,-0.201913888667791,-5.999999152933656,13.83489,3.6347797,2.239431,0.25675485,5.3235974,-5.7769065,1.172387,-0.9475846,0.11826536,0.22008319,-0.19915211,-5.684261,6.1018934,0.5234694,-5.79628,-0.2019139,-5.999999,0,0.06701457023620605,-0.27013570149739585,0.5335072851181031,0.3649321492513021,0.30003448825573864,0.36086840662888525,0.8830364086232496,1.4190393471491036,81.30496555464333,1
1.0600000000000007,14.295688320918172,-5.796279858962827,-0.201913888667791,-5.999999152933656,13.83489,3.6347797,2.239431,0.25675485,5.2664204,-5.715782,1.1777538,-0.9490841,0.13881521,0.23016497,-0.16430238,-5.7516527,6.1241474,0.5494436,-5.79628,-0.2019139,-5.999999,0,0.06701457023620605,-0.27013570149739585,0.5335072851181031,0.3649321492513021,0.30003448825573864,0.36086840662888525,0.8830364086232496,1.4190393471491036,81.30496555464333,1
1.0700000000000007,14.295688320918172,-5.796279858962827,-0.201913888667791,-5.999999152933656,13.83489,3.6347797,2.239431,0.25675485,5.2085567,-5.6543984,1.183366,-0.9489315,0.15912344,0.23984611,-0.12916665,-5.821421,6.1537933,0.5725245,-5.79628,-0.2019139,-5.999999,0,0.009866119623184203,-0.1833037567138672,0.5049330598115921,0.4083481216430664,0.328678148594253,0.3914808571434253,0.8594843879483232,1.4560618041467208,83.42619608781136,1
1.0800000000000007,13.394843223641521,-4.74120487770631,2.272097207790949,-5.999999111810377,12.902222,3.3480582,1.1092083,-0.15777364,5.149986,-5.592681,1.1891935,-0.94712716,0.17915466,0.24910976,-0.09380609,-5.8929152,6.1909246,0.5924971,-5.79628,-0.2019139,-5.999999,0,0.009866119623184203,-0.1833037567138672,0.5049330598115921,0.4083481216430664,0.328678148594253,0.3914808571434253,0.8594843879483232,1.4560618041467208,83.42619608781136,1
1.0900000000000007,13.394843223641521,-4.74120487770631,2.272097207790949,-5.999999111810377,12.902222,3.3480582,1.1092083,-0.15777364,5.0907207,-5.5305686,1.1951703,-0.94777054,0.1950529,0.24575104,-0.057386618,-5.959798,6.232593,0.6026964,-4.7412047,2.272097,-5.999999,0,0.009866119623184203,-0.1833037567138672,0.5049330598115921,0.4083481216430664,0.328678148594253,0.3914808571434253,0.8594843879483232,1.4560618041467208,83.42619608781136,1
1.1000000000000008,13.394843223641521,-4.74120487770631,2.272097207790949,-5.999999111810377,12.902222,3.3480582,1.1092083,-0.15777364,5.0307984,-5.4680066,1.2012433,-0.9469062,0.21064088,0.24200138,-0.020875856,-6.024173,6.280733,0.6117258,-4.7412047,2.272097,-5.999999,0,0.009866119623184203,-0.1833037567138672,0.5049330598115921,0.4083481216430664,0.328678148594253,0.3914808571434253,0.8594843879483232,1.4560618041467208,83.42619608781136,1
1.1100000000000008,13.394843223641521,-4.74120487770631,2.272097207790949,-5.999999111810377,12.902222,3.3480582,1.1092083,-0.15777364,4.9702473,-5.404932,1.2074006,-0.9445355,0.22589375,0.23786673,0.015668117,-6.0855303,6.335114,0.61953235,-4.7412047,2.272097,-5.999999,0,0.009866119623184203,-0.1833037567138672,0.5049330598115921,0.4083481216430664,0.328678148594253,0.3914808571434253,0.8594843879483232,1.4560618041467208,83.42619608781136,1
1.1200000000000008,12.627346210898567,-4.029158202174422,5.128590074741863,-5.999998954246604,11.248168,2.6059434,-0.36219546,-0.42742708,4.9090996,-5.3412833,1.2136296,-0.9406622,0.24078725,0.23335366,0.052187163,-6.1433816,6.3954654,0.626071,-4.7412047,2.272097,-5.999999,0,0.009866119623184203,-0.1833037567138672,0.5049330598115921,0.4083481216430664,0.328678148594253,0.3914808571434253,0.8594843879483232,1.4560618041467208,83.42619608781136,1
1.1300000000000008,12.627346210898567,-4.029158202174422,5.128590074741863,-5.999998954246604,11.248168,2.6059434,-0.36219546,-0.42742708,4.8474116,-5.2770224,1.21989,-0.93930644,0.25115895,0.21518141,0.09121859,-6.193048,6.457388,0.6261474,-4.029158,5.12859,-5.999999,0,0.009866119623184203,-0.1833037567138672,0.5049330598115921,0.4083481216430664,0.328678148594253,0.3914808571434253,0.8594843879483232,1.4560618041467208,83.42619608781136,1
1.1400000000000008,12.627346210898567,-4.029158202174422,5.128590074741863,-5.999998954246604,11.248168,2.6059434,-0.36219546,-0.42742708,4.785263,-5.2121215,1.2261549,-0.93610674,0.26103762,0.19658673,0.13007095,-6.2355733,6.523337,0.62695134,-4.029158,5.12859,-5.999999,0,0.012607460021972655,-0.2608606211344401,0.5063037300109863,0.36956968943277996,0.4175990488442,0.26877551762833113,0.8679693286793273,1.761766606724101,100.94179105237531,1
1.1500000000000008,12.627346210898567,-4.029158202174422,5.128590074741863,-5.999998954246604,11.248168,2.6059434,-0.36219546,-0.42742708,4.722726,-5.1465435,1.232431,-0.9310694,0.27040383,0.1776061,0.16866797,-6.2706237,6.592676,0.62836677,-4.029158,5.12859,-5.999999,0,0.012607460021972655,-0.2608606211344401,0.5063037300109863,0.36956968943277996,0.4175990488442,0.26877551762833113,0.8679693286793273,1.761766606724101,100.94179105237531,1
1.1600000000000008,12.002471492340815,-2.947831111364758,5.999924617435858,-5.999998750644429,8.921024,2.975315,-2.8148725,-1.2145851,4.6598773,-5.0802584,1.2387239,-0.9242043,0.27923924,0.15827686,0.20693387,-6.297923,6.66474,0.63027287,-4.029158,5.12859,-5.999999,0,0.012607460021972655,-0.2608606211344401,0.5063037300109863,0.36956968943277996,0.4175990488442,0.26877551762833113,0.8679693286793273,1.761766606724101,100.94179105237531,1
1.1700000000000008,12.002471492340815,-2.947831111364758,5.999924617435858,-5.999998750644429,8.921024,2.975315,-2.8148725,-1.2145851,4.5968003,-5.013262,1.245014,-0.9176986,0.2816225,0.13572615,0.24514833,-6.316201,6.7346883,0.62795436,-2.9478312,5.9999247,-5.9999986,0,0.012607460021972655,-0.2608606211344401,0.5063037300109863,0.36956968943277996,0.4175990488442,0.26877551762833113,0.8679693286793273,1.761766606724101,100.94179105237531,1
1.1800000000000008,12.002471492340815,-2.947831111364758,5.999924617435858,-5.999998750644429,8.921024,2.975315,-2.8148725,-1.2145851,4.53358,-4.945565,1.2512871,-0.90934205,0.28343776,0.11290169,0.28286836,-6.326553,6.8045864,0.62684935,-2.9478312,5.9999247,-5.9999986,0,0.012607460021972655,-0.2608606211344401,0.5063037300109863,0.36956968943277996,0.4175990488442,0.26877551762833113,0.8679693286793273,1.761766606724101,100.94179105237531,1
1.1900000000000008,12.002471492340815,-2.947831111364758,5.999924617435858,-5.999998750644429,8.921024,2.975315,-2.8148725,-1.2145851,4.470296,-4.877173,1.2575545,-0.8991515,0.28468135,0.089849524,0.32001787,-6.3289924,6.8737316,0.62679964,-2.9478312,5.9999247,-5.9999986,0,0.012607460021972655,-0.2608606211344401,0.5063037300109863,0.36956968943277996,0.4175990488442,0.26877551762833113,0.8679693286793273,1.761766606724101,100.94179105237531,1
1.2000000000000008,11.445855879248267,-1.3794902734485677,5.999974521727524,-5.9999983361116795,7.926545,2.6636124,-4.296568,-2.355222,4.407027,-4.808096,1.2638261,-0.8871474,0.28535077,0.06661614,0.35652193,-6.3235955,6.941428,0.6276385,-2.9478312,5.9999247,-5.9999986,0,-0.08400898933410644,-0.16933414459228516,0.45799550533294675,0.41533292770385744,0.675307041588384,-0.056478782224912844,0.7353710265842242,2.3930921327757524,137.11407919401142,1
1.2100000000000009,11.445855879248267,-1.3794902734485677,5.999974521727524,-5.9999983361116795,7.926545,2.6636124,-4.296568,-2.355222,4.3438463,-4.738368,1.2700877,-0.8756659,0.2785142,0.046048045,0.39181605,-6.3115683,7.003571,0.6248828,-1.3794903,5.9999747,-5.9999986,0,-0.08400898933410644,-0.16933414459228516,0.45799550533294675,0.41533292770385744,0.675307041588384,-0.056478782224912844,0.7353710265842242,2.3930921327757524,137.11407919401142,1
1.2200000000000009,11.445855879248267,-1.3794902734485677,5.999974521727524,-5.9999983361116795,7.926545,2.6636124,-4.296568,-2.355222,4.280816,-4.668037,1.2763286,-0.86256677,0.27116317,0.025394887,0.42638636,-6.2936554,7.062093,0.6234845,-1.3794903,5.9999747,-5.9999986,0,-0.08400898933410644,-0.16933414459228516,0.45799550533294675,0.41533292770385744,0.675307041588384,-0.056478782224912844,0.7353710265842242,2.3930921327757524,137.11407919401142,1
1.2300000000000009,11.445855879248267,-1.3794902734485677,5.999974521727524,-5.9999983361116795,7.926545,2.6636124,-4.296568,-2.355222,4.217993,-4.5971413,1.2825615,-0.8478742,0.26331118,0.004694821,0.46016902,-6.2701597,7.1164927,0.62328976,-1.3794903,5.9999747,-5.9999986,0,-0.08400898933410644,-0.16933414459228516,0.45799550533294675,0.41533292770385744,0.675307041588384,-0.056478782224912844,0.7353710265842242,2.3930921327757524,137.11407919401142,1
1.2400000000000009,11.445855879248267,-1.3794902734485677,5.999974521727524,-5.9999983361116795,6.356866,1.8631918,-2.8044002,-2.744122,4.1554313,-4.525723,1.288798,-0.8316154,0.2549728,-0.016013917,0.4931016,-6.241427,7.1663017,0.6241361,-1.3794903,5.9999747,-5.9999986,0,-0.08400898933410644,-0.16933414459228516,0.45799550533294675,0.41533292770385744,0.675307041588384,-0.056478782224912844,0.7353710265842242,2.3930921327757524,137.11407919401142,1
1.2500000000000009,11.445855879248267,-1.3794902734485677,5.999974521727524,-5.9999983361116795,6.356866,1.8631918,-2.8044002,-2.744122,4.093181,-4.4538317,1.2950474,-0.81382036,0.24616338,-0.036693074,0.5251233,-6.20784,7.2110834,0.625853,-1.3794903,5.9999747,-5.9999986,0,-0.08400898933410644,-0.16933414459228516,0.45799550533294675,0.41533292770385744,0.675307041588384,-0.056478782224912844,0.7353710265842242,2.3930921327757524,137.11407919401142,1
1.260000000000001,11.445855879248267,-1.3794902734485677,5.999974521727524,-5.9999983361116795,6.356866,1.8631918,-2.8044002,-2.744122,4.031289,-4.38152,1.3013176,-0.794522,0.23689926,-0.057304446,0.55617493,-6.169819,7.250438,0.62826395,-1.3794903,5.9999747,-5.9999986,0,-0.08400898933410644,-0.16933414459228516,0.45799550533294675,0.41533292770385744,0.675307041588384,-0.056478782224912844,0.7353710265842242,2.3930921327757524,137.11407919401142,1
1.270000000000001,11.445855879248267,-1.3794902734485677,5.999974521727524,-5.9999983361116795,6.356866,1.8631918,-2.8044002,-2.744122,3.969798,-4.308842,1.3076146,-0.77375597,0.2271975,-0.07780996,0.58619916,-6.1278143,7.2840075,0.6311869,-1.3794903,5.9999747,-5.9999986,0,-0.12996777534484863,0.09945966084798177,0.4350161123275757,0.5497298304239909,0.5414814018156138,-0.7185599191630624,0.4364281545227936,-3.087967354320498,-176.92749667674343,2
1.280000000000001,10.86010592895543,0.025709723056917037,5.496456993714954,-5.999997301384236,9.9323635,0.86511785,1.1631141,3.2511387,3.9087448,-4.2358594,1.3139424,-0.7515605,0.21707603,-0.098171726,0.61514056,-6.0823092,7.311475,0.6344362,-1.3794903,5.9999747,-5.9999986,0,-0.12996777534484863,0.09945966084798177,0.4350161123275757,0.5497298304239909,0.5414814018156138,-0.7185599191630624,0.4364281545227936,-3.087967354320498,-176.92749667674343,2
1.290000000000001,10.86010592895543,0.025709723056917037,5.496456993714954,-5.999997301384236,9.9323635,0.86511785,1.1631141,3.2511387,3.848148,-4.162639,1.3202784,-0.72982013,0.20284335,-0.11214986,0.6431488,-6.036838,7.331615,0.6328667,0.025709722,5.496457,-5.999997,0,-0.12996777534484863,0.09945966084798177,0.4350161123275757,0.5497298304239909,0.5414814018156138,-0.7185599191630624,0.4364281545227936,-3.087967354320498,-176.92749667674343,2
1.300000000000001,10.86010592895543,0.025709723056917037,5.496456993714954,-5.999997301384236,9.9323635,0.86511785,1.1631141,3.2511387,3.788011,-4.0892467,1.3266017,-0.70687175,0.18827493,-0.12594238,0.6700925,-5.990454,7.345891,0.63190633,0.025709722,5.496457,-5.999997,0,-0.12996777534484863,0.09945966084798177,0.4350161123275757,0.5497298304239909,0.5414814018156138,-0.7185599191630624,0.4364281545227936,-3.087967354320498,-176.92749667674343,2
1.310000000000001,10.86010592895543,0.025709723056917037,5.496456993714954,-5.999997301384236,9.9323635,0.86511785,1.1631141,3.2511387,3.7283404,-4.015742,1.332918,-0.68275356,0.17339492,-0.13952647,0.6959273,-5.943618,7.3542366,0.6314186,0.025709722,5.496457,-5.999997,0,-0.12996777534484863,0.09945966084798177,0.4350161123275757,0.5497298304239909,0.5414814018156138,-0.7185599191630624,0.4364281545227936,-3.087967354320498,-176.92749667674343,2
