time-since-start [s],throttle_mpc,roll_mpc,pitch_mpc,yaw_mpc,throttle_nw,roll_nw,pitch_nw,yaw_nw,position_x [m],position_y [m],position_z [m],rotation_w [quaternion],rotation_x [quaternion],rotation_y [quaternion],rotation_z [quaternion],velocity_x [m/s],velocity_y [m/s],velocity_z [m/s],omega_x [rad/s],omega_y [rad/s],omega_z [rad/s],network_used
0.0,10.847136648850945,5.999974380866391,-5.999999694697936,-0.4087543805148812,10.691619,1.2212992,-2.6265793,-0.5847643,16.577387,-10.622947,1.8996298,0.25891384,-0.35263568,0.26719597,0.858614,-8.715702,-0.7173131,-0.12364658,0.5041457,-0.3972897,0.29469863,0
0.01,10.847136648850945,5.999974380866391,-5.999999694697936,-0.4087543805148812,11.090864,1.3335031,-2.0339928,-0.39977676,16.489925,-10.629699,1.898302,0.2600947,-0.34806708,0.2702967,0.85915065,-8.776168,-0.63359207,-0.14236489,1.1350064,-1.0445926,0.28045392,0
0.02,10.847136648850945,5.999974380866391,-5.999999694697936,-0.4087543805148812,11.090864,1.3335031,-2.0339928,-0.39977676,16.401876,-10.635626,1.8967742,0.2632239,-0.34003827,0.27514863,0.85987234,-8.832795,-0.55235094,-0.16352306,1.7179456,-1.6414592,0.26239273,0
0.03,10.847136648850945,5.999974380866391,-5.999999694697936,-0.4087543805148812,11.090864,1.3335031,-2.0339928,-0.39977676,16.313284,-10.640753,1.8950247,0.26814228,-0.328783,0.28158283,0.86064667,-8.884912,-0.47314325,-0.18667038,2.2572358,-2.1925561,0.24098848,0
0.04,10.847136648850945,5.999974380866391,-5.999999694697936,-0.4087543805148812,10.935118,1.9259278,-3.5219722,-0.4317516,16.224194,-10.645096,1.8930353,0.27469128,-0.3145011,0.28943184,0.8613148,-8.931962,-0.3956275,-0.21146779,2.7567568,-2.702095,0.21666709,0
0.05,10.847136648850945,5.999974380866391,-5.999999694697936,-0.4087543805148812,10.935118,1.9259278,-3.5219722,-0.4317516,16.134663,-10.64867,1.8907906,0.28271362,-0.29736623,0.29853034,0.86169964,-8.973484,-0.31956282,-0.23768003,3.2200315,-3.1738775,0.18981135,0
0.060000000000000005,10.847136648850945,5.999974380866391,-5.999999694697936,-0.4087543805148812,10.935118,1.9259278,-3.5219722,-0.4317516,16.044744,-10.651491,1.8882775,0.29205176,-0.27753505,0.30871418,0.8616124,-9.009175,-0.24461289,-0.26498756,3.6472213,-3.6082976,0.16102588,0
0.07,10.847136648850945,5.999974380866391,-5.999999694697936,-0.4087543805148812,10.935118,1.9259278,-3.5219722,-0.4317516,15.954497,-10.65356,1.8854939,0.3024987,-0.2552398,0.31977996,0.8608648,-9.039429,-0.16887198,-0.2915931,4.0140986,-3.981316,0.1330666,0
0.08,12.452885653721411,5.519630989689718,-5.999999716800846,-0.4523844906018089,12.394928,1.2386866,-4.3271194,-0.7151515,15.8639765,-10.654864,1.8824492,0.31380096,-0.2307979,0.33148932,0.85928833,-9.06382,-0.09199746,-0.31717902,4.323748,-4.2961764,0.10647929,0
0.09,12.452885653721411,5.519630989689718,-5.999999716800846,-0.4523844906018089,12.394928,1.2386866,-4.3271194,-0.7151515,15.773229,-10.655338,1.8792073,0.32569513,-0.2045579,0.3434654,0.8568025,-9.084456,-0.0026500747,-0.33105376,4.5101824,-4.561954,0.079055674,0
0.09999999999999999,12.452885653721411,5.519630989689718,-5.999999716800846,-0.4523844906018089,12.394928,1.2386866,-4.3271194,-0.7151515,15.682313,-10.654914,1.8758307,0.3379643,-0.17682756,0.3553978,0.85334915,-9.097231,0.08746681,-0.34419465,4.6675353,-4.786288,0.052977744,0
0.10999999999999999,12.452885653721411,5.519630989689718,-5.999999716800846,-0.4523844906018089,12.394928,1.2386866,-4.3271194,-0.7151515,15.591311,-10.653586,1.872325,0.35045934,-0.14782053,0.36718002,0.84882647,-9.1017475,0.17796022,-0.3568989,4.8003454,-4.9756384,0.028179474,0
0.11999999999999998,12.452885653721411,5.519630989689718,-5.999999716800846,-0.4523844906018089,12.394928,1.2386866,-4.3271194,-0.7151515,15.500308,-10.651355,1.8686929,0.3630486,-0.11772863,0.3787194,0.84315336,-9.097694,0.26839203,-0.3695169,4.9124417,-5.1354604,0.004598062,0
0.12999999999999998,15.325390751247252,2.892696717228083,-5.999999563498962,0.12463528722474933,12.908082,-0.38799426,-2.5252688,-0.7125005,15.409388,-10.648221,1.8649334,0.37561586,-0.08672521,0.3899354,0.8362668,-9.0848465,0.3582882,-0.38244152,5.0070558,-5.2703576,-0.017826209,0
0.13999999999999999,15.325390751247252,2.892696717228083,-5.999999563498962,0.12463528722474933,12.908082,-0.38799426,-2.5252688,-0.7125005,15.318665,-10.644091,1.861139,0.387925,-0.055340312,0.39989433,0.82857496,-9.058092,0.46761674,-0.37657657,4.6773458,-5.3841195,-0.010835578,0
0.15,15.325390751247252,2.892696717228083,-5.999999563498962,0.12463528722474933,12.908082,-0.38799426,-2.5252688,-0.7125005,15.228263,-10.638877,1.857398,0.39983603,-0.024025206,0.40788677,0.82047707,-9.020648,0.57483506,-0.37181854,4.399054,-5.480144,-0.0041879956,0
0.16,16.610297156054777,-0.05233974689677285,-5.9999989391172495,0.7477394947262583,12.593239,-1.9124254,-2.1084425,-0.6546004,15.138287,-10.632605,1.8536983,0.41137475,0.00718411,0.4141493,0.8119112,-8.9728985,0.6791502,-0.36835048,4.164161,-5.5611973,0.0021334032,0
0.17,16.610297156054777,-0.05233974689677285,-5.9999989391172495,0.7477394947262583,12.593239,-1.9124254,-2.1084425,-0.6546004,15.048861,-10.625264,1.8500681,0.42251736,0.0377996,0.4179331,0.803357,-8.9104595,0.78826046,-0.35793096,3.5067346,-5.6295447,0.038720526,0
0.18000000000000002,16.610297156054777,-0.05233974689677285,-5.9999989391172495,0.7477394947262583,12.593239,-1.9124254,-2.1084425,-0.6546004,14.96011,-10.616857,1.846535,0.43329373,0.06742449,0.4186867,0.7952435,-8.838145,0.89255506,-0.34891298,2.9518294,-5.6872635,0.0735123,0
0.19000000000000003,16.610297156054777,-0.05233974689677285,-5.9999989391172495,0.7477394947262583,12.593239,-1.9124254,-2.1084425,-0.6546004,14.8721285,-10.607433,1.8430859,0.44377056,0.0961575,0.416853,0.7874359,-8.756808,0.9912479,-0.34106258,2.4834569,-5.7360024,0.10659683,0
0.20000000000000004,16.126722790433266,-2.1863835210027913,-4.447818792216172,0.8476420151832158,12.695691,-2.9285686,-0.98374605,-0.5183473,14.785002,-10.597054,1.8397101,0.453985,0.124085136,0.41279978,0.77980584,-8.667223,1.0836692,-0.3342122,2.0881221,-5.7771564,0.13805789,0
0.21000000000000005,16.126722790433266,-2.1863835210027913,-4.447818792216172,0.8476420151832158,12.695691,-2.9285686,-0.98374605,-0.5183473,14.698795,-10.585796,1.8363833,0.46380958,0.1504159,0.40645877,0.7726884,-8.572991,1.1667733,-0.3312491,1.4216236,-5.5698743,0.17287737,0
0.22000000000000006,16.126722790433266,-2.1863835210027913,-4.447818792216172,0.8476420151832158,12.695691,-2.9285686,-0.98374605,-0.5183473,14.613564,-10.573743,1.8330833,0.473189,0.17453341,0.39782712,0.76639694,-8.472536,1.2429246,-0.32879916,0.85905397,-5.394934,0.20598826,0
0.23000000000000007,16.126722790433266,-2.1863835210027913,-4.447818792216172,0.8476420151832158,12.695691,-2.9285686,-0.98374605,-0.5183473,14.529364,-10.560964,1.8298067,0.48221952,0.19674414,0.38726598,0.76077694,-8.366867,1.3119102,-0.326519,0.3842076,-5.2472873,0.23747438,0
0.24000000000000007,16.126722790433266,-2.1863835210027913,-4.447818792216172,0.8476420151832158,12.59806,-4.3151517,1.5656439,-0.5102328,14.446242,-10.547531,1.8265532,0.49096316,0.21730836,0.37507075,0.7556815,-8.256856,1.3735638,-0.3241301,-0.016593672,-5.122672,0.2674155,0
0.25000000000000006,16.126722790433266,-2.1863835210027913,-4.447818792216172,0.8476420151832158,12.59806,-4.3151517,1.5656439,-0.5102328,14.364239,-10.533519,1.8233252,0.49945727,0.23644641,0.36148444,0.75097597,-8.143266,1.4277512,-0.32141867,-0.35489616,-5.017494,0.29588738,0
0.26000000000000006,16.126722790433266,-2.1863835210027913,-4.447818792216172,0.8476420151832158,12.59806,-4.3151517,1.5656439,-0.5102328,14.283387,-10.519002,1.8201264,0.50772166,0.2543443,0.34670836,0.7465396,-8.026772,1.474362,-0.31823286,-0.6404456,-4.9287195,0.32296214,0
0.2700000000000001,16.126722790433266,-2.1863835210027913,-4.447818792216172,0.8476420151832158,12.59806,-4.3151517,1.5656439,-0.5102328,14.2037115,-10.504058,1.8169622,0.515764,0.27115875,0.33091,0.74226636,-7.907981,1.5133051,-0.31447825,-0.881468,-4.853789,0.34870833,0
0.2800000000000001,14.975897743959175,-4.004029398679958,0.5131608474424885,1.2407027716625307,12.701699,-4.8724413,5.7567115,0.11432813,14.125234,-10.488763,1.8138388,0.5235835,0.28702152,0.31422982,0.7380643,-7.787442,1.5445056,-0.31011263,-1.0849067,-4.7905416,0.37319115,0
0.2900000000000001,14.975897743959175,-4.004029398679958,0.5131608474424885,1.2407027716625307,12.701699,-4.8724413,5.7567115,0.11432813,14.047925,-10.473203,1.8107256,0.5307517,0.30022082,0.2972883,0.7347041,-7.6744146,1.5663489,-0.31244382,-1.5402321,-3.9635854,0.4157602,0
0.3000000000000001,14.975897743959175,-4.004029398679958,0.5131608474424885,1.2407027716625307,12.701699,-4.8724413,5.7567115,0.11432813,13.971747,-10.457458,1.8075933,0.5370174,0.30943722,0.28062576,0.7328781,-7.5611277,1.5817792,-0.31383365,-1.9245616,-3.2655935,0.45624036,0
0.3100000000000001,14.975897743959175,-4.004029398679958,0.5131608474424885,1.2407027716625307,12.701699,-4.8724413,5.7567115,0.11432813,13.896701,-10.4415865,1.8044536,0.54258466,0.31529304,0.26422638,0.73237747,-7.448376,1.591638,-0.31387627,-2.2489605,-2.6764512,0.49473414,0
0.3200000000000001,14.228006188208822,-4.985351919500657,5.999997145388139,1.5679450872289762,11.850479,-5.956643,5.6132154,-0.5821849,13.822777,-10.425641,1.8013216,0.5475968,0.31830534,0.24806172,0.7329973,-7.3368077,1.5966384,-0.31221107,-2.52277,-2.179181,0.531339,0
0.3300000000000001,14.228006188208822,-4.985351919500657,5.999997145388139,1.5679450872289762,11.850479,-5.956643,5.6132154,-0.5821849,13.749931,-10.409668,1.7981911,0.5517202,0.31709084,0.23300418,0.7353689,-7.2324905,1.5974699,-0.31356746,-2.907217,-0.90387154,0.58220553,0
0.34000000000000014,14.228006188208822,-4.985351919500657,5.999997145388139,1.5679450872289762,11.850479,-5.956643,5.6132154,-0.5821849,13.678118,-10.393702,1.795059,0.5547153,0.31056646,0.2197454,0.7399672,-7.130572,1.5956948,-0.3124124,-3.2317123,0.17255875,0.6305761,0
0.35000000000000014,14.228006188208822,-4.985351919500657,5.999997145388139,1.5679450872289762,11.850479,-5.956643,5.6132154,-0.5821849,13.607309,-10.37776,1.7919533,0.556756,0.29951704,0.20799442,0.7463583,-7.0317597,1.5926598,-0.3081959,-3.5055954,1.0811276,0.67657304,0
0.36000000000000015,13.264344294398358,-5.999962197345206,5.99999967146646,0.038317082233375675,11.35687,-6.175853,5.568015,-1.5002427,13.53747,-10.361849,1.7889069,0.5579409,0.28458977,0.19748987,0.7541275,-6.936699,1.5894889,-0.30049118,-3.7367523,1.848015,0.72031295,0
0.37000000000000016,13.264344294398358,-5.999962197345206,5.99999967146646,0.038317082233375675,11.35687,-6.175853,5.568015,-1.5002427,13.468529,-10.345965,1.7859194,0.5585734,0.26605996,0.18774739,0.76286215,-6.8521647,1.5872694,-0.29641184,-4.0899487,2.4954376,0.6868472,0
0.38000000000000017,13.264344294398358,-5.999962197345206,5.99999967146646,0.038317082233375675,11.35687,-6.175853,5.568015,-1.5002427,13.40041,-10.330098,1.7829916,0.5588761,0.2441658,0.17836304,0.77215743,-6.7723975,1.5864608,-0.2885528,-4.387996,3.0419295,0.6550236,0
0.3900000000000002,13.264344294398358,-5.999962197345206,5.99999967146646,0.038317082233375675,11.35687,-6.175853,5.568015,-1.5002427,13.333062,-10.31423,1.7801619,0.55878085,0.21936163,0.16923453,0.7816674,-6.698092,1.5876033,-0.27680066,-4.6395097,3.503223,0.6247616,0
0.4000000000000002,13.953440085771378,-5.579372746296798,5.999999763128707,-0.5503608786896178,13.329221,-5.907223,5.550538,-1.0218699,13.266427,-10.298337,1.7774689,0.55821866,0.19204155,0.16027579,0.7910901,-6.6299186,1.5911359,-0.26119357,-4.851757,3.8925982,0.5959846,1
0.4100000000000002,13.953440085771378,-5.579372746296798,5.999999763128707,-0.5503608786896178,13.329221,-5.907223,5.550538,-1.0218699,13.200441,-10.282396,1.7749535,0.55725104,0.16269447,0.15136978,0.8000555,-6.568211,1.5974293,-0.24133666,-5.0162425,4.151348,0.51659596,1
0.4200000000000002,13.953440085771378,-5.579372746296798,5.999999763128707,-0.5503608786896178,13.329221,-5.907223,5.550538,-1.0218699,13.135036,-10.266378,1.7726538,0.5559425,0.1317425,0.14242385,0.8082618,-6.51387,1.6066774,-0.21810141,-5.1550493,4.369757,0.44110298,1
0.4300000000000002,13.953440085771378,-5.579372746296798,5.999999763128707,-0.5503608786896178,13.329221,-5.907223,5.550538,-1.0218699,13.070136,-10.250253,1.7706016,0.5542358,0.09942101,0.13340613,0.8155616,-6.4674034,1.6190163,-0.1919077,-5.2721906,4.5541115,0.3693145,1
0.4400000000000002,13.953440085771378,-5.579372746296798,5.999999763128707,-0.5503608786896178,15.468448,-5.103061,5.685643,-1.623613,13.00566,-10.233988,1.7688241,0.5520814,0.06594238,0.12429191,0.8218327,-6.4292665,1.6345325,-0.16326088,-5.3710513,4.7097187,0.30104867,0
0.45000000000000023,13.953440085771378,-5.579372746296798,5.999999763128707,-0.5503608786896178,15.468448,-5.103061,5.685643,-1.623613,12.941528,-10.217547,1.7673728,0.5493594,0.031430695,0.11526631,0.8270005,-6.3984747,1.6541592,-0.12671846,-5.403445,4.911078,0.25926977,0
0.46000000000000024,13.953440085771378,-5.579372746296798,5.999999763128707,-0.5503608786896178,15.468448,-5.103061,5.685643,-1.623613,12.877658,-10.200893,1.7662941,0.54597086,-0.003993612,0.10647912,0.83100045,-6.377141,1.6772581,-0.088903375,-5.430778,5.081031,0.21954095,0
0.47000000000000025,13.953440085771378,-5.579372746296798,5.999999763128707,-0.5503608786896178,15.468448,-5.103061,5.685643,-1.623613,12.813953,-10.183991,1.7655967,0.5419043,-0.04015079,0.097866364,0.8337562,-6.3655195,1.703888,-0.050558805,-5.4538436,5.224475,0.18176164,0
0.48000000000000026,15.772327945136448,-3.5648290991496894,5.999999707642476,0.19252130914872048,16.058586,-3.7609124,6.277704,-1.4167461,12.750315,-10.166805,1.7652822,0.5371496,-0.07687593,0.08937587,0.8352077,-6.3637953,1.7340524,-0.012466962,-5.473309,5.345544,0.1458362,0
0.49000000000000027,15.772327945136448,-3.5648290991496894,5.999999707642476,0.19252130914872048,16.058586,-3.7609124,6.277704,-1.4167461,12.68664,-10.149277,1.765432,0.5317013,-0.11357891,0.08164805,0.8353004,-6.3731084,1.7721144,0.042174526,-5.1757,5.4476266,0.14812706,0
0.5000000000000002,15.772327945136448,-3.5648290991496894,5.999999707642476,0.19252130914872048,16.058586,-3.7609124,6.277704,-1.4167461,12.622815,-10.131348,1.7661184,0.5256078,-0.14978495,0.07519898,0.8340537,-6.393389,1.8141962,0.09468528,-4.924502,5.533786,0.1503055,0
0.5100000000000002,15.772327945136448,-3.5648290991496894,5.999999707642476,0.19252130914872048,16.058586,-3.7609124,6.277704,-1.4167461,12.558736,-10.112979,1.7673154,0.5189257,-0.18550783,0.06982008,0.8315213,-6.4242206,1.8603402,0.14418678,-4.7124767,5.6065063,0.15237704,0
0.5200000000000002,17.39967296947366,-1.1972493105571014,5.999999492660002,0.7150938708451909,17.50892,-1.4887826,5.927016,-0.41773874,12.494297,-10.094128,1.768989,0.51169515,-0.22075312,0.06533381,0.8277482,-6.465183,1.9105307,0.18985483,-4.5335155,5.667884,0.15434694,0
0.5300000000000002,17.39967296947366,-1.1972493105571014,5.999999492660002,0.7150938708451909,17.50892,-1.4887826,5.927016,-0.41773874,12.429374,-10.074727,1.771169,0.50411814,-0.2550361,0.062387794,0.8227568,-6.5210133,1.970323,0.24528202,-4.0133348,5.7196565,0.18186295,0
0.5400000000000003,17.39967296947366,-1.1972493105571014,5.999999492660002,0.7150938708451909,17.50892,-1.4887826,5.927016,-0.41773874,12.363843,-10.054706,1.7738748,0.49640664,-0.28798845,0.061488282,0.8166161,-6.5865903,2.03465,0.29491594,-3.5742712,5.763367,0.20802873,0
0.5500000000000003,17.39967296947366,-1.1972493105571014,5.999999492660002,0.7150938708451909,17.50892,-1.4887826,5.927016,-0.41773874,12.297611,-10.0340185,1.7770454,0.48858595,-0.31976277,0.06230375,0.8094155,-6.6609707,2.1036296,0.33814394,-3.203675,5.8002677,0.23291057,0
0.5600000000000003,17.90935900441045,0.928733209845875,5.9999982544086325,0.8500935549756156,18.685884,1.268024,5.0447736,-0.016792916,12.230597,-10.012617,1.7806138,0.4806623,-0.3504822,0.06455231,0.8012233,-6.7432995,2.1773124,0.37442183,-2.8908687,5.8314185,0.25657147,1
0.5700000000000003,17.90935900441045,0.928733209845875,5.9999982544086325,0.8500935549756156,18.685884,1.268024,5.0447736,-0.016792916,12.162688,-9.990427,1.7845556,0.47309002,-0.3794804,0.06856838,0.7921355,-6.8393345,2.2615035,0.41268286,-2.2422214,5.70887,0.24315739,1
0.5800000000000003,17.90935900441045,0.928733209845875,5.9999982544086325,0.8500935549756156,18.685884,1.268024,5.0447736,-0.016792916,12.093787,-9.967369,1.7888393,0.46629035,-0.4062661,0.07459198,0.7822768,-6.9417295,2.3508427,0.44280162,-1.6947373,5.6054053,0.23040156,1
0.5900000000000003,17.90935900441045,0.928733209845875,5.9999982544086325,0.8500935549756156,18.685884,1.268024,5.0447736,-0.016792916,12.023836,-9.943392,1.7933832,0.4601942,-0.43115982,0.08227462,0.771721,-7.049245,2.4454217,0.46471143,-1.2326396,5.5180545,0.21827161,1
0.6000000000000003,17.11971424848402,2.423573195595008,3.9117139072863205,0.9215195135448073,17.591827,2.616451,5.0370927,-0.22705622,11.952788,-9.918442,1.7981051,0.4547223,-0.45442417,0.09132164,0.7605173,-7.1608057,2.5452893,0.47836286,-0.8426111,5.4443083,0.20673692,0
0.6100000000000003,17.11971424848402,2.423573195595008,3.9117139072863205,0.9215195135448073,17.591827,2.616451,5.0370927,-0.22705622,11.880657,-9.89251,1.8028781,0.4499643,-0.47571462,0.1016829,0.7489246,-7.265826,2.641636,0.4750776,-0.33333874,5.205362,0.2418115,0
0.6200000000000003,17.11971424848402,2.423573195595008,3.9117139072863205,0.9215195135448073,17.591827,2.616451,5.0370927,-0.22705622,11.807465,-9.865593,1.8075813,0.44599468,-0.49478477,0.11331639,0.7371811,-7.3726883,2.7428021,0.46443197,0.09652291,5.0036874,0.275165,0
0.6300000000000003,17.11971424848402,2.423573195595008,3.9117139072863205,0.9215195135448073,17.591827,2.616451,5.0370927,-0.22705622,11.733199,-9.837639,1.8121423,0.44270617,-0.5119589,0.12600338,0.7252808,-7.4804993,2.8487415,0.44668373,0.45935544,4.8334684,0.30688182,0
0.6400000000000003,17.11971424848402,2.423573195595008,3.9117139072863205,0.9215195135448073,16.059973,3.0303302,4.8279586,0.12343243,11.657854,-9.808602,1.8164912,0.43999496,-0.5275031,0.13955915,0.7132097,-7.588494,2.959388,0.42205197,0.76561064,4.689797,0.33704227,0
0.6500000000000004,17.11971424848402,2.423573195595008,3.9117139072863205,0.9215195135448073,16.059973,3.0303302,4.8279586,0.12343243,11.581431,-9.778436,1.8205603,0.43776318,-0.5416357,0.15382752,0.7009502,-7.6960087,3.074654,0.39071736,1.02411,4.568531,0.36572272,0
0.6600000000000004,17.11971424848402,2.423573195595008,3.9117139072863205,0.9215195135448073,16.059973,3.0303302,4.8279586,0.12343243,11.503938,-9.747094,1.8242831,0.43592083,-0.5545361,0.16867636,0.68848455,-7.8024626,3.1944284,0.35282534,1.2423005,4.466175,0.3929958,0
0.6700000000000004,17.11971424848402,2.423573195595008,3.9117139072863205,0.9215195135448073,16.059973,3.0303302,4.8279586,0.12343243,11.425388,-9.714533,1.8275946,0.4343862,-0.56635207,0.18399364,0.675796,-7.907345,3.318576,0.30849025,1.4264673,4.3797784,0.4189306,0
0.6800000000000004,15.919105694961702,3.0671926788784516,-0.3324000758137152,1.205990004853689,15.5989275,2.5974138,0.6703021,0.76029485,11.3457985,-9.680709,1.8304311,0.4330861,-0.577205,0.1996842,0.6628702,-8.0102,3.4469378,0.25780004,1.581916,4.306852,0.44359276,0
0.6900000000000004,15.919105694961702,3.0671926788784516,-0.3324000758137152,1.205990004853689,15.5989275,2.5974138,0.6703021,0.76029485,11.265227,-9.645626,1.8327146,0.43243915,-0.5859703,0.21512692,0.6506578,-8.103571,3.5700185,0.19805527,1.8136644,3.583474,0.48100376,0
0.7000000000000004,15.919105694961702,3.0671926788784516,-0.3324000758137152,1.205990004853689,15.5989275,2.5974138,0.6703021,0.76029485,11.183737,-9.609296,1.8343753,0.43283334,-0.5918272,0.22984286,0.63997495,-8.194293,3.6964655,0.1334138,2.0092728,2.972903,0.51657903,0
0.7100000000000004,15.919105694961702,3.0671926788784516,-0.3324000758137152,1.205990004853689,15.5989275,2.5974138,0.6703021,0.76029485,11.101352,-9.571686,1.8353693,0.43414965,-0.5952606,0.24394596,0.6306101,-8.282056,3.8259501,0.06482322,2.1743734,2.457546,0.55040866,0
0.7200000000000004,15.185909346586712,2.942148424129292,-5.3464011551746236,1.5022545205483975,15.089871,2.4574506,-4.686784,1.0502944,11.018106,-9.532766,1.8356612,0.43627015,-0.59666276,0.25752935,0.62236685,-8.366613,3.958217,-0.006911177,2.313721,2.0225534,0.58257824,1
0.7300000000000004,15.185909346586712,2.942148424129292,-5.3464011551746236,1.5022545205483975,15.089871,2.4574506,-4.686784,1.0502944,10.934053,-9.492547,1.8352166,0.4394103,-0.59539,0.26974812,0.6161698,-8.443564,4.086003,-0.082244255,2.3365169,0.97627956,0.6055292,1
0.7400000000000004,15.185909346586712,2.942148424129292,-5.3464011551746236,1.5022545205483975,15.089871,2.4574506,-4.686784,1.0502944,10.849246,-9.451039,1.8340131,0.44376326,-0.5909703,0.27993655,0.612751,-8.517325,4.2158217,-0.15852876,2.3557224,0.09316896,0.62735397,1
0.7500000000000004,15.185909346586712,2.942148424129292,-5.3464011551746236,1.5022545205483975,15.089871,2.4574506,-4.686784,1.0502944,10.763718,-9.408225,1.8320475,0.44917136,-0.58390194,0.28839713,0.61166215,-8.5879545,4.347313,-0.23446923,2.3718994,-0.65222347,0.6481077,1
0.7600000000000005,14.904499276046462,2.4630391966150493,-5.999999149838697,1.321802785398762,14.439331,2.472556,-6.0526905,1.0543847,10.677499,-9.364088,1.8293289,0.45547518,-0.57457805,0.2953754,0.6124996,-8.65549,4.480172,-0.30897528,2.3855224,-1.2813743,0.6678431,1
0.7700000000000005,14.904499276046462,2.4630391966150493,-5.999999149838697,1.321802785398762,14.439331,2.472556,-6.0526905,1.0543847,10.590633,-9.318647,1.8258708,0.4626791,-0.56298524,0.3008345,0.61520255,-8.717163,4.6083384,-0.3822196,2.3994398,-2.0172057,0.68681085,1
0.7800000000000005,14.904499276046462,2.4630391966150493,-5.999999149838697,1.321802785398762,14.439331,2.472556,-6.0526905,1.0543847,10.503165,-9.27192,1.8216956,0.47075984,-0.54910743,0.3047417,0.61967623,-8.775871,4.7372284,-0.4522424,2.4111507,-2.6382868,0.7048478,1
0.7900000000000005,14.904499276046462,2.4630391966150493,-5.999999149838697,1.321802785398762,14.439331,2.472556,-6.0526905,1.0543847,10.415125,-9.223902,1.8168399,0.4795292,-0.5332252,0.30728504,0.6255385,-8.831566,4.8665047,-0.51820165,2.4210026,-3.1625125,0.7219997,1
0.8000000000000005,15.04404821720391,1.9224197986895106,-5.999999591235719,0.8804719830106066,13.87717,2.4523787,-5.654836,0.6935486,10.326545,-9.17459,1.811348,0.48881453,-0.5155694,0.30861968,0.6324573,-8.884158,4.99581,-0.5794121,2.4292884,-3.6049871,0.7383099,0
0.8100000000000005,15.04404821720391,1.9224197986895106,-5.999999591235719,0.8804719830106066,13.87717,2.4523787,-5.654836,0.6935486,10.237442,-9.1239605,1.8052785,0.49836197,-0.49644926,0.3087249,0.64020485,-8.935612,5.13016,-0.63356316,2.35044,-3.9785151,0.7452859,0
0.8200000000000005,15.04404821720391,1.9224197986895106,-5.999999591235719,0.8804719830106066,13.87717,2.4523787,-5.654836,0.6935486,10.147843,-9.071991,1.7986971,0.5079648,-0.47612816,0.30759013,0.64858454,-8.983665,5.263688,-0.6817703,2.283862,-4.293787,0.75191957,0
0.8300000000000005,15.04404821720391,1.9224197986895106,-5.999999591235719,0.8804719830106066,13.87717,2.4523787,-5.654836,0.6935486,10.057781,-9.018691,1.7916647,0.51753926,-0.4547246,0.3053499,0.65737355,-9.028258,5.395924,-0.7237187,2.2276442,-4.559888,0.75822765,0
0.8400000000000005,15.04404821720391,1.9224197986895106,-5.999999591235719,0.8804719830106066,14.137112,1.8896692,-5.8976116,0.51279914,9.967291,-8.964078,1.7842451,0.527009,-0.43234223,0.3021198,0.6663822,-9.069304,5.5263886,-0.75919354,2.180174,-4.7844877,0.7642262,1
0.8500000000000005,15.04404821720391,1.9224197986895106,-5.999999591235719,0.8804719830106066,14.137112,1.8896692,-5.8976116,0.51279914,9.876419,-8.90821,1.776483,0.5363181,-0.40912163,0.2979935,0.6754126,-9.104442,5.6468697,-0.7922467,2.1349168,-4.9581184,0.75188863,1
0.8600000000000005,15.04404821720391,1.9224197986895106,-5.999999591235719,0.8804719830106066,14.137112,1.8896692,-5.8976116,0.51279914,9.7852125,-8.851149,1.7684215,0.5454225,-0.38518786,0.2930528,0.68429863,-9.136039,5.7647834,-0.819079,2.0967035,-5.104667,0.7401564,1
0.8700000000000006,15.04404821720391,1.9224197986895106,-5.999999591235719,0.8804719830106066,14.137112,1.8896692,-5.8976116,0.51279914,9.69371,-8.792924,1.7601227,0.5542732,-0.36060736,0.28737533,0.692935,-9.163987,5.8796864,-0.8397381,2.0644379,-5.228357,0.729,1
0.8800000000000006,15.722808072719738,1.0997786649765433,-5.999999419234918,0.9424100130568479,14.770924,1.1827863,-6.089498,0.4839459,9.601946,-8.733567,1.7516476,0.5628265,-0.33544126,0.2810296,0.701233,-9.188174,5.9911423,-0.8543314,2.0371954,-5.3327537,0.71839094,1
0.8900000000000006,15.722808072719738,1.0997786649765433,-5.999999419234918,0.9424100130568479,14.770924,1.1827863,-6.089498,0.4839459,9.509955,-8.67309,1.7430762,0.5709654,-0.30987862,0.2738529,0.7092095,-9.209421,6.1035404,-0.85900986,1.9039587,-5.436887,0.70688665,1
0.9000000000000006,15.722808072719738,1.0997786649765433,-5.999999419234918,0.9424100130568479,14.770924,1.1827863,-6.089498,0.4839459,9.417772,-8.611512,1.734488,0.5786043,-0.2840807,0.2657205,0.71687365,-9.226653,6.2114153,-0.8577201,1.7914932,-5.524769,0.6959468,1
0.9100000000000006,15.722808072719738,1.0997786649765433,-5.999999419234918,0.9424100130568479,14.770924,1.1827863,-6.089498,0.4839459,9.325437,-8.54888,1.7259415,0.5857466,-0.25806358,0.25674117,0.72414637,-9.239908,6.3143106,-0.8507054,1.6965612,-5.598935,0.6855439,1
0.9200000000000006,16.32354678842254,0.29317992386530484,-5.999998986802677,0.8363999625400282,14.798311,0.3879913,-5.9188685,0.43401378,9.232988,-8.485245,1.7174927,0.5923924,-0.23184448,0.24701032,0.73096186,-9.249208,6.411796,-0.8382512,1.6164299,-5.6615276,0.6756514,0
0.9300000000000006,16.32354678842254,0.29317992386530484,-5.999998986802677,0.8363999625400282,14.798311,0.3879913,-5.9188685,0.43401378,9.140464,-8.420615,1.7092546,0.5984284,-0.20564292,0.23636086,0.737379,-9.255161,6.5131,-0.80852044,1.4101224,-5.7143955,0.68353933,0
0.9400000000000006,16.32354678842254,0.29317992386530484,-5.999998986802677,0.8363999625400282,14.798311,0.3879913,-5.9188685,0.43401378,9.0479,-8.355006,1.7013406,0.6037725,-0.17964017,0.2246669,0.7434466,-9.2569685,6.607532,-0.7735115,1.235984,-5.7590065,0.6910402,0
0.9500000000000006,16.32354678842254,0.29317992386530484,-5.999998986802677,0.8363999625400282,14.798311,0.3879913,-5.9188685,0.43401378,8.9553385,-8.288489,1.6938012,0.60846007,-0.15380219,0.2120628,0.7490997,-9.254836,6.6946783,-0.73362756,1.0889982,-5.7966504,0.69817305,0
0.9600000000000006,16.133494057664887,-0.21857725753394358,-5.999993049708057,0.6827355702794692,16.62304,-0.50463134,-5.9867997,0.9396146,8.862817,-8.221139,1.6866833,0.61251736,-0.12810281,0.19866545,0.7542837,-9.248937,6.774165,-0.68929976,0.964931,-5.8284144,0.7049559,1
0.9700000000000006,16.133494057664887,-0.21857725753394358,-5.999993049708057,0.6827355702794692,16.62304,-0.50463134,-5.9867997,0.9396146,8.770372,-8.153027,1.6800424,0.61591494,-0.10272023,0.18434037,0.75902283,-9.239269,6.846964,-0.6382962,0.7358089,-5.8532143,0.7164706,1
0.9800000000000006,16.133494057664887,-0.21857725753394358,-5.999993049708057,0.6827355702794692,16.62304,-0.50463134,-5.9867997,0.9396146,8.678042,-8.084228,1.6739299,0.6186381,-0.077798985,0.16898835,0.7633327,-9.226226,6.9112883,-0.5836963,0.5424146,-5.874133,0.7274204,1
0.9900000000000007,16.133494057664887,-0.21857725753394358,-5.999993049708057,0.6827355702794692,16.62304,-0.50463134,-5.9867997,0.9396146,8.585859,-8.01483,1.6683792,0.6207205,-0.053276774,0.15275288,0.76715964,-9.210098,6.9668446,-0.525981,0.37917665,-5.891778,0.7378328,1
1.0000000000000007,15.01741658178423,-0.5773099722872402,-2.867762490367132,0.5651495123914017,15.148056,-0.52112514,-3.9905777,1.3382264,8.493851,-7.9449215,1.6634191,0.62218654,-0.029103402,0.1357587,0.77045846,-9.191138,7.01338,-0.46565145,0.24139237,-5.906661,0.74773425,0
1.0100000000000007,15.01741658178423,-0.5773099722872402,-2.867762490367132,0.5651495123914017,15.148056,-0.52112514,-3.9905777,1.3382264,8.402034,-7.874613,1.658996,0.6229413,-0.006226972,0.11887078,0.773159,-9.171667,7.0471587,-0.41874692,0.11345367,-5.43281,0.7387747,0
1.0200000000000007,15.01741658178423,-0.5773099722872402,-2.867762490367132,0.5651495123914017,15.148056,-0.52112514,-3.9905777,1.3382264,8.310424,-7.8040056,1.6550488,0.62299544,0.014598058,0.1027953,0.7753041,-9.15016,7.0730524,-0.3705107,0.005509086,-5.0328445,0.7302549,0
1.0300000000000007,15.01741658178423,-0.5773099722872402,-2.867762490367132,0.5651495123914017,15.148056,-0.52112514,-3.9905777,1.3382264,8.219038,-7.7331767,1.6515887,0.62249464,0.033674262,0.08741472,0.7769973,-9.126919,7.091561,-0.32141927,-0.08556664,-4.6952443,0.7221531,0
1.0400000000000007,15.01741658178423,-0.5773099722872402,-2.867762490367132,0.5651495123914017,14.534612,-0.6210629,-1.6327373,1.2102199,8.127891,-7.662198,1.648622,0.62154967,0.05126102,0.07262702,0.7783144,-9.102199,7.103124,-0.27185833,-0.16240986,-4.410285,0.7144489,0
1.0500000000000007,15.01741658178423,-0.5773099722872402,-2.867762490367132,0.5651495123914017,14.534612,-0.6210629,-1.6327373,1.2102199,8.036998,-7.591137,1.646152,0.62024474,0.06757981,0.058344375,0.7793106,-9.076215,7.108128,-0.22214514,-0.22724518,-4.1697583,0.70712274,0
1.0600000000000007,15.01741658178423,-0.5773099722872402,-2.867762490367132,0.5651495123914017,14.534612,-0.6210629,-1.6327373,1.2102199,7.94637,-7.5200567,1.6441789,0.6186439,0.082819186,0.044491682,0.78002614,-9.049147,7.1069098,-0.17254543,-0.28194922,-3.9667368,0.7001561,0
1.0700000000000007,15.01741658178423,-0.5773099722872402,-2.867762490367132,0.5651495123914017,14.534612,-0.6210629,-1.6327373,1.2102199,7.8560185,-7.449019,1.6427001,0.6167957,0.09713929,0.031005057,0.7804904,-9.021151,7.0997643,-0.123286314,-0.3281053,-3.795372,0.6935313,0
1.0800000000000007,13.963114165925637,-0.3901398424917099,0.9964285995821722,0.48506210932907595,14.2008095,0.2557874,-0.81257087,0.8276761,7.76595,-7.3780813,1.6417114,0.61473703,0.11067588,0.0178304,0.7807246,-8.992353,7.086948,-0.0745658,-0.36704898,-3.6507277,0.6872315,0
1.0900000000000007,13.963114165925637,-0.3901398424917099,0.9964285995821722,0.48506210932907595,14.2008095,0.2557874,-0.81257087,0.8276761,7.6761637,-7.3072925,1.6411551,0.6124844,0.12238396,0.0059309117,0.7809286,-8.964952,7.0700603,-0.036801666,-0.37099338,-2.9260056,0.67731094,0
1.1000000000000008,13.963114165925637,-0.3901398424917099,0.9964285995821722,0.48506210932907595,14.2008095,0.2557874,-0.81257087,0.8276761,7.5866528,-7.236694,1.6409731,0.61010814,0.13144921,-0.0039363727,0.781328,-8.937119,7.049,0.00029246602,-0.3742635,-2.314303,0.66787726,0
1.1100000000000008,13.963114165925637,-0.3901398424917099,0.9964285995821722,0.48506210932907595,14.2008095,0.2557874,-0.81257087,0.8276761,7.497422,-7.166323,1.6411588,0.60768765,0.13828735,-0.01209196,0.7819501,-8.909044,7.0246205,0.036779415,-0.3769746,-1.7979952,0.65890646,0
1.1200000000000008,13.140729073150895,-0.03617686377576834,5.559488841194242,0.3893267827729887,13.241978,0.77299887,3.724579,0.4356653,7.408472,-7.09621,1.6417068,0.6052722,0.14324811,-0.018806707,0.78279746,-8.880892,6.997636,0.072752856,-0.37922224,-1.3622051,0.65037584,0
1.1300000000000008,13.140729073150895,-0.03617686377576834,5.559488841194242,0.3893267827729887,13.241978,0.77299887,3.724579,0.4356653,7.3197956,-7.026369,1.6425732,0.6029205,0.14528161,-0.023093102,0.7841217,-8.854468,6.9704523,0.10047244,-0.32618436,-0.28274542,0.6375661,0
1.1400000000000008,13.140729073150895,-0.03617686377576834,5.559488841194242,0.3893267827729887,13.241978,0.77299887,3.724579,0.4356653,7.231382,-6.9568033,1.643716,0.6006838,0.14356756,-0.024184505,0.7861186,-8.828335,6.942628,0.128113,-0.28133145,0.6283686,0.62538487,0
1.1500000000000008,13.140729073150895,-0.03617686377576834,5.559488841194242,0.3893267827729887,13.241978,0.77299887,3.724579,0.4356653,7.143227,-6.8875146,1.6451361,0.59855014,0.13868101,-0.022586772,0.78866667,-8.802719,6.915328,0.1559746,-0.24340264,1.3973914,0.6138014,0
1.1600000000000008,12.683977822905103,0.5789436808328506,5.999997551187119,0.10949132628153156,12.829998,1.2032347,5.5435953,0.741828,7.055325,-6.818492,1.646837,0.5964797,0.13110222,-0.018724665,0.7916271,-8.777831,6.889536,0.1842979,-0.21133089,2.0464826,0.6027864,1
1.1700000000000008,12.683977822905103,0.5789436808328506,5.999997551187119,0.10949132628153156,12.829998,1.2032347,5.5435953,0.741828,6.9676642,-6.749714,1.6488092,0.5943213,0.12153377,-0.012571659,0.79489225,-8.754405,6.866647,0.21024452,0.009044465,2.5919418,0.60960925,1
1.1800000000000008,12.683977822905103,0.5789436808328506,5.999997551187119,0.10949132628153156,12.829998,1.2032347,5.5435953,0.741828,6.880234,-6.6811495,1.6510442,0.5919392,0.110551834,-0.004123577,0.7983541,-8.731854,6.8467965,0.23687354,0.19508222,3.0523255,0.6160973,1
1.1900000000000008,12.683977822905103,0.5789436808328506,5.999997551187119,0.10949132628153156,12.829998,1.2032347,5.5435953,0.741828,6.7930245,-6.6127653,1.6535491,0.5893021,0.09835923,0.0062586404,0.80187863,-8.710147,6.8306365,0.26418167,0.35213336,3.4409015,0.62226695,1
1.2000000000000008,12.52637560819825,0.9805114382984155,5.999998218017296,-0.04218166544131042,12.535312,1.9856602,5.9244328,0.7160733,6.7060285,-6.5445223,1.6563301,0.586377,0.08512937,0.018268444,0.8053454,-8.689277,6.818722,0.29210433,0.4847149,3.7688708,0.62813383,0
1.2100000000000009,12.52637560819825,0.9805114382984155,5.999998218017296,-0.04218166544131042,12.535312,1.9856602,5.9244328,0.7160733,6.619234,-6.476374,1.6593779,0.58321244,0.070809916,0.03168756,0.80860686,-8.669741,6.811702,0.3175283,0.56197965,4.1168337,0.5952413,0
1.2200000000000009,12.52637560819825,0.9805114382984155,5.999998218017296,-0.04218166544131042,12.535312,1.9856602,5.9244328,0.7160733,6.5326304,-6.4082713,1.6626817,0.5798454,0.055367768,0.046324875,0.81152177,-8.651129,6.8097343,0.34327698,0.62722516,4.410525,0.5639628,0
1.2300000000000009,12.52637560819825,0.9805114382984155,5.999998218017296,-0.04218166544131042,12.535312,1.9856602,5.9244328,0.7160733,6.4462075,-6.340161,1.6662438,0.5762315,0.03896882,0.06197411,0.814001,-8.633544,6.8132,0.36914164,0.682319,4.6584096,0.5342191,0
1.2400000000000009,12.52637560819825,0.9805114382984155,5.999998218017296,-0.04218166544131042,12.382368,1.8796836,6.0124197,0.55299556,6.359955,-6.271987,1.670064,0.5723324,0.021757293,0.0784575,0.8159697,-8.61709,6.822409,0.39486682,0.7288386,4.8676324,0.50593495,1
1.2500000000000009,12.52637560819825,0.9805114382984155,5.999998218017296,-0.04218166544131042,12.382368,1.8796836,6.0124197,0.55299556,6.2738605,-6.2036924,1.6741325,0.56804955,0.0040705306,0.09591366,0.8173761,-8.602029,6.837438,0.41873637,0.9082465,5.044285,0.5082442,1
1.260000000000001,12.52637560819825,0.9805114382984155,5.999998218017296,-0.04218166544131042,12.382368,1.8796836,6.0124197,0.55299556,6.187911,-6.135217,1.6784359,0.5632998,-0.01381292,0.11444214,0.8181721,-8.588146,6.858619,0.4418292,1.059685,5.19338,0.5104402,1
1.270000000000001,12.52637560819825,0.9805114382984155,5.999998218017296,-0.04218166544131042,12.382368,1.8796836,6.0124197,0.55299556,6.102094,-6.0664988,1.682965,0.55807334,-0.031853806,0.13384578,0.818306,-8.575403,6.8861294,0.46376932,1.1875143,5.319216,0.51252836,1
1.280000000000001,12.523748178133117,1.241837836265915,5.999996154357152,-0.08974669035469522,12.48284,1.823448,5.047696,0.7833765,6.0163994,-5.997473,1.687706,0.5523621,-0.05001475,0.15395358,0.81773645,-8.563778,6.920086,0.4841617,1.2954154,5.425421,0.51451415,1
1.290000000000001,12.523748178133117,1.241837836265915,5.999996154357152,-0.08974669035469522,12.48284,1.823448,5.047696,0.7833765,5.9308157,-5.928073,1.6926464,0.5462,-0.06795685,0.1743914,0.8164771,-8.553171,6.960859,0.5035498,1.3777355,5.3665547,0.52770734,1
1.300000000000001,12.523748178133117,1.241837836265915,5.999996154357152,-0.08974669035469522,12.48284,1.823448,5.047696,0.7833765,5.8453326,-5.8582335,1.697769,0.53963494,-0.08540719,0.19485974,0.814573,-8.543638,7.0080566,0.5206014,1.4472176,5.316865,0.54025316,1
1.310000000000001,12.523748178133117,1.241837836265915,5.999996154357152,-0.08974669035469522,12.48284,1.823448,5.047696,0.7833765,5.7599397,-5.7878904,1.7030491,0.532678,-0.1024215,0.21532091,0.81203485,-8.535136,7.061507,0.53497016,1.5058643,5.2749205,0.5521833,1
1.320000000000001,12.599957640773114,1.068570403657724,4.853143113928839,-0.04807071014708811,12.272464,1.3115832,2.8901525,0.85426533,5.6746264,-5.716983,1.7084581,0.52533793,-0.11904507,0.23574066,0.8088723,-8.527638,7.121025,0.5463227,1.5553652,5.2395144,0.563528,0
1.330000000000001,12.599957640773114,1.068570403657724,4.853143113928839,-0.04807071014708811,12.272464,1.3115832,2.8901525,0.85426533,5.5893836,-5.645447,1.713969,0.5176879,-0.13543442,0.25579113,0.8051257,-8.521081,7.1870174,0.55534047,1.4795734,5.1792035,0.53351665,0
1.340000000000001,12.599957640773114,1.068570403657724,4.853143113928839,-0.04807071014708811,12.272464,1.3115832,2.8901525,0.85426533,5.504201,-5.573223,1.7195523,0.50980014,-0.1517192,0.27521008,0.80083984,-8.515615,7.2586555,0.56073177,1.4155909,5.128306,0.50497794,0
1.350000000000001,12.599957640773114,1.068570403657724,4.853143113928839,-0.04807071014708811,12.272464,1.3115832,2.8901525,0.85426533,5.4190674,-5.5002556,1.7251704,0.5016795,-0.16789654,0.29405633,0.79602724,-8.511336,7.3356524,0.5622591,1.3615773,5.085352,0.4778397,0
1.360000000000001,12.123225202803534,0.6803919555688652,0.847395778615689,-0.035117978268927985,12.582641,0.5382902,-0.5438014,0.659955,5.33397,-5.4264927,1.7307835,0.49332988,-0.1839629,0.31237796,0.790698,-8.508329,7.417725,0.5596973,1.3159794,5.049103,0.45203313,0
1.370000000000001,12.123225202803534,0.6803919555688652,0.847395778615689,-0.035117978268927985,12.582641,0.5382902,-0.5438014,0.659955,5.248896,-5.3519015,1.7363322,0.48524746,-0.19873011,0.32931438,0.7852345,-8.506695,7.501247,0.549437,1.2171218,4.3938007,0.42812848,0
1.380000000000001,12.123225202803534,0.6803919555688652,0.847395778615689,-0.035117978268927985,12.582641,0.5382902,-0.5438014,0.659955,5.1638327,-5.2764544,1.7417588,0.47790083,-0.21128462,0.34423354,0.78004664,-8.506169,7.5886903,0.53529215,1.1336309,3.8407009,0.40539682,0
1.390000000000001,12.123225202803534,0.6803919555688652,0.847395778615689,-0.035117978268927985,12.582641,0.5382902,-0.5438014,0.659955,5.0787697,-5.2001166,1.7470258,0.47123915,-0.22199008,0.35747308,0.7751561,-8.5065565,7.679428,0.5175795,1.0631196,3.373863,0.3837806,0
1.400000000000001,12.040538456229536,0.08473141604685826,-3.262409920842701,-0.015142232151594293,11.335732,0.62102914,-4.42844,0.5034371,4.993699,-5.1228566,1.7520993,0.46520376,-0.23115075,0.36931166,0.7705606,-8.507689,7.772955,0.4965984,1.0035723,2.9798336,0.3632251,0
1.410000000000001,12.040538456229536,0.08473141604685826,-3.262409920842701,-0.015142232151594293,11.335732,0.62102914,-4.42844,0.5034371,4.908614,-5.0446525,1.7569451,0.46029633,-0.23786874,0.37904042,0.76672953,-8.509382,7.8681593,0.47218505,0.86053467,2.0063148,0.3446585,0
1.420000000000001,12.040538456229536,0.08473141604685826,-3.262409920842701,-0.015142232151594293,11.335732,0.62102914,-4.42844,0.5034371,4.8235106,-4.965488,1.7615353,0.45693883,-0.24145977,0.38613272,0.7640718,-8.511325,7.9650307,0.44556388,0.73974705,1.1846242,0.32700294,0
1.430000000000001,12.040538456229536,0.08473141604685826,-3.262409920842701,-0.015142232151594293,11.335732,0.62102914,-4.42844,0.5034371,4.738388,-4.8853483,1.7658515,0.4549462,-0.24243647,0.3910308,0.762459,-8.513186,8.062961,0.41748828,0.63775104,0.491083,0.31021377,0
1.440000000000001,12.040538456229536,0.08473141604685826,-3.262409920842701,-0.015142232151594293,11.844449,0.0044575976,-5.327335,0.34104395,4.653248,-4.804226,1.7698823,0.45413953,-0.24122103,0.39409134,0.7617493,-8.514683,8.161467,0.3886121,0.55162543,-0.09429532,0.2942485,0
1.450000000000001,12.040538456229536,0.08473141604685826,-3.262409920842701,-0.015142232151594293,11.844449,0.0044575976,-5.327335,0.34104395,4.5680957,-4.722118,1.7736228,0.45435214,-0.23816223,0.39560375,0.76180106,-8.515571,8.260149,0.3594941,0.47890282,-0.58837986,0.2790666,0
1.460000000000001,12.040538456229536,0.08473141604685826,-3.262409920842701,-0.015142232151594293,11.844449,0.0044575976,-5.327335,0.34104395,4.482939,-4.6390233,1.7770729,0.45543253,-0.23354927,0.39580423,0.7624798,-8.515641,8.358674,0.33060527,0.4174985,-1.0054085,0.26462966,0
1.470000000000001,12.040538456229536,0.08473141604685826,-3.262409920842701,-0.015142232151594293,11.844449,0.0044575976,-5.327335,0.34104395,4.397786,-4.5549455,1.780237,0.4572452,-0.22762278,0.3948866,0.76366204,-8.514715,8.456755,0.30233774,0.36565238,-1.3573989,0.25090116,0
1.480000000000001,12.06351765137748,-0.37140192949541617,-5.9999868805154986,0.004141300448625397,10.798409,-0.7162141,-5.3683743,1.001411,4.3126483,-4.46989,1.7831229,0.45967063,-0.22058377,0.39301112,0.7652375,-8.51264,8.554139,0.27501383,0.32187754,-1.654494,0.23784634,0
1.490000000000001,12.06351765137748,-0.37140192949541617,-5.9999868805154986,0.004141300448625397,10.798409,-0.7162141,-5.3683743,1.001411,4.2275376,-4.3838644,1.7857422,0.46298885,-0.21184315,0.38966438,0.76741517,-8.50926,8.65075,0.24907658,0.21384887,-2.3321898,0.22637838,0
1.500000000000001,12.06351765137748,-0.37140192949541617,-5.9999868805154986,0.004141300448625397,10.798409,-0.7162141,-5.3683743,1.001411,4.1424685,-4.2968793,1.7881105,0.46739483,-0.20093289,0.38442713,0.77031446,-8.504336,8.745961,0.22488856,0.12264319,-2.9041948,0.21547316,0
1.5100000000000011,12.06351765137748,-0.37140192949541617,-5.9999868805154986,0.004141300448625397,10.798409,-0.7162141,-5.3683743,1.001411,4.0574574,-4.208951,1.7902477,0.47266957,-0.18817,0.37754488,0.7737157,-8.497623,8.839289,0.2029238,0.045642123,-3.386993,0.20510302,0
1.5200000000000011,12.37997395731184,-0.8708984147085606,-5.999995910948412,0.044295046162088125,11.236964,-1.2065792,-6.0106044,1.0657587,3.9725232,-4.120101,1.7921778,0.47861934,-0.1738216,0.36922115,0.7774226,-8.488918,8.930281,0.18353903,-0.019365568,-3.7944965,0.19524176,0
1.5300000000000011,12.37997395731184,-0.8708984147085606,-5.999995910948412,0.044295046162088125,11.236964,-1.2065792,-6.0106044,1.0657587,3.887688,-4.0303435,1.7939388,0.4850365,-0.15820879,0.35947192,0.7813387,-8.477776,9.020814,0.16913007,-0.15213767,-4.1384587,0.18783477,0
1.5400000000000011,12.37997395731184,-0.8708984147085606,-5.999995910948412,0.044295046162088125,11.236964,-1.2065792,-6.0106044,1.0657587,3.8029754,-3.9396966,1.795571,0.49174583,-0.1416014,0.34831858,0.78537244,-8.464348,9.108052,0.15782496,-0.26421294,-4.4287767,0.18079123,0
1.5500000000000012,12.37997395731184,-0.8708984147085606,-5.999995910948412,0.044295046162088125,11.236964,-1.2065792,-6.0106044,1.0657587,3.7184086,-3.8481953,1.7971061,0.49863216,-0.124141246,0.33592778,0.78937197,-8.448599,9.191562,0.1497362,-0.35881662,-4.6738167,0.17409332,0
1.5600000000000012,12.55792558645967,-1.125384239682304,-5.99999441907097,0.17228902559286924,11.87787,-0.28137466,-5.935013,0.13556652,3.6340113,-3.7558792,1.7985767,0.5055949,-0.10595136,0.32244328,0.7932081,-8.430509,9.270927,0.14489582,-0.4386723,-4.8806405,0.16772409,1
1.5700000000000012,12.55792558645967,-1.125384239682304,-5.99999441907097,0.17228902559286924,11.87787,-0.28137466,-5.935013,0.13556652,3.5498025,-3.6628075,1.7999955,0.51255333,-0.08703655,0.30819187,0.79670084,-8.4108925,9.342727,0.1393468,-0.41412914,-5.0450664,0.1661461,1
1.5800000000000012,12.55792558645967,-1.125384239682304,-5.99999441907097,0.17228902559286924,11.87787,-0.28137466,-5.935013,0.13556652,3.4658012,-3.5690408,1.8013738,0.51943266,-0.06740818,0.2934448,0.7997104,-8.388962,9.409853,0.13673781,-0.39341626,-5.1838503,0.16464554,1
1.5900000000000012,12.55792558645967,-1.125384239682304,-5.99999441907097,0.17228902559286924,11.87787,-0.28137466,-5.935013,0.13556652,3.3820312,-3.4746275,1.8027399,0.5261608,-0.047176633,0.27824378,0.8021909,-8.364665,9.472011,0.13687971,-0.3759358,-5.300992,0.16321863,1
1.6000000000000012,12.740214500195266,-1.2801935882002415,-4.525562589311301,0.34615820710130835,13.253164,-0.56796783,-5.729014,0.67182475,3.298516,-3.379619,1.8041201,0.53267676,-0.026439352,0.26262707,0.80410445,-8.337979,9.528924,0.13954692,-0.36118332,-5.399865,0.16186175,0
1.6100000000000012,12.740214500195266,-1.2801935882002415,-4.525562589311301,0.34615820710130835,13.253164,-0.56796783,-5.729014,0.67182475,3.2152903,-3.2840493,1.8055758,0.53876054,-0.0059436946,0.2466132,0.80553347,-8.306824,9.58409,0.15196249,-0.50448585,-5.263536,0.17090522,0
1.6200000000000012,12.740214500195266,-1.2801935882002415,-4.525562589311301,0.34615820710130835,13.253164,-0.56796783,-5.729014,0.67182475,3.1323874,-3.1879575,1.8071667,0.54427224,0.01370706,0.23023365,0.8065809,-8.2733755,9.633271,0.16651335,-0.62544113,-5.1484666,0.17950493,0
1.6300000000000012,12.740214500195266,-1.2801935882002415,-4.525562589311301,0.34615820710130835,13.253164,-0.56796783,-5.729014,0.67182475,3.0498297,-3.0914042,1.8089124,0.5492687,0.032628756,0.21353763,0.80724305,-8.237916,9.676418,0.18290737,-0.7275338,-5.051341,0.18768267,0
1.6400000000000012,12.740214500195266,-1.2801935882002415,-4.525562589311301,0.34615820710130835,12.970612,-1.1494699,-4.8556194,0.66172403,2.9676354,-2.9944499,1.8108301,0.5537942,0.05091929,0.19656724,0.80751526,-8.200695,9.7134905,0.20086029,-0.81370574,-4.9693604,0.19545911,1
1.6500000000000012,12.740214500195266,-1.2801935882002415,-4.525562589311301,0.34615820710130835,12.970612,-1.1494699,-4.8556194,0.66172403,2.8858244,-2.8971524,1.8129447,0.55787253,0.06880418,0.17932513,0.8073952,-8.161231,9.745011,0.22221486,-0.86599636,-4.951642,0.21833885,1
1.6600000000000013,12.740214500195266,-1.2801935882002415,-4.525562589311301,0.34615820710130835,12.970612,-1.1494699,-4.8556194,0.66172403,2.8044155,-2.7995715,1.8152779,0.5615095,0.0864656,0.16181315,0.80687517,-8.120367,9.770246,0.24458788,-0.91013604,-4.9366865,0.24009588,1
1.6700000000000013,12.740214500195266,-1.2801935882002415,-4.525562589311301,0.34615820710130835,12.970612,-1.1494699,-4.8556194,0.66172403,2.7234213,-2.7017696,1.8178389,0.5647126,0.10392012,0.14406462,0.8059441,-8.078252,9.789131,0.26769003,-0.94739556,-4.9240627,0.26078528,1
1.6800000000000013,12.360591120120203,-1.3024993739070765,-1.5815841666958232,0.5529405830916826,13.278946,-0.6008199,-4.475394,0.94535506,2.642854,-2.6038108,1.8206333,0.5674879,0.12118014,0.12610948,0.80459285,-8.035025,9.801624,0.2912278,-0.9788477,-4.9134064,0.28045946,0
1.6900000000000013,12.360591120120203,-1.3024993739070765,-1.5815841666958232,0.5529405830916826,13.278946,-0.6008199,-4.475394,0.94535506,2.5627136,-2.5057607,1.8236355,0.5697128,0.13716713,0.108674,0.8029962,-7.9929266,9.807477,0.30918404,-1.0293772,-4.3938284,0.29383022,0
1.7000000000000013,12.360591120120203,-1.3024993739070765,-1.5815841666958232,0.5529405830916826,13.278946,-0.6008199,-4.475394,0.94535506,2.482998,-2.4076805,1.8268168,0.57136333,0.15103945,0.09234812,0.80137587,-7.950208,9.807708,0.32706362,-1.0720214,-3.9552777,0.30654484,0
1.7100000000000013,12.360591120120203,-1.3024993739070765,-1.5815841666958232,0.5529405830916826,13.278946,-0.6008199,-4.475394,0.94535506,2.4037108,-2.309624,1.830176,0.5725642,0.163125,0.076968744,0.799773,-7.907156,9.802823,0.34471872,-1.1080097,-3.5851173,0.31863555,0
1.7200000000000013,11.881539589493064,-1.185574191993686,2.4048840478452496,0.7102574464971229,12.522809,-0.60189277,-0.3296887,0.93270886,2.3248549,-2.2116401,1.8337101,0.57340914,0.17370059,0.06239458,0.79820895,-7.8640046,9.793259,0.3620454,-1.1383803,-3.2726824,0.33013296,0
1.7300000000000013,11.881539589493064,-1.185574191993686,2.4048840478452496,0.7102574464971229,12.522809,-0.60189277,-0.3296887,0.93270886,2.2464218,-2.113771,1.8373933,0.57386184,0.18175766,0.04945373,0.79699534,-7.8226357,9.780003,0.37452972,-1.1459008,-2.3872845,0.3487858,0
1.7400000000000013,11.881539589493064,-1.185574191993686,2.4048840478452496,0.7102574464971229,12.522809,-0.60189277,-0.3296887,0.93270886,2.1684008,-2.016051,1.8411999,0.57394,0.18652019,0.03879655,0.79642856,-7.781664,9.7635145,0.38672894,-1.1522381,-1.6399634,0.36652333,0
1.7500000000000013,11.881539589493064,-1.185574191993686,2.4048840478452496,0.7102574464971229,12.522809,-0.60189277,-0.3296887,0.93270886,2.0907865,-1.9185088,1.8451276,0.57375866,0.1885116,0.03006869,0.79646766,-7.7413607,9.744645,0.39879408,-1.1575758,-1.0091857,0.3833905,0
1.7600000000000013,11.647841637292592,-0.9796082644139329,5.724430067196535,0.7453636639361684,11.879241,-0.54379755,2.5191612,0.77290255,2.0135705,-1.8211639,1.8491759,0.5733912,0.18816826,0.022968533,0.7970497,-7.7019467,9.72411,0.41088346,-1.1620698,-0.47677648,0.39942995,0
1.7700000000000014,11.647841637292592,-0.9796082644139329,5.724430067196535,0.7453636639361684,11.879241,-0.54379755,2.5191612,0.77290255,1.9367399,-1.7240279,1.8533351,0.5728361,0.18484245,0.018066585,0.7983522,-7.6643753,9.702994,0.42099425,-1.1338713,0.49029306,0.41640505,0
1.7800000000000014,11.647841637292592,-0.9796082644139329,5.724430067196535,0.7453636639361684,11.879241,-0.54379755,2.5191612,0.77290255,1.8602786,-1.6271042,1.8575975,0.5720831,0.1780327,0.015800305,0.80048496,-7.6281233,9.681817,0.431542,-1.1100487,1.3065486,0.43254712,0
1.7900000000000014,11.647841637292592,-0.9796082644139329,5.724430067196535,0.7453636639361684,11.879241,-0.54379755,2.5191612,0.77290255,1.784172,-1.5303886,1.8619684,0.57114184,0.16826734,0.015754497,0.8032655,-7.593446,9.661482,0.44276157,-1.0899199,1.9955097,0.44789714,0
1.8000000000000014,11.496373443857383,-0.8000759087580142,5.999992635891881,0.7016615608980082,11.476177,-0.8847457,4.794462,0.72604626,1.7084035,-1.433869,1.8664556,0.5699974,0.15598804,0.017578386,0.8065124,-7.5605745,9.642754,0.45482174,-1.0729108,2.5770276,0.4624939,0
1.8100000000000014,11.496373443857383,-0.8000759087580142,5.999992635891881,0.7016615608980082,11.476177,-0.8847457,4.794462,0.72604626,1.6329516,-1.3375248,1.8710608,0.5686129,0.14151804,0.021097077,0.8100664,-7.530122,9.626502,0.46637726,-1.0305467,3.110842,0.4742299,0
1.8200000000000014,11.496373443857383,-0.8000759087580142,5.999992635891881,0.7016615608980082,11.476177,-0.8847457,4.794462,0.72604626,1.5577935,-1.2413293,1.8757864,0.5669468,0.12513271,0.026155917,0.81377494,-7.501851,9.613073,0.4788932,-0.9947697,3.5614073,0.48539004,0
1.8300000000000014,11.496373443857383,-0.8000759087580142,5.999992635891881,0.7016615608980082,11.476177,-0.8847457,4.794462,0.72604626,1.4829065,-1.1452519,1.8806418,0.5649648,0.107112564,0.032507747,0.8174874,-7.47594,9.602978,0.49233612,-0.9645546,3.9417064,0.49600255,0
1.8400000000000014,11.496373443857383,-0.8000759087580142,5.999992635891881,0.7016615608980082,11.523016,-0.7580939,5.4555907,0.7751768,1.4082661,-1.0492568,1.885636,0.56263304,0.08769838,0.03994233,0.82107145,-7.452559,9.596646,0.5066109,-0.9390359,4.262697,0.50609434,1
1.8500000000000014,11.496373443857383,-0.8000759087580142,5.999992635891881,0.7016615608980082,11.523016,-0.7580939,5.4555907,0.7751768,1.3338464,-0.95330477,1.8907778,0.5599229,0.06728728,0.04817126,0.8244022,-7.4318166,9.594423,0.521828,-0.91091764,4.44873,0.5192983,1
1.8600000000000014,11.496373443857383,-0.8000759087580142,5.999992635891881,0.7016615608980082,11.523016,-0.7580939,5.4555907,0.7751768,1.2596201,-0.8573533,1.8960742,0.55681765,0.046211418,0.056956433,0.8273906,-7.4138885,9.596553,0.5375253,-0.88717544,4.60575,0.53185433,1
1.8700000000000014,11.496373443857383,-0.8000759087580142,5.999992635891881,0.7016615608980082,11.523016,-0.7580939,5.4555907,0.7751768,1.1855586,-0.7613582,1.901529,0.5533057,0.02457678,0.06619957,0.82998013,-7.3988776,9.603198,0.55346984,-0.8671279,4.7382827,0.5437943,1
1.8800000000000014,11.320724870256845,-0.7951066878665818,5.831424766863558,0.5933326616663596,11.598336,-0.7579751,4.0102663,0.8864593,1.1116322,-0.6652735,1.9071435,0.5493781,0.0024768156,0.07581622,0.8321238,-7.3868794,9.614482,0.5694061,-0.85019964,4.850146,0.55514824,0
1.8900000000000015,11.320724870256845,-0.7951066878665818,5.831424766863558,0.5933326616663596,11.598336,-0.7579751,4.0102663,0.8864593,1.0378096,-0.5690536,1.912906,0.5450337,-0.020140793,0.08580348,0.8337691,-7.37814,9.630216,0.5830625,-0.8416693,5.0031776,0.557022,0
1.9000000000000015,11.320724870256845,-0.7951066878665818,5.831424766863558,0.5933326616663596,11.598336,-0.7579751,4.0102663,0.8864593,0.96405864,-0.4726528,1.9188027,0.5402676,-0.043309785,0.09615145,0.8348596,-7.3725505,9.65069,0.59615076,-0.8344607,5.1323442,0.5588038,0
1.9100000000000015,11.320724870256845,-0.7951066878665818,5.831424766863558,0.5933326616663596,11.598336,-0.7579751,4.0102663,0.8864593,0.8903474,-0.37602323,1.9248261,0.5350695,-0.066926256,0.10678277,0.8353558,-7.370206,9.675973,0.60836124,-0.82836884,5.241367,0.5604981,0
1.9200000000000015,10.943377479974577,-0.8910214605021165,3.3644111039466216,0.520409752401301,11.563278,-0.9321841,1.8125384,0.7088523,0.8166431,-0.2791167,1.9309659,0.52943236,-0.09089799,0.117630415,0.83522594,-7.3711853,9.706092,0.61937076,-0.82322097,5.3333864,0.56210935,0
1.9300000000000015,10.943377479974577,-0.8910214605021165,3.3644111039466216,0.520409752401301,11.563278,-0.9321841,1.8125384,0.7088523,0.74291277,-0.18189059,1.9371903,0.52348423,-0.11434135,0.12808487,0.8345567,-7.3753896,9.739832,0.6252759,-0.8336752,5.0263233,0.5600631,0
1.9400000000000015,10.943377479974577,-0.8910214605021165,3.3644111039466216,0.520409752401301,11.563278,-0.9321841,1.8125384,0.7088523,0.66912436,-0.08430522,1.9434655,0.5173748,-0.1365575,0.13767426,0.83349955,-7.3827753,9.777886,0.6295024,-0.8425178,4.7671466,0.55811733,0
1.9500000000000015,10.943377479974577,-0.8910214605021165,3.3644111039466216,0.520409752401301,11.563278,-0.9321841,1.8125384,0.7088523,0.5952467,0.01368073,1.9497739,0.5111238,-0.15772142,0.14652969,0.83210933,-7.393234,9.819896,0.63189834,-0.84999686,4.548389,0.556267,0
1.9600000000000015,10.52700497756464,-1.0977413892967525,-0.8831969181111209,0.4953170085919225,11.381806,-0.93401414,-2.7030923,0.42128444,0.5212495,0.112105206,1.9560966,0.50474393,-0.17798135,0.15476096,0.830425,-7.406668,9.865544,0.632335,-0.85632265,4.3637466,0.5545075,0
1.9700000000000015,10.52700497756464,-1.0977413892967525,-0.8831969181111209,0.4953170085919225,11.381806,-0.93401414,-2.7030923,0.42128444,0.4471065,0.2109938,1.9623951,0.4985097,-0.19609816,0.1615404,0.8288178,-7.4223385,9.912625,0.6270684,-0.89366966,3.545477,0.551603,0
1.9800000000000015,10.52700497756464,-1.0977413892967525,-0.8831969181111209,0.4953170085919225,11.381806,-0.93401414,-2.7030923,0.42128444,0.3727942,0.31036636,1.9686319,0.49268764,-0.21111572,0.16624175,0.8276795,-7.44048,9.962233,0.62002254,-0.92524123,2.8548179,0.54884106,0
1.9900000000000015,10.52700497756464,-1.0977413892967525,-0.8831969181111209,0.4953170085919225,11.381806,-0.93401414,-2.7030923,0.42128444,0.29828942,0.41024482,1.9747905,0.48725724,-0.22352797,0.16921507,0.8270323,-7.4608,10.013715,0.61146516,-0.9519305,2.2718685,0.5462146,0
2.0000000000000013,,,,,12.106491,-1.2650366,-5.313617,0.6337261,0.2235716,0.5106453,1.9808569,0.48218468,-0.23374857,0.17074963,0.8268643,-7.483052,10.066541,0.6016579,-0.9744917,1.7798313,0.54371697,0
2.010000000000001,,,,,12.106491,-1.2650366,-5.313617,0.6337261,0.14862266,0.6115783,1.9868199,0.47769046,-0.24079321,0.17018409,0.8275677,-7.506943,10.120097,0.5906932,-1.0402044,0.7092674,0.5425904,0
2.020000000000001,,,,,12.106491,-1.2650366,-5.313617,0.6337261,0.07342822,0.71304744,1.9926692,0.4739395,-0.2438925,0.16699485,0.8294642,-7.5321207,10.173675,0.5791452,-1.0974069,-0.19601756,0.54167616,0
2.0300000000000007,,,,,12.106491,-1.2650366,-5.313617,0.6337261,-0.0020230375,0.81504965,1.9984032,0.4708038,-0.24365325,0.16160513,0.8323827,-7.5582542,10.22663,0.56769663,-1.1457397,-0.9601207,0.5408068,0
2.0400000000000005,,,,,12.106491,-1.2650366,-5.313617,0.6337261,-0.077739045,0.9175757,2.004025,0.4681551,-0.24057817,0.15436369,0.83613694,-7.585024,10.278347,0.55679953,-1.1865776,-1.6050599,0.53998005,0
2.0500000000000003,,,,,12.665851,-1.739438,-5.63335,0.8622238,-0.15372473,1.0206106,2.0095422,0.4658724,-0.23508559,0.14555848,0.84054184,-7.612145,10.328298,0.5468172,-1.2210828,-2.1494188,0.53919387,1
2.06,,,,,12.665851,-1.739438,-5.63335,0.8622238,-0.2300106,1.124184,2.015058,0.46380934,-0.22739917,0.135227,0.84550834,-7.645021,10.385934,0.55660003,-1.3017017,-2.6927776,0.55504507,1
2.07,,,,,12.665851,-1.739438,-5.63335,0.8622238,-0.30662462,1.228318,2.0206804,0.46182775,-0.21770895,0.123409055,0.8509338,-7.6777353,10.440301,0.5681131,-1.3697702,-3.1513963,0.5701184,1
2.0799999999999996,,,,,12.665851,-1.739438,-5.63335,0.8622238,-0.38356388,1.3329769,2.0264273,0.45983633,-0.20629369,0.11032911,0.85663366,-7.710029,10.49087,0.5815505,-1.4272431,-3.5384903,0.5844521,1
2.0899999999999994,,,,,12.77126,-2.3370857,-5.8868914,0.6661134,-0.46082294,1.4381207,2.0323184,0.4577564,-0.19339076,0.0961774,0.8624438,-7.741656,10.537172,0.5970121,-1.4757714,-3.8652139,0.5980825,1
2.099999999999999,,,,,12.77126,-2.3370857,-5.8868914,0.6661134,-0.5383952,1.543706,2.0383792,0.45550504,-0.17922686,0.0808583,0.86824834,-7.7726436,10.579128,0.6154784,-1.6099609,-4.1805496,0.6014208,1
2.109999999999999,,,,,12.77126,-2.3370857,-5.8868914,0.6661134,-0.6162721,1.6496855,2.044635,0.45301422,-0.16399252,0.06430449,0.87392783,-7.802556,10.6159,0.63595724,-1.7232422,-4.4467006,0.60459536,1
2.1199999999999988,,,,,12.77126,-2.3370857,-5.8868914,0.6661134,-0.6944421,1.7560048,2.051105,0.45024207,-0.1478292,0.04670637,0.87934494,-7.8312345,10.647068,0.6583295,-1.8188733,-4.6713386,0.6076141,1
2.1299999999999986,,,,,13.087528,-3.0100243,-5.972644,0.87787944,-0.77289206,1.8626063,2.0578074,0.44715378,-0.13086091,0.028228855,0.88438255,-7.8585186,10.67227,0.6824083,-1.8996041,-4.860939,0.61048466,1
2.1399999999999983,,,,,13.087528,-3.0100243,-5.972644,0.87787944,-0.8516104,1.969431,2.064773,0.4436638,-0.11328581,0.008764889,0.88896143,-7.8848953,10.691652,0.7110093,-2.0726616,-5.0343947,0.62360585,1
2.149999999999998,,,,,13.087528,-3.0100243,-5.972644,0.87787944,-0.9305842,2.076416,2.0720313,0.43970102,-0.09526948,-0.011759696,0.89299995,-7.909599,10.704252,0.74079686,-2.2187414,-5.180792,0.63608307,1
2.159999999999998,,,,,13.087528,-3.0100243,-5.972644,0.87787944,-1.0097964,2.1834917,2.0795918,0.43525875,-0.07687177,-0.033164885,0.8964045,-7.9325504,10.709771,0.7714088,-2.3420494,-5.3043504,0.6479481,1
2.1699999999999977,,,,,12.621658,-1.9779675,-6.0134897,0.77870905,-1.089229,2.2905862,2.0874608,0.4303321,-0.058148317,-0.055292994,0.8990974,-7.9536595,10.707971,0.8024401,-2.4461358,-5.4086323,0.6592308,1
2.1799999999999975,,,,,12.621658,-1.9779675,-6.0134897,0.77870905,-1.1688595,2.3976269,2.0956175,0.42495137,-0.03896381,-0.0776392,0.90103865,-7.972128,10.699019,0.82885903,-2.3730645,-5.5008335,0.66509366,1
2.1899999999999973,,,,,12.621658,-1.9779675,-6.0134897,0.77870905,-1.2486643,2.5045419,2.1040366,0.41913965,-0.01922126,-0.09979122,0.90221655,-7.988491,10.68283,0.85484093,-2.3113954,-5.57866,0.6706688,1
2.199999999999997,,,,,12.621658,-1.9779675,-6.0134897,0.77870905,-1.3286213,2.611259,2.1127117,0.41288683,0.0009781257,-0.12174482,0.9026086,-8.002517,10.65945,0.87995905,-2.2593493,-5.644353,0.67597044,1
2.209999999999997,,,,,12.535446,-1.2667093,-4.504338,1.2481196,-1.408706,2.7177067,2.1216314,0.40618783,0.021544993,-0.1434933,0.90219593,-8.013999,10.628957,0.9037783,-2.2154248,-5.699804,0.6810119,1
2.2199999999999966,,,,,12.535446,-1.2667093,-4.504338,1.2481196,-1.4888916,2.8238156,2.1307771,0.39907667,0.041966904,-0.16453315,0.90105826,-8.022709,10.591754,0.92504877,-2.0674555,-5.513344,0.70884,1
2.2299999999999964,,,,,12.535446,-1.2667093,-4.504338,1.2481196,-1.5691506,2.9295192,2.1401253,0.39160421,0.06182876,-0.18447837,0.8993285,-8.02864,10.547994,0.94424945,-1.9425597,-5.355966,0.73530257,1
