time-since-start [s],throttle_mpc,roll_mpc,pitch_mpc,yaw_mpc,throttle_nw,roll_nw,pitch_nw,yaw_nw,position_x [m],position_y [m],position_z [m],rotation_w [quaternion],rotation_x [quaternion],rotation_y [quaternion],rotation_z [quaternion],velocity_x [m/s],velocity_y [m/s],velocity_z [m/s],omega_x [rad/s],omega_y [rad/s],omega_z [rad/s],network_used
0.0,8.19527115509146,5.999999587692886,-5.999999773910607,-1.4366712714043715,19.225863,-0.47300354,-3.142479,0.18407868,15.061026,-11.515349,2.323622,0.34007287,-0.36832443,0.23899421,0.83160645,-8.401307,-0.090339005,0.97981524,0.4522813,-0.34927583,0.2031154,0
0.01,8.19527115509146,5.999999587692886,-5.999999773910607,-1.4366712714043715,9.178892,0.06619652,-2.4191508,0.6006167,14.976733,-11.51585,2.3333113,0.3412356,-0.36456645,0.24113823,0.83216697,-8.456581,-0.01021958,0.95773226,0.8850517,-0.79803765,0.16133788,0
0.02,8.19527115509146,5.999999587692886,-5.999999773910607,-1.4366712714043715,9.178892,0.06619652,-2.4191508,0.6006167,14.891903,-11.515561,2.3427706,0.34384736,-0.35832947,0.24419758,0.8329084,-8.508985,0.067751095,0.93385935,1.2895865,-1.2161252,0.11809726,0
0.03,8.19527115509146,5.999999587692886,-5.999999773910607,-1.4366712714043715,9.178892,0.06619652,-2.4191508,0.6006167,14.806565,-11.514502,2.3519838,0.3478086,-0.34976226,0.24809437,0.83375335,-8.5580635,0.14378211,0.90857184,1.6682584,-1.6062881,0.07364716,0
0.04,8.19527115509146,5.999999587692886,-5.999999773910607,-1.4366712714043715,9.674829,-0.14928713,-3.0709982,0.50263655,14.720755,-11.512692,2.360938,0.35301933,-0.3389933,0.25275138,0.83461225,-8.603433,0.21803822,0.8821722,2.0232296,-1.971006,0.028214466,0
0.05,8.19527115509146,5.999999587692886,-5.999999773910607,-1.4366712714043715,9.674829,-0.14928713,-3.0709982,0.50263655,14.634511,-11.510148,2.369624,0.35937956,-0.32613465,0.2580924,0.83538663,-8.644758,0.29063955,0.8548955,2.3564692,-2.3125172,-0.017997954,0
0.060000000000000005,8.19527115509146,5.999999587692886,-5.999999773910607,-1.4366712714043715,9.674829,-0.14928713,-3.0709982,0.50263655,14.547875,-11.506886,2.3780336,0.3667896,-0.31128496,0.26404238,0.8359717,-8.681757,0.36166266,0.82691437,2.669771,-2.6328418,-0.06480899,0
0.07,8.19527115509146,5.999999587692886,-5.999999773910607,-1.4366712714043715,9.674829,-0.14928713,-3.0709982,0.50263655,14.460892,-11.50292,2.3861604,0.37515017,-0.29453275,0.27052742,0.83625823,-8.714182,0.43114206,0.7983442,2.964769,-2.9338048,-0.112057105,0
0.08,9.61874182028219,5.9999996913408875,-5.999999821398112,-1.5245400117470929,11.358061,0.37925038,-2.6800516,0.44190973,14.373609,-11.498268,2.3939986,0.38436222,-0.27595854,0.2774749,0.83613414,-8.741827,0.4990729,0.76924765,3.2429507,-3.2170556,-0.15959844,0
0.09,9.61874182028219,5.9999996913408875,-5.999999821398112,-1.5245400117470929,11.358061,0.37925038,-2.6800516,0.44190973,14.286059,-11.492904,2.4015844,0.39437652,-0.2555609,0.2848379,0.8354778,-8.767226,0.57334965,0.74783385,3.53183,-3.5102825,-0.21395434,0
0.09999999999999999,9.61874182028219,5.9999996913408875,-5.999999821398112,-1.5245400117470929,11.358061,0.37925038,-2.6800516,0.44190973,14.198283,-11.486807,2.4089532,0.40513793,-0.23333725,0.29256636,0.8341595,-8.786896,0.6457797,0.7258424,3.8053126,-3.7874703,-0.26829624,0
0.10999999999999999,9.61874182028219,5.9999996913408875,-5.999999821398112,-1.5245400117470929,11.358061,0.37925038,-2.6800516,0.44190973,14.110339,-11.479995,2.416099,0.416538,-0.20936066,0.3005843,0.8320538,-8.800678,0.71623814,0.7031999,4.064606,-4.049924,-0.322518,0
0.11999999999999998,9.61874182028219,5.9999996913408875,-5.999999821398112,-1.5245400117470929,11.358061,0.37925038,-2.6800516,0.44190973,14.022288,-11.472489,2.4230144,0.42846766,-0.18370366,0.30881608,0.82903636,-8.808458,0.7845656,0.6797882,4.310811,-4.298825,-0.37652582,0
0.12999999999999998,12.526390854027454,5.433499113652797,-5.999999628120269,-2.169307930762571,10.452242,1.9507513,-2.7336607,-0.91712415,13.934191,-11.464312,2.4296916,0.4408169,-0.15643984,0.31718653,0.8249847,-8.810169,0.85057294,0.6554484,4.5449286,-4.5352445,-0.43023708,0
0.13999999999999999,12.526390854027454,5.433499113652797,-5.999999628120269,-2.169307930762571,10.452242,1.9507513,-2.7336607,-0.91712415,13.846112,-11.455393,2.4362268,0.45351684,-0.12775232,0.32542884,0.8198158,-8.804477,0.93295527,0.6516415,4.682214,-4.7630105,-0.515484,0
0.15,12.526390854027454,5.433499113652797,-5.999999628120269,-2.169307930762571,10.452242,1.9507513,-2.7336607,-0.91712415,13.75813,-11.445659,2.4427266,0.46647316,-0.097906575,0.3332977,0.81346774,-8.790656,1.0136042,0.648358,4.79905,-4.956211,-0.5966376,0
0.16,12.789366707432409,3.247082790117171,-5.223295395430128,-0.8199635582323959,11.543568,-0.19510809,-1.632229,0.4740474,13.670328,-11.435129,2.4491954,0.47954142,-0.06710237,0.3407514,0.8058696,-8.768518,1.0920708,0.6453262,4.8976717,-5.1192737,-0.673809,0
0.17,12.789366707432409,3.247082790117171,-5.223295395430128,-0.8199635582323959,11.543568,-0.19510809,-1.632229,0.4740474,13.582791,-11.423819,2.455643,0.49231127,-0.036136977,0.34721988,0.79734695,-8.737373,1.1694188,0.6441685,4.6402316,-5.135405,-0.68098086,0
0.18000000000000002,12.789366707432409,3.247082790117171,-5.223295395430128,-0.8199635582323959,11.543568,-0.19510809,-1.632229,0.4740474,13.495608,-11.411752,2.4620771,0.50449526,-0.00566297,0.35228613,0.7882557,-8.698,1.2434702,0.64259243,4.4229417,-5.149035,-0.6878008,0
0.19000000000000003,12.789366707432409,3.247082790117171,-5.223295395430128,-0.8199635582323959,11.543568,-0.19510809,-1.632229,0.4740474,13.408858,-11.398963,2.4684925,0.51613367,0.024351776,0.3561224,0.77858204,-8.650818,1.313744,0.64033896,4.2395406,-5.160552,-0.69428605,0
0.20000000000000004,12.105780924068824,1.8269027702779626,-3.77958394484426,-0.7428013778368892,12.130027,-0.8345023,-0.5631009,1.0398047,13.322618,-11.385492,2.474881,0.5272534,0.053934176,0.35887355,0.768313,-8.596245,1.3798108,0.63715035,4.084742,-5.1702833,-0.7004531,0
0.21000000000000005,12.105780924068824,1.8269027702779626,-3.77958394484426,-0.7428013778368892,12.130027,-0.8345023,-0.5631009,1.0398047,13.236941,-11.371399,2.4812067,0.53770137,0.08236706,0.36053947,0.7576967,-8.538019,1.4380223,0.62777156,3.7327251,-4.953249,-0.70253116,0
0.22000000000000006,12.105780924068824,1.8269027702779626,-3.77958394484426,-0.7428013778368892,12.130027,-0.8345023,-0.5631009,1.0398047,13.151878,-11.356747,2.487432,0.54740435,0.10908975,0.36116338,0.747,-8.473844,1.4917383,0.6171173,3.4355907,-4.770085,-0.7045072,0
0.23000000000000007,12.105780924068824,1.8269027702779626,-3.77958394484426,-0.7428013778368892,12.130027,-0.8345023,-0.5631009,1.0398047,13.067483,-11.34158,2.493544,0.55647784,0.13433632,0.36091077,0.7362266,-8.404339,1.5408694,0.6050778,3.184782,-4.6155057,-0.70638627,0
0.24000000000000007,12.105780924068824,1.8269027702779626,-3.77958394484426,-0.7428013778368892,12.668607,-2.0250435,0.78365415,0.92435473,12.983807,-11.325946,2.4995284,0.56501055,0.15830716,0.35991645,0.72537035,-8.330055,1.5853513,0.5915632,2.9730763,-4.4850497,-0.70817316,0
0.25000000000000006,12.105780924068824,1.8269027702779626,-3.77958394484426,-0.7428013778368892,12.668607,-2.0250435,0.78365415,0.92435473,12.900896,-11.30989,2.5053701,0.57307047,0.18117304,0.35829028,0.7144192,-8.251479,1.6251385,0.57649636,2.794377,-4.3749537,-0.70987236,0
0.26000000000000006,12.105780924068824,1.8269027702779626,-3.77958394484426,-0.7428013778368892,12.668607,-2.0250435,0.78365415,0.92435473,12.81879,-11.29346,2.511053,0.58070946,0.2030789,0.35612202,0.70335823,-8.169046,1.6601979,0.5598076,2.6435385,-4.282039,-0.7114882,0
0.2700000000000001,12.105780924068824,1.8269027702779626,-3.77958394484426,-0.7428013778368892,12.668607,-2.0250435,0.78365415,0.92435473,12.737527,-11.276703,2.5165608,0.5879669,0.22414736,0.353485,0.6921716,-8.083154,1.690506,0.541432,2.5162168,-4.203625,-0.7130248,0
0.2800000000000001,11.309921920927941,-0.23571407934602406,-1.8258257945987688,0.040460544967748875,12.886699,-2.2962916,1.6154734,0.58172715,12.657137,-11.2596655,2.5218759,0.5948724,0.2444819,0.35043925,0.6808436,-7.99416,1.7160463,0.521307,2.408745,-4.137449,-0.71448594,0
0.2900000000000001,11.309921920927941,-0.23571407934602406,-1.8258257945987688,0.040460544967748875,12.886699,-2.2962916,1.6154734,0.58172715,12.577622,-11.242404,2.5269556,0.6013262,0.26318535,0.34692425,0.6699134,-7.9084625,1.7354808,0.49439308,1.9966024,-3.776712,-0.6774405,0
0.3000000000000001,11.309921920927941,-0.23571407934602406,-1.8258257945987688,0.040460544967748875,12.886699,-2.2962916,1.6154734,0.58172715,12.498976,-11.224969,2.5317585,0.60729825,0.27957633,0.34292516,0.65987,-7.8206954,1.7507335,0.46596375,1.6486883,-3.4722807,-0.6422129,0
0.3100000000000001,11.309921920927941,-0.23571407934602406,-1.8258257945987688,0.040460544967748875,12.886699,-2.2962916,1.6154734,0.58172715,12.421215,-11.207401,2.5362704,0.61289144,0.29402372,0.33854067,0.65061855,-7.7313175,1.7620989,0.4362186,1.3549948,-3.2153642,-0.608714,0
0.3200000000000001,10.936749064358603,-2.642313094169599,0.9221662301646483,0.8773675155928525,13.170225,-3.190422,2.871195,1.1575669,12.344355,-11.189739,2.540479,0.61818165,0.30683702,0.33384615,0.6420665,-7.6407,1.769837,0.4053405,1.1070731,-2.998545,-0.57685876,0
0.3300000000000001,10.936749064358603,-2.642313094169599,0.9221662301646483,0.8773675155928525,13.170225,-3.190422,2.871195,1.1575669,12.268389,-11.172017,2.5443628,0.6231002,0.317014,0.3289379,0.63486075,-7.552195,1.7740853,0.3713448,0.5227007,-2.386867,-0.5054995,0
0.34000000000000014,10.936749064358603,-2.642313094169599,0.9221662301646483,0.8773675155928525,13.170225,-3.190422,2.871195,1.1575669,12.193311,-11.154266,2.547904,0.62762356,0.3237934,0.32391194,0.62954557,-7.463237,1.7756432,0.33684295,0.029372565,-1.8706604,-0.4376418,0
0.35000000000000014,10.936749064358603,-2.642313094169599,0.9221662301646483,0.8773675155928525,13.170225,-3.190422,2.871195,1.1575669,12.119123,-11.136511,2.5510995,0.6318436,0.32773003,0.3188087,0.6258816,-7.3742065,1.775083,0.3022588,-0.38708985,-1.4350173,-0.3731139,0
0.36000000000000015,11.4918945117035,-4.481619522883358,3.4857537772352236,0.9929560745607537,14.284583,-4.108643,4.291765,1.2877238,12.045826,-11.11877,2.55395,0.6358168,0.32928255,0.31364954,0.62364584,-7.285405,1.7728922,0.26796055,-0.73865783,-1.0673592,-0.3117524,0
0.37000000000000016,11.4918945117035,-4.481619522883358,3.4857537772352236,0.9929560745607537,14.284583,-4.108643,4.291765,1.2877238,11.973436,-11.101058,2.556477,0.63948923,0.32772717,0.30863404,0.62321234,-7.1926146,1.7693664,0.23756295,-1.32221,-0.3572392,-0.24772999,0
0.38000000000000017,11.4918945117035,-4.481619522883358,3.4857537772352236,0.9929560745607537,14.284583,-4.108643,4.291765,1.2877238,11.901971,-11.0833845,2.5587053,0.6428049,0.32249904,0.30391553,0.6248453,-7.100691,1.7653362,0.2083103,-1.8148298,0.242082,-0.18684918,0
0.3900000000000002,11.4918945117035,-4.481619522883358,3.4857537772352236,0.9929560745607537,14.284583,-4.108643,4.291765,1.2877238,11.831419,-11.065751,2.560649,0.6457721,0.31415442,0.29943076,0.6281932,-7.0099816,1.7615166,0.18065959,-2.2306798,0.7478979,-0.1289558,0
0.4000000000000002,12.31397294315353,-5.304365149841199,4.994539728050581,1.0682374053007277,15.147234,-4.656244,5.0770445,1.048633,11.761766,-11.048152,2.5623257,0.6483759,0.30315402,0.29511613,0.63293976,-6.920803,1.7585137,0.15497385,-2.5817177,1.1748024,-0.073903255,0
0.4100000000000002,12.31397294315353,-5.304365149841199,4.994539728050581,1.0682374053007277,15.147234,-4.656244,5.0770445,1.048633,11.693027,-11.030577,2.5637832,0.6505005,0.28928632,0.2910901,0.6390845,-6.827221,1.7567537,0.13688289,-3.006348,1.7703996,-0.01785808,0
0.4200000000000002,12.31397294315353,-5.304365149841199,4.994539728050581,1.0682374053007277,15.147234,-4.656244,5.0770445,1.048633,11.625212,-11.013009,2.565073,0.65201974,0.27238938,0.28743008,0.64657414,-6.7360106,1.7571353,0.12150085,-3.3647947,2.2730904,0.03543694,0
0.4300000000000002,12.31397294315353,-5.304365149841199,4.994539728050581,1.0682374053007277,15.147234,-4.656244,5.0770445,1.048633,11.558296,-10.995424,2.5662234,0.6528871,0.25288573,0.2840225,0.6550713,-6.647596,1.7602981,0.10903981,-3.6673675,2.6973712,0.08611675,0
0.4400000000000002,12.31397294315353,-5.304365149841199,4.994539728050581,1.0682374053007277,15.987587,-4.560604,5.4873943,1.13618,11.492249,-10.977792,2.5672643,0.6530525,0.23113516,0.28076795,0.66428024,-6.5624056,1.7667744,0.099605,-3.922772,3.055476,0.13430971,0
0.45000000000000023,12.31397294315353,-5.304365149841199,4.994539728050581,1.0682374053007277,15.987587,-4.560604,5.4873943,1.13618,11.427035,-10.960077,2.568226,0.65246797,0.20744726,0.27758113,0.6739435,-6.4808764,1.7769991,0.09320418,-4.138357,3.3577297,0.1801378,0
0.46000000000000024,12.31397294315353,-5.304365149841199,4.994539728050581,1.0682374053007277,15.987587,-4.560604,5.4873943,1.13618,11.3626175,-10.942239,2.5691383,0.6510898,0.18209094,0.27438986,0.6838385,-6.4034457,1.7913201,0.08975731,-4.3203278,3.6128457,0.2237171,0
0.47000000000000025,12.31397294315353,-5.304365149841199,4.994539728050581,1.0682374053007277,15.987587,-4.560604,5.4873943,1.13618,11.298952,-10.924236,2.5700307,0.64888066,0.1553018,0.27113414,0.69377327,-6.330548,1.8100047,0.08910601,-4.4739227,3.828177,0.26515794,0
0.48000000000000026,12.471523237752148,-5.062591519613835,5.130544969867318,0.9943957263959529,17.569408,-4.7187514,5.8643217,1.0593979,11.235991,-10.906023,2.5709295,0.64580995,0.12728778,0.2677645,0.7035832,-6.2626095,1.8332458,0.09102278,-4.603564,4.00993,0.30456528,0
0.49000000000000027,12.471523237752148,-5.062591519613835,5.130544969867318,0.9943957263959529,17.569408,-4.7187514,5.8643217,1.0593979,11.173685,-10.887553,2.5718658,0.6418348,0.0982552,0.26434585,0.71310246,-6.199238,1.8615276,0.09652534,-4.675276,4.1845727,0.33841547,0
0.5000000000000002,12.471523237752148,-5.062591519613835,5.130544969867318,0.9943957263959529,17.569408,-4.7187514,5.8643217,1.0593979,11.111985,-10.868776,2.572867,0.63692915,0.06838531,0.26093072,0.7221909,-6.1416736,1.894634,0.10396851,-4.7358007,4.331984,0.37060463,0
0.5100000000000002,12.471523237752148,-5.062591519613835,5.130544969867318,0.9943957263959529,17.569408,-4.7187514,5.8643217,1.0593979,11.050831,-10.849644,2.5739505,0.63109475,0.037819196,0.25746635,0.730753,-6.0902576,1.9325898,0.11294128,-4.786883,4.4564114,0.40121427,0
0.5200000000000002,12.330546641262284,-3.870227440970704,4.637421197071312,0.8874588778168733,17.758976,-4.805666,5.507419,1.1493638,10.990158,-10.830107,2.5751295,0.62433606,0.006684793,0.25390977,0.73870796,-6.045307,1.9753609,0.123001695,-4.8299932,4.5614395,0.43032184,0
0.5300000000000002,12.330546641262284,-3.870227440970704,4.637421197071312,0.8874588778168733,17.758976,-4.805666,5.507419,1.1493638,10.929899,-10.8101225,2.5764062,0.61672795,-0.024461856,0.25045997,0.74586725,-6.007514,2.0223143,0.13244753,-4.6803885,4.573262,0.45275372,0
0.5400000000000003,12.330546641262284,-3.870227440970704,4.637421197071312,0.8874588778168733,17.758976,-4.805666,5.507419,1.1493638,10.869985,-10.789645,2.5777786,0.6083771,-0.05517099,0.2472899,0.75211775,-5.9764423,2.073754,0.14199364,-4.554111,4.583241,0.47408482,0
0.5500000000000003,12.330546641262284,-3.870227440970704,4.637421197071312,0.8874588778168733,17.758976,-4.805666,5.507419,1.1493638,10.810348,-10.768632,2.5792449,0.59932965,-0.08547767,0.2443306,0.75749594,-5.9520955,2.1294663,0.15114433,-4.4475226,4.591665,0.4943692,0
0.5600000000000003,11.74072435514056,-2.2602211951201787,3.482904534189297,0.7907826023601752,17.700989,-4.4102445,4.3148074,1.0027239,10.75092,-10.747042,2.5807984,0.58962315,-0.115407825,0.24152304,0.7620317,-5.934469,2.1892216,0.15943056,-4.3575535,4.5987744,0.5136582,0
0.5700000000000003,11.74072435514056,-2.2602211951201787,3.482904534189297,0.7907826023601752,17.700989,-4.4102445,4.3148074,1.0027239,10.691632,-10.724851,2.5824034,0.5794991,-0.14425425,0.23904045,0.76565737,-5.924033,2.2497234,0.16138521,-4.030457,4.4248285,0.5272568,0
0.5800000000000003,11.74072435514056,-2.2602211951201787,3.482904534189297,0.7907826023601752,17.700989,-4.4102445,4.3148074,1.0027239,10.632418,-10.702038,2.5840206,0.56920713,-0.1714701,0.23703896,0.768384,-5.9196596,2.3135087,0.16173847,-3.7543757,4.277999,0.5401881,0
0.5900000000000003,11.74072435514056,-2.2602211951201787,3.482904534189297,0.7907826023601752,17.700989,-4.4102445,4.3148074,1.0027239,10.573218,-10.678572,2.5856318,0.5587772,-0.19728898,0.23544511,0.7703316,-5.9210153,2.3802629,0.16019504,-3.521353,4.154058,0.55248487,0
0.6000000000000003,10.923328621198182,-0.5581051530561669,1.993826685878978,0.6808481301619848,16.35907,-3.488044,3.333916,0.75280535,10.513978,-10.654424,2.587217,0.5482267,-0.22190768,0.23419327,0.77159446,-5.927803,2.4497035,0.15650524,-3.3246734,4.0494375,0.5641782,0
0.6100000000000003,10.923328621198182,-0.5581051530561669,1.993826685878978,0.6808481301619848,16.35907,-3.488044,3.333916,0.75280535,10.454649,-10.629594,2.5887218,0.5378783,-0.24466726,0.23342705,0.7722284,-5.938888,2.5165606,0.14406036,-2.893125,3.7290137,0.56990325,0
0.6200000000000003,10.923328621198182,-0.5581051530561669,1.993826685878978,0.6808481301619848,16.35907,-3.488044,3.333916,0.75280535,10.395187,-10.604086,2.5900905,0.52803093,-0.2650755,0.23327458,0.772335,-5.9542613,2.585388,0.12936555,-2.528892,3.4585385,0.57534736,0
0.6300000000000003,10.923328621198182,-0.5581051530561669,1.993826685878978,0.6808481301619848,16.35907,-3.488044,3.333916,0.75280535,10.335551,-10.577881,2.591301,0.5186484,-0.28350747,0.23365623,0.77203125,-5.9734316,2.6559393,0.11241559,-2.2214746,3.2302248,0.5805243,0
0.6400000000000003,10.923328621198182,-0.5581051530561669,1.993826685878978,0.6808481301619848,15.098961,-2.5749195,2.4286342,0.98397744,10.275707,-10.5509615,2.5923312,0.5096872,-0.3002774,0.23449957,0.7714029,-5.995982,2.7280173,0.09322553,-1.9620101,3.0375009,0.5854472,0
0.6500000000000004,10.923328621198182,-0.5581051530561669,1.993826685878978,0.6808481301619848,15.098961,-2.5749195,2.4286342,0.98397744,10.215623,-10.523315,2.5931582,0.5011014,-0.31564835,0.23573971,0.77051306,-6.02156,2.8014634,0.07182113,-1.7430187,2.8748186,0.59012854,0
0.6600000000000004,10.923328621198182,-0.5581051530561669,1.993826685878978,0.6808481301619848,15.098961,-2.5749195,2.4286342,0.98397744,10.155268,-10.494928,2.5937603,0.49284542,-0.3298402,0.23731914,0.76940787,-6.049867,2.876147,0.048232704,-1.5581874,2.737495,0.5945802,0
0.6700000000000004,10.923328621198182,-0.5581051530561669,1.993826685878978,0.6808481301619848,15.098961,-2.5749195,2.4286342,0.98397744,10.094617,-10.465789,2.5941157,0.4848757,-0.34303677,0.23918729,0.76812154,-6.0806503,2.9519603,0.02249122,-1.4021873,2.6215765,0.59881335,0
0.6800000000000004,10.920327268381895,0.8220093199775638,0.6186884639582395,0.5671671846387639,14.618018,-1.8862555,1.9682964,1.2009103,10.033646,-10.435885,2.594203,0.47715175,-0.35539174,0.2412999,0.76667935,-6.113696,3.028812,-0.005374099,-1.2705216,2.5237274,0.6028389,0
0.6900000000000004,10.920327268381895,0.8220093199775638,0.6186884639582395,0.5671671846387639,14.618018,-1.8862555,1.9682964,1.2009103,9.972334,-10.40521,2.594001,0.46998203,-0.36635554,0.24377726,0.7651621,-6.148782,3.1065989,-0.03533554,-0.94407344,2.2267668,0.60108846,0
0.7000000000000004,10.920327268381895,0.8220093199775638,0.6186884639582395,0.5671671846387639,14.618018,-1.8862555,1.9682964,1.2009103,9.910664,-10.373752,2.59349,0.46362755,-0.37551275,0.24671996,0.76365495,-6.185553,3.185259,-0.06721407,-0.6685536,1.9760964,0.59942394,0
0.7100000000000004,10.920327268381895,0.8220093199775638,0.6186884639582395,0.5671671846387639,14.618018,-1.8862555,1.9682964,1.2009103,9.848619,-10.341502,2.5926511,0.45798403,-0.38315895,0.2500633,0.76217324,-6.2236447,3.2647283,-0.10082634,-0.43601674,1.7645005,0.5978411,0
0.7200000000000004,11.111384707236976,1.9281581623661566,-0.7750388472901028,0.4385820178010548,13.924184,-0.7028926,1.5798573,1.0372217,9.786187,-10.3084545,2.591468,0.45295697,-0.38953987,0.25374994,0.760723,-6.2627516,3.344962,-0.13601147,-0.2397573,1.5858884,0.5963359,0
0.7300000000000004,11.111384707236976,1.9281581623661566,-0.7750388472901028,0.4385820178010548,13.924184,-0.7028926,1.5798573,1.0372217,9.723357,-10.274594,2.5899317,0.44879085,-0.3942411,0.25780898,0.7594045,-6.3032885,3.4273434,-0.17153235,0.09847705,1.217834,0.58859485,0
0.7400000000000004,11.111384707236976,1.9281581623661566,-0.7750388472901028,0.4385820178010548,13.924184,-0.7028926,1.5798573,1.0372217,9.66012,-10.239905,2.5880337,0.44568145,-0.39694917,0.2622624,0.75829923,-6.344175,3.5104287,-0.20822133,0.38393825,0.9071542,0.5812337,0
0.7500000000000004,11.111384707236976,1.9281581623661566,-0.7750388472901028,0.4385820178010548,13.924184,-0.7028926,1.5798573,1.0372217,9.596474,-10.204383,2.5857642,0.44347996,-0.39798427,0.26705137,0.7573754,-6.385022,3.594188,-0.24580608,0.62486076,0.6449053,0.5742338,0
0.7600000000000005,11.673571074573072,2.576233709405285,-1.8505450704445319,0.3421132404995014,13.660134,0.024432147,1.2447467,0.8646667,9.532421,-10.168019,2.5831153,0.44205436,-0.39761177,0.27212322,0.7565988,-6.4255047,3.6786008,-0.28405744,0.8281938,0.42353833,0.5675773,0
0.7700000000000005,11.673571074573072,2.576233709405285,-1.8505450704445319,0.3421132404995014,13.660134,0.024432147,1.2447467,0.8646667,9.467957,-10.130788,2.5800965,0.44151857,-0.39561516,0.27743277,0.7560297,-6.467343,3.767952,-0.31976277,1.1009312,0.06898934,0.5565137,0
0.7800000000000005,11.673571074573072,2.576233709405285,-1.8505450704445319,0.3421132404995014,13.660134,0.024432147,1.2447467,0.8646667,9.403079,-10.092658,2.5767195,0.44195497,-0.3918312,0.2829385,0.7557048,-6.508117,3.8579314,-0.35566747,1.3311108,-0.23028661,0.54599303,0
0.7900000000000005,11.673571074573072,2.576233709405285,-1.8505450704445319,0.3421132404995014,13.660134,0.024432147,1.2447467,0.8646667,9.337799,-10.053626,2.5729835,0.44321072,-0.38653255,0.28860068,0.755557,-6.5474725,3.9484942,-0.3915058,1.5253738,-0.48290595,0.5359886,0
0.8000000000000005,12.436544413523308,2.7315093484070156,-2.483896882554984,0.22078162502673446,13.977478,0.18883619,0.98961776,0.87957317,9.272136,-10.013685,2.5688903,0.44515234,-0.3799464,0.2943835,0.7555253,-6.5851026,4.0395956,-0.42706424,1.689325,-0.6961418,0.5264751,0
0.8100000000000005,12.436544413523308,2.7315093484070156,-2.483896882554984,0.22078162502673446,13.977478,0.18883619,0.98961776,0.87957317,9.206094,-9.972803,2.564464,0.44777343,-0.37204763,0.3001832,0.75562525,-6.6230645,4.1371675,-0.4580464,1.8519392,-0.97490335,0.51147467,0
0.8200000000000005,12.436544413523308,2.7315093484070156,-2.483896882554984,0.22078162502673446,13.977478,0.18883619,0.98961776,0.87957317,9.139683,-9.930942,2.5597317,0.4510609,-0.3628239,0.3059119,0.75585765,-6.6586027,4.2351675,-0.4883287,1.9891747,-1.2102028,0.49721026,0
0.8300000000000005,12.436544413523308,2.7315093484070156,-2.483896882554984,0.22078162502673446,13.977478,0.18883619,0.98961776,0.87957317,9.07293,-9.888099,2.5547009,0.45489708,-0.35246733,0.31156096,0.75615156,-6.6914434,4.333492,-0.51772773,2.104993,-1.4088157,0.48364583,0
0.8400000000000005,12.436544413523308,2.7315093484070156,-2.483896882554984,0.22078162502673446,13.879301,0.2413151,0.7919263,0.85753006,9.005865,-9.844272,2.5493808,0.4591801,-0.34113982,0.31712225,0.7564461,-6.721347,4.4320354,-0.54610765,2.2027376,-1.5764616,0.470747,0
0.8500000000000005,12.436544413523308,2.7315093484070156,-2.483896882554984,0.22078162502673446,13.879301,0.2413151,0.7919263,0.85753006,8.938516,-9.799458,2.5437825,0.4638219,-0.3289782,0.32258824,0.7566898,-6.748103,4.5306883,-0.57337296,2.285229,-1.7179687,0.4584811,0
0.8600000000000005,12.436544413523308,2.7315093484070156,-2.483896882554984,0.22078162502673446,13.879301,0.2413151,0.7919263,0.85753006,8.870914,-9.753657,2.5379174,0.4687466,-0.31609854,0.32795227,0.7568393,-6.77153,4.629337,-0.59946316,2.354848,-1.837412,0.44681716,0
0.8700000000000006,12.436544413523308,2.7315093484070156,-2.483896882554984,0.22078162502673446,13.879301,0.2413151,0.7919263,0.85753006,8.803097,-9.706871,2.5317974,0.47388896,-0.3025997,0.33320844,0.7568585,-6.7914677,4.727864,-0.62434745,2.4136033,-1.9382312,0.4357255,0
0.8800000000000006,12.518635734139664,2.3500154053552667,-2.681748604359029,0.15161659808466296,13.63258,0.20927915,0.92723745,0.9075285,8.735098,-9.659101,2.5254347,0.4791929,-0.288566,0.33835173,0.75671786,-6.807778,4.82615,-0.6480203,2.4631908,-2.0233302,0.42517817,0
0.8900000000000006,12.518635734139664,2.3500154053552667,-2.681748604359029,0.15161659808466296,13.63258,0.20927915,0.92723745,0.9075285,8.666953,-9.610346,2.518844,0.48460063,-0.2740863,0.34322202,0.7564638,-6.8204308,4.9247146,-0.66999334,2.4455512,-2.1260366,0.4117544,0
0.9000000000000006,12.518635734139664,2.3500154053552667,-2.681748604359029,0.15161659808466296,13.63258,0.20927915,0.92723745,0.9075285,8.5987015,-9.560608,2.5120394,0.49006847,-0.25923795,0.34769258,0.75613385,-6.829257,5.022752,-0.6907558,2.4306574,-2.2127237,0.39898935,0
0.9100000000000006,12.518635734139664,2.3500154053552667,-2.681748604359029,0.15161659808466296,13.63258,0.20927915,0.92723745,0.9075285,8.530381,-9.509892,2.5050333,0.49556985,-0.24407229,0.35180455,0.75569355,-6.834218,5.1201015,-0.7103144,2.4180825,-2.28589,0.38685068,0
0.9200000000000006,12.388201014123569,1.5700514785720154,-2.600390961354363,0.12418438737574136,13.060117,-0.068307914,1.1727399,0.7832402,8.462031,-9.458208,2.4978373,0.50108117,-0.22863336,0.355593,0.75511456,-6.835281,5.216609,-0.7286939,2.4074655,-2.347645,0.3753077,0
0.9300000000000006,12.388201014123569,1.5700514785720154,-2.600390961354363,0.12418438737574136,13.060117,-0.068307914,1.1727399,0.7832402,8.393689,-9.405569,2.4904592,0.50650394,-0.2131423,0.35886857,0.7544782,-6.8324666,5.3111296,-0.74677265,2.2768617,-2.3871107,0.36298501,0
0.9400000000000006,12.388201014123569,1.5700514785720154,-2.600390961354363,0.12418438737574136,13.060117,-0.068307914,1.1727399,0.7832402,8.325396,-9.35199,2.4829059,0.5117693,-0.1977813,0.36148727,0.7538578,-6.8258777,5.4045095,-0.7637422,2.1666245,-2.4204142,0.351267,0
0.9500000000000006,12.388201014123569,1.5700514785720154,-2.600390961354363,0.12418438737574136,13.060117,-0.068307914,1.1727399,0.7832402,8.257184,-9.2974825,2.475188,0.5168959,-0.18253203,0.36353752,0.75322044,-6.815626,5.4966,-0.77962494,2.0735781,-2.4485178,0.340124,0
0.9600000000000006,12.252808236725427,0.5566843632749104,-2.1065320566724397,0.1911936715832927,13.056226,-0.6490969,1.4943494,0.8058303,8.189095,-9.242062,2.4673169,0.52189755,-0.16737877,0.365094,0.752538,-6.8018107,5.587266,-0.79445195,1.9950418,-2.4722335,0.32952774,0
0.9700000000000006,12.252808236725427,0.5566843632749104,-2.1065320566724397,0.1911936715832927,13.056226,-0.6490969,1.4943494,0.8058303,8.121159,-9.185746,2.4592981,0.526642,-0.15266663,0.36602116,0.7519106,-6.7847314,5.675411,-0.8091812,1.7707077,-2.4152586,0.32273966,0
0.9800000000000006,12.252808236725427,0.5566843632749104,-2.1065320566724397,0.1911936715832927,13.056226,-0.6490969,1.4943494,0.8058303,8.05341,-9.128559,2.4511368,0.5310377,-0.13867217,0.36622208,0.75143224,-6.7644744,5.761939,-0.82293224,1.5813612,-2.3671596,0.31628466,0
0.9900000000000007,12.252808236725427,0.5566843632749104,-2.1065320566724397,0.1911936715832927,13.056226,-0.6490969,1.4943494,0.8058303,7.985879,-9.070515,2.442843,0.53514576,-0.12528934,0.3658064,0.7510708,-6.741289,5.846781,-0.8357288,1.4215457,-2.3265536,0.3101464,0
1.0000000000000007,11.795245950570408,-0.4862354060107402,-1.371562948505544,0.2942879453845419,13.236754,-1.3632916,1.697601,1.1263635,7.918594,-9.01163,2.4344256,0.5390147,-0.11242738,0.36486578,0.7507971,-6.7153893,5.929877,-0.8475936,1.2866554,-2.2922735,0.30430934,0
1.0100000000000007,11.795245950570408,-0.4862354060107402,-1.371562948505544,0.2942879453845419,13.236754,-1.3632916,1.697601,1.1263635,7.8515744,-8.951938,2.4258778,0.542523,-0.100450836,0.3633254,0.7507151,-6.688043,6.0081496,-0.86180264,1.010145,-2.1487443,0.30381757,0
1.0200000000000007,11.795245950570408,-0.4862354060107402,-1.371562948505544,0.2942879453845419,13.236754,-1.3632916,1.697601,1.1263635,7.7848396,-8.891472,2.4171922,0.5455869,-0.08964615,0.3611357,0.7509191,-6.6586,6.084714,-0.8751489,0.7767606,-2.0275898,0.30334994,0
1.0300000000000007,11.795245950570408,-0.4862354060107402,-1.371562948505544,0.2942879453845419,13.236754,-1.3632916,1.697601,1.1263635,7.7184086,-8.830249,2.4083776,0.5482887,-0.079835504,0.35840008,0.7513689,-6.6273775,6.159601,-0.8876375,0.5797763,-1.9253217,0.3029053,0
1.0400000000000007,11.795245950570408,-0.4862354060107402,-1.371562948505544,0.2942879453845419,13.419225,-2.0867274,1.9223009,1.2830365,7.6522975,-8.768287,2.3994424,0.5506939,-0.07086749,0.3552042,0.75202656,-6.594642,6.2328405,-0.8992696,0.4135149,-1.8389964,0.30248243,0
1.0500000000000007,11.795245950570408,-0.4862354060107402,-1.371562948505544,0.2942879453845419,13.419225,-2.0867274,1.9223009,1.2830365,7.58652,-8.705599,2.3903952,0.55285496,-0.06261341,0.3516192,0.7528578,-6.560618,6.3044577,-0.9100445,0.27318463,-1.7661283,0.3020803,0
1.0600000000000007,11.795245950570408,-0.4862354060107402,-1.371562948505544,0.2942879453845419,13.419225,-2.0867274,1.9223009,1.2830365,7.5210886,-8.642202,2.3812447,0.5548135,-0.054964017,0.3477045,0.753832,-6.525494,6.374475,-0.91996145,0.15474097,-1.7046193,0.30169794,0
1.0700000000000007,11.795245950570408,-0.4862354060107402,-1.371562948505544,0.2942879453845419,13.419225,-2.0867274,1.9223009,1.2830365,7.456013,-8.5781145,2.371999,0.55660295,-0.047826614,0.3435096,0.7549219,-6.48943,6.442911,-0.92902064,0.054770395,-1.652699,0.30133432,0
1.0800000000000007,11.618581950356964,-1.3583630806886653,-0.6132615558172552,0.43926391402246007,13.231338,-2.5115807,2.1645763,1.2696278,7.391303,-8.51335,2.362667,0.55825025,-0.04112264,0.33907616,0.75610393,-6.45256,6.509781,-0.93722355,-0.029608147,-1.6088727,0.30098855,0
1.0900000000000007,11.618581950356964,-1.3583630806886653,-0.6132615558172552,0.43926391402246007,13.231338,-2.5115807,2.1645763,1.2696278,7.326962,-8.447928,2.3532505,0.55964804,-0.035204116,0.33434558,0.7574747,-6.415581,6.5741267,-0.9459309,-0.2368507,-1.4536493,0.30777377,0
1.1000000000000008,11.618581950356964,-1.3583630806886653,-0.6132615558172552,0.43926391402246007,13.231338,-2.5115807,2.1645763,1.2696278,7.2629924,-8.381872,2.3437512,0.5607164,-0.030346775,0.32927465,0.7591144,-6.378179,6.6370273,-0.95378906,-0.41177058,-1.322628,0.31422603,0
1.1100000000000008,11.618581950356964,-1.3583630806886653,-0.6132615558172552,0.43926391402246007,13.231338,-2.5115807,2.1645763,1.2696278,7.1993985,-8.315193,2.3341775,0.5615093,-0.02638612,0.3239151,0.76097983,-6.3405952,6.698565,-0.9607874,-0.55940884,-1.2120353,0.32036167,0
1.1200000000000008,11.551165072453415,-2.042340612227144,0.054648749292252274,0.590718310000093,13.53785,-3.1580875,2.504603,1.4168955,7.1361804,-8.247906,2.3245382,0.56207,-0.023182917,0.3183099,0.76303273,-6.3030343,6.758811,-0.96691704,-0.6840205,-1.1186852,0.32619622,0
1.1300000000000008,11.551165072453415,-2.042340612227144,0.054648749292252274,0.590718310000093,13.53785,-3.1580875,2.504603,1.4168955,7.0733356,-8.180023,2.3148394,0.5623284,-0.020971457,0.31243646,0.76533055,-6.2659025,6.8174896,-0.9727088,-0.8958807,-0.9357569,0.33917642,0
1.1400000000000008,11.551165072453415,-2.042340612227144,0.054648749292252274,0.590718310000093,13.53785,-3.1580875,2.504603,1.4168955,7.0108604,-8.111559,2.305087,0.56222934,-0.019931179,0.30627763,0.7679163,-6.2292404,6.8750567,-0.97761744,-1.0746983,-0.7813518,0.35151964,0
1.1500000000000008,11.551165072453415,-2.042340612227144,0.054648749292252274,0.590718310000093,13.53785,-3.1580875,2.504603,1.4168955,6.9487486,-8.042526,2.2952902,0.5618233,-0.01987931,0.2998732,0.77073735,-6.1933017,6.931619,-0.9816329,-1.2256262,-0.6510219,0.3632572,0
1.1600000000000008,11.893280656717018,-2.531983642383192,0.6585280406649949,0.7359390532911717,13.895764,-3.4980285,2.8320234,1.6348765,6.8869915,-7.9729314,2.2854576,0.56115043,-0.020661296,0.29325628,0.7737471,-6.1583023,6.987261,-0.98474973,-1.3530143,-0.5410129,0.3744188,0
1.1700000000000008,11.893280656717018,-2.531983642383192,0.6585280406649949,0.7359390532911717,13.895764,-3.4980285,2.8320234,1.6348765,6.825584,-7.902776,2.2756126,0.5601544,-0.022438338,0.28643838,0.7769666,-6.123436,7.04368,-0.9841284,-1.5369151,-0.35400748,0.3921587,0
1.1800000000000008,11.893280656717018,-2.531983642383192,0.6585280406649949,0.7359390532911717,13.895764,-3.4980285,2.8320234,1.6348765,6.764518,-7.83206,2.2657783,0.5587886,-0.025331222,0.27942815,0.7804063,-6.089991,7.0993414,-0.9825888,-1.6921334,-0.19616127,0.40902808,0
1.1900000000000008,11.893280656717018,-2.531983642383192,0.6585280406649949,0.7359390532911717,13.895764,-3.4980285,2.8320234,1.6348765,6.703778,-7.7607913,2.255964,0.55709463,-0.029164692,0.2722472,0.78401333,-6.0582123,7.1543474,-0.98014486,-1.8231423,-0.062926896,0.42506966,0
1.2000000000000008,13.00074451721097,-2.796889594799472,1.2158080224938623,0.8653954292276232,14.611214,-3.7272785,2.9509275,1.7522068,6.643347,-7.6889753,2.2461786,0.555106,-0.033790454,0.2649137,0.78774154,-6.028307,7.2087784,-0.976817,-1.9337175,0.049533907,0.4403241,0
1.2100000000000009,13.00074451721097,-2.796889594799472,1.2158080224938623,0.8653954292276232,14.611214,-3.7272785,2.9509275,1.7522068,6.5832176,-7.6165924,2.2364783,0.5527744,-0.039313465,0.25748354,0.7915791,-5.9978714,7.267722,-0.9631105,-2.0683837,0.23134695,0.46118248,0
1.2200000000000009,13.00074451721097,-2.796889594799472,1.2158080224938623,0.8653954292276232,14.611214,-3.7272785,2.9509275,1.7522068,6.5233808,-7.5436225,2.2269194,0.5500599,-0.04581015,0.25000024,0.7955098,-5.969926,7.3262177,-0.94852203,-2.1820447,0.3848109,0.48101732,0
1.2300000000000009,13.00074451721097,-2.796889594799472,1.2158080224938623,0.8653954292276232,14.611214,-3.7272785,2.9509275,1.7522068,6.4638104,-7.4700694,2.2175107,0.54699725,-0.05312583,0.24246176,0.7994901,-5.944696,7.3843617,-0.93311447,-2.2779763,0.5143464,0.49987885,0
1.2400000000000009,13.00074451721097,-2.796889594799472,1.2158080224938623,0.8653954292276232,15.068069,-3.6462414,2.6719077,1.784754,6.4044776,-7.3959365,2.2082596,0.54361516,-0.06112931,0.23486686,0.8034823,-5.922373,7.4422235,-0.9169564,-2.3589435,0.623685,0.5178149,0
1.2500000000000009,13.00074451721097,-2.796889594799472,1.2158080224938623,0.8653954292276232,15.068069,-3.6462414,2.6719077,1.784754,6.3453526,-7.3212256,2.1991737,0.5399373,-0.06970924,0.22721507,0.80745405,-5.9031215,7.4998484,-0.90012217,-2.42728,0.71597624,0.5348708,0
1.260000000000001,13.00074451721097,-2.796889594799472,1.2158080224938623,0.8653954292276232,15.068069,-3.6462414,2.6719077,1.784754,6.286404,-7.24594,2.190259,0.5359837,-0.078771085,0.2195066,0.8113777,-5.8870826,7.5572624,-0.8826908,-2.4849558,0.79387826,0.55108976,0
1.270000000000001,13.00074451721097,-2.796889594799472,1.2158080224938623,0.8653954292276232,15.068069,-3.6462414,2.6719077,1.784754,6.2275996,-7.170082,2.1815214,0.5317712,-0.088234484,0.21174227,0.8152298,-5.874377,7.614474,-0.86474586,-2.533634,0.859635,0.5665129,0
1.280000000000001,13.662548098802558,-2.702207991494814,1.4451462428647939,0.8939404118161453,15.320222,-3.5065196,2.2092576,1.7179222,6.1689053,-7.0936522,2.1729653,0.5273142,-0.098031074,0.20392339,0.81899035,-5.8651047,7.671478,-0.84637445,-2.5747175,0.9151402,0.58117914,0
1.290000000000001,13.662548098802558,-2.702207991494814,1.4451462428647939,0.8939404118161453,15.320222,-3.5065196,2.2092576,1.7179222,6.1102877,-7.016639,2.1646245,0.5226077,-0.10815735,0.19613135,0.8226275,-5.85906,7.7311516,-0.82172316,-2.5946405,0.9977609,0.59652644,0
1.300000000000001,13.662548098802558,-2.702207991494814,1.4451462428647939,0.8939404118161453,15.320222,-3.5065196,2.2092576,1.7179222,6.051711,-6.93903,2.1565316,0.51764953,-0.11860757,0.18843107,0.8261146,-5.85679,7.7906013,-0.7968356,-2.6114528,1.0674989,0.61112064,0
1.310000000000001,13.662548098802558,-2.702207991494814,1.4451462428647939,0.8939404118161453,15.320222,-3.5065196,2.2092576,1.7179222,5.9931383,-6.860828,2.148688,0.5124551,-0.12932466,0.18080221,0.82944304,-5.858359,7.8498306,-0.77183074,-2.6256394,1.1263634,0.6249987,0
1.320000000000001,14.018744673196741,-2.2660698415963627,1.265747221122772,0.865084428702577,15.372902,-3.1162088,1.8653468,1.6489367,5.9345307,-6.782035,2.141095,0.5070376,-0.14025986,0.17322814,0.8326058,-5.863818,7.9088287,-0.74682605,-2.6376107,1.1760498,0.6381957,0
1.330000000000001,14.018744673196741,-2.2660698415963627,1.265747221122772,0.865084428702577,15.372902,-3.1162088,1.8653468,1.6489367,5.8758473,-6.7026443,2.1337674,0.5014496,-0.15122432,0.16580437,0.83557683,-5.8734403,7.969106,-0.71873057,-2.5796835,1.1900433,0.6493292,0
1.340000000000001,14.018744673196741,-2.2660698415963627,1.265747221122772,0.865084428702577,15.372902,-3.1162088,1.8653468,1.6489367,5.817048,-6.6226535,2.1267195,0.4957392,-0.1620678,0.15860848,0.83834374,-5.887037,8.029101,-0.6908664,-2.5307891,1.2018523,0.65991634,0
1.350000000000001,14.018744673196741,-2.2660698415963627,1.265747221122772,0.865084428702577,15.372902,-3.1162088,1.8653468,1.6489367,5.7580934,-6.5420637,2.1199489,0.48991054,-0.17280349,0.15160356,0.8409181,-5.904541,8.088788,-0.6633384,-2.4895186,1.2118181,0.669984,0
1.360000000000001,14.039381028949938,-1.6505536985595548,0.9110487190955757,0.7696771167613741,15.061272,-2.397864,1.4975246,1.4865255,5.6989436,-6.460879,2.1134512,0.483967,-0.1834422,0.14475842,0.843309,-5.9258933,8.148135,-0.6362453,-2.454683,1.2202283,0.6795576,0
1.370000000000001,14.039381028949938,-1.6505536985595548,0.9110487190955757,0.7696771167613741,15.061272,-2.397864,1.4975246,1.4865255,5.639562,-6.379102,2.1072228,0.47798878,-0.19375631,0.13818458,0.84551185,-5.951058,8.207195,-0.6094935,-2.3292618,1.1720607,0.6839798,0
1.380000000000001,14.039381028949938,-1.6505536985595548,0.9110487190955757,0.7696771167613741,15.061272,-2.397864,1.4975246,1.4865255,5.5799103,-6.2967362,2.1012592,0.47204757,-0.20356901,0.13197154,0.84753424,-5.979837,8.265849,-0.5833324,-2.2234027,1.131397,0.688185,0
1.390000000000001,14.039381028949938,-1.6505536985595548,0.9110487190955757,0.7696771167613741,15.061272,-2.397864,1.4975246,1.4865255,5.5199533,-6.213786,2.0955539,0.46613348,-0.21295643,0.12606484,0.8493979,-6.012053,8.32407,-0.5578127,-2.134055,1.0970683,0.6921838,0
1.400000000000001,13.994674815076458,-0.992386234617864,0.33137577323466044,0.642997412942372,15.0353365,-1.8636976,0.9974496,1.4379745,5.4596577,-6.130256,2.0901003,0.4602374,-0.22198242,0.12041801,0.85111976,-6.047553,8.381833,-0.5329789,-2.0586426,1.0680875,0.69598645,0
1.410000000000001,13.994674815076458,-0.992386234617864,0.33137577323466044,0.642997412942372,15.0353365,-1.8636976,0.9974496,1.4379745,5.3989916,-6.0461526,2.0848897,0.45445225,-0.23038468,0.115106374,0.8527289,-6.086061,8.438929,-0.50925285,-1.8923069,0.95327616,0.6933862,0
1.420000000000001,13.994674815076458,-0.992386234617864,0.33137577323466044,0.642997412942372,15.0353365,-1.8636976,0.9974496,1.4379745,5.337926,-5.9614797,2.079913,0.44885814,-0.23796153,0.110189706,0.85425925,-6.1274414,8.495507,-0.48622906,-1.7519195,0.85635746,0.6909136,0
1.430000000000001,13.994674815076458,-0.992386234617864,0.33137577323466044,0.642997412942372,15.0353365,-1.8636976,0.9974496,1.4379745,5.276433,-5.876244,2.075163,0.44342887,-0.24484341,0.105609745,0.85572726,-6.1714416,8.551541,-0.46387717,-1.6334327,0.77454275,0.68856233,0
1.440000000000001,13.994674815076458,-0.992386234617864,0.33137577323466044,0.642997412942372,14.945008,-1.4153627,0.55089873,1.2169344,5.2144885,-5.790451,2.0706332,0.43814093,-0.25113976,0.10131646,0.85714436,-6.21785,8.60701,-0.44216797,-1.5334299,0.7054782,0.68632644,1
1.450000000000001,13.994674815076458,-0.992386234617864,0.33137577323466044,0.642997412942372,14.945008,-1.4153627,0.55089873,1.2169344,5.1520524,-5.7040873,2.066358,0.4328605,-0.25708413,0.09717791,0.85854304,-6.2698007,8.665617,-0.4129841,-1.5150181,0.68135417,0.7123636,1
1.460000000000001,13.994674815076458,-0.992386234617864,0.33137577323466044,0.642997412942372,14.945008,-1.4153627,0.55089873,1.2169344,5.089085,-5.617141,2.0623713,0.4274682,-0.26286325,0.0930887,0.8599468,-6.3240566,8.723563,-0.3844606,-1.4994783,0.6609927,0.737123,1
1.470000000000001,13.994674815076458,-0.992386234617864,0.33137577323466044,0.642997412942372,14.945008,-1.4153627,0.55089873,1.2169344,5.0255637,-5.5296183,2.0586665,0.42196512,-0.26849878,0.08904513,0.86135066,-6.380566,8.7808075,-0.35660613,-1.4863621,0.64380705,0.7606675,1
1.480000000000001,13.955003119899004,-0.4261428835884922,-0.13229865174024827,0.5045273991993033,15.194746,-1.2290186,0.28605512,1.0694835,4.9614663,-5.4415274,2.0552368,0.41635257,-0.27400905,0.08504383,0.8627498,-6.4392834,8.837316,-0.3294304,-1.4752916,0.6293019,0.7830567,0
1.490000000000001,13.955003119899004,-0.4261428835884922,-0.13229865174024827,0.5045273991993033,15.194746,-1.2290186,0.28605512,1.0694835,4.896791,-5.3528934,2.0520341,0.41084152,-0.27901757,0.08128639,0.8641476,-6.4961057,8.889363,-0.31118572,-1.3116124,0.5106259,0.7693891,0
1.500000000000001,13.955003119899004,-0.4261428835884922,-0.13229865174024827,0.5045273991993033,15.194746,-1.2290186,0.28605512,1.0694835,4.831538,-5.2637424,2.0490108,0.40561584,-0.28323236,0.07793127,0.865553,-6.5547066,8.940696,-0.29350647,-1.17347,0.41044134,0.75639224,0
1.5100000000000011,13.955003119899004,-0.4261428835884922,-0.13229865174024827,0.5045273991993033,15.194746,-1.2290186,0.28605512,1.0694835,4.7656913,-5.1740823,2.046162,0.40063927,-0.2867803,0.07491699,0.86696756,-6.614852,8.991325,-0.27631012,-1.0568807,0.3258673,0.7440331,0
1.5200000000000011,13.446345439930488,0.11211046127288816,-0.7125652784932707,0.33261931398506084,15.048543,-0.7322754,-0.23890622,0.62100863,4.699236,-5.083919,2.043483,0.39587998,-0.28976777,0.07219105,0.86839056,-6.676345,9.041264,-0.25952378,-0.958481,0.25447163,0.7322805,0
1.5300000000000011,13.446345439930488,0.11211046127288816,-0.7125652784932707,0.33261931398506084,15.048543,-0.7322754,-0.23890622,0.62100863,4.632171,-4.9932685,2.040949,0.3914082,-0.29199895,0.06979831,0.86986464,-6.7367167,9.08873,-0.24724947,-0.7914496,0.10375265,0.712669,0
1.5400000000000011,13.446345439930488,0.11211046127288816,-0.7125652784932707,0.33261931398506084,15.048543,-0.7322754,-0.23890622,0.62100863,4.564498,-4.9021463,2.038537,0.38728097,-0.2933245,0.067772426,0.8714248,-6.797966,9.135555,-0.23518495,-0.65048116,-0.023478368,0.69401985,0
1.5500000000000012,13.446345439930488,0.11211046127288816,-0.7125652784932707,0.33261931398506084,15.048543,-0.7322754,-0.23890622,0.62100863,4.4962096,-4.8105593,2.036245,0.38345402,-0.2938883,0.06605659,0.8730574,-6.8598533,9.181755,-0.22321288,-0.53150827,-0.13088104,0.67628586,0
1.5600000000000012,13.371099511095766,0.4524767093267286,-1.1939591035021229,0.1920160691575654,15.411486,-0.73442143,-1.079838,0.6729636,4.4273,-4.718513,2.0340726,0.37988868,-0.29381105,0.0646023,0.8747492,-6.9221787,9.227344,-0.21123298,-0.43109882,-0.22154535,0.6594221,0
1.5700000000000012,13.371099511095766,0.4524767093267286,-1.1939591035021229,0.1920160691575654,15.411486,-0.73442143,-1.079838,0.6729636,4.357767,-4.6260157,2.0320175,0.37661913,-0.29297474,0.06340949,0.8765289,-6.984411,9.272082,-0.1997692,-0.2932461,-0.37312913,0.63648635,0
1.5800000000000012,13.371099511095766,0.4524767093267286,-1.1939591035021229,0.1920160691575654,15.411486,-0.73442143,-1.079838,0.6729636,4.2876115,-4.533074,2.030078,0.37367162,-0.29129082,0.062475972,0.87841666,-7.0466757,9.316233,-0.18808569,-0.17690507,-0.5010863,0.6146761,0
1.5900000000000012,13.371099511095766,0.4524767093267286,-1.1939591035021229,0.1920160691575654,15.411486,-0.73442143,-1.079838,0.6729636,4.216834,-4.439693,2.028257,0.37100402,-0.2888917,0.061760474,0.8803881,-7.108762,9.359798,-0.17606807,-0.07871819,-0.6090989,0.5939361,0
1.6000000000000012,13.13936416596094,0.49313018591986996,-1.7315625476006231,0.08729629538210538,18.007143,-1.1494628,-4.0052176,2.0495667,4.1454372,-4.3458796,2.0265582,0.36857986,-0.28588852,0.061227825,0.8824215,-7.1704893,9.402785,-0.16362192,0.0041477233,-0.7002756,0.57421374,0
1.6100000000000012,13.13936416596094,0.49313018591986996,-1.7315625476006231,0.08729629538210538,18.007143,-1.1494628,-4.0052176,2.0495667,4.073431,-4.2516427,2.0249765,0.3663967,-0.28217947,0.06077969,0.884553,-7.230634,9.444457,-0.15258794,0.08045122,-0.8610768,0.55032057,0
1.6200000000000012,13.13936416596094,0.49313018591986996,-1.7315625476006231,0.08729629538210538,18.007143,-1.1494628,-4.0052176,2.0495667,4.000827,-4.1569924,2.0235085,0.36445096,-0.27768722,0.060336433,0.88680595,-7.2900853,9.4855175,-0.14094388,0.1448424,-0.99680775,0.5275999,0
1.6300000000000012,13.13936416596094,0.49313018591986996,-1.7315625476006231,0.08729629538210538,18.007143,-1.1494628,-4.0052176,2.0495667,3.9276323,-4.061935,2.0221603,0.36271164,-0.2725311,0.059895493,0.8891454,-7.3486686,9.52592,-0.12859151,0.19918153,-1.1113763,0.5059941,0
1.6400000000000012,13.13936416596094,0.49313018591986996,-1.7315625476006231,0.08729629538210538,18.26691,-1.3729771,-4.606047,2.2606199,3.853857,-3.9664767,2.0209394,0.36115184,-0.26681164,0.059454575,0.8915413,-7.406235,9.565624,-0.115453884,0.2450383,-1.208082,0.48544848,0
1.6500000000000012,13.13936416596094,0.49313018591986996,-1.7315625476006231,0.08729629538210538,18.26691,-1.3729771,-4.606047,2.2606199,3.7795117,-3.870625,2.0198538,0.3597483,-0.2606137,0.05901167,0.8939682,-7.462653,9.604597,-0.101472475,0.2837375,-1.2897098,0.46591103,0
1.6600000000000013,13.13936416596094,0.49313018591986996,-1.7315625476006231,0.08729629538210538,18.26691,-1.3729771,-4.606047,2.2606199,3.7046082,-3.7743874,2.0189126,0.3584809,-0.25400898,0.05856506,0.8964044,-7.5178084,9.64281,-0.08660441,0.31639674,-1.3586104,0.44733235,0
1.6700000000000013,13.13936416596094,0.49313018591986996,-1.7315625476006231,0.08729629538210538,18.26691,-1.3729771,-4.606047,2.2606199,3.6291602,-3.6777716,2.0181246,0.35733223,-0.24705799,0.05811331,0.89883184,-7.571601,9.680236,-0.07082018,0.34395877,-1.416768,0.42966527,0
1.6800000000000013,13.012238288007788,0.239809774946749,-1.9424788053226263,0.057678279991741306,18.396042,-1.4876989,-4.652378,2.2757792,3.5531812,-3.5807853,2.0174992,0.35628724,-0.23981202,0.057655256,0.90123546,-7.6239424,9.716856,-0.054101646,0.36721963,-1.4658575,0.41286513,0
1.6900000000000013,13.012238288007788,0.239809774946749,-1.9424788053226263,0.057678279991741306,18.396042,-1.4876989,-4.652378,2.2757792,3.476689,-3.483439,2.0170403,0.35531694,-0.23227452,0.057067603,0.9036269,-7.6742644,9.752298,-0.037558377,0.34735256,-1.5401957,0.39543602,0
1.7000000000000013,13.012238288007788,0.239809774946749,-1.9424788053226263,0.057678279991741306,18.396042,-1.4876989,-4.652378,2.2757792,3.3997014,-3.3857424,2.0167515,0.3543982,-0.22445004,0.056252345,0.906013,-7.7230096,9.786851,-0.020066805,0.3305802,-1.6029395,0.37886217,0
1.7100000000000013,13.012238288007788,0.239809774946749,-1.9424788053226263,0.057678279991741306,18.396042,-1.4876989,-4.652378,2.2757792,3.3222344,-3.2877052,2.016642,0.3535266,-0.21638016,0.055242788,0.90837586,-7.770123,9.820447,-0.0016200971,0.31642076,-1.6558971,0.36310163,0
1.7200000000000013,12.763655593007483,-0.19478817020038136,-1.9779443313038767,0.12582652552807574,18.561724,-1.5942527,-4.51835,2.253818,3.244305,-3.189337,2.0167222,0.3526979,-0.20810023,0.054067213,0.9107004,-7.8155546,9.853024,0.01777969,0.30446723,-1.7005951,0.3481144,0
1.7300000000000013,12.763655593007483,-0.19478817020038136,-1.9779443313038767,0.12582652552807574,18.561724,-1.5942527,-4.51835,2.253818,3.1659336,-3.0906518,2.0169897,0.35186544,-0.19968817,0.052587844,0.9129895,-7.8584285,9.88392,0.035860058,0.22660616,-1.7438669,0.3372067,0
1.7400000000000013,12.763655593007483,-0.19478817020038136,-1.9779443313038767,0.12582652552807574,18.561724,-1.5942527,-4.51835,2.253818,3.0871425,-2.9916627,2.0174425,0.3509922,-0.19120723,0.050696637,0.9152453,-7.899612,9.913664,0.054849293,0.16088586,-1.7803868,0.3268342,0
1.7500000000000013,12.763655593007483,-0.19478817020038136,-1.9779443313038767,0.12582652552807574,18.561724,-1.5942527,-4.51835,2.253818,3.0079474,-2.8923826,2.0180895,0.35008696,-0.18266545,0.048455957,0.9174553,-7.939112,9.942159,0.0747259,0.10541362,-1.8112084,0.31697068,0
1.7600000000000013,12.31415763751226,-0.757582935715128,-1.8277785102868023,0.25820267613989883,18.665794,-1.9014243,-4.3711367,2.398364,2.9283662,-2.7928243,2.0189395,0.34915635,-0.17406979,0.045918662,0.91960907,-7.9769325,9.96932,0.09546422,0.058591563,-1.8372208,0.30759117,0
1.7700000000000014,12.31415763751226,-0.757582935715128,-1.8277785102868023,0.25820267613989883,18.665794,-1.9014243,-4.3711367,2.398364,2.848421,-2.6930058,2.0199802,0.34814924,-0.16555949,0.042946097,0.92170364,-8.01181,9.9941635,0.11281889,-0.06869348,-1.8357735,0.30516768,0
1.7800000000000014,12.31415763751226,-0.757582935715128,-1.8277785102868023,0.25820267613989883,18.665794,-1.9014243,-4.3711367,2.398364,2.7681353,-2.592946,2.0211983,0.34702545,-0.15724531,0.03943056,0.9237382,-8.045144,10.017541,0.13093366,-0.17612854,-1.8345476,0.30286312,0
1.7900000000000014,12.31415763751226,-0.757582935715128,-1.8277785102868023,0.25820267613989883,18.665794,-1.9014243,-4.3711367,2.398364,2.6875236,-2.4926605,2.0226011,0.34580368,-0.14909458,0.035455316,0.9257069,-8.077006,10.039347,0.14976422,-0.266809,-1.8335096,0.3006716,0
1.8000000000000014,11.490514411777554,-1.2888169633784834,-1.7997962924722275,0.44152139244116734,18.406797,-2.1686985,-4.069539,2.5119398,2.6066,-2.3921652,2.0241957,0.3444989,-0.14107977,0.031090917,0.9276045,-8.107458,10.059493,0.16926655,-0.34334752,-1.8326303,0.29858765,0
1.8100000000000014,11.490514411777554,-1.2888169633784834,-1.7997962924722275,0.44152139244116734,18.406797,-2.1686985,-4.069539,2.5119398,2.5253887,-2.291483,2.025949,0.34307206,-0.13326053,0.026206814,0.92943865,-8.134607,10.076666,0.18148816,-0.4907857,-1.8275406,0.30560142,0
1.8200000000000014,11.490514411777554,-1.2888169633784834,-1.7997962924722275,0.44152139244116734,18.406797,-2.1686985,-4.069539,2.5119398,2.443912,-2.1906376,2.0278275,0.34149075,-0.1256826,0.02070261,0.93121374,-8.160577,10.0921,0.19424944,-0.6152311,-1.8232415,0.31227106,0
1.8300000000000014,11.490514411777554,-1.2888169633784834,-1.7997962924722275,0.44152139244116734,18.406797,-2.1686985,-4.069539,2.5119398,2.362181,-2.089647,2.0298357,0.33977425,-0.118305996,0.014674274,0.93292093,-8.185449,10.105685,0.20750321,-0.7202696,-1.8196094,0.31861344,0
1.8400000000000014,11.490514411777554,-1.2888169633784834,-1.7997962924722275,0.44152139244116734,16.766403,-2.1964135,-3.2732236,2.2613852,2.2802064,-1.9885305,2.0319788,0.33793795,-0.111097075,0.008203123,0.9345522,-8.2092905,10.117328,0.22120148,-0.80892795,-1.8165411,0.32464457,0
1.8500000000000014,11.490514411777554,-1.2888169633784834,-1.7997962924722275,0.44152139244116734,16.766403,-2.1964135,-3.2732236,2.2613852,2.1979983,-1.8873075,2.034261,0.33599436,-0.10402767,0.0013580873,0.93610036,-8.232155,10.126948,0.2352953,-0.8837601,-1.8139489,0.33037975,0
1.8600000000000014,11.490514411777554,-1.2888169633784834,-1.7997962924722275,0.44152139244116734,16.766403,-2.1964135,-3.2732236,2.2613852,2.1155663,-1.7859987,2.0366862,0.33395362,-0.0970742,-0.005802365,0.9375593,-8.254084,10.13448,0.24973479,-0.9469226,-1.8117588,0.3358335,0
1.8700000000000014,11.490514411777554,-1.2888169633784834,-1.7997962924722275,0.44152139244116734,16.766403,-2.1964135,-3.2732236,2.2613852,2.0329196,-1.6846253,2.039257,0.33182392,-0.090216964,-0.0132286195,0.938924,-8.275111,10.139869,0.26446912,-1.000235,-1.8099082,0.3410196,0
1.8800000000000014,10.921573725006992,-1.6719525239418538,-1.5674008059868358,0.6668990239166379,17.140335,-2.6074173,-3.4054124,2.4993086,1.950067,-1.5832089,2.0419765,0.329612,-0.08343955,-0.020878546,0.9401901,-8.295259,10.143065,0.27944663,-1.0452337,-1.8083446,0.34595123,0
1.8900000000000015,10.921573725006992,-1.6719525239418538,-1.5674008059868358,0.6668990239166379,17.140335,-2.6074173,-3.4054124,2.4993086,1.8670222,-1.4817721,2.0448189,0.3272868,-0.07686678,-0.02882772,0.9413519,-8.3136015,10.143983,0.28900516,-1.1429603,-1.7708035,0.3617002,0
1.9000000000000015,10.921573725006992,-1.6719525239418538,-1.5674008059868358,0.6668990239166379,17.140335,-2.6074173,-3.4054124,2.4993086,1.7837975,-1.3803368,2.0477571,0.32482225,-0.07059713,-0.037134297,0.942405,-8.331202,10.142728,0.29868436,-1.2254468,-1.7391144,0.3766764,0
1.9100000000000015,10.921573725006992,-1.6719525239418538,-1.5674008059868358,0.6668990239166379,17.140335,-2.6074173,-3.4054124,2.4993086,1.7004004,-1.2789251,2.0507927,0.3222295,-0.06458258,-0.045741566,0.9433475,-8.3481245,10.139254,0.30842307,-1.2950698,-1.7123649,0.39091772,0
1.9200000000000015,10.467315245003995,-1.9344748003594694,-1.215880153866778,0.8722714711470816,17.117624,-3.0070388,-3.3191645,2.6518335,1.6168371,-1.1775593,2.0539255,0.31951776,-0.058782812,-0.054601338,0.94417757,-8.364427,10.133522,0.3181611,-1.3538351,-1.6897848,0.4044602,0
1.9300000000000015,10.467315245003995,-1.9344748003594694,-1.215880153866778,0.8722714711470816,17.117624,-3.0070388,-3.3191645,2.6518335,1.533117,-1.0762608,2.0571332,0.31667283,-0.05333174,-0.063725606,0.9448877,-8.379503,10.125835,0.32335514,-1.4443808,-1.615925,0.42741585,0
1.9400000000000015,10.467315245003995,-1.9344748003594694,-1.215880153866778,0.8722714711470816,17.117624,-3.0070388,-3.3191645,2.6518335,1.4492486,-0.9750504,2.0603921,0.31368273,-0.048334215,-0.07312203,0.9454733,-8.394118,10.1159315,0.32842654,-1.5208061,-1.553581,0.44924507,0
1.9500000000000015,10.467315245003995,-1.9344748003594694,-1.215880153866778,0.8722714711470816,17.117624,-3.0070388,-3.3191645,2.6518335,1.3652359,-0.87395,2.063701,0.31055722,-0.043719936,-0.08274667,0.9459363,-8.408358,10.103791,0.33331162,-1.5853127,-1.5009569,0.47000307,0
1.9600000000000015,10.270215553406532,-2.053704520940683,-0.753362991405368,1.089768703542972,15.901336,-2.8073905,-2.5522475,2.3761497,1.2810825,-0.77298224,2.0670576,0.30730417,-0.039429717,-0.092562035,0.9462777,-8.42229,10.089402,0.33794877,-1.6397592,-1.456537,0.4897425,0
1.9700000000000015,10.270215553406532,-2.053704520940683,-0.753362991405368,1.089768703542972,15.901336,-2.8073905,-2.5522475,2.3761497,1.1967922,-0.6721682,2.0704494,0.30392078,-0.0356061,-0.102523625,0.94649506,-8.4357195,10.073071,0.3403489,-1.7043227,-1.3469307,0.51918596,0
1.9800000000000015,10.270215553406532,-2.053704520940683,-0.753362991405368,1.089768703542972,15.901336,-2.8073905,-2.5522475,2.3761497,1.1123685,-0.5715285,2.0738635,0.30040452,-0.03236022,-0.11259512,0.9465896,-8.449004,10.05454,0.34238622,-1.7588168,-1.2544148,0.5471846,0
1.9900000000000015,10.270215553406532,-2.053704520940683,-0.753362991405368,1.089768703542972,15.901336,-2.8073905,-2.5522475,2.3761497,1.0278122,-0.47108495,2.0772958,0.29676136,-0.029603822,-0.12275759,0.9465656,-8.462238,10.033831,0.34400246,-1.8048117,-1.1763238,0.5738093,0
2.0000000000000013,,,,,14.437241,-2.6220334,-1.3413953,1.8083361,0.94312364,-0.37085932,2.080742,0.29299614,-0.027262488,-0.13299458,0.946426,-8.475496,10.01096,0.34514198,-1.8436326,-1.1104082,0.5991276,0
2.010000000000001,,,,,14.437241,-2.6220334,-1.3413953,1.8083361,0.8583024,-0.27087247,2.084194,0.289117,-0.025398366,-0.14321534,0.94617933,-8.488776,9.986078,0.345243,-1.8620232,-0.9998727,0.6300118,0
2.020000000000001,,,,,14.437241,-2.6220334,-1.3413953,1.8083361,0.77334756,-0.1711449,2.0876446,0.28513077,-0.024058249,-0.15334783,0.945836,-8.502223,9.959118,0.34477067,-1.8775438,-0.906573,0.6593805,0
2.0300000000000007,,,,,14.437241,-2.6220334,-1.3413953,1.8083361,0.6882571,-0.0716971,2.0910876,0.2810389,-0.02316348,-0.16340365,0.9453991,-8.515906,9.930128,0.34368205,-1.8906418,-0.8278211,0.6873081,0
2.0400000000000005,,,,,14.437241,-2.6220334,-1.3413953,1.8083361,0.6030284,0.027450837,2.0945163,0.2768427,-0.022647617,-0.17339206,0.94487035,-8.529882,9.899152,0.3419359,-1.901695,-0.7613483,0.71386516,0
2.0500000000000003,,,,,13.443085,-2.4129477,-1.026093,1.5168221,0.51765823,0.12627926,2.097924,0.27254337,-0.022454519,-0.18332049,0.9442505,-8.544197,9.866231,0.33949235,-1.9110224,-0.70523983,0.7391192,1
2.06,,,,,13.443085,-2.4129477,-1.026093,1.5168221,0.43212005,0.22471432,2.1014535,0.2680571,-0.022356171,-0.1934319,0.94351965,-8.563514,9.820383,0.36627594,-1.9892545,-0.75536376,0.7772812,1
2.07,,,,,13.443085,-2.4129477,-1.026093,1.5168221,0.34638634,0.322678,2.1052458,0.26330835,-0.022169916,-0.2039157,0.94265324,-8.583294,9.771935,0.39200085,-2.055289,-0.79766583,0.8135707,1
2.0799999999999996,,,,,13.443085,-2.4129477,-1.026093,1.5168221,0.26045266,0.42014384,2.1092894,0.25831014,-0.021913279,-0.21470502,0.94164586,-8.603504,9.720808,0.41657287,-2.111028,-0.8333659,0.84807944,1
2.0899999999999994,,,,,12.933223,-2.3331466,-1.4530474,1.3944855,0.1743149,0.5170847,2.1135726,0.25307477,-0.021601183,-0.22574303,0.9404925,-8.624103,9.666935,0.43989888,-2.1580772,-0.8634937,0.88089484,1
2.099999999999999,,,,,12.933223,-2.3331466,-1.4530474,1.3944855,0.087973386,0.6134836,2.1180596,0.24758956,-0.021074226,-0.23699443,0.93919563,-8.644244,9.612417,0.45733276,-2.1853108,-0.9554858,0.9060969,1
2.109999999999999,,,,,12.933223,-2.3331466,-1.4530474,1.3944855,0.0014292654,0.70932364,2.1227143,0.24184589,-0.020206574,-0.24842717,0.9377556,-8.664605,9.555156,0.47339362,-2.208304,-1.0331283,0.93006223,1
2.1199999999999988,,,,,12.933223,-2.3331466,-1.4530474,1.3944855,-0.08531907,0.8045772,2.1275225,0.23586074,-0.019055197,-0.2600009,0.9361653,-8.685069,9.495111,0.48799658,-2.227717,-1.0986592,0.95285165,1
2.1299999999999986,,,,,11.549511,-1.6429102,-1.5523857,0.9918946,-0.1722721,0.89921623,2.132469,0.22964987,-0.017668227,-0.27168125,0.9344182,-8.705528,9.432258,0.501058,-2.2441082,-1.1539676,0.9745227,1
2.1399999999999983,,,,,11.549511,-1.6429102,-1.5523857,0.9918946,-0.25941837,0.99324757,2.1374793,0.22326869,-0.01597288,-0.28319144,0.93257594,-8.723699,9.373619,0.5007836,-2.150312,-1.2160425,0.9753752,1
2.149999999999998,,,,,11.549511,-1.6429102,-1.5523857,0.9918946,-0.34674528,1.0866802,2.1424797,0.21677037,-0.013913183,-0.29431307,0.9306966,-8.741635,9.312534,0.4990446,-2.071149,-1.2684458,0.97618574,1
2.159999999999998,,,,,11.549511,-1.6429102,-1.5523857,0.9918946,-0.43424982,1.1794901,2.1474552,0.21016543,-0.011548901,-0.3050976,0.928769,-8.759207,9.2490835,0.4958327,-2.0043366,-1.3126848,0.97695655,1
2.1699999999999977,,,,,10.875969,-0.59067315,-1.3068216,0.4171107,-0.5219278,1.2716539,2.1523912,0.20346335,-0.008930172,-0.31558838,0.9267827,-8.7762985,9.183341,0.49113706,-1.9479479,-1.350031,0.9776896,1
2.1799999999999975,,,,,10.875969,-0.59067315,-1.3068216,0.4171107,-0.6097689,1.363169,2.1572459,0.19677398,-0.006082999,-0.32541376,0.9248503,-8.791843,9.119358,0.4795973,-1.73631,-1.3431264,0.9501819,1
2.1899999999999973,,,,,10.875969,-0.59067315,-1.3068216,0.4171107,-0.69776237,1.4540344,2.1619787,0.19019671,-0.0030288775,-0.33428666,0.9230751,-8.806734,9.053469,0.46673286,-1.5576749,-1.3373275,0.9240239,1
2.199999999999997,,,,,10.875969,-0.59067315,-1.3068216,0.4171107,-0.78590107,1.5442324,2.1665764,0.18372445,0.00020012743,-0.34235388,0.92143273,-8.82088,8.98585,0.45263278,-1.406896,-1.3324565,0.89914954,1
2.209999999999997,,,,,9.595101,0.4697449,-0.60324806,0.041410167,-0.87417716,1.633746,2.1710272,0.1773505,0.0035775779,-0.34973878,0.91989994,-8.834202,8.916654,0.43737477,-1.2796293,-1.3283644,0.8754958,1
2.2199999999999966,,,,,9.595101,0.4697449,-0.60324806,0.041410167,-0.9625747,1.722602,2.1752717,0.17120911,0.0069132545,-0.3561063,0.91860056,-8.845177,8.854345,0.4114113,-1.0069125,-1.2151,0.83456695,1
