time-since-start [s],throttle_mpc,roll_mpc,pitch_mpc,yaw_mpc,throttle_nw,roll_nw,pitch_nw,yaw_nw,position_x [m],position_y [m],position_z [m],rotation_w [quaternion],rotation_x [quaternion],rotation_y [quaternion],rotation_z [quaternion],velocity_x [m/s],velocity_y [m/s],velocity_z [m/s],omega_x [rad/s],omega_y [rad/s],omega_z [rad/s],network_used
0.0,10.26819414366911,5.999999549813319,-5.999999817882816,-2.45525011197949,11.268808,0.34435076,-2.1241202,-0.9685075,14.639783,-11.364639,2.5943658,-0.2731518,0.32165623,-0.36064142,-0.8317831,-9.3537445,-1.5256376,1.1111474,1.1815052,-0.4159298,-0.28763238,0
0.01,10.26819414366911,5.999999549813319,-5.999999817882816,-2.45525011197949,10.276334,-1.5006458,-2.4325151,0.32273427,14.546005,-11.379337,2.6053693,-0.2778144,0.3177077,-0.36483994,-0.8299234,-9.401432,-1.4143804,1.0891844,1.5132151,-0.8672824,-0.35645702,0
0.02,10.26819414366911,5.999999549813319,-5.999999817882816,-2.45525011197949,10.276334,-1.5006458,-2.4325151,0.32273427,14.451767,-11.392934,2.6161425,-0.28405192,0.3115997,-0.36964518,-0.8279992,-9.445717,-1.3051307,1.0651554,1.8324863,-1.2875968,-0.42542085,0
0.03,10.26819414366911,5.999999549813319,-5.999999817882816,-2.45525011197949,10.276334,-1.5006458,-2.4325151,0.32273427,14.357105,-11.405447,2.6266663,-0.29177612,0.30345204,-0.37501422,-0.8259224,-9.486072,-1.197744,1.0393603,2.1396217,-1.6800714,-0.49437028,0
0.04,10.26819414366911,5.999999549813319,-5.999999817882816,-2.45525011197949,9.348587,-1.1012603,-3.8997679,0.4792582,14.262061,-11.416894,2.6369245,-0.30089757,0.29336774,-0.38089663,-0.823598,-9.5220375,-1.0921252,1.0120398,2.4349906,-2.0475202,-0.5631696,0
0.05,10.26819414366911,5.999999549813319,-5.999999817882816,-2.45525011197949,9.348587,-1.1012603,-3.8997679,0.4792582,14.16668,-11.427294,2.6469028,-0.3113257,0.28143585,-0.38723585,-0.8209253,-9.553211,-0.98823035,0.9833806,2.7190092,-2.3924224,-0.63169885,0
0.060000000000000005,10.26819414366911,5.999999549813319,-5.999999817882816,-2.45525011197949,9.348587,-1.1012603,-3.8997679,0.4792582,14.071014,-11.436665,2.656588,-0.3229684,0.26773447,-0.39397028,-0.8178,-9.5792465,-0.8860677,0.9535203,2.9921231,-2.716966,-0.69985276,0
0.07,10.26819414366911,5.999999549813319,-5.999999817882816,-2.45525011197949,9.348587,-1.1012603,-3.8997679,0.4792582,13.975115,-11.445023,2.6659694,-0.33573195,0.2523331,-0.40103418,-0.81411505,-9.599844,-0.78569674,0.92255104,3.2547941,-3.0230825,-0.7675387,0
0.08,12.116800660847234,5.999999660844059,-5.999999848858742,-2.6034648773321027,8.242687,-0.48746425,-3.390904,0.12547721,13.879037,-11.452386,2.6750355,-0.3495208,0.23529495,-0.40835822,-0.8097622,-9.614754,-0.68722653,0.8905242,3.5074914,-3.3124838,-0.83467585,0
0.09,12.116800660847234,5.999999660844059,-5.999999848858742,-2.6034648773321027,8.242687,-0.48746425,-3.390904,0.12547721,13.782833,-11.458709,2.6838202,-0.36430353,0.21660317,-0.415897,-0.8046089,-9.624977,-0.5778499,0.866198,3.7798796,-3.6159635,-0.91107684,0
0.09999999999999999,12.116800660847234,5.999999660844059,-5.999999848858742,-2.6034648773321027,8.242687,-0.48746425,-3.390904,0.12547721,13.686561,-11.46395,2.6923556,-0.38003963,0.1962395,-0.42359665,-0.79851466,-9.628292,-0.47101304,0.840685,4.042264,-3.904628,-0.9866343,0
0.10999999999999999,12.116800660847234,5.999999660844059,-5.999999848858742,-2.6034648773321027,8.242687,-0.48746425,-3.390904,0.12547721,13.590291,-11.468138,2.7006295,-0.3966153,0.17426117,-0.4313706,-0.7913587,-9.624523,-0.367,0.81392825,4.295147,-4.1797266,-1.0612948,0
0.11999999999999998,12.116800660847234,5.999999660844059,-5.999999848858742,-2.6034648773321027,8.242687,-0.48746425,-3.390904,0.12547721,13.494096,-11.471301,2.7086296,-0.4139128,0.15072607,-0.43912983,-0.7830215,-9.613559,-0.26614293,0.78583616,4.539013,-4.4423733,-1.1350129,0
0.12999999999999998,15.144165619092238,5.4227248466889275,-5.999999618736733,-2.551179349734894,9.995888,0.4509918,-3.4626694,-0.44438395,13.398046,-11.473472,2.7163427,-0.43180272,0.12570786,-0.44677925,-0.77339,-9.595221,-0.16817066,0.75674284,4.7656517,-4.6848726,-1.2069951,0
0.13999999999999999,15.144165619092238,5.4227248466889275,-5.999999618736733,-2.551179349734894,9.995888,0.4509918,-3.4626694,-0.44438395,13.302248,-11.47455,2.7238503,-0.45006815,0.0994841,-0.45402107,-0.7625,-9.562521,-0.048018157,0.7447851,4.867751,-4.8902555,-1.2729546,0
0.15,15.144165619092238,5.4227248466889275,-5.999999618736733,-2.551179349734894,9.995888,0.4509918,-3.4626694,-0.44438395,13.206827,-11.4744425,2.7312374,-0.46850073,0.0723527,-0.46060598,-0.75040925,-9.519856,0.06916262,0.73255855,4.9539485,-5.063593,-1.3356775,0
0.16,14.974447964781305,3.274187078094544,-4.964172341661226,-1.008805450744353,10.427036,-1.0116781,-2.9628477,0.022437472,13.111884,-11.473181,2.7384999,-0.48695037,0.04448452,-0.46649525,-0.7370769,-9.467199,0.18258673,0.71982616,5.0267243,-5.209884,-1.3953226,0
0.17,14.974447964781305,3.274187078094544,-4.964172341661226,-1.008805450744353,10.427036,-1.0116781,-2.9628477,0.022437472,13.017513,-11.470813,2.7456264,-0.50492823,0.016672112,-0.47125074,-0.72297436,-9.405393,0.29025885,0.70539904,4.7535157,-5.171258,-1.3763561,0
0.18000000000000002,14.974447964781305,3.274187078094544,-4.964172341661226,-1.008805450744353,10.427036,-1.0116781,-2.9628477,0.022437472,12.923807,-11.467394,2.752605,-0.5220865,-0.01044335,-0.4745843,-0.7085802,-9.334399,0.39280403,0.690121,4.522905,-5.138703,-1.3583204,0
0.19000000000000003,14.974447964781305,3.274187078094544,-4.964172341661226,-1.008805450744353,10.427036,-1.0116781,-2.9628477,0.022437472,12.830853,-11.462976,2.7594259,-0.53848565,-0.03692878,-0.47666472,-0.69387305,-9.254881,0.48967767,0.67392176,4.3282495,-5.111264,-1.3411696,0
0.20000000000000004,13.722961368567773,1.8313576048886375,-3.2740669570483956,-0.7432940402031957,10.532477,-2.0683177,-1.7065407,0.29679945,12.738736,-11.457621,2.76608,-0.55417067,-0.06284195,-0.47763202,-0.6788321,-9.167474,0.5803999,0.65672386,4.1639433,-5.0881376,-1.3248605,0
0.21000000000000005,13.722961368567773,1.8313576048886375,-3.2740669570483956,-0.7432940402031957,10.532477,-2.0683177,-1.7065407,0.29679945,12.64749,-11.451426,2.7725232,-0.56888086,-0.08747052,-0.47759917,-0.66379386,-9.080745,0.65755117,0.6317792,3.8005114,-4.8048496,-1.2963228,0
0.22000000000000006,13.722961368567773,1.8313576048886375,-3.2740669570483956,-0.7432940402031957,10.532477,-2.0683177,-1.7065407,0.29679945,12.55714,-11.4444895,2.778712,-0.5824625,-0.110264525,-0.47671488,-0.64909315,-8.988176,0.72863185,0.6058268,3.4937057,-4.5658035,-1.2691855,0
0.23000000000000007,13.722961368567773,1.8313576048886375,-3.2740669570483956,-0.7432940402031957,10.532477,-2.0683177,-1.7065407,0.29679945,12.467743,-11.436873,2.7846365,-0.59508306,-0.13149078,-0.47512513,-0.6346986,-8.890529,0.79367375,0.5788731,3.2347038,-4.3640885,-1.2433798,0
0.24000000000000007,13.722961368567773,1.8313576048886375,-3.2740669570483956,-0.7432940402031957,10.643887,-2.246307,-0.30299047,0.37623087,12.379345,-11.428637,2.7902863,-0.606876,-0.15137714,-0.4729443,-0.6205724,-8.788461,0.85272753,0.55093235,3.0160577,-4.1938744,-1.2188405,0
0.25000000000000006,13.722961368567773,1.8313576048886375,-3.2740669570483956,-0.7432940402031957,10.643887,-2.246307,-0.30299047,0.37623087,12.291987,-11.419839,2.795652,-0.61794806,-0.17011741,-0.47026193,-0.60667443,-8.682544,0.9058531,0.5220217,2.83148,-4.050241,-1.1955053,0
0.26000000000000006,13.722961368567773,1.8313576048886375,-3.2740669570483956,-0.7432940402031957,10.643887,-2.246307,-0.30299047,0.37623087,12.205706,-11.410539,2.8007233,-0.6283845,-0.18787585,-0.46714836,-0.59296536,-8.573278,0.9531133,0.49215788,2.6756628,-3.9290369,-1.173315,0
0.2700000000000001,13.722961368567773,1.8313576048886375,-3.2740669570483956,-0.7432940402031957,10.643887,-2.246307,-0.30299047,0.37623087,12.120532,-11.400796,2.8054917,-0.63825357,-0.20479132,-0.46365893,-0.5794076,-8.461113,0.9945705,0.46135506,2.5441246,-3.826759,-1.1522138,0
0.2800000000000001,12.62276338883258,0.2808543469513942,-1.313838269326781,-0.348293781821291,11.001945,-2.518785,1.0022521,0.020012278,12.036492,-11.390667,2.8099475,-0.64760995,-0.22098085,-0.45983726,-0.56596667,-8.346446,1.0302844,0.42962414,2.4330828,-3.7404516,-1.1321481,0
0.2900000000000001,12.62276338883258,0.2808543469513942,-1.313838269326781,-0.348293781821291,11.001945,-2.518785,1.0022521,0.020012278,11.953563,-11.380221,2.8140552,-0.65625983,-0.23572446,-0.4558759,-0.55311286,-8.239023,1.0579549,0.3917382,2.097808,-3.3617222,-1.0936842,0
0.3000000000000001,12.62276338883258,0.2808543469513942,-1.313838269326781,-0.348293781821291,11.001945,-2.518785,1.0022521,0.020012278,11.8717165,-11.369525,2.81778,-0.66409576,-0.24847779,-0.45196557,-0.54125994,-8.13007,1.080835,0.35311416,1.8147556,-3.0421104,-1.0571077,0
0.3100000000000001,12.62276338883258,0.2808543469513942,-1.313838269326781,-0.348293781821291,11.001945,-2.518785,1.0022521,0.020012278,11.790965,-11.358621,2.8211155,-0.6712656,-0.25956595,-0.4481263,-0.5302927,-8.0199585,1.0993699,0.31387055,1.5757933,-2.7723868,-1.022326,0
0.3200000000000001,12.10295289617689,-1.8388909035134458,0.9746420568292858,0.3656974102362675,10.976389,-2.5507948,2.6029282,0.19835629,11.71132,-11.347551,2.8240557,-0.67788535,-0.2692612,-0.44436592,-0.52010405,-7.9089837,1.1139476,0.2741165,1.3740548,-2.5447626,-0.9892511,0
0.3300000000000001,12.10295289617689,-1.8388909035134458,0.9746420568292858,0.3656974102362675,10.976389,-2.5507948,2.6029282,0.19835629,11.632764,-11.336357,2.8265843,-0.68383265,-0.27678326,-0.44085,-0.5112872,-7.8019905,1.1245145,0.23158696,0.87343925,-1.9955518,-0.9227634,0
0.34000000000000014,12.10295289617689,-1.8388909035134458,0.9746420568292858,0.3656974102362675,10.976389,-2.5507948,2.6029282,0.19835629,11.555281,-11.325071,2.828687,-0.689039,-0.28154197,-0.43772984,-0.5043326,-7.6946893,1.1323558,0.18891734,0.45079544,-1.5320784,-0.85953826,0
0.35000000000000014,12.10295289617689,-1.8388909035134458,0.9746420568292858,0.3656974102362675,10.976389,-2.5507948,2.6029282,0.19835629,11.47887,-11.313717,2.830363,-0.6936452,-0.28399688,-0.43497333,-0.49899858,-7.5873137,1.1381799,0.14635558,0.093984544,-1.1409525,-0.7994155,0
0.36000000000000015,13.139695166050078,-4.050389790391833,3.2568418860171158,0.5839960456967492,11.600012,-3.3258765,3.825283,0.8790462,11.403533,-11.302313,2.831615,-0.6977535,-0.2845287,-0.43253988,-0.49506766,-7.4800367,1.1425916,0.10411449,-0.2072437,-0.81087697,-0.7422431,0
0.37000000000000016,13.139695166050078,-4.050389790391833,3.2568418860171158,0.5839960456967492,11.600012,-3.3258765,3.825283,0.8790462,11.329314,-11.290867,2.8324711,-0.70128226,-0.2823953,-0.43058,-0.49300724,-7.363834,1.1464752,0.067226656,-0.8062643,-0.1762618,-0.67716414,0
0.38000000000000017,13.139695166050078,-4.050389790391833,3.2568418860171158,0.5839960456967492,11.600012,-3.3258765,3.825283,0.8790462,11.256255,-11.279383,2.8329625,-0.7041534,-0.27701813,-0.42920467,-0.4931647,-7.2481084,1.15038,0.031234216,-1.311961,0.35930002,-0.61527866,0
0.3900000000000002,13.139695166050078,-4.050389790391833,3.2568418860171158,0.5839960456967492,11.600012,-3.3258765,3.825283,0.8790462,11.184349,-11.267856,2.8330998,-0.70642245,-0.26890185,-0.42830804,-0.49518734,-7.133075,1.155229,-0.0035519619,-1.7388668,0.8112755,-0.5564299,0
0.4000000000000002,16.267570756887963,-5.781848897105705,5.075381239861836,1.009206420022884,12.03895,-4.0143094,4.2824497,0.8068385,11.11359,-11.256272,2.8328962,-0.7081161,-0.25846496,-0.4277871,-0.49876332,-7.018937,1.1618042,-0.036892675,-2.0992522,1.1927148,-0.50046885,0
0.4100000000000002,16.267570756887963,-5.781848897105705,5.075381239861836,1.009206420022884,12.03895,-4.0143094,4.2824497,0.8068385,11.044101,-11.2446,2.8324459,-0.7090763,-0.24522203,-0.42769775,-0.5041338,-6.8790073,1.1729674,-0.052792367,-2.6734393,1.798274,-0.42638862,0
0.4200000000000002,16.267570756887963,-5.781848897105705,5.075381239861836,1.009206420022884,12.03895,-4.0143094,4.2824497,0.8068385,10.976003,-11.232798,2.8318477,-0.7091233,-0.22879227,-0.42804983,-0.51144,-6.740853,1.1882874,-0.066396825,-3.1581569,2.3093276,-0.35594356,0
0.4300000000000002,16.267570756887963,-5.781848897105705,5.075381239861836,1.009206420022884,12.03895,-4.0143094,4.2824497,0.8068385,10.909276,-11.220817,2.8311262,-0.7082257,-0.20963879,-0.42868477,-0.52028507,-6.604945,1.2088429,-0.077511676,-3.567339,2.7406323,-0.28895524,0
0.4400000000000002,16.267570756887963,-5.781848897105705,5.075381239861836,1.009206420022884,13.13631,-4.939573,5.4682846,1.0330225,10.843895,-11.2086,2.8303065,-0.70634377,-0.18815465,-0.4294596,-0.5303208,-6.471801,1.2355236,-0.086059816,-3.9127502,3.1046383,-0.22525412,0
0.45000000000000023,16.267570756887963,-5.781848897105705,5.075381239861836,1.009206420022884,13.13631,-4.939573,5.4682846,1.0330225,10.779829,-11.196082,2.8294137,-0.7034369,-0.16467717,-0.43024823,-0.54124284,-6.3419795,1.2690469,-0.09207013,-4.204324,3.411852,-0.16467878,0
0.46000000000000024,16.267570756887963,-5.781848897105705,5.075381239861836,1.009206420022884,13.13631,-4.939573,5.4682846,1.0330225,10.717042,-11.183192,2.828473,-0.6994686,-0.13949873,-0.43094137,-0.5527863,-6.2160788,1.3099726,-0.09566591,-4.4504476,3.6711383,-0.107075885,0
0.47000000000000025,16.267570756887963,-5.781848897105705,5.075381239861836,1.009206420022884,13.13631,-4.939573,5.4682846,1.0330225,10.655492,-11.169854,2.8275077,-0.69440836,-0.112874985,-0.43144578,-0.5647213,-6.0947237,1.3587148,-0.09705351,-4.658202,3.8899777,-0.052299596,0
0.48000000000000026,18.743418064010225,-5.99999589926052,5.713772238374523,1.5901725238573001,15.033236,-5.35272,5.0035825,1.1046542,10.59513,-11.15599,2.8265383,-0.68823296,-0.08503133,-0.4316828,-0.57684875,-5.978557,1.4155515,-0.09651123,-4.833566,4.074683,-0.0002111923,0
0.49000000000000027,18.743418064010225,-5.99999589926052,5.713772238374523,1.5901725238573001,15.033236,-5.35272,5.0035825,1.1046542,10.535986,-11.141466,2.825659,-0.6807777,-0.055990208,-0.43170366,-0.5890994,-5.8514423,1.49056,-0.07913038,-5.01569,4.3300433,0.077829406,0
0.5000000000000002,18.743418064010225,-5.99999589926052,5.713772238374523,1.5901725238573001,15.033236,-5.35272,5.0035825,1.1046542,10.478076,-11.126145,2.8249605,-0.67189246,-0.025790548,-0.43153626,-0.6013911,-5.731855,1.5752586,-0.06042247,-5.169422,4.5455775,0.15204051,0
0.5100000000000002,18.743418064010225,-5.99999589926052,5.713772238374523,1.5901725238573001,15.033236,-5.35272,5.0035825,1.1046542,10.421321,-11.109929,2.8244534,-0.66158515,0.0053540943,-0.43108967,-0.61354506,-5.620597,1.6696926,-0.040955096,-5.299185,4.7275004,0.22261007,0
0.5200000000000002,19.456359793675546,-5.566875438537995,4.747596707332399,1.2243890452756618,17.417553,-5.1863804,4.555545,0.80714333,10.365633,-11.092718,2.824142,-0.64986926,0.037251316,-0.43028906,-0.6254064,-5.5184526,1.7737461,-0.021339998,-5.408711,4.881057,0.28971675,0
0.5300000000000002,19.456359793675546,-5.566875438537995,4.747596707332399,1.2243890452756618,17.417553,-5.1863804,4.555545,0.80714333,10.310936,-11.074399,2.8240473,-0.6369726,0.06939166,-0.42893496,-0.63676137,-5.422646,1.8914394,0.002250827,-5.433518,4.860077,0.33558142,0
0.5400000000000003,19.456359793675546,-5.566875438537995,4.747596707332399,1.2243890452756618,17.417553,-5.1863804,4.555545,0.80714333,10.257143,-11.054857,2.8241837,-0.62311924,0.101355,-0.42689124,-0.64746654,-5.3376656,2.0182204,0.024749653,-5.454449,4.842376,0.37919545,0
0.5500000000000003,19.456359793675546,-5.566875438537995,4.747596707332399,1.2243890452756618,17.417553,-5.1863804,4.555545,0.80714333,10.204144,-11.034005,2.824537,-0.60832244,0.13309973,-0.42418674,-0.65749025,-5.2640142,2.153374,0.04559584,-5.472109,4.8274436,0.42066935,0
0.5600000000000003,18.02247345965224,-4.128828535528782,3.117277533794308,1.0149361773773629,18.235779,-5.4723716,3.7529325,0.45764795,10.151822,-11.011763,2.825088,-0.5925987,0.16458525,-0.42084748,-0.6668024,-5.2021337,2.2961397,0.06423495,-5.487008,4.8148465,0.4601081,0
0.5700000000000003,18.02247345965224,-4.128828535528782,3.117277533794308,1.0149361773773629,18.235779,-5.4723716,3.7529325,0.45764795,10.1000395,-10.988113,2.8257701,-0.5763712,0.19501159,-0.41690373,-0.6752463,-5.1560106,2.4346573,0.07174456,-5.275202,4.550081,0.4873337,0
0.5800000000000003,18.02247345965224,-4.128828535528782,3.117277533794308,1.0149361773773629,18.235779,-5.4723716,3.7529325,0.45764795,10.048663,-10.963051,2.8265133,-0.56004685,0.22376116,-0.41243172,-0.6827724,-5.1209903,2.578473,0.07640412,-5.0964284,4.3266068,0.51322323,0
0.5900000000000003,18.02247345965224,-4.128828535528782,3.117277533794308,1.0149361773773629,18.235779,-5.4723716,3.7529325,0.45764795,9.9975815,-10.936528,2.8272877,-0.54361296,0.25104487,-0.4075088,-0.6894908,-5.0968437,2.7266345,0.07797891,-4.945535,4.137984,0.53784245,0
0.6000000000000003,15.41956007267843,-2.332826331225358,1.1429936433494625,0.7262095399310842,17.448112,-4.2742023,2.0829568,0.061778683,9.946689,-10.908506,2.8280616,-0.5270538,0.27704135,-0.40219522,-0.6954862,-5.0833416,2.8782835,0.07626865,-4.8181753,3.978776,0.56125355,0
0.6100000000000003,15.41956007267843,-2.332826331225358,1.1429936433494625,0.7262095399310842,17.448112,-4.2742023,2.0829568,0.061778683,9.895875,-10.8790655,2.8287337,-0.5109097,0.30099595,-0.3966258,-0.700757,-5.080638,3.010327,0.057709284,-4.430444,3.5366554,0.569348,0
0.6200000000000003,15.41956007267843,-2.332826331225358,1.1429936433494625,0.7262095399310842,17.448112,-4.2742023,2.0829568,0.061778683,9.845048,-10.848295,2.8292058,-0.4956632,0.32235345,-0.39095414,-0.70537984,-5.0861716,3.1439548,0.036314834,-4.103199,3.1634657,0.5770452,0
0.6300000000000003,15.41956007267843,-2.332826331225358,1.1429936433494625,0.7262095399310842,17.448112,-4.2742023,2.0829568,0.061778683,9.794127,-10.816183,2.8294506,-0.4812073,0.34151953,-0.38523766,-0.7095037,-5.099276,3.2785563,0.012257199,-3.8270056,2.8484597,0.5843647,0
0.6400000000000003,15.41956007267843,-2.332826331225358,1.1429936433494625,0.7262095399310842,16.112612,-3.8986049,1.4880875,0.009111543,9.74304,-10.782722,2.8294423,-0.4674385,0.35883456,-0.37951332,-0.7132379,-5.1193705,3.4136457,-0.0142930355,-3.5939,2.5825653,0.59132504,0
0.6500000000000004,15.41956007267843,-2.332826331225358,1.1429936433494625,0.7262095399310842,16.112612,-3.8986049,1.4880875,0.009111543,9.691719,-10.74791,2.8291564,-0.4542601,0.37458372,-0.3738037,-0.7166626,-5.1459494,3.5488312,-0.04317417,-3.3971603,2.358126,0.5979439,0
0.6600000000000004,15.41956007267843,-2.332826331225358,1.1429936433494625,0.7262095399310842,16.112612,-3.8986049,1.4880875,0.009111543,9.6401005,-10.711746,2.828571,-0.44158423,0.38900587,-0.36812153,-0.71983606,-5.1785765,3.6837935,-0.07423747,-3.2311132,2.1686783,0.6042379,0
0.6700000000000004,15.41956007267843,-2.332826331225358,1.1429936433494625,0.7262095399310842,16.112612,-3.8986049,1.4880875,0.009111543,9.588128,-10.674236,2.8276649,-0.42933226,0.40230092,-0.36247277,-0.7228007,-5.216873,3.8182685,-0.10734902,-3.0909708,2.0087667,0.61022305,0
0.6800000000000004,13.583424082196654,-0.6558819841656776,-0.6783616992761338,0.4400831871572397,13.713308,-3.2489932,1.0548655,0.21205558,9.535746,-10.635385,2.8264177,-0.41743472,0.41463622,-0.3568588,-0.725587,-5.2605124,3.9520335,-0.14239012,-2.972692,1.8737856,0.6159145,0
0.6900000000000004,13.583424082196654,-0.6558819841656776,-0.6783616992761338,0.4400831871572397,13.713308,-3.2489932,1.0548655,0.21205558,9.482929,-10.595279,2.8247743,-0.40640068,0.4253618,-0.35145316,-0.7282762,-5.303361,4.069081,-0.18651527,-2.6112187,1.4759395,0.6072864,0
0.7000000000000004,13.583424082196654,-0.6558819841656776,-0.6783616992761338,0.4400831871572397,13.713308,-3.2489932,1.0548655,0.21205558,9.429666,-10.554008,2.8226829,-0.3966511,0.43399283,-0.34641278,-0.7309692,-5.3500705,4.18523,-0.23191372,-2.3061461,1.1401106,0.5990817,0
0.7100000000000004,13.583424082196654,-0.6558819841656776,-0.6783616992761338,0.4400831871572397,13.713308,-3.2489932,1.0548655,0.21205558,9.375917,-10.511579,2.8201325,-0.38800478,0.4408753,-0.34170637,-0.7337013,-5.400087,4.300423,-0.27825442,-2.0486734,0.8566319,0.5912796,0
0.7200000000000004,12.48709489061927,1.0053256139322668,-2.123832331233689,0.18503503648189912,12.14089,-1.7764934,0.04266271,0.15399493,9.321654,-10.468002,2.8171153,-0.38030222,0.44629565,-0.33730015,-0.7364907,-5.4529457,4.414636,-0.32524967,-1.8313733,0.61734295,0.5838604,0
0.7300000000000004,12.48709489061927,1.0053256139322668,-2.123832331233689,0.18503503648189912,12.14089,-1.7764934,0.04266271,0.15399493,9.266872,-10.423334,2.8136053,-0.37392145,0.4498263,-0.3334195,-0.73937136,-5.5037518,4.5187364,-0.3767195,-1.3888265,0.19004449,0.5642899,0
0.7400000000000004,12.48709489061927,1.0053256139322668,-2.123832331233689,0.18503503648189912,12.14089,-1.7764934,0.04266271,0.15399493,9.211574,-10.377629,2.8095803,-0.36915997,0.45114747,-0.33024558,-0.7423774,-5.556197,4.6220193,-0.42818642,-1.0153291,-0.17065346,0.54567975,0
0.7500000000000004,12.48709489061927,1.0053256139322668,-2.123832331233689,0.18503503648189912,12.14089,-1.7764934,0.04266271,0.15399493,9.155744,-10.330895,2.8050427,-0.36577582,0.4506165,-0.32768148,-0.7455046,-5.6097183,4.72459,-0.47930333,-0.7001063,-0.47513053,0.5279828,0
0.7600000000000005,11.918056661246084,2.1647068658957345,-3.3261976773378983,-0.057896531195547773,12.070293,-0.7927585,-0.30905595,-0.49515304,9.099376,-10.283139,2.7999969,-0.36355898,0.44852766,-0.32563832,-0.74873686,-5.6638403,4.826547,-0.5297775,-0.4340647,-0.73214823,0.51115423,0
0.7700000000000005,11.918056661246084,2.1647068658957345,-3.3261976773378983,-0.057896531195547773,12.070293,-0.7927585,-0.30905595,-0.49515304,9.0424795,-10.234389,2.7944393,-0.36271456,0.4446042,-0.3241959,-0.75210476,-5.715657,4.9233623,-0.58155626,-0.02867335,-1.136553,0.4832307,0
0.7800000000000005,11.918056661246084,2.1647068658957345,-3.3261976773378983,-0.057896531195547773,12.070293,-0.7927585,-0.30905595,-0.49515304,8.985065,-10.184673,2.7883697,-0.36339062,0.43863204,-0.3234076,-0.75561625,-5.767114,5.0197945,-0.6321511,0.31346518,-1.4779243,0.45667747,0
0.7900000000000005,11.918056661246084,2.1647068658957345,-3.3261976773378983,-0.057896531195547773,12.070293,-0.7927585,-0.30905595,-0.49515304,8.927141,-10.133993,2.7818012,-0.36534,0.43091592,-0.32316044,-0.7592132,-5.817706,5.1159434,-0.68126553,0.6022222,-1.7660855,0.43142718,0
0.8000000000000005,12.019300663275532,2.651091269258914,-3.8335474528959317,-0.23356799309854911,11.441244,0.33662623,-0.47930637,-0.3214124,8.868716,-10.082354,2.7747502,-0.36835018,0.42170858,-0.3233545,-0.76283747,-5.8669934,5.211878,-0.7286621,0.845928,-2.0093288,0.40741593,0
0.8100000000000005,12.019300663275532,2.651091269258914,-3.8335474528959317,-0.23356799309854911,11.441244,0.33662623,-0.47930637,-0.3214124,8.809805,-10.029752,2.7672367,-0.37240204,0.41100016,-0.32396626,-0.7664467,-5.9149857,5.3084536,-0.7737007,1.127471,-2.2937627,0.37596264,0
0.8200000000000005,12.019300663275532,2.651091269258914,-3.8335474528959317,-0.23356799309854911,11.441244,0.33662623,-0.47930637,-0.3214124,8.750423,-9.976185,2.7592833,-0.37746575,0.39878815,-0.32496613,-0.76998943,-5.9608407,5.4048805,-0.816622,1.3650883,-2.5338593,0.34605283,0
0.8300000000000005,12.019300663275532,2.651091269258914,-3.8335474528959317,-0.23356799309854911,11.441244,0.33662623,-0.47930637,-0.3214124,8.690596,-9.921656,2.7509122,-0.3833575,0.38527718,-0.32626432,-0.773401,-6.004158,5.5011535,-0.8572725,1.565635,-2.7365286,0.31761065,0
0.8400000000000005,12.019300663275532,2.651091269258914,-3.8335474528959317,-0.23356799309854911,10.768404,0.5774283,-0.40209666,-0.5011827,8.630349,-9.866165,2.742146,-0.38992015,0.37064058,-0.3277833,-0.7766241,-6.044585,5.5972357,-0.89554745,1.7348957,-2.9076035,0.29056412,0
0.8500000000000005,12.019300663275532,2.651091269258914,-3.8335474528959317,-0.23356799309854911,10.768404,0.5774283,-0.40209666,-0.5011827,8.5697155,-9.809713,2.7330093,-0.39701948,0.3550259,-0.32945666,-0.7796085,-6.08181,5.693061,-0.9313842,1.8777523,-3.0520084,0.2648448,0
0.8600000000000005,12.019300663275532,2.651091269258914,-3.8335474528959317,-0.23356799309854911,10.768404,0.5774283,-0.40209666,-0.5011827,8.508726,-9.752305,2.7235267,-0.40454087,0.33855963,-0.33122787,-0.7823114,-6.1155577,5.788541,-0.9647573,1.9983246,-3.1739,0.24038753,0
0.8700000000000006,12.019300663275532,2.651091269258914,-3.8335474528959317,-0.23356799309854911,10.768404,0.5774283,-0.40209666,-0.5011827,8.447417,-9.693944,2.7137225,-0.41238648,0.3213507,-0.3330489,-0.7846964,-6.145585,5.883564,-0.99567354,2.1000896,-3.2767873,0.2171304,0
0.8800000000000006,12.128262119330985,2.3231924682152374,-3.669617627802393,-0.3090410077965871,10.436993,0.9811067,0.38997087,-0.76698864,8.385828,-9.634637,2.7036214,-0.42047274,0.30349338,-0.33487928,-0.78673327,-6.1716805,5.9780025,-1.0241678,2.185982,-3.3636332,0.1950145,0
0.8900000000000006,12.128262119330985,2.3231924682152374,-3.669617627802393,-0.3090410077965871,10.436993,0.9811067,0.38997087,-0.76698864,8.3239975,-9.574384,2.6932504,-0.42867523,0.28518045,-0.33660707,-0.7884188,-6.1938653,6.0725636,-1.0496477,2.2073312,-3.4113843,0.17028035,0
0.9000000000000006,12.128262119330985,2.3231924682152374,-3.669617627802393,-0.3090410077965871,10.436993,0.9811067,0.38997087,-0.76698864,8.261966,-9.513188,2.6826363,-0.43689758,0.2665751,-0.33814463,-0.78975654,-6.2117944,6.1662292,-1.0728287,2.225351,-3.4516876,0.14675991,0
0.9100000000000006,12.128262119330985,2.3231924682152374,-3.669617627802393,-0.3090410077965871,10.436993,0.9811067,0.38997087,-0.76698864,8.199777,-9.451062,2.6718016,-0.44511086,0.24771343,-0.3394934,-0.79073226,-6.225391,6.2588334,-1.0938107,2.240562,-3.485705,0.12439363,0
0.9200000000000006,12.292150347575497,1.4661696381021536,-2.985142112507797,-0.2802121410899726,10.593824,0.7248058,0.72511524,-0.6681174,8.137473,-9.388017,2.6607673,-0.4532897,0.22862755,-0.34065503,-0.7913349,-6.2345924,6.3502073,-1.1127048,2.2534018,-3.5144157,0.10312486,0
0.9300000000000006,12.292150347575497,1.4661696381021536,-2.985142112507797,-0.2802121410899726,10.593824,0.7248058,0.72511524,-0.6681174,8.075099,-9.324057,2.6495595,-0.4612417,0.2097193,-0.34148753,-0.79161805,-6.2394357,6.4414024,-1.1285385,2.130586,-3.4319103,0.08431439,0
0.9400000000000006,12.292150347575497,1.4661696381021536,-2.985142112507797,-0.2802121410899726,10.593824,0.7248058,0.72511524,-0.6681174,8.012699,-9.259193,2.6382027,-0.46882948,0.19131745,-0.34188905,-0.7916485,-6.2399173,6.5310326,-1.1425319,2.0269275,-3.3622665,0.06642696,0
0.9500000000000006,12.292150347575497,1.4661696381021536,-2.985142112507797,-0.2802121410899726,10.593824,0.7248058,0.72511524,-0.6681174,7.9503155,-9.193441,2.6267145,-0.4761045,0.17334856,-0.34191465,-0.7914342,-6.236191,6.6189666,-1.1548319,1.9394385,-3.3034794,0.049417283,0
0.9600000000000006,11.99694103585663,0.2672270726092746,-2.12531695920616,-0.12979092084975546,10.759014,-0.07102449,1.2540648,-0.5941068,7.8879895,-9.12682,2.6151114,-0.48310792,0.15574984,-0.34161052,-0.7909804,-6.2283916,6.7050824,-1.1655751,1.8655965,-3.2538571,0.033242278,0
0.9700000000000006,11.99694103585663,0.2672270726092746,-2.12531695920616,-0.12979092084975546,10.759014,-0.07102449,1.2540648,-0.5941068,7.8257604,-9.059357,2.6033974,-0.48967165,0.13896732,-0.34080803,-0.7904168,-6.2169557,6.787252,-1.1770233,1.6163117,-3.077876,0.025242204,0
0.9800000000000006,11.99694103585663,0.2672270726092746,-2.12531695920616,-0.12979092084975546,10.759014,-0.07102449,1.2540648,-0.5941068,7.763663,-8.991081,2.5915754,-0.495682,0.12335687,-0.3393867,-0.7898722,-6.2020063,6.867479,-1.1871936,1.4059058,-2.9293354,0.017634684,0
0.9900000000000007,11.99694103585663,0.2672270726092746,-2.12531695920616,-0.12979092084975546,10.759014,-0.07102449,1.2540648,-0.5941068,7.701731,-8.922014,2.5796576,-0.5012387,0.1087455,-0.337445,-0.78934413,-6.1838737,6.9457216,-1.1961827,1.2283151,-2.803957,0.010400454,0
1.0000000000000007,11.748398301567592,-0.9625699131517793,-1.080125218573502,0.11683433689198879,11.748185,-0.5842238,1.2439581,-0.056127768,7.6399956,-8.852175,2.5676553,-0.5064217,0.09498496,-0.33506435,-0.78882563,-6.1628375,7.0219507,-1.2040708,1.078421,-2.6981292,0.0035212121,0
1.0100000000000007,11.748398301567592,-0.9625699131517793,-1.080125218573502,0.11683433689198879,11.748185,-0.5842238,1.2439581,-0.056127768,7.5784817,-8.7815895,2.5555701,-0.51108927,0.08251873,-0.33214113,-0.78845406,-6.1396604,7.094615,-1.2128158,0.7601379,-2.4458,0.009081523,0
1.0200000000000007,11.748398301567592,-0.9625699131517793,-1.080125218573502,0.11683433689198879,11.748185,-0.5842238,1.2439581,-0.056127768,7.51721,-8.710287,2.5434024,-0.5151441,0.071692914,-0.3286039,-0.788356,-6.114319,7.1653414,-1.2205976,0.49148914,-2.2328236,0.014368984,0
1.0300000000000007,11.748398301567592,-0.9625699131517793,-1.080125218573502,0.11683433689198879,11.748185,-0.5842238,1.2439581,-0.056127768,7.456201,-8.638288,2.5311615,-0.5186998,0.06225788,-0.32455555,-0.78850317,-6.087225,7.2341986,-1.2274476,0.26473454,-2.0530622,0.01939698,0
1.0400000000000007,11.748398301567592,-0.9625699131517793,-1.080125218573502,0.11683433689198879,12.310534,-1.1124595,1.4594496,0.15794148,7.3954706,-8.56561,2.5188565,-0.5218466,0.05400101,-0.32008013,-0.788865,-6.0587254,7.30125,-1.2333853,0.07334125,-1.9013354,0.024178244,0
1.0500000000000007,11.748398301567592,-0.9625699131517793,-1.080125218573502,0.11683433689198879,12.310534,-1.1124595,1.4594496,0.15794148,7.33503,-8.49227,2.5064967,-0.5246563,0.046741623,-0.3152465,-0.78941107,-6.029111,7.366554,-1.2384236,-0.08820525,-1.7732707,0.02872492,0
1.0600000000000007,11.748398301567592,-0.9625699131517793,-1.080125218573502,0.11683433689198879,12.310534,-1.1124595,1.4594496,0.15794148,7.2748914,-8.418285,2.494091,-0.5271863,0.04032634,-0.31011134,-0.790113,-5.9986267,7.4301605,-1.2425716,-0.22455934,-1.6651783,0.033048477,0
1.0700000000000007,11.748398301567592,-0.9625699131517793,-1.080125218573502,0.11683433689198879,12.310534,-1.1124595,1.4594496,0.15794148,7.2150607,-8.343673,2.4816482,-0.52948254,0.03462509,-0.30472156,-0.79094446,-5.96748,7.4921145,-1.2458363,-0.33964935,-1.5739429,0.037159886,0
1.0800000000000007,11.772688468530403,-1.9887874754575576,-0.06793579370296418,0.44493475911191377,13.233805,-1.7438778,1.4235092,0.3510522,7.155544,-8.268449,2.4691772,-0.5315821,0.029527659,-0.29911616,-0.791882,-5.935847,7.552453,-1.2482244,-0.43679166,-1.4969357,0.041069537,0
1.0900000000000007,11.772688468530403,-1.9887874754575576,-0.06793579370296418,0.44493475911191377,13.233805,-1.7438778,1.4235092,0.3510522,7.0963454,-8.192628,2.4566877,-0.5333516,0.02546813,-0.29321927,-0.79303783,-5.9038353,7.6113405,-1.2495416,-0.6788138,-1.2740989,0.06088733,0
1.1000000000000008,11.772688468530403,-1.9887874754575576,-0.06793579370296418,0.44493475911191377,13.233805,-1.7438778,1.4235092,0.3510522,7.0374675,-8.116225,2.4441895,-0.53468704,0.022785433,-0.28697315,-0.79450375,-5.87182,7.6687574,-1.2499803,-0.8830973,-1.0860171,0.07973265,0
1.1100000000000008,11.772688468530403,-1.9887874754575576,-0.06793579370296418,0.44493475911191377,13.233805,-1.7438778,1.4235092,0.3510522,6.978908,-8.039256,2.4316914,-0.53565305,0.021264933,-0.28043088,-0.7962294,-5.8401155,7.7248163,-1.2495329,-1.0555263,-0.92726916,0.09765322,0
1.1200000000000008,12.136299194570677,-2.8889483572799146,0.8293416720897275,0.7638830300868058,13.464038,-2.3512912,1.5994571,0.6082109,6.9206634,-7.9617333,2.419202,-0.536301,0.02072506,-0.27363616,-0.7981692,-5.808988,7.779611,-1.2481946,-1.2010674,-0.7932791,0.11469443,0
1.1300000000000008,12.136299194570677,-2.8889483572799146,0.8293416720897275,0.7638830300868058,13.464038,-2.3512912,1.5994571,0.6082109,6.8627305,-7.8836603,2.4067461,-0.53653514,0.021481618,-0.26653045,-0.8003932,-5.7777514,7.834885,-1.2428646,-1.464299,-0.540282,0.14655028,0
1.1400000000000008,12.136299194570677,-2.8889483572799146,0.8293416720897275,0.7638830300868058,13.464038,-2.3512912,1.5994571,0.6082109,6.8051043,-7.80504,2.3943481,-0.5362753,0.023776425,-0.25906694,-0.8029489,-5.7477303,7.8890815,-1.2366087,-1.6864859,-0.32674414,0.17684297,0
1.1500000000000008,12.136299194570677,-2.8889483572799146,0.8293416720897275,0.7638830300868058,13.464038,-2.3512912,1.5994571,0.6082109,6.7477703,-7.7258816,2.3820171,-0.53557783,0.027367854,-0.25129372,-0.80576545,-5.7192836,7.94233,-1.2294282,-1.874027,-0.14650993,0.2056492,0
1.1600000000000008,12.938322441545179,-3.5177185443264185,1.357362426405657,1.0669916063592375,13.928873,-2.5045323,1.4523307,0.8635646,6.690712,-7.646196,2.3697627,-0.5344872,0.03205148,-0.24325089,-0.8087795,-5.6927166,7.994732,-1.221336,-2.0323236,0.005616285,0.23304188,0
1.1700000000000008,12.938322441545179,-3.5177185443264185,1.357362426405657,1.0669916063592375,13.928873,-2.5045323,1.4523307,0.8635646,6.6339164,-7.565973,2.3576288,-0.53294826,0.03795068,-0.23488192,-0.81200707,-5.6666946,8.049782,-1.2052795,-2.2640078,0.21632515,0.27396405,0
1.1800000000000008,12.938322441545179,-3.5177185443264185,1.357362426405657,1.0669916063592375,13.928873,-2.5045323,1.4523307,0.8635646,6.5773683,-7.4852033,2.3456602,-0.5309092,0.045152895,-0.22614105,-0.81544834,-5.64333,8.104114,-1.1883081,-2.459565,0.39417237,0.31287813,0
1.1900000000000008,12.938322441545179,-3.5177185443264185,1.357362426405657,1.0669916063592375,13.928873,-2.5045323,1.4523307,0.8635646,6.5210395,-7.4038935,2.333866,-0.52840614,0.05344964,-0.21707407,-0.8190288,-5.622963,8.157804,-1.1704699,-2.6246269,0.54428464,0.34988266,0
1.2000000000000008,13.874388977694549,-3.765951900820105,1.5559121204194266,1.288076356868346,14.543314,-3.7839952,1.963513,1.3608698,6.464898,-7.3220496,2.3222537,-0.5254684,0.06266409,-0.20772026,-0.8226832,-5.6058846,8.210901,-1.1518309,-2.763948,0.6709887,0.3850714,1
1.2100000000000009,13.874388977694549,-3.765951900820105,1.5559121204194266,1.288076356868346,14.543314,-3.7839952,1.963513,1.3608698,6.4089184,-7.2396445,2.3109045,-0.5220327,0.07289429,-0.19815502,-0.8263789,-5.590674,8.2699585,-1.1179068,-2.9231012,0.87242633,0.43295416,1
1.2200000000000009,13.874388977694549,-3.765951900820105,1.5559121204194266,1.288076356868346,14.543314,-3.7839952,1.963513,1.3608698,6.35307,-7.156652,2.299898,-0.51804316,0.08420867,-0.18843871,-0.83007836,-5.579773,8.328459,-1.0833119,-3.057436,1.0424522,0.47848725,1
1.2300000000000009,13.874388977694549,-3.765951900820105,1.5559121204194266,1.288076356868346,14.543314,-3.7839952,1.963513,1.3608698,6.297307,-7.0730777,2.28924,-0.5135319,0.09642795,-0.1785833,-0.8337227,-5.5734806,8.386464,-1.0482025,-3.1708205,1.1859664,0.52178603,1
1.2400000000000009,13.874388977694549,-3.765951900820105,1.5559121204194266,1.288076356868346,15.45793,-3.9587035,1.634883,1.5500628,6.2415833,-6.988925,2.278935,-0.5085261,0.109399356,-0.16860026,-0.83726096,-5.572047,8.443998,-1.012749,-3.2665207,1.3071045,0.56296015,0
1.2500000000000009,13.874388977694549,-3.765951900820105,1.5559121204194266,1.288076356868346,15.45793,-3.9587035,1.634883,1.5500628,6.185849,-6.9042125,2.2689548,-0.50308454,0.122853674,-0.15842323,-0.8406628,-5.5755076,8.498426,-0.98328084,-3.3444521,1.3457999,0.5985418,0
1.260000000000001,13.874388977694549,-3.765951900820105,1.5559121204194266,1.288076356868346,15.45793,-3.9587035,1.634883,1.5500628,6.1300564,-6.818958,2.2592695,-0.49725708,0.13656946,-0.14800294,-0.84390646,-5.583925,8.552316,-0.9538148,-3.410228,1.378466,0.63237745,0
1.270000000000001,13.874388977694549,-3.765951900820105,1.5559121204194266,1.288076356868346,15.45793,-3.9587035,1.634883,1.5500628,6.0741544,-6.7331676,2.2498782,-0.49105388,0.15049052,-0.1373731,-0.8469629,-5.597388,8.605559,-0.92451173,-3.4657438,1.4060432,0.6645528,0
1.280000000000001,14.121910414336346,-3.615386465771546,1.3922810831206833,1.3230303644010168,15.699446,-3.272748,1.1937765,1.3002658,6.018092,-6.6468487,2.2407782,-0.48448494,0.1645686,-0.12656344,-0.8498071,-5.6159625,8.6580515,-0.8955398,-3.5125997,1.4293249,0.69514936,0
1.290000000000001,14.121910414336346,-3.615386465771546,1.3922810831206833,1.3230303644010168,15.699446,-3.272748,1.1937765,1.3002658,5.9618163,-6.5600047,2.231977,-0.4775754,0.17867695,-0.11562065,-0.85242426,-5.6401105,8.710599,-0.8648133,-3.528655,1.4234698,0.72595966,0
1.300000000000001,14.121910414336346,-3.615386465771546,1.3922810831206833,1.3230303644010168,15.699446,-3.272748,1.1937765,1.3002658,5.9052725,-6.47264,2.22348,-0.47034857,0.19271322,-0.10458552,-0.8548068,-5.66949,8.762139,-0.83476865,-3.5422056,1.4185319,0.75525814,0
1.310000000000001,14.121910414336346,-3.615386465771546,1.3922810831206833,1.3230303644010168,15.699446,-3.272748,1.1937765,1.3002658,5.8484087,-6.3847656,2.215279,-0.46281216,0.20667158,-0.0934744,-0.85694414,-5.704065,8.812546,-0.80557257,-3.5536418,1.4143679,0.78311884,0
1.320000000000001,14.613759672937688,-3.154516729809523,0.7155901423057219,1.2825056654139328,16.334492,-2.893927,0.76697165,1.4068917,5.791173,-6.296393,2.207365,-0.45497394,0.22054642,-0.0823018,-0.8588267,-5.7437916,8.861694,-0.7773919,-3.5632937,1.410857,0.80961245,0
1.330000000000001,14.613759672937688,-3.154516729809523,0.7155901423057219,1.2825056654139328,16.334492,-2.893927,0.76697165,1.4068917,5.7335076,-6.207527,2.1997488,-0.44691056,0.23401743,-0.071115956,-0.860493,-5.790157,8.911119,-0.7460269,-3.4995077,1.3024112,0.83281744,0
1.340000000000001,14.613759672937688,-3.154516729809523,0.7155901423057219,1.2825056654139328,16.334492,-2.893927,0.76697165,1.4068917,5.6753526,-6.118175,2.1924398,-0.43869027,0.24683435,-0.059959892,-0.86199033,-5.8415895,8.958948,-0.71598226,-3.4456742,1.2108765,0.8548838,0
1.350000000000001,14.613759672937688,-3.154516729809523,0.7155901423057219,1.2825056654139328,16.334492,-2.893927,0.76697165,1.4068917,5.616659,-6.0283537,2.1854246,-0.43030918,0.25908637,-0.048837863,-0.86332035,-5.8978786,9.005022,-0.6873432,-3.4002411,1.1336156,0.87586737,0
1.360000000000001,14.404390857003678,-2.383182212314416,-0.31529603424943475,1.0843368639108004,15.648147,-2.4388976,-0.05017844,1.4042336,5.5573792,-5.9380813,2.178688,-0.42176476,0.27084842,-0.037753075,-0.8644821,-5.958831,9.049197,-0.6601933,-3.3618972,1.0684029,0.8958212,0
1.370000000000001,14.404390857003678,-2.383182212314416,-0.31529603424943475,1.0843368639108004,15.648147,-2.4388976,-0.05017844,1.4042336,5.497472,-5.8473797,2.1722064,-0.41317776,0.2816995,-0.026795818,-0.8655695,-6.0232997,9.0907345,-0.6363708,-3.2091467,0.8526856,0.9050717,0
1.380000000000001,14.404390857003678,-2.383182212314416,-0.31529603424943475,1.0843368639108004,15.648147,-2.4388976,-0.05017844,1.4042336,5.436899,-5.7562737,2.1659555,-0.40465355,0.29131654,-0.01604112,-0.86667866,-6.091811,9.1301155,-0.61404544,-3.0802343,0.6705978,0.9138683,0
1.390000000000001,14.404390857003678,-2.383182212314416,-0.31529603424943475,1.0843368639108004,15.648147,-2.4388976,-0.05017844,1.4042336,5.3756227,-5.6647854,2.1599207,-0.39616916,0.29988834,-0.005469266,-0.8678053,-6.164007,9.1672,-0.5931516,-2.971441,0.51689667,0.9222333,0
1.400000000000001,14.111908009658086,-1.5299628129181488,-1.3223188826796273,0.7735840398829166,15.108263,-1.8706967,-1.0548825,1.130287,5.313607,-5.572938,2.154088,-0.3877047,0.30757338,0.004937795,-0.8689409,-6.2395763,9.201873,-0.57363236,-2.8796265,0.3871568,0.9301878,1
1.410000000000001,14.111908009658086,-1.5299628129181488,-1.3223188826796273,0.7735840398829166,15.108263,-1.8706967,-1.0548825,1.130287,5.250801,-5.4807487,2.148472,-0.3793002,0.3141691,0.01513011,-0.87017196,-6.3220716,9.235602,-0.5497432,-2.7221494,0.16234934,0.94000673,1
1.420000000000001,14.111908009658086,-1.5299628129181488,-1.3223188826796273,0.7735840398829166,15.108263,-1.8706967,-1.0548825,1.130287,5.1871557,-5.3882356,2.1430888,-0.37098697,0.31952533,0.025066495,-0.87157494,-6.4074225,9.266584,-0.5270952,-2.5892496,-0.027411696,0.94934386,1
1.430000000000001,14.111908009658086,-1.5299628129181488,-1.3223188826796273,0.7735840398829166,15.108263,-1.8706967,-1.0548825,1.130287,5.122644,-5.295427,2.1379263,-0.36273688,0.32383412,0.034774877,-0.87312263,-6.4952645,9.294721,-0.505542,-2.4770916,-0.18759023,0.9582228,1
1.440000000000001,14.111908009658086,-1.5299628129181488,-1.3223188826796273,0.7735840398829166,15.000252,-1.37454,-1.4028624,0.9424943,5.057243,-5.2023516,2.1329744,-0.3545261,0.32725638,0.04428013,-0.8747873,-6.5852833,9.319934,-0.4849581,-2.3824384,-0.32279813,0.96666604,1
1.450000000000001,14.111908009658086,-1.5299628129181488,-1.3223188826796273,0.7735840398829166,15.000252,-1.37454,-1.4028624,0.9424943,4.9909353,-5.1090403,2.12822,-0.3464142,0.3297347,0.05348707,-0.87659025,-6.676534,9.342002,-0.46607092,-2.2251518,-0.49113283,0.96547997,1
1.460000000000001,14.111908009658086,-1.5299628129181488,-1.3223188826796273,0.7735840398829166,15.000252,-1.37454,-1.4028624,0.9424943,4.9237065,-5.015523,2.1236508,-0.33845142,0.3312326,0.06232202,-0.8785503,-6.7693396,9.361081,-0.44788232,-2.0924106,-0.63323176,0.964352,1
1.470000000000001,14.111908009658086,-1.5299628129181488,-1.3223188826796273,0.7735840398829166,15.000252,-1.37454,-1.4028624,0.9424943,4.855544,-4.9218297,2.1192608,-0.33060664,0.3319018,0.070834905,-0.8806372,-6.8633957,9.377163,-0.43024692,-1.9803842,-0.7531836,0.9632794,1
1.480000000000001,13.884836800837178,-0.6658938999084821,-1.9105361185913234,0.4206275540265425,14.829541,-0.68990976,-1.8134018,0.473828,4.7864356,-4.82799,2.1150448,-0.32285368,0.3318692,0.07906874,-0.88282245,-6.9584417,9.390242,-0.4130421,-1.88584,-0.85444003,0.96225953,1
1.490000000000001,13.884836800837178,-0.6658938999084821,-1.9105361185913234,0.4206275540265425,14.829541,-0.68990976,-1.8134018,0.473828,4.716378,-4.734036,2.1109922,-0.31529972,0.33100426,0.08689029,-0.8851391,-7.0531425,9.400211,-0.397462,-1.6992574,-1.0038458,0.938292,1
1.500000000000001,13.884836800837178,-0.6658938999084821,-1.9105361185913234,0.4206275540265425,14.829541,-0.68990976,-1.8134018,0.473828,4.6453714,-4.639996,2.107095,-0.3080359,0.3292104,0.094197415,-0.88761485,-7.1482806,9.407275,-0.38202935,-1.5417899,-1.1299763,0.91550064,1
1.5100000000000011,13.884836800837178,-0.6658938999084821,-1.9105361185913234,0.4206275540265425,14.829541,-0.68990976,-1.8134018,0.473828,4.573412,-4.5459,2.1033518,-0.30102003,0.3266308,0.10106655,-0.8902155,-7.2435694,9.411499,-0.36658132,-1.4088933,-1.2364568,0.8938277,1
1.5200000000000011,12.732521936149011,0.10955725141991297,-2.5185281325405295,0.029942334474851628,13.650688,0.18427984,-2.400947,-0.013209443,4.5005,-4.451775,2.0997636,-0.294216,0.32338512,0.107562736,-0.8929099,-7.3387604,9.412943,-0.35098255,-1.2967336,-1.3263482,0.87321824,1
1.5300000000000011,12.732521936149011,0.10955725141991297,-2.5185281325405295,0.029942334474851628,13.650688,0.18427984,-2.400947,-0.013209443,4.4266753,-4.3576493,2.0962875,-0.28773418,0.31925493,0.11351655,-0.89576674,-7.4260793,9.411775,-0.34416547,-1.0657172,-1.4937694,0.829721,1
1.5400000000000011,12.732521936149011,0.10955725141991297,-2.5185281325405295,0.029942334474851628,13.650688,0.18427984,-2.400947,-0.013209443,4.35198,-4.263548,2.0928814,-0.28166512,0.31407243,0.11879654,-0.8988378,-7.5128,9.408214,-0.33690658,-0.87074834,-1.6351141,0.7883581,1
1.5500000000000012,12.732521936149011,0.10955725141991297,-2.5185281325405295,0.029942334474851628,13.650688,0.18427984,-2.400947,-0.013209443,4.276422,-4.169493,2.089551,-0.27595335,0.30799696,0.12350511,-0.90207136,-7.598633,9.402376,-0.32902414,-0.7062008,-1.7544423,0.74902487,1
1.5600000000000012,11.754297416836355,0.7134621401827427,-2.9587585541501893,-0.35672516641777274,13.242935,0.5672328,-3.5198758,-0.40647134,4.200011,-4.075508,2.0863035,-0.2705515,0.30116177,0.12772888,-0.90542114,-7.6833277,9.394362,-0.32037145,-0.56732684,-1.8551826,0.7116218,0
1.5700000000000012,11.754297416836355,0.7134621401827427,-2.9587585541501893,-0.35672516641777274,13.242935,0.5672328,-3.5198758,-0.40647134,4.1228175,-3.981607,2.083072,-0.26549202,0.29341364,0.13142163,-0.9089277,-7.7550774,9.385672,-0.3257764,-0.36757788,-2.0271792,0.65919775,0
1.5800000000000012,11.754297416836355,0.7134621401827427,-2.9587585541501893,-0.35672516641777274,13.242935,0.5672328,-3.5198758,-0.40647134,4.0449142,-3.887801,2.0797908,-0.26079965,0.2846345,0.13454917,-0.9126128,-7.8254004,9.375278,-0.33026809,-0.19899836,-2.1723793,0.60934615,0
1.5900000000000012,11.754297416836355,0.7134621401827427,-2.9587585541501893,-0.35672516641777274,13.242935,0.5672328,-3.5198758,-0.40647134,3.9663155,-3.7941067,2.0764701,-0.25642672,0.2749743,0.13719538,-0.9164119,-7.894055,9.363271,-0.33372062,-0.05672292,-2.2949564,0.5619407,0
1.6000000000000012,11.360080768557138,0.97338971902368,-3.155153086336201,-0.7065138357789967,12.546408,1.1407455,-3.380101,-1.0521802,3.8870394,-3.7005408,2.0731204,-0.25233263,0.26455948,0.13943104,-0.9202686,-7.9608283,9.349725,-0.3360415,0.06335451,-2.398434,0.51686156,0
1.6100000000000012,11.360080768557138,0.97338971902368,-3.155153086336201,-0.7065138357789967,12.546408,1.1407455,-3.380101,-1.0521802,3.8071167,-3.6071148,2.0697372,-0.24853861,0.25339207,0.14125094,-0.924158,-8.0233555,9.33522,-0.34041578,0.20521557,-2.5164037,0.4568302,0
1.6200000000000012,11.360080768557138,0.97338971902368,-3.155153086336201,-0.7065138357789967,12.546408,1.1407455,-3.380101,-1.0521802,3.7265797,-3.5138407,2.0663164,-0.24506314,0.24147794,0.1426538,-0.9280523,-8.08368,9.319383,-0.34357065,0.32494432,-2.6159925,0.39974454,0
1.6300000000000012,11.360080768557138,0.97338971902368,-3.155153086336201,-0.7065138357789967,12.546408,1.1407455,-3.380101,-1.0521802,3.6454513,-3.4207313,2.06287,-0.24187031,0.22892112,0.14369985,-0.9319028,-8.141617,9.302288,-0.34546524,0.42599538,-2.7000628,0.34546012,0
1.6400000000000012,11.360080768557138,0.97338971902368,-3.155153086336201,-0.7065138357789967,12.435841,1.211728,-3.2439795,-1.31173,3.563756,-3.327799,2.0594113,-0.23892929,0.21581005,0.14443974,-0.935668,-8.197001,9.284008,-0.34608334,0.5112842,-2.7710316,0.29383945,0
1.6500000000000012,11.360080768557138,0.97338971902368,-3.155153086336201,-0.7065138357789967,12.435841,1.211728,-3.2439795,-1.31173,3.4815204,-3.2350552,2.0559525,-0.23621352,0.20222019,0.14491601,-0.9393126,-8.249686,9.264606,-0.34543002,0.5832702,-2.8309398,0.24475183,0
1.6600000000000013,11.360080768557138,0.97338971902368,-3.155153086336201,-0.7065138357789967,12.435841,1.211728,-3.2439795,-1.31173,3.398772,-3.1425107,2.052507,-0.23370007,0.18821608,0.14516439,-0.9428069,-8.299539,9.244143,-0.34352866,0.6440296,-2.8815105,0.19807296,0
1.6700000000000013,11.360080768557138,0.97338971902368,-3.155153086336201,-0.7065138357789967,12.435841,1.211728,-3.2439795,-1.31173,3.3155396,-3.050176,2.0490863,-0.231369,0.17385316,0.14521477,-0.94612616,-8.346438,9.222671,-0.34041825,0.6953141,-2.9241984,0.1536846,0
1.6800000000000013,11.106570586611253,1.1317045651494295,-2.5550158626097375,-0.9251755968328049,12.385435,1.2181896,-2.5971975,-1.374056,3.2318532,-2.9580605,2.0457025,-0.22920294,0.1591791,0.14509222,-0.9492497,-8.390282,9.200243,-0.33615118,0.73860216,-2.9602315,0.11147441,0
1.6900000000000013,11.106570586611253,1.1317045651494295,-2.5550158626097375,-0.9251755968328049,12.385435,1.2181896,-2.5971975,-1.374056,3.1477492,-2.8661714,2.0423555,-0.22725739,0.14444532,0.14470713,-0.95212823,-8.430071,9.177436,-0.3331016,0.7998055,-2.8970606,0.060605697,0
1.7000000000000013,11.106570586611253,1.1317045651494295,-2.5550158626097375,-0.9251755968328049,12.385435,1.2181896,-2.5971975,-1.374056,3.0632625,-2.7745144,2.0390441,-0.22557946,0.12985559,0.14399111,-0.95473385,-8.466763,9.153846,-0.32906494,0.85147315,-2.8437436,0.012233131,0
1.7100000000000013,11.106570586611253,1.1317045651494295,-2.5550158626097375,-0.9251755968328049,12.385435,1.2181896,-2.5971975,-1.374056,2.9784245,-2.6830966,2.0357776,-0.22414328,0.11538375,0.1429918,-0.9570781,-8.500353,9.129576,-0.32412454,0.89509076,-2.798743,-0.033765808,0
1.7200000000000013,10.82625649816917,1.0539361130458123,-1.8188009823671123,-1.0702524151698314,12.103548,1.2734474,-2.069445,-1.4155867,2.8932662,-2.591925,2.0325644,-0.22292617,0.10100803,0.14174907,-0.9591701,-8.530837,9.104711,-0.318363,0.93191254,-2.7607613,-0.077507555,0
1.7300000000000013,10.82625649816917,1.0539361130458123,-1.8188009823671123,-1.0702524151698314,12.103548,1.2734474,-2.069445,-1.4155867,2.8078218,-2.5010011,2.0293994,-0.2219647,0.08699781,0.14026283,-0.960983,-8.557532,9.079974,-0.3145048,0.9508662,-2.613894,-0.12622182,0
1.7400000000000013,10.82625649816917,1.0539361130458123,-1.8188009823671123,-1.0702524151698314,12.103548,1.2734474,-2.069445,-1.4155867,2.7221253,-2.4103267,2.0262764,-0.2212908,0.07356712,0.13853626,-0.96250963,-8.581291,9.054834,-0.31002015,0.9668745,-2.4899304,-0.17254567,0
1.7500000000000013,10.82625649816917,1.0539361130458123,-1.8188009823671123,-1.0702524151698314,12.103548,1.2734474,-2.069445,-1.4155867,2.6362054,-2.3199055,2.023201,-0.22087906,0.060624413,0.1366044,-0.9637817,-8.602211,9.029383,-0.304995,0.9803949,-2.3852975,-0.21659641,0
1.7600000000000013,10.627515125408692,0.8305161486992675,-0.9915322741911814,-1.116394196961782,12.091476,0.99552697,-1.7159237,-1.3925745,2.5500903,-2.2297401,2.020178,-0.2207069,0.04809226,0.1344964,-0.96482396,-8.620375,9.003698,-0.29950637,0.99181336,-2.296981,-0.25848556,0
1.7700000000000014,10.627515125408692,0.8305161486992675,-0.9915322741911814,-1.116394196961782,12.091476,0.99552697,-1.7159237,-1.3925745,2.4638085,-2.13983,2.0172026,-0.22080052,0.036243938,0.13225044,-0.9656305,-8.635584,8.978322,-0.29553464,0.96663547,-2.0934198,-0.30058336,0
1.7800000000000014,10.627515125408692,0.8305161486992675,-0.9915322741911814,-1.116394196961782,12.091476,0.99552697,-1.7159237,-1.3925745,2.3773868,-2.0501742,2.0142686,-0.22118206,0.025293196,0.12989905,-0.96621114,-8.648336,8.952857,-0.29124886,0.9453909,-1.9216015,-0.34061542,0
1.7900000000000014,10.627515125408692,0.8305161486992675,-0.9915322741911814,-1.116394196961782,12.091476,0.99552697,-1.7159237,-1.3925745,2.2908492,-1.9607732,2.011379,-0.22182633,0.015099295,0.12745689,-0.96660167,-8.658807,8.92737,-0.28670958,0.92746425,-1.7765769,-0.3786831,0
1.8000000000000014,10.514149520023576,0.5361845328556873,-0.35241428067945907,-1.0815481799856559,11.636599,0.79000014,-1.2112325,-1.3281366,2.204218,-1.8716269,2.0085356,-0.22271071,0.0055432147,0.12493599,-0.9668294,-8.667138,8.901916,-0.28196624,0.91233623,-1.6541674,-0.41488278,0
1.8100000000000014,10.514149520023576,0.5361845328556873,-0.35241428067945907,-1.0815481799856559,11.636599,0.79000014,-1.2112325,-1.3281366,2.1175137,-1.7827333,2.0057347,-0.2238425,-0.0032014668,0.12240322,-0.9669026,-8.673398,8.87681,-0.27815956,0.85369915,-1.4511621,-0.44759625,0
1.8200000000000014,10.514149520023576,0.5361845328556873,-0.35241428067945907,-1.0815481799856559,11.636599,0.79000014,-1.2112325,-1.3281366,2.030756,-1.6940902,2.0029726,-0.22522661,-0.011002222,0.1199124,-0.96683604,-8.677869,8.851821,-0.2742298,0.8042067,-1.279815,-0.47870448,0
1.8300000000000014,10.514149520023576,0.5361845328556873,-0.35241428067945907,-1.0815481799856559,11.636599,0.79000014,-1.2112325,-1.3281366,1.9439617,-1.6056964,2.0002503,-0.22684018,-0.018007204,0.11745495,-0.96665543,-8.680737,8.826982,-0.27020586,0.7624319,-1.135189,-0.50828624,0
1.8400000000000014,10.514149520023576,0.5361845328556873,-0.35241428067945907,-1.0815481799856559,11.576573,0.6652004,-0.7257804,-1.1714246,1.8571461,-1.5175502,1.9975686,-0.22866267,-0.024341533,0.115023516,-0.96637964,-8.682159,8.802317,-0.26610902,0.7271704,-1.0131174,-0.53641635,0
1.8500000000000014,10.514149520023576,0.5361845328556873,-0.35241428067945907,-1.0815481799856559,11.576573,0.6652004,-0.7257804,-1.1714246,1.770323,-1.4296495,1.9949282,-0.23067568,-0.030110814,0.11261181,-0.9660227,-8.68227,8.777848,-0.26195487,0.69740623,-0.91008294,-0.56316614,0
1.8600000000000014,10.514149520023576,0.5361845328556873,-0.35241428067945907,-1.0815481799856559,11.576573,0.6652004,-0.7257804,-1.1714246,1.6835047,-1.3419924,1.9923295,-0.23286279,-0.035404146,0.11021453,-0.9655948,-8.681183,8.753594,-0.25775528,0.672282,-0.82311666,-0.5886033,0
1.8700000000000014,10.514149520023576,0.5361845328556873,-0.35241428067945907,-1.0815481799856559,11.576573,0.6652004,-0.7257804,-1.1714246,1.596703,-1.2545767,1.9897732,-0.23520921,-0.040296678,0.10782727,-0.96510375,-8.678989,8.729569,-0.2535194,0.6510738,-0.7497131,-0.6127923,0
1.8800000000000014,10.372485614900679,0.26816320642681307,0.5573466841515674,-0.935991831361105,11.230999,0.86194056,0.01896104,-1.4072869,1.5099285,-1.1674,1.9872593,-0.23770182,-0.04485175,0.10544633,-0.964555,-8.675771,8.705785,-0.24925439,0.63317126,-0.6877568,-0.6357943,1
1.8900000000000015,10.372485614900679,0.26816320642681307,0.5573466841515674,-0.935991831361105,11.230999,0.86194056,0.01896104,-1.4072869,1.4231924,-1.0804682,1.984823,-0.2403771,-0.04901482,0.10290564,-0.9639637,-8.671313,8.680655,-0.23798324,0.66887885,-0.57757586,-0.67365164,1
1.9000000000000015,10.372485614900679,0.26816320642681307,0.5573466841515674,-0.935991831361105,11.230999,0.86194056,0.01896104,-1.4072869,1.3365057,-0.9937858,1.9824997,-0.24326703,-0.05274629,0.10007261,-0.96333987,-8.665917,8.655867,-0.22667599,0.699016,-0.48457587,-0.70965135,1
1.9100000000000015,10.372485614900679,0.26816320642681307,0.5573466841515674,-0.935991831361105,11.230999,0.86194056,0.01896104,-1.4072869,1.2498772,-0.90734935,1.9802897,-0.24635416,-0.056115303,0.09698968,-0.9626801,-8.659658,8.631497,-0.21532084,0.72445107,-0.40607753,-0.74388456,1
1.9200000000000015,10.250681622797424,-0.005174897088694756,1.2180688304649065,-0.7520295967163034,11.390448,0.86766285,0.3595527,-1.3896289,1.1633155,-0.8211542,1.9781935,-0.24962282,-0.059179965,0.09369282,-0.9619809,-8.6526,8.607609,-0.2039085,0.74591726,-0.33981916,-0.7764379,0
1.9300000000000015,10.250681622797424,-0.005174897088694756,1.2180688304649065,-0.7520295967163034,11.390448,0.86766285,0.3595527,-1.3896289,1.0768247,-0.735185,1.9761641,-0.25304672,-0.06143299,0.090430684,-0.96125704,-8.6455,8.586288,-0.2019954,0.6289077,-0.09680796,-0.7752402,0
1.9400000000000015,10.250681622797424,-0.005174897088694756,1.2180688304649065,-0.7520295967163034,11.390448,0.86766285,0.3595527,-1.3896289,0.9904071,-0.64942664,1.974154,-0.25659275,-0.06247327,0.08740128,-0.9605299,-8.637959,8.565471,-0.20000865,0.53012615,0.108296536,-0.7741012,0
1.9500000000000015,10.250681622797424,-0.005174897088694756,1.2180688304649065,-0.7520295967163034,11.390448,0.86766285,0.3595527,-1.3896289,0.9040662,-0.5638739,1.9721644,-0.26023853,-0.062488895,0.08456476,-0.9598016,-8.630209,8.545169,-0.1979319,0.4467333,0.2814073,-0.7730181,0
1.9600000000000015,10.178880543964482,-0.3383978457402651,1.6526204818970205,-0.5274432615420215,12.035669,0.73822254,0.46374282,-1.0084469,0.817803,-0.47852147,1.9701959,-0.26396492,-0.06163864,0.081887774,-0.9590708,-8.622448,8.525395,-0.19575033,0.37633166,0.42751485,-0.77198815,0
1.9700000000000015,10.178880543964482,-0.3383978457402651,1.6526204818970205,-0.5274432615420215,12.035669,0.73822254,0.46374282,-1.0084469,0.73161644,-0.39336342,1.9682462,-0.26775104,-0.059852123,0.07942584,-0.95834124,-8.614904,8.506297,-0.19415428,0.2649612,0.6186275,-0.7599882,0
1.9800000000000015,10.178880543964482,-0.3383978457402651,1.6526204818970205,-0.5274432615420215,12.035669,0.73822254,0.46374282,-1.0084469,0.64550364,-0.30839366,1.9663134,-0.27157468,-0.057079837,0.077221066,-0.9576144,-8.607726,8.487743,-0.19242862,0.17094176,0.77992594,-0.7485771,0
1.9900000000000015,10.178880543964482,-0.3383978457402651,1.6526204818970205,-0.5274432615420215,12.035669,0.73822254,0.46374282,-1.0084469,0.55946,-0.22360666,1.9643984,-0.2754189,-0.053473644,0.07522992,-0.95688283,-8.601102,8.469742,-0.19056381,0.09157041,0.91606146,-0.73772603,0
2.0000000000000013,,,,,10.601786,0.77898926,0.86507684,-0.41631183,0.4734791,-0.1389969,1.9625027,-0.27926964,-0.049161896,0.07341598,-0.9561386,-8.595194,8.4523,-0.18855491,0.0245654,1.0309598,-0.7274074,0
2.010000000000001,,,,,10.601786,0.77898926,0.86507684,-0.41631183,0.3875531,-0.05455868,1.9606277,-0.28309438,-0.04422259,0.07181601,-0.9553762,-8.590139,8.435432,-0.18642509,-0.05992373,1.1314191,-0.70727885,0
2.020000000000001,,,,,10.601786,0.77898926,0.86507684,-0.41631183,0.30167288,0.029713698,1.9587747,-0.28686315,-0.03872282,0.07045773,-0.9545916,-8.586065,8.41913,-0.18415716,-0.13124555,1.2162038,-0.68813807,0
2.0300000000000007,,,,,10.601786,0.77898926,0.86507684,-0.41631183,0.21582803,0.11382587,1.9569451,-0.29056895,-0.032748215,0.06930096,-0.95377874,-8.583079,8.403391,-0.18176147,-0.1914518,1.2877599,-0.6699365,0
2.0400000000000005,,,,,10.601786,0.77898926,0.86507684,-0.41631183,0.1300072,0.19778344,1.95514,-0.29420647,-0.026371343,0.06831195,-0.95293224,-8.581278,8.388211,-0.1792515,-0.24227478,1.3481517,-0.6526281,0
2.0500000000000003,,,,,10.519087,0.54907495,0.6636763,-0.11712251,0.04419814,0.28159204,1.9533606,-0.2977718,-0.019653725,0.06746233,-0.95204717,-8.580737,8.373595,-0.17664367,-0.28517622,1.3991209,-0.6361691,1
2.06,,,,,10.519087,0.54907495,0.6636763,-0.11712251,-0.041612145,0.3652549,1.9516244,-0.3012048,-0.013158764,0.066443846,-0.95115036,-8.581524,8.359078,-0.17056318,-0.15514414,1.2843721,-0.6106993,1
2.07,,,,,10.519087,0.54907495,0.6636763,-0.11712251,-0.12743655,0.44877577,1.9499494,-0.30446112,-0.00733699,0.06501355,-0.95027477,-8.583532,8.345193,-0.16441274,-0.045379043,1.1875304,-0.5864793,1
2.0799999999999996,,,,,10.519087,0.54907495,0.6636763,-0.11712251,-0.21328646,0.5321611,1.9483362,-0.307559,-0.0020841768,0.06323701,-0.9494228,-8.586607,8.331986,-0.15820014,0.047277905,1.1058009,-0.56344783,1
2.0899999999999994,,,,,9.751512,-0.013861967,0.0034876745,-0.18717776,-0.29917186,0.61541796,1.9467854,-0.31051365,0.0026878596,0.061169174,-0.9485946,-8.590611,8.319493,-0.15193109,0.1254927,1.0368248,-0.5415465,1
2.099999999999999,,,,,9.751512,-0.013861967,0.0034876745,-0.18717776,-0.38509977,0.6985578,1.9452596,-0.31332922,0.006872881,0.059152193,-0.94777524,-8.595078,8.308587,-0.15323113,0.10369357,0.8756852,-0.5241576,1
2.109999999999999,,,,,9.751512,-0.013861967,0.0034876745,-0.18717776,-0.47107565,0.7815917,1.9437208,-0.3160116,0.010391624,0.057460252,-0.9469564,-8.600187,8.298285,-0.15449683,0.08530636,0.73967373,-0.5076219,1
2.1199999999999988,,,,,9.751512,-0.013861967,0.0034876745,-0.18717776,-0.55710536,0.8645252,1.9421697,-0.3185743,0.013349047,0.056044027,-0.9461451,-8.605836,8.288491,-0.15573953,0.06979686,0.6248717,-0.49189758,1
2.1299999999999986,,,,,9.679363,-0.21156915,-0.25497666,-0.04942618,-0.6431939,0.94736296,1.9406061,-0.32102877,0.015833631,0.054861553,-0.9453461,-8.61194,8.27913,-0.15696706,0.056713976,0.52797186,-0.47694486,1
2.1399999999999983,,,,,9.679363,-0.21156915,-0.25497666,-0.04942618,-0.72934526,1.0301094,1.9390268,-0.32336184,0.017848622,0.05398497,-0.9445652,-8.618379,8.270195,-0.15890212,0.014831833,0.40588462,-0.45596638,1
2.149999999999998,,,,,9.679363,-0.21156915,-0.25497666,-0.04942618,-0.8155626,1.1127678,1.9374281,-0.32556146,0.01940078,0.05346957,-0.943808,-8.625128,8.261525,-0.16083418,-0.020509783,0.30283386,-0.43601733,1
2.159999999999998,,,,,9.679363,-0.21156915,-0.25497666,-0.04942618,-0.90184873,1.1953405,1.9358102,-0.32763845,0.020563517,0.053259607,-0.9430762,-8.632129,8.253033,-0.16276836,-0.050332673,0.21585153,-0.41704717,1
2.1699999999999977,,,,,9.816794,-0.46749884,-0.47962645,0.3491148,-0.9882059,1.2778288,1.9341727,-0.3296022,0.021398662,0.05330787,-0.94237036,-8.63933,8.24464,-0.16470845,-0.07549902,0.14243206,-0.39900792,1
2.1799999999999975,,,,,9.816794,-0.46749884,-0.47962645,0.3491148,-1.0746363,1.3602328,1.9325227,-0.3314076,0.021910055,0.053699512,-0.9417029,-8.646792,8.23616,-0.16529259,-0.13665752,0.045435127,-0.36229733,1
