time-since-start [s],throttle_mpc,roll_mpc,pitch_mpc,yaw_mpc,throttle_nw,roll_nw,pitch_nw,yaw_nw,position_x [m],position_y [m],position_z [m],rotation_w [quaternion],rotation_x [quaternion],rotation_y [quaternion],rotation_z [quaternion],velocity_x [m/s],velocity_y [m/s],velocity_z [m/s],omega_x [rad/s],omega_y [rad/s],omega_z [rad/s],network_used
0.0,7.602003010219119,5.999998837176917,-5.999999894260827,-5.999992151519733,18.8126,2.7931528,-3.0880725,-4.35291,17.289463,-10.5370035,1.2298865,-0.18645027,-0.3304781,0.16749221,0.90992683,-10.090953,-5.0731854,0.81848663,2.502667,-1.159908,-1.0448577,0
0.01,7.602003010219119,5.999998837176917,-5.999999894260827,-5.999992151519733,7.7462697,0.057969652,-5.600976,-1.7022887,17.187996,-10.587579,1.238188,-0.17624573,-0.3281398,0.17789835,0.9108314,-10.201605,-5.0411916,0.8412451,2.4016232,-1.2686514,-1.2033175,0
0.02,7.602003010219119,5.999998837176917,-5.999999894260827,-5.999992151519733,7.7462697,0.057969652,-5.600976,-1.7022887,17.08544,-10.637815,1.246699,-0.16535269,-0.32532966,0.18767473,0.91191953,-10.308859,-5.005654,0.8603813,2.3167937,-1.3608842,-1.3578528,0
0.03,7.602003010219119,5.999998837176917,-5.999999894260827,-5.999992151519733,7.7462697,0.057969652,-5.600976,-1.7022887,16.981829,-10.68768,1.255384,-0.15377328,-0.3221367,0.19687583,0.9131384,-10.412563,-4.966851,0.87609476,2.2455688,-1.4391009,-1.5085608,0
0.04,7.602003010219119,5.999998837176917,-5.999999894260827,-5.999992151519733,12.053503,0.38057575,-3.2939487,-2.2777724,16.8772,-10.737143,1.2642097,-0.14151265,-0.31863493,0.20554808,0.9144376,-10.512603,-4.925048,0.8885608,2.1857605,-1.5054212,-1.6555363,0
0.05,7.602003010219119,5.999998837176917,-5.999999894260827,-5.999992151519733,12.053503,0.38057575,-3.2939487,-2.2777724,16.771587,-10.786172,1.2731445,-0.1285785,-0.31488582,0.21373118,0.9157694,-10.6088915,-4.880494,0.89793426,2.135534,-1.5616456,-1.7988716,0
0.060000000000000005,7.602003010219119,5.999998837176917,-5.999999894260827,-5.999992151519733,12.053503,0.38057575,-3.2939487,-2.2777724,16.665031,-10.834743,1.2821583,-0.11498061,-0.31094036,0.22145908,0.9170886,-10.701368,-4.8334284,0.90435326,2.0933504,-1.6093038,-1.9386569,0
0.07,7.602003010219119,5.999998837176917,-5.999999894260827,-5.999992151519733,12.053503,0.38057575,-3.2939487,-2.2777724,16.557571,-10.882833,1.2912219,-0.10073053,-0.30684045,0.2287607,0.9183523,-10.789994,-4.7840805,0.90794235,2.0579183,-1.6496946,-2.0749805,0
0.08,9.181153582672389,5.999999634784791,-5.999999926114265,-5.508029588049063,11.100656,0.41007218,-4.33624,-2.3034816,16.449244,-10.930418,1.3003078,-0.08584133,-0.30262077,0.23566087,0.9195194,-10.874744,-4.7326703,0.9088146,2.0281544,-1.683921,-2.2079275,0
0.09,9.181153582672389,5.999999634784791,-5.999999926114265,-5.508029588049063,11.100656,0.41007218,-4.33624,-2.3034816,16.34007,-10.977469,1.3094089,-0.07020339,-0.29805395,0.24248321,0.9205636,-10.958986,-4.677154,0.91111404,2.1210527,-1.8311436,-2.3228118,0
0.09999999999999999,9.181153582672389,5.999999634784791,-5.999999926114265,-5.508029588049063,11.100656,0.41007218,-4.33624,-2.3034816,16.230074,-11.023953,1.3185238,-0.05369518,-0.29287735,0.24956091,0.92144406,-11.039714,-4.619297,0.9115843,2.2244763,-1.9804661,-2.4342964,0
0.10999999999999999,9.181153582672389,5.999999634784791,-5.999999926114265,-5.508029588049063,11.100656,0.41007218,-4.33624,-2.3034816,16.119287,-11.069847,1.3276345,-0.036315534,-0.28706613,0.2569231,0.92209804,-11.116706,-4.5591173,0.9102523,2.3367984,-2.1315744,-2.5425491,0
0.11999999999999998,9.181153582672389,5.999999634784791,-5.999999926114265,-5.508029588049063,11.100656,0.41007218,-4.33624,-2.3034816,16.007753,-11.115128,1.3367229,-0.018067366,-0.28059453,0.26458934,0.9224602,-11.189741,-4.4966483,0.9071385,2.4565964,-2.2841527,-2.647726,0
0.12999999999999998,12.327252469087414,5.999999843165679,-5.999999954843559,-4.480779824398231,12.556395,2.7068703,-3.7592678,-4.4956813,15.895509,-11.159773,1.3457712,0.0010423381,-0.27343652,0.27257022,0.92246246,-11.258595,-4.431941,0.90225774,2.5826244,-2.4378903,-2.7499702,0
0.13999999999999999,12.327252469087414,5.999999843165679,-5.999999954843559,-4.480779824398231,12.556395,2.7068703,-3.7592678,-4.4956813,15.782573,-11.203735,1.3547963,0.021248965,-0.2650023,0.2814161,0.92202353,-11.327739,-4.3601274,0.9023282,2.94179,-2.8212175,-2.8194091,0
0.15,12.327252469087414,5.999999843165679,-5.999999954843559,-4.480779824398231,12.556395,2.7068703,-3.7592678,-4.4956813,15.668974,-11.24697,1.3638086,0.042749427,-0.25475046,0.29157066,0.92101103,-11.391121,-4.286424,0.8997442,3.2827377,-3.18255,-2.88882,0
0.16,16.13814052315041,5.9999999016226715,-5.999999963017922,-3.408286887816494,11.646184,-0.23857489,-5.041099,-1.1816037,15.554771,-11.289457,1.3727822,0.065472595,-0.24272579,0.30287907,0.9192724,-11.448319,-4.210735,0.89456743,3.606788,-3.5237978,-2.9580677,0
0.17,16.13814052315041,5.9999999016226715,-5.999999963017922,-3.408286887816494,11.646184,-0.23857489,-5.041099,-1.1816037,15.439967,-11.331084,1.3818009,0.08933303,-0.22875577,0.31536695,0.91664284,-11.511378,-4.1139054,0.9090989,3.9792075,-3.9107347,-2.9801598,0
0.18000000000000002,16.13814052315041,5.9999999016226715,-5.999999963017922,-3.408286887816494,11.646184,-0.23857489,-5.041099,-1.1816037,15.324569,-11.371719,1.3909627,0.11415539,-0.2128084,0.32892725,0.91295564,-11.567038,-4.0121703,0.9232005,4.2936583,-4.237223,-3.0011683,0
0.19000000000000003,16.13814052315041,5.9999999016226715,-5.999999963017922,-3.408286887816494,11.646184,-0.23857489,-5.041099,-1.1816037,15.208655,-11.411311,1.4002627,0.13974297,-0.19511889,0.34324282,0.9080666,-11.614361,-3.9056416,0.9366725,4.559165,-4.5127053,-3.0211456,0
0.20000000000000004,19.66646317136439,5.999996698228756,-5.999999633918249,-2.328373532966413,12.540739,-0.5730695,-4.623392,-0.46221018,15.092313,-11.449816,1.4096932,0.1659162,-0.1758979,0.35804108,0.9018527,-11.652495,-3.7946134,0.949269,4.783347,-4.745148,-3.0401428,0
0.21000000000000005,19.66646317136439,5.999996698228756,-5.999999633918249,-2.328373532966413,12.540739,-0.5730695,-4.623392,-0.46221018,14.975606,-11.487064,1.4193642,0.19239031,-0.15528795,0.3731112,0.8942369,-11.686844,-3.6543825,0.9846539,4.9728074,-4.941104,-3.0052161,0
0.22000000000000006,19.66646317136439,5.999996698228756,-5.999999633918249,-2.328373532966413,12.540739,-0.5730695,-4.623392,-0.46221018,14.858621,-11.522889,1.4293803,0.2189038,-0.1334162,0.3882721,0.88517004,-11.708268,-3.5099468,1.0182393,5.1327844,-5.1064405,-2.9720032,0
0.23000000000000007,19.66646317136439,5.999996698228756,-5.999999633918249,-2.328373532966413,12.540739,-0.5730695,-4.623392,-0.46221018,14.741488,-11.557252,1.4397215,0.24533212,-0.11044406,0.40334594,0.8746007,-11.716098,-3.3621714,1.0496072,5.2678633,-5.245943,-2.9404202,0
0.24000000000000007,19.66646317136439,5.999996698228756,-5.999999633918249,-2.328373532966413,14.396085,-0.6456184,-3.681516,-0.4100579,14.624348,-11.590125,1.4503634,0.27156115,-0.08652056,0.41817927,0.8624934,-11.709804,-3.2120392,1.0783172,5.3819184,-5.363651,-2.9103866,0
0.25000000000000006,19.66646317136439,5.999996698228756,-5.999999633918249,-2.328373532966413,14.396085,-0.6456184,-3.681516,-0.4100579,14.507341,-11.62149,1.4612771,0.2974863,-0.061783895,0.43263945,0.8488273,-11.689,-3.0606294,1.1039165,5.4782205,-5.4629693,-2.881827,0
0.26000000000000006,19.66646317136439,5.999996698228756,-5.999999633918249,-2.328373532966413,14.396085,-0.6456184,-3.681516,-0.4100579,14.390618,-11.651339,1.4724294,0.32301146,-0.036362726,0.44661194,0.8335941,-11.653451,-2.9090934,1.1259487,5.559532,-5.546773,-2.854669,0
0.2700000000000001,19.66646317136439,5.999996698228756,-5.999999633918249,-2.328373532966413,14.396085,-0.6456184,-3.681516,-0.4100579,14.274323,-11.679677,1.4837823,0.3480483,-0.010377265,0.45999765,0.81679666,-11.603068,-2.7586362,1.1439623,5.6281853,-5.617486,-2.8288436,0
0.2800000000000001,18.98444331883645,4.3505344824785395,-4.411139968734732,-0.6374380167899485,14.332205,-0.019674217,-2.7033646,-0.6665677,14.1586075,-11.70652,1.4952934,0.3725155,0.016059823,0.47271088,0.79844767,-11.537912,-2.6104968,1.1575183,5.6861496,-5.6771545,-2.8042855,0
0.2900000000000001,18.98444331883645,4.3505344824785395,-4.411139968734732,-0.6374380167899485,14.332205,-0.019674217,-2.7033646,-0.6665677,14.043603,-11.731924,1.5068973,0.39589524,0.04218768,0.48440614,0.7789979,-11.461023,-2.4709222,1.162521,5.4786034,-5.4789605,-2.6979578,0
0.3000000000000001,18.98444331883645,4.3505344824785395,-4.411139968734732,-0.6374380167899485,14.332205,-0.019674217,-2.7033646,-0.6665677,13.929435,-11.755955,1.518527,0.41780308,0.067408375,0.49487972,0.75894046,-11.37092,-2.335804,1.1626499,5.3033257,-5.311776,-2.5968473,0
0.3100000000000001,18.98444331883645,4.3505344824785395,-4.411139968734732,-0.6374380167899485,14.332205,-0.019674217,-2.7033646,-0.6665677,13.816228,-11.77866,1.5301331,0.43835118,0.09184683,0.5042474,0.73834056,-11.2685175,-2.2060215,1.1578002,5.1553006,-5.170748,-2.5006988,0
0.3200000000000001,17.994932565598248,2.612853429334355,-2.0487779222781355,-0.11547554936062619,13.661804,-0.89355546,-1.697333,-0.25407013,13.704103,-11.8000965,1.5416657,0.4576354,0.11560786,0.5126016,0.7172476,-11.154698,-2.082356,1.1478928,5.0302925,-5.0517845,-2.409268,0
0.3300000000000001,17.994932565598248,2.612853429334355,-2.0487779222781355,-0.11547554936062619,13.661804,-0.89355546,-1.697333,-0.25407013,13.593139,-11.820361,1.5530517,0.47530243,0.13782117,0.51996773,0.69622296,-11.036868,-1.971536,1.1285639,4.6543674,-4.582534,-2.296711,0
0.34000000000000014,17.994932565598248,2.612853429334355,-2.0487779222781355,-0.11547554936062619,13.661804,-0.89355546,-1.697333,-0.25407013,13.4833975,-11.83955,1.5642207,0.49113184,0.15783006,0.5264525,0.6758157,-10.910313,-1.867288,1.1045433,4.3368797,-4.1866164,-2.1896772,0
0.35000000000000014,17.994932565598248,2.612853429334355,-2.0487779222781355,-0.11547554936062619,13.661804,-0.89355546,-1.697333,-0.25407013,13.374959,-11.857729,1.575127,0.5053738,0.17600322,0.5322174,0.65602195,-10.776202,-1.7695843,1.0760236,4.068752,-3.8525681,-2.0878954,0
0.36000000000000015,17.125705859417252,0.40637029158887533,0.5720553245713107,1.159175980967101,13.735105,-2.1928656,-0.08770783,-0.08851446,13.267896,-11.874964,1.5857264,0.51823646,0.1926516,0.53738385,0.6368162,-10.635523,-1.6783521,1.0431932,3.8423145,-3.5707169,-1.9911082,0
0.37000000000000016,17.125705859417252,0.40637029158887533,0.5720553245713107,1.159175980967101,13.735105,-2.1928656,-0.08770783,-0.08851446,13.162243,-11.891333,1.5959662,0.5294694,0.20700753,0.54193854,0.618961,-10.494484,-1.5964913,1.0040597,3.2853775,-2.9458117,-1.8385314,0
0.38000000000000017,17.125705859417252,0.40637029158887533,0.5720553245713107,1.159175980967101,13.735105,-2.1928656,-0.08770783,-0.08851446,13.058015,-11.906916,1.605793,0.5388576,0.21850947,0.5460312,0.6031054,-10.3507395,-1.5209763,0.96075255,2.836085,-2.3975916,-1.6915455,0
0.3900000000000002,17.125705859417252,0.40637029158887533,0.5720553245713107,1.159175980967101,13.735105,-2.1928656,-0.08770783,-0.08851446,12.95524,-11.921767,1.6151708,0.5466569,0.22767602,0.54985416,0.5890588,-10.203655,-1.4501237,0.9143454,2.4578614,-1.9338341,-1.5516598,0
0.4000000000000002,17.643669408834423,-2.292670751013632,3.4493086939531987,1.4068743916947546,15.5863695,-3.8158832,1.4292793,1.1381239,12.8539505,-11.935931,1.6240706,0.55310935,0.2349396,0.5534924,0.576645,-10.053836,-1.3831745,0.8652228,2.1384633,-1.5425321,-1.4186382,0
0.4100000000000002,17.643669408834423,-2.292670751013632,3.4493086939531987,1.4068743916947546,15.5863695,-3.8158832,1.4292793,1.1381239,12.754193,-11.949432,1.6324741,0.5580168,0.23941875,0.5570205,0.56658983,-9.897288,-1.3174726,0.8151286,1.4482228,-0.7632854,-1.2799895,0
0.4200000000000002,17.643669408834423,-2.292670751013632,3.4493086939531987,1.4068743916947546,15.5863695,-3.8158832,1.4292793,1.1381239,12.656009,-11.962288,1.6403667,0.56124115,0.24044397,0.56052214,0.5594729,-9.739336,-1.2537916,0.7631278,0.86539257,-0.10577078,-1.1481444,0
0.4300000000000002,17.643669408834423,-2.292670751013632,3.4493086939531987,1.4068743916947546,15.5863695,-3.8158832,1.4292793,1.1381239,12.559409,-11.974511,1.647732,0.56302404,0.23861891,0.5640339,0.55491495,-9.580699,-1.1908371,0.7097565,0.37327456,0.44904268,-1.022769,0
0.4400000000000002,17.643669408834423,-2.292670751013632,3.4493086939531987,1.4068743916947546,17.283583,-5.2042375,4.206394,2.109178,12.464396,-11.986104,1.6545587,0.56354785,0.23443885,0.56755865,0.55256605,-9.421954,-1.127494,0.6554477,-0.04223574,0.9172078,-0.9035457,0
0.45000000000000023,17.643669408834423,-2.292670751013632,3.4493086939531987,1.4068743916947546,17.283583,-5.2042375,4.206394,2.109178,12.37097,-11.997058,1.660839,0.5629525,0.22831146,0.5710796,0.5521107,-9.263589,-1.0628121,0.6005457,-0.39305288,1.3122663,-0.79017276,0
0.46000000000000024,17.643669408834423,-2.292670751013632,3.4493086939531987,1.4068743916947546,17.283583,-5.2042375,4.206394,2.109178,12.279122,-12.007354,1.6665685,0.5613474,0.22057354,0.5745698,0.5532681,-9.106028,-0.9959902,0.5453201,-0.68924016,1.6456423,-0.68236303,0
0.47000000000000025,17.643669408834423,-2.292670751013632,3.4493086939531987,1.4068743916947546,17.283583,-5.2042375,4.206394,2.109178,12.188845,-12.016968,1.6717451,0.55882,0.21150427,0.57799834,0.5557911,-8.949656,-0.92636055,0.48997825,-0.93929696,1.9269722,-0.5798435,0
0.48000000000000026,20.52334633227809,-4.637999507841219,5.2791098520289745,1.6639170261185656,17.545547,-5.8680778,4.1882315,0.77377224,12.100123,-12.025869,1.6763682,0.5554415,0.2013359,0.5813336,0.55946356,-8.794834,-0.8533725,0.43467614,-1.150402,2.1643872,-0.4823547,0
0.49000000000000027,20.52334633227809,-4.637999507841219,5.2791098520289745,1.6639170261185656,17.545547,-5.8680778,4.1882315,0.77377224,12.013065,-12.03396,1.6804743,0.55100703,0.18934783,0.584413,0.56480056,-8.617004,-0.763964,0.3865845,-1.6943182,2.650183,-0.3770365,0
0.5000000000000002,20.52334633227809,-4.637999507841219,5.2791098520289745,1.6639170261185656,17.545547,-5.8680778,4.1882315,0.77377224,11.927772,-12.04113,1.684102,0.5453127,0.17497183,0.58706635,0.5721638,-8.4422035,-0.6691022,0.33911043,-2.1534815,3.0601366,-0.2768863,0
0.5100000000000002,20.52334633227809,-4.637999507841219,5.2791098520289745,1.6639170261185656,17.545547,-5.8680778,4.1882315,0.77377224,11.844209,-12.04732,1.68726,0.53841066,0.15859064,0.5892478,0.5811621,-8.271305,-0.56789035,0.29263648,-2.5410883,3.4060977,-0.18165055,0
0.5200000000000002,20.999999070348775,-5.637248936617631,5.247417818013867,1.4871079965313174,19.732172,-6.667514,4.397372,0.2775693,11.76233,-12.052463,1.6899592,0.5303415,0.14052707,0.59091043,0.591451,-8.105172,-0.45965382,0.24744235,-2.8682833,3.6980631,-0.09108801,0
0.5300000000000002,20.999999070348775,-5.637248936617631,5.247417818013867,1.4871079965313174,19.732172,-6.667514,4.397372,0.2775693,11.682104,-12.056473,1.6922201,0.5212119,0.12083865,0.59176624,0.6029495,-7.940956,-0.34122437,0.20501535,-3.300286,3.9395442,-0.013645479,0
0.5400000000000003,20.999999070348775,-5.637248936617631,5.247417818013867,1.4871079965313174,19.732172,-6.667514,4.397372,0.2775693,11.603487,-12.059259,1.6940658,0.51109505,0.09958889,0.5915676,0.61555743,-7.783512,-0.21477082,0.16445729,-3.6649306,4.143335,0.059996903,0
0.5500000000000003,20.999999070348775,-5.637248936617631,5.247417818013867,1.4871079965313174,19.732172,-6.667514,4.397372,0.2775693,11.526406,-12.06074,1.6955166,0.4999802,0.07704157,0.59032845,0.6289642,-7.6338577,-0.08012846,0.12605625,-3.972716,4.315324,0.13002564,0
0.5600000000000003,20.999999452543445,-5.747110004876187,4.3438345594426515,1.1957256145105637,21.421532,-7.396683,4.8611317,0.9987582,11.45078,-12.060833,1.6965951,0.48786396,0.05342451,0.5880614,0.6428979,-7.49299,0.06268178,0.08999789,-4.232504,4.460479,0.19661807,0
0.5700000000000003,20.999999452543445,-5.747110004876187,4.3438345594426515,1.1957256145105637,21.421532,-7.396683,4.8611317,0.9987582,11.3765135,-12.059459,1.697325,0.4749899,0.029127873,0.5845805,0.6571158,-7.361857,0.2134471,0.056399997,-4.468846,4.442116,0.24564455,0
0.5800000000000003,20.999999452543445,-5.747110004876187,4.3438345594426515,1.1957256145105637,21.421532,-7.396683,4.8611317,0.9987582,11.303506,-12.056538,1.6977321,0.46156868,0.0044810004,0.57975775,0.67142725,-7.2412677,0.37168404,0.025421718,-4.6683226,4.426615,0.2922653,0
0.5900000000000003,20.999999452543445,-5.747110004876187,4.3438345594426515,1.1957256145105637,21.421532,-7.396683,4.8611317,0.9987582,11.231649,-12.052,1.697843,0.44756272,-0.020414516,0.57368463,0.68567926,-7.131947,0.53677213,-0.002818441,-4.8366838,4.413534,0.33659834,0
0.6000000000000003,20.99999943327079,-4.850671686347128,2.817197760117502,0.8826157465098046,21.497955,-7.2656984,4.331063,0.92040944,11.160826,-12.04578,1.6976852,0.4329472,-0.045469575,0.56644213,0.6997369,-7.0345616,0.708016,-0.028278299,-4.978783,4.402497,0.37875593,0
0.6100000000000003,20.99999943327079,-4.850671686347128,2.817197760117502,0.8826157465098046,21.497955,-7.2656984,4.331063,0.92040944,11.090915,-12.037821,1.6972868,0.4181052,-0.07004441,0.55810046,0.71330553,-6.949656,0.8846238,-0.050974816,-4.9588103,4.155195,0.4034805,0
0.6200000000000003,20.99999943327079,-4.850671686347128,2.817197760117502,0.8826157465098046,21.497955,-7.2656984,4.331063,0.92040944,11.02179,-12.028072,1.6966752,0.40337893,-0.09362924,0.5487698,0.7262023,-6.877364,1.0656035,-0.07093323,-4.941952,3.946464,0.42699182,0
0.6300000000000003,20.99999943327079,-4.850671686347128,2.817197760117502,0.8826157465098046,21.497955,-7.2656984,4.331063,0.92040944,10.953325,-12.016497,1.6958776,0.38869807,-0.1163291,0.53856677,0.7384621,-6.8176675,1.2499614,-0.08819516,-4.9277234,3.7702878,0.44934943,0
0.6400000000000003,20.99999943327079,-4.850671686347128,2.817197760117502,0.8826157465098046,19.885748,-6.7010946,3.2454934,0.6292736,10.885395,-12.003064,1.6949204,0.3740045,-0.13823423,0.52758795,0.75010794,-6.7705235,1.4367707,-0.1028288,-4.9157143,3.6215894,0.47060993,0
0.6500000000000004,20.99999943327079,-4.850671686347128,2.817197760117502,0.8826157465098046,19.885748,-6.7010946,3.2454934,0.6292736,10.817872,-11.987756,1.6938297,0.359251,-0.15942167,0.51591384,0.761154,-6.7358727,1.625159,-0.11492655,-4.905578,3.4960837,0.4908272,0
0.6600000000000004,20.99999943327079,-4.850671686347128,2.817197760117502,0.8826157465098046,19.885748,-6.7010946,3.2454934,0.6292736,10.750634,-11.970559,1.6926302,0.34439957,-0.17995673,0.50361204,0.77160776,-6.713634,1.8142996,-0.12460275,-4.897024,3.390153,0.5100524,0
0.6700000000000004,20.99999943327079,-4.850671686347128,2.817197760117502,0.8826157465098046,19.885748,-6.7010946,3.2454934,0.6292736,10.683557,-11.95147,1.6913455,0.3294206,-0.1998945,0.49073932,0.78147185,-6.7037063,2.0034046,-0.13199155,-4.8898053,3.3007452,0.5283342,0
0.6800000000000004,20.99999751064999,-3.4431659050514267,1.1664977477096587,0.518484740865251,19.554169,-6.4197803,2.090927,0.3133868,10.616517,-11.930493,1.6899977,0.31429148,-0.21928102,0.47734413,0.79074544,-6.7059684,2.1917193,-0.13724464,-4.8837132,3.2252834,0.54571885,0
0.6900000000000004,20.99999751064999,-3.4431659050514267,1.1664977477096587,0.518484740865251,19.554169,-6.4197803,2.090927,0.3133868,10.549395,-11.90764,1.6886073,0.29947564,-0.23748116,0.46370843,0.79930633,-6.7201962,2.3785207,-0.14052095,-4.658944,2.9043012,0.54438245,0
0.7000000000000004,20.99999751064999,-3.4431659050514267,1.1664977477096587,0.518484740865251,19.554169,-6.4197803,2.090927,0.3133868,10.482073,-11.882931,1.6871936,0.28536642,-0.25401372,0.45010045,0.8071256,-6.7456913,2.5631595,-0.14193349,-4.469246,2.6333625,0.5431117,0
0.7100000000000004,20.99999751064999,-3.4431659050514267,1.1664977477096587,0.518484740865251,19.554169,-6.4197803,2.090927,0.3133868,10.414444,-11.856387,1.6857747,0.27185008,-0.26912123,0.43653175,0.8143159,-6.7816715,2.745095,-0.14156541,-4.3091464,2.4046657,0.54190326,0
0.7200000000000004,19.766425120888155,-1.5547548609186115,-0.5997852797527239,0.11519500374252546,19.757698,-5.1268616,0.9492939,-0.8846537,10.346405,-11.828039,1.6843683,0.258828,-0.28300852,0.42300498,0.8209629,-6.827443,2.9238737,-0.1394907,-4.174028,2.2116249,0.54075414,0
0.7300000000000004,19.766425120888155,-1.5547548609186115,-0.5997852797527239,0.11519500374252546,19.757698,-5.1268616,0.9492939,-0.8846537,10.277879,-11.797973,1.6829609,0.24677327,-0.29509947,0.40995112,0.8270177,-6.879079,3.0888393,-0.14175229,-3.7653747,1.7733825,0.51987183,0
0.7400000000000004,19.766425120888155,-1.5547548609186115,-0.5997852797527239,0.11519500374252546,19.757698,-5.1268616,0.9492939,-0.8846537,10.208797,-11.7662735,1.6815385,0.23607425,-0.30497044,0.3977413,0.832504,-6.938185,3.2503629,-0.14247221,-3.420486,1.4034497,0.50001425,0
0.7500000000000004,19.766425120888155,-1.5547548609186115,-0.5997852797527239,0.11519500374252546,19.757698,-5.1268616,0.9492939,-0.8846537,10.1390915,-11.732976,1.6801168,0.22653368,-0.3129819,0.3862805,0.8375627,-7.0036755,3.408436,-0.14162174,-3.129411,1.0911797,0.48113105,0
0.7600000000000005,18.76542425141765,0.5961077874927841,-2.0333012790871616,-0.2629980908943635,18.225168,-3.1822197,0.07020919,-1.4820951,10.068704,-11.698116,1.6787117,0.21798022,-0.31943417,0.37547714,0.8422959,-7.0746365,3.563096,-0.13915953,-2.8837519,0.82758546,0.46317446,0
0.7700000000000005,18.76542425141765,0.5961077874927841,-2.0333012790871616,-0.2629980908943635,18.225168,-3.1822197,0.07020919,-1.4820951,9.9976015,-11.661764,1.6773136,0.2107976,-0.32392874,0.3658369,0.8466386,-7.146394,3.706782,-0.14021747,-2.3409257,0.3816506,0.42754093,0
0.7800000000000005,18.76542425141765,0.5961077874927841,-2.0333012790871616,-0.2629980908943635,18.225168,-3.1822197,0.07020919,-1.4820951,9.925764,-11.623989,1.6759129,0.2052901,-0.3261755,0.35776663,0.85056895,-7.221426,3.8476725,-0.13966212,-1.8827915,0.005210012,0.393656,0
0.7900000000000005,18.76542425141765,0.5961077874927841,-2.0333012790871616,-0.2629980908943635,18.225168,-3.1822197,0.07020919,-1.4820951,9.853165,-11.584819,1.674526,0.20121074,-0.32654488,0.3510448,0.854195,-7.2986593,3.9861803,-0.13744314,-1.4961332,-0.31256366,0.36143377,0
0.8000000000000005,17.804861776839044,2.1011524408318505,-3.064538825756756,-0.612590863031466,16.044485,-1.2821052,-0.5035692,-1.8275416,9.779786,-11.544273,1.6731699,0.19834699,-0.32534224,0.34547415,0.8575881,-7.3772006,4.1226845,-0.13350634,-1.1697975,-0.58081114,0.33079273,0
0.8100000000000005,17.804861776839044,2.1011524408318505,-3.064538825756756,-0.612590863031466,16.044485,-1.2821052,-0.5035692,-1.8275416,9.705639,-11.502406,1.6718354,0.19689174,-0.32236198,0.341303,0.86071336,-7.4522033,4.2506485,-0.13311404,-0.65963984,-0.9680166,0.28450063,0
0.8200000000000005,17.804861776839044,2.1011524408318505,-3.064538825756756,-0.612590863031466,16.044485,-1.2821052,-0.5035692,-1.8275416,9.630743,-11.459264,1.6705134,0.19698799,-0.3174514,0.33871472,0.86353433,-7.5267625,4.3775296,-0.13099883,-0.22907196,-1.2948811,0.2404801,0
0.8300000000000005,17.804861776839044,2.1011524408318505,-3.064538825756756,-0.612590863031466,16.044485,-1.2821052,-0.5035692,-1.8275416,9.555109,-11.414857,1.6692213,0.19839893,-0.31091052,0.33745658,0.8660799,-7.599998,4.503781,-0.1271287,0.13432604,-1.5708045,0.19861966,0
0.8400000000000005,17.804861776839044,2.1011524408318505,-3.064538825756756,-0.612590863031466,13.602969,0.24484596,-0.8920843,-1.9290254,9.478751,-11.369189,1.6679769,0.20092233,-0.30298802,0.3373092,0.86836046,-7.6711597,4.629776,-0.12149015,0.44103506,-1.803723,0.15881336,0
0.8500000000000005,17.804861776839044,2.1011524408318505,-3.064538825756756,-0.612590863031466,13.602969,0.24484596,-0.8920843,-1.9290254,9.401695,-11.322261,1.6667975,0.2043859,-0.29389095,0.33808333,0.8703753,-7.739606,4.7558126,-0.11409015,0.69990057,-2.0003364,0.12096033,0
0.8600000000000005,17.804861776839044,2.1011524408318505,-3.064538825756756,-0.612590863031466,13.602969,0.24484596,-0.8920843,-1.9290254,9.32397,-11.274072,1.6657009,0.20864305,-0.28379282,0.33961663,0.87211764,-7.8047824,4.8821177,-0.104956284,0.9183874,-2.166302,0.08496475,0
0.8700000000000006,17.804861776839044,2.1011524408318505,-3.064538825756756,-0.612590863031466,13.602969,0.24484596,-0.8920843,-1.9290254,9.245612,-11.224616,1.6647042,0.21356905,-0.2728397,0.3417702,0.8735782,-7.866209,5.0088573,-0.094135776,1.1027954,-2.3063958,0.0507355,0
0.8800000000000006,17.849206943827756,2.967862276113499,-3.397719521703536,-0.9539922128601562,13.409633,0.5836405,-0.9423354,-1.9455789,9.16666,-11.173892,1.6638238,0.21905781,-0.26115513,0.3444258,0.87474656,-7.9234686,5.136142,-0.08169382,1.258441,-2.4246488,0.01818589,0
0.8900000000000006,17.849206943827756,2.967862276113499,-3.397719521703536,-0.9539922128601562,13.409633,0.5836405,-0.9423354,-1.9455789,9.087157,-11.12189,1.663077,0.22519067,-0.24866463,0.34774503,0.8755156,-7.9763064,5.264368,-0.067439824,1.5249462,-2.5764425,-0.029519174,0
0.9000000000000006,17.849206943827756,2.967862276113499,-3.397719521703536,-0.9539922128601562,13.409633,0.5836405,-0.9423354,-1.9455789,9.007151,-11.068603,1.6624798,0.23202468,-0.23531227,0.35184452,0.87578374,-8.024104,5.3933434,-0.05179554,1.749886,-2.7045755,-0.074883334,0
0.9100000000000006,17.849206943827756,2.967862276113499,-3.397719521703536,-0.9539922128601562,13.409633,0.5836405,-0.9423354,-1.9455789,8.926694,-11.01402,1.6620452,0.23944336,-0.22122076,0.35657012,0.8755484,-8.066401,5.5231586,-0.034935404,1.9397445,-2.8127341,-0.118021466,0
0.9200000000000006,17.73169326533454,3.1942704499517287,-3.224954289006684,-1.171127325081879,13.238937,0.8269401,-1.1193062,-2.016884,8.845843,-10.958137,1.6617846,0.24734712,-0.20649523,0.3617906,0.8748061,-8.102796,5.6538415,-0.017044969,2.0999942,-2.9040306,-0.15904278,0
0.9300000000000006,17.73169326533454,3.1942704499517287,-3.224954289006684,-1.171127325081879,13.238937,0.8269401,-1.1193062,-2.016884,8.764661,-10.900946,1.6617033,0.2556673,-0.19127375,0.36748552,0.8734999,-8.132746,5.784507,0.0009046858,2.270545,-2.9541695,-0.20870605,0
0.9400000000000006,17.73169326533454,3.1942704499517287,-3.224954289006684,-1.171127325081879,13.238937,0.8269401,-1.1193062,-2.016884,8.683211,-10.842443,1.6618048,0.2643451,-0.17567293,0.37363255,0.8715839,-8.1562,5.915983,0.019430948,2.4145017,-2.996492,-0.25593236,0
0.9500000000000006,17.73169326533454,3.1942704499517287,-3.224954289006684,-1.171127325081879,13.238937,0.8269401,-1.1193062,-2.016884,8.601562,-10.782622,1.6620932,0.27331468,-0.15974838,0.38012594,0.8690701,-8.172908,6.048204,0.038275458,2.5360115,-3.0322149,-0.30084124,0
0.9600000000000006,18.07865522407913,2.878754069684579,-2.4709973209260196,-1.3443865147849217,13.018831,0.31914696,-1.0905175,-1.7628522,8.519778,-10.721477,1.6625706,0.28251916,-0.14354895,0.38687593,0.86596924,-8.182661,6.181062,0.057183612,2.6385753,-3.062366,-0.34354642,0
0.9700000000000006,18.07865522407913,2.878754069684579,-2.4709973209260196,-1.3443865147849217,13.018831,0.31914696,-1.0905175,-1.7628522,8.437933,-10.658986,1.6632477,0.29179418,-0.12742369,0.39378196,0.86229587,-8.185365,6.317029,0.07818577,2.6759565,-2.9702363,-0.39265797,0
0.9800000000000006,18.07865522407913,2.878754069684579,-2.4709973209260196,-1.3443865147849217,13.018831,0.31914696,-1.0905175,-1.7628522,8.356096,-10.595135,1.6641326,0.30101314,-0.1116566,0.40077037,0.8580828,-8.180856,6.453363,0.098713174,2.7075143,-2.8924706,-0.43935958,0
0.9900000000000007,18.07865522407913,2.878754069684579,-2.4709973209260196,-1.3443865147849217,13.018831,0.31914696,-1.0905175,-1.7628522,8.27434,-10.529919,1.6652194,0.3101809,-0.09619969,0.40780622,0.8533619,-8.169219,6.589917,0.118500106,2.734156,-2.826829,-0.4837695,0
1.0000000000000007,17.260846795327268,1.9281184328893453,-1.712623454183642,-1.3520177185320807,13.829659,-0.7234382,-1.045954,-1.2903976,8.192735,-10.463337,1.6664993,0.31930047,-0.081013024,0.4148593,0.84815973,-8.150536,6.7265344,0.1373041,2.7566469,-2.77142,-0.52600026,0
1.0100000000000007,17.260846795327268,1.9281184328893453,-1.712623454183642,-1.3520177185320807,13.829659,-0.7234382,-1.045954,-1.2903976,8.111346,-10.39542,1.6679351,0.32822046,-0.06644382,0.42168182,0.84263873,-8.1260805,6.85687,0.14967912,2.6274257,-2.6063268,-0.56653315,0
1.0200000000000007,17.260846795327268,1.9281184328893453,-1.712623454183642,-1.3520177185320807,13.829659,-0.7234382,-1.045954,-1.2903976,8.030234,-10.3262005,1.6694884,0.33683202,-0.052769452,0.42809126,0.8369567,-8.095324,6.986937,0.16079077,2.5183582,-2.4669776,-0.60507715,0
1.0300000000000007,17.260846795327268,1.9281184328893453,-1.712623454183642,-1.3520177185320807,13.829659,-0.7234382,-1.045954,-1.2903976,7.94946,-10.255684,1.6711463,0.34519202,-0.039863963,0.43414944,0.8311237,-8.058607,7.116582,0.17055646,2.4263008,-2.3493583,-0.6417298,0
1.0400000000000007,17.260846795327268,1.9281184328893453,-1.712623454183642,-1.3520177185320807,13.9564,-1.4907357,-0.513298,-0.96591187,7.8690815,-10.183872,1.6728948,0.35334665,-0.027620004,0.43990663,0.82514507,-8.01623,7.2456684,0.1789078,2.3485997,-2.2500806,-0.67658377,0
1.0500000000000007,17.260846795327268,1.9281184328893453,-1.712623454183642,-1.3520177185320807,13.9564,-1.4907357,-0.513298,-0.96591187,7.789154,-10.110772,1.6747196,0.3613331,-0.015946213,0.44540387,0.81902283,-7.968448,7.374072,0.18578687,2.283016,-2.1662848,-0.7097275,0
1.0600000000000007,17.260846795327268,1.9281184328893453,-1.712623454183642,-1.3520177185320807,13.9564,-1.4907357,-0.513298,-0.96591187,7.7097306,-10.036393,1.6766055,0.36918133,-0.004764891,0.4506746,0.8127569,-7.9154887,7.501678,0.19114375,2.2276595,-2.095557,-0.74124485,0
1.0700000000000007,17.260846795327268,1.9281184328893453,-1.712623454183642,-1.3520177185320807,13.9564,-1.4907357,-0.513298,-0.96591187,7.6308618,-9.960742,1.6785371,0.37691516,0.005989969,0.4557459,0.8063459,-7.8575497,7.628378,0.19493441,2.1809351,-2.0358589,-0.7712156,0
1.0800000000000007,16.31979480331216,0.7314152672326619,-1.0019460382734704,-1.2261699868401967,13.543386,-1.9199312,0.23933594,-0.86912817,7.552596,-9.883828,1.6804986,0.3845534,0.016374402,0.46063992,0.79978764,-7.7948055,7.7540665,0.19711952,2.1414971,-1.9854704,-0.79971576,0
1.0900000000000007,16.31979480331216,0.7314152672326619,-1.0019460382734704,-1.2261699868401967,13.543386,-1.9199312,0.23933594,-0.86912817,7.474963,-9.805697,1.6824468,0.39197826,0.026030919,0.46510494,0.79331684,-7.7311215,7.871855,0.19230494,1.9216505,-1.8320022,-0.820642,0
1.1000000000000008,16.31979480331216,0.7314152672326619,-1.0019460382734704,-1.2261699868401967,13.543386,-1.9199312,0.23933594,-0.86912817,7.3979874,-9.726395,1.6843398,0.39910597,0.034678698,0.46895656,0.78714067,-7.6634398,7.9885335,0.18606016,1.7360809,-1.702479,-0.84054136,0
1.1100000000000008,16.31979480331216,0.7314152672326619,-1.0019460382734704,-1.2261699868401967,13.543386,-1.9199312,0.23933594,-0.86912817,7.321707,-9.645931,1.6861635,0.40599388,0.042465717,0.47229928,0.78121567,-7.5921354,8.104065,0.17851683,1.5794439,-1.5931653,-0.8594642,0
1.1200000000000008,15.427169275564776,-0.6751336504587875,-0.31738618193050855,-0.8626838647344652,14.801628,-2.8431904,0.38820973,0.06863092,7.2461557,-9.564318,1.687906,0.41268814,0.049517784,0.4752186,0.7755016,-7.5175266,8.218424,0.16979222,1.4472284,-1.5009081,-0.8774586,0
1.1300000000000008,15.427169275564776,-0.6751336504587875,-0.31738618193050855,-0.8626838647344652,14.801628,-2.8431904,0.38820973,0.06863092,7.1713448,-9.481597,1.6895316,0.41909122,0.055517774,0.47746256,0.77026546,-7.444162,8.325407,0.15518457,1.1163533,-1.316149,-0.87673354,0
1.1400000000000008,15.427169275564776,-0.6751336504587875,-0.31738618193050855,-0.8626838647344652,14.801628,-2.8431904,0.38820973,0.06863092,7.09728,-9.397813,1.6910071,0.42513046,0.06022196,0.4788445,0.7657313,-7.3684053,8.431301,0.13983035,0.83706146,-1.1602327,-0.87604415,0
1.1500000000000008,15.427169275564776,-0.6751336504587875,-0.31738618193050855,-0.8626838647344652,14.801628,-2.8431904,0.38820973,0.06863092,7.023983,-9.312974,1.6923265,0.4308707,0.06382833,0.479513,0.76180226,-7.2906966,8.536151,0.12399326,0.60131085,-1.0286566,-0.87538856,0
1.1600000000000008,14.978079698676854,-2.0769120898380136,0.5514350733222576,-0.3734992265637676,15.342393,-4.1621437,-0.21639283,1.1890044,6.9514713,-9.227094,1.6934861,0.4363637,0.066504546,0.4795892,0.75839114,-7.2114043,8.640013,0.107900076,0.40231368,-0.9176207,-0.87476516,0
1.1700000000000008,14.978079698676854,-2.0769120898380136,0.5514350733222576,-0.3734992265637676,15.342393,-4.1621437,-0.21639283,1.1890044,6.8797474,-9.140193,1.6944724,0.44147646,0.067912474,0.47889668,0.75574034,-7.1332197,8.739953,0.08938114,0.015821546,-0.68830144,-0.85016793,0
1.1800000000000008,14.978079698676854,-2.0769120898380136,0.5514350733222576,-0.3734992265637676,15.342393,-4.1621437,-0.21639283,1.1890044,6.8088093,-9.052297,1.6952746,0.4461004,0.06779395,0.4773029,0.75404197,-7.054328,8.839124,0.07112852,-0.3104244,-0.49478912,-0.82677764,0
1.1900000000000008,14.978079698676854,-2.0769120898380136,0.5514350733222576,-0.3734992265637676,15.342393,-4.1621437,-0.21639283,1.1890044,6.738662,-8.963412,1.6958969,0.4503035,0.06638765,0.47495407,0.75315136,-6.9752183,8.937661,0.053440653,-0.58581436,-0.33149105,-0.80453515,0
1.2000000000000008,14.56255337828247,-3.2617718934172344,0.9523795727707853,0.1967754292035056,15.874728,-4.6306376,-0.109812334,2.0238705,6.669305,-8.873546,1.6963462,0.45413968,0.06389504,0.4719688,0.7529402,-6.896305,9.035689,0.0365644,-0.8182752,-0.19368845,-0.7833841,0
1.2100000000000009,14.56255337828247,-3.2617718934172344,0.9523795727707853,0.1967754292035056,15.874728,-4.6306376,-0.109812334,2.0238705,6.6007237,-8.782714,1.6966203,0.45755276,0.060182564,0.46815494,0.7535605,-6.820142,9.1306095,0.018439833,-1.1992452,-0.014802478,-0.73528737,0
1.2200000000000009,14.56255337828247,-3.2617718934172344,0.9523795727707853,0.1967754292035056,15.874728,-4.6306376,-0.109812334,2.0238705,6.532899,-8.690936,1.6967194,0.46048656,0.055155277,0.46335936,0.7551206,-6.7450066,9.225248,0.0016082767,-1.5208267,0.13613813,-0.68955076,0
1.2300000000000009,14.56255337828247,-3.2617718934172344,0.9523795727707853,0.1967754292035056,15.874728,-4.6306376,-0.109812334,2.0238705,6.4658184,-8.598212,1.6966579,0.46297958,0.049022254,0.45772147,0.7574541,-6.671354,9.319699,-0.013663039,-1.7922764,0.26350197,-0.6460585,0
1.2400000000000009,14.56255337828247,-3.2617718934172344,0.9523795727707853,0.1967754292035056,15.1172085,-4.949176,0.61352175,2.7604225,6.399465,-8.504543,1.6964523,0.46506226,0.041960143,0.4513563,0.76041627,-6.5995817,9.414031,-0.027166625,-2.021408,0.37097427,-0.6047004,0
1.2500000000000009,14.56255337828247,-3.2617718934172344,0.9523795727707853,0.1967754292035056,15.1172085,-4.949176,0.61352175,2.7604225,6.3338184,-8.409931,1.6961212,0.4667595,0.034118354,0.44435936,0.7638817,-6.5300403,9.508288,-0.038746852,-2.2148182,0.46166375,-0.5653717,0
1.260000000000001,14.56255337828247,-3.2617718934172344,0.9523795727707853,0.1967754292035056,15.1172085,-4.949176,0.61352175,2.7604225,6.268855,-8.314377,1.6956844,0.46809193,0.025623402,0.4368107,0.76774263,-6.46304,9.602495,-0.048292782,-2.378075,0.5381929,-0.5279729,0
1.270000000000001,14.56255337828247,-3.2617718934172344,0.9523795727707853,0.1967754292035056,15.1172085,-4.949176,0.61352175,2.7604225,6.204548,-8.217881,1.6951628,0.46907717,0.016582487,0.42877778,0.7719068,-6.3988557,9.696659,-0.055731904,-2.5158787,0.60277426,-0.49240923,0
1.280000000000001,14.280008005529933,-3.9844655020774744,0.8883315507480167,0.7654878553727945,15.262753,-4.696193,0.7358473,2.8168983,6.1408677,-8.120444,1.6945773,0.46973056,0.0070865364,0.42031777,0.7762956,-6.337732,9.790767,-0.061024606,-2.6321971,0.6572744,-0.45859075,0
1.290000000000001,14.280008005529933,-3.9844655020774744,0.8883315507480167,0.7654878553727945,15.262753,-4.696193,0.7358473,2.8168983,6.0777764,-8.022076,1.6939405,0.47002158,-0.0028738803,0.41124123,0.7809936,-6.2810225,9.882965,-0.06598937,-2.843099,0.6932597,-0.39852485,0
1.300000000000001,14.280008005529933,-3.9844655020774744,0.8883315507480167,0.7654878553727945,15.262753,-4.696193,0.7358473,2.8168983,6.015235,-7.9227858,1.6932651,0.46991083,-0.013298318,0.40139624,0.78605783,-6.227818,9.975005,-0.06875708,-3.0211139,0.72361517,-0.34140643,0
1.310000000000001,14.280008005529933,-3.9844655020774744,0.8883315507480167,0.7654878553727945,15.262753,-4.696193,0.7358473,2.8168983,5.9532075,-7.8225765,1.6925731,0.4693998,-0.024102125,0.39087912,0.7913882,-6.178389,10.066791,-0.06927468,-3.1713688,0.749224,-0.2870908,0
1.320000000000001,13.8825067403982,-4.438976486391298,0.5419635906350785,1.2085844471659544,17.203382,-5.2576694,-1.0176427,3.8115377,5.891654,-7.7214513,1.6918874,0.4684912,-0.035213508,0.37977237,0.79689884,-6.132977,10.158216,-0.06752836,-3.2981927,0.7708306,-0.2354405,0
1.330000000000001,13.8825067403982,-4.438976486391298,0.5419635906350785,1.2085844471659544,17.203382,-5.2576694,-1.0176427,3.8115377,5.830528,-7.619427,1.6912162,0.4671894,-0.04652524,0.36793816,0.8026144,-6.0929456,10.246623,-0.06636986,-3.476137,0.7350061,-0.16458178,0
1.340000000000001,13.8825067403982,-4.438976486391298,0.5419635906350785,1.2085844471659544,17.203382,-5.2576694,-1.0176427,3.8115377,5.76978,-7.516521,1.6905677,0.46548554,-0.057945214,0.35526997,0.80854666,-6.057241,10.334373,-0.063003354,-3.6263254,0.70475847,-0.097200125,0
1.350000000000001,13.8825067403982,-4.438976486391298,0.5419635906350785,1.2085844471659544,17.203382,-5.2576694,-1.0176427,3.8115377,5.7093673,-7.412742,1.6899639,0.4633669,-0.06943772,0.34187645,0.81460965,-6.0260563,10.421265,-0.05743146,-3.7530878,0.6792223,-0.033124894,0
1.360000000000001,14.029820175310226,-4.682389772195487,0.34567748984102425,1.5992846610322087,18.737621,-5.6172976,-1.8451163,4.0549026,5.6492434,-7.3080997,1.6894267,0.46082526,-0.08097263,0.3278511,0.82072896,-5.99956,10.507092,-0.049693536,-3.8600783,0.6576661,0.02780614,0
1.370000000000001,14.029820175310226,-4.682389772195487,0.34567748984102425,1.5992846610322087,18.737621,-5.6172976,-1.8451163,4.0549026,5.5893617,-7.2026005,1.688983,0.457833,-0.09248888,0.31316212,0.8268997,-5.977669,10.592548,-0.03871009,-3.988347,0.60880923,0.10491904,0
1.380000000000001,14.029820175310226,-4.682389772195487,0.34567748984102425,1.5992846610322087,18.737621,-5.6172976,-1.8451163,4.0549026,5.529673,-7.0962543,1.6886593,0.4543596,-0.10393401,0.29778984,0.83311176,-5.960802,10.676481,-0.025671473,-4.0966067,0.5675712,0.17824802,0
1.390000000000001,14.029820175310226,-4.682389772195487,0.34567748984102425,1.5992846610322087,18.737621,-5.6172976,-1.8451163,4.0549026,5.4701276,-6.989077,1.6884761,0.4503988,-0.115296386,0.2818263,0.8392976,-5.9490776,10.758642,-0.010666388,-4.1879797,0.53276604,0.24797872,0
1.400000000000001,13.968803414177586,-4.624880960208403,-0.27635616647152333,1.8158646926510873,19.239283,-5.8882213,-2.0537226,3.9814253,5.410673,-6.8810887,1.6884524,0.4459482,-0.12656634,0.26535124,0.84539855,-5.9425893,10.838794,0.006188096,-4.2651,0.50339293,0.3142877,0
1.410000000000001,13.968803414177586,-4.624880960208403,-0.27635616647152333,1.8158646926510873,19.239283,-5.8882213,-2.0537226,3.9814253,5.3512573,-6.772311,1.6886033,0.44105414,-0.13750772,0.24834666,0.85140216,-5.9414034,10.91635,0.024250183,-4.3212013,0.38157257,0.38797048,0
1.420000000000001,13.968803414177586,-4.624880960208403,-0.27635616647152333,1.8158646926510873,19.239283,-5.8882213,-2.0537226,3.9814253,5.2918277,-6.6627707,1.688943,0.43574905,-0.14793152,0.23080687,0.85730165,-5.9454737,10.991366,0.04390356,-4.368547,0.2787575,0.45803764,0
1.430000000000001,13.968803414177586,-4.624880960208403,-0.27635616647152333,1.8158646926510873,19.239283,-5.8882213,-2.0537226,3.9814253,5.2323303,-6.552494,1.6894866,0.43001735,-0.15789436,0.21281306,0.863055,-5.9547505,11.063549,0.0650235,-4.4085045,0.19198453,0.52466667,0
1.440000000000001,13.968803414177586,-4.624880960208403,-0.27635616647152333,1.8158646926510873,20.127647,-6.1270146,-2.7133613,4.3177176,5.172715,-6.44151,1.690248,0.4238492,-0.16744475,0.19443527,0.8686241,-5.9691753,11.132625,0.08746511,-4.442229,0.11875221,0.58802617,0
1.450000000000001,13.968803414177586,-4.624880960208403,-0.27635616647152333,1.8158646926510873,20.127647,-6.1270146,-2.7133613,4.3177176,5.11293,-6.329853,1.6912397,0.41723952,-0.17662418,0.17573404,0.8739745,-5.9886785,11.198338,0.1110665,-4.470692,0.056948908,0.6482765,0
1.460000000000001,13.968803414177586,-4.624880960208403,-0.27635616647152333,1.8158646926510873,20.127647,-6.1270146,-2.7133613,4.3177176,5.0529246,-6.2175565,1.6924727,0.41018727,-0.18546806,0.15676197,0.8790748,-6.0131807,11.2604475,0.13565145,-4.494716,0.004792178,0.7055704,0
1.470000000000001,13.968803414177586,-4.624880960208403,-0.27635616647152333,1.8158646926510873,20.127647,-6.1270146,-2.7133613,4.3177176,4.99265,-6.1046576,1.6939557,0.4026945,-0.19400665,0.13756505,0.8838967,-6.0425916,11.318733,0.16103195,-4.5149937,-0.039222393,0.7600529,0
1.480000000000001,13.52338499522458,-4.117717721906415,-0.9289909297278718,1.760000668567113,20.66263,-6.1045647,-3.201934,4.5165,4.932057,-5.9911957,1.6956954,0.39476576,-0.20226566,0.11818358,0.88841444,-6.0768085,11.372986,0.18701024,-4.53211,-0.076364875,0.81186193,0
1.490000000000001,13.52338499522458,-4.117717721906415,-0.9289909297278718,1.760000668567113,20.66263,-6.1045647,-3.201934,4.5165,4.871104,-5.8772206,1.6976773,0.3864859,-0.2099564,0.09873043,0.89263564,-6.1144586,11.421415,0.20941874,-4.4674096,-0.20943281,0.85838735,0
1.500000000000001,13.52338499522458,-4.117717721906415,-0.9289909297278718,1.760000668567113,20.66263,-6.1045647,-3.201934,4.5165,4.809753,-5.7627826,1.6998844,0.37792623,-0.21685447,0.07930254,0.8965802,-6.15639,11.465566,0.23205708,-4.4128036,-0.3217443,0.90262973,0
1.5100000000000011,13.52338499522458,-4.117717721906415,-0.9289909297278718,1.760000668567113,20.66263,-6.1045647,-3.201934,4.5165,4.7479625,-5.647925,1.7023185,0.36907604,-0.22306678,0.059910756,0.9002411,-6.202335,11.50527,0.2547793,-4.366719,-0.41653675,0.9447012,0
1.5200000000000011,13.469378069674196,-3.4892435722706376,-1.467420124520685,1.666640215096927,21.11661,-5.828036,-3.9248393,3.984044,4.6856933,-5.5326934,1.7049798,0.35992897,-0.22868372,0.0405643,0.90360874,-6.25204,11.54038,0.277436,-4.327825,-0.49654272,0.9847082,0
1.5300000000000011,13.469378069674196,-3.4892435722706376,-1.467420124520685,1.666640215096927,21.11661,-5.828036,-3.9248393,3.984044,4.6229105,-5.4171343,1.7078643,0.35055906,-0.23349835,0.021419514,0.90671235,-6.3050327,11.570646,0.29940036,-4.196938,-0.6479582,1.0181707,0
1.5400000000000011,13.469378069674196,-3.4892435722706376,-1.467420124520685,1.666640215096927,21.11661,-5.828036,-3.9248393,3.984044,4.5595818,-5.3012967,1.710967,0.3410296,-0.23735543,0.002603984,0.9095899,-6.361162,11.596119,0.32105225,-4.086473,-0.77576447,1.0499914,0
1.5500000000000012,13.469378069674196,-3.4892435722706376,-1.467420124520685,1.666640215096927,21.11661,-5.828036,-3.9248393,3.984044,4.495678,-5.185229,1.7142841,0.33132437,-0.24039474,-0.015914518,0.9122394,-6.420073,11.61673,0.34230313,-3.9932444,-0.883643,1.0802505,0
1.5600000000000012,14.281370173863447,-2.9885422858674975,-1.6905693296836999,1.5611897471516043,20.994007,-5.664349,-4.1967525,3.9958382,4.4311724,-5.0689793,1.7178113,0.3214316,-0.24273399,-0.034163885,0.9146552,-6.4814444,11.632423,0.36306176,-3.9145634,-0.97470075,1.1090248,0
1.5700000000000012,14.281370173863447,-2.9885422858674975,-1.6905693296836999,1.5611897471516043,20.994007,-5.664349,-4.1967525,3.9958382,4.3660226,-4.952594,1.721579,0.3114014,-0.24432695,-0.052016217,0.91685724,-6.5487976,11.643811,0.39036927,-3.7700546,-1.0862905,1.1312126,0
1.5800000000000012,14.281370173863447,-2.9885422858674975,-1.6905693296836999,1.5611897471516043,20.994007,-5.664349,-4.1967525,3.9958382,4.300189,-4.836121,1.7256163,0.30127794,-0.24514584,-0.069371104,0.91887,-6.6180716,11.649961,0.41699526,-3.6480927,-1.1804878,1.1523117,0
1.5900000000000012,14.281370173863447,-2.9885422858674975,-1.6905693296836999,1.5611897471516043,20.994007,-5.664349,-4.1967525,3.9958382,4.2336555,-4.719613,1.7299163,0.29104677,-0.24530627,-0.08628825,0.92069006,-6.68892,11.650901,0.44288343,-3.54516,-1.260004,1.1723754,0
1.6000000000000012,14.454510031139352,-2.1942105560144882,-1.7854832031595915,1.2961265192766567,20.54015,-4.6537843,-3.8772163,3.2460682,4.1664066,-4.6031213,1.7344713,0.28069717,-0.24490516,-0.10281861,0.9223113,-6.761029,11.646667,0.46797398,-3.4582882,-1.3271272,1.1914546,0
1.6100000000000012,14.454510031139352,-2.1942105560144882,-1.7854832031595915,1.2961265192766567,20.54015,-4.6537843,-3.8772163,3.2460682,4.0984273,-4.486698,1.7392802,0.2703266,-0.24389824,-0.11873106,0.92376363,-6.8349876,11.637197,0.49369448,-3.261096,-1.3984655,1.1965909,0
1.6200000000000012,14.454510031139352,-2.1942105560144882,-1.7854832031595915,1.2961265192766567,20.54015,-4.6537843,-3.8772163,3.2460682,4.029705,-4.3703947,1.7443421,0.2600204,-0.24226005,-0.13384679,0.9250858,-6.9095874,11.622685,0.5185396,-3.0946643,-1.458701,1.2014753,0
1.6300000000000012,14.454510031139352,-2.1942105560144882,-1.7854832031595915,1.2961265192766567,20.54015,-4.6537843,-3.8772163,3.2460682,3.9602346,-4.2542605,1.749648,0.24975505,-0.2400897,-0.14827675,0.92627895,-6.9845138,11.603294,0.54251134,-2.9541945,-1.5095617,1.2061198,0
1.6400000000000012,14.454510031139352,-2.1942105560144882,-1.7854832031595915,1.2961265192766567,19.776417,-3.9836833,-2.8572671,1.9110724,3.8900146,-4.138345,1.7551893,0.23951137,-0.23746954,-0.16211514,0.9273405,-7.059488,11.579171,0.5656071,-2.835637,-1.5525067,1.2105364,0
1.6500000000000012,14.454510031139352,-2.1942105560144882,-1.7854832031595915,1.2961265192766567,19.776417,-3.9836833,-2.8572671,1.9110724,3.8190458,-4.022693,1.7609571,0.22927386,-0.2344681,-0.17544183,0.92826587,-7.134265,11.550447,0.58781916,-2.7355742,-1.5887679,1.2147363,0
1.6600000000000013,14.454510031139352,-2.1942105560144882,-1.7854832031595915,1.2961265192766567,19.776417,-3.9836833,-2.8572671,1.9110724,3.747331,-3.907351,1.7669425,0.2190302,-0.23114242,-0.18832442,0.929049,-7.208625,11.517247,0.60913455,-2.6511207,-1.6193856,1.2187301,0
1.6700000000000013,14.454510031139352,-2.1942105560144882,-1.7854832031595915,1.2961265192766567,19.776417,-3.9836833,-2.8572671,1.9110724,3.6748753,-3.792363,1.7731366,0.20877078,-0.22753996,-0.20082007,0.9296832,-7.2823696,11.479683,0.6295353,-2.579841,-1.6452383,1.222528,0
1.6800000000000013,14.782027408953955,-1.403213131321144,-1.5703749506851603,0.9913146921161627,19.569548,-3.9095166,-2.693625,1.7415036,3.6016862,-3.6777718,1.77953,0.19848822,-0.2237003,-0.21297707,0.9301616,-7.3553195,11.437861,0.648999,-2.5196807,-1.6670674,1.2261395,0
1.6900000000000013,14.782027408953955,-1.403213131321144,-1.5703749506851603,0.9913146921161627,19.569548,-3.9095166,-2.693625,1.7415036,3.527764,-3.563625,1.7861266,0.18830188,-0.21966763,-0.22453393,0.93052256,-7.4289393,11.390862,0.67014897,-2.3455927,-1.6518315,1.2146168,0
1.7000000000000013,14.782027408953955,-1.403213131321144,-1.5703749506851603,0.9913146921161627,19.569548,-3.9095166,-2.693625,1.7415036,3.4531114,-3.4499683,1.7929299,0.17831372,-0.21548308,-0.2352903,0.9308109,-7.501419,11.33986,0.69034904,-2.1986508,-1.6389964,1.2036593,0
1.7100000000000013,14.782027408953955,-1.403213131321144,-1.5703749506851603,0.9913146921161627,19.569548,-3.9095166,-2.693625,1.7415036,3.3777401,-3.3368409,1.7999306,0.16849479,-0.21117178,-0.24536574,0.93102676,-7.572622,11.285094,0.7096392,-2.0746222,-1.6281835,1.1932395,0
1.7200000000000013,14.776116526221214,-0.46525714975081495,-1.161056932841651,0.6262167699763136,19.183443,-2.943814,-2.3809628,0.9502843,3.3016636,-3.224279,1.8071197,0.15882054,-0.20675367,-0.2548609,0.9311681,-7.6424284,11.226774,0.72805303,-1.9699339,-1.6190741,1.183331,0
1.7300000000000013,14.776116526221214,-0.46525714975081495,-1.161056932841651,0.6262167699763136,19.183443,-2.943814,-2.3809628,0.9502843,3.2248967,-3.1123168,1.8144885,0.14943202,-0.2023282,-0.26349586,0.9312907,-7.710713,11.165133,0.7455818,-1.7353632,-1.5474347,1.1559933,0
1.7400000000000013,14.776116526221214,-0.46525714975081495,-1.161056932841651,0.6262167699763136,19.183443,-2.943814,-2.3809628,0.9502843,3.1474545,-3.0009866,1.822029,0.14044748,-0.19797865,-0.2710591,0.9314531,-7.777446,11.100471,0.7623641,-1.5373615,-1.4870039,1.129997,0
1.7500000000000013,14.776116526221214,-0.46525714975081495,-1.161056932841651,0.6262167699763136,19.183443,-2.943814,-2.3809628,0.9502843,3.069353,-2.8903167,1.8297338,0.13181607,-0.19369633,-0.27772018,0.9316527,-7.842595,11.033108,0.7785029,-1.370228,-1.4360275,1.1052763,0
1.7600000000000013,14.778158860019342,0.487089929082034,-0.6511508984789391,0.1981199218695533,18.172735,-2.487689,-2.3124037,0.24446349,2.9906082,-2.7803328,1.8375973,0.12349394,-0.18947236,-0.2836215,0.93188375,-7.906138,10.96332,0.7940895,-1.2291507,-1.3930256,1.0817688,0
1.7700000000000014,14.778158860019342,0.487089929082034,-0.6511508984789391,0.1981199218695533,18.172735,-2.487689,-2.3124037,0.24446349,2.9112358,-2.6710582,1.8456141,0.11562301,-0.1854277,-0.28851348,0.9322054,-7.968075,10.891354,0.80923,-0.9616218,-1.2771149,1.0384079,0
1.7800000000000014,14.778158860019342,0.487089929082034,-0.6511508984789391,0.1981199218695533,18.172735,-2.487689,-2.3124037,0.24446349,2.831252,-2.5625124,1.8537807,0.10832062,-0.1816594,-0.29220933,0.93267316,-8.02845,10.817579,0.82405066,-0.7357939,-1.1793234,0.9971747,0
1.7900000000000014,14.778158860019342,0.487089929082034,-0.6511508984789391,0.1981199218695533,18.172735,-2.487689,-2.3124037,0.24446349,2.750672,-2.4547117,1.8620945,0.10151795,-0.17812566,-0.2949026,0.9332721,-8.087334,10.742347,0.83869755,-0.54516745,-1.0968174,0.95796484,0
1.8000000000000014,14.612748352697842,1.3417317763057306,-0.19727922577507806,-0.26623064560945536,18.65225,-1.0011007,-2.33189,-1.324018,2.6695104,-2.3476696,1.8705546,0.09515569,-0.17478964,-0.29675502,0.9339858,-8.144793,10.665951,0.85329753,-0.384256,-1.027206,0.92067903,0
1.8100000000000014,14.612748352697842,1.3417317763057306,-0.19727922577507806,-0.26623064560945536,18.65225,-1.0011007,-2.33189,-1.324018,2.587784,-2.2413914,1.8791544,0.08934993,-0.17174023,-0.2975761,0.9348634,-8.200269,10.589525,0.86670774,-0.11520125,-0.89761317,0.862437,0
1.8200000000000014,14.612748352697842,1.3417317763057306,-0.19727922577507806,-0.26623064560945536,18.65225,-1.0011007,-2.33189,-1.324018,2.5055091,-2.1358807,1.8878895,0.084196135,-0.16904587,-0.29722378,0.93594426,-8.254524,10.51256,0.88034755,0.1119166,-0.7882726,0.80705297,0
1.8300000000000014,14.612748352697842,1.3417317763057306,-0.19727922577507806,-0.26623064560945536,18.65225,-1.0011007,-2.33189,-1.324018,2.4226973,-2.031141,1.8967627,0.07961851,-0.16664825,-0.29588726,0.9371975,-8.307686,10.435388,0.8943703,0.303633,-0.6960168,0.75438666,0
1.8400000000000014,14.612748352697842,1.3417317763057306,-0.19727922577507806,-0.26623064560945536,17.76894,-1.029591,-2.3230731,-1.303969,2.3393588,-1.9271728,1.9057785,0.07555186,-0.16449714,-0.29372472,0.93859345,-8.359863,10.358289,0.9089045,0.4654654,-0.6181743,0.70430475,0
1.8500000000000014,14.612748352697842,1.3417317763057306,-0.19727922577507806,-0.26623064560945536,17.76894,-1.029591,-2.3230731,-1.303969,2.255503,-1.8239741,1.9149427,0.07194003,-0.16254944,-0.29086846,0.94010484,-8.411153,10.2815,0.92405593,0.6020713,-0.5524917,0.65668035,0
1.8600000000000014,14.612748352697842,1.3417317763057306,-0.19727922577507806,-0.26623064560945536,17.76894,-1.029591,-2.3230731,-1.303969,2.1711383,-1.7215412,1.924262,0.0687346,-0.1607684,-0.28742945,0.9417073,-8.461639,10.205221,0.939911,0.71738243,-0.49706814,0.61139286,0
1.8700000000000014,14.612748352697842,1.3417317763057306,-0.19727922577507806,-0.26623064560945536,17.76894,-1.029591,-2.3230731,-1.303969,2.0862725,-1.6198676,1.9337436,0.06589378,-0.15912285,-0.28350076,0.94337934,-8.511397,10.129625,0.9565393,0.81471795,-0.4503003,0.5683276,0
1.8800000000000014,14.293488055989588,1.947012199502633,0.12129432897118893,-0.6956267094062961,17.524063,-0.82674235,-2.2337916,-1.4557114,2.0009127,-1.5189457,1.9433956,0.06338136,-0.1575864,-0.27916047,0.9451021,-8.560487,10.054858,0.9739953,0.8968799,-0.4108352,0.5273756,0
1.8900000000000015,14.293488055989588,1.947012199502633,0.12129432897118893,-0.6956267094062961,17.524063,-0.82674235,-2.2337916,-1.4557114,1.9150703,-1.4187589,1.9532138,0.061289597,-0.15622741,-0.27424544,0.946903,-8.60791,9.982673,0.9897838,1.060606,-0.32783478,0.46736252,0
1.9000000000000015,14.293488055989588,1.947012199502633,0.12129432897118893,-0.6956267094062961,17.524063,-0.82674235,-2.2337916,-1.4557114,1.8287563,-1.3192884,1.9631945,0.059695143,-0.15509772,-0.26862964,0.9487985,-8.654832,9.91164,1.0065007,1.1988097,-0.25779554,0.41029432,0
1.9100000000000015,14.293488055989588,1.947012199502633,0.12129432897118893,-0.6956267094062961,17.524063,-0.82674235,-2.2337916,-1.4557114,1.7419752,-1.2205215,1.9733473,0.05854743,-0.15415445,-0.2624234,0.9507586,-8.701343,9.841964,1.0242112,1.3154687,-0.19869179,0.35602644,0
1.9200000000000015,13.924349851909362,2.318675411371532,0.28638888552663444,-1.08338480664937,17.001518,-0.47780362,-2.0397644,-1.3106811,1.6547307,-1.1224438,1.9836823,0.05780265,-0.15336141,-0.25571942,0.95275706,-8.747518,9.773819,1.0429622,1.4139409,-0.14881465,0.3044215,0
1.9300000000000015,13.924349851909362,2.318675411371532,0.28638888552663444,-1.08338480664937,17.001518,-0.47780362,-2.0397644,-1.3106811,1.5670317,-1.0250307,1.9941949,0.057507936,-0.1527304,-0.24845728,0.95479554,-8.792237,9.709083,1.0597436,1.5550166,-0.08098561,0.23632146,0
1.9400000000000015,13.924349851909362,2.318675411371532,0.28638888552663444,-1.08338480664937,17.001518,-0.47780362,-2.0397644,-1.3106811,1.4788866,-0.928256,2.004881,0.057703417,-0.15226793,-0.24059296,0.9568694,-8.836767,9.646183,1.0776138,1.6740987,-0.023745881,0.17156309,0
1.9500000000000015,13.924349851909362,2.318675411371532,0.28638888552663444,-1.08338480664937,17.001518,-0.47780362,-2.0397644,-1.3106811,1.3902968,-0.83210015,2.0157511,0.05834378,-0.15193897,-0.2322204,0.95894915,-8.88117,9.5853,1.0966033,1.7746158,0.024559567,0.109982416,0
1.9600000000000015,13.377895166200675,2.4199681460282427,0.16397326204031681,-1.3901644101075592,16.367361,-0.38843313,-1.7348622,-1.2026539,1.3012635,-0.73654246,2.026817,0.05938939,-0.15171435,-0.22341882,0.9610093,-8.925498,9.526591,1.1167259,1.859461,0.065326974,0.05142355,0
1.9700000000000015,13.377895166200675,2.4199681460282427,0.16397326204031681,-1.3901644101075592,16.367361,-0.38843313,-1.7348622,-1.2026539,1.2117957,-0.6415492,2.0380664,0.060837217,-0.15151182,-0.21422471,0.963042,-8.968046,9.472408,1.1333007,1.946875,0.08062427,-0.019315597,0
1.9800000000000015,13.377895166200675,2.4199681460282427,0.16397326204031681,-1.3901644101075592,16.367361,-0.38843313,-1.7348622,-1.2026539,1.1219026,-0.54708624,2.0494869,0.06268748,-0.15126431,-0.20467108,0.965038,-9.01056,9.420574,1.1509684,2.0206578,0.09353314,-0.08658355,0
1.9900000000000015,13.377895166200675,2.4199681460282427,0.16397326204031681,-1.3901644101075592,16.367361,-0.38843313,-1.7348622,-1.2026539,1.0315845,-0.45312926,2.0610893,0.06491136,-0.15097016,-0.1948149,0.9669751,-9.053034,9.371205,1.1697228,2.0829349,0.104428045,-0.15055062,0
2.0000000000000013,,,,,16.734596,-0.6146979,-1.8766756,-1.2312938,0.94084203,-0.35965326,2.0728848,0.06748279,-0.15062861,-0.1847043,0.96883464,-9.095454,9.324401,1.1895465,2.1355004,0.11362418,-0.21137881,0
2.010000000000001,,,,,16.734596,-0.6146979,-1.8766756,-1.2312938,0.8496855,-0.26662183,2.0848565,0.07035945,-0.15007624,-0.17447728,0.9706098,-9.135835,9.282289,1.204901,2.147017,0.05525128,-0.27938697,0
2.020000000000001,,,,,16.734596,-0.6146979,-1.8766756,-1.2312938,0.7581259,-0.17399871,2.0969863,0.07351075,-0.14918406,-0.16424704,0.9722974,-9.176064,9.242734,1.2212254,2.1567342,0.005985492,-0.34405795,0
2.0300000000000007,,,,,16.734596,-0.6146979,-1.8766756,-1.2312938,0.6661651,-0.08175829,2.1092842,0.076929286,-0.14799869,-0.15401743,0.973887,-9.216052,9.205752,1.2384905,2.1649344,-0.035593256,-0.4055555,0
2.0400000000000005,,,,,16.734596,-0.6146979,-1.8766756,-1.2312938,0.5738059,0.010125227,2.1217594,0.0806066,-0.14656001,-0.14379151,0.9753696,-9.25572,9.171357,1.2566632,2.1718543,-0.07068379,-0.46403533,0
2.0500000000000003,,,,,18.222406,-1.124988,-3.122109,-0.5885652,0.48105198,0.10167779,2.1344206,0.08453351,-0.14490226,-0.13357158,0.97673696,-9.294993,9.139564,1.2757069,2.1776943,-0.10029806,-0.5196456,1
2.06,,,,,18.222406,-1.124988,-3.122109,-0.5885652,0.38782448,0.19286183,2.1475286,0.08823739,-0.1420681,-0.12474501,0.97799206,-9.350353,9.097759,1.346107,1.6624824,-0.57137734,-0.5230275,1
2.07,,,,,18.222406,-1.124988,-3.122109,-0.5885652,0.29404935,0.28364262,2.1613462,0.09134203,-0.13730922,-0.118418425,0.9791725,-9.404409,9.0587635,1.4176013,1.2276405,-0.9690172,-0.52624345,1
2.0799999999999996,,,,,18.222406,-1.124988,-3.122109,-0.5885652,0.19974288,0.37404352,2.175884,0.09396382,-0.13093048,-0.11421101,0.9802973,-9.456544,9.021648,1.4901159,0.86063194,-1.3046666,-0.5293016,1
2.0899999999999994,,,,,20.086481,-1.9990717,-4.5391746,-0.4093447,0.10492683,0.46407935,2.1911519,0.09619587,-0.12318599,-0.11179741,0.9813622,-9.506248,8.985624,1.5635871,0.55087507,-1.58799,-0.5322097,1
2.099999999999999,,,,,20.086481,-1.9990717,-4.5391746,-0.4093447,0.009603633,0.5537392,2.207247,0.097985364,-0.113767706,-0.1112957,0.98237866,-9.557841,8.946338,1.655593,0.1530609,-2.0480871,-0.5261807,1
2.109999999999999,,,,,20.086481,-1.9990717,-4.5391746,-0.4093447,-0.08621665,0.6430045,2.224267,0.09929061,-0.10244001,-0.11278274,0.98332405,-9.605554,8.906574,1.7485099,-0.18268703,-2.4364564,-0.5204475,1
2.1199999999999988,,,,,20.086481,-1.9990717,-4.5391746,-0.4093447,-0.18249181,0.7318662,2.2422202,0.10019271,-0.089496195,-0.11594503,0.9841277,-9.648718,8.865497,1.8422275,-0.4660524,-2.7642796,-0.51499563,1
2.1299999999999986,,,,,21.086395,-4.076234,-5.22363,2.1430352,-0.27917343,0.8203075,2.2611141,0.10075645,-0.07518399,-0.120515,0.98471844,-9.6867695,8.822407,1.9365835,-0.70520854,-3.0409956,-0.5098113,1
2.1399999999999983,,,,,21.086395,-4.076234,-5.22363,2.1430352,-0.37621778,0.9082919,2.2810104,0.10064426,-0.059608493,-0.12703475,0.9849764,-9.721038,8.774099,2.0421288,-1.2184803,-3.3690407,-0.38076538,1
2.149999999999998,,,,,21.086395,-4.076234,-5.22363,2.1430352,-0.47357175,0.99577713,2.3019538,0.0995331,-0.042802405,-0.13600521,0.9847652,-9.748725,8.722268,2.146527,-1.6639231,-3.6582847,-0.25692177,1
2.159999999999998,,,,,21.086395,-4.076234,-5.22363,2.1430352,-0.5711688,1.0827208,2.3239393,0.09751764,-0.024954965,-0.14704444,0.98399407,-9.769584,8.665651,2.2504592,-2.039864,-3.9024916,-0.13915521,1
2.1699999999999977,,,,,19.176525,-4.028035,-4.588893,2.2341838,-0.6689386,1.169071,2.3469596,0.09468101,-0.0062433756,-0.1598088,0.98257643,-9.783224,8.603461,2.3533638,-2.3571544,-4.1086645,-0.027167473,1
2.1799999999999975,,,,,19.176525,-4.028035,-4.588893,2.2341838,-0.76680404,1.2547992,2.3709106,0.09112469,0.012928417,-0.17396161,0.9804414,-9.788784,8.541289,2.4365678,-2.6174264,-4.1837397,0.08379766,1
2.1899999999999973,,,,,19.176525,-4.028035,-4.588893,2.2341838,-0.86469036,1.3398762,2.395684,0.08693733,0.032227546,-0.18922059,0.97754675,-9.787383,8.473135,2.517687,-2.8371146,-4.2471294,0.18931772,1
2.199999999999997,,,,,19.176525,-4.028035,-4.588893,2.2341838,-0.96252763,1.4242406,2.4212554,0.08216726,0.05160531,-0.20538566,0.9738587,-9.778976,8.398757,2.5961187,-3.0225503,-4.3006473,0.28965986,1
