t,px,py,pz,qx,qy,qz,qw,vx,vy,vz,wx,wy,wz,throttle_mpc,roll_mpc,pitch_mpc,yaw_mpc,throttle_nw,roll_nw,pitch_nw,yaw_nw,network_used
-2.0,17.289463,-10.5370035,1.2298864999999999,-0.3304781,0.16749221,0.90992683,-0.18645027,-10.090953,-5.073185400000001,0.81848663,2.5026669999999998,-1.159908,-1.0448577,7.602003010219167,5.999998837176918,-5.999999894260827,-5.999992151519732,13.612445999999998,-0.54649436,-5.299993499999999,-1.6380556999999998,0
-1.99,17.187996,-10.587579,1.2381879999999998,-0.3281398,0.17789835,0.9108314000000001,-0.17624573,-10.201605,-5.041191599999999,0.8412450999999999,2.4016232000000004,-1.2686514,-1.2033174999999998,7.602003010219167,5.999998837176918,-5.999999894260827,-5.999992151519732,7.783289999999999,-1.2259233999999999,-4.849057,-0.6461336,0
-1.98,17.08544,-10.637815,1.246699,-0.32532966,0.18767473,0.91191953,-0.16535269,-10.308859,-5.005654,0.8603813,2.3167937000000003,-1.3608841999999999,-1.3578528,7.602003010219167,5.999998837176918,-5.999999894260827,-5.999992151519732,7.783289999999999,-1.2259233999999999,-4.849057,-0.6461336,0
-1.97,16.981829,-10.68768,1.255384,-0.3221367,0.19687583,0.9131384,-0.15377328,-10.412563,-4.966851,0.87609476,2.2455688,-1.4391009,-1.5085608,7.602003010219167,5.999998837176918,-5.999999894260827,-5.999992151519732,7.783289999999999,-1.2259233999999999,-4.849057,-0.6461336,0
-1.96,16.8772,-10.737143,1.2642096999999999,-0.31863493,0.20554808,0.9144376000000001,-0.14151265,-10.512603,-4.925048,0.8885608,2.1857604999999998,-1.5054212,-1.6555363,7.602003010219167,5.999998837176918,-5.999999894260827,-5.999992151519732,8.900382,-1.4269285,-5.865506,-1.2353922,0
-1.95,16.771587,-10.786172,1.2731445,-0.31488582,0.21373118,0.9157694,-0.1285785,-10.608891499999999,-4.8804940000000006,0.89793426,2.135534,-1.5616456,-1.7988716,7.602003010219167,5.999998837176918,-5.999999894260827,-5.999992151519732,8.900382,-1.4269285,-5.865506,-1.2353922,0
-1.94,16.665031,-10.834743,1.2821583,-0.31094036,0.22145908,0.9170886,-0.11498061,-10.701367999999999,-4.833428400000001,0.90435326,2.0933504000000003,-1.6093038,-1.9386569,7.602003010219167,5.999998837176918,-5.999999894260827,-5.999992151519732,8.900382,-1.4269285,-5.865506,-1.2353922,0
-1.93,16.557571,-10.882833,1.2912218999999998,-0.30684045,0.22876069999999998,0.9183523000000001,-0.10073053,-10.789994,-4.7840805,0.90794235,2.0579183000000003,-1.6496946,-2.0749805,7.602003010219167,5.999998837176918,-5.999999894260827,-5.999992151519732,8.900382,-1.4269285,-5.865506,-1.2353922,0
-1.92,16.449244,-10.930418,1.3003078000000001,-0.30262077,0.23566087,0.9195194,-0.08584133,-10.874744,-4.7326703000000006,0.9088146,2.0281544,-1.683921,-2.2079275000000003,9.181153582672383,5.999999634784792,-5.999999926114265,-5.508029588049063,8.555484,-0.24320879999999998,-5.7955356,0.32881054,0
-1.91,16.34007,-10.977469000000001,1.3094089,-0.29805395,0.24248321,0.9205636,-0.07020339,-10.958986,-4.677154,0.91111404,2.1210527000000003,-1.8311436,-2.3228117999999998,9.181153582672383,5.999999634784792,-5.999999926114265,-5.508029588049063,8.555484,-0.24320879999999998,-5.7955356,0.32881054,0
-1.9,16.230074,-11.023953,1.3185238000000001,-0.29287735,0.24956091,0.92144406,-0.05369518,-11.039714,-4.619297,0.9115843000000001,2.2244763,-1.9804661,-2.4342964,9.181153582672383,5.999999634784792,-5.999999926114265,-5.508029588049063,8.555484,-0.24320879999999998,-5.7955356,0.32881054,0
-1.89,16.119287,-11.069847,1.3276344999999998,-0.28706613,0.2569231,0.92209804,-0.036315534,-11.116706,-4.5591173,0.9102523000000001,2.3367984,-2.1315744,-2.5425491,9.181153582672383,5.999999634784792,-5.999999926114265,-5.508029588049063,8.555484,-0.24320879999999998,-5.7955356,0.32881054,0
-1.8800000000000001,16.007753,-11.115128,1.3367228999999998,-0.28059453,0.26458934,0.9224601999999998,-0.018067366,-11.189741,-4.4966483,0.9071385000000001,2.4565964,-2.2841527000000004,-2.647726,9.181153582672383,5.999999634784792,-5.999999926114265,-5.508029588049063,8.555484,-0.24320879999999998,-5.7955356,0.32881054,0
-1.87,15.895508999999999,-11.159773,1.3457712,-0.27343652,0.27257022,0.92246246,0.0010423381,-11.258595,-4.431941,0.90225774,2.5826244,-2.4378903,-2.7499702,12.327252469087414,5.999999843165679,-5.999999954843558,-4.4807798243982315,11.316736,1.3447416,-5.650997,-1.1511668,0
-1.8599999999999999,15.782573000000001,-11.203735,1.3547963,-0.26500229999999997,0.28141609999999995,0.92202353,0.021248965,-11.327739,-4.3601274000000005,0.9023281999999999,2.94179,-2.8212175,-2.8194091,12.327252469087414,5.999999843165679,-5.999999954843558,-4.4807798243982315,11.316736,1.3447416,-5.650997,-1.1511668,0
-1.85,15.668973999999999,-11.24697,1.3638086,-0.25475046,0.29157066,0.92101103,0.042749427,-11.391121,-4.286424,0.8997441999999999,3.2827377,-3.18255,-2.88882,12.327252469087414,5.999999843165679,-5.999999954843558,-4.4807798243982315,11.316736,1.3447416,-5.650997,-1.1511668,0
-1.84,15.554770999999999,-11.289457,1.3727822,-0.24272579,0.30287907,0.9192724,0.065472595,-11.448319,-4.210735,0.89456743,3.606788,-3.5237977999999996,-2.9580677000000004,16.138140523150398,5.999999901622672,-5.999999963017923,-3.408286887816492,12.3598,2.6218188,-6.4592867,-1.337988,0
-1.83,15.439967000000001,-11.331083999999999,1.3818008999999998,-0.22875577,0.31536695,0.91664284,0.08933303,-11.511378,-4.113905399999999,0.9090988999999999,3.9792075,-3.9107347000000003,-2.9801598,16.138140523150398,5.999999901622672,-5.999999963017923,-3.408286887816492,12.3598,2.6218188,-6.4592867,-1.337988,0
-1.82,15.324569,-11.371719,1.3909627,-0.21280839999999998,0.32892725,0.91295564,0.11415539,-11.567038,-4.0121703,0.9232004999999999,4.2936583,-4.237223,-3.0011683,16.138140523150398,5.999999901622672,-5.999999963017923,-3.408286887816492,12.3598,2.6218188,-6.4592867,-1.337988,0
-1.81,15.208654999999998,-11.411311,1.4002627,-0.19511889,0.34324282,0.9080666,0.13974297,-11.614361,-3.9056415999999996,0.9366725,4.559165,-4.5127053,-3.0211456,16.138140523150398,5.999999901622672,-5.999999963017923,-3.408286887816492,12.3598,2.6218188,-6.4592867,-1.337988,0
-1.8,15.092313,-11.449816,1.4096932,-0.1758979,0.35804108,0.9018527,0.1659162,-11.652495,-3.7946134,0.949269,4.783347,-4.745148,-3.0401428,19.6664631713644,5.999996698228756,-5.999999633918249,-2.3283735329664093,15.022882999999998,2.165625,-6.559049000000001,-0.5118187,0
-1.79,14.975605999999999,-11.487064,1.4193642,-0.15528795,0.37311120000000003,0.8942369000000001,0.19239031,-11.686844,-3.6543824999999996,0.9846539000000001,4.9728074,-4.941104,-3.0052161,19.6664631713644,5.999996698228756,-5.999999633918249,-2.3283735329664093,15.022882999999998,2.165625,-6.559049000000001,-0.5118187,0
-1.7799999999999998,14.858621,-11.522889,1.4293803,-0.1334162,0.38827209999999995,0.88517004,0.2189038,-11.708267999999999,-3.5099468000000003,1.0182393,5.1327844,-5.1064405,-2.9720032,19.6664631713644,5.999996698228756,-5.999999633918249,-2.3283735329664093,15.022882999999998,2.165625,-6.559049000000001,-0.5118187,0
-1.77,14.741488,-11.557252,1.4397215,-0.11044406,0.40334594,0.8746007,0.24533212,-11.716097999999999,-3.3621714,1.0496072,5.2678633,-5.2459430000000005,-2.9404202,19.6664631713644,5.999996698228756,-5.999999633918249,-2.3283735329664093,15.022882999999998,2.165625,-6.559049000000001,-0.5118187,0
-1.7599999999999998,14.624348000000001,-11.590125,1.4503633999999999,-0.08652056,0.41817927,0.8624934000000001,0.27156115,-11.709804,-3.2120392000000004,1.0783171999999999,5.3819184,-5.363651,-2.9103866000000003,19.6664631713644,5.999996698228756,-5.999999633918249,-2.3283735329664093,15.908616,1.6752717000000001,-5.528005599999999,0.25967392,0
-1.75,14.507341,-11.62149,1.4612771,-0.061783895,0.43263945,0.8488273000000001,0.2974863,-11.689,-3.0606294,1.1039165000000002,5.4782205,-5.4629693,-2.881827,19.6664631713644,5.999996698228756,-5.999999633918249,-2.3283735329664093,15.908616,1.6752717000000001,-5.528005599999999,0.25967392,0
-1.7399999999999998,14.390618,-11.651339,1.4724294,-0.036362726,0.44661194,0.8335940999999999,0.32301146,-11.653450999999999,-2.9090933999999997,1.1259487,5.559532,-5.546773,-2.854669,19.6664631713644,5.999996698228756,-5.999999633918249,-2.3283735329664093,15.908616,1.6752717000000001,-5.528005599999999,0.25967392,0
-1.73,14.274323,-11.679677,1.4837823,-0.010377265,0.45999765,0.81679666,0.3480483,-11.603067999999999,-2.7586362,1.1439622999999999,5.628185299999999,-5.617486,-2.8288436000000003,19.6664631713644,5.999996698228756,-5.999999633918249,-2.3283735329664093,15.908616,1.6752717000000001,-5.528005599999999,0.25967392,0
-1.72,14.1586075,-11.70652,1.4952934,0.016059823,0.47271088,0.79844767,0.3725155,-11.537912,-2.6104967999999995,1.1575183,5.6861496,-5.677154499999999,-2.8042854999999998,18.984443318836448,4.350534482478539,-4.411139968734732,-0.6374380167899479,13.839487,1.6702192,-2.7456605,-0.32511893,0
-1.71,14.043603,-11.731924000000001,1.5068973,0.04218768,0.48440614,0.7789979,0.39589524,-11.461022999999999,-2.4709222,1.162521,5.478603400000001,-5.4789605,-2.6979577999999997,18.984443318836448,4.350534482478539,-4.411139968734732,-0.6374380167899479,13.839487,1.6702192,-2.7456605,-0.32511893,0
-1.7,13.929435,-11.755955,1.518527,0.067408375,0.49487972,0.75894046,0.41780308,-11.37092,-2.335804,1.1626499,5.3033257,-5.311776,-2.5968473,18.984443318836448,4.350534482478539,-4.411139968734732,-0.6374380167899479,13.839487,1.6702192,-2.7456605,-0.32511893,0
-1.69,13.816228,-11.77866,1.5301331,0.09184683,0.5042474,0.73834056,0.43835118,-11.2685175,-2.2060215,1.1578002,5.1553005999999995,-5.170748000000001,-2.5006988,18.984443318836448,4.350534482478539,-4.411139968734732,-0.6374380167899479,13.839487,1.6702192,-2.7456605,-0.32511893,0
-1.68,13.704103,-11.8000965,1.5416657,0.11560786,0.5126016,0.7172476,0.4576354,-11.154698,-2.0823560000000003,1.1478928,5.030292500000001,-5.0517845,-2.409268,17.994932565598237,2.612853429334355,-2.0487779222781364,-0.1154755493606304,14.999575,0.89659965,-0.5281074,-0.06840658,0
-1.67,13.593139,-11.820361,1.5530517,0.13782117,0.51996773,0.69622296,0.47530243,-11.036868,-1.971536,1.1285638999999998,4.654367400000001,-4.582534,-2.296711,17.994932565598237,2.612853429334355,-2.0487779222781364,-0.1154755493606304,14.999575,0.89659965,-0.5281074,-0.06840658,0
-1.66,13.4833975,-11.83955,1.5642207000000001,0.15783006,0.5264525,0.6758156999999999,0.49113184,-10.910313,-1.867288,1.1045433,4.3368797,-4.1866164,-2.1896772,17.994932565598237,2.612853429334355,-2.0487779222781364,-0.1154755493606304,14.999575,0.89659965,-0.5281074,-0.06840658,0
-1.65,13.374959,-11.857728999999999,1.575127,0.17600322,0.5322174,0.65602195,0.5053738,-10.776202,-1.7695843,1.0760236,4.068752,-3.8525681000000005,-2.0878954,17.994932565598237,2.612853429334355,-2.0487779222781364,-0.1154755493606304,14.999575,0.89659965,-0.5281074,-0.06840658,0
-1.64,13.267895999999999,-11.874964,1.5857264,0.1926516,0.53738385,0.6368161999999999,0.51823646,-10.635523,-1.6783521000000001,1.0431932,3.8423144999999996,-3.5707169000000003,-1.9911081999999998,17.12570585941726,0.4063702915888758,0.5720553245713119,1.1591759809671045,16.607042,-0.75861216,1.6911668000000002,0.40740940000000003,0
-1.63,13.162243,-11.891333,1.5959662000000001,0.20700753,0.54193854,0.618961,0.5294694000000001,-10.494484,-1.5964913,1.0040597,3.2853775,-2.9458117,-1.8385314,17.12570585941726,0.4063702915888758,0.5720553245713119,1.1591759809671045,16.607042,-0.75861216,1.6911668000000002,0.40740940000000003,0
-1.6199999999999999,13.058015,-11.906916,1.605793,0.21850947,0.5460311999999999,0.6031054,0.5388576,-10.3507395,-1.5209763,0.96075255,2.8360849999999997,-2.3975916,-1.6915455000000001,17.12570585941726,0.4063702915888758,0.5720553245713119,1.1591759809671045,16.607042,-0.75861216,1.6911668000000002,0.40740940000000003,0
-1.6099999999999999,12.95524,-11.921767,1.6151708,0.22767602,0.54985416,0.5890588000000001,0.5466569,-10.203655,-1.4501237,0.9143454,2.4578613999999996,-1.9338341000000001,-1.5516598,17.12570585941726,0.4063702915888758,0.5720553245713119,1.1591759809671045,16.607042,-0.75861216,1.6911668000000002,0.40740940000000003,0
-1.5999999999999999,12.8539505,-11.935931,1.6240706,0.23493960000000003,0.5534924,0.576645,0.55310935,-10.053836,-1.3831745,0.8652228000000001,2.1384632999999997,-1.5425321,-1.4186382,17.643669408834427,-2.292670751013631,3.4493086939532023,1.4068743916947632,17.6961,-2.2019975,2.6585016,0.44232062,1
-1.5899999999999999,12.754195,-11.94943,1.6324748,0.23955351,0.5568927,0.56642765,0.5582512,-9.896813,-1.3173006,0.8152774,1.4622313999999998,-0.8866693000000001,-1.3273205,17.643669408834427,-2.292670751013631,3.4493086939532023,1.4068743916947632,17.6961,-2.2019975,2.6585016,0.44232062,1
-1.5799999999999998,12.656019,-11.962283,1.6403697,0.24094039,0.5600384,0.55884355,0.56213766,-9.738325999999999,-1.2536303999999998,0.7634671,0.8912957,-0.33325609999999994,-1.2404838,17.643669408834427,-2.292670751013631,3.4493086939532023,1.4068743916947632,17.6961,-2.2019975,2.6585016,0.44232062,1
-1.5699999999999998,12.559432000000001,-11.974507000000001,1.6477398,0.23964970000000002,0.56300795,0.55354506,0.5649585,-9.579042,-1.1910415,0.7103802,0.40926940000000006,0.13371979,-1.1579081,17.643669408834427,-2.292670751013631,3.4493086939532023,1.4068743916947632,17.6961,-2.2019975,2.6585016,0.44232062,1
-1.5599999999999998,12.464439,-11.986106,1.6545746,0.23613420000000002,0.5658437,0.5502145,0.566856,-9.419492,-1.1285613,0.6564971,0.0023149326000000002,0.52776617,-1.0793844,17.643669408834427,-2.292670751013631,3.4493086939532023,1.4068743916947632,18.497194,-3.8860056000000003,3.3149137000000004,-0.46446338,0
-1.5499999999999998,12.371039,-11.997078,1.6608676,0.23064111,0.5686960999999999,0.54872984,0.5677017,-9.260593,-1.0655203000000002,0.60206795,-0.3553427,0.9836036,-0.9573831,17.643669408834427,-2.292670751013631,3.4493086939532023,1.4068743916947632,18.497194,-3.8860056000000003,3.3149137000000004,-0.46446338,0
-1.5399999999999998,12.279225,-12.007411,1.6666154,0.22338988,0.5716690999999999,0.548974,0.56737924,-9.102299,-1.0008757,0.54748225,-0.65733004,1.3682684999999999,-0.84136826,17.643669408834427,-2.292670751013631,3.4493086939532023,1.4068743916947632,18.497194,-3.8860056000000003,3.3149137000000004,-0.46446338,0
-1.5299999999999998,12.188991,-12.017087,1.6718171999999998,0.21468559,0.57471335,0.550687,0.5660024,-8.945,-0.9338628000000001,0.49292147,-0.9123030999999999,1.6928806,-0.7310463,17.643669408834427,-2.292670751013631,3.4493086939532023,1.4068743916947632,18.497194,-3.8860056000000003,3.3149137000000004,-0.46446338,0
-1.5199999999999998,12.100322,-12.026078,1.6764742,0.20478164,0.57778025,0.5536409000000001,0.5636634,-8.789060000000001,-0.8638465,0.43851709999999994,-1.1275737,1.9668207999999998,-0.62613785,20.610639629908032,-4.662528626764301,5.3956696061647405,1.7155037563419897,18.083652,-3.8579235,4.720127,-0.5905716,0
-1.5099999999999998,12.013333,-12.034289999999999,1.6806253,0.1929434,0.5807233,0.5583583000000001,0.56015134,-8.608939999999999,-0.77785224,0.39179406,-1.6788148999999997,2.5016491000000003,-0.51123285,20.610639629908032,-4.662528626764301,5.3956696061647405,1.7155037563419897,18.083652,-3.8579235,4.720127,-0.5905716,0
-1.4999999999999998,11.928133,-12.041616000000001,1.6843123,0.17859168,0.5833842,0.56520617,0.5552568,-8.431635,-0.6865938,0.3457603,-2.1441817000000003,2.952974,-0.40196624,20.610639629908032,-4.662528626764301,5.3956696061647405,1.7155037563419897,18.083652,-3.8579235,4.720127,-0.5905716,0
-1.4899999999999998,11.844688,-12.048,1.6875441000000002,0.16212901,0.5856964,0.5737791,0.54904616,-8.258018,-0.58906186,0.30075923,-2.5370414,3.3338435,-0.29806137,20.610639629908032,-4.662528626764301,5.3956696061647405,1.7155037563419897,18.083652,-3.8579235,4.720127,-0.5905716,0
-1.4799999999999998,11.762959,-12.053372999999999,1.6903318999999999,0.14389476,0.5875935999999999,0.5837201999999999,0.54157084,-8.088961,-0.4844835,0.25703195,-2.868682,3.6552648999999997,-0.19925515,20.999999178823966,-5.682792103214289,5.421555992196198,1.5787162433878157,19.296614,-4.229378,5.419803,-0.36191288,0
-1.4699999999999998,11.682907,-12.057653,1.6926949,0.12394051,0.5887804,0.5949462,0.53293115,-7.9222617,-0.37017092,0.21581858,-3.307728,3.9305873,-0.11200958,20.999999178823966,-5.682792103214289,5.421555992196198,1.5787162433878157,19.296614,-4.229378,5.419803,-0.36191288,0
-1.4599999999999997,11.604491000000001,-12.060748,1.6946544999999997,0.102325775,0.58900034,0.60735273,0.52319294,-7.7621326,-0.24766414,0.1763801,-3.6783254000000003,4.1629324,-0.029045183,20.999999178823966,-5.682792103214289,5.421555992196198,1.5787162433878157,19.296614,-4.229378,5.419803,-0.36191288,0
-1.4499999999999997,11.527638,-12.062576,1.6962296000000001,0.079329945,0.5882495,0.62061644,0.5123521,-7.609623,-0.11671661,0.13896228,-3.9911406000000005,4.359016400000001,0.049848124,20.999999178823966,-5.682792103214289,5.421555992196198,1.5787162433878157,19.296614,-4.229378,5.419803,-0.36191288,0
-1.4399999999999997,11.452269,-12.063052,1.6974412,0.055194665,0.5865248000000001,0.634454,0.5004103,-7.4657636,0.022718556,0.10371015,-4.2551785,4.5245028,0.12487012,20.99999952643132,-5.8276363246003315,4.5130449998318865,1.3082780351661392,21.474947,-3.9573765,4.3906527,0.27382943,0
-1.4299999999999997,11.37829,-12.062094,1.6983113999999997,0.030314592999999997,0.5836126,0.6486209,0.48761508,-7.331544,0.17048292,0.070704326,-4.500573,4.522526,0.18294029999999997,20.99999952643132,-5.8276363246003315,4.5130449998318865,1.3082780351661392,21.474947,-3.9573765,4.3906527,0.27382943,0
-1.4199999999999997,11.305603,-12.059616,1.6988633999999998,0.005024291,0.57936174,0.66292393,0.47418025,-7.207826600000001,0.3261338,0.04007755,-4.7076902,4.520853,0.23816097,20.99999952643132,-5.8276363246003315,4.5130449998318865,1.3082780351661392,21.474947,-3.9573765,4.3906527,0.27382943,0
-1.4099999999999997,11.234096000000001,-12.055546000000001,1.6991214,-0.02056212,0.5738572,0.6771998,0.46007156,-7.0953927,0.4890784000000001,0.011926023999999999,-4.8824997,4.5194415999999995,0.29067189,20.99999952643132,-5.8276363246003315,4.5130449998318865,1.3082780351661392,21.474947,-3.9573765,4.3906527,0.27382943,0
-1.3999999999999997,11.163653,-12.049812,1.6991104,-0.046344444000000005,0.5671748000000001,0.6913045,0.44526756,-6.9949636,0.6586376,-0.013729311999999999,-5.0300407,4.518253,0.34060609999999997,20.999999533321027,-4.956385119693762,2.943256846301943,1.0081203801864935,21.473154,-4.8731847,3.8738102999999997,0.5393899999999999,1
-1.3899999999999997,11.094163,-12.042334,1.6988634999999999,-0.071942374,0.5595372,0.7048747,0.42999348,-6.905177,0.8379937,-0.035257912999999995,-5.0055847,4.4177256,0.35036048,20.999999533321027,-4.956385119693762,2.943256846301943,1.0081203801864935,21.473154,-4.8731847,3.8738102999999997,0.5393899999999999,1
-1.3799999999999997,11.025505,-12.033033999999999,1.6984131000000002,-0.09705927,0.5511577,0.7176475,0.41447198,-6.8286223,1.0224123999999999,-0.054473247,-4.9849440000000005,4.332877,0.35963625,20.999999533321027,-4.956385119693762,2.943256846301943,1.0081203801864935,21.473154,-4.8731847,3.8738102999999997,0.5393899999999999,1
-1.3699999999999997,10.957545,-12.021871,1.6977811999999999,-0.12172586,0.54208577,0.7296391999999999,0.39868885,-6.7654886,1.2109638,-0.07160085,-4.967523,4.261261,0.3684568,20.999999533321027,-4.956385119693762,2.943256846301943,1.0081203801864935,21.473154,-4.8731847,3.8738102999999997,0.5393899999999999,1
-1.3599999999999997,10.890149000000001,-12.008804,1.6969874,-0.14596623,0.5323635,0.74086046,0.38263422,-6.71592,1.4027385,-0.08687689999999999,-4.9528193,4.2008142,0.37684453,20.999999533321027,-4.956385119693762,2.943256846301943,1.0081203801864935,21.609935999999998,-4.758559,2.3672485,0.28192303,1
-1.3499999999999996,10.823181,-11.993801,1.6960518,-0.16935089,0.52183425,0.7513809,0.3666554,-6.679745,1.5980587,-0.099975415,-4.9224424,3.914893,0.37218672,20.999999533321027,-4.956385119693762,2.943256846301943,1.0081203801864935,21.609935999999998,-4.758559,2.3672485,0.28192303,1
-1.3399999999999996,10.756508,-11.976838,1.6949933999999998,-0.1915404,0.5104047,0.76129556,0.35103932,-6.657052999999999,1.7946953,-0.11145043,-4.896816,3.6735592000000006,0.36775747,20.999999533321027,-4.956385119693762,2.943256846301943,1.0081203801864935,21.609935999999998,-4.758559,2.3672485,0.28192303,1
-1.3299999999999996,10.689995,-11.957907,1.6938285,-0.21267478,0.49819013,0.7706378,0.33569854,-6.647525,1.9916831999999998,-0.121287055,-4.8751964999999995,3.4698594,0.36354557,20.999999533321027,-4.956385119693762,2.943256846301943,1.0081203801864935,21.609935999999998,-4.758559,2.3672485,0.28192303,1
-1.3199999999999996,10.623512,-11.937007000000001,1.6925732,-0.23287313,0.48528486,0.7794295,0.32055977,-6.6508503,2.1881413,-0.12950273,-4.856957,3.2979248,0.35954034,20.999998279481687,-3.6157287639862887,1.1093595672796366,0.6292283613765732,20.138773,-4.9505672,0.756057,-0.022350226,0
-1.3099999999999996,10.556935000000001,-11.914177,1.6912308999999996,-0.2516808,0.4719816,0.78760725,0.30588418,-6.666208999999999,2.3777527999999997,-0.1387191,-4.6633334,2.956624,0.37277398,20.999998279481687,-3.6157287639862887,1.1093595672796366,0.6292283613765732,20.138773,-4.9505672,0.756057,-0.022350226,0
-1.2999999999999996,10.490149,-11.88946,1.689804,-0.2687563,0.45855245,0.7951738,0.29188782,-6.692982700000001,2.5653706,-0.14641635,-4.499912,2.6685470000000002,0.38535824,20.999998279481687,-3.6157287639862887,1.1093595672796366,0.6292283613765732,20.138773,-4.9505672,0.756057,-0.022350226,0
-1.2899999999999996,10.423039,-11.862878,1.6883076000000001,-0.28434557,0.44503364,0.80222064,0.27845097,-6.730408000000001,2.7504153,-0.15259992,-4.361982,2.425393,0.397325,20.999998279481687,-3.6157287639862887,1.1093595672796366,0.6292283613765732,20.138773,-4.9505672,0.756057,-0.022350226,0
-1.2799999999999996,10.355506,-11.834461,1.6867571,-0.2986566,0.43144885,0.80881506,0.26547056,-6.777809599999999,2.932397,-0.15727854,-4.245566999999999,2.2201570999999998,0.40870458,19.931249135508303,-1.8052201214508503,-0.7908971332604159,0.2267317348625712,19.036398000000002,-4.529684,0.13573335,-0.13998714,0
-1.2699999999999996,10.287466,-11.804287,1.685143,-0.31108537,0.41819313,0.81492645,0.2534474,-6.831607300000001,3.10183,-0.16528323,-3.864861,1.7507088,0.3997751,19.931249135508303,-1.8052201214508503,-0.7908971332604159,0.2267317348625712,19.036398000000002,-4.529684,0.13573335,-0.13998714,0
-1.2599999999999996,10.218848,-11.772437,1.6834563999999999,-0.3211866,0.40561098,0.8205921999999999,0.24279149,-6.893122,3.2677948,-0.17177561,-3.5435502999999997,1.35445,0.39128378,19.931249135508303,-1.8052201214508503,-0.7908971332604159,0.2267317348625712,19.036398000000002,-4.529684,0.13573335,-0.13998714,0
-1.2499999999999996,10.149582,-11.738945,1.6817131,-0.3293325,0.39363626,0.82593256,0.23329470000000002,-6.961255599999999,3.4302325,-0.17663787,-3.2723682000000003,1.0199705,0.3832092,19.931249135508303,-1.8052201214508503,-0.7908971332604159,0.2267317348625712,19.036398000000002,-4.529684,0.13573335,-0.13998714,0
-1.2399999999999995,10.079604,-11.703845,1.6799298999999999,-0.33583367,0.38220137,0.83103156,0.22477718,-7.035081,3.589136,-0.17975542,-3.0434930000000002,0.73763907,0.37553078,18.922080478002133,0.3346799822131015,-2.293990739316862,-0.14210131454616784,18.268557,-2.7179005000000003,-0.6765473000000001,-0.23921636,0
-1.2299999999999995,10.008883,-11.667213,1.6781,-0.34027877,0.37180835,0.83582383,0.21764146,-7.109752,3.7366982,-0.18592246,-2.5165484,0.26502883,0.3501304,18.922080478002133,0.3346799822131015,-2.293990739316862,-0.14210131454616784,18.268557,-2.7179005000000003,-0.6765473000000001,-0.23921636,0
-1.2199999999999995,9.937397,-11.629123,1.6762178,-0.3423685,0.362863,0.8402875,0.21220626,-7.1878667,3.8812718,-0.19021663,-2.071812,-0.1339146,0.32597646,18.922080478002133,0.3346799822131015,-2.293990739316862,-0.14210131454616784,18.268557,-2.7179005000000003,-0.6765473000000001,-0.23921636,0
-1.2099999999999995,9.865117,-11.589599,1.6743026,-0.34248623,0.35516529999999996,0.8445168,0.20821264,-7.268322,4.023235,-0.19252016,-1.6964561999999999,-0.4706718,0.30300775,18.922080478002133,0.3346799822131015,-2.293990739316862,-0.14210131454616784,18.268557,-2.7179005000000003,-0.6765473000000001,-0.23921636,0
-1.1999999999999995,9.792026,-11.548666,1.6723747,-0.34094816,0.34853542,0.848571,0.20543846,-7.350198299999999,4.162935,-0.19272305,-1.3796563999999998,-0.7549349,0.28116614,17.948991851693076,1.889568446538928,-3.3345982499947477,-0.494158131991135,16.863037,-0.56184125,-2.2095377,-0.67263496,0
-1.1899999999999995,9.718132,-11.506382,1.6704301,-0.33755040000000003,0.34324336,0.8524038,0.20408735,-7.428431,4.2936273,-0.19587454,-0.8697771000000001,-1.1571163999999998,0.24312077,17.948991851693076,1.889568446538928,-3.3345982499947477,-0.494158131991135,16.863037,-0.56184125,-2.2095377,-0.67263496,0
-1.1799999999999995,9.643457000000001,-11.462798,1.6684645,-0.33214194,0.33949070000000003,0.85597044,0.20431009,-7.506274,4.4229484,-0.19685322,-0.43943983,-1.4966145,0.20694228,17.948991851693076,1.889568446538928,-3.3345982499947477,-0.494158131991135,16.863037,-0.56184125,-2.2095377,-0.67263496,0
-1.1699999999999995,9.568010000000001,-11.417926,1.6665006000000002,-0.32503137,0.33703306,0.85929364,0.20585902,-7.5828166,4.551337999999999,-0.19558956,-0.07623329,-1.7831956999999998,0.17253909,17.948991851693076,1.889568446538928,-3.3345982499947477,-0.494158131991135,16.863037,-0.56184125,-2.2095377,-0.67263496,0
-1.1599999999999995,9.491807000000001,-11.371773,1.6645606,-0.31647456,0.33565766,0.8623780999999999,0.20852312,-7.657282400000001,4.679157,-0.19203888,0.23031667,-2.0251061999999997,0.13982406,17.948991851693076,1.889568446538928,-3.3345982499947477,-0.494158131991135,15.451899,0.48975417,-2.47067,-1.1393402,0
-1.1499999999999995,9.414874000000001,-11.324342999999999,1.6626676,-0.30668473,0.3351805,0.86521816,0.21212307,-7.7290053,4.8066889999999995,-0.18618271,0.48904952,-2.229307,0.108714394,17.948991851693076,1.889568446538928,-3.3345982499947477,-0.494158131991135,15.451899,0.48975417,-2.47067,-1.1393402,0
-1.1399999999999995,9.33724,-11.275639,1.6608448,-0.2958408,0.33544338,0.8678023000000001,0.21650666,-7.7974095000000005,4.9341483,-0.17802827,0.70742553,-2.4016745,0.079131275,17.948991851693076,1.889568446538928,-3.3345982499947477,-0.494158131991135,15.451899,0.48975417,-2.47067,-1.1393402,0
-1.1299999999999994,9.258941,-11.225660000000001,1.6591150000000001,-0.28409356,0.336311,0.870117,0.22154489,-7.8619957,5.061689,-0.16760708,0.89174104,-2.5471702,0.050999798,17.948991851693076,1.889568446538928,-3.3345982499947477,-0.494158131991135,15.451899,0.48975417,-2.47067,-1.1393402,0
-1.1199999999999994,9.180016,-11.174405,1.6575004,-0.27157083,0.33766788,0.87214816,0.22712829999999998,-7.922328500000001,5.189409700000001,-0.15497302,1.0473092,-2.6699824,0.02424874,17.979158659688316,2.8476544631793663,-3.618431672221455,-0.8474416842343421,14.906559,0.85615206,-2.340799,-1.3238448999999999,0
-1.1099999999999994,9.10051,-11.121869,1.6560237000000002,-0.25820845,0.3397117,0.87377095,0.23334251,-7.978097999999999,5.3175945,-0.14001901,1.3279961,-2.8179247000000003,-0.01852535,17.979158659688316,2.8476544631793663,-3.618431672221455,-0.8474416842343421,14.906559,0.85615206,-2.340799,-1.3238448999999999,0
-1.0999999999999994,9.020472,-11.06805,1.6547067,-0.24395874,0.34258854,0.87487054,0.24024732,-8.028706,5.4461565,-0.12308397,1.5649066,-2.9428074,-0.059200518,17.979158659688316,2.8476544631793663,-3.618431672221455,-0.8474416842343421,14.906559,0.85615206,-2.340799,-1.3238448999999999,0
-1.0899999999999994,8.939955,-11.012944000000001,1.6535681,-0.22894520000000002,0.3461373,0.87544674,0.24772194,-8.073671000000001,5.5751934,-0.104353115,1.7648697,-3.0482225,-0.09787974,17.979158659688316,2.8476544631793663,-3.618431672221455,-0.8474416842343421,14.906559,0.85615206,-2.340799,-1.3238448999999999,0
-1.0799999999999994,8.859017999999999,-10.956546000000001,1.6526251,-0.21327388,0.3502206,0.87549764,0.25566348,-8.112577,5.704741,-0.08402398,1.9336486000000002,-3.1372032,-0.13466094,17.850706936652244,3.1821822719028736,-3.3558123428163182,-1.0840681149360758,14.61263,1.1541816999999999,-2.4879446,-1.2971116000000003,0
-1.0699999999999994,8.777727,-10.898852999999999,1.651888,-0.19710408,0.35485998,0.87494457,0.26400095,-8.144831,5.8338575,-0.06317114,2.1282572999999996,-3.1713765,-0.18124862,17.850706936652244,3.1821822719028736,-3.3558123428163182,-1.0840681149360758,14.61263,1.1541816999999999,-2.4879446,-1.2971116000000003,0
-1.0599999999999994,8.696146,-10.839868,1.6513653999999998,-0.18056929,0.36006665,0.8737254000000001,0.27267328,-8.170405,5.963462,-0.04123041,2.2925205,-3.2002242,-0.22555022,17.850706936652244,3.1821822719028736,-3.3558123428163182,-1.0840681149360758,14.61263,1.1541816999999999,-2.4879446,-1.2971116000000003,0
-1.0499999999999994,8.614343,-10.779583,1.6510663,-0.16372043,0.3657184,0.8718601,0.28161290000000005,-8.189039,6.093514,-0.018499915,2.4311707,-3.224575,-0.26767793,17.850706936652244,3.1821822719028736,-3.3558123428163182,-1.0840681149360758,14.61263,1.1541816999999999,-2.4879446,-1.2971116000000003,0
-1.0399999999999994,8.53239,-10.717997,1.6509973000000002,-0.14660263,0.37171128,0.8693653,0.29076199999999996,-8.200516,6.22393,0.0047287378000000005,2.5482025,-3.2451284,-0.30773845,18.17174756173106,2.975224063598166,-2.4886600514832806,-1.2802141062397394,14.898617000000002,0.70481,-2.4258146000000003,-1.3076333,0
-1.0299999999999994,8.450358,-10.655092,1.6511726000000002,-0.12959155,0.3779853,0.8662344999999999,0.29995188,-8.204757,6.356943599999999,0.03034678,2.6147223,-3.127252,-0.35545814,18.17174756173106,2.975224063598166,-2.4886600514832806,-1.2802141062397394,14.898617000000002,0.70481,-2.4258146000000003,-1.3076333,0
-1.0199999999999994,8.368321,-10.5908575,1.6516037000000001,-0.11299211,0.38449842,0.8624850000000001,0.30905265,-8.201583,6.490110400000001,0.05583287,2.6708755,-3.027756,-0.40083620000000003,18.17174756173106,2.975224063598166,-2.4886600514832806,-1.2802141062397394,14.898617000000002,0.70481,-2.4258146000000003,-1.3076333,0
-1.0099999999999993,8.286352,-10.5252905,1.6522876,-0.09674619,0.39119232,0.8581609,0.31807044,-8.191077,6.6233262999999996,0.08086001,2.7182777000000002,-2.9437729999999998,-0.44398752,18.17174756173106,2.975224063598166,-2.4886600514832806,-1.2802141062397394,14.898617000000002,0.70481,-2.4258146000000003,-1.3076333,0
-0.9999999999999991,8.204525,-10.458391,1.6532183,-0.08080549999999999,0.39801675,0.8532983000000001,0.32700974,-8.173326,6.7564697,0.10513141,2.7582917,-2.8728838,-0.4850214,17.336007323346134,2.0990185308011617,-1.6321101446904622,-1.3141759208707684,14.31569,0.13036868,-1.2140714,-1.3886563,0
-0.9899999999999991,8.122906,-10.390191999999999,1.6543587,-0.06553982,0.40474528,0.8480455,0.33571532,-8.1495905,6.8832917,0.12280227,2.655468,-2.679424,-0.52570826,17.336007323346134,2.0990185308011617,-1.6321101446904622,-1.3141759208707684,14.31569,0.13036868,-1.2140714,-1.3886563,0
-0.9799999999999991,8.041555,-10.320725,1.6556703999999998,-0.051243927,0.41121107,0.8425504999999999,0.34407598,-8.119381,7.0097895,0.13931566,2.5686824,-2.516131,-0.56439865,17.336007323346134,2.0990185308011617,-1.6321101446904622,-1.3141759208707684,14.31569,0.13036868,-1.2140714,-1.3886563,0
-0.9699999999999993,7.9605393,-10.249997,1.6571406000000002,-0.03777873,0.41745263,0.83683634,0.35215217,-8.08305,7.1358485,0.15452926,2.4954321,-2.3783014,-0.60119045,17.336007323346134,2.0990185308011617,-1.6321101446904622,-1.3141759208707684,14.31569,0.13036868,-1.2140714,-1.3886563,0
-0.9599999999999993,7.8799148,-10.178011,1.6587560000000001,-0.02502598,0.42350054,0.8309188,0.3599932,-8.040905,7.261365400000001,0.16832334,2.4336054,-2.2619648,-0.6361769,17.336007323346134,2.0990185308011617,-1.6321101446904622,-1.3141759208707684,13.875678,-0.7936310999999999,-0.26688270000000003,-1.1760099,0
-0.9499999999999993,7.799739999999999,-10.104773,1.6605018,-0.012885292,0.42937905,0.8248085999999999,0.36763909999999994,-7.993213000000001,7.3862440000000005,0.18059577,2.3814203999999997,-2.1637695,-0.66944647,17.336007323346134,2.0990185308011617,-1.6321101446904622,-1.3141759208707684,13.875678,-0.7936310999999999,-0.26688270000000003,-1.1760099,0
-0.9399999999999993,7.7200685,-10.030289999999999,1.6623625,-0.0012715498,0.43510730000000003,0.81851286,0.37512243,-7.940207000000001,7.510390299999999,0.19125818,2.337373,-2.0808866000000004,-0.70108354,17.336007323346134,2.0990185308011617,-1.6321101446904622,-1.3141759208707684,13.875678,-0.7936310999999999,-0.26688270000000003,-1.1760099,0
-0.9299999999999993,7.640953,-9.954568,1.6643213,0.009887356,0.44070044,0.8120361,0.38246936,-7.88209,7.633714,0.20023307,2.3001943,-2.0109282,-0.73116815,17.336007323346134,2.0990185308011617,-1.6321101446904622,-1.3141759208707684,13.875678,-0.7936310999999999,-0.26688270000000003,-1.1760099,0
-0.9199999999999993,7.562443300000001,-9.877618,1.6663611,0.020652467,0.44617029999999996,0.8053812,0.3897009,-7.8190427,7.756125999999999,0.2074516,2.2688127000000002,-1.9518793,-0.75977653,16.368504506363895,0.9341163743523048,-0.8585449553507964,-1.2134888782359807,14.7039795,-1.6329696000000002,-0.057448287,-0.21675524,0
-0.9099999999999993,7.484569500000001,-9.799483,1.6684351999999998,0.030649604,0.4512754,0.79877514,0.3966982,-7.7550464,7.870764299999999,0.20709397,2.0607257,-1.7813014999999999,-0.7820403,16.368504506363895,0.9341163743523048,-0.8585449553507964,-1.2134888782359807,14.7039795,-1.6329696000000002,-0.057448287,-0.21675524,0
-0.8999999999999992,7.407356699999999,-9.720206,1.6704974,0.03958527,0.45583928,0.7924205,0.40337744,-7.686955,7.9844155,0.20510942,1.8850821,-1.6373348,-0.80321157,16.368504506363895,0.9341163743523048,-0.8585449553507964,-1.2134888782359807,14.7039795,-1.6329696000000002,-0.057448287,-0.21675524,0
-0.8899999999999992,7.330842999999999,-9.639797,1.6725322,0.04761649,0.45995516,0.7862816,0.4097989,-7.6151543,8.097059,0.20160146,1.7368232,-1.5158283000000001,-0.8233440000000001,16.368504506363895,0.9341163743523048,-0.8585449553507964,-1.2134888782359807,14.7039795,-1.6329696000000002,-0.057448287,-0.21675524,0
-0.8799999999999992,7.255064999999999,-9.558268,1.6745245,0.054876555,0.46369920000000003,0.78032446,0.41601127,-7.539967999999999,8.208682000000001,0.19666389,1.6116787000000001,-1.4132782,-0.8424885,15.437440772724988,-0.4716365525886872,-0.13979007902987808,-0.8733913503842067,16.10751,-2.955064,-0.77915883,1.7078761000000002,0
-0.8699999999999992,7.180032300000001,-9.475658000000001,1.6764346,0.061039094,0.46681565,0.774816,0.42192128,-7.46616,8.312991,0.18518186,1.2868946,-1.2145013999999998,-0.8440049999999999,15.437440772724988,-0.4716365525886872,-0.13979007902987808,-0.8733913503842067,16.10751,-2.955064,-0.77915883,1.7078761000000002,0
-0.8599999999999992,7.1057496,-9.392011,1.6782247,0.06585366,0.46911499999999995,0.76998186,0.42746022,-7.3899045,8.416374000000001,0.17268531,1.0127437,-1.046751,-0.84544706,15.437440772724988,-0.4716365525886872,-0.13979007902987808,-0.8733913503842067,16.10751,-2.955064,-0.77915883,1.7078761000000002,0
-0.8499999999999992,7.03224,-9.307333999999999,1.6798857,0.06952718,0.47073966,0.76573175,0.43269488,-7.311648399999999,8.518889999999999,0.15942383,0.78133243,-0.90518427,-0.84681827,15.437440772724988,-0.4716365525886872,-0.13979007902987808,-0.8733913503842067,16.10751,-2.955064,-0.77915883,1.7078761000000002,0
-0.8399999999999992,6.959522,-9.221636,1.6814113000000002,0.07223469,0.47180572,0.76198345,0.43767864,-7.231765299999999,8.620602,0.14561331,0.5859977,-0.7857142,-0.84812224,14.952784666152851,-1.9025014417161268,0.7335247830654105,-0.40288116522998013,15.399486999999999,-4.356232599999999,-0.8680935,2.5125344,0
-0.8299999999999992,6.8875966,-9.134939,1.6827835999999998,0.07363424,0.47212255,0.7589861999999999,0.44228742,-7.1531515,8.71841,0.12882704,0.19805641,-0.5485722,-0.8262741,14.952784666152851,-1.9025014417161268,0.7335247830654105,-0.40288116522998013,15.399486999999999,-4.356232599999999,-0.8680935,2.5125344,0
-0.8199999999999992,6.816462,-9.047267999999999,1.6839877,0.07346517,0.4715465999999999,0.75693846,0.44641990000000004,-7.0737953,8.815638,0.11201483,-0.12941182,-0.34845525,-0.80549806,14.952784666152851,-1.9025014417161268,0.7335247830654105,-0.40288116522998013,15.399486999999999,-4.356232599999999,-0.8680935,2.5125344,0
-0.8099999999999992,6.746122,-8.958628,1.6850247,0.07197333,0.47022402,0.75569844,0.45014322,-6.994186,8.912429,0.09547678400000001,-0.40583324,-0.17958114,-0.78574157,14.952784666152851,-1.9025014417161268,0.7335247830654105,-0.40288116522998013,15.399486999999999,-4.356232599999999,-0.8680935,2.5125344,0
-0.7999999999999992,6.6765776,-8.869019999999999,1.6858990000000003,0.06936607,0.46827337,0.75513995,0.45351064,-6.914739599999999,9.008911,0.07946217,-0.6391643,-0.037070975,-0.7669545,14.514741820686078,-3.14089128948588,1.113553235766101,0.15243473339866584,15.864942000000001,-5.132507299999999,-0.1132734,3.3062592000000004,0
-0.7899999999999991,6.6078134,-8.778464,1.6866044999999998,0.065510124,0.46548100000000003,0.75542444,0.45647523,-6.838147,9.102377,0.06177077,-1.0292215,0.14253338,-0.7218398,14.514741820686078,-3.14089128948588,1.113553235766101,0.15243473339866584,15.864942000000001,-5.132507299999999,-0.1132734,3.3062592000000004,0
-0.7799999999999991,6.539811,-8.686974000000001,1.687138,0.060311075,0.4616769,0.7566682,0.45898825,-6.7625465,9.195758999999999,0.04510732,-1.358472,0.29408062,-0.6789388000000001,14.514741820686078,-3.14089128948588,1.113553235766101,0.15243473339866584,15.864942000000001,-5.132507299999999,-0.1132734,3.3062592000000004,0
-0.7699999999999991,6.472558,-8.594549,1.6875111,0.053982600000000006,0.45700630000000003,0.7587039000000001,0.46108505,-6.6883919999999994,9.289149,0.029752973,-1.6363938,0.42195645,-0.63814306,14.514741820686078,-3.14089128948588,1.113553235766101,0.15243473339866584,15.864942000000001,-5.132507299999999,-0.1132734,3.3062592000000004,0
-0.7599999999999991,6.4060373,-8.50119,1.6877383000000001,0.046705104000000004,0.45158893,0.76138556,0.46279368,-6.6160803,9.382616,0.015928017,-1.8709878,0.5298611,-0.5993491999999999,14.514741820686078,-3.14089128948588,1.113553235766101,0.15243473339866584,15.911337,-5.467099,-0.0025646873,3.6621047999999994,0
-0.7499999999999991,6.340229,-8.406896000000001,1.6878357,0.03863107,0.44552413,0.76458675,0.46413675,-6.5459604,9.476207,0.0037998479999999998,-2.0690076,0.62091523,-0.56245893,14.514741820686078,-3.14089128948588,1.113553235766101,0.15243473339866584,15.911337,-5.467099,-0.0025646873,3.6621047999999994,0
-0.7399999999999989,6.2751093000000004,-8.311666,1.6878206999999998,0.029889517999999997,0.43889493,0.76819843,0.46513325,-6.4783397,9.569947,-0.006509715,-2.236155,0.6977521,-0.5273789000000001,14.514741820686078,-3.14089128948588,1.113553235766101,0.15243473339866584,15.911337,-5.467099,-0.0025646873,3.6621047999999994,0
-0.7299999999999989,6.210652400000001,-8.215497000000001,1.6877121,0.020589745,0.43177125,0.7721273,0.46579936,-6.4134917,9.663845,-0.0149179995,-2.3772423,0.7625930000000001,-0.49402029999999997,14.514741820686078,-3.14089128948588,1.113553235766101,0.15243473339866584,15.911337,-5.467099,-0.0025646873,3.6621047999999994,0
-0.7199999999999989,6.1468287,-8.118388000000001,1.6875291000000001,0.010824398,0.42421225,0.7762935000000001,0.46614920000000004,-6.3516593,9.757894,-0.02137584,-2.4963324,0.81731176,-0.46229854,14.224269839059902,-3.927095724794319,1.0143028178701607,0.7107037604784753,16.616123,-5.5180006,-0.043303747000000004,3.1094062,0
-0.7099999999999989,6.0836015,-8.020349000000001,1.687282,0.00058538653,0.41600349999999997,0.78079176,0.46615973,-6.2942443,9.85018,-0.02772199,-2.7194817000000002,0.8479981,-0.40473896,14.224269839059902,-3.927095724794319,1.0143028178701607,0.7107037604784753,16.616123,-5.5180006,-0.043303747000000004,3.1094062,0
-0.6999999999999991,6.020931200000001,-7.921385000000001,1.6869813999999999,-0.010125543,0.40697306,0.78568673,0.46579686,-6.240287,9.942508,-0.032035396,-2.9078326,0.87387955,-0.35000384,14.224269839059902,-3.927095724794319,1.0143028178701607,0.7107037604784753,16.616123,-5.5180006,-0.043303747000000004,3.1094062,0
-0.6899999999999991,5.9587827,-7.821497999999999,1.6866484,-0.021222462999999997,0.39722526,0.7908742,0.46505859999999993,-6.1900597,10.034777,-0.034243207000000005,-3.0668116000000003,0.895711,-0.29795462,14.224269839059902,-3.927095724794319,1.0143028178701607,0.7107037604784753,16.616123,-5.5180006,-0.043303747000000004,3.1094062,0
-0.679999999999999,5.8971167,-7.720689299999999,1.6863039,-0.03263252,0.38684916,0.7962648,0.46394482,-6.1438065,10.126877,-0.034313988,-3.2009982999999997,0.91412824,-0.24845944,13.829679606421301,-4.450426022616436,0.6262978557009793,1.1471842093083842,17.170263000000002,-5.8050489999999995,-0.54781437,3.4502788,0
-0.669999999999999,5.8358865,-7.6189732999999995,1.6859554,-0.04424623,0.3756833,0.80189157,0.46246508,-6.102914,10.21613,-0.035018835,-3.3958921,0.8691215,-0.17997481,13.829679606421301,-4.450426022616436,0.6262978557009793,1.1471842093083842,17.170263000000002,-5.8050489999999995,-0.54781437,3.4502788,0
-0.659999999999999,5.775044,-7.516367999999999,1.6856107,-0.05596939,0.36360213,0.80777204,0.46061367,-6.066315,10.304901,-0.033598036,-3.5603860000000003,0.83112174,-0.114850715,13.829679606421301,-4.450426022616436,0.6262978557009793,1.1471842093083842,17.170263000000002,-5.8050489999999995,-0.54781437,3.4502788,0
-0.649999999999999,5.714544999999999,-7.412878,1.6852909,-0.06776566,0.35072568,0.8138138,0.45837334,-6.0342097,10.392974,-0.030030645,-3.6992218,0.79904103,-0.052922286,13.829679606421301,-4.450426022616436,0.6262978557009793,1.1471842093083842,17.170263000000002,-5.8050489999999995,-0.54781437,3.4502788,0
-0.639999999999999,5.6543436,-7.3085119999999995,1.6850174999999998,-0.079604365,0.33715698,0.8199368,0.45573199999999997,-6.006773,10.480139,-0.024335736,-3.8164024,0.7719595,0.0059672836,14.001801937647192,-4.754975991714956,0.3900929811003244,1.5319615963948032,16.959135,-6.2073965,-0.39115265,3.6641037000000005,0
-0.629999999999999,5.5943937,-7.2032743,1.6848178,-0.09142130000000001,0.32284509999999994,0.8261409,0.45266345,-5.9838767,10.567248,-0.015242886,-3.962807,0.71221405,0.08084826,14.001801937647192,-4.754975991714956,0.3900929811003244,1.5319615963948032,16.959135,-6.2073965,-0.39115265,3.6641037000000005,0
-0.619999999999999,5.534648000000001,-7.0971722999999995,1.6847196,-0.10316111,0.3077552,0.83241814,0.44913739999999996,-5.9660106,10.65296,-0.004088205300000001,-4.0863733,0.6617837,0.1520548,14.001801937647192,-4.754975991714956,0.3900929811003244,1.5319615963948032,16.959135,-6.2073965,-0.39115265,3.6641037000000005,0
-0.6099999999999992,5.4750559999999995,-6.990221000000001,1.6847429,-0.114812024,0.29199200000000003,0.83869344,0.44514278,-5.9533024,10.737011,0.009060708,-4.1906652,0.6192186,0.21976723,14.001801937647192,-4.754975991714956,0.3900929811003244,1.5319615963948032,16.959135,-6.2073965,-0.39115265,3.6641037000000005,0
-0.5999999999999992,5.4155644999999994,-6.882438700000001,1.6849073,-0.12636426,0.27564606,0.84490126,0.44067349999999994,-5.9458566,10.819141,0.024103697,-4.278688400000001,0.58329445,0.284157,13.96392374841358,-4.739458248693926,-0.2625746735500157,1.7474562628836072,18.392162,-6.2975187,-1.371777,3.7217689,0
-0.5899999999999992,5.356121,-6.7738466,1.6852295,-0.13757850000000002,0.25869015,0.85102904,0.4357764,-5.943748,10.898873,0.04060944,-4.350542,0.45116478,0.3559615,13.96392374841358,-4.739458248693926,-0.2625746735500157,1.7474562628836072,18.392162,-6.2975187,-1.371777,3.7217689,0
-0.5799999999999992,5.296671400000001,-6.664469199999999,1.6857253,-0.14826286,0.2411118,0.8570687,0.43048379999999997,-5.9469485,10.976117,0.05878239,-4.411183,0.33964720000000004,0.42424253,13.96392374841358,-4.739458248693926,-0.2625746735500157,1.7474562628836072,18.392162,-6.2975187,-1.371777,3.7217689,0
-0.5699999999999992,5.2371635,-6.554333,1.6864105,-0.15847427,0.22300389999999998,0.86297184,0.42477593,-5.9554176,11.050556,0.07850977,-4.4623623,0.24552815,0.48917302,13.96392374841358,-4.739458248693926,-0.2625746735500157,1.7474562628836072,18.392162,-6.2975187,-1.371777,3.7217689,0
-0.5599999999999992,5.1775455,-6.443468599999999,1.6873004,-0.16826147,0.20444646,0.8686946,0.41863975,-5.969103,11.121896000000001,0.09965478,-4.5055566,0.16609478,0.5509174,13.96392374841358,-4.739458248693926,-0.2625746735500157,1.7474562628836072,19.333853,-6.0327244,-2.1993833,3.7738156000000003,0
-0.5499999999999992,5.117765,-6.3319077,1.6884080000000001,-0.1776662,0.18550873,0.8741974,0.4120677,-5.9879427000000005,11.189862,0.122060195,-4.542013,0.09905706,0.60963196,13.96392374841358,-4.739458248693926,-0.2625746735500157,1.7474562628836072,19.333853,-6.0327244,-2.1993833,3.7738156000000003,0
-0.5399999999999991,5.0577693,-6.2196846,1.6897452000000002,-0.1867241,0.16625077,0.87944514,0.40505666,-6.0118623,11.254201,0.14555159,-4.572784400000001,0.04248228,0.6654653,13.96392374841358,-4.739458248693926,-0.2625746735500157,1.7474562628836072,19.333853,-6.0327244,-2.1993833,3.7738156000000003,0
-0.5299999999999991,4.9975104,-6.1068370000000005,1.6913220000000002,-0.19546558,0.146725,0.88440573,0.39760697,-6.0407743,11.31467,0.16994035,-4.5987563,-0.005261544,0.71855897,13.96392374841358,-4.739458248693926,-0.2625746735500157,1.7474562628836072,19.333853,-6.0327244,-2.1993833,3.7738156000000003,0
-0.5199999999999991,4.9369373,-5.993405,1.6931463,-0.20391652,0.1269774,0.88905084,0.38972205,-6.074579,11.371047,0.19502595,-4.620678400000001,-0.045551773,0.76904726,13.534639535003555,-4.246191782444422,-0.9364320463321544,1.6941637924003492,19.46546,-5.3340760000000005,-3.6223266000000005,3.3618925,0
-0.5099999999999991,4.876008000000001,-5.879438400000001,1.6952052,-0.21178384,0.10711901,0.8933867,0.38148790000000005,-6.1119585,11.421522,0.21680337,-4.562203,-0.18459001,0.814443,13.534639535003555,-4.246191782444422,-0.9364320463321544,1.6941637924003492,19.46546,-5.3340760000000005,-3.6223266000000005,3.3618925,0
-0.4999999999999991,4.8146825,-5.7649894,1.6974835,-0.21883959,0.087245956,0.89743286,0.37297654,-6.153708999999999,11.4676285,0.23889805,-4.5128508,-0.3019403,0.8576111999999999,13.534639535003555,-4.246191782444422,-0.9364320463321544,1.6941637924003492,19.46546,-5.3340760000000005,-3.6223266000000005,3.3618925,0
-0.4899999999999989,4.752919,-5.6501017,1.6999837,-0.22519194,0.067374915,0.90117985,0.36417562,-6.199559,11.509185,0.2611581,-4.4712,-0.4009853,0.8986610999999999,13.534639535003555,-4.246191782444422,-0.9364320463321544,1.6941637924003492,19.46546,-5.3340760000000005,-3.6223266000000005,3.3618925,0
-0.47999999999999887,4.690678,-5.534822,1.7027067,-0.23093246,0.04752021,0.9046169,0.35507748,-6.2492540000000005,11.54603,0.28342688,-4.436049,-0.48458028,0.93769664,13.494644047006625,-3.6115834609747433,-1.4871893182637357,1.605895313983512,18.959219,-5.0773144,-4.0282884,3.293735,0
-0.46999999999999886,4.6279224999999995,-5.419198000000001,1.7056501,-0.23585096,0.027844504,0.90777224,0.34575757,-6.302372,11.577931,0.30519563,-4.307365,-0.6409504,0.9704853000000001,13.494644047006625,-3.6115834609747433,-1.4871893182637357,1.605895313983512,18.959219,-5.0773144,-4.0282884,3.293735,0
-0.45999999999999885,4.5646195,-5.3032794,1.7088096999999998,-0.23978989,0.008480909,0.91068345,0.33628020000000003,-6.358703599999999,11.604899000000001,0.326709,-4.1987596,-0.7729377,1.0016651,13.494644047006625,-3.6115834609747433,-1.4871893182637357,1.605895313983512,18.959219,-5.0773144,-4.0282884,3.293735,0
-0.44999999999999885,4.5007386,-5.1871165999999995,1.7121828999999997,-0.24289122,-0.010599823999999999,0.91334856,0.32662776,-6.417887,11.626859,0.3478696,-4.1071,-0.8843445,1.0313148,13.494644047006625,-3.6115834609747433,-1.4871893182637357,1.605895313983512,18.959219,-5.0773144,-4.0282884,3.293735,0
-0.43999999999999884,4.436253,-5.07076,1.7157654999999998,-0.24527457,-0.029423025,0.9157620000000001,0.3167876,-6.479592,11.643748,0.36857718,-4.029743700000001,-0.9783799999999999,1.0595096000000002,14.31566514135192,-3.0877896882800724,-1.71400752249898,1.507302680383316,20.015263,-5.1446624000000005,-4.036477,3.5691669999999998,0
-0.4299999999999988,4.3711195,-4.954256,1.7195884999999997,-0.24689214,-0.047849763,0.9179440000000001,0.30681142,-6.5473932999999995,11.656245,0.395928,-3.8827519999999995,-1.0930548999999998,1.0814831,14.31566514135192,-3.0877896882800724,-1.71400752249898,1.507302680383316,20.015263,-5.1446624000000005,-4.036477,3.5691669999999998,0
-0.4199999999999988,4.3052983,-4.837654,1.7236818999999999,-0.24771528,-0.065770656,0.91992044,0.29674485,-6.617164999999999,11.663333999999999,0.42261943,-3.7586937000000007,-1.189856,1.1023781000000001,14.31566514135192,-3.0877896882800724,-1.71400752249898,1.507302680383316,20.015263,-5.1446624000000005,-4.036477,3.5691669999999998,0
-0.4099999999999988,4.238771,-4.721008,1.7280384999999998,-0.24786219,-0.08324617,0.92168885,0.28657237,-6.68855,11.665046,0.44858643,-3.6539915,-1.2715696,1.1222478,14.31566514135192,-3.0877896882800724,-1.71400752249898,1.507302680383316,20.015263,-5.1446624000000005,-4.036477,3.5691669999999998,0
-0.3999999999999988,4.1715230000000005,-4.6043715,1.7326508000000003,-0.24743198,-0.1003279,0.92324394,0.27628246,-6.761225,11.661417,0.47376093,-3.5656257000000005,-1.340547,1.1411426000000002,14.485780373231249,-2.2597766421504493,-1.8098954736649344,1.2504143426668115,20.270004,-5.016229599999999,-4.0432744,3.467285,0
-0.3899999999999988,4.103539,-4.487798000000001,1.7375178,-0.24637978,-0.11677232,0.92461777,0.26597540000000003,-6.835761,11.652397,0.49953404,-3.3619196000000002,-1.4136024,1.1465046,14.485780373231249,-2.2597766421504493,-1.8098954736649344,1.2504143426668115,20.270004,-5.016229599999999,-4.0432744,3.467285,0
-0.3799999999999988,4.034806,-4.3713417,1.7426383,-0.24468026,-0.13239084,0.92585194,0.25573853,-6.9109490000000005,11.638181,0.52442294,-3.1899903,-1.4752865,1.1516036,14.485780373231249,-2.2597766421504493,-1.8098954736649344,1.2504143426668115,20.270004,-5.016229599999999,-4.0432744,3.467285,0
-0.3699999999999988,3.9653187000000005,-4.255052,1.7480034,-0.24243504,-0.14729853,0.92694914,0.24554709,-6.986466,11.6189375,0.5484244,-3.0448802,-1.5273695,1.1564523000000002,14.485780373231249,-2.2597766421504493,-1.8098954736649344,1.2504143426668115,20.270004,-5.016229599999999,-4.0432744,3.467285,0
-0.35999999999999877,3.895076,-4.13898,1.7536038,-0.23972860000000001,-0.16159305,0.92790806,0.23538083,-7.062025,11.594823,0.57153136,-2.922406,-1.571346,1.1610631,14.485780373231249,-2.2597766421504493,-1.8098954736649344,1.2504143426668115,20.088854,-4.463476999999999,-3.8659215,2.8357959,0
-0.34999999999999876,3.8240788,-4.0231724,1.7594308999999997,-0.23663119999999999,-0.17535724,0.9287247,0.2252234,-7.137375,11.565977,0.5937319000000001,-2.819037,-1.6084777,1.1654475,14.485780373231249,-2.2597766421504493,-1.8098954736649344,1.2504143426668115,20.088854,-4.463476999999999,-3.8659215,2.8357959,0
-0.33999999999999875,3.7523303,-3.9076765,1.7654753,-0.2332013,-0.18866119,0.92939353,0.21506175,-7.212290299999999,11.532528,0.61500907,-2.7317924,-1.6398301,1.1696168,14.485780373231249,-2.2597766421504493,-1.8098954736649344,1.2504143426668115,20.088854,-4.463476999999999,-3.8659215,2.8357959,0
-0.32999999999999874,3.6798356,-3.7925375,1.7717278000000003,-0.22948754,-0.20156418,0.92990804,0.20488569,-7.2865677,11.494595,0.6353413,-2.658157,-1.6663023999999997,1.1735816000000001,14.485780373231249,-2.2597766421504493,-1.8098954736649344,1.2504143426668115,20.088854,-4.463476999999999,-3.8659215,2.8357959,0
-0.31999999999999873,3.6066017,-3.6777997000000004,1.7781788,-0.22553055,-0.21411622,0.9302617,0.19468738,-7.3600225,11.4522915,0.6547018,-2.5960085,-1.6886544999999997,1.1773517,14.80730278979249,-1.4322443449559268,-1.5922685435126014,0.9537729980119596,20.820581,-4.6817474,-3.8173334999999997,2.6073632,0
-0.3099999999999987,3.5326302000000003,-3.5635114000000003,1.7848313999999998,-0.22137489999999999,-0.22604373,0.93049663,0.18458912,-7.4340934999999995,11.404708,0.67565423,-2.4145436,-1.6734668000000001,1.1663806,14.80730278979249,-1.4322443449559268,-1.5922685435126014,0.9537729980119596,20.820581,-4.6817474,-3.8173334999999997,2.6073632,0
-0.2999999999999987,3.4579239999999998,-3.4497197,1.7916886000000003,-0.21706237,-0.23713699,0.9306618000000001,0.17469503,-7.506988499999999,11.353024000000001,0.69561845,-2.2613757000000003,-1.6606721000000002,1.1559478,14.80730278979249,-1.4322443449559268,-1.5922685435126014,0.9537729980119596,20.820581,-4.6817474,-3.8173334999999997,2.6073632,0
-0.2899999999999987,3.3824949999999996,-3.3364644,1.7987406000000004,-0.21261919,-0.24752071,0.9307576,0.16497491,-7.578568499999999,11.297487,0.71463525,-2.1320919999999997,-1.6498936000000002,1.1460270000000001,14.80730278979249,-1.4322443449559268,-1.5922685435126014,0.9537729980119596,20.820581,-4.6817474,-3.8173334999999997,2.6073632,0
-0.2799999999999987,3.3063574,-3.2237825,1.8059781000000004,-0.20806617,-0.25729989999999997,0.9307818999999999,0.1554031,-7.6487117,11.2383175,0.7327389,-2.0229678,-1.6408131000000001,1.1365931,14.793756303864644,-0.4573626266687323,-1.178114077297378,0.5960272091739522,21.5062,-4.1231413,-3.6750462,2.3502982000000006,0
-0.2699999999999989,3.2295263,-3.1117096,1.8133917000000002,-0.20350434,-0.26618475,0.9307950999999999,0.14612344,-7.7172546,11.175789,0.7498626,-1.7788931000000001,-1.568444,1.1100675,14.793756303864644,-0.4573626266687323,-1.178114077297378,0.5960272091739522,21.5062,-4.1231413,-3.6750462,2.3502982000000006,0
-0.2599999999999989,3.1520178,-3.0002775,1.8209726000000002,-0.19901846,-0.27395645,0.9308599,0.13725607,-7.7842044999999995,11.110182,0.766209,-1.5728701,-1.5073973,1.0848434,14.793756303864644,-0.4573626266687323,-1.178114077297378,0.5960272091739522,21.5062,-4.1231413,-3.6750462,2.3502982000000006,0
-0.2499999999999989,3.073848,-2.8895154,1.8287133999999998,-0.1946003,-0.28079122,0.9309729999999999,0.12874833,-7.849530000000001,11.041830000000001,0.7818861999999999,-1.3989666,-1.4559008999999998,1.060857,14.793756303864644,-0.4573626266687323,-1.178114077297378,0.5960272091739522,21.5062,-4.1231413,-3.6750462,2.3502982000000006,0
-0.23999999999999888,2.9950327999999997,-2.7794494999999997,1.8366082,-0.1902412,-0.28683686,0.93112797,0.12055488,-7.913208999999999,10.971016,0.79699016,-1.252175,-1.4124601,1.0380477,14.792513923005204,0.526634997204935,-0.6611783146868482,0.174158194542457,20.255987,-2.8965015,-3.3058946000000002,1.5129226,0
-0.22999999999999865,2.9155892999999997,-2.6701026000000003,1.8446516,-0.18606442,-0.29183709999999996,0.9313875,0.11281976,-7.9752307,10.898011,0.8116066,-0.9748857,-1.2950833000000002,0.99565643,14.792513923005204,0.526634997204935,-0.6611783146868482,0.174158194542457,20.255987,-2.8965015,-3.3058946000000002,1.5129226,0
-0.21999999999999864,2.8355335999999998,-2.5614953,1.8528392,-0.18216892,-0.2956002,0.93181026,0.10566179,-8.035654,10.823181,0.82589424,-0.7408201999999999,-1.1960546,0.9553451999999999,14.792513923005204,0.526634997204935,-0.6611783146868482,0.174158194542457,20.255987,-2.8965015,-3.3058946000000002,1.5129226,0
-0.20999999999999863,2.7548814,-2.4536438,1.8611686,-0.17851240000000002,-0.29832616,0.93237954,0.099010095,-8.094553,10.746887,0.8400065999999999,-0.5432412,-1.1125042,0.9170120999999999,14.792513923005204,0.526634997204935,-0.6611783146868482,0.174158194542457,20.255987,-2.8965015,-3.3058946000000002,1.5129226,0
-0.19999999999999862,2.6736473999999997,-2.3465613999999997,1.869639,-0.17505755,-0.30018216,0.93307704,0.09280369999999999,-8.1519985,10.669432,0.85407716,-0.37646154,-1.0420114,0.88056004,14.62865786072865,1.4001753975397833,-0.19938564906473846,-0.2844653065366436,19.049963,-2.7764022,-3.1314495,0.9384628,0
-0.18999999999999884,2.5918493,-2.240254,1.8782442,-0.17189574,-0.30097547,0.9339531999999999,0.08715958,-8.207441000000001,10.591958,0.86698776,-0.09950546,-0.9104412000000001,0.8233919,14.62865786072865,1.4001753975397833,-0.19938564906473846,-0.2844653065366436,19.049963,-2.7764022,-3.1314495,0.9384628,0
-0.17999999999999883,2.509503,-2.1347241,1.8869796000000003,-0.16909729,-0.3005624,0.9350484,0.08217367,-8.261642,10.513962,0.88014597,0.1342808,-0.7994313,0.7690291,14.62865786072865,1.4001753975397833,-0.19938564906473846,-0.2844653065366436,19.049963,-2.7764022,-3.1314495,0.9384628,0
-0.16999999999999882,2.42662,-2.0299752,1.8958485,-0.16660266,-0.29913718,0.9363292,0.077768415,-8.31473,10.435781500000001,0.89371175,0.33162555,-0.7057666,0.7173338,14.62865786072865,1.4001753975397833,-0.19938564906473846,-0.2844653065366436,19.049963,-2.7764022,-3.1314495,0.9384628,0
-0.1599999999999988,2.3432114,-1.9260078999999999,1.9048557000000002,-0.16436051,-0.29686195,0.93776363,0.07387717,-8.366817,10.357704,0.907819,0.49820817,-0.62673473,0.6681753,14.62865786072865,1.4001753975397833,-0.19938564906473846,-0.2844653065366436,17.937403,-2.217829,-2.9047267000000003,0.26925322,0
-0.1499999999999988,2.2592863999999997,-1.8228198,1.9140071,-0.16232684,-0.29387257,0.93932235,0.07044262,-8.418005,10.279971000000002,0.92257804,0.6388234,-0.56004786,0.6214289000000001,14.62865786072865,1.4001753975397833,-0.19938564906473846,-0.2844653065366436,17.937403,-2.217829,-2.9047267000000003,0.26925322,0
-0.1399999999999988,2.1748537999999997,-1.7204064,1.9233098000000002,-0.16046412,-0.29028282,0.9409793,0.06741541,-8.468378999999999,10.20279,0.93807894,0.7575183000000001,-0.5037765000000001,0.5769764000000001,14.62865786072865,1.4001753975397833,-0.19938564906473846,-0.2844653065366436,17.937403,-2.217829,-2.9047267000000003,0.26925322,0
-0.12999999999999878,2.0899215,-1.6187614,1.9327714,-0.15874049,-0.28618824,0.94271123,0.06475299999999999,-8.518015,10.126336,0.95439374,0.8577098,-0.4562927,0.5347053,14.62865786072865,1.4001753975397833,-0.19938564906473846,-0.2844653065366436,17.937403,-2.217829,-2.9047267000000003,0.26925322,0
-0.11999999999999877,2.0044963,-1.5178766000000001,1.9424006,-0.15712894,-0.28166896,0.94449806,0.062418632,-8.566975,10.050759,0.97157925,0.94228214,-0.41622335,0.49450829999999996,14.312314662973016,2.009480676907327,0.12600843440847306,-0.7080599224275842,19.392765,-1.8512084,-3.0848897,0.5160203,0
-0.10999999999999877,1.9185896,-1.4177346000000002,1.9521936000000002,-0.15570012,-0.27656195,0.9463666,0.060504567,-8.614275,9.977818,0.9871725,1.108671,-0.3316514,0.43549794,14.312314662973016,2.009480676907327,0.12600843440847306,-0.7080599224275842,19.392765,-1.8512084,-3.0848897,0.5160203,0
-0.09999999999999876,1.8322124,-1.3183161,1.9621473999999999,-0.15450747,-0.27074128,0.9483326999999999,0.059087332,-8.661067999999998,9.906081,1.003739,1.2491219,-0.26028523,0.37938324,14.312314662973016,2.009480676907327,0.12600843440847306,-0.7080599224275842,19.392765,-1.8512084,-3.0848897,0.5160203,0
-0.08999999999999875,1.7453696,-1.2196081,1.9722718999999997,-0.15350693,-0.26431888,0.9503649,0.058115735999999994,-8.707447,9.83576,1.0213450000000002,1.3676776000000002,-0.20006114,0.3260221,14.312314662973016,2.009480676907327,0.12600843440847306,-0.7080599224275842,19.392765,-1.8512084,-3.0848897,0.5160203,0
-0.07999999999999874,1.6580646,-1.1215954,1.982578,-0.15266138,-0.25738874,0.9524357,0.057545487,-8.753489,9.767032,1.0400380999999999,1.4677506999999999,-0.14923786,0.27527937,13.945383441859555,2.3740571326169766,0.29687232264219,-1.0901266370110274,19.06318,-1.4646431999999998,-3.1990933,0.20588103,0
