time-since-start [s],throttle_mpc,roll_mpc,pitch_mpc,yaw_mpc,throttle_nw,roll_nw,pitch_nw,yaw_nw,position_x [m],position_y [m],position_z [m],rotation_w [quaternion],rotation_x [quaternion],rotation_y [quaternion],rotation_z [quaternion],velocity_x [m/s],velocity_y [m/s],velocity_z [m/s],omega_x [rad/s],omega_y [rad/s],omega_z [rad/s],network_used
0.0,9.83991759261364,5.646739529145123,-5.999998229681748,0.7991717703250053,11.4479265,-0.1033456,0.480004,-0.20211764,10.022471,-11.367848,2.4576488,-0.4977861,0.15769222,-0.27725226,-0.80651927,-6.9211807,0.4292723,0.9779345,0.6509493,-0.11987326,-0.5448759,0
0.01,9.83991759261364,5.646739529145123,-5.999998229681748,0.7991717703250053,12.879213,-0.008284184,-2.8489294,0.5384536,9.953271,-11.363257,2.4673295,-0.50148773,0.15340143,-0.27960676,-0.8042376,-6.918691,0.48873457,0.9581948,1.4297569,-1.0370921,-0.47892314,0
0.02,9.83991759261364,5.646739529145123,-5.999998229681748,0.7991717703250053,12.879213,-0.008284184,-2.8489294,0.5384536,9.884102,-11.358073,2.476813,-0.50661504,0.1438177,-0.28275183,-0.8016914,-6.914628,0.5479907,0.93854374,2.0872238,-1.8111757,-0.41620666,0
0.03,9.83991759261364,5.646739529145123,-5.999998229681748,0.7991717703250053,12.879213,-0.008284184,-2.8489294,0.5384536,9.814986,-11.3523,2.4861014,-0.51283854,0.12973289,-0.28650624,-0.79879916,-6.908054,0.60666245,0.91915894,2.6422458,-2.4644692,-0.35656765,0
0.04,9.83991759261364,5.646739529145123,-5.999998229681748,0.7991717703250053,11.32653,1.5253114,-4.1149473,0.2073822,9.745953,-11.345944,2.4951975,-0.51985264,0.11181294,-0.29070258,-0.7954515,-6.898188,0.66437954,0.90013266,3.110777,-3.0158277,-0.2998552,0
0.05,9.83991759261364,5.646739529145123,-5.999998229681748,0.7991717703250053,11.32653,1.5253114,-4.1149473,0.2073822,9.677036,-11.339019,2.5041053,-0.52738017,0.090622984,-0.2951893,-0.7915307,-6.884384,0.72077096,0.88147,3.5062895,-3.481162,-0.24592566,0
0.060000000000000005,9.83991759261364,5.646739529145123,-5.999998229681748,0.7991717703250053,11.32653,1.5253114,-4.1149473,0.2073822,9.60828,-11.331535,2.5128279,-0.5351742,0.06664723,-0.29983115,-0.78692305,-6.866119,0.7754625,0.863092,3.8401573,-3.873899,-0.19464244,0
0.07,9.83991759261364,5.646739529145123,-5.999998229681748,0.7991717703250053,11.32653,1.5253114,-4.1149473,0.2073822,9.53973,-11.323516,2.5213675,-0.5430178,0.04030436,-0.30450884,-0.78152514,-6.8429785,0.82807785,0.8448427,4.121984,-4.205368,-0.14587569,0
0.08,10.678511569846659,5.2674184475929975,-5.999997899313694,0.7292833459409996,13.440182,1.9206119,-3.078428,0.26052415,9.471437,-11.314981,2.5297246,-0.55072206,0.011959478,-0.30911794,-0.7752472,-6.8146515,0.8782417,0.82649726,4.359877,-4.485131,-0.09950194,0
0.09,10.678511569846659,5.2674184475929975,-5.999997899313694,0.7292833459409996,13.440182,1.9206119,-3.078428,0.26052415,9.403469,-11.30594,2.5379303,-0.55813175,-0.017979836,-0.31345108,-0.7680587,-6.7780538,0.9296175,0.81454015,4.501517,-4.7212634,-0.058833204,0
0.09999999999999999,10.678511569846659,5.2674184475929975,-5.999997899313694,0.7292833459409996,13.440182,1.9206119,-3.078428,0.26052415,9.335897,-11.296402,2.5460129,-0.56512487,-0.049159534,-0.31734198,-0.7599417,-6.7355022,0.9775322,0.80183774,4.621075,-4.9205694,-0.020160094,0
0.10999999999999999,10.678511569846659,5.2674184475929975,-5.999997899313694,0.7292833459409996,13.440182,1.9206119,-3.078428,0.26052415,9.26878,-11.286404,2.5539632,-0.5715956,-0.08135015,-0.32076257,-0.75084764,-6.686995,1.0216066,0.7880195,4.721992,-5.0887938,0.016615313,0
0.11999999999999998,10.678511569846659,5.2674184475929975,-5.999997899313694,0.7292833459409996,13.440182,1.9206119,-3.078428,0.26052415,9.202177,-11.275984,2.561768,-0.57745403,-0.11434629,-0.32368892,-0.7407411,-6.6326036,1.0614876,0.7726825,4.807172,-5.2307854,0.051586144,0
0.12999999999999998,11.811369706668046,3.117731062614859,-5.162587302907849,0.502524123567582,13.342332,1.8919883,-4.241275,-0.5469705,9.1361475,-11.265188,2.5694103,-0.58262485,-0.14796317,-0.32610092,-0.72959816,-6.5724683,1.0968517,0.75540125,4.879067,-5.350636,0.084840946,0
0.13999999999999999,11.811369706668046,3.117731062614859,-5.162587302907849,0.502524123567582,13.342332,1.8919883,-4.241275,-0.5469705,9.070781,-11.254046,2.57691,-0.5871044,-0.1812822,-0.32756424,-0.7177374,-6.499868,1.1306628,0.74408406,4.604457,-5.321264,0.105336785,0
0.15,11.811369706668046,3.117731062614859,-5.162587302907849,0.502524123567582,13.342332,1.8919883,-4.241275,-0.5469705,9.006169,-11.242594,2.5842822,-0.5909681,-0.21357135,-0.32777593,-0.7054836,-6.4217124,1.1589738,0.7298633,4.3726687,-5.296479,0.124826886,0
0.16,11.923368136328103,0.49193236539072144,-0.7188304732210028,0.2849813730334972,12.828364,-0.7510253,0.46127465,-0.046669655,8.942365,-11.230886,2.5914967,-0.59425634,-0.24492946,-0.32689524,-0.69282657,-6.3385854,1.1816565,0.7125163,4.177024,-5.275564,0.1433606,0
0.17,11.923368136328103,0.49193236539072144,-0.7188304732210028,0.2849813730334972,12.828364,-0.7510253,0.46127465,-0.046669655,8.879416,-11.21898,2.598525,-0.596729,-0.27359122,-0.32541117,-0.6805661,-6.2502537,1.1988668,0.69260496,3.6022906,-4.564981,0.15030997,0
0.18000000000000002,11.923368136328103,0.49193236539072144,-0.7188304732210028,0.2849813730334972,12.828364,-0.7510253,0.46127465,-0.046669655,8.817371,-11.206927,2.6053379,-0.59832656,-0.298229,-0.32379007,-0.6694961,-6.1583257,1.2109201,0.66945356,3.1171908,-3.9652095,0.15691833,0
0.19000000000000003,11.923368136328103,0.49193236539072144,-0.7188304732210028,0.2849813730334972,12.828364,-0.7510253,0.46127465,-0.046669655,8.75626,-11.1947775,2.611904,-0.5992888,-0.31950384,-0.32210732,-0.6595584,-6.0635433,1.2184662,0.6432801,2.7077458,-3.4589689,0.16320242,0
0.20000000000000004,11.436219520198582,-1.7482586477627997,4.29084085738825,0.17361541737190106,11.7595825,-3.1129599,5.5809975,0.33659345,8.696108,-11.182571,2.618194,-0.59978944,-0.33796847,-0.32041058,-0.6506668,-5.9664807,1.2220708,0.6143219,2.3621576,-3.031673,0.16917816,0
0.21000000000000005,11.436219520198582,-1.7482586477627997,4.29084085738825,0.17361541737190106,11.7595825,-3.1129599,5.5809975,0.33659345,8.63697,-11.170346,2.6242042,-0.5996127,-0.35268798,-0.31936684,-0.64349115,-5.8616924,1.2223312,0.58684254,1.8453956,-2.014126,0.18056029,0
0.22000000000000006,11.436219520198582,-1.7482586477627997,4.29084085738825,0.17361541737190106,11.7595825,-3.1129599,5.5809975,0.33659345,8.578863,-11.158132,2.629913,-0.5986393,-0.3627316,-0.31951588,-0.6387226,-5.7600574,1.2201679,0.5542175,1.3524877,-1.0985469,0.18630971,0
0.23000000000000007,11.436219520198582,-1.7482586477627997,4.29084085738825,0.17361541737190106,11.7595825,-3.1129599,5.5809975,0.33659345,8.521756,-11.1459465,2.635274,-0.59708816,-0.36853394,-0.3207,-0.6362548,-5.6616993,1.2168146,0.5174018,0.8846274,-0.2739303,0.18713792,0
0.24000000000000007,11.436219520198582,-1.7482586477627997,4.29084085738825,0.17361541737190106,11.00561,-4.373083,6.3364577,0.41093042,8.465627,-11.133797,2.6402552,-0.5951008,-0.37055272,-0.32276902,-0.6358978,-5.5641,1.2131574,0.47879666,0.4739437,0.43789288,0.18647435,0
0.25000000000000006,11.436219520198582,-1.7482586477627997,4.29084085738825,0.17361541737190106,11.00561,-4.373083,6.3364577,0.41093042,8.410475,-11.121681,2.6448479,-0.59275013,-0.36935863,-0.32558197,-0.63735235,-5.466195,1.2099438,0.4397129,0.12732011,1.0387157,0.18584335,0
0.26000000000000006,11.436219520198582,-1.7482586477627997,4.29084085738825,0.17361541737190106,11.00561,-4.373083,6.3364577,0.41093042,8.356302,-11.109593,2.649049,-0.5900728,-0.3654459,-0.3290085,-0.6403256,-5.368215,1.2078413,0.4005544,-0.16523603,1.5458474,0.18524331,0
0.2700000000000001,11.436219520198582,-1.7482586477627997,4.29084085738825,0.17361541737190106,11.00561,-4.373083,6.3364577,0.41093042,8.30311,-11.097519,2.65286,-0.58708525,-0.35922185,-0.3329306,-0.64455247,-5.270371,1.2074121,0.36165535,-0.41215834,1.9738978,0.18467271,0
0.2800000000000001,11.281416626601882,-3.4106231186137297,5.999997224576298,0.39503567021145847,9.806674,-5.0986204,5.7767005,0.32279113,8.250895,-11.085439,2.6562843,-0.5837919,-0.35102415,-0.33724356,-0.6497969,-5.172865,1.2091296,0.32328588,-0.6205653,2.335199,0.18413015,0
0.2900000000000001,11.281416626601882,-3.4106231186137297,5.999997224576298,0.39503567021145847,9.806674,-5.0986204,5.7767005,0.32279113,8.199645,-11.073328,2.6593244,-0.5801684,-0.3403078,-0.34180802,-0.65632516,-5.077229,1.2133641,0.28486964,-1.055761,2.9066632,0.19447935,0
0.3000000000000001,11.281416626601882,-3.4106231186137297,5.999997224576298,0.39503567021145847,9.806674,-5.0986204,5.7767005,0.32279113,8.149348,-11.06116,2.6619856,-0.5761556,-0.3266406,-0.34648466,-0.6643036,-4.9824867,1.220671,0.24756807,-1.4230831,3.3890114,0.2043207,0
0.3100000000000001,11.281416626601882,-3.4106231186137297,5.999997224576298,0.39503567021145847,9.806674,-5.0986204,5.7767005,0.32279113,8.099992,-11.048902,2.6642807,-0.5716996,-0.31043252,-0.35118458,-0.673395,-4.8890305,1.2315522,0.21170154,-1.733116,3.7961414,0.21367912,0
0.3200000000000001,11.225282945744052,-4.743038690298056,5.999999287309657,-0.1005890263780449,10.255671,-5.522754,6.0073214,0.467334,8.051561,-11.036514,2.6662252,-0.5667495,-0.29202938,-0.35582796,-0.6833012,-4.79726,1.2464175,0.17749558,-1.994794,4.1397834,0.22257835,0
0.3300000000000001,11.225282945744052,-4.743038690298056,5.999999287309657,-0.1005890263780449,10.255671,-5.522754,6.0073214,0.467334,8.004037,-11.023958,2.667835,-0.5614522,-0.27140146,-0.35999447,-0.6939141,-4.7080483,1.2654958,0.14478546,-2.4233775,4.429846,0.20672043,0
0.34000000000000014,11.225282945744052,-4.743038690298056,5.999999287309657,-0.1005890263780449,10.255671,-5.522754,6.0073214,0.467334,7.9573917,-11.0111885,2.669128,-0.5559064,-0.2485405,-0.36333418,-0.7051128,-4.6214604,1.2890913,0.11409327,-2.7851148,4.674689,0.19164068,0
0.35000000000000014,11.225282945744052,-4.743038690298056,5.999999287309657,-0.1005890263780449,10.255671,-5.522754,6.0073214,0.467334,7.9115973,-10.998159,2.6701248,-0.55000633,-0.22375035,-0.3658767,-0.71663326,-4.538046,1.3173596,0.08556697,-3.0904322,4.881361,0.17730087,0
0.36000000000000015,12.443225689336465,-4.75838453925576,5.999999103011906,-0.18811897919868495,11.287341,-5.3590183,6.037172,0.15284625,7.8666186,-10.984824,2.6708472,-0.54366493,-0.19729485,-0.36764663,-0.728244,-4.458345,1.3503911,0.059258394,-3.3481305,5.055812,0.16366473,0
0.37000000000000016,12.443225689336465,-4.75838453925576,5.999999103011906,-0.18811897919868495,11.287341,-5.3590183,6.037172,0.15284625,7.822457,-10.971115,2.6713574,-0.53682107,-0.16939798,-0.36866292,-0.73974,-4.3747005,1.392319,0.04316087,-3.568016,5.203074,0.1464026,0
0.38000000000000017,12.443225689336465,-4.75838453925576,5.999999103011906,-0.18811897919868495,11.287341,-5.3590183,6.037172,0.15284625,7.779106,-10.956959,2.6717184,-0.52942795,-0.14025804,-0.3689427,-0.7509429,-4.2963266,1.4395267,0.029366529,-3.7536085,5.327376,0.12998754,0
0.3900000000000002,12.443225689336465,-4.75838453925576,5.999999103011906,-0.18811897919868495,11.287341,-5.3590183,6.037172,0.15284625,7.7365103,-10.942306,2.6719522,-0.52144253,-0.11005884,-0.3685042,-0.76170176,-4.2237673,1.4919217,0.017684115,-3.9102564,5.4322977,0.11437795,0
0.4000000000000002,13.913652490283484,-3.997935472148818,5.999998944807835,-0.5573259218918744,11.874759,-5.0537405,6.012825,0.24162564,7.6946087,-10.927103,2.6720786,-0.5128335,-0.07896541,-0.36736473,-0.771887,-4.157533,1.5493544,0.007858726,-4.0424743,5.5208597,0.09953435,0
0.4100000000000002,13.913652490283484,-3.997935472148818,5.999998944807835,-0.5573259218918744,11.874759,-5.0537405,6.012825,0.24162564,7.653372,-10.911265,2.6721678,-0.5035957,-0.047265656,-0.36578166,-0.78125614,-4.0910625,1.6189852,0.010183291,-4.0354156,5.5956664,0.06730201,0
0.4200000000000002,13.913652490283484,-3.997935472148818,5.999998944807835,-0.5573259218918744,11.874759,-5.0537405,6.012825,0.24162564,7.6127596,-10.894706,2.6722867,-0.49375424,-0.015199954,-0.3639696,-0.78962135,-4.0325727,1.693777,0.013753664,-4.0294604,5.658803,0.036651336,0
0.4300000000000002,13.913652490283484,-3.997935472148818,5.999998944807835,-0.5573259218918744,11.874759,-5.0537405,6.012825,0.24162564,7.5726914,-10.877374,2.6724455,-0.48332903,0.017154064,-0.36188588,-0.7969551,-3.982383,1.7734432,0.018054329,-4.024437,5.7120886,0.0075047156,0
0.4400000000000002,13.913652490283484,-3.997935472148818,5.999998944807835,-0.5573259218918744,13.086065,-4.283246,5.7918878,0.20411286,7.5330825,-10.8592205,2.6726487,-0.47233897,0.04972258,-0.3594951,-0.8032353,-3.9407709,1.8576573,0.022560181,-4.0202003,5.757061,-0.020211682,1
0.45000000000000023,13.913652490283484,-3.997935472148818,5.999998944807835,-0.5573259218918744,13.086065,-4.283246,5.7918878,0.20411286,7.4938354,-10.840231,2.6728652,-0.4607493,0.08238791,-0.3566424,-0.80853486,-3.9099233,1.9407929,0.02066204,-4.0612636,5.7624636,-0.009204012,1
0.46000000000000024,13.913652490283484,-3.997935472148818,5.999998944807835,-0.5573259218918744,13.086065,-4.283246,5.7918878,0.20411286,7.454855,-10.820392,2.6730592,-0.4485196,0.11503885,-0.35320988,-0.8129201,-3.8875587,2.02745,0.017998992,-4.095921,5.767025,0.0012634958,1
0.47000000000000025,13.913652490283484,-3.997935472148818,5.999998944807835,-0.5573259218918744,13.086065,-4.283246,5.7918878,0.20411286,7.4160547,-10.799671,2.6732209,-0.43566194,0.14761645,-0.34922135,-0.8163655,-3.8738298,2.1171865,0.014115235,-4.125172,5.770876,0.011217364,1
0.48000000000000026,14.72937623134551,-2.4163274655955544,5.999976050622191,-0.6833129546784911,14.37201,-3.2232437,5.5765734,-0.016815063,7.377348,-10.778039,2.6733358,-0.42219076,0.1800645,-0.34469864,-0.81884956,-3.8688397,2.209541,0.008554342,-4.14986,5.774127,0.020682791,1
0.49000000000000027,14.72937623134551,-2.4163274655955544,5.999976050622191,-0.6833129546784911,14.37201,-3.2232437,5.5765734,-0.016815063,7.338646,-10.755425,2.6734293,-0.40825862,0.21209237,-0.33997104,-0.82022035,-3.872992,2.313332,0.009739666,-4.0053477,5.7433257,0.018842742,1
0.5000000000000002,14.72937623134551,-2.4163274655955544,5.999976050622191,-0.6833129546784911,14.37201,-3.2232437,5.5765734,-0.016815063,7.299855,-10.731765,2.6735206,-0.3940217,0.24347562,-0.3353118,-0.8203856,-3.886617,2.419011,0.008044795,-3.883372,5.717327,0.017093001,1
0.5100000000000002,14.72937623134551,-2.4163274655955544,5.999976050622191,-0.6833129546784911,14.37201,-3.2232437,5.5765734,-0.016815063,7.2608814,-10.707041,2.6735785,-0.37949717,0.27425167,-0.33066294,-0.8194083,-3.909482,2.526124,0.0029598894,-3.780419,5.6953816,0.015429126,1
0.5200000000000002,15.3378820808833,-0.37755372460265596,3.054619397517096,-0.837003379821169,14.920068,-1.565012,5.229183,0.063837245,7.2216344,-10.68124,2.6735666,-0.36469862,0.30444747,-0.3259751,-0.8173414,-3.941339,2.6342194,-0.0059857974,-3.6935215,5.676859,0.013846908,0
0.5300000000000002,15.3378820808833,-0.37755372460265596,3.054619397517096,-0.837003379821169,14.920068,-1.565012,5.229183,0.063837245,7.1820116,-10.65432,2.673473,-0.35041657,0.3328907,-0.321752,-0.81416684,-3.9845521,2.7501645,-0.013495336,-3.1762502,5.2680135,-0.027904555,0
0.5400000000000003,15.3378820808833,-0.37755372460265596,3.054619397517096,-0.837003379821169,14.920068,-1.565012,5.229183,0.063837245,7.141915,-10.626237,2.6732805,-0.33736193,0.358718,-0.3184326,-0.8100055,-4.036042,2.8663611,-0.025771745,-2.7396734,4.9228992,-0.06760729,0
0.5500000000000003,15.3378820808833,-0.37755372460265596,3.054619397517096,-0.837003379821169,14.920068,-1.565012,5.229183,0.063837245,7.1012664,-10.5969925,2.672941,-0.32541928,0.38235754,-0.31588045,-0.80506176,-4.094805,2.9825928,-0.04289784,-2.3712006,4.6315846,-0.10536177,0
0.5600000000000003,14.6324067922405,1.8452361740549894,-1.6979810113481963,-0.7906944529456158,15.989191,0.28799048,0.746862,0.007049993,7.059997,-10.566586,2.672406,-0.31447366,0.40416476,-0.31397128,-0.7994867,-4.1599817,3.0987084,-0.06490908,-2.0602064,4.385685,-0.14126363,0
0.5700000000000003,14.6324067922405,1.8452361740549894,-1.6979810113481963,-0.7906944529456158,15.989191,0.28799048,0.746862,0.007049993,7.018045,-10.535015,2.6716287,-0.30520955,0.42288235,-0.31262565,-0.7939034,-4.230795,3.214693,-0.09165639,-1.525157,3.5108972,-0.16646953,0
0.5800000000000003,14.6324067922405,1.8452361740549894,-1.6979810113481963,-0.7906944529456158,15.989191,0.28799048,0.746862,0.007049993,6.9753747,-10.502307,2.67055,-0.29834542,0.4373766,-0.31190267,-0.7889285,-4.3033524,3.326347,-0.124963164,-1.0173277,2.7162883,-0.19547099,0
0.5900000000000003,14.6324067922405,1.8452361740549894,-1.6979810113481963,-0.7906944529456158,15.989191,0.28799048,0.746862,0.007049993,6.93197,-10.4684925,2.669116,-0.29374397,0.4481673,-0.3118325,-0.7846151,-4.3780584,3.436507,-0.16229028,-0.57096064,2.0278401,-0.22467878,0
0.6000000000000003,14.734630783359739,3.293242187933348,-5.500664389217653,-0.45488886332157286,15.144848,1.8673645,-1.6224768,0.26844347,6.887807,-10.433577,2.6672957,-0.29112697,0.4558619,-0.31234264,-0.78094614,-4.4547725,3.5466566,-0.2021489,-0.1942144,1.4467492,-0.25245333,0
0.6100000000000003,14.734630783359739,3.293242187933348,-5.500664389217653,-0.45488886332157286,15.144848,1.8673645,-1.6224768,0.26844347,6.8428583,-10.397541,2.6650753,-0.29085508,0.45971078,-0.31333616,-0.7783891,-4.5345206,3.6596663,-0.24245554,0.3236618,0.38903615,-0.26002675,0
0.6200000000000003,14.734630783359739,3.293242187933348,-5.500664389217653,-0.45488886332157286,15.144848,1.8673645,-1.6224768,0.26844347,6.797121,-10.360388,2.6624405,-0.29330486,0.45898703,-0.3147886,-0.7773102,-4.6129484,3.7711167,-0.28453115,0.78660786,-0.52954257,-0.2695887,0
0.6300000000000003,14.734630783359739,3.293242187933348,-5.500664389217653,-0.45488886332157286,15.144848,1.8673645,-1.6224768,0.26844347,6.750603,-10.322117,2.6593857,-0.2980897,0.45435572,-0.31662688,-0.77746433,-4.6903324,3.8831394,-0.32629955,1.1773726,-1.3048615,-0.27868146,0
0.6400000000000003,14.734630783359739,3.293242187933348,-5.500664389217653,-0.45488886332157286,14.263208,3.2912521,-4.2997684,0.418356,6.7033215,-10.282722,2.6559188,-0.30483043,0.44639316,-0.3187539,-0.77859324,-4.7657433,3.995883,-0.366847,1.5072118,-1.9592628,-0.28732803,0
0.6500000000000004,14.734630783359739,3.293242187933348,-5.500664389217653,-0.45488886332157286,14.263208,3.2912521,-4.2997684,0.418356,6.655298,-10.242197,2.6520557,-0.31319314,0.43556872,-0.32107648,-0.78044844,-4.8383703,4.1094246,-0.4054204,1.7856256,-2.5116038,-0.2955503,0
0.6600000000000004,14.734630783359739,3.293242187933348,-5.500664389217653,-0.45488886332157286,14.263208,3.2912521,-4.2997684,0.418356,6.606566,-10.200531,2.6478193,-0.3228855,0.42226928,-0.32350877,-0.78279984,-4.907495,4.223763,-0.44141164,2.020633,-2.9778016,-0.30336908,0
0.6700000000000004,14.734630783359739,3.293242187933348,-5.500664389217653,-0.45488886332157286,14.263208,3.2912521,-4.2997684,0.418356,6.5571623,-10.157719,2.643238,-0.3336527,0.40681756,-0.32597375,-0.78544027,-4.9724746,4.3388243,-0.47434258,2.219002,-3.3712904,-0.3108042,0
0.6800000000000004,14.550939228019722,3.7859427229570026,-5.999997870030644,-0.4055419716707368,14.955664,3.4735525,-5.358613,0.27381393,6.5071325,-10.113752,2.6383445,-0.34527308,0.38948575,-0.32840374,-0.7881867,-5.0327296,4.4544644,-0.5038514,2.3864448,-3.7034097,-0.3178745,1
0.6900000000000004,14.550939228019722,3.7859427229570026,-5.999997870030644,-0.4055419716707368,14.955664,3.4735525,-5.358613,0.27381393,6.456522,-10.068619,2.6331792,-0.3574921,0.37049624,-0.33085194,-0.7908659,-5.0885596,4.5722194,-0.52860045,2.556,-3.9615245,-0.28884017,1
0.7000000000000004,14.550939228019722,3.7859427229570026,-5.999997870030644,-0.4055419716707368,14.955664,3.4735525,-5.358613,0.27381393,6.4053817,-10.022307,2.627786,-0.3700818,0.35003635,-0.33336097,-0.7933375,-5.1385703,4.690114,-0.54948056,2.699126,-4.1793785,-0.2612306,1
0.7100000000000004,14.550939228019722,3.7859427229570026,-5.999997870030644,-0.4055419716707368,14.955664,3.4735525,-5.358613,0.27381393,6.353772,-9.974817,2.6222034,-0.38289997,0.32827654,-0.3358622,-0.79549897,-5.182318,4.807866,-0.56644297,2.8199406,-4.363252,-0.23497581,1
0.7200000000000004,14.977922985486936,3.473232104591976,-5.999995860161123,-0.4071057089385643,14.776352,3.2754965,-5.616875,0.16211145,6.3017583,-9.926151,2.6164706,-0.39582425,0.30536693,-0.33829707,-0.79726356,-5.219411,4.9251513,-0.5795099,2.9219205,-4.518446,-0.21000937,1
0.7300000000000004,14.977922985486936,3.473232104591976,-5.999995860161123,-0.4071057089385643,14.776352,3.2754965,-5.616875,0.16211145,6.24941,-9.876324,2.6106212,-0.40877175,0.2813943,-0.34050673,-0.79861003,-5.2491465,5.0402107,-0.5898258,2.977093,-4.6897173,-0.1917493,1
0.7400000000000004,14.977922985486936,3.473232104591976,-5.999995860161123,-0.4071057089385643,14.776352,3.2754965,-5.616875,0.16211145,6.1968,-9.825351,2.6046872,-0.4216723,0.25644168,-0.34235957,-0.7995123,-5.271686,5.1540365,-0.59646887,3.0236652,-4.8342786,-0.17438525,1
0.7500000000000004,14.977922985486936,3.473232104591976,-5.999995860161123,-0.4071057089385643,14.776352,3.2754965,-5.616875,0.16211145,6.1440015,-9.773249,2.598704,-0.43444493,0.23062992,-0.3438469,-0.7998979,-5.2867947,5.2661867,-0.5995825,3.0629778,-4.9562955,-0.15787327,1
0.7600000000000005,14.77758760846958,2.593087569718419,-5.613117814329343,-0.5309699897468018,15.059446,1.6789168,-4.3789396,-0.42294037,6.09109,-9.720035,2.592707,-0.4470191,0.2040675,-0.34496197,-0.7997071,-5.2942843,5.376212,-0.5993643,3.0961611,-5.059284,-0.14217153,0
0.7700000000000005,14.77758760846958,2.593087569718419,-5.613117814329343,-0.5309699897468018,15.059446,1.6789168,-4.3789396,-0.42294037,6.0381427,-9.665733,2.5867276,-0.45934933,0.17700681,-0.34546605,-0.79894924,-5.294028,5.483662,-0.5960443,3.0176353,-5.1456847,-0.16125,0
0.7800000000000005,14.77758760846958,2.593087569718419,-5.613117814329343,-0.5309699897468018,15.059446,1.6789168,-4.3789396,-0.42294037,5.985236,-9.610372,2.5807958,-0.47141805,0.14966904,-0.34517518,-0.7976328,-5.2860293,5.588038,-0.5898691,2.951358,-5.2186084,-0.17939225,0
0.7900000000000005,14.77758760846958,2.593087569718419,-5.613117814329343,-0.5309699897468018,15.059446,1.6789168,-4.3789396,-0.42294037,5.932448,-9.553985,2.5749388,-0.4832033,0.12210331,-0.34415957,-0.7957131,-5.270353,5.6888556,-0.5810969,2.8954196,-5.280158,-0.19664428,0
0.8000000000000005,14.377727559999693,1.3594279617725678,-2.4051139837724937,-0.6791032556534592,14.485708,0.8172087,-2.2818365,-0.5160975,5.879855,-9.496609,2.5691814,-0.49468282,0.094354734,-0.3424799,-0.7931541,-5.2470894,5.7856536,-0.5700161,2.8482075,-5.3321075,-0.21304972,1
0.8100000000000005,14.377727559999693,1.3594279617725678,-2.4051139837724937,-0.6791032556534592,14.485708,0.8172087,-2.2818365,-0.5160975,5.827529,-9.438296,2.5635343,-0.50533164,0.067877,-0.340301,-0.7900809,-5.217042,5.8762217,-0.55915517,2.531493,-4.8564,-0.22792035,1
0.8200000000000005,14.377727559999693,1.3594279617725678,-2.4051139837724937,-0.6791032556534592,14.485708,0.8172087,-2.2818365,-0.5160975,5.7755365,-9.3791,2.5580034,-0.51481193,0.04383658,-0.33781418,-0.78672016,-5.1804113,5.962434,-0.54678017,2.2641697,-4.4548793,-0.24206127,1
0.8300000000000005,14.377727559999693,1.3594279617725678,-2.4051139837724937,-0.6791032556534592,14.485708,0.8172087,-2.2818365,-0.5160975,5.7239404,-9.319061,2.5526025,-0.52334434,0.021877155,-0.33509478,-0.78316265,-5.137927,6.0443892,-0.5332641,2.038534,-4.115977,-0.25550833,1
0.8400000000000005,14.377727559999693,1.3594279617725678,-2.4051139837724937,-0.6791032556534592,13.9617405,-0.71604097,-0.25513405,-0.100578055,5.672796,-9.2582245,2.5473413,-0.53110445,0.001691577,-0.3321984,-0.7794675,-5.0902095,6.122202,-0.5188983,1.8480843,-3.8299272,-0.26829553,0
0.8500000000000005,14.377727559999693,1.3594279617725678,-2.4051139837724937,-0.6791032556534592,13.9617405,-0.71604097,-0.25513405,-0.100578055,5.6221504,-9.196634,2.5422225,-0.5382622,-0.01713105,-0.3293081,-0.77558804,-5.0381656,6.195438,-0.50476205,1.7718697,-3.6077383,-0.28845397,0
0.8600000000000005,14.377727559999693,1.3594279617725678,-2.4051139837724937,-0.6791032556534592,13.9617405,-0.71604097,-0.25513405,-0.100578055,5.572047,-9.13433,2.5372472,-0.5449464,-0.034933113,-0.32656342,-0.77147245,-4.981803,6.264789,-0.49024308,1.707542,-3.4201987,-0.30762324,0
0.8700000000000006,14.377727559999693,1.3594279617725678,-2.4051139837724937,-0.6791032556534592,13.9617405,-0.71604097,-0.25513405,-0.100578055,5.5225286,-9.071351,2.5324183,-0.5512304,-0.051865127,-0.3239433,-0.767148,-4.921411,6.330354,-0.47554398,1.6532464,-3.2619057,-0.32585186,0
0.8800000000000006,13.555216223045942,0.132622873835826,0.2780023690551024,-0.6906238125596498,13.880609,-0.99799544,1.3518564,0.04659402,5.473633,-9.007735,2.5277364,-0.5571735,-0.06805467,-0.321428,-0.762634,-4.857242,6.3922176,-0.46083874,1.6074185,-3.1282978,-0.343186,0
0.8900000000000006,13.555216223045942,0.132622873835826,0.2780023690551024,-0.6906238125596498,13.880609,-0.99799544,1.3518564,0.04659402,5.425377,-8.943536,2.5231686,-0.56252354,-0.08251852,-0.31923056,-0.7581887,-4.7934403,6.447174,-0.4527222,1.3775146,-2.5970511,-0.36023486,0
0.9000000000000006,13.555216223045942,0.132622873835826,0.2780023690551024,-0.6906238125596498,13.880609,-0.99799544,1.3518564,0.04659402,5.377774,-8.878802,2.5186808,-0.5671184,-0.09448999,-0.31754127,-0.75406647,-4.7268233,6.499179,-0.44484577,1.1834565,-2.1486552,-0.3764471,0
0.9100000000000006,13.555216223045942,0.132622873835826,0.2780023690551024,-0.6906238125596498,13.880609,-0.99799544,1.3518564,0.04659402,5.3308487,-8.8135605,2.5142705,-0.5711134,-0.104360126,-0.3163061,-0.7502594,-4.6578813,6.5487065,-0.4372684,1.0196545,-1.7701896,-0.39186385,0
0.9200000000000006,12.785602392667299,-1.0843615386982632,3.590318129374469,-0.6185120336131277,13.3948555,-2.395809,3.7746546,-0.013530057,5.284623,-8.747835,2.5099347,-0.57463,-0.11245861,-0.31547275,-0.7467468,-4.5870137,6.5961704,-0.4300173,0.8813898,-1.4507484,-0.4065241,0
0.9300000000000006,12.785602392667299,-1.0843615386982632,3.590318129374469,-0.6185120336131277,13.3948555,-2.395809,3.7746546,-0.013530057,5.2390933,-8.681656,2.5056396,-0.5773981,-0.11779792,-0.31539345,-0.7438162,-4.5187063,6.639398,-0.42906007,0.5750352,-0.66451967,-0.41692638,0
0.9400000000000006,12.785602392667299,-1.0843615386982632,3.590318129374469,-0.6185120336131277,13.3948555,-2.395809,3.7746546,-0.013530057,5.1942515,-8.615049,2.5013525,-0.5792132,-0.11961414,-0.31635088,-0.7417056,-4.44948,6.6818194,-0.42839128,0.3164331,-0.0009120554,-0.42681825,0
0.9500000000000006,12.785602392667299,-1.0843615386982632,3.590318129374469,-0.6185120336131277,13.3948555,-2.395809,3.7746546,-0.013530057,5.1501045,-8.548019,2.497071,-0.5802351,-0.11846079,-0.3181965,-0.74030113,-4.379869,6.724195,-0.4279734,0.098138794,0.5591982,-0.4362247,0
0.9600000000000006,12.140902193679725,-2.1972612095474995,5.099463480980377,-0.4646411578242956,12.801034,-2.1696804,4.4556355,0.014597988,5.106654,-8.480563,2.4927924,-0.5805819,-0.114801146,-0.32079437,-0.7394842,-4.3103175,6.7671723,-0.42777482,-0.08613132,1.0319525,-0.44516957,1
0.9700000000000006,12.140902193679725,-2.1972612095474995,5.099463480980377,-0.4646411578242956,12.801034,-2.1696804,4.4556355,0.014597988,5.0638976,-8.412671,2.4885154,-0.58022076,-0.108540274,-0.323893,-0.7393624,-4.2411423,6.811365,-0.42764986,-0.4109274,1.5659623,-0.42260864,1
0.9800000000000006,12.140902193679725,-2.1972612095474995,5.099463480980377,-0.4646411578242956,12.801034,-2.1696804,4.4556355,0.014597988,5.0218277,-8.34433,2.484239,-0.57910395,-0.09962437,-0.32727706,-0.74000263,-4.1729198,6.857282,-0.4276506,-0.68510795,2.0166714,-0.40115476,1
0.9900000000000007,12.140902193679725,-2.1972612095474995,5.099463480980377,-0.4646411578242956,12.801034,-2.1696804,4.4556355,0.014597988,4.980434,-8.275518,2.4799623,-0.57728904,-0.088466555,-0.33087936,-0.74123573,-4.106129,6.905416,-0.42772967,-0.91655844,2.3970752,-0.38075367,1
1.0000000000000007,11.49310046456408,-2.909073883712114,5.400956735913511,-0.4526512857960162,13.006349,-3.5796955,3.9320772,0.10009189,4.9396987,-8.206214,2.4756844,-0.5748189,-0.0754153,-0.33463812,-0.74290884,-4.041196,6.9561706,-0.42788392,-1.1119367,2.7181408,-0.36135364,0
1.0100000000000007,11.49310046456408,-2.909073883712114,5.400956735913511,-0.4526512857960162,13.006349,-3.5796955,3.9320772,0.10009189,4.8995695,-8.136414,2.4713542,-0.57166076,-0.0602948,-0.3384975,-0.7449755,-3.9849236,7.0043964,-0.4381441,-1.3920918,3.1365945,-0.36583364,0
1.0200000000000007,11.49310046456408,-2.909073883712114,5.400956735913511,-0.4526512857960162,13.006349,-3.5796955,3.9320772,0.10009189,4.859991,-8.066115,2.4669209,-0.56777555,-0.042978648,-0.34239787,-0.7473607,-3.9311116,7.055606,-0.44855353,-1.6285706,3.4897814,-0.37009382,0
1.0300000000000007,11.49310046456408,-2.909073883712114,5.400956735913511,-0.4526512857960162,13.006349,-3.5796955,3.9320772,0.10009189,4.820937,-7.9952903,2.4623823,-0.56318486,-0.023807872,-0.3462807,-0.7498975,-3.880189,7.110076,-0.45920432,-1.8281826,3.7878814,-0.37414494,0
1.0400000000000007,11.49310046456408,-2.909073883712114,5.400956735913511,-0.4526512857960162,12.069392,-3.2962005,4.726854,0.40377918,4.7823763,-7.923903,2.4577355,-0.5579059,-0.003074604,-0.35009363,-0.7524404,-3.8325443,7.1680055,-0.4702332,-1.9966755,4.0394855,-0.37799728,1
1.0500000000000007,11.49310046456408,-2.909073883712114,5.400956735913511,-0.4526512857960162,12.069392,-3.2962005,4.726854,0.40377918,4.744285,-7.8519034,2.4529977,-0.5519701,0.01881562,-0.35352495,-0.75498056,-3.7863235,7.232594,-0.47746706,-2.1994128,4.1466756,-0.33963525,1
1.0600000000000007,11.49310046456408,-2.909073883712114,5.400956735913511,-0.4526512857960162,12.069392,-3.2962005,4.726854,0.40377918,4.7066355,-7.779239,2.4481838,-0.5453965,0.041516174,-0.35633236,-0.7575268,-3.7442582,7.300919,-0.48541903,-2.3705368,4.2371354,-0.3031557,1
1.0700000000000007,11.49310046456408,-2.909073883712114,5.400956735913511,-0.4526512857960162,12.069392,-3.2962005,4.726854,0.40377918,4.6693845,-7.705873,2.4432862,-0.5381853,0.06487321,-0.35856724,-0.7599856,-3.7066567,7.372896,-0.4942459,-2.514976,4.3134785,-0.2684662,1
1.0800000000000007,11.010943914814344,-3.215964896002207,3.351117296736656,-0.5009781482154505,12.112673,-3.1773973,2.565469,0.16054577,4.632486,-7.6317687,2.4382951,-0.53034085,0.08875343,-0.3602732,-0.7622763,-3.6737914,7.4484076,-0.5041303,-2.6368904,4.377908,-0.23547892,0
1.0900000000000007,11.010943914814344,-3.215964896002207,3.351117296736656,-0.5009781482154505,12.112673,-3.1773973,2.565469,0.16054577,4.595879,-7.5569267,2.4331608,-0.52216226,0.11264516,-0.3612141,-0.7643184,-3.6483338,7.5203676,-0.52288693,-2.7271855,4.2178183,-0.24850704,0
1.1000000000000008,11.010943914814344,-3.215964896002207,3.351117296736656,-0.5009781482154505,12.112673,-3.1773973,2.565469,0.16054577,4.5595036,-7.481351,2.427833,-0.51392126,0.13614284,-0.36121726,-0.7660762,-3.6275022,7.5951157,-0.5428815,-2.803399,4.0826917,-0.26089585,0
1.1100000000000008,11.010943914814344,-3.215964896002207,3.351117296736656,-0.5009781482154505,12.112673,-3.1773973,2.565469,0.16054577,4.523313,-7.4050155,2.4222987,-0.5055874,0.15928279,-0.3604019,-0.7675424,-3.611352,7.672349,-0.5641962,-2.8677273,3.9686363,-0.27267674,0
1.1200000000000008,10.373854166199424,-3.07972132264274,0.4412373381175478,-0.6640198573755557,12.102012,-2.876993,-1.1867131,0.14246881,4.4872603,-7.3278966,2.4165442,-0.49713567,0.18209472,-0.35886824,-0.7687079,-3.599924,7.7517843,-0.5869223,-2.9220235,3.8723652,-0.28387955,0
1.1300000000000008,10.373854166199424,-3.07972132264274,0.4412373381175478,-0.6640198573755557,12.102012,-2.876993,-1.1867131,0.14246881,4.451296,-7.249997,2.4105337,-0.48899615,0.20369038,-0.35616812,-0.7697648,-3.593606,7.828416,-0.615398,-2.9466743,3.337323,-0.30253312,0
1.1400000000000008,10.373854166199424,-3.07972132264274,0.4412373381175478,-0.6640198573755557,12.102012,-2.876993,-1.1867131,0.14246881,4.4153733,-7.1713243,2.4042323,-0.48153555,0.22337797,-0.35198006,-0.77093214,-3.5915797,7.906398,-0.6451253,-2.9674783,2.885718,-0.3202714,0
1.1500000000000008,10.373854166199424,-3.07972132264274,0.4412373381175478,-0.6640198573755557,12.102012,-2.876993,-1.1867131,0.14246881,4.37945,-7.0918665,2.3976278,-0.4746432,0.24144435,-0.34654588,-0.7722208,-3.5936534,7.985298,-0.6759144,-2.9850345,2.504539,-0.33713922,0
1.1600000000000008,10.229743055090252,-2.8108071765912253,-3.028301921408336,-0.6749879608769398,12.254433,-3.1880944,-2.9076066,-0.15125993,4.343486,-7.0116167,2.3907108,-0.46822056,0.25813118,-0.340064,-0.7736244,-3.5996614,8.064756,-0.70760053,-2.9998486,2.1828027,-0.35317934,0
1.1700000000000008,10.229743055090252,-2.8108071765912253,-3.028301921408336,-0.6749879608769398,12.254433,-3.1880944,-2.9076066,-0.15125993,4.307444,-6.9305763,2.3834689,-0.46268404,0.27252007,-0.33213618,-0.7754626,-3.6092906,8.143328,-0.74091214,-2.9705398,1.3701577,-0.36897057,0
1.1800000000000008,10.229743055090252,-2.8108071765912253,-3.028301921408336,-0.6749879608769398,12.254433,-3.1880944,-2.9076066,-0.15125993,4.2712884,-6.848751,2.375892,-0.45835894,0.28389895,-0.3224705,-0.7780242,-3.6222954,8.221652,-0.77451354,-2.9457874,0.6842432,-0.38398692,0
1.1900000000000008,10.229743055090252,-2.8108071765912253,-3.028301921408336,-0.6749879608769398,12.254433,-3.1880944,-2.9076066,-0.15125993,4.2349877,-6.766146,2.3679795,-0.4550336,0.29272816,-0.31135026,-0.78122723,-3.638337,8.299283,-0.80796,-2.9248805,0.10529576,-0.39826643,0
1.2000000000000008,10.197165765430734,-2.452663566157107,-5.996188457918249,-0.5134589296423668,12.733382,-3.3144999,-4.4696836,-0.38390264,4.1985126,-6.6827693,2.3597348,-0.45252067,0.2993907,-0.29900438,-0.7849757,-3.6571317,8.375846,-0.84087557,-2.9072206,-0.38336587,-0.41184524,0
1.2100000000000009,10.197165765430734,-2.452663566157107,-5.996188457918249,-0.5134589296423668,12.733382,-3.3144999,-4.4696836,-0.38390264,4.161837,-6.5986347,2.3511639,-0.4510338,0.30320117,-0.2852005,-0.7894925,-3.6783447,8.45075,-0.8731217,-2.8365717,-1.2586923,-0.41683146,0
1.2200000000000009,10.197165765430734,-2.452663566157107,-5.996188457918249,-0.5134589296423668,12.733382,-3.3144999,-4.4696836,-0.38390264,4.1249385,-6.51376,2.3422768,-0.4507025,0.30361855,-0.269759,-0.7949297,-3.7016497,8.523784,-0.9039874,-2.776908,-1.9975098,-0.42157298,0
1.2300000000000009,10.197165765430734,-2.452663566157107,-5.996188457918249,-0.5134589296423668,12.733382,-3.3144999,-4.4696836,-0.38390264,4.087798,-6.428167,2.3330905,-0.45125642,0.30112693,-0.25291657,-0.8010765,-3.7266622,8.59448,-0.9329961,-2.7265213,-2.6211073,-0.42608184,0
1.2400000000000009,10.197165765430734,-2.452663566157107,-5.996188457918249,-0.5134589296423668,12.558455,-3.0986364,-5.3854795,-0.3465702,4.0504007,-6.3418803,2.323625,-0.45246077,0.29612973,-0.2348673,-0.80772763,-3.7530503,8.662413,-0.9597812,-2.683968,-3.1474535,-0.43036944,0
1.2500000000000009,10.197165765430734,-2.452663566157107,-5.996188457918249,-0.5134589296423668,12.558455,-3.0986364,-5.3854795,-0.3465702,4.0127335,-6.25493,2.3139038,-0.454114,0.28896582,-0.21577322,-0.8146909,-3.780524,8.727182,-0.98407793,-2.6480303,-3.591715,-0.43444666,0
1.260000000000001,10.197165765430734,-2.452663566157107,-5.996188457918249,-0.5134589296423668,12.558455,-3.0986364,-5.3854795,-0.3465702,3.9747875,-6.1673493,2.3039527,-0.45604503,0.27992174,-0.19577205,-0.8217908,-3.8088243,8.78841,-1.005714,-2.617679,-3.9666934,-0.43832383,0
1.270000000000001,10.197165765430734,-2.452663566157107,-5.996188457918249,-0.5134589296423668,12.558455,-3.0986364,-5.3854795,-0.3465702,3.9365554,-6.079175,2.293799,-0.45810974,0.26924148,-0.17498267,-0.82887006,-3.8377192,8.84574,-1.0246013,-2.5920453,-4.283193,-0.44201073,0
1.280000000000001,10.532497000813448,-2.1402807620511477,-5.838615012670284,-0.2620394111424264,12.453168,-3.1605363,-5.349164,-0.10445795,3.898032,-5.9904485,2.2834702,-0.46018758,0.2571343,-0.15350917,-0.8357896,-3.8669958,8.898835,-1.0407265,-2.5703962,-4.550334,-0.44551668,0
1.290000000000001,10.532497000813448,-2.1402807620511477,-5.838615012670284,-0.2620394111424264,12.453168,-3.1605363,-5.349164,-0.10445795,3.8592098,-5.901205,2.2730074,-0.46217576,0.24377169,-0.13158587,-0.8424096,-3.8974242,8.948981,-1.0513601,-2.5033505,-4.7512746,-0.4365134,0
1.300000000000001,10.532497000813448,-2.1402807620511477,-5.838615012670284,-0.2620394111424264,12.453168,-3.1605363,-5.349164,-0.10445795,3.8200834,-5.811486,2.262452,-0.46398917,0.2293057,-0.1094106,-0.8486237,-3.927831,8.994165,-1.0593234,-2.4467506,-4.9208746,-0.42795187,0
1.310000000000001,10.532497000813448,-2.1402807620511477,-5.838615012670284,-0.2620394111424264,12.453168,-3.1605363,-5.349164,-0.10445795,3.7806542,-5.72134,2.2518296,-0.4655605,0.2138785,-0.087020956,-0.85436326,-3.9580152,9.034152,-1.0647918,-2.3989697,-5.064022,-0.4198105,0
1.320000000000001,10.6573850843078,-1.7549669127124314,-5.002977943263587,0.10591371059967658,12.92203,-2.480217,-5.472944,0.055858,3.7409248,-5.6308217,2.2411642,-0.46683538,0.19761446,-0.06445249,-0.859569,-3.9877932,9.068728,-1.0679796,-2.3586342,-5.1848426,-0.41206864,0
1.330000000000001,10.6573850843078,-1.7549669127124314,-5.002977943263587,0.10591371059967658,12.92203,-2.480217,-5.472944,0.055858,3.7008986,-5.5399833,2.2304826,-0.467745,0.18083733,-0.042037368,-0.8641441,-4.0173435,9.098064,-1.0679914,-2.2643995,-5.1565437,-0.38665107,0
1.340000000000001,10.6573850843078,-1.7549669127124314,-5.002977943263587,0.10591371059967658,12.92203,-2.480217,-5.472944,0.055858,3.6605804,-5.4488797,2.21981,-0.4682478,0.16382058,-0.02004645,-0.8680464,-4.0461674,9.121695,-1.0662619,-2.184867,-5.1326494,-0.36248076,0
1.350000000000001,10.6573850843078,-1.7549669127124314,-5.002977943263587,0.10591371059967658,12.92203,-2.480217,-5.472944,0.055858,3.6199784,-5.3575687,2.2091622,-0.46834022,0.1465975,0.0015719216,-0.8713,-4.074138,9.139609,-1.0631101,-2.1177428,-5.112475,-0.33949652,0
1.360000000000001,10.730334471237962,-1.3386017151750746,-0.6513345054546268,0.31565575444331717,12.990109,-1.5679176,-4.209115,0.13296124,3.579101,-5.2661076,2.1985517,-0.46802056,0.12919815,0.02286027,-0.8739231,-4.1011405,9.151809,-1.0588512,-2.0610917,-5.0954413,-0.31764013,0
1.370000000000001,10.730334471237962,-1.3386017151750746,-0.6513345054546268,0.31565575444331717,12.990109,-1.5679176,-4.209115,0.13296124,3.5379574,-5.1745515,2.1879938,-0.46735105,0.11309419,0.042906124,-0.87575763,-4.1273494,9.158438,-1.0528526,-1.950736,-4.404996,-0.28680205,0
1.380000000000001,10.730334471237962,-1.3386017151750746,-0.6513345054546268,0.31565575444331717,12.990109,-1.5679176,-4.209115,0.13296124,3.4965568,-5.0829563,2.177496,-0.4664685,0.099478506,0.060965795,-0.87680906,-4.152615,9.159875,-1.0466851,-1.8550905,-3.8196683,-0.25723925,0
1.390000000000001,10.730334471237962,-1.3386017151750746,-0.6513345054546268,0.31565575444331717,12.990109,-1.5679176,-4.209115,0.13296124,3.4549072,-4.99137,2.1670604,-0.46545362,0.087981306,0.0773421,-0.8772857,-4.1772227,9.156726,-1.0403961,-1.7744004,-3.3256145,-0.22912711,0
1.400000000000001,10.747073930154983,-0.958303184766244,1.9606108981517385,0.5240024456551257,13.086834,-1.387146,0.21886598,0.40820268,3.413014,-4.899836,2.1566875,-0.46435887,0.07828379,0.09229547,-0.87733907,-4.2013674,9.149494,-1.0342005,-1.7063246,-2.908602,-0.20239446,0
1.410000000000001,10.747073930154983,-0.958303184766244,1.9606108981517385,0.5240024456551257,13.086834,-1.387146,0.21886598,0.40820268,3.3708773,-4.808394,2.1463907,-0.46330386,0.07092939,0.105533205,-0.87702966,-4.2258134,9.138398,-1.0257665,-1.6140195,-2.1737921,-0.16897039,0
1.420000000000001,10.747073930154983,-0.958303184766244,1.9606108981517385,0.5240024456551257,13.086834,-1.387146,0.21886598,0.40820268,3.3284993,-4.717077,2.1361625,-0.46241236,0.06637879,0.11669853,-0.87644154,-4.249766,9.124552,-1.0199704,-1.512127,-1.5295508,-0.13501014,0
1.430000000000001,10.747073930154983,-0.958303184766244,1.9606108981517385,0.5240024456551257,13.086834,-1.387146,0.21886598,0.40820268,3.2858806,-4.6259108,2.1259897,-0.46169695,0.06422105,0.12605502,-0.8756834,-4.2740345,9.108385,-1.0146332,-1.4256893,-0.9852998,-0.10267218,0
1.440000000000001,10.747073930154983,-0.958303184766244,1.9606108981517385,0.5240024456551257,12.848854,-0.601608,3.3212047,0.8289519,3.2430165,-4.5349154,2.115868,-0.4611482,0.06408692,0.13388766,-0.87481946,-4.298887,9.090445,-1.0097271,-1.352759,-0.5259187,-0.071921065,0
1.450000000000001,10.747073930154983,-0.958303184766244,1.9606108981517385,0.5240024456551257,12.848854,-0.601608,3.3212047,0.8289519,3.1999002,-4.444106,2.1057932,-0.46074727,0.065663315,0.14043558,-0.8738867,-4.324539,9.071197,-1.005254,-1.2912226,-0.13817343,-0.042678934,0
1.460000000000001,10.747073930154983,-0.958303184766244,1.9606108981517385,0.5240024456551257,12.848854,-0.601608,3.3212047,0.8289519,3.1565225,-4.353494,2.0957613,-0.4604706,0.06868516,0.14589897,-0.87290466,-4.3511763,9.051033,-1.0012084,-1.2392979,0.18910688,-0.014871711,0
1.470000000000001,10.747073930154983,-0.958303184766244,1.9606108981517385,0.5240024456551257,12.848854,-0.601608,3.3212047,0.8289519,3.1128728,-4.2630873,2.0857677,-0.46029297,0.07292821,0.15044555,-0.8718818,-4.3789525,9.030284,-0.99758434,-1.195482,0.46535084,0.011570989,0
1.480000000000001,11.065884923659338,-0.8345967296240902,5.590392843841082,0.5593580754152476,12.972004,-0.016517144,4.4478545,0.6208565,3.0689394,-4.1728897,2.0758083,-0.4601895,0.078202784,0.15421589,-0.87081987,-4.4079986,9.009231,-0.9943784,-1.1585073,0.698517,0.03671616,0
1.490000000000001,11.065884923659338,-0.8345967296240902,5.590392843841082,0.5593580754152476,12.972004,-0.016517144,4.4478545,0.6208565,3.0247037,-4.082906,2.0658937,-0.4603601,0.08559035,0.15661524,-0.8696059,-4.439363,8.987543,-0.98859847,-1.1080357,1.4613849,0.062362347,0
1.500000000000001,11.065884923659338,-0.8345967296240902,5.590392843841082,0.5593580754152476,12.972004,-0.016517144,4.4478545,0.6208565,2.980146,-3.9931362,2.0560346,-0.46095136,0.09593475,0.15717314,-0.8681111,-4.4725285,8.966452,-0.9832569,-1.0654521,2.1052861,0.086750075,0
1.5100000000000011,11.065884923659338,-0.8345967296240902,5.590392843841082,0.5593580754152476,12.972004,-0.016517144,4.4478545,0.6208565,2.9352458,-3.9035723,2.0462267,-0.46185878,0.10876523,0.15616234,-0.8662966,-4.507854,8.946595,-0.978388,-1.0295206,2.6487727,0.109941095,0
1.5200000000000011,11.203505576476072,-0.654565092010196,5.470041041288556,0.6196688040294022,12.961263,0.044340163,5.2511735,0.41901726,2.88998,-3.8141985,2.0364652,-0.46298295,0.12368059,0.15380992,-0.86411357,-4.545627,8.928518,-0.97406286,-0.99919957,3.1075046,0.13199411,0
1.5300000000000011,11.203505576476072,-0.654565092010196,5.470041041288556,0.6196688040294022,12.961263,0.044340163,5.2511735,0.41901726,2.8443213,-3.7249956,2.0267496,-0.46422836,0.14026445,0.15026514,-0.86153245,-4.586572,8.912488,-0.9691229,-0.94553953,3.475931,0.15592444,0
1.5400000000000011,11.203505576476072,-0.654565092010196,5.470041041288556,0.6196688040294022,12.961263,0.044340163,5.2511735,0.41901726,2.7982388,-3.63594,2.0170796,-0.46551174,0.15816565,0.14565596,-0.8585258,-4.630365,8.899131,-0.96497685,-0.9002496,3.7869024,0.17868052,0
1.5500000000000012,11.203505576476072,-0.654565092010196,5.470041041288556,0.6196688040294022,12.961263,0.044340163,5.2511735,0.41901726,2.7517037,-3.5470028,2.0074465,-0.46676466,0.17715397,0.1401294,-0.85505015,-4.677097,8.888787,-0.9617881,-0.86202276,4.0493793,0.20031995,0
1.5600000000000012,11.742219076086732,-0.665583991096535,5.285762284951007,0.6051417128855869,11.930397,1.0134375,5.923262,1.2395805,2.7046864,-3.4581528,1.9978398,-0.46792743,0.19703123,0.13381025,-0.8510683,-4.7268205,8.881747,-0.95974773,-0.8297558,4.270924,0.22089751,0
1.5700000000000012,11.742219076086732,-0.665583991096535,5.285762284951007,0.6051417128855869,11.930397,1.0134375,5.923262,1.2395805,2.6571443,-3.3693569,1.9882706,-0.4689401,0.21756567,0.12684363,-0.8465642,-4.782085,8.878079,-0.9543187,-0.8042304,4.4291816,0.23975247,0
1.5800000000000012,11.742219076086732,-0.665583991096535,5.285762284951007,0.6051417128855869,11.930397,1.0134375,5.923262,1.2395805,2.6090338,-3.280578,1.9787476,-0.46975482,0.23856246,0.11935194,-0.8415303,-4.8404727,8.878306,-0.9505529,-0.7826824,4.562759,0.25768223,0
1.5900000000000012,11.742219076086732,-0.665583991096535,5.285762284951007,0.6051417128855869,11.930397,1.0134375,5.923262,1.2395805,2.5603244,-3.1917768,1.969253,-0.4703407,0.259912,0.111403316,-0.83595127,-4.901924,8.882569,-0.9486972,-0.7644916,4.675505,0.27473214,0
1.6000000000000012,11.487594063123112,-0.5197304496264243,1.3414437306101799,0.5818758606457813,13.46111,-0.97568387,1.7979509,0.9752393,2.5109856,-3.1029122,1.9597663,-0.470672,0.28151873,0.103056595,-0.8298158,-4.966359,8.890976,-0.9490067,-0.7491344,4.770669,0.29094544,0
1.6100000000000012,11.487594063123112,-0.5197304496264243,1.3414437306101799,0.5818758606457813,13.46111,-0.97568387,1.7979509,0.9752393,2.460995,-3.0139441,1.9502543,-0.4706001,0.30197176,0.095060445,-0.82359695,-5.0321813,8.903262,-0.9537756,-0.7132973,4.235883,0.30522147,0
1.6200000000000012,11.487594063123112,-0.5197304496264243,1.3414437306101799,0.5818758606457813,13.46111,-0.97568387,1.7979509,0.9752393,2.4103334,-2.9248345,1.9406826,-0.47006655,0.32018703,0.088020585,-0.81778353,-5.1004663,8.919227,-0.96089786,-0.6830546,3.784497,0.318797,0
1.6300000000000012,11.487594063123112,-0.5197304496264243,1.3414437306101799,0.5818758606457813,13.46111,-0.97568387,1.7979509,0.9752393,2.358978,-2.8355486,1.9310284,-0.46916416,0.33652487,0.081788704,-0.81237084,-5.170887,8.938411,-0.9702963,-0.65753424,3.403504,0.33170635,0
1.6400000000000012,11.487594063123112,-0.5197304496264243,1.3414437306101799,0.5818758606457813,13.067619,-0.95840913,-0.81938046,0.88859165,2.306909,-2.7460563,1.921269,-0.46796343,0.35128653,0.07623749,-0.80733865,-5.2431784,8.960426,-0.98188275,-0.6359992,3.0819263,0.34398225,0
1.6500000000000012,11.487594063123112,-0.5197304496264243,1.3414437306101799,0.5818758606457813,13.067619,-0.95840913,-0.81938046,0.88859165,2.2541087,-2.656331,1.9113835,-0.4665183,0.3647237,0.0712583,-0.80265766,-5.317126,8.984946,-0.9955666,-0.61782795,2.8104985,0.35565573,0
1.6600000000000013,11.487594063123112,-0.5197304496264243,1.3414437306101799,0.5818758606457813,13.067619,-0.95840913,-0.81938046,0.88859165,2.2005615,-2.5663495,1.9013509,-0.4648703,0.37704676,0.06675868,-0.7982947,-5.392554,9.011693,-1.01126,-0.6024955,2.5813994,0.3667564,0
1.6700000000000013,11.487594063123112,-0.5197304496264243,1.3414437306101799,0.5818758606457813,13.067619,-0.95840913,-0.81938046,0.88859165,2.146253,-2.4760904,1.8911517,-0.46305165,0.38843155,0.062660255,-0.79421514,-5.46932,9.040434,-1.0288814,-0.5895588,2.3880281,0.3773124,0
1.6800000000000013,11.983027115503294,-0.4903438189964311,-1.1794288235712014,0.5223131219473968,12.759583,-1.4715837,-3.1054893,1.0989372,2.0911708,-2.3855348,1.880767,-0.4610874,0.39902523,0.05889675,-0.7903849,-5.547305,9.07097,-1.0483567,-0.57864344,2.224813,0.38735038,0
1.6900000000000013,11.983027115503294,-0.4903438189964311,-1.1794288235712014,0.5223131219473968,12.759583,-1.4715837,-3.1054893,1.0989372,2.0352862,-2.2946587,1.870195,-0.4589529,0.4081515,0.055870563,-0.78718036,-5.6298084,9.104477,-1.0662744,-0.5647468,1.6939244,0.39397302,0
1.7000000000000013,11.983027115503294,-0.4903438189964311,-1.1794288235712014,0.5223131219473968,12.759583,-1.4715837,-3.1054893,1.0989372,1.9785713,-2.203441,1.8594362,-0.45664304,0.4152929,0.05389699,-0.7849229,-5.7132945,9.139223,-1.0857497,-0.5530342,1.2458274,0.4002707,0
1.7100000000000013,11.983027115503294,-0.4903438189964311,-1.1794288235712014,0.5223131219473968,12.759583,-1.4715837,-3.1054893,1.0989372,1.9210173,-2.1118712,1.8484759,-0.45419657,0.42077187,0.05280694,-0.78349715,-5.7976017,9.174776,-1.1064718,-0.5431626,0.8676105,0.40625936,0
1.7200000000000013,12.054109013863767,-0.2453832852167398,-5.575591384252193,0.42909025128324196,13.001005,-1.2833285,-5.4743886,0.80536157,1.8626167,-2.0199435,1.8373034,-0.45164016,0.4248555,0.05245769,-0.7827944,-5.882602,9.210782,-1.1281668,-0.53484315,0.54837596,0.41195413,0
1.7300000000000013,12.054109013863767,-0.2453832852167398,-5.575591384252193,0.42909025128324196,13.001005,-1.2833285,-5.4743886,0.80536157,1.8033607,-1.9276539,1.8259125,-0.44895142,0.42634386,0.053449932,-0.7834645,-5.9686747,9.24709,-1.1500866,-0.48944578,-0.4066416,0.412795,0
1.7400000000000013,12.054109013863767,-0.2453832852167398,-5.575591384252193,0.42909025128324196,13.001005,-1.2833285,-5.4743886,0.80536157,1.7432423,-1.8350036,1.8143014,-0.44610536,0.42428917,0.05624843,-0.7860056,-6.0550594,9.28279,-1.1720738,-0.45116723,-1.2127261,0.41359463,0
1.7500000000000013,12.054109013863767,-0.2453832852167398,-5.575591384252193,0.42909025128324196,13.001005,-1.2833285,-5.4743886,0.80536157,1.6822594,-1.7420025,1.8024728,-0.44310093,0.4192214,0.060558558,-0.79009336,-6.141481,9.3171625,-1.193494,-0.4188913,-1.8931041,0.414355,0
1.7600000000000013,12.801935386532865,-0.06915285646831956,-5.999993563320693,0.33489121291479845,12.729976,-0.767857,-5.913826,0.68021303,1.6204134,-1.6486671,1.7904352,-0.4399225,0.41157407,0.066130795,-0.7954254,-6.2276783,9.349596,-1.213827,-0.39167666,-2.4673789,0.41507807,1
1.7700000000000014,12.801935386532865,-0.06915285646831956,-5.999993563320693,0.33489121291479845,12.729976,-0.767857,-5.913826,0.68021303,1.5576835,-1.5550106,1.7782236,-0.43642762,0.40169024,0.07296692,-0.8017803,-6.3182087,9.381235,-1.2282158,-0.45017126,-3.0048702,0.4280883,1
1.7800000000000014,12.801935386532865,-0.06915285646831956,-5.999993563320693,0.33489121291479845,12.729976,-0.767857,-5.913826,0.68021303,1.4940517,-1.4610533,1.7658775,-0.43249097,0.38985223,0.08105517,-0.808948,-6.408001,9.4096985,-1.2406938,-0.4995602,-3.458538,0.44046012,1
1.7900000000000014,12.801935386532865,-0.06915285646831956,-5.999993563320693,0.33489121291479845,12.729976,-0.767857,-5.913826,0.68021303,1.4295269,-1.3668295,1.753417,-0.42811415,0.376309,0.09018111,-0.81668663,-6.496811,9.434478,-1.251031,-0.54126185,-3.8414547,0.45222488,1
1.8000000000000014,13.123618344849339,0.3342353485165495,-5.999997259708507,0.19215018520446264,13.619139,-0.18963009,-6.101621,0.33375302,1.3641199,-1.272378,1.7408646,-0.42329678,0.36127192,0.10016185,-0.8247848,-6.584377,9.455136,-1.2590823,-0.57647383,-4.1646543,0.4634123,1
1.8100000000000014,13.123618344849339,0.3342353485165495,-5.999997259708507,0.19215018520446264,13.619139,-0.18963009,-6.101621,0.33375302,1.2978146,-1.1777362,1.7282757,-0.41815254,0.34479144,0.1106794,-0.8330771,-6.676419,9.472437,-1.258317,-0.5160778,-4.450855,0.4570499,1
1.8200000000000014,13.123618344849339,0.3342353485165495,-5.999997259708507,0.19215018520446264,13.619139,-0.18963009,-6.101621,0.33375302,1.2305984,-1.0829467,1.7157072,-0.41277286,0.32692048,0.121470794,-0.8414193,-6.7664466,9.484645,-1.2549721,-0.46511513,-4.692426,0.4509997,1
1.8300000000000014,13.123618344849339,0.3342353485165495,-5.999997259708507,0.19215018520446264,13.619139,-0.18963009,-6.101621,0.33375302,1.1624938,-0.98806155,1.703185,-0.4071288,0.30783147,0.1324653,-0.8496698,-6.8540664,9.491537,-1.2490525,-0.42211178,-4.8963275,0.44524637,1
1.8400000000000014,13.123618344849339,0.3342353485165495,-5.999997259708507,0.19215018520446264,14.379178,0.23736271,-6.366521,0.40865365,1.0935267,-0.8931349,1.6907346,-0.40119806,0.28767446,0.14360179,-0.8577074,-6.938892,9.49293,-1.2406292,-0.3858246,-5.068433,0.43977535,0
1.8500000000000014,13.123618344849339,0.3342353485165495,-5.999997259708507,0.19215018520446264,14.379178,0.23736271,-6.366521,0.40865365,1.0237418,-0.79822177,1.6783609,-0.39503804,0.2664948,0.15465175,-0.8654526,-7.017566,9.488848,-1.2337862,-0.27353138,-5.2136755,0.42762432,0
1.8600000000000014,13.123618344849339,0.3342353485165495,-5.999997259708507,0.19215018520446264,14.379178,0.23736271,-6.366521,0.40865365,0.9531872,-0.70337677,1.6660665,-0.3886933,0.24434131,0.16542856,-0.87283915,-7.092775,9.479297,-1.2247804,-0.17875642,-5.336274,0.41606954,0
1.8700000000000014,13.123618344849339,0.3342353485165495,-5.999997259708507,0.19215018520446264,14.379178,0.23736271,-6.366521,0.40865365,0.8818996,-0.6086547,1.6538723,-0.3821329,0.22134194,0.17593946,-0.87978834,-7.164122,9.464277,-1.2137796,-0.09876669,-5.4397593,0.40508175,0
1.8800000000000014,13.518012006544357,0.7982421022289284,-4.961266154528548,0.058721846724070124,15.045247,1.9468558,-6.2258368,0.6875752,0.8099193,-0.51410997,1.6417971,-0.3753335,0.19760928,0.18618968,-0.88623285,-7.2312384,9.443814,-1.2009943,-0.03125481,-5.5271106,0.3946331,0
1.8900000000000015,13.518012006544357,0.7982421022289284,-4.961266154528548,0.058721846724070124,15.045247,1.9468558,-6.2258368,0.6875752,0.737281,-0.4198006,1.6298745,-0.36840963,0.17354135,0.1958676,-0.8920726,-7.2956686,9.417209,-1.1832917,0.098023534,-5.438835,0.37814987,0
1.9000000000000015,13.518012006544357,0.7982421022289284,-4.961266154528548,0.058721846724070124,15.045247,1.9468558,-6.2258368,0.6875752,0.66402304,-0.32578394,1.6181356,-0.36146644,0.14947146,0.20473385,-0.89726484,-7.3551373,9.385318,-1.1642765,0.207149,-5.3643336,0.36247545,0
1.9100000000000015,13.518012006544357,0.7982421022289284,-4.961266154528548,0.058721846724070124,15.045247,1.9468558,-6.2258368,0.6875752,0.5901961,-0.2321114,1.6065923,-0.35447553,0.12540351,0.21288912,-0.90183103,-7.4094353,9.348429,-1.1442224,0.2992631,-5.301457,0.34757018,0
1.9200000000000015,13.626304992201204,1.2783853980873725,-2.800535251742749,-0.18762060526673285,15.094452,2.2858207,-4.096696,0.243981,0.5158528,-0.13883162,1.5952536,-0.34741402,0.1013417,0.22041818,-0.9057865,-7.4583793,9.3068075,-1.1234034,0.37701797,-5.24839,0.33339632,0
1.9300000000000015,13.626304992201204,1.2783853980873725,-2.800535251742749,-0.18762060526673285,15.094452,2.2858207,-4.096696,0.243981,0.44104564,-0.045992352,1.5841308,-0.34050703,0.07800343,0.22692603,-0.90910673,-7.502189,9.260383,-1.1011328,0.5174214,-4.8666263,0.3078299,0
1.9400000000000015,13.626304992201204,1.2783853980873725,-2.800535251742749,-0.18762060526673285,15.094452,2.2858207,-4.096696,0.243981,0.36582774,0.04636246,1.5732319,-0.33395678,0.055965565,0.23212151,-0.91184443,-7.5405555,9.210007,-1.0785902,0.6359565,-4.544407,0.28351802,0
1.9500000000000015,13.626304992201204,1.2783853980873725,-2.800535251742749,-0.18762060526673285,15.094452,2.2858207,-4.096696,0.243981,0.29025277,0.13819604,1.5625592,-0.32771224,0.035039358,0.23620836,-0.914102,-7.573625,9.156211,-1.0559543,0.736028,-4.2724433,0.2603991,0
1.9600000000000015,13.486759237158202,1.6886436582319084,1.8778080371389074,-0.3472864452201409,15.656576,2.591098,0.08467769,-0.06032121,0.21437298,0.2294765,1.5521127,-0.32172748,0.015062211,0.23935665,-0.9159546,-7.601536,9.09945,-1.0333725,0.82051134,-4.0428977,0.23841465,0
1.9700000000000015,13.486759237158202,1.6886436582319084,1.8778080371389074,-0.3472864452201409,15.656576,2.591098,0.08467769,-0.06032121,0.13824035,0.32017937,1.5418851,-0.3164384,-0.0024464615,0.24096502,-0.9174947,-7.624263,9.0407915,-1.0121835,0.9556934,-3.1195636,0.2096741,0
1.9800000000000015,13.486759237158202,1.6886436582319084,1.8778080371389074,-0.3472864452201409,15.656576,2.591098,0.08467769,-0.06032121,0.061902218,0.41028655,1.5318687,-0.31221318,-0.016289074,0.24059208,-0.9188977,-7.6427655,8.9804535,-0.99109924,1.0698477,-2.3402297,0.18234392,0
1.9900000000000015,13.486759237158202,1.6886436582319084,1.8778080371389074,-0.3472864452201409,15.656576,2.591098,0.08467769,-0.06032121,-0.014603032,0.49978536,1.5220633,-0.30891123,-0.02703135,0.23857373,-0.92028564,-7.6577945,8.919225,-0.9699787,1.1662415,-1.6824373,0.15635478,0
2.0000000000000013,,,,,16.413214,2.6788595,2.3641787,-0.6632712,-0.09124397,0.5886702,1.5124699,-0.30640262,-0.03515369,0.23518309,-0.92172146,-7.6699944,8.857747,-0.94866186,1.2476349,-1.1272306,0.13164096,0
2.010000000000001,,,,,16.413214,2.6788595,2.3641787,-0.6632712,-0.16799513,0.6769418,1.5030904,-0.30478203,-0.040345054,0.23032932,-0.9232706,-7.679938,8.796671,-0.92715687,1.344249,-0.34341747,0.09755891,0
2.020000000000001,,,,,16.413214,2.6788595,2.3641787,-0.6632712,-0.2448375,0.7646069,1.4939287,-0.30411217,-0.042379566,0.22394757,-0.9249688,-7.6883526,8.736536,-0.9050586,1.425836,0.31815708,0.065149285,0
2.0300000000000007,,,,,16.413214,2.6788595,2.3641787,-0.6632712,-0.32175925,0.8516778,1.484992,-0.30423778,-0.04174667,0.21627407,-0.9267805,-7.695913,8.677932,-0.8821505,1.4947284,0.87655735,0.03433001,0
2.0400000000000005,,,,,16.413214,2.6788595,2.3641787,-0.6632712,-0.39875478,0.93817246,1.4762892,-0.3050223,-0.03885923,0.20750268,-0.9286517,-7.7031875,8.621362,-0.8582619,1.5528989,1.347874,0.005023033,0
2.0500000000000003,,,,,16.463953,2.387648,3.4314816,-1.0284353,-0.47582367,1.0241135,1.4678305,-0.30634704,-0.03406583,0.19779404,-0.9305206,-7.710655,8.567257,-0.83327186,1.6020129,1.7456886,-0.022845846,1
2.06,,,,,16.463953,2.387648,3.4314816,-1.0284353,-0.55297875,1.10947,1.4597658,-0.30812034,-0.0279105,0.18714401,-0.93234116,-7.7204914,8.504591,-0.77944726,1.7246003,2.00853,-0.07219042,1
2.07,,,,,16.463953,2.387648,3.4314816,-1.0284353,-0.630237,1.194219,1.4522465,-0.31027475,-0.020841964,0.17555638,-0.93406385,-7.731311,8.445836,-0.7241347,1.8280805,2.230378,-0.11911361,1
2.0799999999999996,,,,,16.463953,2.387648,3.4314816,-1.0284353,-0.70760906,1.2784016,1.4452881,-0.31274775,-0.013003891,0.16316637,-0.9356263,-7.743302,8.391378,-0.66733164,1.9154292,2.4176269,-0.1637343,1
2.0899999999999994,,,,,17.372265,1.682282,3.350111,-0.9054314,-0.78510755,1.3620626,1.4389049,-0.3154853,-0.004518114,0.1500895,-0.9369749,-7.756615,8.341559,-0.60908306,1.9891593,2.5756743,-0.20616543,1
2.099999999999999,,,,,17.372265,1.682282,3.350111,-0.9054314,-0.8627504,1.4452372,1.4331546,-0.31842288,0.004572968,0.13670008,-0.9380294,-7.7721934,8.294186,-0.54078,1.9413785,2.6964102,-0.24047862,1
2.109999999999999,,,,,17.372265,1.682282,3.350111,-0.9054314,-0.9405573,1.5279646,1.4280936,-0.3215042,0.014230749,0.12330287,-0.938738,-7.7894716,8.252162,-0.4712121,1.9010478,2.7983198,-0.27310804,1
2.1199999999999988,,,,,17.372265,1.682282,3.350111,-0.9054314,-1.0185462,1.610299,1.4237338,-0.32469773,0.024364429,0.109895915,-0.9390957,-7.8086023,8.215597,-0.40057012,1.8670051,2.8843396,-0.30413634,1
2.1299999999999986,,,,,17.435884,1.0379885,1.5587382,-0.84342086,-1.0967362,1.6922956,1.4200851,-0.32797664,0.034896594,0.096478604,-0.93909824,-7.829705,8.184585,-0.32905418,1.8382689,2.9569466,-0.3336421,1
2.1399999999999983,,,,,17.435884,1.0379885,1.5587382,-0.84342086,-1.1751479,1.7740095,1.4171581,-0.33123785,0.045173984,0.08353005,-0.93875635,-7.8529243,8.159064,-0.25625113,1.713463,2.738896,-0.3586571,1
2.149999999999998,,,,,17.435884,1.0379885,1.5587382,-0.84342086,-1.2538013,1.8554952,1.4149616,-0.3344159,0.05467783,0.071435824,-0.9381222,-7.8780427,8.138888,-0.18300174,1.6081198,2.5548503,-0.38244456,1
2.159999999999998,,,,,17.435884,1.0379885,1.5587382,-0.84342086,-1.3327147,1.9368044,1.413499,-0.337538,0.06352854,0.06006887,-0.93724275,-7.9048786,8.12373,-0.10949457,1.5192049,2.3995066,-0.40506482,1
2.1699999999999977,,,,,15.876057,0.6171519,-1.5332061,-0.7734438,-1.4119042,2.017986,1.412772,-0.34062484,0.07182785,0.04932093,-0.93615323,-7.9332757,8.113313,-0.03588467,1.4441569,2.2683885,-0.4265751,1
2.1799999999999975,,,,,15.876057,0.6171519,-1.5332061,-0.7734438,-1.4913718,2.0990887,1.4127045,-0.34361768,0.07856251,0.03968023,-0.93497604,-7.9603715,8.1078615,0.022347722,1.3150402,1.675553,-0.44359607,1
2.1899999999999973,,,,,15.876057,0.6171519,-1.5332061,-0.7734438,-1.5711144,2.1801548,1.4132187,-0.34649104,0.08293877,0.03153321,-0.93384725,-7.988217,8.105823,0.08053151,1.2060732,1.1751673,-0.4597818,1
