time-since-start [s],throttle_mpc,roll_mpc,pitch_mpc,yaw_mpc,throttle_nw,roll_nw,pitch_nw,yaw_nw,position_x [m],position_y [m],position_z [m],rotation_w [quaternion],rotation_x [quaternion],rotation_y [quaternion],rotation_z [quaternion],velocity_x [m/s],velocity_y [m/s],velocity_z [m/s],omega_x [rad/s],omega_y [rad/s],omega_z [rad/s],network_used
0.0,9.29530519580439,5.9999997057966485,-5.999999937751994,-5.176177755662401,5.6867204,-1.2889594,-2.8109212,0.83773637,18.397598,-10.56242,2.2446425,-0.114413664,0.4386944,-0.4379411,-0.7763146,-10.817858,-1.8552611,-1.2804508,0.6459881,0.08202584,0.5372745,0
0.01,9.29530519580439,5.9999997057966485,-5.999999937751994,-5.176177755662401,19.92995,-1.764239,-5.474006,0.6953562,18.288853,-10.580208,2.2315733,-0.11392341,0.43757305,-0.4413356,-0.7750963,-10.930986,-1.7027279,-1.3336776,0.5883558,0.026056375,0.3520733,0
0.02,9.29530519580439,5.9999997057966485,-5.999999937751994,-5.176177755662401,19.92995,-1.764239,-5.474006,0.6953562,18.17899,-10.596486,2.2179627,-0.11413888,0.43667996,-0.44409028,-0.7739941,-11.040712,-1.553322,-1.3887274,0.53999954,-0.021470949,0.17145896,0
0.03,9.29530519580439,5.9999997057966485,-5.999999937751994,-5.176177755662401,19.92995,-1.764239,-5.474006,0.6953562,18.068047,-10.611285,2.2037933,-0.11504418,0.43603492,-0.44625512,-0.77297795,-11.147133,-1.4070219,-1.4454168,0.49942175,-0.061822113,-0.004682198,0
0.04,9.29530519580439,5.9999997057966485,-5.999999937751994,-5.176177755662401,15.213725,-2.6415625,-4.8697033,0.65369934,17.956057,-10.624638,2.1890495,-0.11662291,0.4356527,-0.4478725,-0.7720208,-11.250339,-1.2637974,-1.503591,0.46536762,-0.096074134,-0.17646092,0
0.05,9.29530519580439,5.9999997057966485,-5.999999937751994,-5.176177755662401,15.213725,-2.6415625,-4.8697033,0.65369934,17.843046,-10.63657,2.1737175,-0.11887323,0.4355269,-0.44899088,-0.7710984,-11.350981,-1.122822,-1.5629005,0.447737,-0.13610063,-0.3430528,0
0.060000000000000005,9.29530519580439,5.9999997057966485,-5.999999937751994,-5.176177755662401,15.213725,-2.6415625,-4.8697033,0.65369934,17.729042,-10.647099,2.1577885,-0.12185494,0.4355773,-0.44970492,-0.7701878,-11.449719,-0.9831894,-1.6230018,0.456995,-0.19404127,-0.50362813,0
0.07,9.29530519580439,5.9999997057966485,-5.999999937751994,-5.176177755662401,15.213725,-2.6415625,-4.8697033,0.65369934,17.614061,-10.656238,2.141255,-0.12563737,0.4357094,-0.45011133,-0.76926744,-11.54646,-0.84495527,-1.6838336,0.48978448,-0.26794934,-0.6585574,0
0.08,11.249209736833887,5.999999885294732,-5.999999982633097,-5.443073042573445,16.8665,-1.958337,-5.5312,-1.0273793,17.498121,-10.664001,2.1241095,-0.13027993,0.43583655,-0.450293,-0.76831627,-11.641076,-0.70813817,-1.7453347,0.54312825,-0.35603642,-0.80818003,0
0.09,11.249209736833887,5.999999885294732,-5.999999982633097,-5.443073042573445,16.8665,-1.958337,-5.5312,-1.0273793,17.381197,-10.670331,2.1063657,-0.13589494,0.435861,-0.45032886,-0.7673081,-11.743351,-0.5581564,-1.8035698,0.6298853,-0.4721907,-0.9672878,0
0.09999999999999999,11.249209736833887,5.999999885294732,-5.999999982633097,-5.443073042573445,16.8665,-1.958337,-5.5312,-1.0273793,17.263262,-10.675169,2.088036,-0.14258748,0.43568733,-0.45028773,-0.7662156,-11.842878,-0.40970337,-1.8624073,0.7329899,-0.6001661,-1.121261,0
0.10999999999999999,11.249209736833887,5.999999885294732,-5.999999982633097,-5.443073042573445,16.8665,-1.958337,-5.5312,-1.0273793,17.144346,-10.678531,2.0691156,-0.15039313,0.43524194,-0.45021972,-0.76501536,-11.939425,-0.2627027,-1.9217653,0.85023755,-0.7384675,-1.2703829,0
0.11999999999999998,11.249209736833887,5.999999885294732,-5.999999982633097,-5.443073042573445,16.8665,-1.958337,-5.5312,-1.0273793,17.024483,-10.6804285,2.0495992,-0.15933976,0.43445602,-0.4501644,-0.76368237,-12.032747,-0.11706895,-1.9815569,0.979669,-0.8857335,-1.4149135,0
0.12999999999999998,14.153307357402124,5.99999997023664,-6.0,-5.289996047033936,19.04771,-3.5796108,-5.931083,-0.6400836,16.903702,-10.680877,2.029483,-0.16944799,0.43326473,-0.45015165,-0.76218927,-12.122592,0.027285475,-2.0416892,1.1195432,-1.040725,-1.5550925,0
0.13999999999999999,14.153307357402124,5.99999997023664,-6.0,-5.289996047033936,19.04771,-3.5796108,-5.931083,-0.6400836,16.781992,-10.679806,2.008786,-0.1809568,0.43137082,-0.45034838,-0.7604999,-12.218467,0.18673518,-2.097768,1.3680034,-1.3022308,-1.6925433,0
0.15,14.153307357402124,5.99999997023664,-6.0,-5.289996047033936,19.04771,-3.5796108,-5.931083,-0.6400836,16.65935,-10.677148,1.987527,-0.19407465,0.42849803,-0.45088822,-0.75856715,-12.309492,0.34469098,-2.1540434,1.6161942,-1.5615149,-1.826693,0
0.16,17.44912220550539,6.0,-6.0,-4.7707127132602105,19.998005,-3.5559354,-7.749499,0.69851166,16.535822,-10.672916,1.965705,-0.20876701,0.42461455,-0.45173874,-0.7563403,-12.395205,0.5013417,-2.21033,1.8636047,-1.8183659,-1.9576539,0
0.17,17.44912220550539,6.0,-6.0,-4.7707127132602105,19.998005,-3.5559354,-7.749499,0.69851166,16.411427,-10.667049,1.9433416,-0.22533028,0.41927385,-0.45309192,-0.7537527,-12.482895,0.67194664,-2.2623482,2.2710917,-2.2342987,-2.0744772,0
0.18000000000000002,17.44912220550539,6.0,-6.0,-4.7707127132602105,19.998005,-3.5559354,-7.749499,0.69851166,16.286192,-10.659484,1.9204593,-0.24400856,0.41205978,-0.45508382,-0.75070965,-12.563186,0.840878,-2.3140373,2.6625252,-2.6329334,-2.189818,0
0.19000000000000003,17.44912220550539,6.0,-6.0,-4.7707127132602105,19.998005,-3.5559354,-7.749499,0.69851166,16.160192,-10.650237,1.8970631,-0.26468065,0.40297836,-0.45758942,-0.74710387,-12.635363,1.0082965,-2.3650842,3.0389404,-3.0154932,-2.303617,0
0.20000000000000004,20.558981575822894,6.0,-6.0,-4.144516145860061,19.616022,-2.1781626,-7.58383,0.07143967,16.033514,-10.639323,1.8731608,-0.28721964,0.39202785,-0.46047983,-0.7428169,-12.69878,1.1742185,-2.415192,3.4012892,-3.3830886,-2.4158256,0
0.21000000000000005,20.558981575822894,6.0,-6.0,-4.144516145860061,19.616022,-2.1781626,-7.58383,0.07143967,15.90621,-10.626644,1.8487974,-0.3115795,0.379005,-0.463717,-0.737726,-12.760557,1.3620402,-2.457028,3.8057055,-3.79204,-2.5006528,0
0.22000000000000006,20.558981575822894,6.0,-6.0,-4.144516145860061,19.616022,-2.1781626,-7.58383,0.07143967,15.7783375,-10.612075,1.8240308,-0.3375481,0.3638758,-0.46717834,-0.73171014,-12.8121,1.5519924,-2.495812,4.1471267,-4.1371436,-2.5813177,0
0.23000000000000007,20.558981575822894,6.0,-6.0,-4.144516145860061,19.616022,-2.1781626,-7.58383,0.07143967,15.650006,-10.595598,1.7988931,-0.36477172,0.3468678,-0.47063306,-0.7246575,-12.852352,1.7435596,-2.531167,4.4353714,-4.428361,-2.6580243,0
0.24000000000000007,20.558981575822894,6.0,-6.0,-4.144516145860061,20.693241,-1.000001,-7.693464,0.27559596,15.521333,-10.5772,1.7734203,-0.3929341,0.32818136,-0.47388664,-0.71647114,-12.880428,1.9360272,-2.5627725,4.678728,-4.6741,-2.730967,0
0.25000000000000006,20.558981575822894,6.0,-6.0,-4.144516145860061,20.693241,-1.000001,-7.693464,0.27559596,15.392442,-10.556876,1.7476513,-0.42175162,0.30799535,-0.47677654,-0.7070702,-12.895617,2.1285117,-2.5903654,4.884191,-4.881459,-2.8003304,0
0.26000000000000006,20.558981575822894,6.0,-6.0,-4.144516145860061,20.693241,-1.000001,-7.693464,0.27559596,15.263466,-10.534633,1.7216275,-0.4509689,0.2864715,-0.47916797,-0.69638985,-12.897375,2.3199897,-2.613739,5.0576653,-5.056428,-2.8662899,0
0.2700000000000001,20.558981575822894,6.0,-6.0,-4.144516145860061,20.693241,-1.000001,-7.693464,0.27559596,15.1345415,-10.510484,1.6953917,-0.48035544,0.26375756,-0.48095033,-0.6843807,-12.885335,2.509328,-2.632744,5.2041345,-5.2040634,-2.9290128,0
0.2800000000000001,21.0,5.99999998816015,-6.0,-3.497356426813946,22.797321,-3.1468825,-7.6937547,0.86634904,15.005808,-10.484458,1.668988,-0.50970244,0.23998965,-0.48203382,-0.6710077,-12.8593,2.6953099,-2.6472878,5.327805,-5.328633,-2.9886577,0
0.2900000000000001,21.0,5.99999998816015,-6.0,-3.497356426813946,22.797321,-3.1468825,-7.6937547,0.86634904,14.877408,-10.456574,1.6424707,-0.5387675,0.21525583,-0.48236573,-0.65629065,-12.818383,2.880555,-2.6554425,5.432341,-5.4336243,-3.0136197,0
0.3000000000000001,21.0,5.99999998816015,-6.0,-3.497356426813946,22.797321,-3.1468825,-7.6937547,0.86634904,14.74949,-10.4268675,1.6158948,-0.56733185,0.18963891,-0.4819065,-0.6402635,-12.763285,3.0597436,-2.6590178,5.5206084,-5.5222087,-3.037357,0
0.3100000000000001,21.0,5.99999998816015,-6.0,-3.497356426813946,22.797321,-3.1468825,-7.6937547,0.86634904,14.622191,-10.395405,1.5893056,-0.59524846,0.1632544,-0.48060942,-0.62292963,-12.694311,3.231541,-2.6580868,5.595139,-5.5969496,-3.0599294,0
0.3200000000000001,21.0,5.999998843820756,-5.99999985456122,-3.006747195877567,22.923271,-3.832119,-6.5997057,1.2879844,14.49565,-10.362267,1.5627481,-0.62238395,0.13621123,-0.47843915,-0.6043014,-12.611925,3.3946276,-2.6527767,5.6580725,-5.6600094,-3.081394,0
0.3300000000000001,21.0,5.999998843820756,-5.99999985456122,-3.006747195877567,22.923271,-3.832119,-6.5997057,1.2879844,14.369997,-10.327547,1.5362648,-0.64858115,0.10858377,-0.47537842,-0.58443725,-12.516742,3.547721,-2.6432657,5.711303,-5.713124,-3.077731,0
0.34000000000000014,21.0,5.999998843820756,-5.99999985456122,-3.006747195877567,22.923271,-3.832119,-6.5997057,1.2879844,14.245357,-10.291351,1.5098965,-0.6736994,0.0804437,-0.47141686,-0.5634036,-12.4095125,3.6895945,-2.6297808,5.756249,-5.757939,-3.0742476,0
0.35000000000000014,21.0,5.999998843820756,-5.99999985456122,-3.006747195877567,22.923271,-3.832119,-6.5997057,1.2879844,14.121845,-10.253798,1.4836818,-0.69764674,0.051888134,-0.46654227,-0.54123425,-12.2911215,3.8190942,-2.6125965,5.7941985,-5.795751,-3.0709352,0
0.36000000000000015,21.0,2.621925414234716,-5.799131865431895,1.9097629331556982,22.335642,-5.1948256,-5.9641976,0.86580306,13.999568,-10.215015,1.4576561,-0.72034,0.023009954,-0.46074885,-0.51796794,-12.16257,3.935153,-2.5920303,5.8262415,-5.827656,-3.0677855,0
0.37000000000000016,21.0,2.621925414234716,-5.799131865431895,1.9097629331556982,22.335642,-5.1948256,-5.9641976,0.86580306,13.878704,-10.175082,1.4319234,-0.7412164,-0.0054150135,-0.453919,-0.49449566,-12.009387,4.048496,-2.5545785,5.4803843,-5.6690035,-2.845785,0
0.38000000000000017,21.0,2.621925414234716,-5.799131865431895,1.9097629331556982,22.335642,-5.1948256,-5.9641976,0.86580306,13.759395,-10.13411,1.4065633,-0.7599282,-0.032786828,-0.446024,-0.47169507,-11.8519335,4.1431212,-2.5175233,5.1843834,-5.539262,-2.6292825,0
0.3900000000000002,21.0,2.621925414234716,-5.799131865431895,1.9097629331556982,22.335642,-5.1948256,-5.9641976,0.86580306,13.641675,-10.092281,1.3815717,-0.77669793,-0.059260525,-0.4371576,-0.44957903,-11.691603,4.2200966,-2.4807532,4.9221225,-5.4422197,-2.4188852,0
0.4000000000000002,21.0,1.7510529778175987,-3.408001199750283,1.8903751017401598,21.659834,-6.2746615,-4.327823,1.9778547,13.525571,-10.049764,1.3569499,-0.79175717,-0.08493418,-0.42728466,-0.42817524,-11.528854,4.280633,-2.4435725,4.6696916,-5.391371,-2.2159333,0
0.4100000000000002,21.0,1.7510529778175987,-3.408001199750283,1.8903751017401598,21.659834,-6.2746615,-4.327823,1.9778547,13.41108,-10.006727,1.3326838,-0.80505127,-0.10912912,-0.4167368,-0.4078152,-11.369372,4.324209,-2.409719,4.2261953,-5.0703325,-2.0158846,0
0.4200000000000002,21.0,1.7510529778175987,-3.408001199750283,1.8903751017401598,21.659834,-6.2746615,-4.327823,1.9778547,13.298186,-9.963327,1.3087583,-0.8166073,-0.13134491,-0.4058975,-0.38877723,-11.209292,4.3536563,-2.375181,3.841142,-4.810105,-1.8242034,0
0.4300000000000002,21.0,1.7510529778175987,-3.408001199750283,1.8903751017401598,21.659834,-6.2746615,-4.327823,1.9778547,13.186896,-9.919699,1.2851852,-0.8267016,-0.15189329,-0.3948028,-0.3709759,-11.048531,4.370156,-2.3392246,3.5160012,-4.590641,-1.641928,0
0.4400000000000002,21.0,1.7510529778175987,-3.408001199750283,1.8903751017401598,20.520733,-6.7719564,-2.2016938,2.2351315,13.077214,-9.875966,1.261978,-0.83554506,-0.17104457,-0.38349375,-0.3543165,-10.887995,4.3744774,-2.302054,3.241455,-4.405547,-1.4685968,0
0.45000000000000023,21.0,1.7510529778175987,-3.408001199750283,1.8903751017401598,20.520733,-6.7719564,-2.2016938,2.2351315,12.969133,-9.832249,1.2391479,-0.84330624,-0.18902598,-0.37199467,-0.33870795,-10.728434,4.3673196,-2.2638488,3.0096343,-4.249434,-1.3037711,0
0.46000000000000024,21.0,1.7510529778175987,-3.408001199750283,1.8903751017401598,20.520733,-6.7719564,-2.2016938,2.2351315,12.86264,-9.788657,1.2167041,-0.8501203,-0.20602769,-0.3603186,-0.32406476,-10.570479,4.349311,-2.2247744,2.8138924,-4.1177583,-1.1470335,0
0.47000000000000025,21.0,1.7510529778175987,-3.408001199750283,1.8903751017401598,20.520733,-6.7719564,-2.2016938,2.2351315,12.757716,-9.745297,1.194655,-0.8560958,-0.22220811,-0.34847116,-0.3103077,-10.414664,4.321016,-2.1849875,2.6486158,-4.0066905,-0.997987,0
0.48000000000000026,20.999999942800578,0.287556504557584,-1.3820538257764836,2.576666108551192,18.89354,-7.5132127,0.010348322,2.4687846,12.654337,-9.70227,1.1730064,-0.86132026,-0.23769867,-0.3364532,-0.29736415,-10.261449,4.2829423,-2.144641,2.5090642,-3.913002,-0.8562542,0
0.49000000000000027,20.999999942800578,0.287556504557584,-1.3820538257764836,2.576666108551192,18.89354,-7.5132127,0.010348322,2.4687846,12.552476,-9.65967,1.1517634,-0.8657251,-0.25189704,-0.32477537,-0.28563672,-10.111201,4.235635,-2.1038847,2.1632302,-3.5178695,-0.6877998,0
0.5000000000000002,20.999999942800578,0.287556504557584,-1.3820538257764836,2.576666108551192,18.89354,-7.5132127,0.010348322,2.4687846,12.452103,-9.617585,1.1309297,-0.8693227,-0.26435453,-0.3138652,-0.27546838,-9.964064,4.1800876,-2.0628455,1.8712037,-3.184462,-0.5276115,0
0.5100000000000002,20.999999942800578,0.287556504557584,-1.3820538257764836,2.576666108551192,18.89354,-7.5132127,0.010348322,2.4687846,12.353185,-9.576093,1.1105074,-0.87227356,-0.2753743,-0.30360094,-0.26670933,-9.82005,4.1173153,-2.0216062,1.6246214,-2.90313,-0.37528372,0
0.5200000000000002,20.999999494530023,-1.1122240163966426,0.7339884097132815,3.5305076447071833,18.383562,-7.6428227,1.8134594,2.4307046,12.255692,-9.535261,1.0904981,-0.8746992,-0.2852073,-0.2938722,-0.25922346,-9.6791315,4.04817,-1.9802186,1.4164178,-2.6657336,-0.23043065,0
0.5300000000000002,20.999999494530023,-1.1122240163966426,0.7339884097132815,3.5305076447071833,18.383562,-7.6428227,1.8134594,2.4307046,12.159593,-9.49515,1.0709039,-0.8765875,-0.29338738,-0.28514168,-0.25340065,-9.541139,3.973416,-1.9386392,1.0214148,-2.1363666,-0.045974143,0
0.5400000000000003,20.999999494530023,-1.1122240163966426,0.7339884097132815,3.5305076447071833,18.383562,-7.6428227,1.8134594,2.4307046,12.064859,-9.455808,1.0517257,-0.877957,-0.29957482,-0.27778482,-0.24956255,-9.405858,3.894282,-1.8969711,0.6888844,-1.6886452,0.12952483,0
0.5500000000000003,20.999999494530023,-1.1122240163966426,0.7339884097132815,3.5305076447071833,18.383562,-7.6428227,1.8134594,2.4307046,11.971468,-9.417275,1.0329653,-0.878923,-0.30411717,-0.27157357,-0.24749614,-9.272795,3.8118553,-1.8550744,0.40811574,-1.3108145,0.296412,0
0.5600000000000003,20.999998636590412,-3.423667463457165,3.328621165066808,5.999993445946,19.432308,-5.775428,4.144772,2.5034819,11.879396,-9.37958,1.0146253,-0.8795631,-0.3072996,-0.26630864,-0.24701165,-9.141559,3.7270648,-1.8128626,0.17106256,-0.9919553,0.45511,0
0.5700000000000003,20.999998636590412,-3.423667463457165,3.328621165066808,5.999993445946,19.432308,-5.775428,4.144772,2.5034819,11.7887535,-9.342821,0.9968425,-0.87996876,-0.3082531,-0.26227713,-0.24868666,-8.98784,3.624901,-1.7442548,-0.44529182,-0.37404823,0.6911615,0
0.5800000000000003,20.999998636590412,-3.423667463457165,3.328621165066808,5.999993445946,19.432308,-5.775428,4.144772,2.5034819,11.699623,-9.307074,0.9797293,-0.88019377,-0.30630037,-0.2596708,-0.25300097,-8.838987,3.5252123,-1.678838,-0.9675953,0.1454286,0.9213668,0
0.5900000000000003,20.999998636590412,-3.423667463457165,3.328621165066808,5.999993445946,19.432308,-5.775428,4.144772,2.5034819,11.6119585,-9.272304,0.96325654,-0.880209,-0.30190432,-0.25819042,-0.25965938,-8.694297,3.4295592,-1.6160991,-1.4117912,0.58054644,1.1458707,0
0.6000000000000003,20.999999206241,-5.634085618729633,5.335912010075305,5.999992674497977,19.513424,-6.041994,5.6669736,1.9220784,11.525723,-9.238464,0.94739956,-0.87996125,-0.29544201,-0.25757036,-0.26840103,-8.553244,3.339148,-1.555624,-1.7911966,0.9433196,1.3648144,0
0.6100000000000003,20.999999206241,-5.634085618729633,5.335912010075305,5.999992674497977,19.513424,-6.041994,5.6669736,1.9220784,11.440884,-9.205498,0.9321374,-0.87940764,-0.28624654,-0.25808498,-0.2794578,-8.415442,3.2550132,-1.4970592,-2.4472225,1.5714664,1.5783355,0
0.6200000000000003,20.999999206241,-5.634085618729633,5.335912010075305,5.999992674497977,19.513424,-6.041994,5.6669736,1.9220784,11.357406,-9.173337,0.9174533,-0.87844837,-0.27376983,-0.25989696,-0.29297012,-8.280502,3.1785705,-1.4399759,-3.0106034,2.0919704,1.7865686,0
0.6300000000000003,20.999999206241,-5.634085618729633,5.335912010075305,5.999992674497977,19.513424,-6.041994,5.6669736,1.9220784,11.275268,-9.141898,0.90333825,-0.8769085,-0.25847128,-0.26266974,-0.30859026,-8.14719,3.1106083,-1.382832,-3.4789708,2.5384777,1.9880844,0
0.6400000000000003,20.999999206241,-5.634085618729633,5.335912010075305,5.999992674497977,18.618889,-6.1598225,6.27744,1.0293701,11.194459,-9.1110935,0.88980114,-0.87455815,-0.24079868,-0.26624754,-0.32599938,-8.014634,3.0518584,-1.3243989,-3.8508906,2.9388285,2.1818066,0
0.6500000000000004,20.999999206241,-5.634085618729633,5.335912010075305,5.999992674497977,18.618889,-6.1598225,6.27744,1.0293701,11.114971,-9.080825,0.8768545,-0.8711729,-0.22114758,-0.27053708,-0.34490654,-7.8830886,3.0033834,-1.2647612,-4.1405535,3.3010805,2.3681927,0
0.6600000000000004,20.999999206241,-5.634085618729633,5.335912010075305,5.999992674497977,18.618889,-6.1598225,6.27744,1.0293701,11.036796,-9.050987,0.8645129,-0.8665672,-0.19984294,-0.27543628,-0.36504546,-7.75208,2.9657967,-1.2031308,-4.374376,3.6175447,2.546406,0
0.6700000000000004,20.999999206241,-5.634085618729633,5.335912010075305,5.999992674497977,18.618889,-6.1598225,6.27744,1.0293701,10.9599285,-9.021468,0.85280055,-0.86062145,-0.17712235,-0.28076488,-0.3861718,-7.621398,2.9397428,-1.13896,-4.571697,3.884693,2.7158744,0
0.6800000000000004,20.999999259174402,-5.999997662530122,5.880706014445382,5.999981766559713,18.529688,-4.7434134,6.388234,1.4150763,10.884365,-8.99215,0.8417413,-0.85324115,-0.15318742,-0.28635046,-0.40806353,-7.491631,2.925963,-1.0725675,-4.738206,4.110219,2.877027,0
0.6900000000000004,20.999999259174402,-5.999997662530122,5.880706014445382,5.999981766559713,18.529688,-4.7434134,6.388234,1.4150763,10.810091,-8.962905,0.8313555,-0.84430015,-0.12800345,-0.2921707,-0.43059015,-7.363489,2.9250693,-1.0043404,-4.9359345,4.3854637,3.0302713,0
0.7000000000000004,20.999999259174402,-5.999997662530122,5.880706014445382,5.999981766559713,18.529688,-4.7434134,6.388234,1.4150763,10.737087,-8.933602,0.8216592,-0.8336721,-0.10155734,-0.2981881,-0.45360792,-7.2377863,2.9376583,-0.93473643,-5.102771,4.6178336,3.1759956,0
0.7100000000000004,20.999999259174402,-5.999997662530122,5.880706014445382,5.999981766559713,18.529688,-4.7434134,6.388234,1.4150763,10.665324,-8.904104,0.8126637,-0.82128555,-0.074053936,-0.30424896,-0.4769045,-7.1154413,2.9641938,-0.8642815,-5.2435327,4.814014,3.3145692,0
0.7200000000000004,20.999998442690277,-5.9999917981672235,4.929205882604501,5.030960711635705,18.077417,-4.0799537,6.7143416,1.4786181,10.594765,-8.87427,0.8043745,-0.8070863,-0.045680966,-0.31022403,-0.5002853,-6.9974604,3.0049493,-0.79355705,-5.362288,4.9796476,3.4463432,0
0.7300000000000004,20.999998442690277,-5.9999917981672235,4.929205882604501,5.030960711635705,18.077417,-4.0799537,6.7143416,1.4786181,10.525357,-8.843957,0.7967914,-0.7912216,-0.016768456,-0.3157071,-0.523465,-6.8849196,3.0599804,-0.7231707,-5.4619713,4.9712815,3.524101,0
0.7400000000000004,20.999998442690277,-5.9999917981672235,4.929205882604501,5.030960711635705,18.077417,-4.0799537,6.7143416,1.4786181,10.457044,-8.813024,0.7899081,-0.7738547,0.01239511,-0.32038528,-0.54621243,-6.778973,3.1289916,-0.65365857,-5.546099,4.9642596,3.598043,0
0.7500000000000004,20.999998442690277,-5.9999917981672235,4.929205882604501,5.030960711635705,18.077417,-4.0799537,6.7143416,1.4786181,10.389752,-8.781331,0.78371346,-0.75497496,0.041703857,-0.32428452,-0.56843,-6.6807575,3.2114878,-0.5855391,-5.6170974,4.9583697,3.6683567,0
0.7600000000000005,19.82406876897019,-5.351112410546505,3.1744812047560624,3.5929861191620076,16.397068,-3.8268023,5.62931,1.5353141,10.323399,-8.74875,0.7781908,-0.7345828,0.0710601,-0.3274282,-0.5900245,-6.591356,3.3068478,-0.5193398,-5.6770144,4.9534316,3.7352202,0
0.7700000000000005,19.82406876897019,-5.351112410546505,3.1744812047560624,3.5929861191620076,16.397068,-3.8268023,5.62931,1.5353141,10.257869,-8.715182,0.7732729,-0.71305907,0.09982425,-0.32947522,-0.6107598,-6.516224,3.4082584,-0.46462187,-5.6254945,4.676156,3.7282407,0
0.7800000000000005,19.82406876897019,-5.351112410546505,3.1744812047560624,3.5929861191620076,16.397068,-3.8268023,5.62931,1.5353141,10.193041,-8.680549,0.76888955,-0.6907967,0.12748463,-0.33019757,-0.6304893,-6.4511056,3.5199053,-0.41246262,-5.5821166,4.4421,3.7216036,0
0.7900000000000005,19.82406876897019,-5.351112410546505,3.1744812047560624,3.5929861191620076,16.397068,-3.8268023,5.62931,1.5353141,10.128811,-8.644753,0.7650142,-0.66781634,0.15413369,-0.32976234,-0.64924616,-6.3965993,3.6405463,-0.363054,-5.545595,4.2445264,3.7152922,0
0.8000000000000005,16.580541910282683,-3.757960849072273,1.2303716425158369,2.6526781557867514,15.870118,-3.756951,5.0257044,1.4109619,10.065071,-8.607711,0.7616184,-0.644136,0.17985031,-0.3283077,-0.66705054,-6.3531914,3.768982,-0.3165697,-5.514846,4.0777493,3.7092907,0
0.8100000000000005,16.580541910282683,-3.757960849072273,1.2303716425158369,2.6526781557867514,15.870118,-3.756951,5.0257044,1.4109619,10.00168,-8.569459,0.758556,-0.62024015,0.20381454,-0.32587022,-0.6837909,-6.3264413,3.88191,-0.2962908,-5.2396665,3.6345432,3.6574426,0
0.8200000000000005,16.580541910282683,-3.757960849072273,1.2303716425158369,2.6526781557867514,15.870118,-3.756951,5.0257044,1.4109619,9.938509,-8.530057,0.7556841,-0.59659785,0.2254072,-0.32253852,-0.6994506,-6.309134,3.999155,-0.27847192,-5.007598,3.2603269,3.6081383,0
0.8300000000000005,16.580541910282683,-3.757960849072273,1.2303716425158369,2.6526781557867514,15.870118,-3.756951,5.0257044,1.4109619,9.875466,-8.489466,0.7529787,-0.5731901,0.24496229,-0.31847662,-0.71415615,-6.301005,4.119601,-0.26294634,-4.8118844,2.9443629,3.5612538,0
0.8400000000000005,16.580541910282683,-3.757960849072273,1.2303716425158369,2.6526781557867514,14.482669,-2.9398704,3.4813087,1.1453171,9.81246,-8.447659,0.7504178,-0.5499892,0.2627638,-0.31381193,-0.7280034,-6.3017764,4.2422857,-0.24954414,-4.646829,2.6775844,3.5166698,0
0.8500000000000005,16.580541910282683,-3.757960849072273,1.2303716425158369,2.6526781557867514,14.482669,-2.9398704,3.4813087,1.1453171,9.749401,-8.404616,0.7479811,-0.5269642,0.27905247,-0.30864337,-0.74106514,-6.3111644,4.3663726,-0.23810056,-4.5076265,2.4523354,3.4742734,0
0.8600000000000005,16.580541910282683,-3.757960849072273,1.2303716425158369,2.6526781557867514,14.482669,-2.9398704,3.4813087,1.1453171,9.686208,-8.36033,0.74564964,-0.50408375,0.29403174,-0.3030478,-0.7533968,-6.328888,4.491128,-0.22846024,-4.390227,2.2621517,3.4339576,0
0.8700000000000006,16.580541910282683,-3.757960849072273,1.2303716425158369,2.6526781557867514,14.482669,-2.9398704,3.4813087,1.1453171,9.622796,-8.314795,0.74340624,-0.48131853,0.30787334,-0.29708493,-0.7650404,-6.3546686,4.615903,-0.22047973,-4.2912135,2.1015744,3.3956196,0
0.8800000000000006,14.405889103462956,-2.163186860766723,-0.5373317643362772,1.805587608121687,12.847493,-2.4482095,0.28491813,0.8932123,9.559089,-8.268014,0.74123484,-0.45864186,0.3207216,-0.29080117,-0.7760282,-6.388234,4.7401166,-0.21402827,-4.2077065,1.9659952,3.359163,0
0.8900000000000006,14.405889103462956,-2.163186860766723,-0.5373317643362772,1.805587608121687,12.847493,-2.4482095,0.28491813,0.8932123,9.495033,-8.220076,0.73905385,-0.43652582,0.3319011,-0.2843812,-0.78639305,-6.423907,4.8471885,-0.22240572,-3.889204,1.5777613,3.2830474,0
0.9000000000000006,14.405889103462956,-2.163186860766723,-0.5373317643362772,1.805587608121687,12.847493,-2.4482095,0.28491813,0.8932123,9.430592,-8.171075,0.7367835,-0.4153882,0.3408986,-0.27800784,-0.7962112,-6.4654493,4.9527903,-0.23177713,-3.6192687,1.2486618,3.2105482,0
0.9100000000000006,14.405889103462956,-2.163186860766723,-0.5373317643362772,1.805587608121687,12.847493,-2.4482095,0.28491813,0.8932123,9.365706,-8.121026,0.7344162,-0.3951156,0.34805974,-0.271698,-0.8055545,-6.512268,5.056675,-0.24174856,-3.391568,0.9707656,3.1416063,0
0.9200000000000006,13.0232095130121,-0.7875368432707808,-2.1168798382198135,0.9698155342731773,11.970581,-2.0679502,0.033083975,0.8922904,9.300329,-8.069948,0.73194736,-0.37560442,0.35367385,-0.26545647,-0.8144745,-6.563813,5.15858,-0.2520445,-3.1994905,0.73610806,3.0760474,0
0.9300000000000006,13.0232095130121,-0.7875368432707808,-2.1168798382198135,0.9698155342731773,11.970581,-2.0679502,0.033083975,0.8922904,9.234417,-8.017865,0.7293731,-0.3569661,0.35770148,-0.25931463,-0.8230313,-6.619137,5.2575192,-0.26310503,-2.9544857,0.42364615,2.984503,0
0.9400000000000006,13.0232095130121,-0.7875368432707808,-2.1168798382198135,0.9698155342731773,11.970581,-2.0679502,0.033083975,0.8922904,9.167938,-7.9648137,0.7266792,-0.33937162,0.35999906,-0.25334927,-0.83128905,-6.676755,5.351944,-0.27593517,-2.7138805,0.12599851,2.8944223,0
0.9500000000000006,13.0232095130121,-0.7875368432707808,-2.1168798382198135,0.9698155342731773,11.970581,-2.0679502,0.033083975,0.8922904,9.100876,-7.9108405,0.7238495,-0.32281154,0.3606547,-0.24761972,-0.8392885,-6.735994,5.441935,-0.29020625,-2.477965,-0.15816289,2.8058207,0
0.9600000000000006,13.066890986523738,0.20037153852273648,-3.1687525466756417,0.19205865616209386,11.013195,-2.3770003,0.43931317,0.051628277,9.033215,-7.855989,0.7208711,-0.30727157,0.3597492,-0.2421756,-0.8470628,-6.7962384,5.5276194,-0.30562815,-2.2469373,-0.43000567,2.7187095,0
0.9700000000000006,13.066890986523738,0.20037153852273648,-3.1687525466756417,0.19205865616209386,11.013195,-2.3770003,0.43931317,0.051628277,8.964907,-7.8002443,0.7177907,-0.2927383,0.35743892,-0.23698753,-0.85462177,-6.8653846,5.6205144,-0.3105582,-2.0516946,-0.66982806,2.611449,0
0.9800000000000006,13.066890986523738,0.20037153852273648,-3.1687525466756417,0.19205865616209386,11.013195,-2.3770003,0.43931317,0.051628277,8.895906,-7.743593,0.71465796,-0.27920398,0.3538536,-0.23203139,-0.86197096,-6.93464,5.70907,-0.31608,-1.8557057,-0.90351576,2.506659,0
0.9900000000000007,13.066890986523738,0.20037153852273648,-3.1687525466756417,0.19205865616209386,11.013195,-2.3770003,0.43931317,0.051628277,8.826215,-7.6860776,0.7114678,-0.26665688,0.34902674,-0.22735341,-0.86912864,-7.0034995,5.793471,-0.3220091,-1.6596581,-1.1314518,2.4042702,0
1.0000000000000007,13.629930634946874,0.7765437157528389,-3.8123567049987064,-0.46724031687862233,9.984756,-3.6941776,0.11571962,-0.23391367,8.755839,-7.627738,0.70821697,-0.25508168,0.3429894,-0.22299354,-0.876108,-7.071495,5.8739214,-0.32819045,-1.4641273,-1.3539637,2.304215,0
1.0100000000000007,13.629930634946874,0.7765437157528389,-3.8123567049987064,-0.46724031687862233,9.984756,-3.6941776,0.11571962,-0.23391367,8.684748,-7.568563,0.7049619,-0.2444652,0.33585542,-0.21890719,-0.8829028,-7.1466956,5.9604073,-0.32280615,-1.3029193,-1.5486078,2.1850839,0
1.0200000000000007,13.629930634946874,0.7765437157528389,-3.8123567049987064,-0.46724031687862233,9.984756,-3.6941776,0.11571962,-0.23391367,8.612912,-7.5085425,0.70176136,-0.2348006,0.3277175,-0.21505941,-0.889505,-7.220164,6.0430636,-0.31727228,-1.1371094,-1.742688,2.0691373,0
1.0300000000000007,13.629930634946874,0.7765437157528389,-3.8123567049987064,-0.46724031687862233,9.984756,-3.6941776,0.11571962,-0.23391367,8.540352,-7.4477143,0.69861716,-0.22607714,0.3185736,-0.21149607,-0.89591813,-7.291509,6.122098,-0.31152785,-0.96771675,-1.935991,1.9562463,0
1.0400000000000007,13.629930634946874,0.7765437157528389,-3.8123567049987064,-0.46724031687862233,10.486532,-3.4999871,-0.2509712,-0.7098404,8.46709,-7.3861127,0.6955316,-0.21828045,0.30842274,-0.2082573,-0.9021407,-7.3603644,6.197726,-0.30553418,-0.7956263,-2.128312,1.8462896,0
1.0500000000000007,13.629930634946874,0.7765437157528389,-3.8123567049987064,-0.46724031687862233,10.486532,-3.4999871,-0.2509712,-0.7098404,8.393152,-7.323771,0.6925073,-0.21139303,0.29726487,-0.20537797,-0.9081664,-7.426385,6.270165,-0.2992743,-0.621606,-2.3194566,1.7391546,0
1.0600000000000007,13.629930634946874,0.7765437157528389,-3.8123567049987064,-0.46724031687862233,10.486532,-3.4999871,-0.2509712,-0.7098404,8.318571,-7.26072,0.68954694,-0.20539455,0.28510064,-0.2028881,-0.91398406,-7.489249,6.3396325,-0.29275283,-0.44632265,-2.509241,1.6347356,0
1.0700000000000007,13.629930634946874,0.7765437157528389,-3.8123567049987064,-0.46724031687862233,10.486532,-3.4999871,-0.2509712,-0.7098404,8.243379,-7.1969876,0.686653,-0.20026219,0.2719313,-0.20081331,-0.9195772,-7.5486565,6.406341,-0.28599557,-0.27035403,-2.6974957,1.5329335,0
1.0800000000000007,13.962118947944903,0.9395801468844588,-3.9261525927968397,-0.9504339288272416,11.952808,-2.0679262,-1.5601804,-0.3150058,8.167609,-7.1326,0.6838307,-0.19595936,0.25778252,-0.19915998,-0.92492336,-7.6048207,6.471066,-0.27811155,-0.10710068,-2.8711872,1.4347844,0
1.0900000000000007,13.962118947944903,0.9395801468844588,-3.9261525927968397,-0.9504339288272416,11.952808,-2.0679262,-1.5601804,-0.3150058,8.09128,-7.067555,0.6811245,-0.19243574,0.24283071,-0.19784366,-0.9299782,-7.6604476,6.537544,-0.26307005,0.0260153,-3.0055695,1.3204455,0
1.1000000000000008,13.962118947944903,0.9395801468844588,-3.9261525927968397,-0.9504339288272416,11.952808,-2.0679262,-1.5601804,-0.3150058,8.014415,-7.001857,0.6785703,-0.18968357,0.22715914,-0.19683558,-0.93470556,-7.7117763,6.6018424,-0.24766797,0.1627117,-3.143362,1.2095355,0
1.1100000000000008,13.962118947944903,0.9395801468844588,-3.9261525927968397,-0.9504339288272416,11.952808,-2.0679262,-1.5601804,-0.3150058,7.937057,-6.9355226,0.6761773,-0.18766235,0.21079248,-0.19613254,-0.9390853,-7.7592134,6.6648955,-0.23058765,0.28373486,-3.2653615,1.1035452,0
1.1200000000000008,14.548772773607345,0.6086465045213882,-3.3759266017555527,-1.2464055784735582,13.31841,-1.7822026,-1.6964588,-0.13838042,7.859245,-6.868562,0.6739655,-0.18629803,0.19383277,-0.19567914,-0.94309664,-7.802682,6.7270465,-0.21146922,0.3858665,-3.3683634,1.0027559,0
1.1300000000000008,14.548772773607345,0.6086465045213882,-3.3759266017555527,-1.2464055784735582,13.31841,-1.7822026,-1.6964588,-0.13838042,7.78101,-6.800972,0.6719795,-0.18549006,0.17661458,-0.19533329,-0.94670236,-7.8435946,6.7909265,-0.185431,0.4203672,-3.3695505,0.89238894,0
1.1400000000000008,14.548772773607345,0.6086465045213882,-3.3759266017555527,-1.2464055784735582,13.31841,-1.7822026,-1.6964588,-0.13838042,7.702389,-6.732747,0.6702632,-0.18516357,0.15941241,-0.1949813,-0.9498864,-7.8800015,6.8539443,-0.15756257,0.44949922,-3.3705587,0.7874377,0
1.1500000000000008,14.548772773607345,0.6086465045213882,-3.3759266017555527,-1.2464055784735582,13.31841,-1.7822026,-1.6964588,-0.13838042,7.623426,-6.663896,0.668834,-0.1852891,0.14223224,-0.19461471,-0.9526609,-7.911829,6.9161015,-0.12803696,0.47409916,-3.371414,0.68763644,0
1.1600000000000008,15.169884827770874,-0.10667235447252799,-2.2466492150052844,-1.3228126891102205,15.166785,-2.1097908,-0.6827114,-0.4058337,7.5441675,-6.5944276,0.66770756,-0.18583922,0.12507914,-0.1942272,-0.95503646,-7.939013,6.977389,-0.097026244,0.49487346,-3.3721387,0.5927325,0
1.1700000000000008,15.169884827770874,-0.10667235447252799,-2.2466492150052844,-1.3228126891102205,15.166785,-2.1097908,-0.6827114,-0.4058337,7.4646564,-6.524338,0.66692585,-0.18667647,0.10844512,-0.19362454,-0.95702714,-7.9624953,7.0403633,-0.05913595,0.40079862,-3.1966805,0.49873608,0
1.1800000000000008,15.169884827770874,-0.10667235447252799,-2.2466492150052844,-1.3228126891102205,15.166785,-2.1097908,-0.6827114,-0.4058337,7.3849335,-6.453624,0.66652894,-0.18769923,0.092723995,-0.19265717,-0.95867324,-7.981303,7.1023397,-0.020064648,0.32143262,-3.0485682,0.40935215,0
1.1900000000000008,15.169884827770874,-0.10667235447252799,-2.2466492150052844,-1.3228126891102205,15.166785,-2.1097908,-0.6827114,-0.4058337,7.3050447,-6.382295,0.66652805,-0.18892957,0.077786155,-0.19138114,-0.9600146,-7.99567,7.1632433,0.020021036,0.25447416,-2.9235418,0.32435432,0
1.2000000000000008,14.986296142910309,-0.985206232687113,-1.0803890509682819,-1.231231331951196,13.778016,-2.5244045,0.052099586,-0.5109364,7.2250338,-6.3103633,0.6669324,-0.19038239,0.06352086,-0.18984407,-0.96108204,-8.005795,7.2230086,0.060977317,0.19798253,-2.8180034,0.24352735,0
1.2100000000000009,14.986296142910309,-0.985206232687113,-1.0803890509682819,-1.231231331951196,13.778016,-2.5244045,0.052099586,-0.5109364,7.144943,-6.2378426,0.6677417,-0.19194773,0.05034746,-0.18783894,-0.96194464,-8.011814,7.280859,0.10098861,0.013300937,-2.547054,0.17116053,0
1.2200000000000009,14.986296142910309,-0.985206232687113,-1.0803890509682819,-1.231231331951196,13.778016,-2.5244045,0.052099586,-0.5109364,7.0648103,-6.16475,0.66895443,-0.1935438,0.03859389,-0.18520732,-0.9626782,-8.014247,7.3374057,0.14164875,-0.1425457,-2.3183398,0.10234477,0
1.2300000000000009,14.986296142910309,-0.985206232687113,-1.0803890509682819,-1.231231331951196,13.778016,-2.5244045,0.052099586,-0.5109364,6.984669,-6.0910993,0.6705767,-0.1952138,0.02804865,-0.18205109,-0.96330786,-8.013507,7.3925385,0.18289669,-0.27406222,-2.1252794,0.03690581,0
1.2400000000000009,14.986296142910309,-0.985206232687113,-1.0803890509682819,-1.231231331951196,14.121573,-3.1976955,0.35671467,0.33664498,6.90455,-6.016904,0.67261416,-0.19698977,0.018531747,-0.17845549,-0.96384907,-8.009945,7.4461656,0.22468816,-0.38504872,-1.9623166,-0.025322054,0
1.2500000000000009,14.986296142910309,-0.985206232687113,-1.0803890509682819,-1.231231331951196,14.121573,-3.1976955,0.35671467,0.33664498,6.8244786,-5.94218,0.6750722,-0.19889498,0.009890148,-0.17449193,-0.9643108,-8.003857,7.4982095,0.2669898,-0.47871143,-1.8247607,-0.084496364,0
1.260000000000001,14.986296142910309,-0.985206232687113,-1.0803890509682819,-1.231231331951196,14.121573,-3.1976955,0.35671467,0.33664498,6.7444806,-5.866945,0.6779557,-0.20094581,0.001993815,-0.17022029,-0.9646977,-7.9954963,7.5486054,0.30977523,-0.5577556,-1.7086518,-0.14076698,0
1.270000000000001,14.986296142910309,-0.985206232687113,-1.0803890509682819,-1.231231331951196,14.121573,-3.1976955,0.35671467,0.33664498,6.6645765,-5.791214,0.68126935,-0.20315318,-0.005267719,-0.16569078,-0.96501166,-7.9850802,7.597297,0.3530223,-0.62446374,-1.6106466,-0.19427639,0
1.280000000000001,14.932258350506077,-1.7266197098009277,0.10109256163110214,-0.9917499740985836,15.632731,-4.2579293,-0.16075927,2.3370156,6.5847855,-5.715005,0.68501765,-0.20552377,-0.011988278,-0.16094553,-0.96525264,-7.972792,7.644237,0.39671105,-0.68076164,-1.5279236,-0.24516006,0
1.290000000000001,14.932258350506077,-1.7266197098009277,0.10109256163110214,-0.9917499740985836,15.632731,-4.2579293,-0.16075927,2.3370156,6.5051255,-5.638336,0.6892024,-0.20796147,-0.017734641,-0.15583102,-0.9654812,-7.9588757,7.6892166,0.4403149,-0.843853,-1.2738334,-0.28179544,0
1.300000000000001,14.932258350506077,-1.7266197098009277,0.10109256163110214,-0.9917499740985836,15.632731,-4.2579293,-0.16075927,2.3370156,6.425612,-5.561227,0.6938255,-0.21038987,-0.022167725,-0.15022887,-0.9657514,-7.9436636,7.7323413,0.48436168,-0.981505,-1.059367,-0.31663314,0
1.310000000000001,14.932258350506077,-1.7266197098009277,0.10109256163110214,-0.9917499740985836,15.632731,-4.2579293,-0.16075927,2.3370156,6.346256,-5.483696,0.6988913,-0.21283634,-0.025488194,-0.1442182,-0.9660496,-7.927548,7.77355,0.5288764,-1.0976871,-0.8783464,-0.3497613,0
1.320000000000001,14.790060040036025,-2.314960165111959,1.1280372575864546,-0.6673779063593166,15.77311,-4.1482706,-0.27106458,2.9780493,6.267063,-5.4057627,0.70440465,-0.21532102,-0.027865935,-0.13786496,-0.96636087,-7.910861,7.812794,0.573879,-1.195749,-0.7255568,-0.38126388,0
1.330000000000001,14.790060040036025,-2.314960165111959,1.1280372575864546,-0.6673779063593166,15.77311,-4.1482706,-0.27106458,2.9780493,6.188038,-5.327449,0.71036375,-0.21777043,-0.02900214,-0.13108435,-0.966722,-7.8940783,7.849675,0.6180195,-1.3702219,-0.43643412,-0.3953036,0
1.340000000000001,14.790060040036025,-2.314960165111959,1.1280372575864546,-0.6673779063593166,15.77311,-4.1482706,-0.27106458,2.9780493,6.1091805,-5.2487764,0.7167669,-0.22012247,-0.028667405,-0.12381206,-0.96715796,-7.8774858,7.884521,0.6626943,-1.5174923,-0.1924046,-0.40865436,0
1.350000000000001,14.790060040036025,-2.314960165111959,1.1280372575864546,-0.6673779063593166,15.77311,-4.1482706,-0.27106458,2.9780493,6.030486,-5.169766,0.7236195,-0.22240384,-0.027088145,-0.11612567,-0.9676349,-7.8615203,7.917291,0.70793086,-1.6418023,0.013564039,-0.42135,0
1.360000000000001,14.212940742800747,-2.6743108230420813,1.7033392995566725,-0.32222698621892765,14.029811,-3.7536087,0.80161566,2.549526,5.9519467,-5.090438,0.73092747,-0.22463436,-0.024455892,-0.108089976,-0.9681207,-7.8465557,7.947952,0.75374085,-1.746732,0.18740804,-0.43342265,0
1.370000000000001,14.212940742800747,-2.6743108230420813,1.7033392995566725,-0.32222698621892765,14.029811,-3.7536087,0.80161566,2.549526,5.8735476,-5.01082,0.7386682,-0.22676624,-0.020681912,-0.09967076,-0.96861494,-7.8334594,7.9753613,0.79448414,-1.8913221,0.42385092,-0.42796624,0
1.380000000000001,14.212940742800747,-2.6743108230420813,1.7033392995566725,-0.32222698621892765,14.029811,-3.7536087,0.80161566,2.549526,5.795272,-4.930938,0.746819,-0.22875516,-0.015704367,-0.09084352,-0.9691087,-7.8220205,8.000684,0.83576864,-2.0133753,0.6234136,-0.4227776,0
1.390000000000001,14.212940742800747,-2.6743108230420813,1.7033392995566725,-0.32222698621892765,14.029811,-3.7536087,0.80161566,2.549526,5.7171006,-4.8508134,0.75538534,-0.23061842,-0.009709372,-0.08167125,-0.96956205,-7.8125906,8.0238905,0.8775706,-2.116404,0.791849,-0.41784355,0
1.400000000000001,13.592914575400107,-2.7491587082440607,1.7048015523086466,-0.02607920817953073,14.504544,-3.7490373,-0.08529347,2.363002,5.6390123,-4.7704673,0.7643721,-0.23236911,-0.0028546588,-0.07220714,-0.9699394,-7.805469,8.044957,0.91984653,-2.2033732,0.9340123,-0.41315162,0
1.410000000000001,13.592914575400107,-2.7491587082440607,1.7048015523086466,-0.02607920817953073,14.504544,-3.7490373,-0.08529347,2.363002,5.5609813,-4.689926,0.77375305,-0.2339816,0.0047309585,-0.06246725,-0.9702206,-7.80111,8.063038,0.9563939,-2.2884686,1.054211,-0.39415783,0
1.420000000000001,13.592914575400107,-2.7491587082440607,1.7048015523086466,-0.02607920817953073,14.504544,-3.7490373,-0.08529347,2.363002,5.482981,-4.6092143,0.78350115,-0.23542975,0.012937963,-0.052467234,-0.9703878,-7.799413,8.079027,0.9932653,-2.3603005,1.1556609,-0.37609613,0
1.430000000000001,13.592914575400107,-2.7491587082440607,1.7048015523086466,-0.02607920817953073,14.504544,-3.7490373,-0.08529347,2.363002,5.404984,-4.5283527,0.7936192,-0.23672217,0.02166863,-0.04224835,-0.9704164,-7.8005605,8.092898,1.0303761,-2.4209356,1.2412869,-0.35892066,0
1.440000000000001,13.592914575400107,-2.7491587082440607,1.7048015523086466,-0.02607920817953073,14.48004,-3.970635,-1.1653883,2.655546,5.32696,-4.447364,0.80410916,-0.23786606,0.030839866,-0.0318459,-0.9702857,-7.8047028,8.104635,1.0676302,-2.472119,1.3135571,-0.342588,0
1.450000000000001,13.592914575400107,-2.7491587082440607,1.7048015523086466,-0.02607920817953073,14.48004,-3.970635,-1.1653883,2.655546,5.248879,-4.366268,0.81497186,-0.23886752,0.040380947,-0.021290207,-0.9699785,-7.8119664,8.114222,1.1049218,-2.5153239,1.3745555,-0.32705685,0
1.460000000000001,13.592914575400107,-2.7491587082440607,1.7048015523086466,-0.02607920817953073,14.48004,-3.970635,-1.1653883,2.655546,5.170709,-4.2850876,0.8262073,-0.23973179,0.050231613,-0.010607397,-0.9694807,-7.8224564,8.121645,1.1421375,-2.5517929,1.4260405,-0.3122878,0
1.470000000000001,13.592914575400107,-2.7491587082440607,1.7048015523086466,-0.02607920817953073,14.48004,-3.970635,-1.1653883,2.655546,5.092418,-4.2038436,0.8378139,-0.24046353,0.060340445,0.00017994572,-0.96878076,-7.8362575,8.1269,1.1791575,-2.5825765,1.4694955,-0.29824346,0
1.480000000000001,13.537984775833495,-2.520994359380644,1.457886677544264,0.14369370845283239,15.114711,-4.0650363,-2.0554378,3.06848,5.0139723,-4.122557,0.84978926,-0.24106678,0.07066351,0.011052229,-0.9678694,-7.8534374,8.129982,1.2158567,-2.6085608,1.5061737,-0.28488827,0
1.490000000000001,13.537984775833495,-2.520994359380644,1.457886677544264,0.14369370845283239,15.114711,-4.0650363,-2.0554378,3.06848,4.935338,-4.0412507,0.86212677,-0.24153058,0.081045955,0.021926403,-0.9667542,-7.8739576,8.130889,1.2515645,-2.5949268,1.4986053,-0.26385766,0
1.500000000000001,13.537984775833495,-2.520994359380644,1.457886677544264,0.14369370845283239,15.114711,-4.0650363,-2.0554378,3.06848,4.8564816,-3.9599464,0.87481856,-0.2418449,0.091363505,0.032735094,-0.96544915,-7.8978753,8.129647,1.2867043,-2.5834177,1.4922194,-0.24385901,0
1.5100000000000011,13.537984775833495,-2.520994359380644,1.457886677544264,0.14369370845283239,15.114711,-4.0650363,-2.0554378,3.06848,4.777369,-3.878665,0.88785845,-0.24201477,0.10162262,0.04348354,-0.9639558,-7.9251595,8.126278,1.3211588,-2.5737019,1.486832,-0.22484168,0
1.5200000000000011,13.26271529553656,-2.0031609036736797,0.8703966260586136,0.19752185569740216,14.848249,-3.839326,-2.3625526,2.883741,4.697967,-3.797428,0.90123904,-0.24204494,0.11182848,0.054175828,-0.9622752,-7.955778,8.120801,1.3548123,-2.5655003,1.4822865,-0.20675755,0
1.5300000000000011,13.26271529553656,-2.0031609036736797,0.8703966260586136,0.19752185569740216,14.848249,-3.839326,-2.3625526,2.883741,4.6182456,-3.7162552,0.9149383,-0.24194457,0.12170965,0.064672135,-0.9604514,-7.988991,8.113392,1.3848951,-2.4778347,1.3868186,-0.18691944,0
1.5400000000000011,13.26271529553656,-2.0031609036736797,0.8703966260586136,0.19752185569740216,14.848249,-3.839326,-2.3625526,2.883741,4.538177,-3.6351666,0.92893356,-0.2417229,0.13105309,0.07486252,-0.9585356,-8.025272,8.103985,1.4140116,-2.4038358,1.3062443,-0.16805479,0
1.5500000000000012,13.26271529553656,-2.0031609036736797,0.8703966260586136,0.19752185569740216,14.848249,-3.839326,-2.3625526,2.883741,4.4577303,-3.554182,0.94321495,-0.24138448,0.13994125,0.08479009,-0.9565356,-8.06446,8.092629,1.4421033,-2.3413727,1.2382398,-0.15011583,0
1.5600000000000012,12.74210572253005,-1.2550245012364074,0.038299989503548765,0.1393423787194364,14.266072,-3.5927145,-1.6535943,3.1516643,4.376878,-3.4733205,0.9577719,-0.24093355,0.14844361,0.09449117,-0.95445615,-8.106412,8.079367,1.4691159,-2.2886474,1.1808442,-0.13305716,0
1.5700000000000012,12.74210572253005,-1.2550245012364074,0.038299989503548765,0.1393423787194364,14.266072,-3.5927145,-1.6535943,3.1516643,4.2956014,-3.3925982,0.97256905,-0.24039467,0.15622884,0.103792384,-0.9523811,-8.149232,8.064835,1.4901402,-2.127479,1.0026326,-0.119690455,0
1.5800000000000012,12.74210572253005,-1.2550245012364074,0.038299989503548765,0.1393423787194364,14.266072,-3.5927145,-1.6535943,3.1516643,4.2138853,-3.3120298,0.9875711,-0.23979102,0.16304016,0.11255998,-0.95039356,-8.194312,8.04858,1.510104,-1.9914393,0.85221845,-0.10697964,0
1.5900000000000012,12.74210572253005,-1.2550245012364074,0.038299989503548765,0.1393423787194364,14.266072,-3.5927145,-1.6535943,3.1516643,4.1317086,-3.2316322,1.0027677,-0.23912434,0.16903159,0.12087537,-0.94849163,-8.241392,8.03067,1.5290436,-1.8766104,0.7252655,-0.09489255,0
1.6000000000000012,11.92263062071649,-0.3241994992325958,-0.8643507508894617,-0.041218905460172275,13.611781,-1.6786048,-2.7681415,1.7651647,4.049052,-3.1514218,1.0181487,-0.23839617,0.17433274,0.12880716,-0.94666964,-8.290253,8.011162,1.5469942,-1.7796856,0.6181145,-0.08339856,0
1.6100000000000012,11.92263062071649,-0.3241994992325958,-0.8643507508894617,-0.041218905460172275,13.611781,-1.6786048,-2.7681415,1.7651647,3.9659145,-3.0714076,1.0336673,-0.23764782,0.17861973,0.13615102,-0.94502944,-8.33744,7.991466,1.5565976,-1.5527165,0.38691035,-0.0813288,0
1.6200000000000012,11.92263062071649,-0.3241994992325958,-0.8643507508894617,-0.041218905460172275,13.611781,-1.6786048,-2.7681415,1.7651647,3.8822992,-2.9915972,1.049278,-0.23691626,0.1816433,0.14275034,-0.943662,-8.385793,7.970413,1.5654243,-1.3611405,0.19176511,-0.07936059,0
1.6300000000000012,11.92263062071649,-0.3241994992325958,-0.8643507508894617,-0.041218905460172275,13.611781,-1.6786048,-2.7681415,1.7651647,3.7981956,-2.9120038,1.0649736,-0.23619631,0.18360367,0.14872217,-0.94254017,-8.435014,7.9480886,1.5735959,-1.1994386,0.027054735,-0.077488974,0
1.6400000000000012,11.92263062071649,-0.3241994992325958,-0.8643507508894617,-0.041218905460172275,13.286943,-0.6269562,-3.640199,1.3874111,3.7135963,-2.8326397,1.0807481,-0.2354831,0.18466888,0.15416478,-0.9416356,-8.484852,7.9245644,1.5812199,-1.0629524,-0.11196751,-0.075709194,0
1.6500000000000012,11.92263062071649,-0.3241994992325958,-0.8643507508894617,-0.041218905460172275,13.286943,-0.6269562,-3.640199,1.3874111,3.628497,-2.7535167,1.0965966,-0.23477231,0.18498005,0.15916073,-0.94092053,-8.535096,7.8998985,1.5883906,-0.94775,-0.22930805,-0.074016765,0
1.6600000000000013,11.92263062071649,-0.3241994992325958,-0.8643507508894617,-0.041218905460172275,13.286943,-0.6269562,-3.640199,1.3874111,3.5428936,-2.6746457,1.1125147,-0.2340603,0.1846558,0.16377944,-0.9403688,-8.585571,7.874141,1.5951891,-0.8505121,-0.3283482,-0.07240737,0
1.6700000000000013,11.92263062071649,-0.3241994992325958,-0.8643507508894617,-0.041218905460172275,13.286943,-0.6269562,-3.640199,1.3874111,3.4567852,-2.5960374,1.1284993,-0.23334402,0.18379584,0.16807927,-0.9399564,-8.636129,7.847335,1.6016848,-0.7684375,-0.41194203,-0.070876956,0
1.6800000000000013,10.82075780297887,0.5314309633896842,-1.6208705532271577,-0.30051283425949327,9.681728,-2.4824166,-2.1987715,-0.13667592,3.370171,-2.5177023,1.1445475,-0.23262104,0.18248409,0.17210938,-0.9396619,-8.686643,7.8195143,1.6079363,-0.6991616,-0.48249874,-0.06942162,0
1.6900000000000013,10.82075780297887,0.5314309633896842,-1.6208705532271577,-0.30051283425949327,9.681728,-2.4824166,-2.1987715,-0.13667592,3.283076,-2.4396372,1.1606091,-0.23192948,0.18042155,0.17566562,-0.9395731,-8.732334,7.793376,1.6043769,-0.5072641,-0.66003215,-0.080761336,0
1.7000000000000013,10.82075780297887,0.5314309633896842,-1.6208705532271577,-0.30051283425949327,9.681728,-2.4824166,-2.1987715,-0.13667592,3.1955256,-2.3618376,1.1766349,-0.23130167,0.17737406,0.17858878,-0.93975705,-8.77767,7.766415,1.6007576,-0.34529355,-0.8098806,-0.0915446,0
1.7100000000000013,10.82075780297887,0.5314309633896842,-1.6208705532271577,-0.30051283425949327,9.681728,-2.4824166,-2.1987715,-0.13667592,3.1075244,-2.2843113,1.1926246,-0.23072788,0.1734936,0.18097703,-0.9401655,-8.822443,7.7387,1.597188,-0.20858274,-0.93636084,-0.10179874,0
1.7200000000000013,9.550870923142465,1.3094142952927585,-2.258567403666843,-0.6554708746697018,8.679226,-1.9993246,-3.0605369,-0.32784808,3.0190792,-2.2070658,1.2085791,-0.23019964,0.16890797,0.18291277,-0.94075525,-8.866478,7.710287,1.593758,-0.09319164,-1.0431168,-0.1115497,0
1.7300000000000013,9.550870923142465,1.3094142952927585,-2.258567403666843,-0.6554708746697018,8.679226,-1.9993246,-3.0605369,-0.32784808,2.9302237,-2.1300907,1.2244447,-0.22975597,0.1634048,0.18423812,-0.94157666,-8.904547,7.684642,1.579413,0.12550889,-1.2326835,-0.13824007,0
1.7400000000000013,9.550870923142465,1.3094142952927585,-2.258567403666843,-0.6554708746697018,8.679226,-1.9993246,-3.0605369,-0.32784808,2.840992,-2.0533745,1.2401685,-0.22942978,0.15681913,0.18483071,-0.94265926,-8.94161,7.658505,1.5653658,0.31010094,-1.392691,-0.16362071,0
1.7500000000000013,9.550870923142465,1.3094142952927585,-2.258567403666843,-0.6554708746697018,8.679226,-1.9993246,-3.0605369,-0.32784808,2.7513957,-1.9769219,1.2557535,-0.22920568,0.14931393,0.18480167,-0.94393724,-8.977466,7.631951,1.5517112,0.465905,-1.5277475,-0.18775593,0
1.7600000000000013,8.864842498075689,1.9897785972312723,-2.516187899404228,-0.9770610818759237,9.797678,-1.0427779,-3.2338412,-0.17108837,2.6614475,-1.9007367,1.2712044,-0.2290702,0.14102668,0.1842442,-0.9453526,-9.011934,7.605044,1.5385209,0.5974115,-1.6417434,-0.21070682,0
1.7700000000000014,8.864842498075689,1.9897785972312723,-2.516187899404228,-0.9770610818759237,9.797678,-1.0427779,-3.2338412,-0.17108837,2.5711741,-1.8248124,1.2864951,-0.22906758,0.13190629,0.18300796,-0.94690865,-9.04249,7.5798016,1.5197147,0.8144883,-1.778162,-0.24831204,0
1.7800000000000014,8.864842498075689,1.9897785972312723,-2.516187899404228,-0.9770610818759237,9.797678,-1.0427779,-3.2338412,-0.17108837,2.4806032,-1.7491415,1.3016005,-0.22923344,0.12191665,0.18097644,-0.94859636,-9.071437,7.554384,1.5014544,0.9977115,-1.8933094,-0.28407198,0
1.7900000000000014,8.864842498075689,1.9897785972312723,-2.516187899404228,-0.9770610818759237,9.797678,-1.0427779,-3.2338412,-0.17108837,2.3897517,-1.6737251,1.3165262,-0.2295451,0.1111857,0.17826712,-0.9503509,-9.098606,7.5288844,1.4837897,1.1523619,-1.9905008,-0.31807718,0
1.8000000000000014,8.511581854081689,2.3607056747590405,-2.419520033256964,-1.2377816417412846,8.433674,-1.0461776,-3.6698754,-0.5107902,2.2986379,-1.5985638,1.3312784,-0.22998302,0.09982213,0.17497887,-0.9521161,-9.123854,7.503384,1.4667481,1.2828959,-2.0725353,-0.3504137,0
1.8100000000000014,8.511581854081689,2.3607056747590405,-2.419520033256964,-1.2377816417412846,8.433674,-1.0461776,-3.6698754,-0.5107902,2.2072864,-1.5236522,1.3458472,-0.23058185,0.08791554,0.17104773,-0.95385784,-9.146127,7.4789724,1.4470845,1.4509072,-2.1267266,-0.3939571,0
1.8200000000000014,8.511581854081689,2.3607056747590405,-2.419520033256964,-1.2377816417412846,8.433674,-1.0461776,-3.6698754,-0.5107902,2.1157224,-1.4489839,1.3602222,-0.23136966,0.07554183,0.16642669,-0.9555433,-9.166319,7.454727,1.4280335,1.5927193,-2.1724668,-0.43536386,0
1.8300000000000014,8.511581854081689,2.3607056747590405,-2.419520033256964,-1.2377816417412846,8.433674,-1.0461776,-3.6698754,-0.5107902,2.0239675,-1.3745567,1.3744099,-0.23232183,0.06276856,0.16121536,-0.95712876,-9.184329,7.430742,1.4095867,1.7124187,-2.2110727,-0.47473878,0
1.8400000000000014,8.511581854081689,2.3607056747590405,-2.419520033256964,-1.2377816417412846,8.487459,-0.83816785,-3.5562246,-0.56635827,1.9320439,-1.3003677,1.388416,-0.23341715,0.0496539,0.15549801,-0.9585773,-9.2000675,7.4070954,1.39172,1.8134539,-2.2436552,-0.5121815,0
1.8500000000000014,8.511581854081689,2.3607056747590405,-2.419520033256964,-1.2377816417412846,8.487459,-0.83816785,-3.5562246,-0.56635827,1.8399745,-1.2264134,1.4022462,-0.23463733,0.0362481,0.1493459,-0.95985746,-9.213457,7.3838573,1.3743972,1.8987358,-2.2711535,-0.5477869,0
1.8600000000000014,8.511581854081689,2.3607056747590405,-2.419520033256964,-1.2377816417412846,8.487459,-0.83816785,-3.5562246,-0.56635827,1.7477832,-1.1526891,1.4159058,-0.23596649,0.022594761,0.14281946,-0.96094275,-9.224428,7.361086,1.35757,1.9707208,-2.2943602,-0.58164513,0
1.8700000000000014,8.511581854081689,2.3607056747590405,-2.419520033256964,-1.2377816417412846,8.487459,-0.83816785,-3.5562246,-0.56635827,1.6554945,-1.07919,1.4293993,-0.23739071,0.00873182,0.13596992,-0.9618112,-9.232925,7.338832,1.3411815,2.0314827,-2.313944,-0.61384195,0
1.8800000000000014,8.34677475065882,2.4156958431650235,-1.9336266674122602,-1.3893652249665132,9.739053,2.5783014,-2.0678737,-1.6863903,1.5631332,-1.0059105,1.4427307,-0.23889771,-0.0053075748,0.12884088,-0.96244425,-9.238895,7.3171387,1.3251663,2.0827715,-2.3304706,-0.6444589,0
1.8900000000000015,8.34677475065882,2.4156958431650235,-1.9336266674122602,-1.3893652249665132,9.739053,2.5783014,-2.0678737,-1.6863903,1.4707257,-0.932843,1.4558955,-0.24051936,-0.019314868,0.12140158,-0.96282816,-9.242235,7.2964554,1.3078586,2.1346629,-2.2686555,-0.6810116,0
1.9000000000000015,8.34677475065882,2.4156958431650235,-1.9336266674122602,-1.3893652249665132,9.739053,2.5783014,-2.0678737,-1.6863903,1.3782973,-0.8599792,1.4688885,-0.24228153,-0.033122536,0.11362982,-0.9629589,-9.243067,7.2764187,1.2907783,2.1784625,-2.2164767,-0.7157707,0
1.9100000000000015,8.34677475065882,2.4156958431650235,-1.9336266674122602,-1.3893652249665132,9.739053,2.5783014,-2.0678737,-1.6863903,1.285873,-0.78731227,1.4817115,-0.24416603,-0.046758726,0.10557142,-0.9628345,-9.2414055,7.257084,1.2738556,2.2154326,-2.1724312,-0.74882424,0
1.9200000000000015,8.25071100066229,2.183732125649813,-1.1495389977774526,-1.4154201669700968,9.81642,2.3783486,-1.4443908,-1.6063073,1.1934777,-0.71483505,1.4943658,-0.24615708,-0.06024647,0.09726542,-0.9624528,-9.237267,7.238496,1.2570187,2.2466378,-2.135251,-0.78025573,0
1.9300000000000015,8.25071100066229,2.183732125649813,-1.1495389977774526,-1.4154201669700968,9.81642,2.3783486,-1.4443908,-1.6063073,1.1011357,-0.64253867,1.5068473,-0.24828032,-0.07328011,0.08875692,-0.9618254,-9.230748,7.220899,1.2392604,2.2368655,-1.9815701,-0.8114235,0
1.9400000000000015,8.25071100066229,2.183732125649813,-1.1495389977774526,-1.4154201669700968,9.81642,2.3783486,-1.4443908,-1.6063073,1.0088707,-0.5704142,1.519151,-0.25055632,-0.085618615,0.08008376,-0.9609768,-9.221893,7.204126,1.2214549,2.2286122,-1.8518541,-0.8410617,0
1.9500000000000015,8.25071100066229,2.183732125649813,-1.1495389977774526,-1.4154201669700968,9.81642,2.3783486,-1.4443908,-1.6063073,0.9167055,-0.4984531,1.531276,-0.25296527,-0.097366326,0.07126701,-0.9599209,-9.210803,7.1882167,1.2035476,2.221641,-1.7423654,-0.86924565,0
1.9600000000000015,8.224838353779276,1.7057788270035785,-0.3826315889655425,-1.351818721404427,9.302208,0.8069643,-0.48550713,-0.6919505,0.824662,-0.4266467,1.5432214,-0.25549006,-0.10861104,0.062324744,-0.9586672,-9.197559,7.173205,1.1854868,2.2157526,-1.6499498,-0.8960465,0
1.9700000000000015,8.224838353779276,1.7057788270035785,-0.3826315889655425,-1.351818721404427,9.302208,0.8069643,-0.48550713,-0.6919505,0.73276114,-0.35498562,1.5549837,-0.2581487,-0.11908325,0.053378012,-0.95725024,-9.182297,7.1591597,1.1669744,2.1363163,-1.4522971,-0.91841143,0
1.9800000000000015,8.224838353779276,1.7057788270035785,-0.3826315889655425,-1.351818721404427,9.302208,0.8069643,-0.48550713,-0.6919505,0.64102256,-0.2834603,1.5665599,-0.26095524,-0.12857428,0.044523392,-0.95571303,-9.16512,7.1460505,1.1482315,2.069256,-1.285472,-0.93967885,0
1.9900000000000015,8.224838353779276,1.7057788270035785,-0.3826315889655425,-1.351818721404427,9.302208,0.8069643,-0.48550713,-0.6919505,0.54946476,-0.21206132,1.5779475,-0.26389024,-0.13723414,0.035742473,-0.9540702,-9.146176,7.1338887,1.1292373,2.012643,-1.1446666,-0.9599027,0
2.0000000000000013,,,,,9.081197,0.121660754,-0.13298498,-0.60599554,0.45810467,-0.14077923,1.5891439,-0.26693678,-0.14518929,0.027020007,-0.9523306,-9.125592,7.122681,1.109974,1.9648492,-1.0258225,-0.97913414,1
2.010000000000001,,,,,9.081197,0.121660754,-0.13298498,-0.60599554,0.36696953,-0.069609866,1.6001871,-0.2700897,-0.15227944,0.018933542,-0.95052767,-9.101186,7.1113467,1.098606,1.6775045,-0.8863817,-0.9608241,1
2.020000000000001,,,,,9.081197,0.121660754,-0.13298498,-0.60599554,0.276086,0.0014508404,1.6111149,-0.27334026,-0.15838408,0.011941743,-0.94871265,-9.075308,7.100926,1.0869256,1.434954,-0.7687218,-0.94341254,1
2.0300000000000007,,,,,9.081197,0.121660754,-0.13298498,-0.60599554,0.18546773,0.072411284,1.6219244,-0.276669,-0.16365536,0.0058729737,-0.9469083,-9.048164,7.091273,1.0749459,1.2302151,-0.66943985,-0.9268554,1
2.0400000000000005,,,,,9.081197,0.121660754,-0.13298498,-0.60599554,0.09512648,0.14327851,1.6326127,-0.28005838,-0.16822167,0.00058251957,-0.945128,-9.019929,7.082264,1.0626847,1.0573932,-0.58566475,-0.9111107,1
2.0500000000000003,,,,,9.44853,-0.77059376,-0.038829923,-0.1297834,0.0050724074,0.21405843,1.6431773,-0.28349298,-0.1721915,-0.0040515526,-0.943379,-8.990748,7.0737953,1.0501621,0.9115132,-0.51497406,-0.89613855,1
2.06,,,,,9.44853,-0.77059376,-0.038829923,-0.1297834,-0.08467964,0.28475434,1.6536325,-0.2869659,-0.1755197,-0.007795899,-0.94169056,-8.959542,7.065446,1.0408529,0.64924407,-0.44055033,-0.8585333,1
2.07,,,,,9.44853,-0.77059376,-0.038829923,-0.1297834,-0.1741161,0.3553684,1.6639936,-0.2904653,-0.1781749,-0.010469865,-0.94009167,-8.927658,7.0574055,1.0313319,0.42786518,-0.37776834,-0.8227734,1
2.0799999999999996,,,,,9.44853,-0.77059376,-0.038829923,-0.1297834,-0.26323104,0.42590296,1.6742586,-0.2939717,-0.18026029,-0.012238978,-0.93858165,-8.895262,7.0495243,1.0216388,0.24100178,-0.32480526,-0.7887681,1
2.0899999999999994,,,,,9.930642,-0.89846504,0.13373289,0.0411797,-0.35202003,0.496359,1.684426,-0.29746857,-0.1818629,-0.013242746,-0.937156,-8.86249,7.041676,1.0118098,0.08327284,-0.28012463,-0.7564315,1
2.099999999999999,,,,,9.930642,-0.89846504,0.13373289,0.0411797,-0.4404715,0.56673425,1.694517,-0.30093053,-0.18297659,-0.0135676265,-0.9358283,-8.827776,7.033353,1.0063783,-0.06979121,-0.21551007,-0.7172925,1
2.109999999999999,,,,,9.930642,-0.89846504,0.13373289,0.0411797,-0.52857506,0.63702554,1.7045532,-0.30433437,-0.18360032,-0.013287867,-0.93460864,-8.792923,7.024863,1.0008793,-0.19899288,-0.16099012,-0.6800741,1
2.1199999999999988,,,,,9.930642,-0.89846504,0.13373289,0.0411797,-0.6163299,0.7072307,1.7145344,-0.30767033,-0.18380883,-0.012495422,-0.9334857,-8.758047,7.01613,0.99534905,-0.3080522,-0.11498687,-0.644682,1
2.1299999999999986,,,,,10.3698015,-1.0140337,0.124546856,0.2745454,-0.70373625,0.777347,1.72446,-0.31093067,-0.18366529,-0.011267857,-0.9324487,-8.723248,7.007091,0.98981833,-0.4001089,-0.07616915,-0.6110265,1
2.1399999999999983,,,,,10.3698015,-1.0140337,0.124546856,0.2745454,-0.7907877,0.84736913,1.734351,-0.31409118,-0.18321231,-0.009621081,-0.9314965,-8.68708,6.997277,0.9884077,-0.49583644,-0.044843324,-0.5675713,1
2.149999999999998,,,,,10.3698015,-1.0140337,0.124546856,0.2745454,-0.8774787,0.91729105,1.7442282,-0.31712908,-0.18248628,-0.007570398,-0.93062824,-8.651166,6.9870305,0.9870468,-0.57663864,-0.018412523,-0.5262484,1
2.159999999999998,,,,,10.3698015,-1.0140337,0.124546856,0.2745454,-0.96381223,0.9871081,1.7540922,-0.3200415,-0.18152803,-0.0051754625,-0.9298347,-8.61558,6.976301,0.9857547,-0.6448425,0.0038887113,-0.4869532,1
2.1699999999999977,,,,,10.028711,-1.2077613,-0.4395005,1.6958536,-1.0497918,1.0568153,1.7639438,-0.32282698,-0.18037207,-0.0024867519,-0.92910755,-8.580385,6.965048,0.9845463,-0.7024121,0.02270661,-0.44958624,1
2.1799999999999975,,,,,10.028711,-1.2077613,-0.4395005,1.6958536,-1.1354163,1.1264052,1.7737982,-0.3253188,-0.17912671,0.00040794048,-0.92848235,-8.544655,6.952907,0.9861601,-0.7154665,0.016340502,-0.35019875,1
2.1899999999999973,,,,,10.028711,-1.2077613,-0.4395005,1.6958536,-1.2206881,1.1958717,1.7836628,-0.3273698,-0.17790852,0.0035023552,-0.927989,-8.509865,6.9403453,0.98654807,-0.7411915,-0.003735458,-0.25437427,1
2.199999999999997,,,,,10.028711,-1.2077613,-0.4395005,1.6958536,-1.3056167,1.2652105,1.7935247,-0.3290064,-0.1767562,0.0068692546,-0.9276115,-8.476021,6.927355,0.98565465,-0.77811015,-0.035887707,-0.16189301,1
2.209999999999997,,,,,10.619682,-1.5034543,-1.2289808,2.392768,-1.3902118,1.3344172,1.8033712,-0.33025193,-0.17570317,0.01057274,-0.9273341,-8.443127,6.9139113,0.98342866,-0.8248893,-0.07864898,-0.07255383,1
2.2199999999999966,,,,,10.619682,-1.5034543,-1.2289808,2.392768,-1.4744546,1.4034749,1.8132713,-0.3310383,-0.17484382,0.014498028,-0.92716306,-8.405569,6.8975434,0.99639493,-0.80395126,-0.13134795,0.037076585,1
