time-since-start [s],throttle_mpc,roll_mpc,pitch_mpc,yaw_mpc,throttle_nw,roll_nw,pitch_nw,yaw_nw,position_x [m],position_y [m],position_z [m],rotation_w [quaternion],rotation_x [quaternion],rotation_y [quaternion],rotation_z [quaternion],velocity_x [m/s],velocity_y [m/s],velocity_z [m/s],omega_x [rad/s],omega_y [rad/s],omega_z [rad/s],network_used
0.0,6.90865225744457,0.13015199992251605,-5.999999268707038,-0.11371386484682423,11.396465,1.7180603,-5.407635,-0.8726768,12.42535,-11.379731,1.2052342,0.34487528,-0.3926113,0.15779059,0.83786607,-4.265631,4.185425,1.2388908,0.3162994,-0.26845098,0.26592615,0
0.01,6.90865225744457,0.13015199992251605,-5.999999268707038,-0.11371386484682423,14.1960335,2.1069934,-5.243209,-1.1499175,12.3824835,-11.337671,1.2173798,0.34483412,-0.3890842,0.1582062,0.8394485,-4.3075027,4.22635,1.1899986,0.21073212,-1.0856313,0.2541754,0
0.02,6.90865225744457,0.13015199992251605,-5.999999268707038,-0.11371386484682423,14.1960335,2.1069934,-5.243209,-1.1499175,12.339207,-11.295211,1.2290299,0.345281,-0.38247687,0.15692468,0.84253615,-4.3474054,4.2655783,1.1398692,0.15052018,-1.8042866,0.24041441,0
0.03,6.90865225744457,0.13015199992251605,-5.999999268707038,-0.11371386484682423,14.1960335,2.1069934,-5.243209,-1.1499175,12.295542,-11.252367,1.2401745,0.34621066,-0.37307566,0.1542621,0.84685063,-4.3852496,4.3029404,1.0889611,0.1267784,-2.4379702,0.22490408,0
0.04,6.90865225744457,0.13015199992251605,-5.999999268707038,-0.11371386484682423,11.311487,0.60353583,-2.7885158,-0.07605404,12.251509,-11.209158,1.2508086,0.34759608,-0.3611301,0.15047398,0.85212654,-4.4212337,4.3386006,1.0380011,0.12622318,-2.9923375,0.20839375,0
0.05,6.90865225744457,0.13015199992251605,-5.999999268707038,-0.11371386484682423,11.311487,0.60353583,-2.7885158,-0.07605404,12.207121,-11.165597,1.2609395,0.34935775,-0.34693745,0.14573693,0.8581051,-4.456095,4.373289,0.9884186,0.12686424,-3.461382,0.19258785,0
0.060000000000000005,6.90865225744457,0.13015199992251605,-5.999999268707038,-0.11371386484682423,11.311487,0.60353583,-2.7885158,-0.07605404,12.16239,-11.1216955,1.2705826,0.35139617,-0.33079994,0.14017826,0.86454743,-4.4896894,4.4068727,0.94047886,0.12738895,-3.857279,0.17755753,0
0.07,6.90865225744457,0.13015199992251605,-5.999999268707038,-0.11371386484682423,11.311487,0.60353583,-2.7885158,-0.07605404,12.1173315,-11.077464,1.279755,0.3536232,-0.31297472,0.13390543,0.87124443,-4.521823,4.43917,0.8943086,0.12781958,-4.1914363,0.16326475,0
0.08,9.3136388538369,0.014857886516642342,-5.99999912500072,-0.1878643490688042,16.728626,1.7458519,-6.021829,-1.7833867,12.0719595,-11.032917,1.288475,0.3559621,-0.2936819,0.12701024,0.878015,-4.5523133,4.4700103,0.84998125,0.12817374,-4.4734817,0.14967334,0
0.09,9.3136388538369,0.014857886516642342,-5.99999912500072,-0.1878643490688042,16.728626,1.7458519,-6.021829,-1.7833867,12.02624,-10.988018,1.2968574,0.35834122,-0.27312893,0.11952852,0.8847062,-4.5909724,4.5094037,0.8268918,0.11047456,-4.711544,0.13311027,0
0.09999999999999999,9.3136388538369,0.014857886516642342,-5.99999912500072,-0.1878643490688042,16.728626,1.7458519,-6.021829,-1.7833867,11.980148,-10.942738,1.3050215,0.36070165,-0.25149482,0.11149412,0.8911868,-4.6269794,4.546402,0.80629957,0.09553019,-4.9124804,0.11735995,0
0.10999999999999999,9.3136388538369,0.014857886516642342,-5.99999912500072,-0.1878643490688042,16.728626,1.7458519,-6.021829,-1.7833867,11.933709,-10.8970995,1.3129919,0.36299875,-0.22891904,0.10297864,0.89734244,-4.660142,4.5808043,0.78813326,0.08291287,-5.0820804,0.102382526,0
0.11999999999999998,9.3136388538369,0.014857886516642342,-5.99999912500072,-0.1878643490688042,16.728626,1.7458519,-6.021829,-1.7833867,11.886953,-10.851131,1.3207922,0.3651942,-0.20552437,0.09404482,0.9030773,-4.690284,4.612425,0.7722781,0.07226098,-5.225231,0.08814003,0
0.12999999999999998,11.644745385379919,-0.17780969880541933,-5.9999987076261565,-0.2411895498585794,13.412465,0.60991526,-4.0894294,-0.15057631,11.839912,-10.804862,1.3284448,0.36725512,-0.1814195,0.08474795,0.9083108,-4.7172413,4.6410933,0.75858116,0.06326884,-5.346057,0.07459642,0
0.13999999999999999,11.644745385379919,-0.17780969880541933,-5.9999987076261565,-0.2411895498585794,13.412465,0.60991526,-4.0894294,-0.15057631,11.792589,-10.758288,1.3360783,0.369146,-0.1567302,0.07506566,0.9129798,-4.746784,4.6730504,0.76847607,0.025622737,-5.448041,0.059100695,0
0.15,11.644745385379919,-0.17780969880541933,-5.9999987076261565,-0.2411895498585794,13.412465,0.60991526,-4.0894294,-0.15057631,11.744992,-10.711414,1.3438219,0.37084007,-0.13156615,0.064984694,0.9170306,-4.7720213,4.7009273,0.7805707,-0.0061523356,-5.5341196,0.04436537,0
0.16,12.616493373550686,-0.3519392970022599,-5.99999366876761,-0.22986361182456602,14.799156,0.85993135,-3.676814,-0.16456814,11.697165,-10.664284,1.3516963,0.3723227,-0.10599736,0.05456377,0.92041475,-4.792829,4.724548,0.79456806,-0.03297122,-5.606774,0.030353097,0
0.17,12.616493373550686,-0.3519392970022599,-5.99999366876761,-0.22986361182456602,14.799156,0.85993135,-3.676814,-0.16456814,11.649144,-10.61693,1.359766,0.3735728,-0.080113396,0.04379078,0.92309684,-4.810466,4.7453613,0.8196321,-0.08276015,-5.6680965,0.017584186,0
0.18000000000000002,12.616493373550686,-0.3519392970022599,-5.99999366876761,-0.22986361182456602,14.799156,0.85993135,-3.676814,-0.16456814,11.600972,-10.569393,1.3680934,0.37457427,-0.053993106,0.03266094,0.92504716,-4.8231206,4.761239,0.84603643,-0.12478298,-5.7198553,0.005441848,0
0.19000000000000003,12.616493373550686,-0.3519392970022599,-5.99999366876761,-0.22986361182456602,14.799156,0.85993135,-3.676814,-0.16456814,11.552699,-10.521724,1.37669,0.37532136,-0.02768284,0.021233259,0.92623794,-4.830743,4.7720456,0.87339,-0.16025111,-5.7635417,-0.0061046565,0
0.20000000000000004,12.164158805083725,-0.40533248912073405,-3.048987297521557,-0.20388745224241459,14.633197,0.9593431,-1.4299885,-0.45545736,11.504375,-10.473971,1.3855631,0.37580845,-0.001225953,0.0095599,0.9266473,-4.833298,4.7776732,0.90128696,-0.19018637,-5.8004146,-0.017084576,0
0.21000000000000005,12.164158805083725,-0.40533248912073405,-3.048987297521557,-0.20388745224241459,14.633197,0.9593431,-1.4299885,-0.45545736,11.456051,-10.426189,1.3946936,0.376029,0.024234861,-0.0018886826,0.926289,-4.8309093,4.778074,0.92478937,-0.22376578,-5.371329,-0.02625104,0
0.22000000000000006,12.164158805083725,-0.40533248912073405,-3.048987297521557,-0.20388745224241459,14.633197,0.9593431,-1.4299885,-0.45545736,11.407773,-10.378427,1.4040581,0.37602505,0.047792505,-0.012735988,0.92528856,-4.823978,4.773684,0.9480409,-0.25210336,-5.0091586,-0.034967728,0
0.23000000000000007,12.164158805083725,-0.40533248912073405,-3.048987297521557,-0.20388745224241459,14.633197,0.9593431,-1.4299885,-0.45545736,11.359585,-10.33073,1.4136525,0.3758501,0.0697305,-0.023067612,0.9237653,-4.8128724,4.7648044,0.97073704,-0.27601776,-4.7034693,-0.043256663,0
0.24000000000000007,12.164158805083725,-0.40533248912073405,-3.048987297521557,-0.20388745224241459,13.38922,0.5553674,-0.31210467,-0.48792136,11.311528,-10.283145,1.42347,0.37554294,0.09029065,-0.032956857,0.92180747,-4.7979107,4.7516966,0.9926311,-0.29620004,-4.4454517,-0.051138878,0
0.25000000000000006,12.164158805083725,-0.40533248912073405,-3.048987297521557,-0.20388745224241459,13.38922,0.5553674,-0.31210467,-0.48792136,11.263639,-10.23571,1.4335016,0.37513152,0.10967846,-0.042466212,0.9194801,-4.7793717,4.73459,1.013519,-0.31323287,-4.2276716,-0.058634296,0
0.26000000000000006,12.164158805083725,-0.40533248912073405,-3.048987297521557,-0.20388745224241459,13.38922,0.5553674,-0.31210467,-0.48792136,11.215953,-10.188466,1.4437363,0.37463564,0.12806809,-0.05164878,0.916831,-4.7574973,4.7136865,1.033229,-0.32760757,-4.0438547,-0.065761924,0
0.2700000000000001,12.164158805083725,-0.40533248912073405,-3.048987297521557,-0.20388745224241459,13.38922,0.5553674,-0.31210467,-0.48792136,11.1685,-10.141449,1.4541616,0.37406904,0.14560682,-0.060549527,0.91389537,-4.732498,4.6891613,1.0516124,-0.3397394,-3.8887038,-0.07253978,0
0.2800000000000001,11.453480778130132,-0.37859215139652763,2.6434977622500386,-0.17096966556617074,12.343772,0.34811476,2.0987341,-0.12694173,11.121313,-10.094694,1.4647635,0.37344104,0.16241898,-0.06920644,0.91069883,-4.7045593,4.6611714,1.0685383,-0.34997836,-3.7577488,-0.07898504,0
0.2900000000000001,11.453480778130132,-0.37859215139652763,2.6434977622500386,-0.17096966556617074,12.343772,0.34811476,2.0987341,-0.12694173,11.0744095,-10.048226,1.4754938,0.37292567,0.17654526,-0.076794066,0.9076679,-4.6757154,4.63176,1.0773032,-0.35439762,-2.7594767,-0.08349876,0
0.3000000000000001,11.453480778130132,-0.37859215139652763,2.6434977622500386,-0.17096966556617074,12.343772,0.34811476,2.0987341,-0.12694173,11.027805,-10.002067,1.4863054,0.37271068,0.18646236,-0.082668565,0.9052538,-4.644969,4.599907,1.0848328,-0.35813037,-1.9168848,-0.087790996,0
0.3100000000000001,11.453480778130132,-0.37859215139652763,2.6434977622500386,-0.17096966556617074,12.343772,0.34811476,2.0987341,-0.12694173,10.981516,-9.956234,1.4971874,0.37280038,0.19284746,-0.08710198,0.90346164,-4.612994,4.5662665,1.0914412,-0.36128405,-1.2056946,-0.09187259,0
0.3200000000000001,10.837923985376289,-0.3265740740320117,5.999998295237175,-0.1305037087444644,13.114004,-0.030954286,5.53818,-0.18947855,10.935549,-9.910746,1.5081321,0.37317935,0.196265,-0.09032142,0.90225226,-4.5803475,4.531381,1.0974339,-0.36394894,-0.60541403,-0.0957539,0
0.3300000000000001,10.837923985376289,-0.3265740740320117,5.999998295237175,-0.1305037087444644,13.114004,-0.030954286,5.53818,-0.18947855,10.8899,-9.8656,1.519107,0.37393534,0.19598123,-0.09199716,0.9018315,-4.549298,4.4976616,1.0975428,-0.35805562,0.42469633,-0.09745909,0
0.34000000000000014,10.837923985376289,-0.3265740740320117,5.999998295237175,-0.1305037087444644,13.114004,-0.030954286,5.53818,-0.18947855,10.844562,-9.820792,1.5300832,0.3751244,0.19143263,-0.09187393,0.9023272,-4.5187273,4.4638705,1.097777,-0.35308966,1.2941616,-0.09908059,0
0.35000000000000014,10.837923985376289,-0.3265740740320117,5.999998295237175,-0.1305037087444644,13.114004,-0.030954286,5.53818,-0.18947855,10.799522,-9.77632,1.541064,0.37666553,0.18327549,-0.09022405,0.90354455,-4.489257,4.4306326,1.098533,-0.3489053,2.0280344,-0.100622535,0
0.36000000000000015,9.41524369348306,-0.2810395050365833,5.999999638853851,-0.15306663913400986,14.2232065,0.2440562,6.1870337,-0.14924166,10.754771,-9.732175,1.5520564,0.3784741,0.17205672,-0.08727439,0.90528286,-4.4614153,4.3984847,1.1001173,-0.34537974,2.6474597,-0.102088824,0
0.37000000000000016,9.41524369348306,-0.2810395050365833,5.999999638853851,-0.15306663913400986,14.2232065,0.2440562,6.1870337,-0.14924166,10.71027,-9.688325,1.5630039,0.3804668,0.15824202,-0.08319806,0.9073492,-4.439041,4.3719125,1.0895241,-0.335306,3.1702864,-0.10459032,0
0.38000000000000017,9.41524369348306,-0.2810395050365833,5.999999638853851,-0.15306663913400986,14.2232065,0.2440562,6.1870337,-0.14924166,10.665982,-9.644732,1.5738504,0.3825667,0.14222401,-0.07814184,0.90956527,-4.418822,4.347057,1.0799525,-0.3268075,3.6115785,-0.10696906,0
0.3900000000000002,9.41524369348306,-0.2810395050365833,5.999999638853851,-0.15306663913400986,14.2232065,0.2440562,6.1870337,-0.14924166,10.621884,-9.6013775,1.5846065,0.3847046,0.12432921,-0.07224639,0.9117703,-4.4010534,4.3242373,1.0714474,-0.31963825,3.9840512,-0.10923108,0
0.4000000000000002,9.5953964181501,-0.19979675106040456,5.9999996984680415,-0.12300893351153283,12.922365,0.13609765,6.520916,-0.20730127,10.577951,-9.55824,1.5952829,0.38681886,0.10483651,-0.065631755,0.9138232,-4.3859935,4.303738,1.0639921,-0.3135906,4.2984376,-0.1113821,0
0.4100000000000002,9.5953964181501,-0.19979675106040456,5.9999996984680415,-0.12300893351153283,12.922365,0.13609765,6.520916,-0.20730127,10.534156,-9.515296,1.6058984,0.38884878,0.08399784,-0.058371607,0.9156056,-4.3736324,4.2854657,1.0592681,-0.29582357,4.563794,-0.11195264,0
0.4200000000000002,9.5953964181501,-0.19979675106040456,5.9999996984680415,-0.12300893351153283,12.922365,0.13609765,6.520916,-0.20730127,10.490468,-9.472521,1.6164712,0.39074257,0.062029965,-0.050531458,0.9170163,-4.3644457,4.2700434,1.0554197,-0.28083035,4.787769,-0.11249518,0
0.4300000000000002,9.5953964181501,-0.19979675106040456,5.9999996984680415,-0.12300893351153283,12.922365,0.13609765,6.520916,-0.20730127,10.446856,-9.429885,1.6270093,0.3924621,0.039109074,-0.042196464,0.91796696,-4.3585896,4.257673,1.0522835,-0.26817757,4.9768147,-0.11301111,0
0.4400000000000002,9.5953964181501,-0.19979675106040456,5.9999996984680415,-0.12300893351153283,12.796792,0.31098503,6.392236,-0.46059215,10.403284,-9.387357,1.6375186,0.39397484,0.015388867,-0.033440616,0.9183837,-4.3561926,4.2485285,1.049661,-0.2575003,5.1363792,-0.11350171,0
0.45000000000000023,9.5953964181501,-0.19979675106040456,5.9999996984680415,-0.12300893351153283,12.796792,0.31098503,6.392236,-0.46059215,10.359719,-9.344902,1.6480035,0.39525327,-0.008995923,-0.024328487,0.91820586,-4.3573585,4.242757,1.0473241,-0.24848998,5.27106,-0.11396823,0
0.46000000000000024,9.5953964181501,-0.19979675106040456,5.9999996984680415,-0.12300893351153283,12.796792,0.31098503,6.392236,-0.46059215,10.316125,-9.302489,1.6584653,0.39627424,-0.033926666,-0.014916631,0.91738385,-4.362164,4.2404795,1.04502,-0.24088645,5.3847375,-0.11441185,0
0.47000000000000025,9.5953964181501,-0.19979675106040456,5.9999996984680415,-0.12300893351153283,12.796792,0.31098503,6.392236,-0.46059215,10.272465,-9.260081,1.668903,0.3970185,-0.059298407,-0.0052548107,0.9158779,-4.370662,4.241793,1.0424769,-0.23446995,5.4806867,-0.11483373,0
0.48000000000000026,10.587644157733244,-0.11341156033326807,5.999999661286732,-0.07583338624509321,12.984965,0.15601249,6.1386895,-0.5364078,10.228701,-9.217641,1.6793131,0.39747015,-0.08501791,0.0046130237,0.9136564,-4.382884,4.246771,1.0394075,-0.22905533,5.561673,-0.11523488,0
0.49000000000000027,10.587644157733244,-0.11341156033326807,5.999999661286732,-0.07583338624509321,12.984965,0.15601249,6.1386895,-0.5364078,10.184787,-9.175129,1.6897371,0.39761406,-0.11098813,0.014679961,0.91069704,-4.400487,4.256364,1.0452555,-0.21102285,5.6300287,-0.11330143,0
0.5000000000000002,10.587644157733244,-0.11341156033326807,5.999999661286732,-0.07583338624509321,12.984965,0.15601249,6.1386895,-0.5364078,10.1406765,-9.1325,1.7002137,0.3974385,-0.13712344,0.024936803,0.9069828,-4.4221835,4.2700963,1.0498575,-0.19580305,5.687724,-0.111462854,0
0.5100000000000002,10.587644157733244,-0.11341156033326807,5.999999661286732,-0.07583338624509321,12.984965,0.15601249,6.1386895,-0.5364078,10.096329,-9.089713,1.7107288,0.39693597,-0.16336028,0.03534361,0.9024998,-4.44793,4.2879844,1.0528717,-0.18295702,5.7364216,-0.109714516,0
0.5200000000000002,11.99631122387482,-0.00851916626341959,5.999999417006419,-0.032503959482239705,13.18804,0.20515382,5.6320705,-0.4255107,10.051703,-9.046726,1.7212645,0.39610058,-0.18964094,0.045864906,0.89723843,-4.4776607,4.310023,1.053955,-0.17211488,5.7775254,-0.10805194,0
0.5300000000000002,11.99631122387482,-0.00851916626341959,5.999999417006419,-0.032503959482239705,13.18804,0.20515382,5.6320705,-0.4255107,10.00674,-9.003481,1.7318647,0.3949314,-0.2158958,0.05650767,0.891193,-4.515765,4.3396635,1.0656586,-0.14661376,5.8122177,-0.10434478,0
0.5400000000000003,11.99631122387482,-0.00851916626341959,5.999999417006419,-0.032503959482239705,13.18804,0.20515382,5.6320705,-0.4255107,9.961373,-8.959916,1.7425673,0.39342862,-0.24206305,0.067274116,0.8843605,-4.5581613,4.3739276,1.0744036,-0.12508953,5.8415008,-0.10081953,0
0.5500000000000003,11.99631122387482,-0.00851916626341959,5.999999417006419,-0.032503959482239705,13.18804,0.20515382,5.6320705,-0.4255107,9.915562,-8.915987,1.7533411,0.3915897,-0.26810268,0.07812785,0.8767408,-4.604702,4.412746,1.079814,-0.10692145,5.866217,-0.09746726,0
0.5600000000000003,12.680415307155863,0.08674913588437096,5.99999875377843,0.00034125216918405436,12.201755,0.52499586,4.303197,-0.29955372,9.869266,-8.871648,1.764151,0.3894129,-0.2939772,0.0890365,0.86833596,-4.655224,4.456026,1.081522,-0.091586486,5.8870792,-0.09427948,0
0.5700000000000003,12.680415307155863,0.08674913588437096,5.99999875377843,0.00034125216918405436,12.201755,0.52499586,4.303197,-0.29955372,9.822429,-8.82684,1.7749853,0.38690528,-0.31963623,0.10000537,0.85914826,-4.7126446,4.5063686,1.0846316,-0.06379186,5.904687,-0.08963642,0
0.5800000000000003,12.680415307155863,0.08674913588437096,5.99999875377843,0.00034125216918405436,12.201755,0.52499586,4.303197,-0.29955372,9.774999,-8.781506,1.7858276,0.3840736,-0.34503442,0.11103549,0.8491818,-4.773867,4.5611725,1.0830891,-0.04033106,5.919549,-0.085221194,0
0.5900000000000003,12.680415307155863,0.08674913588437096,5.99999875377843,0.00034125216918405436,12.201755,0.52499586,4.303197,-0.29955372,9.726938,-8.735601,1.7966298,0.3809167,-0.37014455,0.122093655,0.8384441,-4.8386602,4.620281,1.0765474,-0.020528633,5.932094,-0.08102263,0
0.6000000000000003,12.395349853552224,0.1704737699910086,5.999996228201275,0.058898330387731956,11.734756,0.8980764,1.9746155,0.07867406,9.678214,-8.689086,1.8073401,0.3774342,-0.39494017,0.13315034,0.8269441,-4.9067807,4.683519,1.0646764,-0.003813772,5.9426827,-0.07703008,0
0.6100000000000003,12.395349853552224,0.1704737699910086,5.999996228201275,0.058898330387731956,11.734756,0.8980764,1.9746155,0.07867406,9.628801,-8.641925,1.8178948,0.37363368,-0.41938215,0.1442096,0.8146901,-4.9763722,4.7491803,1.0453533,0.023340762,5.951619,-0.07036003,0
0.6200000000000003,12.395349853552224,0.1704737699910086,5.999996228201275,0.058898330387731956,11.734756,0.8980764,1.9746155,0.07867406,9.578677,-8.5940895,1.8282275,0.36952212,-0.44343486,0.15527192,0.80169165,-5.048699,4.8184853,1.0202321,0.046261963,5.9591627,-0.06401729,0
0.6300000000000003,12.395349853552224,0.1704737699910086,5.999996228201275,0.058898330387731956,11.734756,0.8980764,1.9746155,0.07867406,9.527818,-8.545543,1.8382788,0.365099,-0.46707797,0.16630746,0.7879611,-5.1234827,4.8912153,0.989049,0.06560972,5.9655304,-0.057985794,0
0.6400000000000003,12.395349853552224,0.1704737699910086,5.999996228201275,0.058898330387731956,10.646613,0.77668935,1.2391217,0.24335966,9.4762,-8.496252,1.8479868,0.36036453,-0.49029115,0.17728959,0.77351177,-5.2004395,4.9671354,0.9515621,0.08194107,5.9709053,-0.052250277,0
0.6500000000000004,12.395349853552224,0.1704737699910086,5.999996228201275,0.058898330387731956,10.646613,0.77668935,1.2391217,0.24335966,9.423803,-8.446188,1.8572876,0.35531956,-0.5130543,0.18819444,0.7583575,-5.2792788,5.045995,0.90755165,0.09572671,5.975442,-0.046796177,0
0.6600000000000004,12.395349853552224,0.1704737699910086,5.999996228201275,0.058898330387731956,10.646613,0.77668935,1.2391217,0.24335966,9.370609,-8.395323,1.8661147,0.34996572,-0.53534764,0.19900042,0.74251306,-5.3597054,5.1275296,0.8568211,0.10736334,5.979271,-0.04160972,0
0.6700000000000004,12.395349853552224,0.1704737699910086,5.999996228201275,0.058898330387731956,10.646613,0.77668935,1.2391217,0.24335966,9.316605,-8.34363,1.8744004,0.34430537,-0.55715173,0.20968795,0.7259936,-5.441419,5.211461,0.79919845,0.11718624,5.982503,-0.03667776,0
0.6800000000000004,11.597868700396031,0.21802438517384415,3.2260431455493093,0.10982481863588943,8.032682,0.47172442,2.3142807,0.4421636,9.261778,-8.291086,1.8820746,0.3383414,-0.5784473,0.22023913,0.7088148,-5.524119,5.297501,0.73453635,0.125478,5.9852314,-0.03198782,0
0.6900000000000004,11.597868700396031,0.21802438517384415,3.2260431455493093,0.10982481863588943,8.032682,0.47172442,2.3142807,0.4421636,9.206146,-8.237702,1.8890579,0.33233958,-0.5984402,0.23028612,0.6916559,-5.6021285,5.3796887,0.6610782,0.13987644,5.554938,-0.025029028,0
0.7000000000000004,11.597868700396031,0.21802438517384415,3.2260431455493093,0.10982481863588943,8.032682,0.47172442,2.3142807,0.4421636,9.149734,-8.183489,1.8952744,0.32655162,-0.61657035,0.23956306,0.6751402,-5.6804643,5.4632187,0.581261,0.15203519,5.191748,-0.018411722,0
0.7100000000000004,11.597868700396031,0.21802438517384415,3.2260431455493093,0.10982481863588943,8.032682,0.47172442,2.3142807,0.4421636,9.092537,-8.128435,1.9006625,0.3209551,-0.63312924,0.24819,0.65919393,-5.758862,5.547782,0.49545547,0.16230224,4.8851976,-0.012119125,0
0.7200000000000004,10.469179221758209,0.2552888789174525,-2.7128486562105945,0.16358957910459998,8.304126,-0.02488054,-2.691463,0.26068375,9.034557,-8.072531,1.905164,0.31552556,-0.6483564,0.25626627,0.643743,-5.8371043,5.633121,0.4039912,0.17097196,4.6264544,-0.0061353026,0
0.7300000000000004,10.469179221758209,0.2552888789174525,-2.7128486562105945,0.16358957910459998,8.304126,-0.02488054,-2.691463,0.26068375,8.975826,-8.015803,1.9087232,0.31089607,-0.6609663,0.26320446,0.63023055,-5.908514,5.7118464,0.30717614,0.20029695,3.4980912,0.00070864125,0
0.7400000000000004,10.469179221758209,0.2552888789174525,-2.7128486562105945,0.16358957910459998,8.304126,-0.02488054,-2.691463,0.26068375,8.91639,-7.9582953,1.9112942,0.3075739,-0.67002344,0.26849955,0.6199796,-5.9784503,5.789705,0.206541,0.20885974,2.5295,0.008701255,0
0.7500000000000004,10.469179221758209,0.2552888789174525,-2.7128486562105945,0.16358957910459998,8.304126,-0.02488054,-2.691463,0.26068375,8.856257,-7.900008,1.9128447,0.30539796,-0.67618257,0.27242965,0.61261004,-6.0479937,5.86778,0.1031543,0.21609624,1.7119598,0.016301682,0
0.7600000000000005,9.064748837989416,0.3752072727861621,-5.999999537051335,0.09283103860485115,6.856416,-0.10780275,-5.8018417,0.72238684,8.795431,-7.8409395,1.913351,0.30422184,-0.6799637,0.27523512,0.6077366,-6.117182,5.946022,-0.0021084007,0.22221075,1.0219145,0.023529137,0
0.7700000000000005,9.064748837989416,0.3752072727861621,-5.999999537051335,0.09283103860485115,6.856416,-0.10780275,-5.8018417,0.72238684,8.733942,-7.78112,1.9128021,0.30428305,-0.6810504,0.27678588,0.6057817,-6.1796117,6.0170584,-0.10767823,0.25382307,-0.030290365,0.026239749,0
0.7800000000000005,9.064748837989416,0.3752072727861621,-5.999999537051335,0.09283103860485115,6.856416,-0.10780275,-5.8018417,0.72238684,8.671848,-7.720609,1.9111984,0.3057991,-0.6790697,0.27690527,0.60718566,-6.2391014,6.085104,-0.21299872,0.27300876,-0.96102417,0.029485134,0
0.7900000000000005,9.064748837989416,0.3752072727861621,-5.999999537051335,0.09283103860485115,6.856416,-0.10780275,-5.8018417,0.72238684,8.609159,-7.6594176,1.9085448,0.3085417,-0.6744385,0.27577108,0.61146116,-6.2984743,6.1532955,-0.3175406,0.2889651,-1.7468486,0.03259355,0
0.8000000000000005,6.862920059961986,0.9028546402089894,-5.999999885245311,-0.6703749510272313,8.029616,0.8049134,-6.1582127,0.5825592,8.545878,-7.597543,1.9048527,0.31229654,-0.66751647,0.27355486,0.6181101,-6.3578024,6.221651,-0.42057836,0.30243325,-2.4101243,0.035549417,0
0.8100000000000005,6.862920059961986,0.9028546402089894,-5.999999885245311,-0.6703749510272313,8.029616,0.8049134,-6.1582127,0.5825592,8.482052,-7.5350394,1.9001429,0.31687808,-0.65872514,0.2704137,0.62653464,-6.407249,6.2787566,-0.5210393,0.32394218,-2.8978841,0.0073727565,0
0.8200000000000005,6.862920059961986,0.9028546402089894,-5.999999885245311,-0.6703749510272313,8.029616,0.8049134,-6.1582127,0.5825592,8.417739,-7.4719725,1.8944392,0.32220885,-0.6483388,0.2664909,0.63625515,-6.4552083,6.3342547,-0.61934,0.36524114,-3.332742,-0.021492776,0
0.8300000000000005,6.862920059961986,0.9028546402089894,-5.999999885245311,-0.6703749510272313,8.029616,0.8049134,-6.1582127,0.5825592,8.352953,-7.4083595,1.8877641,0.3282498,-0.63642097,0.26189324,0.6470179,-6.501712,6.388179,-0.7152883,0.4220529,-3.721756,-0.050906606,0
0.8400000000000005,6.862920059961986,0.9028546402089894,-5.999999885245311,-0.6703749510272313,8.473574,1.2120659,-6.4812026,0.29788288,8.287709,-7.344215,1.8801421,0.3349546,-0.62302303,0.25670862,0.6585957,-6.5467806,6.44057,-0.8087412,0.49052733,-4.0706425,-0.080714904,0
0.8500000000000005,6.862920059961986,0.9028546402089894,-5.999999885245311,-0.6703749510272313,8.473574,1.2120659,-6.4812026,0.29788288,8.222018,-7.27955,1.8715988,0.34224558,-0.60821515,0.25100237,0.6707756,-6.591191,6.492364,-0.8994627,0.55473155,-4.371538,-0.10964968,0
0.8600000000000005,6.862920059961986,0.9028546402089894,-5.999999885245311,-0.6703749510272313,8.473574,1.2120659,-6.4812026,0.29788288,8.155885,-7.2143683,1.8621632,0.3499924,-0.5921189,0.24481314,0.6833497,-6.6352463,6.543952,-0.987216,0.60892034,-4.62551,-0.13716464,0
0.8700000000000006,6.862920059961986,0.9028546402089894,-5.999999885245311,-0.6703749510272313,8.473574,1.2120659,-6.4812026,0.29788288,8.089314,-7.1486726,1.8518655,0.35807425,-0.57484853,0.23817296,0.6961361,-6.6788254,6.595221,-1.0718431,0.6546577,-4.839876,-0.16332941,0
0.8800000000000006,8.256607307453558,1.1250093998557684,-5.999999915495277,-1.0708366551646904,10.152745,1.2107159,-6.3613377,0.6839767,8.02231,-7.082466,1.8407376,0.36638728,-0.5565045,0.23111098,0.70897865,-6.721799,6.6460423,-1.1532247,0.69326335,-5.020812,-0.1882103,0
0.8900000000000006,8.256607307453558,1.1250093998557684,-5.999999915495277,-1.0708366551646904,10.152745,1.2107159,-6.3613377,0.6839767,7.954837,-7.0157027,1.8288323,0.3749263,-0.53715473,0.22369005,0.7217048,-6.772608,6.706478,-1.2272048,0.76042926,-5.173546,-0.23152101,0
0.9000000000000006,8.256607307453558,1.1250093998557684,-5.999999915495277,-1.0708366551646904,10.152745,1.2107159,-6.3613377,0.6839767,7.8868613,-6.948339,1.8162074,0.3836844,-0.51686215,0.21596225,0.7341662,-6.8223433,6.7660375,-1.2971147,0.8171237,-5.302461,-0.27270648,0
0.9100000000000006,8.256607307453558,1.1250093998557684,-5.999999915495277,-1.0708366551646904,10.152745,1.2107159,-6.3613377,0.6839767,7.8183947,-6.8803854,1.8029041,0.39257628,-0.49570537,0.20793897,0.74627167,-6.870822,6.8245435,-1.3629267,0.864981,-5.4112725,-0.31187096,0
0.9200000000000006,11.295566624143365,0.7547732314873684,-5.999999901803126,-0.34682980045583606,12.518015,1.9550185,-6.136716,-0.28742254,7.74945,-6.8118525,1.7889632,0.40152857,-0.4737556,0.19963235,0.75794286,-6.917863,6.8818083,-1.4246471,0.9053802,-5.503114,-0.3491136,0
0.9300000000000006,11.295566624143365,0.7547732314873684,-5.999999901803126,-0.34682980045583606,12.518015,1.9550185,-6.136716,-0.28742254,7.679959,-6.742651,1.7744985,0.41034073,-0.4511204,0.19098449,0.76917857,-6.9800158,6.958183,-1.4674317,0.88187593,-5.580598,-0.34900156,0
0.9400000000000006,11.295566624143365,0.7547732314873684,-5.999999901803126,-0.34682980045583606,12.518015,1.9550185,-6.136716,-0.28742254,7.609858,-6.672697,1.7596333,0.41884318,-0.4278943,0.18195473,0.77998024,-7.0397754,7.0322914,-1.5047657,0.8620398,-5.645999,-0.348895,0
0.9500000000000006,11.295566624143365,0.7547732314873684,-5.999999901803126,-0.34682980045583606,12.518015,1.9550185,-6.136716,-0.28742254,7.5391717,-6.6020145,1.7444215,0.42701817,-0.40412167,0.17257929,0.79028934,-7.0969653,7.1038313,-1.5367819,0.8452994,-5.7012014,-0.3487937,0
0.9600000000000006,14.248297782951294,0.41285815719101543,-5.999999847562479,0.091417625403452,14.031444,1.619676,-6.2042165,-0.43507546,7.4679275,-6.530631,1.7289153,0.43484965,-0.37984458,0.1628911,0.8000563,-7.1514115,7.1725097,-1.563646,0.8311718,-5.7477956,-0.34869733,0
0.9700000000000006,14.248297782951294,0.41285815719101543,-5.999999847562479,0.091417625403452,14.031444,1.619676,-6.2042165,-0.43507546,7.3960853,-6.458489,1.7132641,0.44222897,-0.35515428,0.1528307,0.80928457,-7.216424,7.2551694,-1.565638,0.7660086,-5.7871013,-0.32710078,0
0.9800000000000006,14.248297782951294,0.41285815719101543,-5.999999847562479,0.091417625403452,14.031444,1.619676,-6.2042165,-0.43507546,7.3236117,-6.3855424,1.697623,0.44906622,-0.33013067,0.14235477,0.817978,-7.277614,7.333484,-1.5616668,0.7110058,-5.820281,-0.30656397,0
0.9900000000000007,14.248297782951294,0.41285815719101543,-5.999999847562479,0.091417625403452,14.031444,1.619676,-6.2042165,-0.43507546,7.250547,-6.311836,1.6820501,0.45537272,-0.3047971,0.1315139,0.8260982,-7.3348417,7.4070945,-1.5520524,0.66457856,-5.8482904,-0.2870349,0
1.0000000000000007,16.041546725368416,0.2301648287176085,-5.999999698142583,0.2977257782356419,14.816191,0.6689648,-6.4346547,0.44494256,7.1769295,-6.237418,1.6666002,0.461157,-0.27917722,0.12035291,0.83361214,-7.3879695,7.4756675,-1.5371431,0.6253894,-5.8719344,-0.26846415,0
1.0100000000000007,16.041546725368416,0.2301648287176085,-5.999999698142583,0.2977257782356419,14.816191,0.6689648,-6.4346547,0.44494256,7.102771,-6.1623006,1.651398,0.46638465,-0.25332597,0.10885766,0.84051234,-7.443023,7.5468497,-1.5024717,0.5638575,-5.8918853,-0.24068102,0
1.0200000000000007,16.041546725368416,0.2301648287176085,-5.999999698142583,0.2977257782356419,14.816191,0.6689648,-6.4346547,0.44494256,7.028086,-6.0865035,1.6365682,0.47102746,-0.2272926,0.097020686,0.8467927,-7.4932046,7.6116767,-1.4627113,0.5119176,-5.9087286,-0.21426126,0
1.0300000000000007,16.041546725368416,0.2301648287176085,-5.999999698142583,0.2977257782356419,14.816191,0.6689648,-6.4346547,0.44494256,6.952924,-6.0100904,1.6221596,0.47509953,-0.20109354,0.08488887,0.8524291,-7.5384135,7.6698403,-1.418336,0.46807343,-5.9229484,-0.1891379,0
1.0400000000000007,16.041546725368416,0.2301648287176085,-5.999999698142583,0.2977257782356419,15.874795,0.42507288,-6.4821143,0.30551982,6.877335,-5.9331303,1.6082157,0.47861245,-0.1747465,0.0725038,0.8574011,-7.578557,7.721068,-1.3698404,0.43106288,-5.9349527,-0.16524738,1
1.0500000000000007,16.041546725368416,0.2301648287176085,-5.999999698142583,0.2977257782356419,15.874795,0.42507288,-6.4821143,0.30551982,6.8013725,-5.855696,1.5947675,0.48158777,-0.14823282,0.05996967,0.8616864,-7.61318,7.7646656,-1.3192984,0.43021712,-5.9450903,-0.14214668,1
1.0600000000000007,16.041546725368416,0.2301648287176085,-5.999999698142583,0.2977257782356419,15.874795,0.42507288,-6.4821143,0.30551982,6.7250896,-5.777862,1.5818402,0.4840403,-0.121542364,0.047373176,0.86526746,-7.642594,7.8009815,-1.2657083,0.4294992,-5.9536467,-0.12017955,1
1.0700000000000007,16.041546725368416,0.2301648287176085,-5.999999698142583,0.2977257782356419,15.874795,0.42507288,-6.4821143,0.30551982,6.648539,-5.699702,1.5694618,0.48597035,-0.094706096,0.034725606,0.8681344,-7.6666985,7.8298674,-1.2096057,0.42888942,-5.96087,-0.099290356,1
1.0800000000000007,16.575786128396075,0.1337541525022592,-5.99999926156579,0.39142437450892936,15.612727,0.37816232,-6.482845,0.3069967,6.5717745,-5.6212907,1.5576547,0.48737887,-0.06775424,0.022038113,0.8702788,-7.6854115,7.851204,-1.1515377,0.42837125,-5.9669666,-0.079426214,1
1.0900000000000007,16.575786128396075,0.1337541525022592,-5.99999926156579,0.39142437450892936,15.612727,0.37816232,-6.482845,0.3069967,6.4948506,-5.542705,1.5464227,0.4882662,-0.040725537,0.009305408,0.871694,-7.6984506,7.8646746,-1.0946621,0.42061472,-5.9721127,-0.060464323,1
1.1000000000000008,16.575786128396075,0.1337541525022592,-5.99999926156579,0.39142437450892936,15.612727,0.37816232,-6.482845,0.3069967,6.4178243,-5.4640236,1.5357642,0.4886342,-0.013656267,-0.0034745059,0.8723747,-7.706087,7.870567,-1.036955,0.41406426,-5.9764566,-0.042432908,1
1.1100000000000008,16.575786128396075,0.1337541525022592,-5.99999926156579,0.39142437450892936,15.612727,0.37816232,-6.482845,0.3069967,6.340748,-5.385321,1.5256844,0.4884866,0.013427658,-0.01628613,0.8723158,-7.708303,7.8688455,-0.9789748,0.40853217,-5.9801235,-0.025286298,1
1.1200000000000008,16.394765040646583,0.10952349080111391,-5.999997348102663,0.4094472546744795,14.884447,0.48956847,-5.089522,0.3933706,6.2636766,-5.306674,1.5161835,0.48782736,0.040500447,-0.029114665,0.87151366,-7.705098,7.8595057,-0.9212821,0.4038597,-5.9832187,-0.008981071,0
1.1300000000000008,16.394765040646583,0.10952349080111391,-5.999997348102663,0.4094472546744795,14.884447,0.48956847,-5.089522,0.3933706,6.1866665,-5.2281613,1.5072947,0.4866551,0.067483634,-0.04204014,0.8699684,-7.696065,7.841719,-0.8566759,0.35803843,-5.9858303,0.011551317,0
1.1400000000000008,16.394765040646583,0.10952349080111391,-5.999997348102663,0.4094472546744795,14.884447,0.48956847,-5.089522,0.3933706,6.1097746,-5.149867,1.4990449,0.48497188,0.09430985,-0.05512376,0.86768025,-7.6814427,7.8159842,-0.7935457,0.31935903,-5.988036,0.03107618,0
1.1500000000000008,16.394765040646583,0.10952349080111391,-5.999997348102663,0.4094472546744795,14.884447,0.48956847,-5.089522,0.3933706,6.0330567,-5.071869,1.4914166,0.48278618,0.12096857,-0.06832608,0.86464757,-7.6613374,7.7823563,-0.73247224,0.28670785,-5.989898,0.04964295,0
1.1600000000000008,15.295362593055598,0.023923767489658822,-3.6083534229036593,0.39329219690347017,14.83025,0.42636856,-3.250564,0.73813045,5.956567,-4.994246,1.4843863,0.4801056,0.14744724,-0.081611894,0.86087,-7.635863,7.7409277,-0.6740286,0.2591451,-5.991471,0.067298636,1
1.1700000000000008,15.295362593055598,0.023923767489658822,-3.6083534229036593,0.39329219690347017,14.83025,0.42636856,-3.250564,0.73813045,5.880343,-4.9170537,1.4778515,0.4769874,0.17284681,-0.094321676,0.8565688,-7.6081033,7.696571,-0.6333853,0.2853247,-5.5640206,0.10021655,1
1.1800000000000008,15.295362593055598,0.023923767489658822,-3.6083534229036593,0.39329219690347017,14.83025,0.42636856,-3.250564,0.73813045,5.8044195,-4.840337,1.4717076,0.4735242,0.1964703,-0.1059449,0.85202676,-7.5759335,7.645876,-0.59589887,0.30740353,-5.2032304,0.13151915,1
1.1900000000000008,15.295362593055598,0.023923767489658822,-3.6083534229036593,0.39329219690347017,14.83025,0.42636856,-3.250564,0.73813045,5.7288384,-4.7641554,1.465922,0.46976355,0.21857809,-0.1166536,0.8473119,-7.5396757,7.5894413,-0.56175023,0.3260254,-4.898705,0.16128576,1
1.2000000000000008,14.017430137365071,-0.05553277149288417,1.0022840762723406,0.3861641737275645,14.715993,0.6824962,0.97597206,0.54867303,5.6536393,-4.6885657,1.4604607,0.4657401,0.23939031,-0.1265929,0.8424681,-7.4996085,7.527786,-0.5310757,0.3417327,-4.6416707,0.18959169,1
1.2100000000000009,14.017430137365071,-0.05553277149288417,1.0022840762723406,0.3861641737275645,14.715993,0.6824962,0.97597206,0.54867303,5.578857,-4.613614,1.4552835,0.46170434,0.25772697,-0.1350109,0.8379605,-7.456354,7.4619536,-0.5048857,0.39481035,-3.7655916,0.20721193,1
1.2200000000000009,14.017430137365071,-0.05553277149288417,1.0022840762723406,0.3861641737275645,14.715993,0.6824962,0.97597206,0.54867303,5.504523,-4.53934,1.4503521,0.45790797,0.2726938,-0.1413363,0.8342555,-7.410092,7.39239,-0.4818469,0.4396087,-3.0261364,0.22396754,1
1.2300000000000009,14.017430137365071,-0.05553277149288417,1.0022840762723406,0.3861641737275645,14.715993,0.6824962,0.97597206,0.54867303,5.4306636,-4.4657755,1.4456373,0.4543578,0.2848406,-0.14592054,0.83134335,-7.3613014,7.3200016,-0.46148103,0.4774212,-2.4019992,0.23990093,1
1.2400000000000009,14.017430137365071,-0.05553277149288417,1.0022840762723406,0.3861641737275645,14.540604,0.7964921,3.1099117,0.33702403,5.3573036,-4.3929462,1.4411149,0.45104194,0.29462442,-0.14905512,0.8291803,-7.3103714,7.245526,-0.4433281,0.50933915,-1.8751965,0.25505245,0
1.2500000000000009,14.017430137365071,-0.05553277149288417,1.0022840762723406,0.3861641737275645,14.540604,0.7964921,3.1099117,0.33702403,5.2844496,-4.320852,1.4367374,0.4480446,0.3022868,-0.15121607,0.8276546,-7.260137,7.17316,-0.4323955,0.4211793,-1.4264677,0.26148614,0
1.260000000000001,14.017430137365071,-0.05553277149288417,1.0022840762723406,0.3861641737275645,14.540604,0.7964921,3.1099117,0.33702403,5.212105,-4.2494864,1.4324622,0.44542956,0.30803668,-0.15278834,0.82665676,-7.208531,7.099773,-0.42279387,0.34677613,-1.0477164,0.2676041,0
1.270000000000001,14.017430137365071,-0.05553277149288417,1.0022840762723406,0.3861641737275645,14.540604,0.7964921,3.1099117,0.33702403,5.1402826,-4.1788588,1.428278,0.4431465,0.3121791,-0.15387148,0.8261288,-7.155873,7.025674,-0.41419265,0.2839835,-0.72802967,0.27342188,0
1.280000000000001,12.943408133139478,-0.237792454931632,5.595917641626744,0.3936486597149807,12.96476,0.7478064,5.646126,0.8554581,5.06899,-4.1089745,1.4241759,0.44114846,0.3149687,-0.15454759,0.826013,-7.102431,6.9511166,-0.40630263,0.23098975,-0.45819682,0.27895418,1
1.290000000000001,12.943408133139478,-0.237792454931632,5.595917641626744,0.3936486597149807,12.96476,0.7478064,5.646126,0.8554581,4.998215,-4.0398088,1.4201107,0.4395308,0.31521577,-0.15381876,0.82691675,-7.0525126,6.8820057,-0.40672818,0.31140596,0.4937891,0.3072434,1
1.300000000000001,12.943408133139478,-0.237792454931632,5.595917641626744,0.3936486597149807,12.96476,0.7478064,5.646126,0.8554581,4.9279404,-3.9713328,1.4160422,0.43834946,0.31197858,-0.15090035,0.8293057,-7.002473,6.8134184,-0.40684786,0.37927973,1.2973133,0.33414444,1
1.310000000000001,12.943408133139478,-0.237792454931632,5.595917641626744,0.3936486597149807,12.96476,0.7478064,5.646126,0.8554581,4.858165,-3.9035366,1.411977,0.43749762,0.3057777,-0.14613603,0.8329105,-6.9526896,6.7460837,-0.40597394,0.43657145,1.975528,0.35972545,1
1.320000000000001,12.562797714912378,-0.2828675144857848,5.999998068859028,0.3397660770215726,13.064874,0.661251,6.1254196,0.83180267,4.788884,-3.8364048,1.4079281,0.43687075,0.29704323,-0.1398099,0.83747375,-6.9035025,6.6806326,-0.4035523,0.48493436,2.5479746,0.3840512,1
1.330000000000001,12.562797714912378,-0.2828675144857848,5.999998068859028,0.3397660770215726,13.064874,0.661251,6.1254196,0.83180267,4.7200933,-3.769918,1.4039168,0.43640324,0.28599954,-0.13212456,0.84279263,-6.8548565,6.6171365,-0.39835775,0.51225245,3.0863302,0.40602252,1
1.340000000000001,12.562797714912378,-0.2828675144857848,5.999998068859028,0.3397660770215726,13.064874,0.661251,6.1254196,0.83180267,4.651783,-3.7040517,1.399969,0.43602848,0.27283883,-0.12325049,0.8486738,-6.8074603,6.5566254,-0.3908186,0.5353207,3.5407286,0.42691568,1
1.350000000000001,12.562797714912378,-0.2828675144857848,5.999998068859028,0.3397660770215726,13.064874,0.661251,6.1254196,0.83180267,4.5839386,-3.6387734,1.3961093,0.43565464,0.2578499,-0.1133629,0.8549077,-6.7616377,6.499578,-0.38069147,0.55480224,3.924263,0.4467836,1
1.360000000000001,12.283713254553716,-0.42388164322685173,5.9999986934547485,0.2626911616152033,15.000515,0.9795637,5.2182837,1.3023245,4.516544,-3.5740469,1.3923644,0.43520218,0.24127896,-0.102610216,0.8613097,-6.717694,6.4464264,-0.36783805,0.57125676,4.247985,0.46567658,0
1.370000000000001,12.283713254553716,-0.42388164322685173,5.9999986934547485,0.2626911616152033,15.000515,0.9795637,5.2182837,1.3023245,4.449565,-3.5098157,1.388728,0.43476668,0.22315598,-0.091477364,0.8676468,-6.678434,6.400467,-0.35901225,0.41601196,4.521161,0.45571604,0
1.380000000000001,12.283713254553716,-0.42388164322685173,5.9999986934547485,0.2626911616152033,15.000515,0.9795637,5.2182837,1.3023245,4.382967,-3.446023,1.385193,0.43442217,0.20352112,-0.080359265,0.87372684,-6.6416154,6.358754,-0.34760925,0.28499186,4.7517447,0.44624427,0
1.390000000000001,12.283713254553716,-0.42388164322685173,5.9999986934547485,0.2626911616152033,15.000515,0.9795637,5.2182837,1.3023245,4.3167233,-3.3826253,1.3817846,0.43407845,0.18258567,-0.06925162,0.8794556,-6.6076207,6.321472,-0.3337242,0.17441595,4.946376,0.43723726,0
1.400000000000001,12.363252372866574,-0.5096098937176067,5.999998549937555,0.18019062584511272,12.812953,0.5805885,6.1191573,0.63782936,4.250804,-3.3195777,1.3785268,0.4336611,0.16053292,-0.05815188,0.8847515,-6.576795,6.288786,-0.31751147,0.08109352,5.11066,0.42867222,0
1.410000000000001,12.363252372866574,-0.5096098937176067,5.999998549937555,0.18019062584511272,12.812953,0.5805885,6.1191573,0.63782936,4.185177,-3.2568343,1.3754456,0.4331233,0.13750838,-0.047088087,0.8895381,-6.5492697,6.26066,-0.298423,-0.011023395,5.249326,0.41647917,0
1.420000000000001,12.363252372866574,-0.5096098937176067,5.999998549937555,0.18019062584511272,12.812953,0.5805885,6.1191573,0.63782936,4.119806,-3.1943476,1.372565,0.43242705,0.11364076,-0.0360841,0.89375067,-6.5255284,6.237428,-0.27745047,-0.08876888,5.3663726,0.40488443,0
1.430000000000001,12.363252372866574,-0.5096098937176067,5.999998549937555,0.18019062584511272,12.812953,0.5805885,6.1191573,0.63782936,4.054652,-3.1320684,1.3699023,0.43152878,0.08905734,-0.02513434,0.89734036,-6.5058227,6.219189,-0.25488347,-0.15438557,5.4651704,0.39385864,0
1.440000000000001,12.363252372866574,-0.5096098937176067,5.999998549937555,0.18019062584511272,12.540264,0.44161698,5.872091,0.6467557,3.9896748,-3.0699463,1.3674718,0.4303934,0.063870564,-0.014235624,0.90026623,-6.4903708,6.2060227,-0.23104383,-0.2097661,5.548563,0.3833739,1
1.450000000000001,12.363252372866574,-0.5096098937176067,5.999998549937555,0.18019062584511272,12.540264,0.44161698,5.872091,0.6467557,3.9248304,-3.0079308,1.3652934,0.42891973,0.03838934,-0.0030692008,0.90252125,-6.479183,6.197885,-0.20452191,-0.1082428,5.599042,0.3962981,1
1.460000000000001,12.363252372866574,-0.5096098937176067,5.999998549937555,0.18019062584511272,12.540264,0.44161698,5.872091,0.6467557,3.8600755,-2.9459703,1.3633832,0.4270338,0.012868518,0.008618165,0.9041029,-6.4725184,6.195078,-0.17744343,-0.022548646,5.641646,0.4085881,1
1.470000000000001,12.363252372866574,-0.5096098937176067,5.999998549937555,0.18019062584511272,12.540264,0.44161698,5.872091,0.6467557,3.7953646,-2.8840106,1.361745,0.42474523,-0.012670852,0.020737838,0.9049866,-6.470369,6.1977043,-0.15020241,0.04978495,5.6776032,0.42027506,1
1.480000000000001,12.480174515759723,-0.43093835888725207,5.999996915398588,0.10080409404179953,11.507829,0.62672615,5.6323843,0.5790056,3.7306526,-2.8219972,1.3603783,0.42206156,-0.03820706,0.03321272,0.90515256,-6.4727216,6.2058315,-0.12320141,0.11084138,5.7079515,0.43138853,0
1.490000000000001,12.480174515759723,-0.43093835888725207,5.999996915398588,0.10080409404179953,11.507829,0.62672615,5.6323843,0.5790056,3.6658947,-2.759875,1.3592758,0.41903162,-0.06391359,0.04567806,0.90456676,-6.479541,6.2194185,-0.097445145,0.026399162,5.753472,0.41516668,0
1.500000000000001,12.480174515759723,-0.43093835888725207,5.999996915398588,0.10080409404179953,11.507829,0.62672615,5.6323843,0.5790056,3.601046,-2.6975899,1.3584259,0.4156907,-0.08992268,0.057836782,0.90319985,-6.490919,6.238439,-0.07274379,-0.04487457,5.7918987,0.39974082,0
1.5100000000000011,12.480174515759723,-0.43093835888725207,5.999996915398588,0.10080409404179953,11.507829,0.62672615,5.6323843,0.5790056,3.5360603,-2.635088,1.3578159,0.41202807,-0.11615624,0.069717415,0.90104383,-6.5069427,6.2627892,-0.049510777,-0.10503391,5.824337,0.3850719,0
1.5200000000000011,12.347782137953525,-0.41256920974556033,4.767466445323494,0.013443022847107543,12.149941,0.3863961,5.0832806,0.13908128,3.470891,-2.5723164,1.3574291,0.40803665,-0.14254428,0.0813425,0.89809275,-6.527663,6.292348,-0.028161023,-0.15581228,5.85172,0.3711228,1
1.5300000000000011,12.347782137953525,-0.41256920974556033,4.767466445323494,0.013443022847107543,12.149941,0.3863961,5.0832806,0.13908128,3.4054942,-2.5092282,1.3572292,0.40379143,-0.16856241,0.092875235,0.8943788,-6.5524035,6.3260612,-0.012201613,-0.07118356,5.731903,0.35973647,1
1.5400000000000011,12.347782137953525,-0.41256920974556033,4.767466445323494,0.013443022847107543,12.149941,0.3863961,5.0832806,0.13908128,3.3398278,-2.4457788,1.3571763,0.39937896,-0.19379659,0.10444758,0.8899607,-6.5815363,6.3645506,0.0011803138,0.00023919903,5.6307673,0.34890887,1
1.5500000000000012,12.347782137953525,-0.41256920974556033,4.767466445323494,0.013443022847107543,12.149941,0.3863961,5.0832806,0.13908128,3.273849,-2.3819218,1.3572428,0.39480734,-0.21833682,0.11603315,0.8848687,-6.614842,6.407647,0.011670896,0.060516845,5.5454,0.33861256,1
1.5600000000000012,11.839320128356059,-0.3841790800834538,0.16969868087166742,-0.08626056099437511,11.093375,0.45077512,2.4945135,0.050190054,3.2075171,-2.317611,1.3573986,0.39008108,-0.24225743,0.12760851,0.87912697,-6.6521134,6.45518,0.018975245,0.11138832,5.4733434,0.32882154,0
1.5700000000000012,11.839320128356059,-0.3841790800834538,0.16969868087166742,-0.08626056099437511,11.093375,0.45077512,2.4945135,0.050190054,3.140799,-2.2528102,1.3575975,0.3854211,-0.26402655,0.13811636,0.87330663,-6.6920576,6.5055766,0.020266965,0.034344222,4.6462255,0.30845332,0
1.5800000000000012,11.839320128356059,-0.3841790800834538,0.16969868087166742,-0.08626056099437511,11.093375,0.45077512,2.4945135,0.050190054,3.0736656,-2.1874878,1.3577931,0.38106737,-0.28247902,0.14674622,0.8680201,-6.7351465,6.5594063,0.018398792,-0.030733828,3.9481008,0.28908458,0
1.5900000000000012,11.839320128356059,-0.3841790800834538,0.16969868087166742,-0.08626056099437511,11.093375,0.45077512,2.4945135,0.050190054,3.0060873,-2.121613,1.3579556,0.37703058,-0.2981602,0.15380749,0.8633029,-6.7808948,6.616001,0.013677551,-0.085701734,3.358852,0.2706663,0
1.6000000000000012,11.632765525181364,-0.4352875802201792,-4.897568390772963,-0.18275031080214207,11.229684,0.020376358,-3.2283554,0.22055885,2.93804,-2.0551603,1.3580579,0.37330404,-0.31152496,0.15955739,0.8591495,-6.8289075,6.67482,0.006412463,-0.13212867,2.8614984,0.25315177,0
1.6100000000000012,11.632765525181364,-0.4352875802201792,-4.897568390772963,-0.18275031080214207,11.229684,0.020376358,-3.2283554,0.22055885,2.8694994,-1.9881066,1.3580823,0.37015358,-0.3213452,0.16339165,0.8561698,-6.8791885,6.7358227,-0.002354832,-0.20946285,1.6817389,0.23450646,0
1.6200000000000012,11.632765525181364,-0.4352875802201792,-4.897568390772963,-0.18275031080214207,11.229684,0.020376358,-3.2283554,0.22055885,2.8004565,-1.9204463,1.3579979,0.3678759,-0.3265248,0.16491297,0.85489917,-6.9295325,6.796322,-0.014719317,-0.24507153,0.65625477,0.21408367,0
1.6300000000000012,11.632765525181364,-0.4352875802201792,-4.897568390772963,-0.18275031080214207,11.229684,0.020376358,-3.2283554,0.22055885,2.7309067,-1.8521793,1.3577858,0.36640203,-0.32773897,0.16452414,0.8551425,-6.9805326,6.8570833,-0.027736135,-0.27461696,-0.20986152,0.19461091,0
1.6400000000000012,11.632765525181364,-0.4352875802201792,-4.897568390772963,-0.18275031080214207,10.98842,-0.15415132,-5.9377666,0.5462174,2.6608455,-1.7833055,1.3574436,0.3656175,-0.32560933,0.16252677,0.8566724,-7.031705,6.9175725,-0.04066277,-0.29959175,-0.94090647,0.17609367,0
1.6500000000000012,11.632765525181364,-0.4352875802201792,-4.897568390772963,-0.18275031080214207,10.98842,-0.15415132,-5.9377666,0.5462174,2.5902736,-1.7138304,1.3569751,0.36540964,-0.32064694,0.15916757,0.85925967,-7.0826173,6.977315,-0.052909736,-0.3207,-1.5579443,0.1584851,0
1.6600000000000013,11.632765525181364,-0.4352875802201792,-4.897568390772963,-0.18275031080214207,10.98842,-0.15415132,-5.9377666,0.5462174,2.5191956,-1.6437632,1.3563895,0.3656726,-0.31327435,0.1546499,0.86268556,-7.132894,7.035901,-0.06399415,-0.33853844,-2.078755,0.14174058,0
1.6700000000000013,11.632765525181364,-0.4352875802201792,-4.897568390772963,-0.18275031080214207,10.98842,-0.15415132,-5.9377666,0.5462174,2.4476192,-1.5731176,1.3557005,0.36631006,-0.30384296,0.14914258,0.86674863,-7.1822023,7.0929713,-0.073532104,-0.35361186,-2.5183449,0.12581773,0
1.6800000000000013,11.793138134486975,-0.40646168878570244,-5.999996861302901,-0.21249292796611108,11.565271,0.18094999,-6.058879,0.34605682,2.375556,-1.5019102,1.3549253,0.36723617,-0.29264703,0.14278677,0.8712678,-7.230244,7.148205,-0.08122972,-0.36634713,-2.8893812,0.110676184,1
1.6900000000000013,11.793138134486975,-0.40646168878570244,-5.999996861302901,-0.21249292796611108,11.565271,0.18094999,-6.058879,0.34605682,2.3030214,-1.4301624,1.3540804,0.36845,-0.2794482,0.13577278,0.87619597,-7.276458,7.2009993,-0.08739696,-0.28093618,-3.3744764,0.122226395,1
1.7000000000000013,11.793138134486975,-0.40646168878570244,-5.999996861302901,-0.21249292796611108,11.565271,0.18094999,-6.058879,0.34605682,2.2300339,-1.3578986,1.3531852,0.36992198,-0.26406226,0.12825778,0.8814642,-7.3207283,7.2513833,-0.09128522,-0.20884576,-3.783921,0.13320982,1
1.7100000000000013,11.793138134486975,-0.40646168878570244,-5.999996861302901,-0.21249292796611108,11.565271,0.18094999,-6.058879,0.34605682,2.156615,-1.2851441,1.3522632,0.37154347,-0.24679235,0.12030659,0.886891,-7.3626547,7.2990775,-0.09273441,-0.14799951,-4.129513,0.14365427,1
1.7200000000000013,12.101994016382958,-0.35848640133127224,-5.999997989751691,-0.20072395771832033,11.843936,0.47496647,-6.154874,0.45281076,2.0827901,-1.2119272,1.3513392,0.37322193,-0.22789761,0.111974336,0.8923173,-7.401874,7.343821,-0.091670714,-0.09664433,-4.4212103,0.15358624,1
1.7300000000000013,12.101994016382958,-0.35848640133127224,-5.999997989751691,-0.20072395771832033,11.843936,0.47496647,-6.154874,0.45281076,2.0085835,-1.1382735,1.3504508,0.37489343,-0.20755568,0.10341666,0.8975973,-7.4389253,7.386379,-0.085647255,-0.007432772,-4.667413,0.16826929,1
1.7400000000000013,12.101994016382958,-0.35848640133127224,-5.999997989751691,-0.20072395771832033,11.843936,0.47496647,-6.154874,0.45281076,1.9340235,-1.0642115,1.349635,0.37649918,-0.18592335,0.09476135,0.9026082,-7.472528,7.4254713,-0.0771264,0.067864135,-4.875221,0.18223181,1
1.7500000000000013,12.101994016382958,-0.35848640133127224,-5.999997989751691,-0.20072395771832033,11.843936,0.47496647,-6.154874,0.45281076,1.859146,-0.98977655,1.3489164,0.377975,-0.16318125,0.08601516,0.9072533,-7.502375,7.4609213,-0.06624173,0.13141605,-5.0506206,0.1955092,1
1.7600000000000013,12.493669688987636,-0.4243056534581637,-5.99999724095764,-0.20113219667972732,11.871607,0.50158346,-5.4467616,0.1819859,1.7839899,-0.9150061,1.3483176,0.37926814,-0.13948727,0.07718492,0.91145045,-7.528192,7.492566,-0.053179048,0.1850542,-5.198667,0.20813505,1
1.7700000000000014,12.493669688987636,-0.4243056534581637,-5.99999724095764,-0.20113219667972732,11.871607,0.50158346,-5.4467616,0.1819859,1.7085965,-0.8399385,1.3478608,0.38035268,-0.11518118,0.0683672,0.915091,-7.549794,7.5203314,-0.037908334,0.2344175,-5.2373505,0.2068519,1
1.7800000000000014,12.493669688987636,-0.4243056534581637,-5.99999724095764,-0.20113219667972732,11.871607,0.50158346,-5.4467616,0.1819859,1.6330092,-0.76461333,1.3475652,0.3812197,-0.09054717,0.05964179,0.9181045,-7.566963,7.544069,-0.020976925,0.2760822,-5.2700024,0.20563175,1
1.7900000000000014,12.493669688987636,-0.4243056534581637,-5.99999724095764,-0.20113219667972732,11.871607,0.50158346,-5.4467616,0.1819859,1.5572729,-0.6890712,1.3474458,0.38185295,-0.065639496,0.05099295,0.92047805,-7.579579,7.5637307,-0.0026953272,0.31124875,-5.2975636,0.20447144,1
1.8000000000000014,12.768970633815647,-0.6644869356294161,-5.997280909920726,-0.1904684151275547,12.776647,0.4273646,-3.3832457,0.29041117,1.4814336,-0.6133529,1.3475147,0.38223943,-0.040507447,0.04240827,0.9222006,-7.587544,7.5792785,0.016615128,0.34093034,-5.3208275,0.20336805,0
1.8100000000000014,12.768970633815647,-0.6644869356294161,-5.997280909920726,-0.1904684151275547,12.776647,0.4273646,-3.3832457,0.29041117,1.4055369,-0.5374954,1.3478252,0.38240385,-0.01517283,0.0333617,0.9232683,-7.5910363,7.591518,0.04555442,0.184082,-5.4263434,0.18404241,0
1.8200000000000014,12.768970633815647,-0.6644869356294161,-5.997280909920726,-0.1904684151275547,12.776647,0.4273646,-3.3832457,0.29041117,1.3296305,-0.4615387,1.3484273,0.3823781,0.010341893,0.023437524,0.9236509,-7.58946,7.5990715,0.07489584,0.051692776,-5.515397,0.16566506,0
1.8300000000000014,12.768970633815647,-0.6644869356294161,-5.997280909920726,-0.1904684151275547,12.776647,0.4273646,-3.3832457,0.29041117,1.2537651,-0.38553083,1.3493233,0.38215968,0.035992008,0.012777448,0.9233069,-7.582851,7.6017213,0.10427149,-0.060050733,-5.590558,0.14818949,0
1.8400000000000014,12.768970633815647,-0.6644869356294161,-5.997280909920726,-0.1904684151275547,12.86243,0.0034027435,-3.1651886,0.25546974,1.1779908,-0.30952173,1.3505114,0.38174382,0.06173557,0.0015038389,0.922203,-7.5712557,7.599294,0.13329464,-0.15436722,-5.6539936,0.13157144,0
1.8500000000000014,12.768970633815647,-0.6644869356294161,-5.997280909920726,-0.1904684151275547,12.86243,0.0034027435,-3.1651886,0.25546974,1.1023571,-0.23356284,1.3519864,0.38112432,0.087533,-0.010277382,0.9203135,-7.5547314,7.59166,0.161564,-0.2339743,-5.7075334,0.11576885,0
1.8600000000000014,12.768970633815647,-0.6644869356294161,-5.997280909920726,-0.1904684151275547,12.86243,0.0034027435,-3.1651886,0.25546974,1.0269129,-0.15770674,1.3537388,0.38029408,0.11334682,-0.022474283,0.91761875,-7.5333495,7.578727,0.1886679,-0.30116543,-5.7527213,0.10074169,0
1.8700000000000014,12.768970633815647,-0.6644869356294161,-5.997280909920726,-0.1904684151275547,12.86243,0.0034027435,-3.1651886,0.25546974,0.95170647,-0.08200671,1.3557544,0.37924582,0.13914138,-0.035006855,0.9141046,-7.507195,7.560438,0.21418786,-0.35787672,-5.7908607,0.08645194,0
1.8800000000000014,12.443242670681427,-0.8095291164272056,-3.464827236080813,-0.10943020997582528,12.85732,0.046135265,-1.6344085,0.051354244,0.87678504,-0.0065164473,1.3580157,0.3779721,0.16488267,-0.047805235,0.9097614,-7.476369,7.536773,0.23770234,-0.40574244,-5.823051,0.07286337,0
1.8900000000000015,12.443242670681427,-0.8095291164272056,-3.464827236080813,-0.10943020997582528,12.85732,0.046135265,-1.6344085,0.051354244,0.8021902,0.06871399,1.3604851,0.3765268,0.1895988,-0.06048118,0.9047775,-7.441928,7.508519,0.25577033,-0.4687621,-5.4552875,0.06391816,0
1.9000000000000015,12.443242670681427,-0.8095291164272056,-3.464827236080813,-0.10943020997582528,12.85732,0.046135265,-1.6344085,0.051354244,0.7279602,0.143637,1.3631223,0.3749944,0.21253565,-0.07272892,0.8993991,-7.403463,7.4753375,0.27124563,-0.5219462,-5.1448755,0.05541191,0
1.9100000000000015,12.443242670681427,-0.8095291164272056,-3.464827236080813,-0.10943020997582528,12.85732,0.046135265,-1.6344085,0.051354244,0.6541333,0.21820487,1.3659008,0.3734031,0.23395735,-0.084603846,0.8936871,-7.361381,7.4375367,0.28396323,-0.56683,-4.882872,0.047323044,0
1.9200000000000015,11.808795284521791,-0.7373142911267966,0.9589926411183227,0.028741947193361695,12.514334,-0.0011161007,1.2644854,0.17788228,0.5807438,0.29237282,1.3687918,0.37177074,0.2540867,-0.09615295,0.8876832,-7.3160367,7.3953886,0.29378936,-0.60470915,-4.661727,0.039631117,1
1.9300000000000015,11.808795284521791,-0.7373142911267966,0.9589926411183227,0.028741947193361695,12.514334,-0.0011161007,1.2644854,0.17788228,0.50782394,0.36609742,1.3717694,0.37019107,0.2715591,-0.10643882,0.88197815,-7.267512,7.348946,0.30126858,-0.51058644,-3.7375371,0.046415154,1
1.9400000000000015,11.808795284521791,-0.7373142911267966,0.9589926411183227,0.028741947193361695,12.514334,-0.0011161007,1.2644854,0.17788228,0.43540156,0.43934023,1.3748082,0.3687819,0.28534037,-0.11473964,0.8771637,-7.216647,7.2991576,0.30609208,-0.43114567,-2.9574742,0.052866284,1
1.9500000000000015,11.808795284521791,-0.7373142911267966,0.9589926411183227,0.028741947193361695,12.514334,-0.0011161007,1.2644854,0.17788228,0.36349714,0.51207155,1.3778837,0.36756772,0.2960402,-0.12137951,0.873225,-7.164004,7.246747,0.30869845,-0.36409605,-2.299061,0.059000857,1
1.9600000000000015,11.441674125878505,-0.5283501702683465,4.60643302798131,0.13826493740291435,12.130595,-0.08524333,5.0190015,0.12557061,0.29212606,0.58426815,1.380976,0.36655217,0.3041639,-0.12662882,0.87010896,-7.1100335,7.192303,0.30950928,-0.30750412,-1.7433269,0.06483441,1
1.9700000000000015,11.441674125878505,-0.5283501702683465,4.60643302798131,0.13826493740291435,12.130595,-0.08524333,5.0190015,0.12557061,0.22129124,0.65592086,1.3840542,0.36593714,0.3088147,-0.1301908,0.86820185,-7.0568304,7.1380672,0.30597544,-0.27288577,-0.68874466,0.06781475,1
1.9800000000000015,11.441674125878505,-0.5283501702683465,4.60643302798131,0.13826493740291435,12.130595,-0.08524333,5.0190015,0.12557061,0.15099046,0.72702676,1.3870934,0.36588413,0.309304,-0.13184124,0.86780095,-7.0033245,7.0830383,0.301812,-0.24366264,0.20137613,0.07064884,1
1.9900000000000015,11.441674125878505,-0.5283501702683465,4.60643302798131,0.13826493740291435,12.130595,-0.08524333,5.0190015,0.12557061,0.081223786,0.7975812,1.3900907,0.36631477,0.3062855,-0.13188037,0.8686835,-6.9500904,7.0278583,0.29771388,-0.21899346,0.9526829,0.073343866,1
2.0000000000000013,,,,,11.854015,0.25906897,5.8064156,-0.07978159,0.011986025,0.8675853,1.3930498,0.36714533,0.30029684,-0.1305556,0.87062174,-6.8976145,6.9730673,0.29426646,-0.19816814,1.5868236,0.07590666,1
2.010000000000001,,,,,11.854015,0.25906897,5.8064156,-0.07978159,-0.056738444,0.93705165,1.3959689,0.3683144,0.29156148,-0.12782808,0.87349707,-6.8474903,6.9203734,0.28977388,-0.12688377,2.244871,0.068266995,1
2.020000000000001,,,,,11.854015,0.25906897,5.8064156,-0.07978159,-0.1249691,1.0059974,1.3988506,0.3697604,0.28027087,-0.12367229,0.8771724,-6.7989106,6.869023,0.2868275,-0.066706456,2.8002949,0.06100219,1
2.0300000000000007,,,,,11.854015,0.25906897,5.8064156,-0.07978159,-0.19272318,1.0744385,1.401712,0.3714033,0.26679128,-0.11829496,0.8814131,-6.752233,6.819481,0.28577194,-0.01590585,3.2690997,0.05409389,1
2.0400000000000005,,,,,11.854015,0.25906897,5.8064156,-0.07978159,-0.26002142,1.1423948,1.4045733,0.37316957,0.251431,-0.11187038,0.8860094,-6.7077823,6.7721663,0.2868482,0.026977912,3.6647942,0.0475246,1
2.0500000000000003,,,,,11.661763,0.68256074,6.1802073,-0.32310152,-0.32688755,1.2098907,1.4074568,0.3749932,0.23445135,-0.10454644,0.8907769,-6.665856,6.727454,0.29020384,0.063178286,3.9987798,0.04127765,1
2.06,,,,,11.661763,0.68256074,6.1802073,-0.32310152,-0.39335138,1.2769574,1.4103769,0.37681147,0.216073,-0.096262015,0.89557797,-6.6273584,6.686372,0.29422173,0.15981217,4.31087,0.023397464,1
2.07,,,,,11.661763,0.68256074,6.1802073,-0.32310152,-0.4594449,1.3436294,1.413349,0.3785749,0.19648495,-0.08697526,0.9002837,-6.5918307,6.6485553,0.30055013,0.24138105,4.5742884,0.006394666,1
2.0799999999999996,,,,,11.661763,0.68256074,6.1802073,-0.32310152,-0.5251989,1.409941,1.4163955,0.3802463,0.17585273,-0.076830395,0.9047576,-6.55947,6.614346,0.30912662,0.3102322,4.7966247,-0.00977379,1
2.0899999999999994,,,,,11.378908,0.82556856,5.0771823,-0.28540406,-0.59064585,1.4759297,1.4195386,0.38179258,0.15432058,-0.065952115,0.9088842,-6.530458,6.5840487,0.31982693,0.36834756,4.9842863,-0.025148865,1
2.099999999999999,,,,,11.378908,0.82556856,5.0771823,-0.28540406,-0.6558233,1.5416396,1.4227853,0.38315123,0.13237348,-0.05453894,0.9125232,-6.505563,6.558556,0.32978153,0.43969268,4.9987683,-0.037919678,1
2.109999999999999,,,,,11.378908,0.82556856,5.0771823,-0.28540406,-0.72076905,1.6071154,1.42614,0.38428554,0.1104114,-0.04275827,0.9155907,-6.4841285,6.5372925,0.34138018,0.49990964,5.0109916,-0.050063804,1
2.1199999999999988,,,,,11.378908,0.82556856,5.0771823,-0.28540406,-0.7855178,1.6724002,1.4296175,0.3852021,0.08843682,-0.030668795,0.9180732,-6.4661655,6.5203714,0.35434943,0.550734,5.0213084,-0.061612,1
2.1299999999999986,,,,,11.085243,0.6479942,2.895429,-0.2814146,-0.85010433,1.7375381,1.4332305,0.38590527,0.06645405,-0.018321909,0.9199597,-6.451683,6.5078883,0.36840916,0.5936306,5.030016,-0.07259355,1
2.1399999999999983,,,,,11.085243,0.6479942,2.895429,-0.2814146,-0.9145649,1.8025746,1.4369739,0.38639462,0.04524592,-0.006165498,0.92120284,-6.4409437,6.5000916,0.38035366,0.60212433,4.6971235,-0.08284047,1
2.149999999999998,,,,,11.085243,0.6479942,2.895429,-0.2814146,-0.9789342,1.8675543,1.4408394,0.38670096,0.025437906,0.0054411828,0.92183864,-6.4333906,6.4964976,0.39278072,0.6092905,4.416146,-0.092584565,1
2.159999999999998,,,,,11.085243,0.6479942,2.895429,-0.2814146,-1.0432429,1.9325184,1.4448303,0.38686413,0.006820832,0.016577119,0.9219629,-6.428808,6.4968953,0.40542936,0.6153373,4.178987,-0.10185052,1
2.1699999999999977,,,,,10.609999,0.1759456,0.27235368,-0.39202353,-1.1075199,1.9975053,1.448948,0.38691348,-0.010783732,0.027309686,0.92164886,-6.4270086,6.5010996,0.41807994,0.6204398,3.9788125,-0.11066178,1
2.1799999999999975,,,,,10.609999,0.1759456,0.27235368,-0.39202353,-1.171792,2.0625513,1.4531677,0.38691723,-0.02663406,0.03711613,0.92098254,-6.4277644,6.5085692,0.4258079,0.5511104,3.4007921,-0.124468274,1
