time-since-start [s],throttle_mpc,roll_mpc,pitch_mpc,yaw_mpc,throttle_nw,roll_nw,pitch_nw,yaw_nw,position_x [m],position_y [m],position_z [m],rotation_w [quaternion],rotation_x [quaternion],rotation_y [quaternion],rotation_z [quaternion],velocity_x [m/s],velocity_y [m/s],velocity_z [m/s],omega_x [rad/s],omega_y [rad/s],omega_z [rad/s],network_used
0.0,6.908652252646663,0.13015199968615904,-5.999999268707047,-0.11371386497373055,10.698695,1.5695431,-5.0620933,-1.2029,12.42535,-11.379731,1.2052342,0.34487528,-0.3926113,0.15779059,0.83786607,-4.265631,4.185425,1.2388908,0.3162994,-0.26845098,0.26592615,0
0.01,6.908652252646663,0.13015199968615904,-5.999999268707047,-0.11371386497373055,11.391299,0.5401543,-5.479284,-0.2028031,12.3824835,-11.337671,1.2173798,0.34483412,-0.3890842,0.15820618,0.8394485,-4.3075027,4.22635,1.1899986,0.21073203,-1.0856314,0.25417536,0
0.02,6.908652252646663,0.13015199968615904,-5.999999268707047,-0.11371386497373055,11.391299,0.5401543,-5.479284,-0.2028031,12.339207,-11.295211,1.2290299,0.345281,-0.38247687,0.15692466,0.84253615,-4.3474054,4.2655783,1.1398692,0.15052006,-1.8042867,0.24041435,0
0.03,6.908652252646663,0.13015199968615904,-5.999999268707047,-0.11371386497373055,11.391299,0.5401543,-5.479284,-0.2028031,12.295542,-11.252367,1.2401745,0.34621066,-0.37307566,0.15426208,0.84685063,-4.3852496,4.3029404,1.0889611,0.12677829,-2.4379702,0.224904,0
0.04,6.908652252646663,0.13015199968615904,-5.999999268707047,-0.11371386497373055,11.161122,0.98813266,-5.7707925,-0.34474137,12.251509,-11.209158,1.2508086,0.34759608,-0.36113012,0.15047397,0.85212654,-4.4212337,4.3386006,1.0380011,0.12622333,-2.9923375,0.2083937,0
0.05,6.908652252646663,0.13015199968615904,-5.999999268707047,-0.11371386497373055,11.161122,0.98813266,-5.7707925,-0.34474137,12.207121,-11.165597,1.2609395,0.34935775,-0.34693748,0.14573692,0.8581051,-4.456095,4.373289,0.9884186,0.12686431,-3.461382,0.1925878,0
0.060000000000000005,6.908652252646663,0.13015199968615904,-5.999999268707047,-0.11371386497373055,11.161122,0.98813266,-5.7707925,-0.34474137,12.16239,-11.1216955,1.2705826,0.35139617,-0.33079997,0.14017825,0.86454743,-4.4896894,4.4068727,0.94047886,0.12738886,-3.857279,0.17755748,0
0.07,6.908652252646663,0.13015199968615904,-5.999999268707047,-0.11371386497373055,11.161122,0.98813266,-5.7707925,-0.34474137,12.1173315,-11.077464,1.279755,0.3536232,-0.31297478,0.13390541,0.87124443,-4.521823,4.43917,0.8943086,0.12781946,-4.191436,0.16326472,0
0.08,9.31363854051146,0.014858327662158867,-5.999999125000775,-0.18786428250705856,15.574945,0.62546957,-5.9432554,-0.4172037,12.0719595,-11.032917,1.288475,0.3559621,-0.29368195,0.12701023,0.878015,-4.5523133,4.4700103,0.84998125,0.12817368,-4.473481,0.1496733,0
0.09,9.31363854051146,0.014858327662158867,-5.999999125000775,-0.18786428250705856,15.574945,0.62546957,-5.9432554,-0.4172037,12.02624,-10.988018,1.2968574,0.35834122,-0.273129,0.1195285,0.8847062,-4.5909724,4.5094037,0.8268918,0.11047465,-4.711544,0.13311024,0
0.09999999999999999,9.31363854051146,0.014858327662158867,-5.999999125000775,-0.18786428250705856,15.574945,0.62546957,-5.9432554,-0.4172037,11.980148,-10.942738,1.3050215,0.36070165,-0.25149488,0.1114941,0.8911868,-4.6269794,4.546402,0.80629957,0.09553044,-4.9124804,0.11735992,0
0.10999999999999999,9.31363854051146,0.014858327662158867,-5.999999125000775,-0.18786428250705856,15.574945,0.62546957,-5.9432554,-0.4172037,11.933709,-10.8970995,1.3129919,0.36299875,-0.2289191,0.102978624,0.89734244,-4.660142,4.5808043,0.78813326,0.08291332,-5.0820804,0.102382496,0
0.11999999999999998,9.31363854051146,0.014858327662158867,-5.999999125000775,-0.18786428250705856,15.574945,0.62546957,-5.9432554,-0.4172037,11.886953,-10.851131,1.3207922,0.3651942,-0.20552443,0.094044805,0.9030773,-4.690284,4.612425,0.772278,0.072261184,-5.225231,0.08814,0
0.12999999999999998,11.64474481966558,-0.17780897832605705,-5.999998707626504,-0.24118952047532444,14.149976,0.20332849,-4.635744,0.023329556,11.839912,-10.804862,1.3284448,0.36725512,-0.18141957,0.08474793,0.9083108,-4.7172413,4.6410933,0.7585811,0.063269,-5.346057,0.074596375,0
0.13999999999999999,11.64474481966558,-0.17780897832605705,-5.999998707626504,-0.24118952047532444,14.149976,0.20332849,-4.635744,0.023329556,11.792589,-10.758288,1.3360783,0.369146,-0.15673026,0.07506564,0.9129798,-4.746784,4.6730504,0.768476,0.025622927,-5.448041,0.05910068,0
0.15,11.64474481966558,-0.17780897832605705,-5.999998707626504,-0.24118952047532444,14.149976,0.20332849,-4.635744,0.023329556,11.744992,-10.711414,1.3438219,0.37084007,-0.13156621,0.06498468,0.9170306,-4.7720213,4.7009273,0.7805706,-0.006152036,-5.5341196,0.044365354,0
0.16,12.61649324760065,-0.35193849451050896,-5.999993668776161,-0.2298636711264133,14.771505,-0.48544058,-3.8966382,0.018687451,11.697165,-10.664284,1.3516963,0.3723227,-0.10599743,0.054563753,0.92041475,-4.792829,4.724548,0.794568,-0.03297107,-5.606774,0.03035309,0
0.17,12.61649324760065,-0.35193849451050896,-5.999993668776161,-0.2298636711264133,14.771505,-0.48544058,-3.8966382,0.018687451,11.649144,-10.61693,1.359766,0.3735728,-0.08011346,0.043790765,0.92309684,-4.8104663,4.7453613,0.81963205,-0.082759835,-5.6680965,0.017584184,0
0.18000000000000002,12.61649324760065,-0.35193849451050896,-5.999993668776161,-0.2298636711264133,14.771505,-0.48544058,-3.8966382,0.018687451,11.600972,-10.569393,1.3680934,0.37457427,-0.053993173,0.032660924,0.92504716,-4.823121,4.761239,0.8460364,-0.124782585,-5.7198553,0.0054418473,0
0.19000000000000003,12.61649324760065,-0.35193849451050896,-5.999993668776161,-0.2298636711264133,14.771505,-0.48544058,-3.8966382,0.018687451,11.552699,-10.521724,1.37669,0.37532136,-0.027682904,0.021233246,0.92623794,-4.8307433,4.7720456,0.87339,-0.16025065,-5.763542,-0.006104664,0
0.20000000000000004,12.164159169825078,-0.40533046117864013,-3.0489906823736472,-0.20388770799953077,14.836502,-0.6849182,-2.4689374,-0.13149151,11.504375,-10.473971,1.3855631,0.37580845,-0.0012260126,0.0095598865,0.9266473,-4.8332987,4.7776732,0.9012869,-0.19018587,-5.800415,-0.017084582,0
0.21000000000000005,12.164159169825078,-0.40533046117864013,-3.0489906823736472,-0.20388770799953077,14.836502,-0.6849182,-2.4689374,-0.13149151,11.456051,-10.426189,1.3946936,0.376029,0.024234807,-0.0018886947,0.926289,-4.8309097,4.778074,0.92478925,-0.22376508,-5.37133,-0.026251068,0
0.22000000000000006,12.164159169825078,-0.40533046117864013,-3.0489906823736472,-0.20388770799953077,14.836502,-0.6849182,-2.4689374,-0.13149151,11.407773,-10.378427,1.4040581,0.37602505,0.04779246,-0.012735998,0.92528856,-4.8239784,4.773684,0.9480408,-0.25210232,-5.0091605,-0.03496775,0
0.23000000000000007,12.164159169825078,-0.40533046117864013,-3.0489906823736472,-0.20388770799953077,14.836502,-0.6849182,-2.4689374,-0.13149151,11.359585,-10.33073,1.4136525,0.3758501,0.06973047,-0.023067622,0.9237653,-4.812873,4.7648044,0.970737,-0.27601668,-4.7034717,-0.04325671,0
0.24000000000000007,12.164159169825078,-0.40533046117864013,-3.0489906823736472,-0.20388770799953077,14.747241,-1.1067063,0.17313744,-0.4694745,11.311528,-10.283145,1.42347,0.37554294,0.090290636,-0.032956865,0.92180747,-4.797911,4.7516966,0.992631,-0.29619864,-4.445454,-0.051138926,0
0.25000000000000006,12.164159169825078,-0.40533046117864013,-3.0489906823736472,-0.20388770799953077,14.747241,-1.1067063,0.17313744,-0.4694745,11.263639,-10.23571,1.4335016,0.37513152,0.109678455,-0.04246622,0.9194801,-4.779372,4.73459,1.013519,-0.31323114,-4.227674,-0.058634363,0
0.26000000000000006,12.164159169825078,-0.40533046117864013,-3.0489906823736472,-0.20388770799953077,14.747241,-1.1067063,0.17313744,-0.4694745,11.215953,-10.188466,1.4437363,0.37463564,0.1280681,-0.051648784,0.916831,-4.757498,4.7136865,1.033229,-0.3276059,-4.043857,-0.06576198,0
0.2700000000000001,12.164159169825078,-0.40533046117864013,-3.0489906823736472,-0.20388770799953077,14.747241,-1.1067063,0.17313744,-0.4694745,11.1685,-10.141449,1.4541616,0.37406904,0.14560686,-0.060549527,0.91389537,-4.7324986,4.6891613,1.0516124,-0.33973765,-3.8887062,-0.07253986,0
0.2800000000000001,11.453480694263595,-0.3785906664296119,2.643494651128959,-0.1709701269026608,14.33592,-0.89227575,1.4440186,-0.9259413,11.121313,-10.094694,1.4647635,0.37344104,0.16241902,-0.06920644,0.9106988,-4.70456,4.6611714,1.0685383,-0.34997645,-3.7577512,-0.07898513,0
0.2900000000000001,11.453480694263595,-0.3785906664296119,2.643494651128959,-0.1709701269026608,14.33592,-0.89227575,1.4440186,-0.9259413,11.0744095,-10.048226,1.4754938,0.37292567,0.1765453,-0.07679406,0.90766776,-4.675716,4.63176,1.0773032,-0.35439584,-2.759479,-0.083498865,0
0.3000000000000001,11.453480694263595,-0.3785906664296119,2.643494651128959,-0.1709701269026608,14.33592,-0.89227575,1.4440186,-0.9259413,11.027805,-10.002067,1.4863054,0.37271065,0.1864624,-0.08266856,0.9052537,-4.6449695,4.599907,1.0848328,-0.35812873,-1.9168872,-0.08779112,0
0.3100000000000001,11.453480694263595,-0.3785906664296119,2.643494651128959,-0.1709701269026608,14.33592,-0.89227575,1.4440186,-0.9259413,10.981516,-9.956234,1.4971874,0.37280035,0.19284756,-0.08710197,0.9034615,-4.6129947,4.5662665,1.0914412,-0.36128235,-1.2056967,-0.09187273,0
0.3200000000000001,10.837925327104932,-0.32657326365614736,5.999998295238004,-0.13050403677306474,14.627742,-0.716747,3.18005,-1.1669384,10.935549,-9.910746,1.5081321,0.37317932,0.1962651,-0.09032141,0.90225214,-4.580348,4.531381,1.0974339,-0.36394733,-0.6054164,-0.095754065,0
0.3300000000000001,10.837925327104932,-0.32657326365614736,5.999998295238004,-0.13050403677306474,14.627742,-0.716747,3.18005,-1.1669384,10.8899,-9.8656,1.519107,0.3739353,0.19598134,-0.09199715,0.9018314,-4.5492983,4.4976616,1.0975428,-0.35805425,0.42469433,-0.09745926,0
0.34000000000000014,10.837925327104932,-0.32657326365614736,5.999998295238004,-0.13050403677306474,14.627742,-0.716747,3.18005,-1.1669384,10.844562,-9.820792,1.5300832,0.37512437,0.19143273,-0.091873914,0.90232706,-4.518728,4.4638705,1.097777,-0.35308835,1.2941598,-0.099080764,0
0.35000000000000014,10.837925327104932,-0.32657326365614736,5.999998295238004,-0.13050403677306474,14.627742,-0.716747,3.18005,-1.1669384,10.799522,-9.77632,1.541064,0.3766655,0.1832756,-0.090224035,0.9035444,-4.4892573,4.4306326,1.0985329,-0.3489041,2.0280328,-0.10062271,0
0.36000000000000015,9.415244466531002,-0.28103913700354444,5.999999638854054,-0.1530668749263781,14.069988,-0.61690235,4.6733956,-0.98077124,10.754771,-9.732175,1.5520564,0.37847406,0.17205684,-0.08727437,0.90528274,-4.461416,4.3984847,1.1001173,-0.34537846,2.6474588,-0.10208901,0
0.37000000000000016,9.415244466531002,-0.28103913700354444,5.999999638854054,-0.1530668749263781,14.069988,-0.61690235,4.6733956,-0.98077124,10.71027,-9.688325,1.5630039,0.38046676,0.15824214,-0.08319805,0.9073491,-4.4390416,4.3719125,1.0895241,-0.33530492,3.1702855,-0.1045905,0
0.38000000000000017,9.415244466531002,-0.28103913700354444,5.999999638854054,-0.1530668749263781,14.069988,-0.61690235,4.6733956,-0.98077124,10.665982,-9.644732,1.5738504,0.38256666,0.14222413,-0.07814182,0.90956515,-4.4188223,4.347057,1.0799525,-0.3268067,3.611578,-0.10696925,0
0.3900000000000002,9.415244466531002,-0.28103913700354444,5.999999638854054,-0.1530668749263781,14.069988,-0.61690235,4.6733956,-0.98077124,10.621884,-9.6013775,1.5846065,0.38470456,0.12432933,-0.07224637,0.91177016,-4.401054,4.3242373,1.0714474,-0.3196374,3.9840508,-0.10923128,0
0.4000000000000002,9.595396070483156,-0.1997965800302165,5.999999698468203,-0.12300917198443016,14.301165,-0.2312818,4.897004,-1.2063009,10.577951,-9.55824,1.5952829,0.38681883,0.104836635,-0.06563174,0.91382307,-4.385994,4.303738,1.0639921,-0.3135897,4.298437,-0.111382306,0
0.4100000000000002,9.595396070483156,-0.1997965800302165,5.999999698468203,-0.12300917198443016,14.301165,-0.2312818,4.897004,-1.2063009,10.534156,-9.515296,1.6058984,0.38884875,0.083997965,-0.05837159,0.9156055,-4.3736324,4.2854657,1.0592681,-0.29582274,4.5637937,-0.11195284,0
0.4200000000000002,9.595396070483156,-0.1997965800302165,5.999999698468203,-0.12300917198443016,14.301165,-0.2312818,4.897004,-1.2063009,10.490468,-9.472521,1.6164712,0.39074254,0.062030107,-0.050531436,0.9170162,-4.3644457,4.2700434,1.0554196,-0.28082973,4.7877684,-0.112495385,0
0.4300000000000002,9.595396070483156,-0.1997965800302165,5.999999698468203,-0.12300917198443016,14.301165,-0.2312818,4.897004,-1.2063009,10.446856,-9.429885,1.6270093,0.39246207,0.039109223,-0.04219644,0.91796684,-4.3585896,4.257673,1.0522834,-0.26817706,4.9768143,-0.11301129,0
0.4400000000000002,9.595396070483156,-0.1997965800302165,5.999999698468203,-0.12300917198443016,14.65941,0.11065759,5.0150204,-1.0072718,10.403284,-9.387357,1.6375186,0.3939748,0.0153890215,-0.033440594,0.9183836,-4.3561926,4.2485285,1.0496608,-0.25749978,5.136379,-0.1135019,0
0.45000000000000023,9.595396070483156,-0.1997965800302165,5.999999698468203,-0.12300917198443016,14.65941,0.11065759,5.0150204,-1.0072718,10.359719,-9.344902,1.6480035,0.39525324,-0.008995762,-0.024328465,0.91820574,-4.3573585,4.242757,1.0473238,-0.24848956,5.271059,-0.11396842,0
0.46000000000000024,9.595396070483156,-0.1997965800302165,5.999999698468203,-0.12300917198443016,14.65941,0.11065759,5.0150204,-1.0072718,10.316125,-9.302489,1.6584653,0.3962742,-0.033926494,-0.014916612,0.91738373,-4.362164,4.2404795,1.0450197,-0.24088609,5.3847365,-0.11441205,0
0.47000000000000025,9.595396070483156,-0.1997965800302165,5.999999698468203,-0.12300917198443016,14.65941,0.11065759,5.0150204,-1.0072718,10.272465,-9.260081,1.6689029,0.39701846,-0.059298236,-0.005254792,0.91587776,-4.370662,4.241793,1.0424767,-0.23446967,5.4806857,-0.114833914,0
0.48000000000000026,10.587645432845115,-0.11341310538425545,5.999999661287091,-0.07583356576338499,13.946972,0.056860197,4.137869,-1.0679005,10.228701,-9.217641,1.679313,0.39747012,-0.08501773,0.004613042,0.91365635,-4.382884,4.246771,1.0394073,-0.22905505,5.561672,-0.11523507,0
0.49000000000000027,10.587645432845115,-0.11341310538425545,5.999999661287091,-0.07583356576338499,13.946972,0.056860197,4.137869,-1.0679005,10.184787,-9.175129,1.689737,0.39761403,-0.110987954,0.014679978,0.910697,-4.400487,4.256364,1.0452553,-0.21102269,5.630028,-0.11330163,0
0.5000000000000002,10.587645432845115,-0.11341310538425545,5.999999661287091,-0.07583356576338499,13.946972,0.056860197,4.137869,-1.0679005,10.1406765,-9.1325,1.7002136,0.39743847,-0.13712324,0.024936814,0.9069827,-4.4221835,4.2700963,1.0498573,-0.1958031,5.687723,-0.111463055,0
0.5100000000000002,10.587645432845115,-0.11341310538425545,5.999999661287091,-0.07583356576338499,13.946972,0.056860197,4.137869,-1.0679005,10.096329,-9.089713,1.7107286,0.39693594,-0.16336009,0.035343613,0.90249974,-4.44793,4.2879844,1.0528715,-0.18295734,5.7364206,-0.10971472,0
0.5200000000000002,11.996313723622528,-0.00852032664876103,5.999999417006902,-0.03250414555320956,14.606585,0.53608036,3.0218613,-0.868909,10.051703,-9.046726,1.7212644,0.39610055,-0.18964075,0.04586491,0.8972384,-4.4776607,4.310023,1.0539547,-0.17211533,5.7775245,-0.108052164,0
0.5300000000000002,11.996313723622528,-0.00852032664876103,5.999999417006902,-0.03250414555320956,14.606585,0.53608036,3.0218613,-0.868909,10.00674,-9.003481,1.7318646,0.39493138,-0.21589561,0.05650767,0.8911929,-4.515765,4.3396635,1.0656583,-0.14661436,5.8122177,-0.104345,0
0.5400000000000003,11.996313723622528,-0.00852032664876103,5.999999417006902,-0.03250414555320956,14.606585,0.53608036,3.0218613,-0.868909,9.961373,-8.959916,1.7425672,0.3934286,-0.24206284,0.067274116,0.88436043,-4.5581613,4.373927,1.0744034,-0.12509003,5.8415008,-0.10081976,0
0.5500000000000003,11.996313723622528,-0.00852032664876103,5.999999417006902,-0.03250414555320956,14.606585,0.53608036,3.0218613,-0.868909,9.915562,-8.915987,1.753341,0.39158967,-0.26810247,0.07812785,0.87674075,-4.604702,4.4127455,1.0798137,-0.10692216,5.866217,-0.097467504,0
0.5600000000000003,12.680420018401637,0.08674927457962626,5.99999875377922,0.00034080029096888537,13.584748,0.7452063,4.267523,-0.64811337,9.869266,-8.871648,1.7641509,0.38941288,-0.293977,0.0890365,0.86833596,-4.655224,4.4560256,1.0815217,-0.09158719,5.8870792,-0.094279744,0
0.5700000000000003,12.680420018401637,0.08674927457962626,5.99999875377922,0.00034080029096888537,13.584748,0.7452063,4.267523,-0.64811337,9.822429,-8.82684,1.7749852,0.38690525,-0.31963602,0.10000537,0.85914826,-4.7126446,4.506368,1.0846316,-0.06379261,5.904687,-0.089636676,0
0.5800000000000003,12.680420018401637,0.08674927457962626,5.99999875377922,0.00034080029096888537,13.584748,0.7452063,4.267523,-0.64811337,9.774999,-8.781506,1.7858275,0.38407356,-0.3450342,0.11103549,0.8491818,-4.7738667,4.561172,1.0830891,-0.040331665,5.919549,-0.08522147,0
0.5900000000000003,12.680420018401637,0.08674927457962626,5.99999875377922,0.00034080029096888537,13.584748,0.7452063,4.267523,-0.64811337,9.726938,-8.735601,1.7966297,0.38091668,-0.37014434,0.12209365,0.8384441,-4.83866,4.6202807,1.0765474,-0.020529063,5.932094,-0.0810229,0
0.6000000000000003,12.3953524173522,0.17047164753080132,5.999996228209116,0.05889798424412623,11.8286295,0.6786366,5.23351,-0.40346608,9.678214,-8.689086,1.80734,0.37743416,-0.39493996,0.13315032,0.8269441,-4.9067802,4.683519,1.0646765,-0.0038140211,5.9426827,-0.07703036,1
0.6100000000000003,12.3953524173522,0.17047164753080132,5.999996228209116,0.05889798424412623,11.8286295,0.6786366,5.23351,-0.40346608,9.628817,-8.64194,1.8178765,0.37380692,-0.4190632,0.1442395,0.8147693,-4.973176,4.7461777,1.0417651,0.10266913,5.8320813,-0.093048654,1
0.6200000000000003,12.3953524173522,0.17047164753080132,5.999996228209116,0.05889798424412623,11.8286295,0.6786366,5.23351,-0.40346608,9.578742,-8.594151,1.8281568,0.37020317,-0.44224334,0.15538222,0.80201405,-5.0420785,4.8123116,1.0134271,0.19254251,5.738727,-0.10828093,1
0.6300000000000003,12.3953524173522,0.17047164753080132,5.999996228209116,0.05889798424412623,11.8286295,0.6786366,5.23351,-0.40346608,9.527967,-8.545682,1.8381261,0.36660266,-0.4645727,0.16653663,0.7886951,-5.1131315,4.881722,0.9795276,0.26839647,5.659931,-0.12276576,1
0.6400000000000003,12.3953524173522,0.17047164753080132,5.999996228209116,0.05889798424412623,11.203438,0.5582251,4.8657074,-0.13246037,9.476473,-8.496504,1.8477279,0.36298543,-0.4861268,0.17766689,0.77482677,-5.186,4.9542084,0.9399444,0.3324183,5.593423,-0.13653979,0
0.6500000000000004,12.3953524173522,0.17047164753080132,5.999996228209116,0.05889798424412623,11.203438,0.5582251,4.8657074,-0.13246037,9.424225,-8.4465685,1.8569179,0.35913038,-0.50726366,0.18872353,0.7603237,-5.2639394,5.033172,0.89707786,0.30713326,5.656832,-0.1269496,0
0.6600000000000004,12.3953524173522,0.17047164753080132,5.999996228209116,0.05889798424412623,11.203438,0.5582251,4.8657074,-0.13246037,9.371189,-8.39583,1.8656477,0.3548377,-0.52824825,0.1996687,0.7451014,-5.3432193,5.1149077,0.84791285,0.2857915,5.7103524,-0.11783,0
0.6700000000000004,12.3953524173522,0.17047164753080132,5.999996228209116,0.05889798424412623,11.203438,0.5582251,4.8657074,-0.13246037,9.317356,-8.344261,1.8738536,0.35012093,-0.5490106,0.21048835,0.7291756,-5.42361,5.1991615,0.7922284,0.26777837,5.755525,-0.109157905,0
0.6800000000000004,11.712340777270239,0.1321474728220773,3.360749073027059,0.10374753315493146,10.212457,-0.013774063,4.4141927,0.0829041,9.262714,-8.29184,1.8814691,0.34499368,-0.56948876,0.22116879,0.712563,-5.5048704,5.2856636,0.72983074,0.25257504,5.7936525,-0.10091135,0
0.6900000000000004,11.712340777270239,0.1321474728220773,3.360749073027059,0.10374753315493146,10.212457,-0.013774063,4.4141927,0.0829041,9.207279,-8.238565,1.8884183,0.33970052,-0.5888975,0.23133117,0.6959087,-5.5822277,5.3692436,0.65901953,0.23373388,5.4142456,-0.09086868,0
0.7000000000000004,11.712340777270239,0.1321474728220773,3.360749073027059,0.10374753315493146,10.212457,-0.013774063,4.4141927,0.0829041,9.151068,-8.184449,1.8946282,0.3344752,-0.6066757,0.24069878,0.679805,-5.6598954,5.4543233,0.5819907,0.21784084,5.0940065,-0.081318796,0
0.7100000000000004,11.712340777270239,0.1321474728220773,3.360749073027059,0.10374753315493146,10.212457,-0.013774063,4.4141927,0.0829041,9.09408,-8.129476,1.9000379,0.32931,-0.62307,0.24939533,0.664184,-5.7376413,5.5405827,0.49906003,0.20443402,4.823708,-0.07223752,0
0.7200000000000004,10.553612461272136,0.09046517276029853,-2.3495179524808862,0.13371078017233645,8.9572,0.44115603,-1.1176832,-0.095844254,9.036316,-8.073634,1.9045899,0.32419434,-0.6382836,0.2575233,0.6489789,-5.8152704,5.6277494,0.4105086,0.19312432,4.595562,-0.06360189,0
0.7300000000000004,10.553612461272136,0.09046517276029853,-2.3495179524808862,0.13371078017233645,8.9572,0.44115603,-1.1176832,-0.095844254,8.977809,-8.016954,1.9082277,0.31972748,-0.651052,0.26447192,0.63557845,-5.88574,5.7077675,0.31633136,0.18872994,3.5241616,-0.054994483,0
0.7400000000000004,10.553612461272136,0.09046517276029853,-2.3495179524808862,0.13371078017233645,8.9572,0.44115603,-1.1176832,-0.095844254,8.918605,-7.959479,1.9109032,0.31640053,-0.66045845,0.26973355,0.62524307,-5.9551024,5.7873025,0.21826288,0.17335671,2.6081662,-0.045734663,0
0.7500000000000004,10.553612461272136,0.09046517276029853,-2.3495179524808862,0.13371078017233645,8.9572,0.44115603,-1.1176832,-0.095844254,8.858708,-7.9012074,1.9125831,0.3140786,-0.66712296,0.2735997,0.6176119,-6.0241275,5.867083,0.117341235,0.16039594,1.8350196,-0.036929224,0
0.7600000000000005,9.40994996739356,0.1563926190638452,-5.9999993859810274,0.11881597235422214,8.917489,1.2311635,-5.318513,-0.021322984,8.798122,-7.842137,1.913243,0.3126351,-0.67153805,0.2763163,0.61232746,-6.0928507,5.9470286,0.014399178,0.14946806,1.1824443,-0.028555859,0
0.7700000000000005,9.40994996739356,0.1563926190638452,-5.9999993859810274,0.11881597235422214,8.917489,1.2311635,-5.318513,-0.021322984,8.736872,-7.78229,1.9128685,0.31240743,-0.6732501,0.27773595,0.6099167,-6.1566367,6.0216136,-0.08937788,0.18476278,0.105365396,-0.024403188,0
0.7800000000000005,9.40994996739356,0.1563926190638452,-5.9999993859810274,0.11881597235422214,8.917489,1.2311635,-5.318513,-0.021322984,8.674997,-7.7217135,1.9114555,0.31362545,-0.67182964,0.27763796,0.6109017,-6.2178144,6.0934377,-0.19315587,0.18445638,-0.8426323,-0.017759245,0
0.7900000000000005,9.40994996739356,0.1563926190638452,-5.9999993859810274,0.11881597235422214,8.917489,1.2311635,-5.318513,-0.021322984,8.612515,-7.660421,1.9090078,0.31601822,-0.66771585,0.27617148,0.6148309,-6.2786565,6.1650496,-0.29622048,0.18007745,-1.6469201,-0.01105747,0
0.8000000000000005,7.102518563048608,0.5527852459177172,-5.999999872839542,-0.3061899941898826,8.616548,3.0350983,-5.146075,-0.5784844,8.549424,-7.5984116,1.9055363,0.31937686,-0.661278,0.273526,0.62120295,-6.3395023,6.236743,-0.39782587,0.17638856,-2.3257797,-0.0046845456,0
0.8100000000000005,7.102518563048608,0.5527852459177172,-5.999999872839542,-0.3061899941898826,8.616548,3.0350983,-5.146075,-0.5784844,8.485796,-7.53577,1.9010607,0.32363066,-0.65279126,0.26991493,0.6295017,-6.3858104,6.291303,-0.49699038,0.2296152,-2.8933308,-0.018976541,0
0.8200000000000005,7.102518563048608,0.5527852459177172,-5.999999872839542,-0.3061899941898826,8.616548,3.0350983,-5.146075,-0.5784844,8.421709,-7.472586,1.8956034,0.32874647,-0.64244294,0.26551646,0.6392914,-6.431771,6.345441,-0.59413445,0.2799766,-3.3778172,-0.033070184,0
0.8300000000000005,7.102518563048608,0.5527852459177172,-5.999999872839542,-0.3061899941898826,8.616548,3.0350983,-5.146075,-0.5784844,8.357161,-7.4088607,1.8891861,0.33455256,-0.6304283,0.2604134,0.6502456,-6.477686,6.3995233,-0.6889174,0.32247934,-3.786749,-0.046472237,0
0.8400000000000005,7.102518563048608,0.5527852459177172,-5.999999872839542,-0.3061899941898826,8.948702,2.6672764,-5.8923798,0.018552382,8.292154,-7.344596,1.881834,0.34089372,-0.6169155,0.25467333,0.6620785,-6.523485,6.4534745,-0.78104484,0.35835072,-4.131908,-0.059216667,0
0.8500000000000005,7.102518563048608,0.5527852459177172,-5.999999872839542,-0.3061899941898826,8.948702,2.6672764,-5.8923798,0.018552382,8.22669,-7.2797923,1.8735751,0.34763587,-0.6020468,0.24835382,0.6745436,-6.569082,6.507198,-0.870275,0.3886267,-4.42324,-0.07133572,0
0.8600000000000005,7.102518563048608,0.5527852459177172,-5.999999872839542,-0.3061899941898826,8.948702,2.6672764,-5.8923798,0.018552382,8.160773,-7.2144527,1.8644391,0.3546635,-0.5859446,0.24150477,0.6874285,-6.6143746,6.5605764,-0.9564129,0.41418073,-4.66914,-0.082860075,0
0.8700000000000006,7.102518563048608,0.5527852459177172,-5.999999872839542,-0.3061899941898826,8.948702,2.6672764,-5.8923798,0.018552382,8.094405,-7.148582,1.8544579,0.36187726,-0.56871575,0.23417014,0.70055073,-6.65925,6.6134787,-1.0393059,0.43574992,-4.876691,-0.09381894,0
0.8800000000000006,8.479522013497718,0.7098412816179592,-5.999999904695358,-0.5233428152838796,9.683366,-0.11176191,-5.833644,0.4424924,8.02759,-7.0821853,1.8436644,0.36919186,-0.55045456,0.22638911,0.713754,-6.703585,6.66576,-1.1188407,0.4539565,-5.0518746,-0.10424004,0
0.8900000000000006,8.479522013497718,0.7098412816179592,-5.999999904695358,-0.5233428152838796,9.683366,-0.11176191,-5.833644,0.4424924,7.9602933,-7.0152197,1.8321136,0.37658742,-0.531228,0.21822746,0.7268804,-6.755715,6.7272525,-1.1906737,0.49378195,-5.1997437,-0.12480554,0
0.9000000000000006,8.479522013497718,0.7098412816179592,-5.999999904695358,-0.5233428152838796,9.683366,-0.11176191,-5.833644,0.4424924,7.8924794,-6.947644,1.8198652,0.38404498,-0.51109815,0.20974086,0.7397949,-6.80687,6.7876363,-1.2583497,0.5273984,-5.3245525,-0.1443619,0
0.9100000000000006,8.479522013497718,0.7098412816179592,-5.999999904695358,-0.5233428152838796,9.683366,-0.11176191,-5.833644,0.4424924,7.8241596,-6.8794713,1.806961,0.3914978,-0.49013877,0.20094943,0.75240445,-6.856873,6.846722,-1.3218498,0.5557747,-5.429898,-0.16295859,0
0.9200000000000006,11.41532368145183,0.531879528308958,-5.999999881807192,-0.1559593230047569,11.716786,0.033956103,-6.1156054,-0.22992001,7.755347,-6.8107147,1.7934427,0.3988886,-0.46841708,0.1918724,0.76462924,-6.905547,6.904315,-1.3811896,0.57972825,-5.518814,-0.18064275,1
0.9300000000000006,11.41532368145183,0.531879528308958,-5.999999881807192,-0.1559593230047569,11.716786,0.033956103,-6.1156054,-0.22992001,7.6859636,-6.7412834,1.7794322,0.40601593,-0.44609663,0.18233748,0.7764673,-6.970738,6.9815526,-1.420049,0.49459755,-5.593846,-0.1830608,1
0.9400000000000006,11.41532368145183,0.531879528308958,-5.999999881807192,-0.1559593230047569,11.716786,0.033956103,-6.1156054,-0.22992001,7.6159396,-6.671093,1.7650609,0.41272014,-0.4233175,0.17220952,0.7879136,-7.0337014,7.0561175,-1.4533376,0.4227447,-5.6571774,-0.18536018,1
0.9500000000000006,11.41532368145183,0.531879528308958,-5.999999881807192,-0.1559593230047569,11.716786,0.033956103,-6.1156054,-0.22992001,7.545298,-6.6001716,1.7503841,0.419011,-0.40010637,0.16155775,0.7989014,-7.094294,7.1276774,-1.481205,0.36209872,-5.7106333,-0.18754673,1
0.9600000000000006,14.038277683986633,0.3611219990988288,-5.999999824015349,0.0686768619252082,13.485085,-0.050509576,-5.9889984,0.2165661,7.474063,-6.528551,1.7354549,0.42489508,-0.37648976,0.15044366,0.8093738,-7.1523666,7.1959157,-1.5038339,0.31091177,-5.755754,-0.189626,1
0.9700000000000006,14.038277683986633,0.3611219990988288,-5.999999824015349,0.0686768619252082,13.485085,-0.050509576,-5.9889984,0.2165661,7.402218,-6.4562163,1.7203848,0.43031877,-0.35250372,0.13891703,0.8193098,-7.2161326,7.2702847,-1.5092881,0.2546192,-5.792118,-0.16969402,1
0.9800000000000006,14.038277683986633,0.3611219990988288,-5.999999824015349,0.0686768619252082,13.485085,-0.050509576,-5.9889984,0.2165661,7.329751,-6.3831606,1.705288,0.43523288,-0.32818216,0.12702389,0.8286937,-7.276665,7.3401556,-1.5092361,0.207103,-5.8228135,-0.15074015,1
0.9900000000000007,14.038277683986633,0.3611219990988288,-5.999999824015349,0.0686768619252082,13.485085,-0.050509576,-5.9889984,0.2165661,7.2566957,-6.30943,1.690218,0.43964696,-0.30354837,0.114810795,0.8374885,-7.333807,7.4052205,-1.5039859,0.16699456,-5.8487244,-0.13271631,1
1.0000000000000007,15.836405616377013,0.3703071548864612,-5.999999638725612,0.18914846180343453,14.639849,0.19747949,-6.016707,0.5831994,7.183087,-6.235074,1.675225,0.44356862,-0.2786259,0.10231927,0.8456623,-7.3874025,7.4651947,-1.493871,0.13313866,-5.870596,-0.11557693,0
1.0100000000000007,15.836405616377013,0.3703071548864612,-5.999999638725612,0.18914846180343453,14.639849,0.19747949,-6.016707,0.5831994,7.1089163,-6.160096,1.6604537,0.44705275,-0.25336036,0.0897265,0.85317117,-7.4459906,7.5293503,-1.4595932,0.17018096,-5.8907776,-0.10062397,0
1.0200000000000007,15.836405616377013,0.3703071548864612,-5.999999638725612,0.18914846180343453,14.639849,0.19747949,-6.016707,0.5831994,7.034183,-6.084509,1.6460497,0.45013812,-0.22771296,0.07717814,0.8599799,-7.499991,7.5869985,-1.4204599,0.20144428,-5.9078107,-0.08640475,0
1.0300000000000007,15.836405616377013,0.3703071548864612,-5.999999638725612,0.18914846180343453,14.639849,0.19747949,-6.016707,0.5831994,6.9589334,-6.0083785,1.6320596,0.45280957,-0.20172921,0.06466654,0.86607534,-7.5491686,7.6379433,-1.3769317,0.22782981,-5.922187,-0.07288327,0
1.0400000000000007,15.836405616377013,0.3703071548864612,-5.999999638725612,0.18914846180343453,15.771619,0.4238658,-6.1025233,0.71358776,6.883217,-5.9317737,1.6185246,0.45505512,-0.17545187,0.05218661,0.8714456,-7.5933113,7.6820083,-1.3294914,0.25009826,-5.934321,-0.060025305,1
1.0500000000000007,15.836405616377013,0.3703071548864612,-5.999999638725612,0.18914846180343453,15.771619,0.4238658,-6.1025233,0.71358776,6.8070855,-5.8547635,1.6054783,0.4568127,-0.14890835,0.039765246,0.8761088,-7.6320686,7.7188907,-1.2792505,0.27734402,-5.944558,-0.022063896,1
1.0600000000000007,15.836405616377013,0.3703071548864612,-5.999999638725612,0.18914846180343453,15.771619,0.4238658,-6.1025233,0.71358776,6.7305937,-5.7774205,1.5929493,0.45802438,-0.122127146,0.027424537,0.8800829,-7.6654463,7.748648,-1.2261293,0.3003341,-5.9531975,0.0140347425,1
1.0700000000000007,15.836405616377013,0.3703071548864612,-5.999999638725612,0.18914846180343453,15.771619,0.4238658,-6.1025233,0.71358776,6.6537957,-5.6998158,1.5809639,0.45868847,-0.09514927,0.0151558425,0.88335794,-7.6932898,7.7711854,-1.1706575,0.31973222,-5.9604883,0.04836201,1
1.0800000000000007,16.21079019979816,0.3995803559730105,-5.999999151511674,0.23917141797675195,16.12735,0.33313775,-6.218497,0.6439383,6.5767474,-5.6220217,1.5695424,0.4588052,-0.06801357,0.002953024,0.8859247,-7.7154646,7.7864327,-1.1133767,0.336099,-5.966642,0.08100482,1
1.0900000000000007,16.21079019979816,0.3995803559730105,-5.999999151511674,0.23917141797675195,16.12735,0.33313775,-6.218497,0.6439383,6.4995036,-5.5441113,1.5587182,0.458382,-0.040773723,-0.0092206085,0.88777125,-7.732233,7.7945232,-1.0513042,0.3357451,-5.971838,0.108628124,1
1.1000000000000008,16.21079019979816,0.3995803559730105,-5.999999151511674,0.23917141797675195,16.12735,0.33313775,-6.218497,0.6439383,6.4221225,-5.4661574,1.5485188,0.45742893,-0.013478171,-0.021392878,0.8888863,-7.743019,7.795086,-0.98851544,0.33544117,-5.9762244,0.13489594,1
1.1100000000000008,16.21079019979816,0.3995803559730105,-5.999999151511674,0.23917141797675195,16.12735,0.33313775,-6.218497,0.6439383,6.3446636,-5.3882356,1.5389484,0.4559517,0.013844013,-0.0335547,0.8892637,-7.747771,7.7881203,-0.92558515,0.33517978,-5.9799266,0.1598748,1
1.1200000000000008,15.907040987559517,0.40401657051714096,-5.999996462198728,0.20440090991851026,16.142221,0.32017848,-6.028321,0.50962347,6.2671876,-5.3104205,1.5300057,0.45395645,0.041164286,-0.04569691,0.8888984,-7.746457,7.773655,-0.86308986,0.33495423,-5.983052,0.18362793,1
1.1300000000000008,15.907040987559517,0.40401657051714096,-5.999996462198728,0.20440090991851026,16.142221,0.32017848,-6.028321,0.50962347,6.1897554,-5.2327876,1.5216839,0.45146483,0.06845304,-0.057814095,0.8877785,-7.7390614,7.751726,-0.8014581,0.3327128,-5.9856915,0.19962461,1
1.1400000000000008,15.907040987559517,0.40401657051714096,-5.999996462198728,0.20440090991851026,16.142221,0.32017848,-6.028321,0.50962347,6.112427,-5.155411,1.5139711,0.4484979,0.095681846,-0.06989923,0.88589406,-7.7255964,7.7224326,-0.74141145,0.33081785,-5.9879203,0.21483634,1
1.1500000000000008,15.907040987559517,0.40401657051714096,-5.999996462198728,0.20440090991851026,16.142221,0.32017848,-6.028321,0.50962347,6.0352645,-5.0783634,1.5068483,0.44506165,0.12282451,-0.08194085,0.8832438,-7.7060957,7.685888,-0.683518,0.32921538,-5.989801,0.22930162,1
1.1600000000000008,14.683635986117883,0.34388358130457236,-3.340951243086896,0.1189338452698205,15.943985,0.37209466,-3.9022923,0.33706596,5.9583263,-5.0017176,1.5002913,0.44116232,0.14985512,-0.09392767,0.8798276,-7.6806126,7.642232,-0.62833846,0.32786003,-5.991389,0.24305709,0
1.1700000000000008,14.683635986117883,0.34388358130457236,-3.340951243086896,0.1189338452698205,15.943985,0.37209466,-3.9022923,0.33706596,5.881659,-4.9255204,1.4942023,0.43696082,0.17582537,-0.105366975,0.87581295,-7.6520977,7.596257,-0.5899525,0.33027118,-5.578056,0.23696634,0
1.1800000000000008,14.683635986117883,0.34388358130457236,-3.340951243086896,0.1189338452698205,15.943985,0.37209466,-3.9022923,0.33706596,5.805302,-4.849812,1.488481,0.43264025,0.20000097,-0.11587797,0.87143224,-7.6185827,7.544526,-0.5547988,0.33232045,-5.2291813,0.23117445,0
1.1900000000000008,14.683635986117883,0.34388358130457236,-3.340951243086896,0.1189338452698205,15.943985,0.37209466,-3.9022923,0.33706596,5.729304,-4.7746477,1.4830946,0.42822948,0.22264786,-0.12560092,0.8667593,-7.5804405,7.4875846,-0.52305526,0.33406162,-4.934714,0.22566678,0
1.2000000000000008,13.430674495059106,0.2894437070747737,1.413394339991905,0.03693048991516073,13.417117,1.1156095,0.7685251,0.5229787,5.653708,-4.7000766,1.4780079,0.42374682,0.24399096,-0.13465375,0.86184406,-7.537996,7.425905,-0.49485794,0.3355408,-4.6861687,0.22042936,1
1.2100000000000009,13.430674495059106,0.2894437070747737,1.413394339991905,0.03693048991516073,13.417117,1.1156095,0.7685251,0.5229787,5.5785375,-4.6261153,1.4731319,0.4193189,0.2629348,-0.14219113,0.8572155,-7.495576,7.3656664,-0.48083723,0.45710754,-3.8354905,0.23527555,1
1.2200000000000009,13.430674495059106,0.2894437070747737,1.413394339991905,0.03693048991516073,13.417117,1.1156095,0.7685251,0.5229787,5.5038075,-4.5527735,1.4683808,0.41507822,0.2786488,-0.14757304,0.85339737,-7.4499755,7.3023605,-0.46979046,0.5597196,-3.1174762,0.24939322,1
1.2300000000000009,13.430674495059106,0.2894437070747737,1.413394339991905,0.03693048991516073,13.417117,1.1156095,0.7685251,0.5229787,5.429548,-4.480076,1.4637272,0.41102776,0.29165855,-0.15116228,0.8503772,-7.4016337,7.236793,-0.46128532,0.6463341,-2.5114367,0.26281816,1
1.2400000000000009,13.430674495059106,0.2894437070747737,1.413394339991905,0.03693048991516073,13.265553,1.5985422,4.710073,0.27874368,5.3557835,-4.408043,1.4591478,0.40715563,0.30240127,-0.15325962,0.8481092,-7.3509073,7.1696186,-0.4549082,0.71944666,-1.9999102,0.27558428,0
1.2500000000000009,13.430674495059106,0.2894437070747737,1.413394339991905,0.03693048991516073,13.265553,1.5985422,4.710073,0.27874368,5.282537,-4.3366876,1.4546237,0.40363452,0.31089753,-0.15427192,0.84653527,-7.2980547,7.1013,-0.45016405,0.6522809,-1.4676243,0.26387346,0
1.260000000000001,13.430674495059106,0.2894437070747737,1.413394339991905,0.03693048991516073,13.265553,1.5985422,4.710073,0.27874368,5.2098284,-4.266019,1.45014,0.40060782,0.31718397,-0.15452893,0.8455935,-7.2435155,7.0323205,-0.44674888,0.59561217,-1.018345,0.25273728,0
1.270000000000001,13.430674495059106,0.2894437070747737,1.413394339991905,0.03693048991516073,13.265553,1.5985422,4.710073,0.27874368,5.137671,-4.196042,1.4456854,0.39801386,0.32161483,-0.15415524,0.84521294,-7.187656,6.9630117,-0.44427964,0.5477984,-0.6391282,0.24214758,0
1.280000000000001,12.728713057800553,0.1222765508998623,5.999966002567308,-0.01070283929879379,12.538865,0.6735743,5.857504,-0.08003757,5.066078,-4.1267586,1.4412521,0.39579517,0.32448536,-0.15325332,0.84532166,-7.1307807,6.8936443,-0.44242153,0.50745547,-0.31904817,0.23207751,1
1.290000000000001,12.728713057800553,0.1222765508998623,5.999966002567308,-0.01070283929879379,12.538865,0.6735743,5.857504,-0.08003757,4.995039,-4.0581455,1.4368029,0.39413327,0.3246007,-0.1510704,0.84644604,-7.077014,6.8290977,-0.44743496,0.5332221,0.6441802,0.21676193,1
1.300000000000001,12.728713057800553,0.1222765508998623,5.999966002567308,-0.01070283929879379,12.538865,0.6735743,5.857504,-0.08003757,4.9245386,-3.990174,1.4323051,0.3931567,0.3210165,-0.14701295,0.8489778,-7.0230503,6.7653494,-0.45201355,0.55500853,1.4571929,0.20219791,1
1.310000000000001,12.728713057800553,0.1222765508998623,5.999966002567308,-0.01070283929879379,12.538865,0.6735743,5.857504,-0.08003757,4.8545766,-3.9228337,1.4277666,0.39273313,0.31428695,-0.14136776,0.8526426,-6.969381,6.703021,-0.4554741,0.57342756,2.143416,0.18834855,1
1.320000000000001,12.519671964180832,-0.011906808135144366,5.999998498926531,-0.05517516330247601,11.25216,0.45817947,6.4743953,-0.24603984,4.7851477,-3.8561072,1.4232013,0.39273804,0.30487,-0.13437177,0.8571786,-6.916439,6.6426535,-0.45726985,0.5889975,2.7226226,0.17517875,0
1.330000000000001,12.519671964180832,-0.011906808135144366,5.999998498926531,-0.05517516330247601,11.25216,0.45817947,6.4743953,-0.24603984,4.716243,-3.789972,1.4186276,0.39314544,0.29298997,-0.12643641,0.8623266,-6.8647084,6.5848093,-0.45712984,0.49525207,3.233713,0.1638752,0
1.340000000000001,12.519671964180832,-0.011906808135144366,5.999998498926531,-0.05517516330247601,11.25216,0.45817947,6.4743953,-0.24603984,4.647848,-3.7244015,1.4140669,0.39391905,0.27884203,-0.117898606,0.8678564,-6.8145533,6.529773,-0.45459047,0.4161404,3.665102,0.15312634,0
1.350000000000001,12.519671964180832,-0.011906808135144366,5.999998498926531,-0.05517516330247601,11.25216,0.45817947,6.4743953,-0.24603984,4.579945,-3.6593657,1.4095446,0.39493996,0.2627405,-0.10884027,0.8735808,-6.766404,6.477876,-0.4494394,0.349377,4.029219,0.14290495,0
1.360000000000001,12.40125133239611,-0.1440144430596931,5.999998977689704,-0.08340704393789575,11.836943,0.42759034,5.7723303,-0.2714516,4.5125117,-3.594832,1.4050875,0.39610636,0.24495302,-0.099331215,0.87933546,-6.720653,6.4294233,-0.44156173,0.29303387,4.336554,0.13318509,1
1.370000000000001,12.40125133239611,-0.1440144430596931,5.999998977689704,-0.08340704393789575,11.836943,0.42759034,5.7723303,-0.2714516,4.445511,-3.530752,1.4006933,0.39730498,0.22586226,-0.08930648,0.8849628,-6.679993,6.3871393,-0.43686125,0.31405717,4.56046,0.11332946,1
1.380000000000001,12.40125133239611,-0.1440144430596931,5.999998977689704,-0.08340704393789575,11.836943,0.42759034,5.7723303,-0.2714516,4.3789024,-3.467076,1.3963591,0.39845213,0.20578957,-0.07871861,0.89033127,-6.6421714,6.348647,-0.42961964,0.33180696,4.749448,0.094448134,1
1.390000000000001,12.40125133239611,-0.1440144430596931,5.999998977689704,-0.08340704393789575,11.836943,0.42759034,5.7723303,-0.2714516,4.312657,-3.4037652,1.3921093,0.39950743,0.18486644,-0.06764826,0.89534456,-6.6073933,6.314194,-0.41995963,0.34679177,4.9089627,0.07649333,1
1.400000000000001,12.74578168114852,-0.2215973278481354,5.9999987093017095,-0.10132461633082024,11.630177,0.43816784,6.52116,-0.07761896,4.2467437,-3.3407779,1.3879676,0.40043637,0.16320826,-0.056166057,0.8999217,-6.575846,6.284,-0.4080519,0.35944158,5.043601,0.059419572,0
1.410000000000001,12.74578168114852,-0.2215973278481354,5.9999987093017095,-0.10132461633082024,11.630177,0.43816784,6.52116,-0.07761896,4.1811395,-3.2780802,1.3839982,0.4012357,0.14072919,-0.044535033,0.9040032,-6.545553,6.2562785,-0.3855035,0.2688497,5.1927457,0.05153181,0
1.420000000000001,12.74578168114852,-0.2215973278481354,5.9999987093017095,-0.10132461633082024,11.630177,0.43816784,6.52116,-0.07761896,4.115819,-3.215635,1.3802642,0.40188837,0.11736967,-0.032969967,0.9075368,-6.5191956,6.2334905,-0.3610148,0.19238657,5.3186326,0.044031106,0
1.430000000000001,12.74578168114852,-0.2215973278481354,5.9999987093017095,-0.10132461633082024,11.630177,0.43816784,6.52116,-0.07761896,4.050741,-3.1533928,1.3767835,0.4023506,0.093261674,-0.021463765,0.9104699,-6.497028,6.215746,-0.33487484,0.1278482,5.424889,0.036898457,0
1.440000000000001,12.74578168114852,-0.2215973278481354,5.9999987093017095,-0.10132461633082024,12.564233,0.111993074,6.6640797,-0.06977748,3.9858634,-3.0913024,1.3735713,0.40258697,0.06852158,-0.010012175,0.9127585,-6.479268,6.203138,-0.30740684,0.073374525,5.514576,0.030115804,1
1.450000000000001,12.74578168114852,-0.2215973278481354,5.9999987093017095,-0.10132461633082024,12.564233,0.111993074,6.6640797,-0.06977748,3.921139,-3.0293114,1.3706298,0.4025575,0.0433062,0.0015083288,0.9143684,-6.466282,6.1958504,-0.2807653,0.07941338,5.590277,0.025214016,1
1.460000000000001,12.74578168114852,-0.2215973278481354,5.9999987093017095,-0.10132461633082024,12.564233,0.111993074,6.6640797,-0.06977748,3.8565214,-2.9673672,1.367958,0.40223378,0.017749883,0.013194211,0.9152697,-6.457931,6.193789,-0.25353327,0.08451022,5.654173,0.020552764,1
1.470000000000001,12.74578168114852,-0.2215973278481354,5.9999987093017095,-0.10132461633082024,12.564233,0.111993074,6.6640797,-0.06977748,3.7919638,-2.9054172,1.3655598,0.4016052,-0.008080379,0.025009586,0.91543555,-6.454292,6.1970243,-0.22610115,0.088811755,5.7081046,0.016120233,1
1.480000000000001,12.87542036750709,-0.26860443330090106,5.999997308522851,-0.11126014371107117,13.036126,0.07574241,6.1354456,0.18017298,3.7274191,-2.843408,1.3634351,0.4006633,-0.03412366,0.03692212,0.9148448,-6.4554214,6.2056003,-0.19887307,0.092442274,5.7536254,0.011905203,1
1.490000000000001,12.87542036750709,-0.26860443330090106,5.999997308522851,-0.11126014371107117,13.036126,0.07574241,6.1354456,0.18017298,3.662838,-2.781284,1.3616035,0.39937264,-0.06032884,0.048890498,0.9134941,-6.461576,6.2200556,-0.16757914,0.089806475,5.792048,0.020162148,1
1.500000000000001,12.87542036750709,-0.26860443330090106,5.999997308522851,-0.11126014371107117,13.036126,0.07574241,6.1354456,0.18017298,3.5981703,-2.7189877,1.3600798,0.397701,-0.08664768,0.06087978,0.9113834,-6.4727287,6.240056,-0.13736252,0.08758298,5.8244786,0.028013919,1
1.5100000000000011,12.87542036750709,-0.26860443330090106,5.999997308522851,-0.11126014371107117,13.036126,0.07574241,6.1354456,0.18017298,3.5333662,-2.6564639,1.358851,0.3956472,-0.113030694,0.07287073,0.9085027,-6.488875,6.265563,-0.10866259,0.08570757,5.851851,0.03548042,1
1.5200000000000011,12.759346880639859,-0.30612913591623675,4.816041330311199,-0.12619622290656313,13.226863,-0.123287305,5.8155804,0.23859796,3.468376,-2.5936575,1.3578997,0.3932115,-0.13943204,0.08484536,0.90484506,-6.509988,6.296512,-0.081918985,0.084125824,5.874955,0.042580526,1
1.5300000000000011,12.759346880639859,-0.30612913591623675,4.816041330311199,-0.12619622290656313,13.226863,-0.123287305,5.8155804,0.23859796,3.403148,-2.5305126,1.3572133,0.39038405,-0.16577327,0.096687056,0.9004283,-6.5364,6.3333397,-0.055775564,0.051743545,5.8656945,0.05219917,1
1.5400000000000011,12.759346880639859,-0.30612913591623675,4.816041330311199,-0.12619622290656313,13.226863,-0.123287305,5.8155804,0.23859796,3.337631,-2.4669726,1.3567743,0.38715804,-0.19198719,0.1083026,0.89527655,-6.5677366,6.3754396,-0.03248416,0.024412943,5.8578787,0.061345812,1
1.5500000000000012,12.759346880639859,-0.30612913591623675,4.816041330311199,-0.12619622290656313,13.226863,-0.123287305,5.8155804,0.23859796,3.2717767,-2.402986,1.3565524,0.38353977,-0.21804807,0.11970732,0.8893944,-6.603914,6.422633,-0.012455968,0.0013462305,5.8512816,0.070043616,1
1.5600000000000012,12.040515709270517,-0.3587198214904757,0.19423530996590047,-0.17095455509180044,12.826781,-0.16640484,4.551776,0.16696677,3.2055366,-2.338503,1.3565125,0.379536,-0.24393092,0.1309128,0.88278645,-6.6448293,6.4747276,0.0039097243,-0.018121822,5.8457127,0.07831464,0
1.5700000000000012,12.040515709270517,-0.3587198214904757,0.19423530996590047,-0.17095455509180044,12.826781,-0.16640484,4.551776,0.16696677,3.1388845,-2.2735007,1.3565669,0.37549317,-0.26768392,0.14098702,0.8760552,-6.686211,6.5263505,0.006390987,-0.07115281,4.9643655,0.066082925,0
1.5800000000000012,12.040515709270517,-0.3587198214904757,0.19423530996590047,-0.17095455509180044,12.826781,-0.16640484,4.551776,0.16696677,3.0718002,-2.207964,1.3566285,0.37177366,-0.28781888,0.1492214,0.86987203,-6.7311807,6.581505,0.0054025683,-0.11593428,4.220465,0.054451413,0
1.5900000000000012,12.040515709270517,-0.3587198214904757,0.19423530996590047,-0.17095455509180044,12.826781,-0.16640484,4.551776,0.16696677,3.0042508,-2.141861,1.3566642,0.36838645,-0.30493274,0.15592077,0.8642893,-6.7791605,6.639501,0.0012701808,-0.15374815,3.592577,0.04339067,0
1.6000000000000012,11.754034171969936,-0.35734382541344406,-5.130607709322534,-0.21846507743423496,11.569872,0.05034729,-2.1360204,-0.0013855104,2.9362082,-2.0751662,1.3566443,0.3653222,-0.3195232,0.16133828,0.85931045,-6.829682,6.6997848,-0.0056734886,-0.1856773,3.0626078,0.032872688,0
1.6100000000000012,11.754034171969936,-0.35734382541344406,-5.130607709322534,-0.21846507743423496,11.569872,0.05034729,-2.1360204,-0.0013855104,2.8676496,-2.007859,1.3565425,0.36287618,-0.33027643,0.164873,0.8556022,-6.882006,6.7614894,-0.015533504,-0.23445107,1.8069233,0.022550507,0
1.6200000000000012,11.754034171969936,-0.35734382541344406,-5.130607709322534,-0.21846507743423496,11.569872,0.05034729,-2.1360204,-0.0013855104,2.7985663,-1.9399365,1.3563228,0.36136156,-0.33605355,0.16612339,0.85374975,-6.934786,6.8230853,-0.028569935,-0.2535942,0.7250209,0.010723805,0
1.6300000000000012,11.754034171969936,-0.35734382541344406,-5.130607709322534,-0.21846507743423496,11.569872,0.05034729,-2.1360204,-0.0013855104,2.7289515,-1.8713961,1.3559687,0.36068553,-0.33761606,0.16547716,0.8535446,-6.9883037,6.8849945,-0.042297404,-0.26976845,-0.18815929,-0.00052255974,0
1.6400000000000012,11.754034171969936,-0.35734382541344406,-5.130607709322534,-0.21846507743423496,11.092545,-0.082735986,-5.6917195,-0.18599059,2.6588,-1.8022374,1.3554772,0.36072388,-0.33562693,0.16323264,0.8547442,-7.042008,6.946647,-0.055955578,-0.28343242,-0.9589295,-0.0112170605,1
1.6500000000000012,11.754034171969936,-0.35734382541344406,-5.130607709322534,-0.21846507743423496,11.092545,-0.082735986,-5.6917195,-0.18599059,2.5881271,-1.7324829,1.3548282,0.36142418,-0.33039677,0.15964767,0.85715973,-7.0924172,7.0041304,-0.07368839,-0.25214854,-1.6970044,-0.019793246,1
1.6600000000000013,11.754034171969936,-0.35734382541344406,-5.130607709322534,-0.21846507743423496,11.092545,-0.082735986,-5.6917195,-0.18599059,2.5169537,-1.6621587,1.3540076,0.36272293,-0.32218668,0.15493324,0.86059463,-7.142108,7.0605054,-0.09019962,-0.22574905,-2.3199775,-0.027948597,1
1.6700000000000013,11.754034171969936,-0.35734382541344406,-5.130607709322534,-0.21846507743423496,11.092545,-0.082735986,-5.6917195,-0.18599059,2.4452887,-1.5912778,1.35303,0.36448973,-0.311429,0.14925008,0.8648024,-7.19067,7.1154046,-0.10504322,-0.20347011,-2.845798,-0.035703763,1
1.6800000000000013,11.951613998619504,-0.28918996502159106,-5.999997408496881,-0.20467496658597062,11.440766,-0.13058645,-5.8920293,0.08176294,2.3731453,-1.5198568,1.3519136,0.36660823,-0.2984849,0.14273193,0.8695587,-7.237736,7.1684937,-0.117879465,-0.18466772,-3.2896175,-0.043078374,1
1.6900000000000013,11.951613998619504,-0.28918996502159106,-5.999997408496881,-0.20467496658597062,11.440766,-0.13058645,-5.8920293,0.08176294,2.3005333,-1.4479072,1.3506938,0.3689525,-0.28359076,0.13545483,0.874701,-7.284393,7.2210617,-0.12571506,-0.17623067,-3.695463,-0.03695237,1
1.7000000000000013,11.951613998619504,-0.28918996502159106,-5.999997408496881,-0.20467496658597062,11.440766,-0.13058645,-5.8920293,0.08176294,2.2274654,-1.3754443,1.349408,0.3714087,-0.26694897,0.1274853,0.88008004,-7.32884,7.2711267,-0.13104877,-0.16910556,-4.038017,-0.03112699,1
1.7100000000000013,11.951613998619504,-0.28918996502159106,-5.999997408496881,-0.20467496658597062,11.440766,-0.13058645,-5.8920293,0.08176294,2.1539652,-1.3024944,1.3480818,0.37389836,-0.24879621,0.118915215,0.88552755,-7.3707767,7.31839,-0.1337822,-0.16308886,-4.32715,-0.025587443,1
1.7200000000000013,12.395960045899361,-0.24935047880369934,-5.999998147403413,-0.16653287733404767,11.662856,-0.21726896,-6.108737,0.18184923,2.0800595,-1.229087,1.3467416,0.3763543,-0.22933613,0.10982361,0.89089876,-7.4099298,7.3625736,-0.1338928,-0.15800852,-4.5711923,-0.020319728,1
1.7300000000000013,12.395960045899361,-0.24935047880369934,-5.999998147403413,-0.16653287733404767,11.662856,-0.21726896,-6.108737,0.18184923,2.0057735,-1.1552503,1.3454227,0.3787052,-0.20871796,0.10023449,0.8960869,-7.446748,7.4042115,-0.1294715,-0.16722216,-4.794015,-0.010399243,1
1.7400000000000013,12.395960045899361,-0.24935047880369934,-5.999998147403413,-0.16653287733404767,11.662856,-0.21726896,-6.108737,0.18184923,1.9311359,-1.0810153,1.3441609,0.3808892,-0.18707299,0.09017193,0.900997,-7.480235,7.4421873,-0.12251861,-0.17499767,-4.982089,-0.0009655454,1
1.7500000000000013,12.395960045899361,-0.24935047880369934,-5.999998147403413,-0.16653287733404767,11.662856,-0.21726896,-6.108737,0.18184923,1.8561809,-1.00642,1.3429807,0.38286686,-0.16454226,0.07970045,0.9055309,-7.5101795,7.4762597,-0.11318518,-0.1815599,-5.140833,0.008005231,1
1.7600000000000013,12.870484386448904,-0.20695584410181234,-5.999997245812865,-0.13411867506543237,12.987878,0.14291391,-6.513797,-0.060761172,1.7809451,-0.9315043,1.3419049,0.38460523,-0.14124991,0.06887673,0.9096059,-7.536387,7.506212,-0.10167065,-0.18709877,-5.274821,0.0165358,1
1.7700000000000014,12.870484386448904,-0.20695584410181234,-5.999997245812865,-0.13411867506543237,12.987878,0.14291391,-6.513797,-0.060761172,1.7054536,-0.8562956,1.3410172,0.38612363,-0.11725233,0.057878047,0.91313213,-7.5612144,7.534772,-0.07554217,-0.13564555,-5.387911,0.012742821,1
1.7800000000000014,12.870484386448904,-0.20695584410181234,-5.999997245812865,-0.13411867506543237,12.987878,0.14291391,-6.513797,-0.060761172,1.6297365,-0.78082585,1.3404005,0.38743684,-0.092604555,0.046850488,0.91603595,-7.581478,7.558387,-0.0475614,-0.092216596,-5.483365,0.009135962,1
1.7900000000000014,12.870484386448904,-0.20695584410181234,-5.999997245812865,-0.13411867506543237,12.987878,0.14291391,-6.513797,-0.060761172,1.5538403,-0.7051452,1.3400712,0.38851434,-0.06740862,0.035799008,0.918276,-7.5969896,7.5769396,-0.018069612,-0.05556016,-5.563934,0.005706095,1
1.8000000000000014,12.911799788494278,-0.18838747870569497,-5.812787632123005,-0.10300033858316954,14.77434,0.30265006,-5.9852185,-0.14884916,1.4778135,-0.62930477,1.3400428,0.38933146,-0.041755468,0.024729587,0.9198183,-7.607594,7.5903335,0.012564734,-0.02461988,-5.631938,0.0024445252,0
1.8100000000000014,12.911799788494278,-0.18838747870569497,-5.812787632123005,-0.10300033858316954,14.77434,0.30265006,-5.9852185,-0.14884916,1.4017059,-0.5533568,1.3403212,0.3898678,-0.015847344,0.013556082,0.9206345,-7.613141,7.598441,0.043192342,-0.050178412,-5.660141,-0.0027296797,0
1.8200000000000014,12.911799788494278,-0.18838747870569497,-5.812787632123005,-0.10300033858316954,14.77434,0.30265006,-5.9852185,-0.14884916,1.325568,-0.4773541,1.3409078,0.39011502,0.010146681,0.0022125433,0.9207074,-7.6136546,7.60127,0.07416209,-0.07175052,-5.683946,-0.0076499917,0
1.8300000000000014,12.911799788494278,-0.18838747870569497,-5.812787632123005,-0.10300033858316954,14.77434,0.30265006,-5.9852185,-0.14884916,1.2494501,-0.40134972,1.3418043,0.39007044,0.03619453,-0.009266589,0.9200266,-7.6091313,7.5987697,0.10506022,-0.08995754,-5.7040386,-0.012328861,0
1.8400000000000014,12.911799788494278,-0.18838747870569497,-5.812787632123005,-0.10300033858316954,14.432939,-0.40947798,-5.0691023,0.15960003,1.1734027,-0.32539713,1.3430074,0.38973168,0.062265478,-0.02085044,0.91858435,-7.5995855,7.5909104,0.13546827,-0.10532437,-5.7209973,-0.01677814,0
1.8500000000000014,12.911799788494278,-0.18838747870569497,-5.812787632123005,-0.10300033858316954,14.432939,-0.40947798,-5.0691023,0.15960003,1.0974755,-0.24954996,1.3445103,0.38909662,0.08833001,-0.032511193,0.91637564,-7.585048,7.5776873,0.16496533,-0.11829384,-5.7353115,-0.0210091,0
1.8600000000000014,12.911799788494278,-0.18838747870569497,-5.812787632123005,-0.10300033858316954,14.432939,-0.40947798,-5.0691023,0.15960003,1.0217186,-0.17386176,1.346302,0.3881635,0.11435965,-0.044223655,0.9133975,-7.5655675,7.559118,0.19313034,-0.12924014,-5.7473936,-0.025032435,0
1.8700000000000014,12.911799788494278,-0.18838747870569497,-5.812787632123005,-0.10300033858316954,14.432939,-0.40947798,-5.0691023,0.15960003,0.946181,-0.098385826,1.3483669,0.3869309,0.14032689,-0.0559649,0.9096486,-7.5412083,7.535241,0.2195441,-0.13847862,-5.7575912,-0.028858328,0
1.8800000000000014,12.522236877403719,-0.15646752999105018,-3.087911337243965,-0.05274645998393849,14.050848,-0.38769424,-3.0760124,0.010191495,0.870911,-0.023174962,1.3506852,0.3853978,0.16620502,-0.067713924,0.9051293,-7.512053,7.5061164,0.24379125,-0.14627568,-5.766198,-0.032496497,0
1.8900000000000015,12.522236877403719,-0.15646752999105018,-3.087911337243965,-0.05274645998393849,14.050848,-0.38769424,-3.0760124,0.010191495,0.795951,0.051723897,1.3532157,0.3836415,0.19099113,-0.07902281,0.90005374,-7.479258,7.4729,0.26187205,-0.14785992,-5.3485208,-0.03349017,0
1.9000000000000015,12.522236877403719,-0.15646752999105018,-3.087911337243965,-0.05274645998393849,14.050848,-0.38769424,-3.0760124,0.010191495,0.7213401,0.12626721,1.3559135,0.38176668,0.2139088,-0.08954368,0.89469486,-7.4423027,7.4350734,0.2772657,-0.14919767,-4.99598,-0.034435086,0
1.9100000000000015,12.522236877403719,-0.15646752999105018,-3.087911337243965,-0.05274645998393849,14.050848,-0.38769424,-3.0760124,0.010191495,0.6471179,0.2004109,1.3587512,0.37980282,0.2352399,-0.099394016,0.88911897,-7.401573,7.393034,0.2898523,-0.15032755,-4.698417,-0.035333622,0
1.9200000000000015,11.846166303110097,-0.086509187529447,1.3865799839461845,0.008460097221350786,13.412234,-0.29974976,0.37190384,-0.15403919,0.57332045,0.27411458,1.3617004,0.37776938,0.2552223,-0.10867313,0.8833695,-7.357403,7.3471227,0.29954457,-0.15128173,-4.44726,-0.036188062,0
1.9300000000000015,11.846166303110097,-0.086509187529447,1.3865799839461845,0.008460097221350786,13.412234,-0.29974976,0.37190384,-0.15403919,0.49996787,0.3473544,1.3647035,0.3758735,0.27249423,-0.116769545,0.87796956,-7.312687,7.3003645,0.30066934,-0.14115404,-3.5374768,-0.03399715,0
1.9400000000000015,11.846166303110097,-0.086509187529447,1.3865799839461845,0.008460097221350786,13.412234,-0.29974976,0.37190384,-0.15403919,0.42707473,0.42011258,1.3677053,0.37432304,0.28602105,-0.1232177,0.8734365,-7.265619,7.250897,0.29936582,-0.13261138,-2.7695732,-0.031913757,0
1.9500000000000015,11.846166303110097,-0.086509187529447,1.3865799839461845,0.008460097221350786,13.412234,-0.29974976,0.37190384,-0.15403919,0.35466158,0.49236512,1.3706838,0.37311342,0.2964198,-0.12828802,0.8697491,-7.216768,7.19933,0.296065,-0.12540564,-2.1214235,-0.029932583,0
1.9600000000000015,11.583730654701158,0.016479949364404355,4.941665709486377,0.046676247002713216,12.288368,-0.063702,5.83995,-0.30630127,0.2827439,0.56409365,1.3736212,0.37222436,0.30420208,-0.13220508,0.8668515,-7.166595,7.1461577,0.2911754,-0.119327225,-1.5743524,-0.028048636,1
1.9700000000000015,11.583730654701158,0.016479949364404355,4.941665709486377,0.046676247002713216,12.288368,-0.063702,5.83995,-0.30630127,0.21134277,0.6352737,1.3765213,0.3718951,0.30826598,-0.13447092,0.8652071,-7.113567,7.0897565,0.2886579,-0.10948767,-0.41924337,-0.041595127,1
1.9800000000000015,11.583730654701158,0.016479949364404355,4.941665709486377,0.046676247002713216,12.288368,-0.063702,5.83995,-0.30630127,0.14047341,0.7058872,1.3793929,0.37232164,0.30774808,-0.13470213,0.865172,-7.0603137,7.032922,0.28560707,-0.102316625,0.5568751,-0.054584328,1
1.9900000000000015,11.583730654701158,0.016479949364404355,4.941665709486377,0.046676247002713216,12.288368,-0.063702,5.83995,-0.30630127,0.070135176,0.77593285,1.3822348,0.3733929,0.30336258,-0.13321197,0.8664889,-7.007436,6.976297,0.28288975,-0.09625452,1.3807683,-0.06693616,1
2.0000000000000013,,,,,12.289251,-0.11059849,6.6852546,-0.31635925,0.0003214907,0.84541583,1.385054,0.374994,0.29569662,-0.13025771,0.8688932,-6.955486,6.9204774,0.28115046,-0.091132045,2.0761757,-0.07868188,0
2.010000000000001,,,,,12.289251,-0.11059849,6.6852546,-0.31635925,-0.069000795,0.91437,1.3878218,0.37696093,0.28519884,-0.12598373,0.8721752,-6.909204,6.87058,0.27265695,-0.060617033,2.6880913,-0.07104928,0
2.020000000000001,,,,,12.289251,-0.11059849,6.6852546,-0.31635925,-0.13786834,0.9828332,1.3905131,0.37914175,0.27224302,-0.120514326,0.8761341,-6.864597,6.8223495,0.26590672,-0.034870107,3.2045794,-0.063791215,0
2.0300000000000007,,,,,12.289251,-0.11059849,6.6852546,-0.31635925,-0.20629966,1.0508242,1.3931468,0.38144848,0.2571769,-0.114019364,0.88054305,-6.8220096,6.7761993,0.26117113,-0.013145428,3.6405218,-0.056889284,0
2.0400000000000005,,,,,12.289251,-0.11059849,6.6852546,-0.31635925,-0.27431655,1.1183656,1.395744,0.38380244,0.24029467,-0.10664268,0.88520104,-6.781756,6.732504,0.2586245,0.00518608,4.0084796,-0.05032604,0
2.0500000000000003,,,,,12.449717,-0.17108528,6.472253,-0.03591446,-0.3419438,1.1854838,1.3983271,0.3861345,0.22184719,-0.0985069,0.8899324,-6.7441225,6.6916027,0.25835434,0.020655086,4.319055,-0.044084854,1
2.06,,,,,12.449717,-0.17108528,6.472253,-0.03591446,-0.4091902,1.252188,1.400972,0.38842097,0.20200865,-0.089812525,0.8945695,-6.705678,6.6497793,0.27102455,-0.00924024,4.5811987,-0.043683935,1
2.07,,,,,12.449717,-0.17108528,6.472253,-0.03591446,-0.47606936,1.3184923,1.403756,0.39063847,0.1809324,-0.08072629,0.89897025,-6.6707206,6.6116705,0.28616145,-0.034474775,4.8024607,-0.043302692,1
2.0799999999999996,,,,,12.449717,-0.17108528,6.472253,-0.03591446,-0.54261756,1.384435,1.4067032,0.39273274,0.15879187,-0.0713008,0.9030291,-6.6395226,6.5775256,0.30363595,-0.05577502,4.9892163,-0.042940147,1
2.0899999999999994,,,,,12.549638,-0.25686812,6.1992564,0.2123406,-0.6088736,1.4500571,1.409836,0.39465824,0.13573858,-0.061582476,0.9066569,-6.6123266,6.54757,0.32326227,-0.073754236,5.1468487,-0.04259541,1
2.099999999999999,,,,,12.549638,-0.25686812,6.1992564,0.2123406,-0.67487764,1.5154004,1.4131799,0.3963536,0.11189018,-0.05164773,0.909789,-6.5891633,6.5217977,0.34576613,-0.102350116,5.279897,-0.030085623,1
2.109999999999999,,,,,12.549638,-0.25686812,6.1992564,0.2123406,-0.7406721,1.580509,1.4167571,0.39776385,0.08735199,-0.041561022,0.9123734,-6.570447,6.5006194,0.36992422,-0.12648647,5.3921967,-0.018189706,1
2.1199999999999988,,,,,12.549638,-0.25686812,6.1992564,0.2123406,-0.80630237,1.6454291,1.420583,0.39886346,0.062232662,-0.031345077,0.91435856,-6.556348,6.484177,0.39542276,-0.14685872,5.486982,-0.0068775173,1
2.1299999999999986,,,,,11.78676,-0.15070307,5.3039613,0.3175539,-0.8718154,1.7102093,1.424669,0.39963204,0.036628895,-0.021020822,0.91570175,-6.5470076,6.4725904,0.42191854,-0.16405313,5.566985,0.003879585,1
2.1399999999999983,,,,,11.78676,-0.15070307,5.3039613,0.3175539,-0.9372608,1.7749003,1.4289855,0.40003768,0.01089919,-0.010680545,0.9163711,-6.5428004,6.4663486,0.44143128,-0.16202663,5.525965,0.019271685,1
2.149999999999998,,,,,11.78676,-0.15070307,5.3039613,0.3175539,-1.0026871,1.8395522,1.4334985,0.40006667,-0.014663085,-0.00039984193,0.9163681,-6.543163,6.464752,0.4611735,-0.16031264,5.4913425,0.03390848,1
2.159999999999998,,,,,11.78676,-0.15070307,5.3039613,0.3175539,-1.0681397,1.9042113,1.4382085,0.39972833,-0.04006529,0.009825733,0.9157044,-6.5480647,6.4677763,0.4807864,-0.15886289,5.4621196,0.047827043,1
2.1699999999999977,,,,,10.4396925,-0.23004992,2.8828876,0.36462456,-1.1336639,1.9689234,1.4431126,0.39903098,-0.0653112,0.019999072,0.9143893,-6.5574694,6.475385,0.49991778,-0.15763663,5.4374533,0.061062623,1
