time-since-start [s],throttle_mpc,roll_mpc,pitch_mpc,yaw_mpc,throttle_nw,roll_nw,pitch_nw,yaw_nw,position_x [m],position_y [m],position_z [m],rotation_w [quaternion],rotation_x [quaternion],rotation_y [quaternion],rotation_z [quaternion],velocity_x [m/s],velocity_y [m/s],velocity_z [m/s],omega_x [rad/s],omega_y [rad/s],omega_z [rad/s],network_used
0.0,12.67817691304459,5.999999609728923,-5.9999998842950975,-3.8941502539940505,7.3700266,-0.47632644,-1.3963674,-0.55686694,16.658035,-10.491577,1.3071088,-0.123516634,0.39882177,-0.23792987,-0.87696874,-8.7808275,-3.484091,-0.582589,1.3861026,-0.16205937,-0.108736776,0
0.01,12.67817691304459,5.999999609728923,-5.9999998842950975,-3.8941502539940505,15.781217,-0.30122033,-3.6150165,0.27480298,16.569641,-10.525943,1.3013128,-0.12757328,0.39668754,-0.24374254,-0.8757588,-8.897382,-3.3890178,-0.5769678,1.5232841,-0.4903359,-0.2424086,0
0.02,12.67817691304459,5.999999609728923,-5.9999998842950975,-3.8941502539940505,15.781217,-0.30122033,-3.6150165,0.27480298,16.4801,-10.559356,1.2955616,-0.13287774,0.39319074,-0.24970719,-0.87486607,-9.010057,-3.2934964,-0.5736018,1.6754732,-0.803895,-0.37278,0
0.03,12.67817691304459,5.999999609728923,-5.9999998842950975,-3.8941502539940505,15.781217,-0.30122033,-3.6150165,0.27480298,16.389454,-10.591809,1.2898341,-0.13942811,0.38837096,-0.25588536,-0.87421405,-9.118438,-3.1974142,-0.5721425,1.8398331,-1.1045322,-0.49996802,0
0.04,12.67817691304459,5.999999609728923,-5.9999998842950975,-3.8941502539940505,10.32966,-1.2929449,-3.5460079,-0.77389944,16.297749,-10.623301,1.2841132,-0.14721665,0.38225767,-0.2623233,-0.8737234,-9.222127,-3.1006665,-0.5722917,2.0139594,-1.3937528,-0.62408316,0
0.05,12.67817691304459,5.999999609728923,-5.9999998842950975,-3.8941502539940505,10.32966,-1.2929449,-3.5460079,-0.77389944,16.20503,-10.653821,1.2783836,-0.1562301,0.37487182,-0.26905385,-0.8733116,-9.320742,-3.003167,-0.57379776,2.195813,-1.6728184,-0.74522984,0
0.060000000000000005,12.67817691304459,5.999999609728923,-5.9999998842950975,-3.8941502539940505,10.32966,-1.2929449,-3.5460079,-0.77389944,16.111355,-10.683362,1.2726332,-0.1664499,0.3662273,-0.2760982,-0.8728927,-9.413911,-2.9048526,-0.5764523,2.3836656,-1.9427861,-0.86350673,0
0.07,12.67817691304459,5.999999609728923,-5.9999998842950975,-3.8941502539940505,10.32966,-1.2929449,-3.5460079,-0.77389944,16.016773,-10.711917,1.2668511,-0.17785229,0.35633215,-0.28346688,-0.87237734,-9.501276,-2.8056927,-0.5800871,2.576053,-2.2045424,-0.97900707,0
0.08,14.20135074912756,5.999999592362997,-5.999999900053601,-4.081209248953766,12.697203,-0.7833745,-4.150514,-0.7682433,15.92135,-10.739474,1.2610284,-0.19040832,0.34518987,-0.29116103,-0.87167287,-9.582488,-2.7056916,-0.58457196,2.771734,-2.4588308,-1.0918192,0
0.09,14.20135074912756,5.999999592362997,-5.999999900053601,-4.081209248953766,12.697203,-0.7833745,-4.150514,-0.7682433,15.825113,-10.765983,1.2551981,-0.20413049,0.332768,-0.2991892,-0.8706789,-9.663813,-2.595987,-0.5816066,2.9846535,-2.7213333,-1.2125467,0
0.09999999999999999,14.20135074912756,5.999999592362997,-5.999999900053601,-4.081209248953766,12.697203,-0.7833745,-4.150514,-0.7682433,15.7281,-10.79139,1.2493937,-0.21902469,0.31902888,-0.30755147,-0.8692874,-9.737706,-2.4854856,-0.5793777,3.1991954,-2.9777856,-1.3304663,0
0.10999999999999999,14.20135074912756,5.999999592362997,-5.999999900053601,-4.081209248953766,12.697203,-0.7833745,-4.150514,-0.7682433,15.630387,-10.81569,1.243608,-0.2350436,0.30396494,-0.3162238,-0.867388,-9.803799,-2.374325,-0.57785016,3.4145463,-3.2285674,-1.4456656,0
0.11999999999999998,14.20135074912756,5.999999592362997,-5.999999900053601,-4.081209248953766,12.697203,-0.7833745,-4.150514,-0.7682433,15.532054,-10.838876,1.2378341,-0.25213352,0.28756836,-0.32517448,-0.8648666,-9.86174,-2.262701,-0.5770253,3.6300173,-3.4739962,-1.5582275,0
0.12999999999999998,16.053923672033974,5.2551123349773805,-5.999999850124263,-3.623142651526543,14.238011,-0.8418894,-4.3909154,-0.61667913,15.433184,-10.860944,1.2320648,-0.27023405,0.26983228,-0.33436465,-0.86160547,-9.911205,-2.1508667,-0.5769394,3.8450253,-3.714339,-1.668231,0
0.13999999999999999,16.053923672033974,5.2551123349773805,-5.999999850124263,-3.623142651526543,14.238011,-0.8418894,-4.3909154,-0.61667913,15.333852,-10.88187,1.2263125,-0.28936931,0.2504539,-0.34368783,-0.8575643,-9.953673,-2.0341754,-0.5733224,4.0642867,-4.071278,-1.7641591,0
0.15,16.053923672033974,5.2551123349773805,-5.999999850124263,-3.623142651526543,14.238011,-0.8418894,-4.3909154,-0.61667913,15.234139,-10.901621,1.2206025,-0.30946052,0.2293109,-0.35297367,-0.85267806,-9.987259,-1.9156625,-0.5685021,4.2493906,-4.372526,-1.8553799,0
0.16,16.98682628070736,3.1075957012813844,-5.563864003363798,-1.3002651620217895,13.667108,-0.23718879,-5.1029286,0.06350641,15.13414,-10.920179,1.2149464,-0.33030105,0.2066481,-0.3620973,-0.8468075,-10.01129,-1.795839,-0.5625349,4.4056644,-4.6267676,-1.9421245,0
0.17,16.98682628070736,3.1075957012813844,-5.563864003363798,-1.3002651620217895,13.667108,-0.23718879,-5.1029286,0.06350641,15.033945,-10.9375,1.2093856,-0.35123172,0.18301818,-0.37035128,-0.84022623,-10.026068,-1.6683309,-0.5494172,4.2031446,-4.772565,-1.9106282,0
0.18000000000000002,16.98682628070736,3.1075957012813844,-5.563864003363798,-1.3002651620217895,13.667108,-0.23718879,-5.1029286,0.06350641,14.933657,-10.953547,1.2039615,-0.37172323,0.1588925,-0.3772072,-0.8332403,-10.030096,-1.540971,-0.5352259,4.032236,-4.8956757,-1.8806776,0
0.19000000000000003,16.98682628070736,3.1075957012813844,-5.563864003363798,-1.3002651620217895,13.667108,-0.23718879,-5.1029286,0.06350641,14.833382,-10.968324,1.1986846,-0.39177442,0.13435759,-0.38280833,-0.8257834,-10.023454,-1.4146469,-0.51999336,3.8880043,-4.9996305,-1.8521965,0
0.20000000000000004,16.867323280581846,1.97128976302928,-4.350152874581035,-1.087810470129327,14.922345,-2.1771727,-3.5307,0.14168207,14.733224,-10.981846,1.1935648,-0.4113778,0.109487735,-0.38727644,-0.8178002,-10.006265,-1.2901976,-0.5037996,3.7662838,-5.087409,-1.825113,0
0.21000000000000005,16.867323280581846,1.97128976302928,-4.350152874581035,-1.087810470129327,14.922345,-2.1771727,-3.5307,0.14168207,14.63329,-10.99414,1.1886072,-0.43027106,0.08492473,-0.39055622,-0.8093948,-9.97894,-1.169263,-0.48757464,3.48661,-4.9720187,-1.7889334,0
0.22000000000000006,16.867323280581846,1.97128976302928,-4.350152874581035,-1.087810470129327,14.922345,-2.1771727,-3.5307,0.14168207,14.53368,-11.00524,1.1838156,-0.44827273,0.061189637,-0.39264563,-0.8007098,-9.941888,-1.0516237,-0.47064948,3.2505193,-4.874691,-1.7545291,0
0.23000000000000007,16.867323280581846,1.97128976302928,-4.350152874581035,-1.087810470129327,14.922345,-2.1771727,-3.5307,0.14168207,14.434485,-11.015184,1.1791961,-0.4654777,0.0381758,-0.39370838,-0.7917488,-9.895704,-0.9378337,-0.45315474,3.0512202,-4.792597,-1.721813,0
0.24000000000000007,16.867323280581846,1.97128976302928,-4.350152874581035,-1.087810470129327,13.95415,-2.2771683,-1.7172405,0.02119856,14.335795,-11.024013,1.1747539,-0.48196176,0.015790496,-0.39387953,-0.7825099,-9.840945,-0.82837766,-0.43521824,2.882979,-4.7233505,-1.6907023,0
0.25000000000000006,16.867323280581846,1.97128976302928,-4.350152874581035,-1.087810470129327,13.95415,-2.2771683,-1.7172405,0.02119856,14.237694,-11.03177,1.1704926,-0.4977854,-0.00604611,-0.3932707,-0.77298814,-9.778131,-0.7236835,-0.41696775,2.7409556,-4.6649413,-1.6611181,0
0.26000000000000006,16.867323280581846,1.97128976302928,-4.350152874581035,-1.087810470129327,13.95415,-2.2771683,-1.7172405,0.02119856,14.140258,-11.038505,1.1664151,-0.5129966,-0.027402166,-0.3919743,-0.763177,-9.707751,-0.6241322,-0.39853272,2.6210644,-4.615672,-1.6329858,0
0.2700000000000001,16.867323280581846,1.97128976302928,-4.350152874581035,-1.087810470129327,13.95415,-2.2771683,-1.7172405,0.02119856,14.043563,-11.044271,1.1625223,-0.5276334,-0.048335344,-0.39006692,-0.75306964,-9.63027,-0.5300657,-0.3800453,2.5198565,-4.5741134,-1.6062338,0
0.2800000000000001,16.43312924018134,0.09852357417202935,-2.350432606716435,0.058152144802531516,14.490422,-2.3427346,-0.36785674,0.34319144,13.947677,-11.049126,1.158814,-0.54172575,-0.06889401,-0.38761204,-0.7426595,-9.546131,-0.44179237,-0.36164075,2.4344194,-4.5390573,-1.5807947,0
0.2900000000000001,16.43312924018134,0.09852357417202935,-2.350432606716435,0.058152144802531516,14.490422,-2.3427346,-0.36785674,0.34319144,13.852651,-11.053139,1.1552738,-0.55494916,-0.08817365,-0.38454336,-0.7323815,-9.458156,-0.3616613,-0.34643272,2.0707104,-4.197258,-1.5003711,0
0.3000000000000001,16.43312924018134,0.09852357417202935,-2.350432606716435,0.058152144802531516,14.490422,-2.3427346,-0.36785674,0.34319144,13.758531,-11.056379,1.1518846,-0.5670909,-0.10547145,-0.38085273,-0.72265786,-9.36498,-0.28732646,-0.33142582,1.7636263,-3.9088578,-1.4238939,0
0.3100000000000001,16.43312924018134,0.09852357417202935,-2.350432606716435,0.058152144802531516,14.490422,-2.3427346,-0.36785674,0.34319144,13.665366,-11.058905,1.1486447,-0.57831573,-0.121098034,-0.37665802,-0.7134525,-9.267411,-0.21860293,-0.3165718,1.5043544,-3.6655097,-1.3511695,0
0.3200000000000001,16.144620264075293,-2.063706076932703,0.06092948498446463,1.8956241589032379,15.459309,-2.6224122,1.5528495,0.6774201,13.573196,-11.06077,1.1455529,-0.58875555,-0.135317,-0.37205037,-0.7047228,-9.166125,-0.15530616,-0.30181646,1.2854527,-3.460173,-1.2820137,0
0.3300000000000001,16.144620264075293,-2.063706076932703,0.06092948498446463,1.8956241589032379,15.459309,-2.6224122,1.5528495,0.6774201,13.482053,-11.06203,1.1426069,-0.59816474,-0.14725289,-0.36695793,-0.6970344,-9.062267,-0.09747635,-0.2876223,0.74287426,-2.9315462,-1.1280217,0
0.34000000000000014,16.144620264075293,-2.063706076932703,0.06092948498446463,1.8956241589032379,15.459309,-2.6224122,1.5528495,0.6774201,13.391953,-11.062737,1.1397964,-0.60633504,-0.15623482,-0.36144093,-0.6908752,-8.95746,-0.044852585,-0.274486,0.30382955,-2.4664593,-0.9798316,0
0.35000000000000014,16.144620264075293,-2.063706076932703,0.06092948498446463,1.8956241589032379,15.459309,-2.6224122,1.5528495,0.6774201,13.302908,-11.06294,1.1371185,-0.61343265,-0.1627469,-0.35565728,-0.68609136,-8.851462,0.0038359957,-0.26097178,-0.06494219,-2.072083,-0.8387321,0
0.36000000000000015,17.724151642637253,-4.0039108419300184,3.049163646938974,2.2201581100137715,16.649467,-4.400284,3.0709953,1.5186875,13.214926,-11.062672,1.1345794,-0.6196106,-0.16719808,-0.3496645,-0.6825408,-8.744808,0.049246877,-0.24670345,-0.3763127,-1.7393024,-0.70455647,0
0.37000000000000016,17.724151642637253,-4.0039108419300184,3.049163646938974,2.2201581100137715,16.649467,-4.400284,3.0709953,1.5186875,13.128063,-11.061942,1.1322432,-0.62467796,-0.16864747,-0.34370908,-0.6805874,-8.627648,0.09616107,-0.22035925,-0.94159526,-0.9923696,-0.5610399,0
0.38000000000000017,17.724151642637253,-4.0039108419300184,3.049163646938974,2.2201581100137715,16.649467,-4.400284,3.0709953,1.5186875,13.042369,-11.060754,1.1301773,-0.628489,-0.16636497,-0.33799073,-0.6805044,-8.511298,0.14123677,-0.1925828,-1.4188961,-0.3620442,-0.42456576,0
0.3900000000000002,17.724151642637253,-4.0039108419300184,3.049163646938974,2.2201581100137715,16.649467,-4.400284,3.0709953,1.5186875,12.95783,-11.059119,1.1283976,-0.6311939,-0.16094463,-0.33246857,-0.682023,-8.396609,0.1855955,-0.16303934,-1.8218925,0.16989085,-0.29478842,0
0.4000000000000002,18.70015741102089,-4.859653500295467,4.559064761166816,2.2817549168878255,18.028263,-4.108077,4.234916,1.84203,12.874429,-11.057041,1.1269233,-0.63289666,-0.15288207,-0.32709518,-0.68489206,-8.284309,0.2301834,-0.13146912,-2.1621385,0.6188045,-0.17137927,1
0.4100000000000002,18.70015741102089,-4.859653500295467,4.559064761166816,2.2817549168878255,18.028263,-4.108077,4.234916,1.84203,12.792144,-11.054508,1.125787,-0.6335529,-0.14222494,-0.32210106,-0.68893635,-8.17317,0.27660888,-0.09543152,-2.465618,1.1826112,-0.07258069,1
0.4200000000000002,18.70015741102089,-4.859653500295467,4.559064761166816,2.2817549168878255,18.028263,-4.108077,4.234916,1.84203,12.710952,-11.051501,1.1250226,-0.6331213,-0.12902561,-0.31765908,-0.69397557,-8.065755,0.3250108,-0.057080545,-2.7218359,1.6584628,0.021369806,1
0.4300000000000002,18.70015741102089,-4.859653500295467,4.559064761166816,2.2817549168878255,18.028263,-4.108077,4.234916,1.84203,12.630813,-11.047998,1.1246533,-0.6316677,-0.113674335,-0.31364515,-0.69978595,-7.962667,0.3761994,-0.016430499,-2.9381437,2.060086,0.110710144,1
0.4400000000000002,18.70015741102089,-4.859653500295467,4.559064761166816,2.2817549168878255,18.06918,-3.7090368,4.995276,1.4858046,12.551681,-11.043965,1.1247017,-0.6292396,-0.09650232,-0.30995142,-0.7061689,-7.864468,0.4308256,0.026434632,-3.1207502,2.399064,0.19566649,0
0.45000000000000023,18.70015741102089,-4.859653500295467,4.559064761166816,2.2817549168878255,18.06918,-3.7090368,4.995276,1.4858046,12.473521,-11.039356,1.1252159,-0.6258187,-0.07752773,-0.30634752,-0.7130856,-7.7682505,0.49159187,0.076707855,-3.3921552,2.735655,0.29803145,0
0.46000000000000024,18.70015741102089,-4.859653500295467,4.559064761166816,2.2817549168878255,18.06918,-3.7090368,4.995276,1.4858046,12.396293,-11.034117,1.1262429,-0.6213668,-0.05678439,-0.3026379,-0.72047806,-7.678349,0.5569213,0.12898663,-3.6212564,3.0197415,0.39537334,0
0.47000000000000025,18.70015741102089,-4.859653500295467,4.559064761166816,2.2817549168878255,18.06918,-3.7090368,4.995276,1.4858046,12.31993,-11.0282,1.1278018,-0.61589044,-0.034557212,-0.29878515,-0.72815645,-7.595442,0.6271548,0.18306041,-3.8146412,3.259519,0.48793864,0
0.48000000000000026,19.578181533374266,-4.88339662064259,4.927022845437073,2.166733789850591,16.366411,-3.1090865,5.309233,1.0890298,12.244359,-11.021556,1.1299093,-0.60939616,-0.0110925045,-0.294759,-0.7359552,-7.5201616,0.70250547,0.23864089,-3.9778728,3.461903,0.57596165,0
0.49000000000000027,19.578181533374266,-4.88339662064259,4.927022845437073,2.166733789850591,16.366411,-3.1090865,5.309233,1.0890298,12.169515,-11.014113,1.1326149,-0.6018584,0.013514424,-0.29061782,-0.7437236,-7.4499507,0.78686506,0.30263886,-4.119362,3.6901255,0.65402126,0
0.5000000000000002,19.578181533374266,-4.88339662064259,4.927022845437073,2.166733789850591,16.366411,-3.1090865,5.309233,1.0890298,12.095328,-11.0058,1.1359645,-0.59325784,0.0391722,-0.28640476,-0.7513206,-7.3889356,0.8767628,0.36737782,-4.238782,3.8827634,0.72825044,0
0.5100000000000002,19.578181533374266,-4.88339662064259,4.927022845437073,2.166733789850591,16.366411,-3.1090865,5.309233,1.0890298,12.021703,-10.996559,1.1399632,-0.5836129,0.06568464,-0.28207895,-0.7586254,-7.337662,0.9721732,0.43233693,-4.3395724,4.0453677,0.79883724,0
0.5200000000000002,19.421258401288604,-4.150034679586158,4.317712387816206,1.9473742017835587,16.540037,-2.762238,5.3590655,1.1510208,11.948539,-10.986338,1.14461,-0.57294345,0.09287879,-0.2776083,-0.7655342,-7.2966213,1.0729626,0.4969541,-4.4246354,4.1826234,0.86596036,0
0.5300000000000002,19.421258401288604,-4.150034679586158,4.317712387816206,1.9473742017835587,16.540037,-2.762238,5.3590655,1.1510208,11.875732,-10.975086,1.1498924,-0.56139326,0.120255664,-0.27305436,-0.77189195,-7.2664557,1.17804,0.55934197,-4.3819685,4.2035627,0.91902566,0
0.5400000000000003,19.421258401288604,-4.150034679586158,4.317712387816206,1.9473742017835587,16.540037,-2.762238,5.3590655,1.1510208,11.803173,-10.96276,1.1557916,-0.5491112,0.14741258,-0.26847956,-0.777602,-7.246995,1.2878311,0.62022257,-4.3459477,4.221243,0.969487,0
0.5500000000000003,19.421258401288604,-4.150034679586158,4.317712387816206,1.9473742017835587,16.540037,-2.762238,5.3590655,1.1510208,11.730756,-10.949314,1.1622897,-0.5361235,0.17433691,-0.26386178,-0.78265893,-7.2383003,1.4018958,0.67903465,-4.3155375,4.2361717,1.0174723,0
0.5600000000000003,18.29485985511019,-2.8260976756992875,3.032135639388068,1.6585824499303146,17.674328,-2.8889122,4.332948,1.3907969,11.658371,-10.934709,1.1693635,-0.5224548,0.2010143,-0.25918296,-0.7870567,-7.2404037,1.5197694,0.73523676,-4.289862,4.2487774,1.0631027,0
0.5700000000000003,18.29485985511019,-2.8260976756992875,3.032135639388068,1.6585824499303146,17.674328,-2.8889122,4.332948,1.3907969,11.585915,-10.918943,1.1769398,-0.5084081,0.22676162,-0.25457668,-0.79075336,-7.2525024,1.6339223,0.7795577,-4.061535,4.059123,1.0923231,0
0.5800000000000003,18.29485985511019,-2.8260976756992875,3.032135639388068,1.6585824499303146,17.674328,-2.8889122,4.332948,1.3907969,11.513288,-10.902022,1.1849432,-0.4942731,0.25105497,-0.2501712,-0.79377556,-7.274323,1.7506375,0.82060957,-3.868826,3.8990314,1.1201096,0
0.5900000000000003,18.29485985511019,-2.8260976756992875,3.032135639388068,1.6585824499303146,17.674328,-2.8889122,4.332948,1.3907969,11.440396,-10.8839245,1.1933398,-0.4800477,0.2740943,-0.24594204,-0.7962028,-7.3053956,1.8693868,0.8581402,-3.7061796,3.7638943,1.1465325,0
0.6000000000000003,17.250950890132103,-1.2107034168448132,1.427978934135984,1.3078225972675508,16.57912,-1.9942737,3.1489277,1.2270093,11.367149,-10.864631,1.2020931,-0.465726,0.2960474,-0.24186517,-0.79809535,-7.345296,1.9896958,0.89193696,-3.568906,3.649821,1.1716589,0
0.6100000000000003,17.250950890132103,-1.2107034168448132,1.427978934135984,1.3078225972675508,16.57912,-1.9942737,3.1489277,1.2270093,11.293474,-10.844163,1.2111284,-0.45169204,0.31625932,-0.2381292,-0.79953027,-7.3908224,2.1041987,0.9145449,-3.200896,3.3035927,1.1783404,0
0.6200000000000003,17.250950890132103,-1.2107034168448132,1.427978934135984,1.3078225972675508,16.57912,-1.9942737,3.1489277,1.2270093,11.219308,-10.822545,1.2203717,-0.4382896,0.33424628,-0.23490174,-0.8006264,-7.4435143,2.2193687,0.9335532,-2.8903146,3.0113182,1.184694,0
0.6300000000000003,17.250950890132103,-1.2107034168448132,1.427978934135984,1.3078225972675508,16.57912,-1.9942737,3.1489277,1.2270093,11.144582,-10.799774,1.2297877,-0.42544764,0.35036525,-0.23212741,-0.8014706,-7.5026217,2.3348885,0.94910735,-2.6282008,2.764589,1.190736,0
0.6400000000000003,17.250950890132103,-1.2107034168448132,1.427978934135984,1.3078225972675508,16.35386,-1.3906381,2.6486402,1.0102305,11.069236,-10.775847,1.2393426,-0.4130968,0.36491424,-0.22975324,-0.8021233,-7.56751,2.4505117,0.9613572,-2.406991,2.5563078,1.1964815,0
0.6500000000000004,17.250950890132103,-1.2107034168448132,1.427978934135984,1.3078225972675508,16.35386,-1.3906381,2.6486402,1.0102305,10.993215,-10.750765,1.249004,-0.4011718,0.37814182,-0.22772993,-0.8026261,-7.637645,2.5660453,0.9704483,-2.220302,2.3804832,1.2019451,0
0.6600000000000004,17.250950890132103,-1.2107034168448132,1.427978934135984,1.3078225972675508,16.35386,-1.3906381,2.6486402,1.0102305,10.916467,-10.724527,1.2587411,-0.38961282,0.39025533,-0.22601236,-0.8030072,-7.712573,2.6813352,0.976517,-2.062747,2.2320569,1.2071404,0
0.6700000000000004,17.250950890132103,-1.2107034168448132,1.427978934135984,1.3078225972675508,16.35386,-1.3906381,2.6486402,1.0102305,10.838946,-10.697139,1.2685244,-0.3783659,0.40142778,-0.22455977,-0.8032853,-7.7919126,2.7962563,0.979688,-1.9297796,2.1067595,1.2120808,0
0.6800000000000004,16.20942765725853,0.3810090026837913,-0.18694091474890523,0.9507937191560778,14.05592,-0.024634361,1.1176286,0.38913688,10.7606125,-10.668603,1.2783253,-0.36738306,0.41180342,-0.22333562,-0.8034726,-7.8753395,2.9107041,0.9800729,-1.8175627,2.0009873,1.2167789,0
0.6900000000000004,16.20942765725853,0.3810090026837913,-0.18694091474890523,0.9507937191560778,14.05592,-0.024634361,1.1176286,0.38913688,10.681453,-10.63896,1.2880876,-0.35706887,0.4207649,-0.22256824,-0.8036924,-7.9572577,3.017725,0.97202367,-1.4744122,1.6600655,1.2037268,0
0.7000000000000004,16.20942765725853,0.3810090026837913,-0.18694091474890523,0.9507937191560778,14.05592,-0.024634361,1.1176286,0.38913688,10.601458,-10.60825,1.2977582,-0.34776083,0.42784828,-0.22244617,-0.804068,-8.042135,3.1242383,0.9618117,-1.1848235,1.3722625,1.1913153,0
0.7100000000000004,16.20942765725853,0.3810090026837913,-0.18694091474890523,0.9507937191560778,14.05592,-0.024634361,1.1176286,0.38913688,10.520602,-10.576477,1.3073176,-0.33932412,0.4333662,-0.22288194,-0.8045967,-8.129397,3.2302992,0.9497953,-0.94043547,1.1293025,1.1795127,0
0.7200000000000004,15.588376843011616,1.841453000048305,-1.7295871973527006,0.5852984440789324,13.129664,0.7588837,0.24483964,0.4007278,10.438864,-10.543646,1.3167492,-0.3316393,0.43757722,-0.22379765,-0.8052674,-8.218567,3.3359754,0.9362844,-0.7341927,0.9241988,1.1682894,0
0.7300000000000004,15.588376843011616,1.841453000048305,-1.7295871973527006,0.5852984440789324,13.129664,0.7588837,0.24483964,0.4007278,10.356243,-10.509779,1.3260233,-0.32503375,0.44001722,-0.22537339,-0.8061911,-8.305729,3.4373167,0.918385,-0.3321976,0.51065475,1.1396819,0
0.7400000000000004,15.588376843011616,1.841453000048305,-1.7295871973527006,0.5852984440789324,13.129664,0.7588837,0.24483964,0.4007278,10.272746,-10.474899,1.3351146,-0.31976855,0.4403346,-0.22774978,-0.8074546,-8.393678,3.5385363,0.8997785,0.0070442557,0.16154209,1.1124781,0
0.7500000000000004,15.588376843011616,1.841453000048305,-1.7295871973527006,0.5852984440789324,13.129664,0.7588837,0.24483964,0.4007278,10.188369,-10.439008,1.3440179,-0.31565264,0.43887183,-0.23080637,-0.8090011,-8.481798,3.6398194,0.8808999,0.2933309,-0.13317597,1.0866092,0
0.7600000000000005,15.755003684095492,2.9060327745838586,-2.9608432934098268,0.23398851382910643,12.389302,1.9355189,-1.4926784,0.532811,10.103111,-10.402102,1.3527327,-0.31251913,0.43591124,-0.23443708,-0.8107724,-8.569572,3.7413344,0.8621093,0.5349299,-0.3819729,1.0620098,0
0.7700000000000005,15.755003684095492,2.9060327745838586,-2.9608432934098268,0.23398851382910643,12.389302,1.9355189,-1.4926784,0.532811,10.016975,-10.364175,1.3612657,-0.3105593,0.43116325,-0.23872244,-0.81281126,-8.657452,3.8443294,0.84457767,0.9049597,-0.7839141,1.0213786,0
0.7800000000000005,15.755003684095492,2.9060327745838586,-2.9608432934098268,0.23398851382910643,12.389302,1.9355189,-1.4926784,0.532811,9.929968,-10.325214,1.369627,-0.30991614,0.42440405,-0.24371624,-0.81512886,-8.743868,3.947915,0.82786375,1.2172238,-1.1232277,0.9827411,0
0.7900000000000005,15.755003684095492,2.9060327745838586,-2.9608432934098268,0.23398851382910643,12.389302,1.9355189,-1.4926784,0.532811,9.842107,-10.285214,1.3778269,-0.31038764,0.41593388,-0.24929418,-0.81762487,-8.828204,4.052272,0.81233704,1.4807426,-1.4096696,0.94599956,0
0.8000000000000005,16.370969799101662,3.440719604824427,-3.5855104650826806,-0.02285770057813747,12.430741,2.5024037,-3.180081,0.52905416,9.753414,-10.244166,1.3858788,-0.31179887,0.40600213,-0.25534776,-0.8202077,-8.909917,4.157537,0.79827994,1.7031275,-1.6514758,0.9110609,0
0.8100000000000005,16.370969799101662,3.440719604824427,-3.5855104650826806,-0.02285770057813747,12.430741,2.5024037,-3.180081,0.52905416,9.663903,-10.20204,1.3938152,-0.31417456,0.3945523,-0.2618672,-0.8228292,-8.991578,4.267969,0.7892626,1.9742249,-1.9529853,0.86523324,0
0.8200000000000005,16.370969799101662,3.440719604824427,-3.5855104650826806,-0.02285770057813747,12.430741,2.5024037,-3.180081,0.52905416,9.573594,-10.158802,1.401671,-0.3175229,0.3815448,-0.26883322,-0.8254278,-9.069408,4.3795457,0.78222317,2.203005,-2.2075102,0.8216544,0
0.8300000000000005,16.370969799101662,3.440719604824427,-3.5855104650826806,-0.02285770057813747,12.430741,2.5024037,-3.180081,0.52905416,9.482529,-10.114444,1.409467,-0.3216805,0.36719504,-0.276145,-0.82790875,-9.142847,4.4923205,0.7773288,2.3960757,-2.42237,0.78021395,0
0.8400000000000005,16.370969799101662,3.440719604824427,-3.5855104650826806,-0.02285770057813747,12.814977,2.4155698,-3.7105067,0.47078583,9.390754,-10.068951,1.4172254,-0.32650626,0.35168543,-0.28371555,-0.83019036,-9.21139,4.6062984,0.7746712,2.5590127,-2.6037438,0.74080706,0
0.8500000000000005,16.370969799101662,3.440719604824427,-3.5855104650826806,-0.02285770057813747,12.814977,2.4155698,-3.7105067,0.47078583,9.29832,-10.022313,1.4249685,-0.33187875,0.33517134,-0.2914699,-0.8322028,-9.274583,4.7214427,0.7742772,2.696521,-2.7568493,0.70333385,0
0.8600000000000005,16.370969799101662,3.440719604824427,-3.5855104650826806,-0.02285770057813747,12.814977,2.4155698,-3.7105067,0.47078583,9.205282,-9.974519,1.4327186,-0.33769327,0.3177862,-0.29934373,-0.8338873,-9.332021,4.837677,0.77611786,2.8125708,-2.8860905,0.66769946,0
0.8700000000000006,16.370969799101662,3.440719604824427,-3.5855104650826806,-0.02285770057813747,12.814977,2.4155698,-3.7105067,0.47078583,9.1117,-9.925557,1.4404982,-0.3438596,0.2996448,-0.30728194,-0.8351952,-9.383342,4.9548917,0.78011674,2.9105115,-2.9951863,0.6338136,0
0.8800000000000006,16.92802523922918,3.463591912652895,-3.6900723180364188,-0.2638525946177492,13.679703,1.0356237,-4.5638876,1.0816727,9.017637,-9.875418,1.448328,-0.35029992,0.28084677,-0.31523734,-0.8360862,-9.428226,5.0729485,0.78615665,2.9931703,-3.0872755,0.6015905,0
0.8900000000000006,16.92802523922918,3.463591912652895,-3.6900723180364188,-0.2638525946177492,13.679703,1.0356237,-4.5638876,1.0816727,8.923153,-9.824075,1.4562458,-0.3569875,0.2614499,-0.32315418,-0.8365255,-9.467689,5.195723,0.79769605,3.066481,-3.181337,0.559123,0
0.9000000000000006,16.92802523922918,3.463591912652895,-3.6900723180364188,-0.2638525946177492,13.679703,1.0356237,-4.5638876,1.0816727,8.828309,-9.771502,1.4642881,-0.36389947,0.24150822,-0.3309843,-0.83648074,-9.499931,5.319,0.81101716,3.1283534,-3.260734,0.51873934,0
0.9100000000000006,16.92802523922918,3.463591912652895,-3.6900723180364188,-0.2638525946177492,13.679703,1.0356237,-4.5638876,1.0816727,8.73318,-9.717693,1.4724716,-0.37097767,0.22109795,-0.33870092,-0.83592623,-9.524719,5.4425583,0.82592124,3.180573,-3.327751,0.48033735,0
0.9200000000000006,17.110150109499408,2.968161220964692,-3.307547747123937,-0.4351291141448186,13.883067,0.68727076,-4.746372,1.4135197,8.63784,-9.662649,1.4808111,-0.37817132,0.20028608,-0.34628126,-0.8348418,-9.541856,5.5661635,0.8421854,3.2246468,-3.3843179,0.44381976,0
0.9300000000000006,17.110150109499408,2.968161220964692,-3.307547747123937,-0.4351291141448186,13.883067,0.68727076,-4.746372,1.4135197,8.542369,-9.606363,1.4893254,-0.3853635,0.17934296,-0.353596,-0.833247,-9.551297,5.6908917,0.8608093,3.1845498,-3.372447,0.40068948,0
0.9400000000000006,17.110150109499408,2.968161220964692,-3.307547747123937,-0.4351291141448186,13.883067,0.68727076,-4.746372,1.4135197,8.446841,-9.548833,1.4980304,-0.39246956,0.15849349,-0.36054873,-0.8311749,-9.552857,5.8151484,0.88030523,3.1507115,-3.362419,0.3596756,0
0.9500000000000006,17.110150109499408,2.968161220964692,-3.307547747123937,-0.4351291141448186,13.883067,0.68727076,-4.746372,1.4135197,8.351338,-9.490063,1.5069337,-0.3994908,0.13773082,-0.36716586,-0.8286291,-9.546586,5.9386697,0.90041673,3.1221557,-3.3539479,0.3206743,0
0.9600000000000006,16.802547539356485,2.089724864650759,-2.594480670038252,-0.5304923567811795,13.060894,2.519885,-3.605282,0.041156817,8.255937,-9.430062,1.5160402,-0.40642643,0.11705004,-0.37346983,-0.82561296,-9.532541,6.061201,0.9208906,3.098058,-3.3467917,0.28358683,0
0.9700000000000006,16.802547539356485,2.089724864650759,-2.594480670038252,-0.5304923567811795,13.060894,2.519885,-3.605282,0.041156817,8.160712,-9.368854,1.5253414,-0.41314045,0.09683192,-0.37930742,-0.8222312,-9.511214,6.1803145,0.93934655,2.9407032,-3.229575,0.24363972,0
0.9800000000000006,16.802547539356485,2.089724864650759,-2.594480670038252,-0.5304923567811795,13.060894,2.519885,-3.605282,0.041156817,8.065738,-9.306461,1.5348269,-0.4195418,0.07738337,-0.38457194,-0.8185968,-9.482648,6.2979984,0.95770615,2.8079002,-3.130623,0.20565286,0
0.9900000000000007,16.802547539356485,2.089724864650759,-2.594480670038252,-0.5304923567811795,13.060894,2.519885,-3.605282,0.041156817,7.971084,-9.242901,1.5444946,-0.4256861,0.058600392,-0.38934225,-0.81472063,-9.447173,6.4140673,0.97578806,2.6958182,-3.0470905,0.16953,0
1.0000000000000007,16.699663997466665,1.1010314066466795,-1.736722055463943,-0.5600306718403433,14.050839,0.80416214,-2.5200238,-0.7059515,7.876818,-9.178187,1.5543411,-0.43161717,0.040394016,-0.39368406,-0.81060934,-9.405084,6.5283546,0.9934287,2.6012235,-2.976575,0.13517971,0
1.0100000000000007,16.699663997466665,1.1010314066466795,-1.736722055463943,-0.5600306718403433,14.050839,0.80416214,-2.5200238,-0.7059515,7.7830024,-9.112344,1.5643575,-0.4372262,0.023139302,-0.39748332,-0.8064146,-9.356976,6.640028,1.009781,2.3671904,-2.783294,0.101065524,0
1.0200000000000007,16.699663997466665,1.1010314066466795,-1.736722055463943,-0.5600306718403433,14.050839,0.80416214,-2.5200238,-0.7059515,7.6896973,-9.045393,1.5745343,-0.44244415,0.0071303155,-0.40066588,-0.8022835,-9.303069,6.7497087,1.0254759,2.1696672,-2.620141,0.06862534,0
1.0300000000000007,16.699663997466665,1.1010314066466795,-1.736722055463943,-0.5600306718403433,14.050839,0.80416214,-2.5200238,-0.7059515,7.596959,-8.977357,1.5848646,-0.4473531,-0.007813467,-0.4033339,-0.7982077,-9.243847,6.8573556,1.0404706,2.0029578,-2.4824204,0.037777,0
1.0400000000000007,16.699663997466665,1.1010314066466795,-1.736722055463943,-0.5600306718403433,14.171753,-0.011401989,-1.8763189,-0.42753834,7.5048375,-8.908253,1.5953412,-0.45201823,-0.021846024,-0.4055714,-0.79417485,-9.179719,6.962937,1.0547361,1.8622546,-2.3661685,0.008442398,0
1.0500000000000007,16.699663997466665,1.1010314066466795,-1.736722055463943,-0.5600306718403433,14.171753,-0.011401989,-1.8763189,-0.42753834,7.41338,-8.838104,1.6059567,-0.45649135,-0.035098482,-0.40744743,-0.79017085,-9.111037,7.0664296,1.0682511,1.7435005,-2.2680392,-0.019452728,0
1.0600000000000007,16.699663997466665,1.1010314066466795,-1.736722055463943,-0.5600306718403433,14.171753,-0.011401989,-1.8763189,-0.42753834,7.322632,-8.766932,1.6167036,-0.46081343,-0.047682382,-0.40901905,-0.78618085,-9.0381,7.167815,1.0809989,1.6432711,-2.185208,-0.045979038,0
1.0700000000000007,16.699663997466665,1.1010314066466795,-1.736722055463943,-0.5600306718403433,14.171753,-0.011401989,-1.8763189,-0.42753834,7.232632,-8.694756,1.6275741,-0.4650169,-0.059692517,-0.41033325,-0.7821906,-8.961166,7.267077,1.0929649,1.5586762,-2.11529,-0.07120368,0
1.0800000000000007,16.130005498365936,0.17922157776656833,-1.117949221759112,-0.4839296088858922,13.868455,-1.6420554,-2.8986807,1.5385537,7.143421,-8.621598,1.6385602,-0.4691273,-0.07120939,-0.41142893,-0.7781866,-8.88046,7.3641987,1.1041353,1.4872774,-2.0562727,-0.09519057,0
1.0900000000000007,16.130005498365936,0.17922157776656833,-1.117949221759112,-0.4839296088858922,13.868455,-1.6420554,-2.8986807,1.5385537,7.055021,-8.547496,1.6496357,-0.47308454,-0.081939556,-0.41216886,-0.774334,-8.799075,7.455933,1.1108104,1.2832719,-1.9099451,-0.11426609,0
1.1000000000000008,16.130005498365936,0.17922157776656833,-1.117949221759112,-0.4839296088858922,13.868455,-1.6420554,-2.8986807,1.5385537,6.96745,-8.4724865,1.6607742,-0.4768499,-0.091655426,-0.41245306,-0.7707758,-8.7146015,7.5456343,1.1167998,1.111084,-1.7864343,-0.13240556,0
1.1100000000000008,16.130005498365936,0.17922157776656833,-1.117949221759112,-0.4839296088858922,13.868455,-1.6420554,-2.8986807,1.5385537,6.8807383,-8.39659,1.6719698,-0.48046836,-0.10050908,-0.41235963,-0.7674679,-8.62738,7.6333594,1.1222063,0.9657505,-1.6821828,-0.14965495,0
1.1200000000000008,15.47750305019124,-0.6799137112686567,-0.4630807858052755,-0.33076697989785925,14.16217,-2.1445878,-2.6272027,1.9158314,6.7949114,-8.319826,1.6832168,-0.48397496,-0.10862932,-0.41195273,-0.7643705,-8.537699,7.7191606,1.1271213,0.84308326,-1.594188,-0.16605791,0
1.1300000000000008,15.47750305019124,-0.6799137112686567,-0.4630807858052755,-0.33076697989785925,14.16217,-2.1445878,-2.6272027,1.9158314,6.709974,-8.24223,1.6944901,-0.48731425,-0.11576643,-0.41114867,-0.7616293,-8.449537,7.7997003,1.1274879,0.6055844,-1.4177699,-0.17414023,0
1.1400000000000008,15.47750305019124,-0.6799137112686567,-0.4630807858052755,-0.33076697989785925,14.16217,-2.1445878,-2.6272027,1.9158314,6.625927,-8.163838,1.7057658,-0.49044645,-0.12172994,-0.40988737,-0.75936544,-8.359624,7.8785605,1.1276304,0.40512216,-1.2688661,-0.18182595,0
1.1500000000000008,15.47750305019124,-0.6799137112686567,-0.4630807858052755,-0.33076697989785925,14.16217,-2.1445878,-2.6272027,1.9158314,6.542786,-8.084664,1.7170426,-0.49341604,-0.12670024,-0.4082475,-0.75750977,-8.268301,7.9558616,1.127713,0.23592079,-1.1431856,-0.18913454,0
1.1600000000000008,14.845495842137161,-1.4140472850530905,0.07912758979670488,-0.1315321839939405,12.907664,-1.3005279,-0.72015285,-0.02763505,6.4605646,-8.004725,1.7283205,-0.4962577,-0.13082963,-0.40629333,-0.7560007,-8.175857,8.03171,1.1278793,0.09310526,-1.0371065,-0.19608448,0
1.1700000000000008,14.845495842137161,-1.4140472850530905,0.07912758979670488,-0.1315321839939405,12.907664,-1.3005279,-0.72015285,-0.02763505,6.379253,-7.924051,1.7395809,-0.498931,-0.13394675,-0.4039605,-0.7549447,-8.08636,8.103163,1.1242429,-0.14191028,-0.86300045,-0.19291689,0
1.1800000000000008,14.845495842137161,-1.4140472850530905,0.07912758979670488,-0.1315321839939405,12.907664,-1.3005279,-0.72015285,-0.02763505,6.298839,-7.8426666,1.7508066,-0.5014035,-0.13592346,-0.40120062,-0.7544248,-7.9963555,8.173455,1.1209944,-0.34027958,-0.7160518,-0.18990472,0
1.1900000000000008,14.845495842137161,-1.4140472850530905,0.07912758979670488,-0.1315321839939405,12.907664,-1.3005279,-0.72015285,-0.02763505,6.2193265,-7.7605853,1.7620025,-0.50370914,-0.13693637,-0.39808244,-0.7543575,-7.90615,8.2427225,1.1183083,-0.5077166,-0.59202427,-0.18704036,0
1.2000000000000008,13.403552464003939,-1.7486009904989943,0.16654415869665787,0.07328005787681655,12.523164,-1.4831887,-0.7979193,0.34449476,6.140716,-7.677816,1.7731751,-0.5058744,-0.13713436,-0.39466214,-0.7546697,-7.816003,8.311078,1.1163309,-0.64904475,-0.48734236,-0.18431655,1
1.2100000000000009,13.403552464003939,-1.7486009904989943,0.16654415869665787,0.07328005787681655,12.523164,-1.4831887,-0.7979193,0.34449476,6.0629354,-7.5944204,1.7842563,-0.50801706,-0.136917,-0.39077908,-0.7552903,-7.740184,8.368038,1.100023,-0.7791258,-0.53577423,-0.15836762,1
1.2200000000000009,13.403552464003939,-1.7486009904989943,0.16654415869665787,0.07328005787681655,12.523164,-1.4831887,-0.7979193,0.34449476,5.985912,-7.510458,1.7951784,-0.5102214,-0.13661028,-0.38630468,-0.7561612,-7.6646986,8.424249,1.0845381,-0.88891906,-0.5766584,-0.133692,1
1.2300000000000009,13.403552464003939,-1.7486009904989943,0.16654415869665787,0.07328005787681655,12.523164,-1.4831887,-0.7979193,0.34449476,5.9096403,-7.4259377,1.8059502,-0.51246196,-0.13623074,-0.38132498,-0.75724137,-7.5896254,8.479633,1.0699809,-0.9815887,-0.611171,-0.11022724,1
1.2400000000000009,13.403552464003939,-1.7486009904989943,0.16654415869665787,0.07328005787681655,11.706628,-1.353588,-1.0829802,0.82933587,5.8341174,-7.340868,1.8165815,-0.5147172,-0.13579202,-0.37591276,-0.7584957,-7.5150347,8.534126,1.0564357,-1.059806,-0.640304,-0.087913886,0
1.2500000000000009,13.403552464003939,-1.7486009904989943,0.16654415869665787,0.07328005787681655,11.706628,-1.353588,-1.0829802,0.82933587,5.759364,-7.255239,1.8271128,-0.5168651,-0.13494527,-0.3702525,-0.75996894,-7.4357986,8.591454,1.04999,-1.1672133,-0.5144763,-0.08000406,0
1.260000000000001,13.403552464003939,-1.7486009904989943,0.16654415869665787,0.07328005787681655,11.706628,-1.353588,-1.0829802,0.82933587,5.6853995,-7.169042,1.8375856,-0.5188147,-0.13341214,-0.36449555,-0.76169217,-7.357315,8.647855,1.044758,-1.2578728,-0.40827292,-0.07248237,0
1.270000000000001,13.403552464003939,-1.7486009904989943,0.16654415869665787,0.07328005787681655,11.706628,-1.353588,-1.0829802,0.82933587,5.6122155,-7.0822854,1.8480122,-0.5205911,-0.13129811,-0.35865352,-0.7636183,-7.2797465,8.703428,1.0407854,-1.3343958,-0.31863317,-0.065329775,0
1.280000000000001,11.8049777583159,-1.6859471359602654,-0.13885902753234652,0.27013114582204684,12.126304,-0.9619193,-1.4471267,0.5838646,5.5398016,-6.9949765,1.8584057,-0.5222146,-0.12869234,-0.35273585,-0.76570696,-7.2032332,8.758253,1.0381066,-1.3989863,-0.24297354,-0.05852815,0
1.290000000000001,11.8049777583159,-1.6859471359602654,-0.13885902753234652,0.27013114582204684,12.126304,-0.9619193,-1.4471267,0.5838646,5.4681015,-6.907155,1.8687215,-0.5237228,-0.12578553,-0.34670255,-0.76791227,-7.136878,8.805931,1.0252079,-1.4437348,-0.22675042,-0.04240074,0
1.300000000000001,11.8049777583159,-1.6859471359602654,-0.13885902753234652,0.27013114582204684,12.126304,-0.9619193,-1.4471267,0.5838646,5.39706,-6.81886,1.878914,-0.5251427,-0.122734174,-0.3405219,-0.7701985,-7.071625,8.853011,1.0134848,-1.4815052,-0.21305759,-0.02706471,0
1.310000000000001,11.8049777583159,-1.6859471359602654,-0.13885902753234652,0.27013114582204684,12.126304,-0.9619193,-1.4471267,0.5838646,5.3266654,-6.730097,1.8889953,-0.5264755,-0.11956168,-0.33421224,-0.77254784,-7.007529,8.899488,1.0029459,-1.5133858,-0.20150018,-0.0124812275,0
1.320000000000001,10.16393017018745,-1.5620183921550406,-0.384201347874069,0.47771375592933296,11.398638,-0.33917487,-1.7061497,0.31554598,5.2569056,-6.640872,1.8989772,-0.5277224,-0.11628774,-0.3277893,-0.774945,-6.9446373,8.945356,0.9935939,-1.5402946,-0.191745,0.0013866466,0
1.330000000000001,10.16393017018745,-1.5620183921550406,-0.384201347874069,0.47771375592933296,11.398638,-0.33917487,-1.7061497,0.31554598,5.1877255,-6.5512238,1.908809,-0.5288913,-0.11303963,-0.3212503,-0.77736324,-6.89156,8.984315,0.97292393,-1.5436791,-0.22178201,0.024760174,0
1.340000000000001,10.16393017018745,-1.5620183921550406,-0.384201347874069,0.47771375592933296,11.398638,-0.33917487,-1.7061497,0.31554598,5.1190705,-6.461188,1.9184391,-0.52998567,-0.10992043,-0.31459367,-0.77978384,-6.8395658,9.022709,0.95326376,-1.5465353,-0.24713357,0.046986725,0
1.350000000000001,10.16393017018745,-1.5620183921550406,-0.384201347874069,0.47771375592933296,11.398638,-0.33917487,-1.7061497,0.31554598,5.0509305,-6.370771,1.9278775,-0.53100115,-0.106912546,-0.3078338,-0.78220534,-6.7886567,9.060504,0.9346002,-1.5489457,-0.2685306,0.068122625,0
1.360000000000001,9.111058898248332,-1.553996118953951,-0.5431853949512386,0.6914771695632429,12.521935,-3.2791479,-3.7309804,2.78409,4.983294,-6.279979,1.9371345,-0.5319346,-0.10400086,-0.30098286,-0.78462607,-6.7388387,9.097671,0.9169188,-1.5509799,-0.28658986,0.08822139,0
1.370000000000001,9.111058898248332,-1.553996118953951,-0.5431853949512386,0.6914771695632429,12.521935,-3.2791479,-3.7309804,2.78409,4.9161253,-6.188838,1.9461772,-0.53278184,-0.101231985,-0.29401737,-0.78705055,-6.695163,9.130396,0.8917739,-1.5514417,-0.3266358,0.11782333,0
1.380000000000001,9.111058898248332,-1.553996118953951,-0.5431853949512386,0.6914771695632429,12.521935,-3.2791479,-3.7309804,2.78409,4.849388,-6.097373,1.9549729,-0.53353626,-0.09864299,-0.2869189,-0.7894842,-6.652467,9.162494,0.867483,-1.5518309,-0.36043513,0.14597268,0
1.390000000000001,9.111058898248332,-1.553996118953951,-0.5431853949512386,0.6914771695632429,12.521935,-3.2791479,-3.7309804,2.78409,4.783073,-6.0055904,1.9635297,-0.534193,-0.09620884,-0.27970418,-0.7919258,-6.6107473,9.193924,0.8440325,-1.5521591,-0.38896197,0.17274076,0
1.400000000000001,8.190738630371087,-1.435376004143263,-0.49163648668038373,0.8683374248524746,12.646532,-3.0257733,-3.800422,2.5080025,4.7171702,-5.913497,1.9718564,-0.53474855,-0.09390808,-0.2723875,-0.7943736,-6.5700026,9.224654,0.8214077,-1.552436,-0.41303885,0.19819532,0
1.410000000000001,8.190738630371087,-1.435376004143263,-0.49163648668038373,0.8683374248524746,12.646532,-3.0257733,-3.800422,2.5080025,4.6516495,-5.8211145,1.9799223,-0.53517365,-0.091737196,-0.2650279,-0.7968267,-6.534249,9.251624,0.79188573,-1.5341699,-0.42532665,0.2310794,0
1.420000000000001,8.190738630371087,-1.435376004143263,-0.49163648668038373,0.8683374248524746,12.646532,-3.0257733,-3.800422,2.5080025,4.5864825,-5.728466,1.9876966,-0.53544366,-0.08969288,-0.25767314,-0.79928654,-6.499364,9.277922,0.7630689,-1.5187526,-0.43569636,0.26234984,0
1.430000000000001,8.190738630371087,-1.435376004143263,-0.49163648668038373,0.8683374248524746,12.646532,-3.0257733,-3.800422,2.5080025,4.52166,-5.635558,1.9951861,-0.53556335,-0.087758206,-0.25031927,-0.80175424,-6.4653406,9.303534,0.73493415,-1.5057398,-0.44444725,0.29208586,0
1.440000000000001,8.190738630371087,-1.435376004143263,-0.49163648668038373,0.8683374248524746,12.193845,-2.8157833,-3.5517004,2.157444,4.457173,-5.5423975,2.0023975,-0.5355375,-0.08591855,-0.24296318,-0.8042299,-6.4321737,9.328447,0.7074595,-1.4947569,-0.4518319,0.32036272,0
1.450000000000001,8.190738630371087,-1.435376004143263,-0.49163648668038373,0.8683374248524746,12.193845,-2.8157833,-3.5517004,2.157444,4.393013,-5.4489913,2.0093377,-0.5353706,-0.08416132,-0.23560221,-0.8067131,-6.399858,9.35265,0.68062377,-1.4854872,-0.45806354,0.34725198,0
1.460000000000001,8.190738630371087,-1.435376004143263,-0.49163648668038373,0.8683374248524746,12.193845,-2.8157833,-3.5517004,2.157444,4.3291726,-5.355347,2.0160122,-0.5350671,-0.08247559,-0.22823434,-0.80920285,-6.3683915,9.376132,0.6544064,-1.4776635,-0.4633221,0.37282178,0
1.470000000000001,8.190738630371087,-1.435376004143263,-0.49163648668038373,0.8683374248524746,12.193845,-2.8157833,-3.5517004,2.157444,4.2656426,-5.2614717,2.0224278,-0.5346313,-0.08085192,-0.22085784,-0.8116977,-6.3377705,9.398881,0.6287876,-1.4710603,-0.4677593,0.39713687,0
1.480000000000001,7.585783987668341,-1.333078783060436,-0.4401244834364033,0.9932527139048719,12.973551,-2.3666925,-3.4223678,2.3267124,4.202415,-5.167372,2.02859,-0.5340674,-0.07928211,-0.21347149,-0.81419617,-6.307993,9.420886,0.6037475,-1.4654874,-0.47150362,0.42025882,0
1.490000000000001,7.585783987668341,-1.333078783060436,-0.4401244834364033,0.9932527139048719,12.973551,-2.3666925,-3.4223678,2.3267124,4.1394696,-5.0730643,2.0344775,-0.5333592,-0.07776737,-0.20611748,-0.8166975,-6.281194,9.44057,0.5738289,-1.444831,-0.46663105,0.4483758,0
1.500000000000001,7.585783987668341,-1.333078783060436,-0.4401244834364033,0.9932527139048719,12.973551,-2.3666925,-3.4223678,2.3267124,4.0767884,-4.978564,2.0400684,-0.53249365,-0.07630839,-0.19882941,-0.8192029,-6.2551684,9.459554,0.54440594,-1.4273967,-0.46251714,0.47511306,0
1.5100000000000011,7.585783987668341,-1.333078783060436,-0.4401244834364033,0.9932527139048719,12.973551,-2.3666925,-3.4223678,2.3267124,4.014364,-4.8838763,2.0453672,-0.53147835,-0.074897826,-0.19159484,-0.8217125,-6.229907,9.477838,0.515457,-1.4126813,-0.45904392,0.50053835,0
1.5200000000000011,7.210107838189846,-1.2991555290263168,-0.14802582272391687,1.089238249608996,12.64016,-2.1534333,-3.1580977,2.206771,3.9521878,-4.7890096,2.0503788,-0.53032047,-0.07352927,-0.18440332,-0.8242257,-6.2054043,9.4954195,0.48696136,-1.4002612,-0.45611152,0.524716,0
1.5300000000000011,7.210107838189846,-1.2991555290263168,-0.14802582272391687,1.089238249608996,12.64016,-2.1534333,-3.1580977,2.206771,3.890247,-4.693975,2.0550907,-0.5289943,-0.07211007,-0.17731838,-0.82675403,-6.182832,9.511466,0.45543063,-1.3845029,-0.40808544,0.55241734,0
1.5400000000000011,7.210107838189846,-1.2991555290263168,-0.14802582272391687,1.089238249608996,12.64016,-2.1534333,-3.1580977,2.206771,3.8285284,-4.598783,2.0594893,-0.5274805,-0.07056624,-0.17038992,-0.8293075,-6.1609793,9.526867,0.42429158,-1.3712013,-0.3675481,0.5787593,0
1.5500000000000012,7.210107838189846,-1.2991555290263168,-0.14802582272391687,1.089238249608996,12.64016,-2.1534333,-3.1580977,2.206771,3.767025,-4.50344,2.0635784,-0.525793,-0.0689178,-0.16359146,-0.83188266,-6.139853,9.541646,0.3935246,-1.3599733,-0.3333317,0.6038087,0
1.5600000000000012,7.498760376743792,-1.4438115484110363,0.25171692287151104,1.218439393402957,11.961777,-2.2500796,-2.4922915,1.9956877,3.7057288,-4.4079523,2.067361,-0.52394396,-0.06718159,-0.1569008,-0.8344761,-6.119456,9.55582,0.36311164,-1.3504955,-0.30445072,0.62762886,0
1.5700000000000012,7.498760376743792,-1.4438115484110363,0.25171692287151104,1.218439393402957,11.961777,-2.2500796,-2.4922915,1.9956877,3.644637,-4.312323,2.0708551,-0.5219096,-0.06521026,-0.15033342,-0.8371121,-6.09901,9.569954,0.33575946,-1.3650794,-0.21774842,0.65662014,0
1.5800000000000012,7.498760376743792,-1.4438115484110363,0.25171692287151104,1.218439393402957,11.961777,-2.2500796,-2.4922915,1.9956877,3.5837457,-4.2165556,2.0740774,-0.51967067,-0.06288754,-0.14390007,-0.839809,-6.07936,9.583516,0.30874407,-1.3773865,-0.14456563,0.6841888,0
1.5900000000000012,7.498760376743792,-1.4438115484110363,0.25171692287151104,1.218439393402957,11.961777,-2.2500796,-2.4922915,1.9956877,3.5230467,-4.120655,2.077031,-0.5172429,-0.060268328,-0.13757709,-0.84255505,-6.0605397,9.596544,0.2820522,-1.3877714,-0.08279392,0.7104046,0
1.6000000000000012,8.56951336018134,-1.7919926249179035,0.7724038384032718,1.4226964372353468,11.624594,-2.5374248,-2.2459896,2.5034919,3.4625318,-4.0246267,2.079719,-0.5146396,-0.05739894,-0.13134477,-0.84533954,-6.0425773,9.609069,0.2556707,-1.3965343,-0.030653875,0.73533404,0
1.6100000000000012,8.56951336018134,-1.7919926249179035,0.7724038384032718,1.4226964372353468,11.624594,-2.5374248,-2.2459896,2.5034919,3.4022045,-3.928467,2.0821965,-0.51183146,-0.05407381,-0.12517416,-0.8481951,-6.023066,9.622838,0.23987044,-1.4582678,0.09452112,0.76906306,0
1.6200000000000012,8.56951336018134,-1.7919926249179035,0.7724038384032718,1.4226964372353468,11.624594,-2.5374248,-2.2459896,2.5034919,3.3420668,-3.832172,2.0845175,-0.50879204,-0.050131902,-0.119040065,-0.8511438,-6.0046487,9.636115,0.22440238,-1.510369,0.2001789,0.801137,0
1.6300000000000012,8.56951336018134,-1.7919926249179035,0.7724038384032718,1.4226964372353468,11.624594,-2.5374248,-2.2459896,2.5034919,3.2821074,-3.7357461,2.0866854,-0.50553596,-0.045669343,-0.112932675,-0.854162,-5.9874077,9.648949,0.20925759,-1.5543401,0.28936327,0.831637,0
1.6400000000000012,8.56951336018134,-1.7919926249179035,0.7724038384032718,1.4226964372353468,12.3767605,-2.6567714,-1.9839435,2.9192777,3.2223144,-3.6391943,2.0887039,-0.50207543,-0.040767312,-0.10684417,-0.8572289,-5.971415,9.661378,0.1944238,-1.5914495,0.36464304,0.8606405,0
1.6500000000000012,8.56951336018134,-1.7919926249179035,0.7724038384032718,1.4226964372353468,12.3767605,-2.6567714,-1.9839435,2.9192777,3.1626747,-3.5425198,2.090575,-0.49842083,-0.035494413,-0.1007684,-0.8603263,-5.956731,9.6734295,0.17988585,-1.6227673,0.42818648,0.8882208,0
1.6600000000000013,8.56951336018134,-1.7919926249179035,0.7724038384032718,1.4226964372353468,12.3767605,-2.6567714,-1.9839435,2.9192777,3.103175,-3.4457266,2.092302,-0.49458128,-0.029908633,-0.09470058,-0.8634381,-5.9434066,9.685124,0.165626,-1.6491972,0.48182344,0.9144477,0
1.6700000000000013,8.56951336018134,-1.7919926249179035,0.7724038384032718,1.4226964372353468,12.3767605,-2.6567714,-1.9839435,2.9192777,3.0438015,-3.3488183,2.093888,-0.4905647,-0.024059,-0.08863707,-0.86655045,-5.9314857,9.696477,0.1516242,-1.6715015,0.5270989,0.9393877,0
1.6800000000000013,9.789092462373425,-2.148996126890224,1.087073897319741,1.6136881470333948,14.05292,-2.8824701,-2.425376,3.5077963,2.9845402,-3.251798,2.0953352,-0.48637825,-0.017986989,-0.08257517,-0.86965096,-5.921005,9.707494,0.13785854,-1.690324,0.56531644,0.9631038,0
1.6900000000000013,9.789092462373425,-2.148996126890224,1.087073897319741,1.6136881470333948,14.05292,-2.8824701,-2.425376,3.5077963,2.9253829,-3.1546614,2.0967057,-0.48199943,-0.011550721,-0.07644905,-0.87275285,-5.910723,9.7197,0.13633847,-1.7619178,0.64660275,0.99502814,0
1.7000000000000013,9.789092462373425,-2.148996126890224,1.087073897319741,1.6136881470333948,14.05292,-2.8824701,-2.425376,3.5077963,2.8663197,-3.0574052,2.0980625,-0.4774056,-0.00464001,-0.07020543,-0.875861,-5.902215,9.731534,0.13503674,-1.822341,0.7152189,1.025386,0
1.7100000000000013,9.789092462373425,-2.148996126890224,1.087073897319741,1.6136881470333948,14.05292,-2.8824701,-2.425376,3.5077963,2.8073323,-2.9600322,2.099407,-0.47260302,0.0026699905,-0.06385987,-0.87895393,-5.8955674,9.743001,0.13392463,-1.8733356,0.7731403,1.054254,0
1.7200000000000013,11.052911475777465,-2.310665234666845,1.4006401661283212,1.6910340884907742,15.097814,-3.2037184,-2.465399,3.8579628,2.7484019,-2.8625464,2.1007411,-0.46759745,0.010315677,-0.057426192,-0.8820132,-5.8908534,9.754098,0.13296868,-1.9163729,0.82203436,1.0817057,0
1.7300000000000013,11.052911475777465,-2.310665234666845,1.4006401661283212,1.6910340884907742,15.097814,-3.2037184,-2.465399,3.8579628,2.6895106,-2.7649448,2.1021295,-0.4623778,0.018383583,-0.05091791,-0.8850283,-5.8877892,9.766202,0.14468835,-1.9779435,0.9121858,1.1116056,0
1.7400000000000013,11.052911475777465,-2.310665234666845,1.4006401661283212,1.6910340884907742,15.097814,-3.2037184,-2.465399,3.8579628,2.6306381,-2.6672242,2.1036353,-0.45693368,0.026939249,-0.044345897,-0.8879855,-5.8870807,9.777887,0.15649363,-2.0299048,0.98828477,1.1400383,0
1.7500000000000013,11.052911475777465,-2.310665234666845,1.4006401661283212,1.6910340884907742,15.097814,-3.2037184,-2.465399,3.8579628,2.5717604,-2.5693886,2.1052594,-0.45127147,0.035904482,-0.037718337,-0.8908655,-5.8888206,9.789158,0.16833058,-2.0737555,1.0525223,1.1670758,0
1.7600000000000013,12.066328224079323,-2.4071152316127984,1.2572857750269903,1.7191720211866501,17.125814,-4.012165,-2.852625,3.9975705,2.5128527,-2.4714425,2.107002,-0.44539708,0.04521291,-0.031042865,-0.89365137,-5.8930864,9.80001,0.18014058,-2.1107612,1.1067475,1.1927865,0
1.7700000000000014,12.066328224079323,-2.4071152316127984,1.2572857750269903,1.7191720211866501,17.125814,-4.012165,-2.852625,3.9975705,2.4538865,-2.373385,2.1089127,-0.4393128,0.05477377,-0.02426682,-0.8963339,-5.9005694,9.811381,0.20193073,-2.1570146,1.1301516,1.2186164,0
1.7800000000000014,12.066328224079323,-2.4071152316127984,1.2572857750269903,1.7191720211866501,17.125814,-4.012165,-2.852625,3.9975705,2.3948312,-2.2752163,2.1110404,-0.43301997,0.064511396,-0.01734982,-0.898905,-5.9109316,9.822234,0.22355445,-2.196052,1.149912,1.2431787,0
1.7900000000000014,12.066328224079323,-2.4071152316127984,1.2572857750269903,1.7191720211866501,17.125814,-4.012165,-2.852625,3.9975705,2.3356578,-2.176942,2.113383,-0.42652318,0.07439402,-0.010315203,-0.90135247,-5.924213,9.832517,0.24493994,-2.2289984,1.1665963,1.2665359,0
1.8000000000000014,12.658609148757927,-2.469627002242647,0.6704471740885577,1.6747171470004136,16.650717,-3.9182305,-2.470863,3.4687939,2.276337,-2.0785685,2.1159382,-0.41982716,0.08439454,-0.0031831863,-0.9036658,-5.9404426,9.842176,0.26601288,-2.2568045,1.1806837,1.2887468,0
1.8100000000000014,12.658609148757927,-2.469627002242647,0.6704471740885577,1.6747171470004136,16.650717,-3.9182305,-2.470863,3.4687939,2.2168343,-1.9800991,2.1187313,-0.41294008,0.09428783,0.0041497005,-0.90585446,-5.960575,9.851588,0.29252958,-2.289941,1.1010565,1.3076864,0
1.8200000000000014,12.658609148757927,-2.469627002242647,0.6704471740885577,1.6747171470004136,16.650717,-3.9182305,-2.470863,3.4687939,2.1571147,-1.8815397,2.1217873,-0.40586925,0.103893474,0.011762423,-0.90793014,-5.983774,9.860155,0.31857327,-2.317918,1.0338523,1.3256968,0
1.8300000000000014,12.658609148757927,-2.469627002242647,0.6704471740885577,1.6747171470004136,16.650717,-3.9182305,-2.470863,3.4687939,2.0971484,-1.7828995,2.1251009,-0.39861855,0.11325049,0.01960598,-0.9098859,-6.0099845,9.867739,0.34408036,-2.3415391,0.9771329,1.3428233,0
1.8400000000000014,12.658609148757927,-2.469627002242647,0.6704471740885577,1.6747171470004136,15.964595,-3.8189993,-2.482516,3.0462947,2.036905,-1.6841887,2.1286669,-0.39119244,0.122391775,0.027638953,-0.91171485,-6.0391507,9.874221,0.36898652,-2.3614821,0.92926306,1.3591095,0
1.8500000000000014,12.658609148757927,-2.469627002242647,0.6704471740885577,1.6747171470004136,15.964595,-3.8189993,-2.482516,3.0462947,1.9763553,-1.5854193,2.1324785,-0.38359562,0.13134508,0.035826307,-0.9134104,-6.0712175,9.879494,0.39322683,-2.3783205,0.8888621,1.3745965,0
1.8600000000000014,12.658609148757927,-2.469627002242647,0.6704471740885577,1.6747171470004136,15.964595,-3.8189993,-2.482516,3.0462947,1.9154707,-1.4866035,2.1365287,-0.37583312,0.14013371,0.04413835,-0.91496617,-6.1061287,9.88346,0.41673583,-2.392537,0.85476476,1.3893235,0
1.8700000000000014,12.658609148757927,-2.469627002242647,0.6704471740885577,1.6747171470004136,15.964595,-3.8189993,-2.482516,3.0462947,1.854223,-1.3877549,2.1408105,-0.36791012,0.14877725,0.052549895,-0.9163762,-6.1438255,9.886033,0.43944785,-2.404541,0.8259877,1.4033278,0
1.8800000000000014,12.51220521079915,-2.2688383142960724,-0.1831097996283251,1.4734032289337538,16.246183,-3.5525393,-3.0926726,2.8796542,1.7925847,-1.2888879,2.145315,-0.35983184,0.15729204,0.06103953,-0.9176349,-6.184251,9.8871355,0.4612971,-2.4146762,0.8017011,1.4166449,0
1.8900000000000015,12.51220521079915,-2.2688383142960724,-0.1831097996283251,1.4734032289337538,16.246183,-3.5525393,-3.0926726,2.8796542,1.7305313,-1.1900175,2.1500263,-0.3516181,0.1653481,0.06964103,-0.91878945,-6.226831,9.88669,0.48084703,-2.3917925,0.6481371,1.4194301,0
1.9000000000000015,12.51220521079915,-2.2688383142960724,-0.1831097996283251,1.4734032289337538,16.246183,-3.5525393,-3.0926726,2.8796542,1.6680397,-1.0911598,2.1549284,-0.34328848,0.17268538,0.07837795,-0.9198853,-6.2718673,9.884582,0.49946067,-2.372499,0.5185183,1.4220786,0
1.9100000000000015,12.51220521079915,-2.2688383142960724,-0.1831097996283251,1.4734032289337538,16.246183,-3.5525393,-3.0926726,2.8796542,1.6050861,-0.9923321,2.1600122,-0.33484766,0.17941059,0.08722034,-0.92091304,-6.319178,9.880685,0.5171247,-2.3562324,0.40911093,1.4245971,0
1.9200000000000015,12.070918211774822,-1.8212456853871954,-0.8041633726573023,1.1401711442487266,16.265646,-3.3560576,-3.5567253,2.619446,1.5416487,-0.8935527,2.1652677,-0.32630023,0.1856136,0.09614339,-0.9218631,-6.3686,9.874891,0.53382355,-2.342518,0.3167635,1.4269922,0
1.9300000000000015,12.070918211774822,-1.8212456853871954,-0.8041633726573023,1.1401711442487266,16.265646,-3.3560576,-3.5567253,2.619446,1.4777163,-0.79483986,2.170665,-0.3176984,0.19107944,0.10504938,-0.92277867,-6.418156,9.867383,0.5455319,-2.2610624,0.14205192,1.4129179,0
1.9400000000000015,12.070918211774822,-1.8212456853871954,-0.8041633726573023,1.1401711442487266,16.265646,-3.3560576,-3.5567253,2.619446,1.4132799,-0.696212,2.176175,-0.30909047,0.19564329,0.11385959,-0.9237003,-6.4693613,9.857875,0.5563253,-2.1923375,-0.0054275654,1.3995341,0
1.9500000000000015,12.070918211774822,-1.8212456853871954,-0.8041633726573023,1.1401711442487266,16.265646,-3.3560576,-3.5567253,2.619446,1.3483242,-0.59768945,2.1817884,-0.30047515,0.1994422,0.122581206,-0.9246139,-6.521984,9.846299,0.56623936,-2.1343532,-0.12991945,1.3868072,0
1.9600000000000015,11.005356341387364,-1.4549603737397012,-1.7027415423736643,0.75182059642238,15.781603,-3.873553,-3.3239324,1.2305516,1.282836,-0.49929327,2.187497,-0.2918515,0.20259142,0.13122094,-0.9255053,-6.575822,9.832602,0.57530314,-2.0854309,-0.23500673,1.3747047,0
1.9700000000000015,11.005356341387364,-1.4549603737397012,-1.7027415423736643,0.75182059642238,15.781603,-3.873553,-3.3239324,1.2305516,1.2168283,-0.40103802,2.1932447,-0.2832451,0.20480645,0.13976274,-0.9264408,-6.625835,9.818134,0.5741606,-1.9869136,-0.4637712,1.3441397,0
1.9800000000000015,11.005356341387364,-1.4549603737397012,-1.7027415423736643,0.75182059642238,15.781603,-3.873553,-3.3239324,1.2305516,1.1503171,-0.3029376,2.1989775,-0.27468038,0.20586672,0.14819276,-0.927474,-6.676522,9.801628,0.57234025,-1.903799,-0.6568791,1.3150744,0
1.9900000000000015,11.005356341387364,-1.4549603737397012,-1.7027415423736643,0.75182059642238,15.781603,-3.873553,-3.3239324,1.2305516,1.0832967,-0.20501268,2.2046893,-0.26615453,0.20594727,0.1565202,-0.9285733,-6.7276278,9.78303,0.5699149,-1.8336779,-0.81988764,1.2874355,0
2.0000000000000013,,,,,13.958719,-3.3146951,-3.7910967,0.9104018,1.0157639,-0.10728435,2.2103739,-0.25766513,0.20519523,0.1647534,-0.92970926,-6.7789316,9.7623,0.56694406,-1.774518,-0.9574883,1.2611529,0
2.010000000000001,,,,,13.958719,-3.3146951,-3.7910967,0.9104018,0.94773406,-0.009767046,2.2159967,-0.24923481,0.20340762,0.17286278,-0.93092704,-6.827008,9.740842,0.557547,-1.6720269,-1.192527,1.2156149,0
2.020000000000001,,,,,13.958719,-3.3146951,-3.7910967,0.9104018,0.8792246,0.08752541,2.2215238,-0.24088489,0.20042858,0.1808236,-0.93225795,-6.874822,9.717324,0.54776776,-1.585559,-1.3909322,1.1723114,0
2.0300000000000007,,,,,13.958719,-3.3146951,-3.7910967,0.9104018,0.8102394,0.18457228,2.2269511,-0.23261164,0.1964355,0.18864976,-0.93365705,-6.922131,9.691722,0.53768086,-1.5126078,-1.5584133,1.1311328,0
2.0400000000000005,,,,,13.958719,-3.3146951,-3.7910967,0.9104018,0.74078447,0.28135267,2.2322767,-0.22441176,0.1915777,0.19635324,-0.935084,-6.96872,9.664025,0.5273431,-1.4510584,-1.6997896,1.091975,0
2.0500000000000003,,,,,13.057407,-2.9279282,-3.920544,0.29955032,0.6708681,0.3778456,2.2374976,-0.21628241,0.18598115,0.20394434,-0.9365035,-7.0143995,9.63423,0.51679534,-1.3991276,-1.81913,1.0547386,1
2.06,,,,,13.057407,-2.9279282,-3.920544,0.29955032,0.6004407,0.47398803,2.242728,-0.20797004,0.17935857,0.21223378,-0.93783534,-7.070847,9.593815,0.52928054,-1.6373695,-2.1469688,1.0176814,1
2.07,,,,,13.057407,-2.9279282,-3.920544,0.29955032,0.52945685,0.5697115,2.248082,-0.19926748,0.17147444,0.22185309,-0.93897265,-7.125627,9.550389,0.54146117,-1.8385035,-2.423648,0.9824425,1
2.0799999999999996,,,,,13.057407,-2.9279282,-3.920544,0.29955032,0.45793495,0.6649842,2.2535555,-0.1902346,0.1624982,0.23256777,-0.9398494,-7.1784334,9.503607,0.5532301,-2.0083072,-2.6571531,0.94893277,1
2.0899999999999994,,,,,12.69812,-2.940807,-3.8491797,-0.26742992,0.385896,0.7597712,2.2591443,-0.18092178,0.1525748,0.24417792,-0.9404068,-7.22898,9.453207,0.5644592,-2.1516588,-2.854222,0.9170674,1
2.099999999999999,,,,,12.69812,-2.940807,-3.8491797,-0.26742992,0.31337067,0.85404265,2.264827,-0.17144412,0.14183936,0.25652346,-0.9405763,-7.275678,9.400487,0.57201165,-2.2747474,-3.0093727,0.85894376,1
2.109999999999999,,,,,12.69812,-2.940807,-3.8491797,-0.26742992,0.24039166,0.94776773,2.2705812,-0.16190569,0.1304043,0.26946828,-0.9403019,-7.319684,9.343935,0.5787336,-2.3786588,-3.1403127,0.80367225,1
2.1199999999999988,,,,,12.69812,-2.940807,-3.8491797,-0.26742992,0.16698697,1.0409079,2.2763977,-0.1523308,0.11835525,0.2828865,-0.93955415,-7.360782,9.283475,0.5844493,-2.466379,-3.2508214,0.75111294,1
2.1299999999999986,,,,,11.846428,-2.362818,-3.660649,-0.53967667,0.0931867,1.1334238,2.2822661,-0.14273974,0.10576691,0.29667005,-0.93830967,-7.398771,9.219076,0.5889728,-2.540429,-3.3440883,0.7011328,1
2.1399999999999983,,,,,11.846428,-2.362818,-3.660649,-0.53967667,0.019034676,1.2252988,2.2881389,-0.13322774,0.09273338,0.3105029,-0.93661004,-7.431141,9.155338,0.5853271,-2.5128427,-3.3933434,0.64024585,1
2.149999999999998,,,,,11.846428,-2.362818,-3.660649,-0.53967667,-0.055425063,1.3165183,2.293968,-0.123874605,0.07933628,0.3241331,-0.93450415,-7.460293,9.088053,0.5802574,-2.4895587,-3.4349258,0.5823467,1
2.159999999999998,,,,,11.846428,-2.362818,-3.660649,-0.53967667,-0.13015968,1.4070479,2.2997386,-0.114675134,0.06561929,0.33756086,-0.93198496,-7.486099,9.017359,0.5736357,-2.469905,-3.470031,0.5272887,1
2.1699999999999977,,,,,11.003641,-1.4452999,-3.1175852,-0.63781345,-0.20513514,1.4968542,2.305435,-0.10562459,0.05162059,0.3507851,-0.9290469,-7.5084476,8.943404,0.56533,-2.4533138,-3.4996684,0.47493237,1
2.1799999999999975,,,,,11.003641,-1.4452999,-3.1175852,-0.63781345,-0.28030953,1.5859325,2.311008,-0.09682488,0.037533786,0.36344346,-0.92581034,-7.5259132,8.871839,0.54895884,-2.2962558,-3.4399521,0.42032963,1
2.1899999999999973,,,,,11.003641,-1.4452999,-3.1175852,-0.63781345,-0.35564202,1.6742818,2.3164084,-0.08835685,0.02351808,0.37525913,-0.92239916,-7.54006,8.797644,0.53086746,-2.1636786,-3.3895693,0.3684063,1
2.199999999999997,,,,,11.003641,-1.4452999,-3.1175852,-0.63781345,-0.43109936,1.7618771,2.3216193,-0.08018774,0.009557457,0.3863446,-0.91881233,-7.5508857,8.72107,0.511035,-2.0517657,-3.3470604,0.3190308,1
