time-since-start [s],throttle_mpc,roll_mpc,pitch_mpc,yaw_mpc,throttle_nw,roll_nw,pitch_nw,yaw_nw,position_x [m],position_y [m],position_z [m],rotation_w [quaternion],rotation_x [quaternion],rotation_y [quaternion],rotation_z [quaternion],velocity_x [m/s],velocity_y [m/s],velocity_z [m/s],omega_x [rad/s],omega_y [rad/s],omega_z [rad/s],network_used
0.0,9.0305218935717,5.999999688846366,-5.999999936312257,-5.295284148297583,13.322277,3.3688395,-4.8981514,-0.21252455,19.287262,-9.421442,1.815799,-0.15339164,-0.4623599,0.22736576,0.84320766,-10.939311,-6.265664,0.07583507,1.9232813,-0.48605865,-0.27180243,0
0.01,9.0305218935717,5.999999688846366,-5.999999936312257,-5.295284148297583,13.055162,-2.5437472,-7.1338186,-1.1829774,19.17712,-9.483882,1.8164794,-0.14695118,-0.46187985,0.23481788,0.8425752,-11.088541,-6.2219763,0.059793495,1.81238,-0.59955424,-0.43867058,0
0.02,9.0305218935717,5.999999688846366,-5.999999936312257,-5.295284148297583,13.055162,-2.5437472,-7.1338186,-1.1829774,19.065506,-9.545875,1.8169845,-0.13991451,-0.4610329,0.24151513,0.8423438,-11.233647,-6.176251,0.04076867,1.7192872,-0.695858,-0.601406,0
0.03,9.0305218935717,5.999999688846366,-5.999999936312257,-5.295284148297583,13.055162,-2.5437472,-7.1338186,-1.1829774,18.952461,-9.6074,1.8172857,-0.13227738,-0.45990214,0.24752137,0.8424524,-11.374594,-6.1286893,0.019045789,1.6411346,-0.7775608,-0.760111,0
0.04,9.0305218935717,5.999999688846366,-5.999999936312257,-5.295284148297583,14.1588,0.8090919,-7.1966333,-3.0573714,18.838026,-9.668442,1.8173571,-0.1240388,-0.4585556,0.25289124,0.8428448,-11.511394,-6.079461,-0.005116203,1.5758888,-0.84723496,-0.9148537,0
0.05,9.0305218935717,5.999999688846366,-5.999999936312257,-5.295284148297583,14.1588,0.8090919,-7.1966333,-3.0573714,18.722242,-9.728982,1.8171778,-0.11518114,-0.45702624,0.25770175,0.84347516,-11.645123,-6.028317,-0.030928679,1.5356697,-0.9209092,-1.0645301,0
0.060000000000000005,9.0305218935717,5.999999688846366,-5.999999936312257,-5.295284148297583,14.1588,0.8090919,-7.1966333,-3.0573714,18.605135,-9.7890005,1.8167341,-0.10564802,-0.45528796,0.26208547,0.8443121,-11.776184,-5.975177,-0.057988834,1.5238422,-1.0052415,-1.2088401,0
0.07,9.0305218935717,5.999999688846366,-5.999999936312257,-5.295284148297583,14.1588,0.8090919,-7.1966333,-3.0573714,18.486729,-9.848479,1.816014,-0.095385015,-0.45330408,0.2661653,0.84532446,-11.90442,-5.9201217,-0.08620906,1.5366914,-1.0992898,-1.348111,0
0.08,11.941235072735136,5.999999885704385,-5.999999978390342,-4.99521452604275,14.63595,0.17423113,-7.450374,-2.9387085,18.367058,-9.907398,1.8150061,-0.0843456,-0.45103592,0.27004644,0.84647954,-12.029671,-5.8631988,-0.11550732,1.5709585,-1.202133,-1.482643,0
0.09,11.941235072735136,5.999999885704385,-5.999999978390342,-4.99521452604275,14.63595,0.17423113,-7.450374,-2.9387085,18.246077,-9.965704,1.8137399,-0.07227869,-0.44820482,0.27410498,0.8477942,-12.165908,-5.7975965,-0.1379469,1.7441587,-1.4335022,-1.6087507,0
0.09999999999999999,11.941235072735136,5.999999885704385,-5.999999978390342,-4.99521452604275,14.63595,0.17423113,-7.450374,-2.9387085,18.123753,-10.023343,1.8122427,-0.05896052,-0.44454762,0.2786618,0.84926385,-12.29789,-5.729958,-0.16163589,1.923206,-1.6617092,-1.7316103,0
0.10999999999999999,11.941235072735136,5.999999885704385,-5.999999978390342,-4.99521452604275,14.63595,0.17423113,-7.450374,-2.9387085,18.000134,-10.080296,1.8105032,-0.0443944,-0.44004494,0.28372017,0.85081893,-12.425352,-5.66007,-0.18643439,2.1068397,-1.8868951,-1.8513497,0
0.11999999999999998,11.941235072735136,5.999999885704385,-5.999999978390342,-4.99521452604275,14.63595,0.17423113,-7.450374,-2.9387085,17.875263,-10.136537,1.8085108,-0.028587405,-0.4346735,0.2892758,0.8523858,-12.548025,-5.5877547,-0.21221387,2.2939725,-2.109156,-1.968089,0
0.12999999999999998,16.129750300613416,5.999999964219366,-6.0,-4.22995089485216,11.524932,1.1112068,-7.726831,-2.5087388,17.749191,-10.192042,1.806256,-0.011550559,-0.42840677,0.29531726,0.85388654,-12.6656275,-5.512875,-0.23885669,2.483667,-2.3285527,-2.0819397,0
0.13999999999999999,16.129750300613416,5.999999964219366,-6.0,-4.22995089485216,11.524932,1.1112068,-7.726831,-2.5087388,17.621893,-10.246733,1.8037794,0.0070656757,-0.42072394,0.30232257,0.85530275,-12.793023,-5.4248004,-0.25667816,2.894781,-2.765349,-2.175104,0
0.15,16.129750300613416,5.999999964219366,-6.0,-4.22995089485216,11.524932,1.1112068,-7.726831,-2.5087388,17.493359,-10.300528,1.8011185,0.027562225,-0.41113085,0.3106771,0.8565581,-12.913012,-5.3338275,-0.2756297,3.2868824,-3.179166,-2.267731,0
0.16,19.88998689884095,5.999999978062574,-6.0,-3.445979919716737,17.715055,1.9975404,-9.31672,-2.0324852,17.363663,-10.353398,1.7982634,0.049849283,-0.39963415,0.3202245,0.8574754,-13.025034,-5.239656,-0.29551688,3.6612759,-3.5719233,-2.3596985,0
0.17,19.88998689884095,5.999999978062574,-6.0,-3.445979919716737,17.715055,1.9975404,-9.31672,-2.0324852,17.232773,-10.405202,1.7952921,0.07377631,-0.3861739,0.3308721,0.85787565,-13.152135,-5.1198583,-0.2985058,4.0252795,-3.9512792,-2.4130027,0
0.18000000000000002,19.88998689884095,5.999999978062574,-6.0,-3.445979919716737,17.715055,1.9975404,-9.31672,-2.0324852,17.10065,-10.455771,1.7922984,0.099080235,-0.3708179,0.34241667,0.85757107,-13.270901,-4.9929147,-0.30000898,4.332593,-4.271402,-2.4636912,0
0.19000000000000003,19.88998689884095,5.999999978062574,-6.0,-3.445979919716737,17.715055,1.9975404,-9.31672,-2.0324852,16.967388,-10.505036,1.7892973,0.12551726,-0.3537463,0.35456827,0.8563822,-13.380167,-4.8588314,-0.29996803,4.592049,-4.541536,-2.5118923,0
0.20000000000000004,20.99999974232286,5.999999950638403,-5.999999983817645,-2.6711087483813043,19.932709,2.5807698,-9.963956,-1.8124751,16.833086,-10.552925,1.7863044,0.1528672,-0.3351213,0.36707824,0.85415405,-13.47883,-4.717847,-0.29838592,4.811104,-4.7694845,-2.5577283,0
0.21000000000000005,20.99999974232286,5.999999950638403,-5.999999983817645,-2.6711087483813043,19.932709,2.5807698,-9.963956,-1.8124751,16.697828,-10.599329,1.7833629,0.18084829,-0.315056,0.37976557,0.85077137,-13.570717,-4.5621796,-0.28967595,4.996174,-4.9617095,-2.5632918,0
0.22000000000000006,20.99999974232286,5.999999950638403,-5.999999983817645,-2.6711087483813043,19.932709,2.5807698,-9.963956,-1.8124751,16.561718,-10.644146,1.7805158,0.2092024,-0.29365405,0.39247662,0.84614646,-13.649321,-4.4003634,-0.27951893,5.152432,-5.1239085,-2.5685823,0
0.23000000000000007,20.99999974232286,5.999999950638403,-5.999999983817645,-2.6711087483813043,19.932709,2.5807698,-9.963956,-1.8124751,16.424892,-10.687318,1.7777768,0.23777145,-0.27104577,0.4050503,0.84019834,-13.71375,-4.233234,-0.268084,5.284364,-5.2607727,-2.5736132,0
0.24000000000000007,20.99999974232286,5.999999950638403,-5.999999983817645,-2.6711087483813043,20.357101,2.1206958,-9.402543,-1.5360286,16.287495,-10.728795,1.7751578,0.2664107,-0.24735373,0.4173483,0.8328637,-13.763233,-4.06177,-0.2555856,5.395757,-5.3762584,-2.5783975,0
0.25000000000000006,20.99999974232286,5.999999950638403,-5.999999983817645,-2.6711087483813043,20.357101,2.1206958,-9.402543,-1.5360286,16.14968,-10.768541,1.772668,0.2949872,-0.22269352,0.42925188,0.82409525,-13.797124,-3.8870723,-0.24227718,5.489809,-5.473705,-2.582947,0
0.26000000000000006,20.99999974232286,5.999999950638403,-5.999999983817645,-2.6711087483813043,20.357101,2.1206958,-9.402543,-1.5360286,16.011606,-10.80653,1.7703142,0.32337835,-0.19717486,0.44065902,0.81386,-13.814917,-3.7103422,-0.22844471,5.569219,-5.5559297,-2.587273,0
0.2700000000000001,20.99999974232286,5.999999950638403,-5.999999983817645,-2.6711087483813043,20.357101,2.1206958,-9.402543,-1.5360286,15.873438,-10.842746,1.7680999,0.3514711,-0.17090216,0.45148218,0.80213726,-13.816249,-3.5328588,-0.2144007,5.636267,-5.62531,-2.5913866,0
0.2800000000000001,21.0,5.295598683207606,-5.999998934939658,-1.0576810262710292,18.431484,1.7750481,-7.901822,-1.3284367,15.73534,-10.877189,1.7660257,0.3791607,-0.14397506,0.46164623,0.78891754,-13.800905,-3.3559592,-0.20047812,5.6928782,-5.683853,-2.5952988,0
0.2900000000000001,21.0,5.295598683207606,-5.999998934939658,-1.0576810262710292,18.431484,1.7750481,-7.901822,-1.3284367,15.597478,-10.909872,1.7640887,0.4061579,-0.11650704,0.47089702,0.77441436,-13.76884,-3.181026,-0.18700849,5.6311216,-5.7327743,-2.5198474,0
0.3000000000000001,21.0,5.295598683207606,-5.999998934939658,-1.0576810262710292,18.431484,1.7750481,-7.901822,-1.3284367,15.46002,-10.940822,1.762283,0.43222278,-0.08859998,0.47904462,0.75884753,-13.720265,-3.009484,-0.17424071,5.578999,-5.7741013,-2.4480984,0
0.3100000000000001,21.0,5.295598683207606,-5.999998934939658,-1.0576810262710292,18.431484,1.7750481,-7.901822,-1.3284367,15.323129,-10.970078,1.7606004,0.45733055,-0.060328357,0.48611552,0.7422269,-13.655561,-2.8427303,-0.16241223,5.5350056,-5.809013,-2.3798702,0
0.3200000000000001,21.0,3.7854834465955,-3.903524613984672,-0.25705478780808244,16.068455,1.1953524,-5.929931,-0.37158394,15.186962,-10.997698,1.7590305,0.48145634,-0.03176248,0.4921318,0.72456676,-13.575217,-2.682106,-0.15178135,5.497871,-5.838507,-2.3149898,0
0.3300000000000001,21.0,3.7854834465955,-3.903524613984672,-0.25705478780808244,16.068455,1.1953524,-5.929931,-0.37158394,15.051675,-11.0237465,1.7575598,0.5040899,-0.0038193404,0.49710578,0.70623255,-13.479911,-2.528838,-0.14262326,5.231646,-5.536001,-2.2140064,0
0.34000000000000014,21.0,3.7854834465955,-3.903524613984672,-0.25705478780808244,16.068455,1.1953524,-5.929931,-0.37158394,14.917411,-11.048303,1.7561721,0.52488506,0.022775695,0.50113326,0.68763524,-13.370846,-2.3837414,-0.13521214,5.006817,-5.280779,-2.117978,0
0.35000000000000014,21.0,3.7854834465955,-3.903524613984672,-0.25705478780808244,16.068455,1.1953524,-5.929931,-0.37158394,14.7843,-11.071451,1.7548487,0.54403853,0.048223328,0.50433314,0.6688382,-13.249303,-2.2473917,-0.12978278,4.8169503,-5.0654473,-2.026662,0
0.36000000000000015,20.999999883092904,1.88394615046761,-1.3901039297975206,0.38981888541965,14.498124,0.24558903,-3.4388502,-0.05969663,14.652462,-11.093283,1.7535689,0.5617153,0.072694525,0.5067965,0.64988357,-13.116452,-2.1202602,-0.12653269,4.65661,-4.88377,-1.9398271,0
0.37000000000000016,20.999999883092904,1.88394615046761,-1.3901039297975206,0.38981888541965,14.498124,0.24558903,-3.4388502,-0.05969663,14.522006,-11.11389,1.7523099,0.57756835,0.0952977,0.50868267,0.6313279,-12.973448,-2.0026495,-0.12562205,4.2252293,-4.338073,-1.8255106,0
0.38000000000000017,20.999999883092904,1.88394615046761,-1.3901039297975206,0.38981888541965,14.498124,0.24558903,-3.4388502,-0.05969663,14.393024,-11.133368,1.751048,0.59140074,0.11535849,0.51019883,0.6137056,-12.821756,-1.8942671,-0.12712337,3.8609312,-3.8776302,-1.7168039,0
0.3900000000000002,20.999999883092904,1.88394615046761,-1.3901039297975206,0.38981888541965,14.498124,0.24558903,-3.4388502,-0.05969663,14.265596,-11.151805,1.749759,0.60353166,0.13330393,0.51145446,0.5969871,-12.662733,-1.7946043,-0.13104641,3.5532923,-3.4891174,-1.6134313,0
0.4000000000000002,20.999999005887783,-0.12780884758252314,1.0441929009236484,1.6718006267944676,14.188229,-1.2036167,-1.037564,0.10284059,14.1397915,-11.169287,1.7484187,0.6142208,0.14949466,0.5125233,0.58112276,-12.497481,-1.7031624,-0.13737215,3.2935066,-3.1612923,-1.5151314,0
0.4100000000000002,20.999999005887783,-0.12780884758252314,1.0441929009236484,1.6718006267944676,14.188229,-1.2036167,-1.037564,0.10284059,14.015666,-11.185893,1.7470034,0.6232243,0.16325998,0.5135773,0.56672347,-12.326964,-1.619371,-0.14604852,2.760861,-2.5046391,-1.3587477,0
0.4200000000000002,20.999999005887783,-0.12780884758252314,1.0441929009236484,1.6718006267944676,14.188229,-1.2036167,-1.037564,0.10284059,13.893267,-11.201695,1.7454904,0.63039523,0.17411281,0.51479334,0.55432296,-12.152274,-1.5421131,-0.15691182,2.3110564,-1.9505763,-1.2100378,0
0.4300000000000002,20.999999005887783,-0.12780884758252314,1.0441929009236484,1.6718006267944676,14.188229,-1.2036167,-1.037564,0.10284059,13.772631,-11.216752,1.7438586,0.6360423,0.18257475,0.5162026,0.543738,-11.974352,-1.4701821,-0.16976732,1.9312241,-1.4830644,-1.0686252,0
0.4400000000000002,20.999999005887783,-0.12780884758252314,1.0441929009236484,1.6718006267944676,15.497646,-3.0946968,0.7218213,0.68458766,13.653789,-11.231112,1.7420888,0.640409,0.18907897,0.5178098,0.5347878,-11.793912,-1.4025145,-0.18443726,1.6104906,-1.0885739,-0.9341517,0
0.45000000000000023,20.999999005887783,-0.12780884758252314,1.0441929009236484,1.6718006267944676,15.497646,-3.0946968,0.7218213,0.68458766,13.53676,-11.244813,1.740164,0.6436885,0.1939849,0.519604,0.5273008,-11.611502,-1.3381835,-0.20076537,1.3396708,-0.75569254,-0.8062768,0
0.46000000000000024,20.999999005887783,-0.12780884758252314,1.0441929009236484,1.6718006267944676,15.497646,-3.0946968,0.7218213,0.68458766,13.421564,-11.257884,1.7380682,0.6460358,0.19759046,0.52156556,0.5211187,-11.427542,-1.2763885,-0.2186178,1.1110046,-0.4747923,-0.6846768,0
0.47000000000000025,20.999999005887783,-0.12780884758252314,1.0441929009236484,1.6718006267944676,15.497646,-3.0946968,0.7218213,0.68458766,13.308213,-11.270347,1.7357868,0.6475763,0.20014252,0.5236704,0.5160977,-11.242364,-1.2164414,-0.23788181,0.917937,-0.23775132,-0.56904376,0
0.48000000000000026,20.999996104694272,-2.426940344048048,3.5403955335671764,2.1038693009773066,16.364204,-3.4812,2.0365207,0.8698937,13.196721,-11.282216,1.733306,0.6484122,0.20184565,0.52589345,0.5121089,-11.056229,-1.1577533,-0.25846386,0.7549309,-0.037717387,-0.4590849,0
0.49000000000000027,20.999996104694272,-2.426940344048048,3.5403955335671764,2.1038693009773066,16.364204,-3.4812,2.0365207,0.8698937,13.087092,-11.293504,1.7306134,0.64826125,0.20179036,0.5283779,0.50975907,-10.86939,-1.099707,-0.28026253,0.25884655,0.52045906,-0.33332,0
0.5000000000000002,20.999996104694272,-2.426940344048048,3.5403955335671764,2.1038693009773066,16.364204,-3.4812,2.0365207,0.8698937,12.979334,-11.30421,1.7276975,0.6468927,0.19926798,0.53123194,0.5095234,-10.682321,-1.0411079,-0.30305576,-0.15997332,0.99149644,-0.21372645,0
0.5100000000000002,20.999996104694272,-2.426940344048048,3.5403955335671764,2.1038693009773066,16.364204,-3.4812,2.0365207,0.8698937,12.873445,-11.314321,1.7245497,0.64444226,0.19469951,0.5343748,0.51110595,-10.495514,-0.98071754,-0.32661748,-0.5135517,1.3890085,-0.10000136,0
0.5200000000000002,20.99999932324418,-4.519032926395497,5.246860414790369,2.279779020918921,14.996246,-4.1541967,3.6074264,0.97450393,12.769422,-11.323814,1.7211633,0.6410123,0.18843378,0.5377268,0.5142425,-10.309412,-0.91749734,-0.35077047,-0.81204194,1.7244796,0.008143205,0
0.5300000000000002,20.99999932324418,-4.519032926395497,5.246860414790369,2.279779020918921,14.996246,-4.1541967,3.6074264,0.97450393,12.6672535,-11.332659,1.7175329,0.6364537,0.17988344,0.5412106,0.51928735,-10.12447,-0.850497,-0.37535012,-1.390311,2.2736914,0.11961302,0
0.5400000000000003,20.99999932324418,-4.519032926395497,5.246860414790369,2.279779020918921,14.996246,-4.1541967,3.6074264,0.97450393,12.566927,-11.340808,1.7136558,0.6306107,0.16859038,0.54472625,0.5264791,-9.941386,-0.77844256,-0.40006405,-1.8784568,2.7371898,0.225613,0
0.5500000000000003,20.99999932324418,-4.519032926395497,5.246860414790369,2.279779020918921,14.996246,-4.1541967,3.6074264,0.97450393,12.468418,-11.3482065,1.709532,0.623539,0.15499404,0.54816645,0.53543353,-9.760948,-0.7001346,-0.4246401,-2.2905147,3.128362,0.32641155,0
0.5600000000000003,20.999999749735835,-5.617904972616773,5.601287872057841,2.1751382446544185,16.486359,-5.2425523,4.7825594,0.9023773,12.371696,-11.354785,1.7051641,0.6152765,0.1394636,0.55143064,0.5458098,-9.583951,-0.6146237,-0.44888783,-2.6383362,3.458503,0.42226386,0
0.5700000000000003,20.999999749735835,-5.617904972616773,5.601287872057841,2.1751382446544185,16.486359,-5.2425523,4.7825594,0.9023773,12.276724,-11.360471,1.7005558,0.60583633,0.121956445,0.5542719,0.5575582,-9.411228,-0.5211611,-0.47266313,-3.1033015,3.7923687,0.5082779,0
0.5800000000000003,20.999999749735835,-5.617904972616773,5.601287872057841,2.1751382446544185,16.486359,-5.2425523,4.7825594,0.9023773,12.183454,-11.365178,1.695713,0.59520584,0.10245631,0.5564646,0.5705954,-9.243776,-0.4190657,-0.49574846,-3.4957623,4.0741534,0.5900712,0
0.5900000000000003,20.999999749735835,-5.617904972616773,5.601287872057841,2.1751382446544185,16.486359,-5.2425523,4.7825594,0.9023773,12.091826,-11.36882,1.6906438,0.58337927,0.08128992,0.55795354,0.58459187,-9.082654,-0.30784103,-0.5179666,-3.8270187,4.311989,0.66785085,0
0.6000000000000003,20.99999982091142,-5.646210293838083,4.792711910300366,1.853658867892845,17.367744,-5.297306,4.738995,0.8711826,12.001776,-11.371303,1.6853571,0.57035494,0.058738798,0.55869055,0.5992571,-8.928922,-0.18721703,-0.5392261,-4.106611,4.5127354,0.7418139,0
0.6100000000000003,20.99999982091142,-5.646210293838083,4.792711910300366,1.853658867892845,17.367744,-5.297306,4.738995,0.8711826,11.91322,-11.372532,1.6798627,0.55634534,0.035214476,0.5584511,0.6143057,-8.783622,-0.057153787,-0.55949026,-4.3468933,4.5561275,0.7963725,0
0.6200000000000003,20.99999982091142,-5.646210293838083,4.792711910300366,1.853658867892845,17.367744,-5.297306,4.738995,0.8711826,11.826072,-11.372415,1.674171,0.54154056,0.011065735,0.5570729,0.629508,-8.647707,0.082080975,-0.5786805,-4.5496955,4.592764,0.8482538,0
0.6300000000000003,20.99999982091142,-5.646210293838083,4.792711910300366,1.853658867892845,17.367744,-5.297306,4.738995,0.8711826,11.740231,-11.37086,1.6682931,0.5259186,-0.013565121,0.5546047,0.6447002,-8.522062,0.23004457,-0.59674686,-4.720862,4.6236997,0.8975893,0
0.6400000000000003,20.99999982091142,-5.646210293838083,4.792711910300366,1.853658867892845,18.162954,-5.131421,4.522864,0.69446915,11.655592,-11.367785,1.66224,0.50946826,-0.03855333,0.55109125,0.6597373,-8.407519,0.38618386,-0.61369854,-4.865327,4.6498246,0.9445039,0
0.6500000000000004,20.99999982091142,-5.646210293838083,4.792711910300366,1.853658867892845,18.162954,-5.131421,4.522864,0.69446915,11.57204,-11.3631115,1.6560227,0.4921878,-0.063788846,0.54657394,0.6744911,-8.304848,0.5498459,-0.629595,-4.987255,4.671888,0.98911643,0
0.6600000000000004,20.99999982091142,-5.646210293838083,4.792711910300366,1.853658867892845,18.162954,-5.131421,4.522864,0.69446915,11.489452,-11.356766,1.6496513,0.47408354,-0.089173995,0.5410913,0.6888485,-8.214748,0.7202887,-0.64453745,-5.0901604,4.6905236,1.0315399,0
0.6700000000000004,20.99999982091142,-5.646210293838083,4.792711910300366,1.853658867892845,18.162954,-5.131421,4.522864,0.69446915,11.4077,-11.348685,1.6431346,0.45516843,-0.11462158,0.5346798,0.7027094,-8.13785,0.89669156,-0.65866214,-5.1770105,4.7062654,1.0718815,0
0.6800000000000004,20.99999980664114,-4.930080443019698,3.3378906059603364,1.4963063209763565,19.005413,-4.2721252,3.9362707,0.86666507,11.326649,-11.338814,1.6364802,0.4354611,-0.14005326,0.52737373,0.7159853,-8.074697,1.0781654,-0.67213386,-5.2503095,4.719564,1.1102437,0
0.6900000000000004,20.99999980664114,-4.930080443019698,3.3378906059603364,1.4963063209763565,19.005413,-4.2721252,3.9362707,0.86666507,11.246158,-11.327106,1.6296936,0.41537073,-0.16488144,0.51916444,0.72852516,-8.0257,1.2637407,-0.6851209,-5.2002697,4.5040646,1.129188,0
0.7000000000000004,20.99999980664114,-4.930080443019698,3.3378906059603364,1.4963063209763565,19.005413,-4.2721252,3.9362707,0.86666507,11.166085,-11.313529,1.6227793,0.39526033,-0.188644,0.5100942,0.7402607,-7.990875,1.4523034,-0.6976917,-5.1580505,4.322171,1.1472026,0
0.7100000000000004,20.99999980664114,-4.930080443019698,3.3378906059603364,1.4963063209763565,19.005413,-4.2721252,3.9362707,0.86666507,11.086291,-11.298055,1.6157411,0.37508738,-0.21144623,0.5002583,0.75122625,-7.970084,1.6427578,-0.7098876,-5.122431,4.1686425,1.1643333,0
0.7200000000000004,20.999999637442322,-3.657958225114441,1.4990426664975007,0.995102865984447,19.185093,-3.4027784,2.6565514,0.1385011,11.006636,-11.280671,1.6085826,0.35481763,-0.23337717,0.48973504,0.76144505,-7.963161,1.8340763,-0.7217643,-5.092379,4.0390563,1.1806234,0
0.7300000000000004,20.999999637442322,-3.657958225114441,1.4990426664975007,0.995102865984447,19.185093,-3.4027784,2.6565514,0.1385011,10.926981,-11.2613735,1.6013068,0.33495793,-0.25380683,0.47871676,0.7708534,-7.969827,2.0252836,-0.73336875,-4.868356,3.643144,1.1715199,0
0.7400000000000004,20.999999637442322,-3.657958225114441,1.4990426664975007,0.995102865984447,19.185093,-3.4027784,2.6565514,0.1385011,10.847195,-11.240168,1.5939165,0.31594318,-0.2722653,0.4674097,0.7794736,-7.989325,2.2154584,-0.74462855,-4.6793213,3.308943,1.162863,0
0.7500000000000004,20.999999637442322,-3.657958225114441,1.4990426664975007,0.995102865984447,19.185093,-3.4027784,2.6565514,0.1385011,10.767154,-11.21707,1.5864158,0.29764548,-0.28903753,0.45588136,0.7874237,-8.0208025,2.4038146,-0.7554344,-4.51981,3.026835,1.154631,0
0.7600000000000005,20.999997520699,-2.0351673100526635,-0.4446845071030547,0.4682095377246467,18.97005,-2.8964555,1.574161,-0.47350818,10.68674,-11.1921,1.5788097,0.2799522,-0.30436423,0.4441787,0.7947917,-8.063497,2.589693,-0.7656898,-4.3852115,2.7887,1.1468029,0
0.7700000000000005,20.999997520699,-2.0351673100526635,-0.4446845071030547,0.4682095377246467,18.97005,-2.8964555,1.574161,-0.47350818,10.605847,-11.165286,1.5711042,0.26336497,-0.31768417,0.43262574,0.8015922,-8.116627,2.7725499,-0.77529126,-4.018297,2.284817,1.113504,0
0.7800000000000005,20.999997520699,-2.0351673100526635,-0.4446845071030547,0.4682095377246467,18.97005,-2.8964555,1.574161,-0.47350818,10.524376,-11.136661,1.5633068,0.24829659,-0.32859132,0.4215157,0.8078988,-8.178985,2.9520438,-0.7840227,-3.7086818,1.8594538,1.0818393,0
0.7900000000000005,20.999997520699,-2.0351673100526635,-0.4446845071030547,0.4682095377246467,18.97005,-2.8964555,1.574161,-0.47350818,10.44224,-11.1062565,1.5554276,0.23453073,-0.33747727,0.4108234,0.8138354,-8.249358,3.1279852,-0.791642,-3.4474158,1.5003765,1.0517284,0
0.8000000000000005,19.890829912755002,-0.3168610045456807,-2.1607973417992588,-0.09220449683760844,18.209972,-1.658059,-0.2546987,-0.74630237,10.3593645,-11.074113,1.5474784,0.22187865,-0.34466815,0.40051377,0.8194888,-8.326718,3.300269,-0.7979319,-3.226946,1.1972566,1.023095,0
0.8100000000000005,19.890829912755002,-0.3168610045456807,-2.1607973417992588,-0.09220449683760844,18.209972,-1.658059,-0.2546987,-0.74630237,10.275706,-11.04031,1.5394495,0.21074721,-0.3497529,0.39094236,0.824877,-8.405705,3.4599714,-0.80761606,-2.7727463,0.6739722,0.9683669,0
0.8200000000000005,19.890829912755002,-0.3168610045456807,-2.1607973417992588,-0.09220449683760844,18.209972,-1.658059,-0.2546987,-0.74630237,10.191235,-11.004926,1.5313319,0.20145918,-0.35243535,0.38240215,0.8300432,-8.48919,3.616399,-0.8155876,-2.389465,0.23221469,0.9163244,0
0.8300000000000005,19.890829912755002,-0.3168610045456807,-2.1607973417992588,-0.09220449683760844,18.209972,-1.658059,-0.2546987,-0.74630237,10.105911,-10.967993,1.5231444,0.1937467,-0.3531138,0.3747614,0.83506066,-8.576001,3.7698417,-0.8215908,-2.0660248,-0.14071402,0.8668356,0
0.8400000000000005,19.890829912755002,-0.3168610045456807,-2.1607973417992588,-0.09220449683760844,17.88228,-1.0992035,-0.80160207,-1.4685872,10.019707,-10.92954,1.5149077,0.18737946,-0.3521168,0.36789685,0.83997273,-8.665165,3.920585,-0.8254064,-1.7930795,-0.45553532,0.8197752,0
0.8500000000000005,19.890829912755002,-0.3168610045456807,-2.1607973417992588,-0.09220449683760844,17.88228,-1.0992035,-0.80160207,-1.4685872,9.932603,-10.889591,1.5066445,0.18216072,-0.34971607,0.3616961,0.84480274,-8.75586,4.0688934,-0.8268508,-1.5627428,-0.7213012,0.7750241,0
0.8600000000000005,19.890829912755002,-0.3168610045456807,-2.1607973417992588,-0.09220449683760844,17.88228,-1.0992035,-0.80160207,-1.4685872,9.844586,-10.84817,1.4983793,0.17792292,-0.3461371,0.35605848,0.8495614,-8.847399,4.215004,-0.8257738,-1.3683611,-0.9456534,0.7324689,0
0.8700000000000006,19.890829912755002,-0.3168610045456807,-2.1607973417992588,-0.09220449683760844,17.88228,-1.0992035,-0.80160207,-1.4685872,9.755654,-10.805298,1.490138,0.17452379,-0.34156746,0.35089514,0.8542513,-8.939194,4.3591237,-0.822056,-1.2043196,-1.1350442,0.6920019,0
0.8800000000000006,18.62348117122271,0.9399549732001761,-3.3177363326037264,-0.47343292082211097,16.645046,-0.429246,-1.5096877,-2.5612004,9.665803,-10.760993,1.4819475,0.17184275,-0.33616364,0.3461283,0.85887074,-9.030746,4.501429,-0.81560546,-1.065881,-1.2949206,0.65352064,0
0.8900000000000006,18.62348117122271,0.9399549732001761,-3.3177363326037264,-0.47343292082211097,16.645046,-0.429246,-1.5096877,-2.5612004,9.575069,-10.71532,1.4738014,0.17014582,-0.32958823,0.34202838,0.86338764,-9.115789,4.633134,-0.81318766,-0.75299525,-1.6102166,0.5982207,0
0.9000000000000006,18.62348117122271,0.9399549732001761,-3.3177363326037264,-0.47343292082211097,16.645046,-0.429246,-1.5096877,-2.5612004,9.483492,-10.668335,1.465693,0.16963743,-0.32157886,0.33880466,0.86776793,-9.199488,4.763596,-0.8080562,-0.4889406,-1.8763832,0.5456343,0
0.9100000000000006,18.62348117122271,0.9399549732001761,-3.3177363326037264,-0.47343292082211097,16.645046,-0.429246,-1.5096877,-2.5612004,9.391087,-10.62005,1.4576498,0.17014003,-0.31235528,0.33631,0.8719987,-9.281166,4.8931046,-0.8001452,-0.26609337,-2.101073,0.4956284,0
0.9200000000000006,18.063928973087762,1.902440292939597,-3.990716845646755,-0.8001649087294224,15.894375,0.11291556,-2.130442,-2.664477,9.297877,-10.570476,1.4496999,0.17150317,-0.3021012,0.33441713,0.876063,-9.360247,5.0218906,-0.7894213,-0.078020334,-2.2907476,0.44807625,0
0.9300000000000006,18.063928973087762,1.902440292939597,-3.990716845646755,-0.8001649087294224,15.894375,0.11291556,-2.130442,-2.664477,9.203903,-10.519634,1.4418545,0.1738394,-0.2906812,0.33329552,0.8798853,-9.433911,5.146296,-0.7792361,0.23080721,-2.5557752,0.38682467,0
0.9400000000000006,18.063928973087762,1.902440292939597,-3.990716845646755,-0.8001649087294224,15.894375,0.11291556,-2.130442,-2.664477,9.109212,-10.467551,1.4341244,0.17722882,-0.2779924,0.3330686,0.8833884,-9.5039015,5.2704444,-0.76635265,0.4914488,-2.779506,0.32857874,0
0.9500000000000006,18.063928973087762,1.902440292939597,-3.990716845646755,-0.8001649087294224,15.894375,0.11291556,-2.130442,-2.664477,9.013841,-10.414227,1.4265364,0.1815098,-0.2642207,0.3335721,0.88654995,-9.569596,5.394557,-0.7508373,0.71142566,-2.9683719,0.27319098,0
0.9600000000000006,18.314829772337333,2.4947188222760626,-4.185532550359531,-1.1207920591443021,15.299917,0.83165354,-2.241102,-2.5940742,8.917837,-10.35966,1.4191165,0.18654506,-0.24952354,0.33466518,0.8893467,-9.630459,5.5187845,-0.7327856,0.89708513,-3.1278033,0.2205211,0
0.9700000000000006,18.314829772337333,2.4947188222760626,-4.185532550359531,-1.1207920591443021,15.299917,0.83165354,-2.241102,-2.5940742,8.821245,-10.303842,1.4118974,0.19233702,-0.23393363,0.33641392,0.8916875,-9.686777,5.6449547,-0.7106789,1.1461182,-3.2927685,0.15470247,0
0.9800000000000006,18.314829772337333,2.4947188222760626,-4.185532550359531,-1.1207920591443021,15.299917,0.83165354,-2.241102,-2.5940742,8.724119,-10.24676,1.4049108,0.19888029,-0.21748386,0.33886057,0.89348775,-9.73719,5.771456,-0.6863209,1.3563061,-3.4320283,0.09211357,0
0.9900000000000007,18.314829772337333,2.4947188222760626,-4.185532550359531,-1.1207920591443021,15.299917,0.83165354,-2.241102,-2.5940742,8.626522,-10.188412,1.398178,0.20605618,-0.20029917,0.34186187,0.8947352,-9.78122,5.8983574,-0.65993434,1.5337102,-3.549585,0.032595947,0
1.0000000000000007,18.05353909732847,2.451457157018151,-3.836145794588307,-1.2716553852319652,14.155349,0.94929856,-2.558781,-2.4065473,8.528519,-10.128792,1.3917183,0.21376337,-0.18248717,0.34529603,0.89541835,-9.818457,6.025665,-0.6317584,1.6834465,-3.6488194,-0.024001144,0
1.0100000000000007,18.05353909732847,2.451457157018151,-3.836145794588307,-1.2716553852319652,14.155349,0.94929856,-2.558781,-2.4065473,8.430181,-10.067905,1.3855389,0.22188058,-0.16427685,0.3490717,0.89550585,-9.848122,6.1515093,-0.6038741,1.8030703,-3.6781063,-0.08522389,0
1.0200000000000007,18.05353909732847,2.451457157018151,-3.836145794588307,-1.2716553852319652,14.155349,0.94929856,-2.558781,-2.4065473,8.331581,-10.00576,1.3796449,0.2303097,-0.14585927,0.3531147,0.8949817,-9.870518,6.2776265,-0.5747678,1.904044,-3.7028303,-0.1434424,0
1.0300000000000007,18.05353909732847,2.451457157018151,-3.836145794588307,-1.2716553852319652,14.155349,0.94929856,-2.558781,-2.4065473,8.232795,-9.942352,1.3740468,0.23900108,-0.12727006,0.35735258,0.8938566,-9.885473,6.4039063,-0.54473376,1.9892765,-3.7237005,-0.19880414,0
1.0400000000000007,18.05353909732847,2.451457157018151,-3.836145794588307,-1.2716553852319652,13.499203,0.4468693,-2.5050569,-2.293736,8.133897,-9.877682,1.3687524,0.24791145,-0.108541116,0.36172405,0.89214015,-9.89285,6.530206,-0.5140614,2.0612226,-3.7413163,-0.25144926,0
1.0500000000000007,18.05353909732847,2.451457157018151,-3.836145794588307,-1.2716553852319652,13.499203,0.4468693,-2.5050569,-2.293736,8.034965,-9.8117485,1.3637667,0.25700277,-0.08970113,0.36617726,0.8898411,-9.892537,6.656359,-0.48303533,2.1219544,-3.7561839,-0.30151108,0
1.0600000000000007,18.05353909732847,2.451457157018151,-3.836145794588307,-1.2716553852319652,13.499203,0.4468693,-2.5050569,-2.293736,7.936074,-9.7445545,1.359092,0.26624137,-0.07077605,0.37066838,0.88696724,-9.884455,6.7821774,-0.45193514,2.1732209,-3.7687314,-0.34911636,0
1.0700000000000007,18.05353909732847,2.451457157018151,-3.836145794588307,-1.2716553852319652,13.499203,0.4468693,-2.5050569,-2.293736,7.8373027,-9.6761055,1.3547275,0.2755973,-0.051789425,0.3751604,0.883526,-9.868548,6.907454,-0.42103538,2.216498,-3.7793198,-0.3943856,0
1.0800000000000007,17.8157881813829,1.927623085205081,-3.200148701137298,-1.3351956713327673,13.430387,-0.28050286,-2.198241,-2.0912974,7.73873,-9.606408,1.3506699,0.2850436,-0.03276274,0.37962192,0.8795246,-9.844792,7.0319676,-0.3906051,2.253031,-3.7882543,-0.43743348,0
1.0900000000000007,17.8157881813829,1.927623085205081,-3.200148701137298,-1.3351956713327673,13.430387,-0.28050286,-2.198241,-2.0912974,7.640432,-9.535478,1.3469046,0.29446164,-0.014002701,0.38391748,0.87504464,-9.813624,7.15386,-0.36258498,2.2022035,-3.6965883,-0.48148695,0
1.1000000000000008,17.8157881813829,1.927623085205081,-3.200148701137298,-1.3351956713327673,13.430387,-0.28050286,-2.198241,-2.0912974,7.5424833,-9.463335,1.343415,0.30376437,0.004243741,0.3879494,0.8701747,-9.7749195,7.2745442,-0.33549315,2.1593082,-3.6192143,-0.5233787,0
1.1100000000000008,17.8157881813829,1.927623085205081,-3.200148701137298,-1.3351956713327673,13.430387,-0.28050286,-2.198241,-2.0912974,7.444959,-9.389992,1.3401908,0.31297052,0.022039471,0.39174345,0.864928,-9.728908,7.3938046,-0.30951348,2.1231072,-3.553904,-0.5632148,0
1.1200000000000008,17.441891506758864,1.0388827064667308,-2.206662378333429,-1.2612707080629324,13.048728,-0.689243,-1.7254052,-1.7968111,7.3479304,-9.315464,1.3372202,0.32209405,0.039437596,0.39532062,0.85931444,-9.675801,7.5114336,-0.28481668,2.0925553,-3.4987767,-0.6010961,0
1.1300000000000008,17.441891506758864,1.0388827064667308,-2.206662378333429,-1.2612707080629324,13.048728,-0.689243,-1.7254052,-1.7968111,7.2514615,-9.239781,1.3344768,0.33099756,0.056030236,0.39852482,0.85350966,-9.6171,7.6248074,-0.26409507,1.9282444,-3.2972486,-0.63349104,0
1.1400000000000008,17.441891506758864,1.0388827064667308,-2.206662378333429,-1.2612707080629324,13.048728,-0.689243,-1.7254052,-1.7968111,7.1556106,-9.162974,1.3319334,0.3395842,0.07149773,0.40124953,0.8476845,-9.552125,7.73625,-0.24481724,1.789556,-3.1271513,-0.6642963,0
1.1500000000000008,17.441891506758864,1.0388827064667308,-2.206662378333429,-1.2612707080629324,13.048728,-0.689243,-1.7254052,-1.7968111,7.0604386,-9.085064,1.3295754,0.34791553,0.0860012,0.40357468,0.84183466,-9.481335,7.8456497,-0.22698857,1.6724939,-2.9835832,-0.69359004,0
1.1600000000000008,16.770310253497687,-0.10282016375155945,-1.132512620404945,-1.0632702807715637,13.020418,-1.5902156,-1.2053769,-1.2609768,6.966002,-9.00607,1.3273886,0.3560406,0.09967764,0.4055652,0.83595204,-9.405123,7.952913,-0.21060896,1.5736852,-2.8624072,-0.7214463,0
1.1700000000000008,16.770310253497687,-0.10282016375155945,-1.132512620404945,-1.0632702807715637,13.020418,-1.5902156,-1.2053769,-1.2609768,6.8723373,-8.926035,1.3253366,0.36385325,0.1121315,0.40704727,0.83027065,-9.326997,8.05392,-0.20000602,1.3123333,-2.5925229,-0.73821974,0
1.1800000000000008,16.770310253497687,-0.10282016375155945,-1.132512620404945,-1.0632702807715637,13.020418,-1.5902156,-1.2053769,-1.2609768,6.779476,-8.844999,1.3233843,0.37128073,0.12305882,0.40789956,0.82499975,-9.244575,8.152792,-0.19061787,1.0917256,-2.3647406,-0.75417006,0
1.1900000000000008,16.770310253497687,-0.10282016375155945,-1.132512620404945,-1.0632702807715637,13.020418,-1.5902156,-1.2053769,-1.2609768,6.687458,-8.762986,1.3215206,0.37840104,0.13269067,0.40823743,0.82009,-9.158394,8.249549,-0.18225715,0.9055097,-2.172493,-0.7693377,0
1.2000000000000008,16.50238684522297,-1.1670667719543124,-0.08879588324481968,-0.7390811760518899,13.44405,-2.573147,-0.4510311,-0.6965867,6.596319,-8.6800165,1.3197361,0.3852762,0.14122269,0.40815407,0.81549263,-9.068907,8.344224,-0.17475456,0.74832374,-2.010237,-0.7837611,0
1.2100000000000009,16.50238684522297,-1.1670667719543124,-0.08879588324481968,-0.7390811760518899,13.44405,-2.573147,-0.4510311,-0.6965867,6.5060825,-8.596117,1.3180147,0.39181504,0.14833216,0.40753597,0.81141394,-8.9780035,8.435384,-0.16961324,0.44977498,-1.7104363,-0.78156865,0
1.2200000000000009,16.50238684522297,-1.1670667719543124,-0.08879588324481968,-0.7390811760518899,13.44405,-2.573147,-0.4510311,-0.6965867,6.4167666,-8.511315,1.3163426,0.39794955,0.15377507,0.4063032,0.80802643,-8.884808,8.524657,-0.16486873,0.19776009,-1.4574139,-0.7794838,0
1.2300000000000009,16.50238684522297,-1.1670667719543124,-0.08879588324481968,-0.7390811760518899,13.44405,-2.573147,-0.4510311,-0.6965867,6.328392,-8.42563,1.314717,0.4037531,0.15780972,0.40456647,0.80523604,-8.789845,8.612181,-0.1602347,-0.014973894,-1.2438707,-0.7775012,0
1.2400000000000009,16.50238684522297,-1.1670667719543124,-0.08879588324481968,-0.7390811760518899,13.876276,-3.0650213,-0.28589576,-0.22091153,6.2409744,-8.339076,1.3131385,0.40928382,0.16065377,0.40241453,0.8029566,-8.693559,8.698082,-0.1554639,-0.19454974,-1.0636468,-0.77561593,0
1.2500000000000009,16.50238684522297,-1.1670667719543124,-0.08879588324481968,-0.7390811760518899,13.876276,-3.0650213,-0.28589576,-0.22091153,6.1545243,-8.251673,1.3116091,0.41458786,0.16249073,0.39991897,0.8011106,-8.596318,8.782479,-0.1503449,-0.34613544,-0.91154313,-0.77382314,0
1.260000000000001,16.50238684522297,-1.1670667719543124,-0.08879588324481968,-0.7390811760518899,13.876276,-3.0650213,-0.28589576,-0.22091153,6.0690503,-8.163432,1.3101335,0.41970214,0.16347535,0.39713764,0.79962945,-8.498436,8.865477,-0.14469847,-0.4740936,-0.78317225,-0.77211833,0
1.270000000000001,16.50238684522297,-1.1670667719543124,-0.08879588324481968,-0.7390811760518899,13.876276,-3.0650213,-0.28589576,-0.22091153,5.984557,-8.074368,1.3087175,0.42465633,0.16373825,0.39411768,0.7984533,-8.400175,8.9471655,-0.13837394,-0.5821072,-0.6748309,-0.7704972,0
1.280000000000001,16.054109254403194,-2.080813588204822,0.6209991481479286,-0.3158919933749055,15.3042145,-3.8531656,-1.1239258,0.88596416,5.9010468,-7.9844923,1.3073688,0.42947432,0.16338973,0.3908975,0.7975301,-8.301762,9.027631,-0.13124558,-0.673285,-0.58339405,-0.7689556,0
1.290000000000001,16.054109254403194,-2.080813588204822,0.6209991481479286,-0.3158919933749055,15.3042145,-3.8531656,-1.1239258,0.88596416,5.818508,-7.8938293,1.3060813,0.4340825,0.16215919,0.387331,0.79702634,-8.206086,9.104795,-0.12607415,-0.89268845,-0.39547238,-0.7467236,0
1.300000000000001,16.054109254403194,-2.080813588204822,0.6209991481479286,-0.3158919933749055,15.3042145,-3.8531656,-1.1239258,0.88596416,5.736924,-7.8023996,1.3048509,0.43841657,0.15983756,0.3833028,0.7970705,-8.110809,9.180962,-0.11979803,-1.0778954,-0.23687896,-0.72558254,0
1.310000000000001,16.054109254403194,-2.080813588204822,0.6209991481479286,-0.3158919933749055,15.3042145,-3.8531656,-1.1239258,0.88596416,5.656289,-7.710213,1.3036897,0.44250578,0.15659364,0.37888202,0.79756814,-8.016273,9.256244,-0.11221655,-1.2342353,-0.103035636,-0.70547897,0
1.320000000000001,15.680107639726721,-2.853667603847153,1.1596784899570705,0.1529666463557153,16.319569,-5.0784764,-1.6346796,2.211788,5.576595,-7.617278,1.3026116,0.44637364,0.15256977,0.37412536,0.79843765,-7.9227695,9.33074,-0.103169195,-1.3662068,0.009920936,-0.68636185,0
1.330000000000001,15.680107639726721,-2.853667603847153,1.1596784899570705,0.1529666463557153,16.319569,-5.0784764,-1.6346796,2.211788,5.4978185,-7.5236096,1.3016192,0.44995865,0.14759685,0.36892,0.79978114,-7.832725,9.40282,-0.09504906,-1.5981001,0.18928598,-0.64517576,0
1.340000000000001,15.680107639726721,-2.853667603847153,1.1596784899570705,0.1529666463557153,16.319569,-5.0784764,-1.6346796,2.211788,5.4199347,-7.4292235,1.3007166,0.45320225,0.14154729,0.36317527,0.8016703,-7.7443233,9.474321,-0.08517392,-1.79385,0.34065485,-0.6060107,0
1.350000000000001,15.680107639726721,-2.853667603847153,1.1596784899570705,0.1529666463557153,16.319569,-5.0784764,-1.6346796,2.211788,5.3429255,-7.3341246,1.2999223,0.45612544,0.13458791,0.35696355,0.8039977,-7.6579247,9.54534,-0.07337603,-1.9590886,0.46839893,-0.5687674,0
1.360000000000001,15.4008644000599,-3.436079720478519,1.342192031505251,0.5762412749584996,15.600363,-4.9156504,-1.2178509,1.7890669,5.2667685,-7.238318,1.2992561,0.45874527,0.1268597,0.3503452,0.8066705,-7.573846,9.615946,-0.059533533,-2.0985708,0.576207,-0.5333517,0
1.370000000000001,15.4008644000599,-3.436079720478519,1.342192031505251,0.5762412749584996,15.600363,-4.9156504,-1.2178509,1.7890669,5.191432,-7.141813,1.2987287,0.46103638,0.11833375,0.34320915,0.809722,-7.493833,9.684945,-0.045585506,-2.3071375,0.6956529,-0.47890368,0
1.380000000000001,15.4008644000599,-3.436079720478519,1.342192031505251,0.5762412749584996,15.600363,-4.9156504,-1.2178509,1.7890669,5.1168814,-7.04462,1.2983519,0.46296805,0.10899409,0.3354664,0.8131684,-7.416724,9.753621,-0.02942618,-2.4831908,0.7964517,-0.42712742,0
1.390000000000001,15.4008644000599,-3.436079720478519,1.342192031505251,0.5762412749584996,15.600363,-4.9156504,-1.2178509,1.7890669,5.043086,-6.9467416,1.298148,0.46454653,0.09896835,0.32719386,0.8169123,-7.3428454,9.821986,-0.010969168,-2.6317978,0.88151675,-0.37789184,0
1.400000000000001,14.998858667633092,-3.7260019278812604,1.098298456519154,0.9783189708857337,17.926565,-5.2366643,-2.442763,2.9318795,4.970012,-6.8481812,1.2981404,0.46577758,0.088364735,0.3184568,0.8208702,-7.2724886,9.890034,0.009828431,-2.7572365,0.9533058,-0.33107227,0
1.410000000000001,14.998858667633092,-3.7260019278812604,1.098298456519154,0.9783189708857337,17.926565,-5.2366643,-2.442763,2.9318795,4.897615,-6.7489505,1.2983369,0.46666625,0.077316925,0.3091658,0.8250218,-7.207655,9.955971,0.029812995,-2.9083505,0.97582835,-0.26682007,0
1.420000000000001,14.998858667633092,-3.7260019278812604,1.098298456519154,0.9783189708857337,17.926565,-5.2366643,-2.442763,2.9318795,4.825846,-6.6490626,1.2987446,0.46720785,0.06593795,0.29925233,0.82934725,-7.146749,10.021489,0.052098714,-3.0358992,0.99482894,-0.20572075,0
1.430000000000001,14.998858667633092,-3.7260019278812604,1.098298456519154,0.9783189708857337,17.926565,-5.2366643,-2.442763,2.9318795,4.754666,-6.548522,1.2993866,0.46739545,0.05428475,0.28879693,0.83378106,-7.089992,10.086485,0.07667255,-3.1435564,1.0108606,-0.1476196,0
1.440000000000001,14.998858667633092,-3.7260019278812604,1.098298456519154,0.9783189708857337,19.15884,-5.5707545,-3.723756,3.7546606,4.6840315,-6.4473343,1.3002857,0.467225,0.042405702,0.277869,0.83826685,-7.037582,10.150855,0.10348963,-3.234424,1.0243888,-0.09236949,0
1.450000000000001,14.998858667633092,-3.7260019278812604,1.098298456519154,0.9783189708857337,19.15884,-5.5707545,-3.723756,3.7546606,4.6138988,-6.3455067,1.3014637,0.4666948,0.030341925,0.2665284,0.84275615,-6.9896955,10.214495,0.13247804,-3.3111203,1.0358064,-0.0398305,0
1.460000000000001,14.998858667633092,-3.7260019278812604,1.098298456519154,0.9783189708857337,19.15884,-5.5707545,-3.723756,3.7546606,4.5442214,-6.2430468,1.3029423,0.46580514,0.018128455,0.25482708,0.84720725,-6.9464893,10.277297,0.16354284,-3.3758545,1.045444,0.010130395,0
1.470000000000001,14.998858667633092,-3.7260019278812604,1.098298456519154,0.9783189708857337,19.15884,-5.5707545,-3.723756,3.7546606,4.4749527,-6.1399636,1.3047413,0.46455792,0.0057951994,0.24281026,0.8515842,-6.908102,10.339156,0.19656956,-3.4304924,1.0535799,0.05763968,0
1.480000000000001,14.61437278417491,-3.785930065259927,0.4893146987961665,1.307751403414225,19.102364,-5.9606075,-3.9511597,3.7094877,4.4060426,-6.0362673,1.3068798,0.46295628,-0.006632255,0.23051734,0.85585594,-6.874654,10.399966,0.23142718,-3.4766085,1.0604498,0.1028177,0
1.490000000000001,14.61437278417491,-3.785930065259927,0.4893146987961665,1.307751403414225,19.102364,-5.9606075,-3.9511597,3.7094877,4.337438,-5.931976,1.3093584,0.4610248,-0.018924847,0.2178501,0.86002296,-6.84697,10.4580765,0.26452357,-3.5248787,0.9712427,0.16194414,0
1.500000000000001,14.61437278417491,-3.785930065259927,0.4893146987961665,1.307751403414225,19.102364,-5.9606075,-3.9511597,3.7094877,4.2690864,-5.8271103,1.3121755,0.45877638,-0.030897794,0.20473525,0.864091,-6.8242264,10.514856,0.2991432,-3.5656145,0.89595133,0.21816923,0
1.5100000000000011,14.61437278417491,-3.785930065259927,0.4893146987961665,1.307751403414225,19.102364,-5.9606075,-3.9511597,3.7094877,4.200937,-5.721684,1.3153461,0.45620084,-0.042590875,0.19123867,0.8680408,-6.8064346,10.570103,0.3351587,-3.5999928,0.8324063,0.27163535,0
1.5200000000000011,14.237782053612834,-3.6734567745472013,-0.27173266139159447,1.524191619622589,18.80007,-5.6471095,-4.1562037,3.1967075,4.132941,-5.615714,1.3188832,0.45329177,-0.05403792,0.17741697,0.8718543,-6.7936,10.62363,0.37243155,-3.6290061,0.77877605,0.32247788,0
1.5300000000000011,14.237782053612834,-3.6734567745472013,-0.27173266139159447,1.524191619622589,18.80007,-5.6471095,-4.1562037,3.1967075,4.065047,-5.509225,1.322781,0.4500785,-0.0649768,0.16322224,0.8755376,-6.785912,10.673923,0.4073009,-3.6359277,0.61480856,0.3814463,0
1.5400000000000011,14.237782053612834,-3.6734567745472013,-0.27173266139159447,1.524191619622589,18.80007,-5.6471095,-4.1562037,3.1967075,3.9972062,-5.402243,1.3270323,0.44658005,-0.075200476,0.14862269,0.8791033,-6.7829437,10.722117,0.44313276,-3.6417637,0.47641838,0.43752116,0
1.5500000000000012,14.237782053612834,-3.6734567745472013,-0.27173266139159447,1.524191619622589,18.80007,-5.6471095,-4.1562037,3.1967075,3.929372,-5.294791,1.3316464,0.44278133,-0.08481024,0.13368493,0.8825421,-6.784577,10.767973,0.47980654,-3.646686,0.35961634,0.49084437,0
1.5600000000000012,13.785552535808586,-3.3487308087055774,-1.0397070963535173,1.5742519811906912,19.267448,-5.2627854,-5.0546556,3.0528257,3.8614993,-5.186893,1.3366311,0.4386719,-0.09389219,0.1184656,0.88584274,-6.7907033,10.811272,0.51719415,-3.6508384,0.2610358,0.54155105,0
1.5700000000000012,13.785552535808586,-3.3487308087055774,-1.0397070963535173,1.5742519811906912,19.267448,-5.2627854,-5.0546556,3.0528257,3.7935445,-5.078582,1.3419708,0.43428814,-0.102189496,0.10299483,0.88901263,-6.8008685,10.850528,0.55084336,-3.6036556,0.0580832,0.592226,0
1.5800000000000012,13.785552535808586,-3.3487308087055774,-1.0397070963535173,1.5742519811906912,19.267448,-5.2627854,-5.0546556,3.0528257,3.7254677,-4.969892,1.3476495,0.4296584,-0.10950315,0.087302275,0.89206576,-6.8150544,10.886887,0.5849516,-3.5638309,-0.11321334,0.64041436,0
1.5900000000000012,13.785552535808586,-3.3487308087055774,-1.0397070963535173,1.5742519811906912,19.267448,-5.2627854,-5.0546556,3.0528257,3.6572301,-4.8608546,1.353671,0.42476717,-0.11597882,0.07143152,0.894997,-6.833034,10.920132,0.6194175,-3.5302186,-0.25779095,0.68623805,0
1.6000000000000012,13.351354774833665,-2.8783723082781503,-1.744224698548052,1.5495726761853383,20.070341,-4.8784924,-6.0762286,3.0718586,3.5887947,-4.751501,1.3600386,0.41960353,-0.12174,0.05541923,0.89779806,-6.8546033,10.950075,0.6541347,-3.5018504,-0.3798172,0.7298131,0
1.6100000000000012,13.351354774833665,-2.8783723082781503,-1.744224698548052,1.5495726761853383,20.070341,-4.8784924,-6.0762286,3.0718586,3.5201302,-4.6418695,1.3667333,0.41420144,-0.12655973,0.039347596,0.9004843,-6.878769,10.975716,0.68480873,-3.4045029,-0.5926391,0.77003896,0
1.6200000000000012,13.351354774833665,-2.8783723082781503,-1.744224698548052,1.5495726761853383,20.070341,-4.8784924,-6.0762286,3.0718586,3.4512088,-4.5319986,1.373735,0.40858832,-0.1302651,0.023285959,0.90307516,-6.905919,10.997825,0.7155431,-3.322344,-0.77227,0.80829096,0
1.6300000000000012,13.351354774833665,-2.8783723082781503,-1.744224698548052,1.5495726761853383,20.070341,-4.8784924,-6.0762286,3.0718586,3.3820026,-4.421925,1.3810441,0.40274993,-0.13302551,0.0072449488,0.9055631,-6.935755,11.01625,0.7462632,-3.2530055,-0.9238865,0.8446659,0
1.6400000000000012,13.351354774833665,-2.8783723082781503,-1.744224698548052,1.5495726761853383,19.667925,-4.698164,-6.5216794,2.7914722,3.3124857,-4.3116865,1.38866,0.39667627,-0.13498421,-0.008766891,0.90793765,-6.968011,11.03086,0.7768892,-3.1944878,-1.0518575,0.8792559,0
1.6500000000000012,13.351354774833665,-2.8783723082781503,-1.744224698548052,1.5495726761853383,19.667925,-4.698164,-6.5216794,2.7914722,3.242635,-4.2013216,1.3965812,0.390361,-0.13626237,-0.024742566,0.91018635,-7.002448,11.041546,0.8073356,-3.1451032,-1.159871,0.91214854,0
1.6600000000000013,13.351354774833665,-2.8783723082781503,-1.744224698548052,1.5495726761853383,19.667925,-4.698164,-6.5216794,2.7914722,3.17243,-4.0908694,1.4048055,0.38380083,-0.1369625,-0.04067623,0.91229606,-7.038849,11.048219,0.83751166,-3.1034272,-1.2510394,0.9434271,0
1.6700000000000013,13.351354774833665,-2.8783723082781503,-1.744224698548052,1.5495726761853383,19.667925,-4.698164,-6.5216794,2.7914722,3.101852,-3.9803712,1.41333,0.3769949,-0.1371713,-0.056562874,0.9142538,-7.077015,11.050803,0.86732167,-3.068257,-1.3279893,0.9731708,0
1.6800000000000013,12.677294282922393,-2.239413677816111,-2.1498820504325926,1.410267809297111,18.359735,-4.670692,-6.398625,2.6590116,3.0308843,-3.8698676,1.4221503,0.36994442,-0.1369621,-0.072398104,0.9160466,-7.1167626,11.049239,0.8966659,-3.038578,-1.3929383,1.001455,0
1.6900000000000013,12.677294282922393,-2.239413677816111,-2.1498820504325926,1.410267809297111,18.359735,-4.670692,-6.398625,2.6590116,2.9595225,-3.7593994,1.4312294,0.36269107,-0.13615327,-0.0880056,0.9176998,-7.1558256,11.043776,0.91904074,-2.9138522,-1.5109402,1.0215155,0
1.7000000000000013,12.677294282922393,-2.239413677816111,-2.1498820504325926,1.410267809297111,18.359735,-4.670692,-6.398625,2.6590116,2.8877645,-3.6490057,1.4405291,0.35527128,-0.13460651,-0.103244334,0.91924125,-7.1959558,11.034325,0.9408169,-2.8085876,-1.6105479,1.0405917,0
1.7100000000000013,12.677294282922393,-2.239413677816111,-2.1498820504325926,1.410267809297111,18.359735,-4.670692,-6.398625,2.6590116,2.8156009,-3.5387263,1.4500434,0.34768128,-0.13243712,-0.11815853,0.9206613,-7.236893,11.020897,0.961939,-2.7197483,-1.6946287,1.0587318,0
1.7200000000000013,12.057006105999626,-1.5290266080515753,-2.1475140589606387,1.2087601651189648,17.229923,-4.348343,-6.1425776,2.5926263,2.7430246,-3.428601,1.4597657,0.3399194,-0.12974226,-0.13278572,0.92194915,-7.278405,11.003508,0.982348,-2.6447713,-1.7656035,1.0759816,0
1.7300000000000013,12.057006105999626,-1.5290266080515753,-2.1475140589606387,1.2087601651189648,17.229923,-4.348343,-6.1425776,2.5926263,2.6700416,-3.3186646,1.4696591,0.3320463,-0.1265058,-0.1468987,0.92312664,-7.3182263,10.983231,0.9962263,-2.470722,-1.8250511,1.0824971,0
1.7400000000000013,12.057006105999626,-1.5290266080515753,-2.1475140589606387,1.2087601651189648,17.229923,-4.348343,-6.1425776,2.5926263,2.5966597,-3.2089489,1.4796876,0.32411698,-0.12272196,-0.16032057,0.9242214,-7.35815,10.959313,1.0093472,-2.3238225,-1.8752449,1.0886929,0
1.7500000000000013,12.057006105999626,-1.5290266080515753,-2.1475140589606387,1.2087601651189648,17.229923,-4.348343,-6.1425776,2.5926263,2.522879,-3.0994902,1.4898434,0.31612384,-0.11847936,-0.17314868,0.92522883,-7.397953,10.9318695,1.0216948,-2.1998367,-1.9176257,1.0945847,0
1.7600000000000013,11.799251586621084,-0.8053421456639123,-1.819208315197466,0.9846638972658606,17.185087,-4.0666027,-6.137324,2.2726324,2.4487016,-2.9903233,1.5001187,0.30806124,-0.11385214,-0.18546537,0.92614204,-7.4374385,10.901002,1.03325,-2.0951917,-1.9534097,1.1001873,0
1.7700000000000014,11.799251586621084,-0.8053421456639123,-1.819208315197466,0.9846638972658606,17.185087,-4.0666027,-6.137324,2.2726324,2.374136,-2.881478,1.510494,0.30000913,-0.10893091,-0.19703552,0.9269877,-7.4755974,10.867553,1.0416694,-1.8940626,-1.9323299,1.0945185,0
1.7800000000000014,11.799251586621084,-0.8053421456639123,-1.819208315197466,0.9846638972658606,17.185087,-4.0666027,-6.137324,2.2726324,2.2991917,-2.7729828,1.5209494,0.29203853,-0.10379303,-0.20768002,0.9277985,-7.513109,10.83105,1.0493137,-1.7242967,-1.9145616,1.0891279,0
1.7900000000000014,11.799251586621084,-0.8053421456639123,-1.819208315197466,0.9846638972658606,17.185087,-4.0666027,-6.137324,2.2726324,2.2238765,-2.664867,1.5314777,0.28413314,-0.0984769,-0.21753822,0.92857325,-7.549829,10.791689,1.0562083,-1.5810033,-1.8995845,1.0840018,0
1.8000000000000014,11.55970242912115,-0.2401238429071106,-1.3684568152581467,0.7508937915176294,17.326439,-3.5625,-5.527994,1.9879216,2.1481984,-2.5571582,1.5420711,0.2762791,-0.09301387,-0.22672765,0.929308,-7.5856333,10.7496395,1.0623747,-1.4600543,-1.8869598,1.0791272,0
1.8100000000000014,11.55970242912115,-0.2401238429071106,-1.3684568152581467,0.7508937915176294,17.326439,-3.5625,-5.527994,1.9879216,2.072171,-2.4498782,1.5527122,0.26855424,-0.087529115,-0.23509096,0.9300269,-7.619711,10.705971,1.0657331,-1.2698826,-1.8059525,1.0630206,0
1.8200000000000014,11.55970242912115,-0.2401238429071106,-1.3684568152581467,0.7508937915176294,17.326439,-3.5625,-5.527994,1.9879216,1.9958079,-2.3430464,1.5633836,0.26102617,-0.082124054,-0.2425121,0.9307574,-7.6527157,10.6600485,1.0684494,-1.1093568,-1.7376031,1.0477043,0
1.8300000000000014,11.55970242912115,-0.2401238429071106,-1.3684568152581467,0.7508937915176294,17.326439,-3.5625,-5.527994,1.9879216,1.9191204,-2.236684,1.5740792,0.25366953,-0.07678955,-0.24913754,0.93149674,-7.6845913,10.612085,1.0705774,-0.9738557,-1.6799331,1.0331397,0
1.8400000000000014,11.55970242912115,-0.2401238429071106,-1.3684568152581467,0.7508937915176294,16.912123,-3.135643,-5.3532305,1.8591002,1.84212,-2.130811,1.5847932,0.24646227,-0.07151684,-0.25509033,0.9322399,-7.715293,10.562266,1.0721655,-0.85947806,-1.6312737,1.0192897,0
1.8500000000000014,11.55970242912115,-0.2401238429071106,-1.3684568152581467,0.7508937915176294,16.912123,-3.135643,-5.3532305,1.8591002,1.7648187,-2.0254443,1.5955206,0.2393853,-0.066297784,-0.26047394,0.9329808,-7.7447824,10.510748,1.073255,-0.7629309,-1.590217,1.0061195,0
1.8600000000000014,11.55970242912115,-0.2401238429071106,-1.3684568152581467,0.7508937915176294,16.912123,-3.135643,-5.3532305,1.8591002,1.6872287,-1.920601,1.6062567,0.23242222,-0.06112492,-0.26537538,0.9337131,-7.7730284,10.457666,1.0738814,-0.6814349,-1.5555745,0.9935955,0
1.8700000000000014,11.55970242912115,-0.2401238429071106,-1.3684568152581467,0.7508937915176294,16.912123,-3.135643,-5.3532305,1.8591002,1.6093626,-1.8162957,1.6169968,0.22555883,-0.055991482,-0.26986775,0.93443036,-7.800003,10.40314,1.0740747,-0.61264354,-1.5263442,0.98168606,0
1.8800000000000014,11.592771964400168,0.21710458005623007,-0.7382922875640728,0.5312774966143571,17.353289,-3.0415819,-4.878729,1.9781319,1.5312331,-1.7125428,1.6277367,0.21878302,-0.050891407,-0.27401257,0.93512654,-7.8256836,10.34727,1.0738597,-0.55457616,-1.5016806,0.970361,0
1.8900000000000015,11.592771964400168,0.21710458005623007,-0.7382922875640728,0.5312774966143571,17.353289,-3.0415819,-4.878729,1.9781319,1.452853,-1.6093556,1.638474,0.21218857,-0.04600832,-0.27763772,0.9358295,-7.850128,10.289996,1.0735408,-0.43432775,-1.3825486,0.94881505,0
1.9000000000000015,11.592771964400168,0.21710458005623007,-0.7382922875640728,0.5312774966143571,17.353289,-3.0415819,-4.878729,1.9781319,1.3742348,-1.5067466,1.6492063,0.20585407,-0.041487884,-0.2806128,0.93656796,-7.873301,10.231641,1.0728912,-0.3328166,-1.2820098,0.9283264,0
1.9100000000000015,11.592771964400168,0.21710458005623007,-0.7382922875640728,0.5312774966143571,17.353289,-3.0415819,-4.878729,1.9781319,1.2953911,-1.4047259,1.6599307,0.19974877,-0.03727356,-0.28304103,0.93733615,-7.8952527,10.172364,1.0719688,-0.2471232,-1.1971625,0.9088432,0
1.9200000000000015,11.965380802893078,0.4888592820336636,-0.02304749328961067,0.35787330521369964,17.786095,-3.1737802,-4.2901664,2.096685,1.2163339,-1.303302,1.6706448,0.19384606,-0.033317156,-0.28500882,0.9381279,-7.916027,10.112303,1.0708236,-0.17478313,-1.125557,0.89031595,0
1.9300000000000015,11.965380802893078,0.4888592820336636,-0.02304749328961067,0.35787330521369964,17.786095,-3.1737802,-4.2901664,2.096685,1.1370715,-1.2024919,1.6813622,0.1882285,-0.029819388,-0.28643277,0.9389555,-7.936305,10.049632,1.0726138,-0.07140458,-0.9535601,0.86418885,0
1.9400000000000015,11.965380802893078,0.4888592820336636,-0.02304749328961067,0.35787330521369964,17.786095,-3.1737802,-4.2901664,2.096685,1.0576115,-1.1023111,1.6920967,0.18296348,-0.026937086,-0.287253,0.9398323,-7.9555354,9.986449,1.0742887,0.015873412,-0.80839837,0.8393438,0
1.9500000000000015,11.965380802893078,0.4888592820336636,-0.02304749328961067,0.35787330521369964,17.786095,-3.1737802,-4.2901664,2.096685,0.9779638,-1.0027641,1.7028477,0.17800869,-0.02457304,-0.28756705,0.94075215,-7.9738426,9.922913,1.075913,0.08955774,-0.68588436,0.81571794,0
1.9600000000000015,12.209237682813553,0.6899672988202958,0.6332550989093316,0.20210278770925244,18.217453,-3.3253148,-3.8945265,2.145168,0.89813733,-0.90385365,1.713615,0.17332755,-0.022644887,-0.28745642,0.94170797,-7.991334,9.859156,1.0775429,0.15176508,-0.58248454,0.7932514,0
1.9700000000000015,12.209237682813553,0.6899672988202958,0.6332550989093316,0.20210278770925244,18.217453,-3.3253148,-3.8945265,2.145168,0.8181378,-0.8055879,1.7244089,0.16898395,-0.021311024,-0.28686884,0.94270724,-8.008457,9.793995,1.0812637,0.2355918,-0.39285177,0.76424354,0
1.9800000000000015,12.209237682813553,0.6899672988202958,0.6332550989093316,0.20210278770925244,18.217453,-3.3253148,-3.8945265,2.145168,0.73797005,-0.70797366,1.7352407,0.16502877,-0.020693192,-0.28576747,0.94375557,-8.025016,9.728879,1.0851058,0.3063673,-0.23280118,0.7366591,0
1.9900000000000015,12.209237682813553,0.6899672988202958,0.6332550989093316,0.20210278770925244,18.217453,-3.3253148,-3.8945265,2.145168,0.65763885,-0.6110098,1.7461118,0.16141477,-0.020677544,-0.28423506,0.9448431,-8.041173,9.663945,1.089129,0.36612296,-0.09771785,0.71042824,0
2.0000000000000013,,,,,18.164223,-3.386017,-3.4868524,2.1014116,0.5771475,-0.5146938,1.7570242,0.15810134,-0.021167852,-0.28234056,0.9459598,-8.057067,9.599311,1.0933827,0.41657373,0.016293738,0.6854845,0
2.010000000000001,,,,,18.164223,-3.386017,-3.4868524,2.1014116,0.49649626,-0.4190293,1.7679917,0.15510267,-0.022201547,-0.28014573,0.9470844,-8.0731735,9.533663,1.1001599,0.4494577,0.16155933,0.655742,0
2.020000000000001,,,,,18.164223,-3.386017,-3.4868524,2.1014116,0.41568398,-0.32401887,1.7790284,0.1524294,-0.02380357,-0.2777025,0.9481984,-8.089292,9.468512,1.1072437,0.4772281,0.28416786,0.627459,0
2.0300000000000007,,,,,18.164223,-3.386017,-3.4868524,2.1014116,0.33470985,-0.22965711,1.7901376,0.15004389,-0.02588212,-0.27505052,0.9492968,-8.105566,9.4039345,1.1146566,0.5006793,0.3876535,0.6005638,0
2.0400000000000005,,,,,18.164223,-3.386017,-3.4868524,2.1014116,0.2535717,-0.13593802,1.8013227,0.14791378,-0.028359763,-0.2722228,0.9503747,-8.122117,9.339994,1.1224146,0.5204826,0.47499868,0.5749884,0
2.0500000000000003,,,,,17.608595,-3.3814497,-3.2705534,1.968063,0.17226619,-0.04285487,1.8125871,0.14601111,-0.031171199,-0.26924694,0.951428,-8.139049,9.276748,1.1305287,0.5372049,0.5487212,0.55066794,1
2.06,,,,,17.608595,-3.3814497,-3.2705534,1.968063,0.090752,0.04946424,1.8241639,0.14361036,-0.033000994,-0.26784053,0.9521284,-8.163748,9.187552,1.1842128,-0.056756437,-0.030163392,0.6186635,1
2.07,,,,,17.608595,-3.3814497,-3.2705534,1.968063,0.008991655,0.14089867,1.8362675,0.14006369,-0.032725446,-0.26947436,0.9522053,-8.188279,9.099259,1.2364753,-0.5750151,-0.53573257,0.68487895,1
2.0799999999999996,,,,,17.608595,-3.3814497,-3.2705534,1.968063,-0.07301161,0.23144609,1.8488917,0.13550088,-0.030655725,-0.27368557,0.95173323,-8.212238,9.010002,1.2882594,-1.0124482,-0.96246195,0.7478452,1
2.0899999999999994,,,,,17.481606,-4.3969636,-4.5036454,2.6734047,-0.15524924,0.3210925,1.8620294,0.13003843,-0.027072854,-0.28005102,0.95075166,-8.235069,8.918937,1.3391277,-1.3816665,-1.3226403,0.8077216,1
2.099999999999999,,,,,17.481606,-4.3969636,-4.5036454,2.6734047,-0.23770846,0.40981156,1.875677,0.12357269,-0.02188619,-0.28856775,0.94919956,-8.256384,8.82481,1.3895355,-1.8282274,-1.7957361,0.8971464,1
2.109999999999999,,,,,17.481606,-4.3969636,-4.5036454,2.6734047,-0.32036823,0.49758172,1.8898072,0.115965754,-0.014945464,-0.2993261,0.9469598,-8.27517,8.72866,1.4362147,-2.228449,-2.2183921,0.98430794,1
2.1199999999999988,,,,,17.481606,-4.3969636,-4.5036454,2.6734047,-0.40320197,0.5843713,1.9043931,0.10731575,-0.006500791,-0.31196573,0.94399095,-8.291085,8.628614,1.4805778,-2.5662613,-2.5751302,1.0671924,1
2.1299999999999986,,,,,15.805006,-4.1189036,-3.9461408,2.349416,-0.4861781,0.67013896,1.9194089,0.09772407,0.0032019618,-0.32613397,0.9402536,-8.303565,8.524193,1.5221106,-2.8514025,-2.876225,1.1460097,1
2.1399999999999983,,,,,15.805006,-4.1189036,-3.9461408,2.349416,-0.56925535,0.75489104,1.9347582,0.087391764,0.013765766,-0.34140348,0.9357443,-8.311297,8.425544,1.5472376,-3.0488272,-3.0433419,1.2050611,1
2.149999999999998,,,,,15.805006,-4.1189036,-3.9461408,2.349416,-0.6523908,0.8386349,1.9503419,0.07649659,0.024864022,-0.3574234,0.9304725,-8.3151655,8.322543,1.568937,-3.2154782,-3.1843812,1.2612149,1
2.159999999999998,,,,,15.805006,-4.1189036,-3.9461408,2.349416,-0.73554444,0.9213269,1.9661239,0.065091826,0.036395438,-0.37401608,0.9244193,-8.314912,8.215192,1.5868165,-3.3561544,-3.3034096,1.3146131,1
2.1699999999999977,,,,,14.833169,-3.231068,-2.6243978,2.099519,-0.81867397,1.002924,1.9820639,0.053226426,0.048271503,-0.39102882,0.9175695,-8.310307,8.10357,1.6004957,-3.4749064,-3.4038599,1.3653913,1
2.1799999999999975,,,,,14.833169,-3.231068,-2.6243978,2.099519,-0.90173745,1.0834196,1.998085,0.041165896,0.059960566,-0.4079818,0.9100887,-8.301742,7.9949603,1.6030374,-3.4369106,-3.28235,1.4014151,1
2.1899999999999973,,,,,14.833169,-3.231068,-2.6243978,2.099519,-0.9846943,1.162811,2.0141096,0.029137494,0.07103972,-0.42451257,0.9021607,-8.288977,7.882797,1.6011395,-3.404832,-3.1797895,1.4356713,1
2.199999999999997,,,,,14.833169,-3.231068,-2.6243978,2.099519,-1.067503,1.2410645,2.0300922,0.017130628,0.081584476,-0.44065577,0.8937972,-8.272108,7.767407,1.5946872,-3.3777487,-3.0932226,1.4682465,1
2.209999999999997,,,,,13.639392,-2.4239075,-1.8543192,2.4745886,-1.1501228,1.3181492,2.0459871,0.005136987,0.091658294,-0.4564387,0.88500655,-8.251219,7.6491055,1.5835768,-3.3548827,-3.0201552,1.4992231,1
2.2199999999999966,,,,,13.639392,-2.4239075,-1.8543192,2.4745886,-1.2325236,1.3940861,2.0617142,-0.006778845,0.101022035,-0.4716045,0.87597847,-8.228394,7.5379376,1.5611154,-3.2097862,-2.8383024,1.5470847,1
