time-since-start [s],throttle_mpc,roll_mpc,pitch_mpc,yaw_mpc,throttle_nw,roll_nw,pitch_nw,yaw_nw,position_x [m],position_y [m],position_z [m],rotation_w [quaternion],rotation_x [quaternion],rotation_y [quaternion],rotation_z [quaternion],velocity_x [m/s],velocity_y [m/s],velocity_z [m/s],omega_x [rad/s],omega_y [rad/s],omega_z [rad/s],network_used
0.0,11.586461978868902,5.999999730361018,-5.999999917004621,-3.9393655171185125,5.681029,0.75529426,-3.803883,-1.7293633,17.107893,-10.418956,2.5647836,0.062529005,-0.4285124,0.28448647,0.85529804,-10.223792,-4.586938,-0.15919648,1.5559855,0.0016125233,-0.4509335,0
0.01,11.586461978868902,5.999999730361018,-5.999999917004621,-3.9393655171185125,15.597046,-0.8030482,-4.946533,-1.6938108,17.00506,-10.46436,2.5631027,0.06843903,-0.42793486,0.29023406,0.8532011,-10.342337,-4.493954,-0.17737453,1.6795453,-0.36515656,-0.57119,0
0.02,11.586461978868902,5.999999730361018,-5.999999917004621,-3.9393655171185125,15.597046,-0.8030482,-4.946533,-1.6938108,16.901058,-10.508833,2.5612278,0.0756487,-0.42593175,0.2961442,0.8515622,-10.457173,-4.4004664,-0.19795081,1.8192242,-0.71018595,-0.6887134,0
0.03,11.586461978868902,5.999999730361018,-5.999999917004621,-3.9393655171185125,15.597046,-0.8030482,-4.946533,-1.6938108,16.795929,-10.552368,2.5591369,0.084153034,-0.42257136,0.30227134,0.8502846,-10.567912,-4.306309,-0.22053356,1.9718769,-1.0362307,-0.8035809,0
0.04,11.586461978868902,5.999999730361018,-5.999999917004621,-3.9393655171185125,11.521,-0.5217727,-5.992338,-1.5449959,16.689716,-10.594957,2.5568116,0.0939419,-0.41790643,0.3086541,0.84927136,-10.674187,-4.211335,-0.24478738,2.1348562,-1.345624,-0.9158666,0
0.05,11.586461978868902,5.999999730361018,-5.999999917004621,-3.9393655171185125,11.521,-0.5217727,-5.992338,-1.5449959,16.582462,-10.636592,2.5542367,0.10500028,-0.41197667,0.3153172,0.8484252,-10.775649,-4.115424,-0.27042654,2.3059354,-1.6403426,-1.0256419,0
0.060000000000000005,11.586461978868902,5.999999730361018,-5.999999917004621,-3.9393655171185125,11.521,-0.5217727,-5.992338,-1.5449959,16.474218,-10.677262,2.5513992,0.11730833,-0.40481073,0.3222734,0.84764796,-10.871961,-4.0184865,-0.29720932,2.4832423,-1.9220619,-1.1329751,0
0.07,11.586461978868902,5.999999730361018,-5.999999917004621,-3.9393655171185125,11.521,-0.5217727,-5.992338,-1.5449959,16.36504,-10.716958,2.5482895,0.13084148,-0.39642835,0.3295248,0.84684044,-10.962799,-3.92047,-0.32493326,2.6652036,-2.192204,-1.237932,0
0.08,13.854376605789481,5.999999855283063,-5.999999950551941,-3.6311538981426286,11.9435,-0.12666185,-5.46646,-1.4689478,16.254982,-10.755668,2.5448985,0.14557034,-0.38684186,0.33706412,0.84590226,-11.04785,-3.821362,-0.35343128,2.8504977,-2.451975,-1.3405756,0
0.09,13.854376605789481,5.999999855283063,-5.999999950551941,-3.6311538981426286,11.9435,-0.12666185,-5.46646,-1.4689478,16.144068,-10.793338,2.5412493,0.16163847,-0.3757874,0.34506333,0.8447416,-11.133693,-3.7124205,-0.376532,3.1422057,-2.8067627,-1.4351575,0
0.09999999999999999,13.854376605789481,5.999999855283063,-5.999999950551941,-3.6311538981426286,11.9435,-0.12666185,-5.46646,-1.4689478,16.032331,-10.829913,2.5373652,0.17916015,-0.3630157,0.35365084,0.8432393,-11.212207,-3.6026175,-0.40038,3.4260578,-3.1439059,-1.5284655,0
0.10999999999999999,13.854376605789481,5.999999855283063,-5.999999950551941,-3.6311538981426286,11.9435,-0.12666185,-5.46646,-1.4689478,15.91985,-10.865387,2.5332396,0.19805442,-0.34855264,0.36274368,0.84125066,-11.282962,-3.4919965,-0.4248418,3.7021403,-3.4650128,-1.62046,0
0.11999999999999998,13.854376605789481,5.999999855283063,-5.999999950551941,-3.6311538981426286,11.9435,-0.12666185,-5.46646,-1.4689478,15.806701,-10.899752,2.5288668,0.21823522,-0.33241948,0.37225464,0.83862823,-11.345557,-3.3806913,-0.4498287,3.9705846,-3.7715,-1.7111087,0
0.12999999999999998,18.166416026440313,5.999999899096787,-5.999999963123969,-3.2243863431555546,13.5232,-0.48526174,-5.871807,-0.6909598,15.692968,-10.933001,2.5242417,0.23961073,-0.31463507,0.3820923,0.8352227,-11.399624,-3.2689242,-0.4752945,4.231556,-4.0646186,-1.8003856,0
0.13999999999999999,18.166416026440313,5.999999899096787,-5.999999963123969,-3.2243863431555546,13.5232,-0.48526174,-5.871807,-0.6909598,15.578671,-10.964969,2.519463,0.26209342,-0.2951253,0.39221504,0.8308884,-11.457984,-3.1243603,-0.48018655,4.5067916,-4.3669677,-1.8702618,0
0.15,18.166416026440313,5.999999899096787,-5.999999963123969,-3.2243863431555546,13.5232,-0.48526174,-5.871807,-0.6909598,15.463845,-10.995476,2.5146432,0.28549728,-0.2739471,0.40250537,0.82549006,-11.505542,-2.9768186,-0.48362407,4.7391467,-4.6221256,-1.936709,0
0.16,20.68742264049427,4.647422249084072,-5.9999951958493725,-1.4900017365779112,15.422095,-0.47777778,-5.081069,0.048468966,15.348601,-11.024496,2.5097954,0.3095942,-0.25130093,0.4127766,0.8189108,-11.541479,-2.8268933,-0.48569775,4.935306,-4.837455,-1.9998957,0
0.17,20.68742264049427,4.647422249084072,-5.9999951958493725,-1.4900017365779112,15.422095,-0.47777778,-5.081069,0.048468966,15.23304,-11.051903,2.5050008,0.3338746,-0.22745363,0.4224853,0.8113562,-11.56842,-2.6543047,-0.47303566,4.890257,-5.018614,-1.9748751,0
0.18000000000000002,20.68742264049427,4.647422249084072,-5.9999951958493725,-1.4900017365779112,15.422095,-0.47777778,-5.081069,0.048468966,15.117281,-11.077579,2.5003395,0.35791814,-0.20264648,0.43121645,0.80304515,-11.580983,-2.480952,-0.45901367,4.85227,-5.171536,-1.9510821,0
0.19000000000000003,20.68742264049427,4.647422249084072,-5.9999951958493725,-1.4900017365779112,15.422095,-0.47777778,-5.081069,0.048468966,15.00147,-11.101522,2.495825,0.38165215,-0.17701289,0.43899658,0.7939082,-11.578968,-2.3080003,-0.44369575,4.8202386,-5.300622,-1.9284568,0
0.20000000000000004,19.64538899226097,3.4226519653181224,-4.631495343034469,-1.0882251174644875,17.180105,-1.2126738,-4.8681374,0.28411856,14.885753,-11.123744,2.4914696,0.4050077,-0.15067206,0.44584915,0.78389114,-11.562288,-2.1366193,-0.42720932,4.793227,-5.4095874,-1.9069417,0
0.21000000000000005,19.64538899226097,3.4226519653181224,-4.631495343034469,-1.0882251174644875,17.180105,-1.2126738,-4.8681374,0.28411856,14.7702675,-11.144307,2.487255,0.42757356,-0.12434135,0.45165434,0.773129,-11.532608,-1.9764535,-0.41556057,4.5797763,-5.2878585,-1.8667669,0
0.22000000000000006,19.64538899226097,3.4226519653181224,-4.631495343034469,-1.0882251174644875,17.180105,-1.2126738,-4.8681374,0.28411856,14.655146,-11.163284,2.4831607,0.4490519,-0.09861073,0.45637116,0.76180947,-11.4896145,-1.8198341,-0.40319976,4.399577,-5.18517,-1.8285636,0
0.23000000000000007,19.64538899226097,3.4226519653181224,-4.631495343034469,-1.0882251174644875,17.180105,-1.2126738,-4.8681374,0.28411856,14.540518,-11.180718,2.4791927,0.46953368,-0.073404014,0.4601203,0.74995947,-11.433967,-1.6676044,-0.39034995,4.24745,-5.098543,-1.792235,0
0.24000000000000007,19.64538899226097,3.4226519653181224,-4.631495343034469,-1.0882251174644875,16.960932,-2.8015969,-3.06408,0.6009475,14.426507,-11.196654,2.4753547,0.4890927,-0.048655786,0.46300045,0.73759836,-11.366305,-1.520525,-0.37722626,4.1190214,-5.025465,-1.757689,0
0.25000000000000006,19.64538899226097,3.4226519653181224,-4.631495343034469,-1.0882251174644875,16.960932,-2.8015969,-3.06408,0.6009475,14.31323,-11.211148,2.4716485,0.50778866,-0.024310788,0.46509236,0.7247404,-11.28726,-1.3792862,-0.36403826,4.0106,-4.9638157,-1.7248383,0
0.26000000000000006,19.64538899226097,3.4226519653181224,-4.631495343034469,-1.0882251174644875,16.960932,-2.8015969,-3.06408,0.6009475,14.200797,-11.224262,2.4680736,0.5256692,-0.00032308558,0.46646202,0.7113963,-11.197449,-1.2445182,-0.3509919,3.919068,-4.911808,-1.6935995,0
0.2700000000000001,19.64538899226097,3.4226519653181224,-4.631495343034469,-1.0882251174644875,16.960932,-2.8015969,-3.06408,0.6009475,14.089315,-11.236064,2.4646273,0.54277277,0.023344822,0.4671636,0.6975748,-11.097485,-1.116798,-0.33829063,3.841795,-4.867934,-1.6638936,0
0.2800000000000001,18.609487623008167,1.9196953503901806,-2.784445834238688,-0.7010484118042646,16.27797,-2.8667667,-1.373396,0.8041707,13.978881,-11.246625,2.4613056,0.55912966,0.04672288,0.46724156,0.6832833,-10.987974,-0.99665564,-0.32613626,3.776559,-4.830921,-1.6356453,0
0.2900000000000001,18.609487623008167,1.9196953503901806,-2.784445834238688,-0.7010484118042646,16.27797,-2.8667667,-1.373396,0.8041707,13.869555,-11.256054,2.458073,0.5744291,0.069016956,0.46674892,0.6688894,-10.875831,-0.89043254,-0.3204958,3.4874578,-4.511362,-1.5897843,0
0.3000000000000001,18.609487623008167,1.9196953503901806,-2.784445834238688,-0.7010484118042646,16.27797,-2.8667667,-1.373396,0.8041707,13.76139,-11.264459,2.4548926,0.5884796,0.089608304,0.46578425,0.65475714,-10.756207,-0.79183304,-0.31568137,3.243366,-4.241705,-1.5461736,0
0.3100000000000001,18.609487623008167,1.9196953503901806,-2.784445834238688,-0.7010484118042646,16.27797,-2.8667667,-1.373396,0.8041707,13.654454,-11.271915,2.451756,0.60145754,0.10875685,0.46443343,0.64087605,-10.630021,-0.700753,-0.31177396,3.037278,-4.0141563,-1.504703,0
0.3200000000000001,17.39590031339612,-0.28147315176433085,-0.6461278527464537,1.0221850489918882,16.546757,-3.5638025,0.8536301,0.5983813,13.54881,-11.2785,2.4486537,0.6135066,0.12668343,0.46276054,0.6272267,-10.49806,-0.61707705,-0.3088315,2.8632782,-3.8221395,-1.4652674,0
0.3300000000000001,17.39590031339612,-0.28147315176433085,-0.6461278527464537,1.0221850489918882,16.546757,-3.5638025,0.8536301,0.5983813,13.444467,-11.2843075,2.4455433,0.62434363,0.14259945,0.46077487,0.6144483,-10.370002,-0.5455978,-0.31339654,2.3735955,-3.3261838,-1.3432075,0
0.34000000000000014,17.39590031339612,-0.28147315176433085,-0.6461278527464537,1.0221850489918882,16.546757,-3.5638025,0.8536301,0.5983813,13.341423,-11.289433,2.4423833,0.6337927,0.15591545,0.4585275,0.60311645,-10.238147,-0.48025882,-0.31874374,1.9601265,-2.907719,-1.2271371,0
0.35000000000000014,17.39590031339612,-0.28147315176433085,-0.6461278527464537,1.0221850489918882,16.546757,-3.5638025,0.8536301,0.5983813,13.239713,-11.293932,2.4391663,0.642093,0.16707058,0.45610365,0.5931047,-10.103319,-0.42036232,-0.32468596,1.6110176,-2.5546288,-1.1167623,0
0.36000000000000015,18.31235682325477,-3.0075538579221313,2.658982392812523,2.2006882035190953,14.3702965,-4.1615686,3.2062736,1.8121847,13.139363,-11.297856,2.4358878,0.6494332,0.17643322,0.4535599,0.58428663,-9.96617,-0.36528188,-0.33104607,1.3162568,-2.2566938,-1.0118035,0
0.37000000000000016,18.31235682325477,-3.0075538579221313,2.658982392812523,2.2006882035190953,14.3702965,-4.1615686,3.2062736,1.8121847,13.040431,-11.301239,2.4325686,0.65548277,0.18290004,0.45114106,0.57737446,-9.819956,-0.31166318,-0.33281544,0.6426237,-1.4895831,-0.8541656,0
0.38000000000000017,18.31235682325477,-3.0075538579221313,2.658982392812523,2.2006882035190953,14.3702965,-4.1615686,3.2062736,1.8121847,12.942967,-11.304101,2.429232,0.66000366,0.18562864,0.44906288,0.57295674,-9.672723,-0.26107767,-0.33449328,0.07382643,-0.84229,-0.7042631,0
0.3900000000000002,18.31235682325477,-3.0075538579221313,2.658982392812523,2.2006882035190953,14.3702965,-4.1615686,3.2062736,1.8121847,12.846978,-11.306466,2.4258804,0.6632313,0.18524626,0.44729844,0.5707293,-9.525223,-0.21213004,-0.335732,-0.4064324,-0.2960836,-0.5617164,0
0.4000000000000002,20.61082725065089,-4.791693652190349,5.109803295920726,2.4228987506140496,16.973606,-4.6587877,4.7766128,0.9866835,12.752461,-11.308345,2.4225202,0.66533643,0.1822726,0.44580242,0.5704069,-9.378059,-0.16362591,-0.3362383,-0.81191933,0.1648356,-0.42616445,0
0.4100000000000002,20.61082725065089,-4.791693652190349,5.109803295920726,2.4228987506140496,16.973606,-4.6587877,4.7766128,0.9866835,12.659505,-11.309706,2.4192212,0.6661174,0.1761155,0.44476056,0.5722401,-9.213413,-0.108290635,-0.3233892,-1.4324301,0.9360453,-0.28636009,0
0.4200000000000002,20.61082725065089,-4.791693652190349,5.109803295920726,2.4228987506140496,16.973606,-4.6587877,4.7766128,0.9866835,12.568186,-11.310502,2.4160573,0.665381,0.16631676,0.4442928,0.57637703,-9.050541,-0.050583646,-0.30914128,-1.9563183,1.5868711,-0.15341595,0
0.4300000000000002,20.61082725065089,-4.791693652190349,5.109803295920726,2.4228987506140496,16.973606,-4.6587877,4.7766128,0.9866835,12.478484,-11.310703,2.4130437,0.6632351,0.15345082,0.44424853,0.5824216,-8.890259,0.01104809,-0.29327166,-2.3986118,2.1361187,-0.026995448,0
0.4400000000000002,20.61082725065089,-4.791693652190349,5.109803295920726,2.4228987506140496,17.771484,-4.663544,5.169839,0.6763884,12.390369,-11.310263,2.4101977,0.65974927,0.13799883,0.44448555,0.5900166,-8.733346,0.07787661,-0.27566084,-2.772005,2.5996537,0.093221575,0
0.45000000000000023,20.61082725065089,-4.791693652190349,5.109803295920726,2.4228987506140496,17.771484,-4.663544,5.169839,0.6763884,12.303804,-11.309124,2.4075365,0.6549693,0.120367035,0.44487464,0.5988434,-8.580574,0.1509218,-0.25628653,-3.0872192,2.9908624,0.2075395,0
0.46000000000000024,20.61082725065089,-4.791693652190349,5.109803295920726,2.4228987506140496,17.771484,-4.663544,5.169839,0.6763884,12.218741,-11.30722,2.4050777,0.6489272,0.100900926,0.44530147,0.60862046,-8.432712,0.23097646,-0.23521468,-3.3533096,3.3210375,0.3162478,0
0.47000000000000025,20.61082725065089,-4.791693652190349,5.109803295920726,2.4228987506140496,17.771484,-4.663544,5.169839,0.6763884,12.13513,-11.304479,2.4028375,0.641648,0.07989651,0.445667,0.6191002,-8.290531,0.31862813,-0.21258916,-3.5779238,3.599708,0.41962174,0
0.48000000000000026,20.46554823905295,-5.09156423929846,5.547608618113227,2.237195000835672,17.982811,-5.4693575,5.0590296,0.70468557,12.052908,-11.300819,2.4008307,0.63315314,0.057609066,0.44588682,0.63006586,-8.154802,0.41427806,-0.18862136,-3.7675197,3.8349142,0.5179231,0
0.49000000000000027,20.46554823905295,-5.09156423929846,5.547608618113227,2.237195000835672,17.982811,-5.4693575,5.0590296,0.70468557,11.972003,-11.296166,2.3990648,0.62340367,0.034063004,0.44592386,0.6413729,-8.027205,0.5174414,-0.16444904,-3.974318,4.10172,0.6022883,0
0.5000000000000002,20.46554823905295,-5.09156423929846,5.547608618113227,2.237195000835672,17.982811,-5.4693575,5.0590296,0.70468557,11.892336,-11.290441,2.3975444,0.6123628,0.009292847,0.4457351,0.65287465,-7.90761,0.6289672,-0.13953839,-4.148866,4.3269205,0.68251365,0
0.5100000000000002,20.46554823905295,-5.09156423929846,5.547608618113227,2.237195000835672,17.982811,-5.4693575,5.0590296,0.70468557,11.813821,-11.283558,2.3962753,0.60005635,-0.01647878,0.44524813,0.6643904,-7.796841,0.7488919,-0.11426863,-4.296188,4.517008,0.7588023,0
0.5200000000000002,19.02104971101583,-4.469301856048771,4.796894927465148,1.941053471041148,17.05341,-5.4710937,5.2729597,0.9350027,11.736365,-11.2754345,2.3952587,0.5865119,-0.043055605,0.44440353,0.67576265,-7.695694,0.87709147,-0.08906038,-4.4205265,4.6774592,0.83134747,0
0.5300000000000002,19.02104971101583,-4.469301856048771,4.796894927465148,1.941053471041148,17.05341,-5.4710937,5.2729597,0.9350027,11.659838,-11.266035,2.3944488,0.57193553,-0.069931485,0.4431501,0.68674374,-7.6113014,1.0036625,-0.07302923,-4.42831,4.695924,0.8858011,0
0.5400000000000003,19.02104971101583,-4.469301856048771,4.796894927465148,1.941053471041148,17.05341,-5.4710937,5.2729597,0.9350027,11.584104,-11.255337,2.3937953,0.55653,-0.09669425,0.44146907,0.697158,-7.5369964,1.1371601,-0.057880193,-4.4348702,4.711517,0.93758255,0
0.5500000000000003,19.02104971101583,-4.469301856048771,4.796894927465148,1.941053471041148,17.05341,-5.4710937,5.2729597,0.9350027,11.509061,-11.243271,2.393287,0.54031926,-0.123309,0.43935964,0.7069743,-7.4731526,1.2769978,-0.044008877,-4.4403996,4.7246857,0.9868232,0
0.5600000000000003,16.33507140342191,-3.2349443791922003,3.1640952091182117,1.5840204012398231,16.436745,-4.892374,5.330432,1.2538074,11.434604,-11.229776,2.3929093,0.5233281,-0.14974223,0.43682215,0.71616405,-7.420101,1.4225518,-0.03180133,-4.445059,4.735808,1.0336477,0
0.5700000000000003,16.33507140342191,-3.2349443791922003,3.1640952091182117,1.5840204012398231,16.436745,-4.892374,5.330432,1.2538074,11.360591,-11.214908,2.3925674,0.50598586,-0.17525832,0.43387622,0.7245784,-7.3840027,1.5518713,-0.03690492,-4.256256,4.490752,1.0606546,0
0.5800000000000003,16.33507140342191,-3.2349443791922003,3.1640952091182117,1.5840204012398231,16.436745,-4.892374,5.330432,1.2538074,11.286892,-11.198727,2.392165,0.48868927,-0.19928853,0.4305832,0.7321643,-7.3572216,1.6847796,-0.043934226,-4.096912,4.283902,1.0863364,0
0.5900000000000003,16.33507140342191,-3.2349443791922003,3.1640952091182117,1.5840204012398231,16.436745,-4.892374,5.330432,1.2538074,11.213414,-11.181202,2.3916817,0.4714118,-0.22202906,0.4269946,0.73901916,-7.339509,1.8205692,-0.053018466,-3.9624305,4.1093006,1.1107578,0
0.6000000000000003,14.440134105817668,-1.5935255497980092,1.3113195269914504,1.2427045784740554,15.765886,-4.317576,2.9238365,0.58699656,11.14007,-11.162308,2.3910968,0.45412695,-0.24364582,0.42314884,0.7452182,-7.330631,1.9586068,-0.064264596,-3.848933,3.96192,1.1339809,0
0.6100000000000003,14.440134105817668,-1.5935255497980092,1.3113195269914504,1.2427045784740554,15.765886,-4.317576,2.9238365,0.58699656,11.0667715,-11.142106,2.3903394,0.43732664,-0.26345256,0.41923046,0.7507221,-7.3303375,2.082102,-0.08755799,-3.4969108,3.5488079,1.1393158,0
0.6200000000000003,14.440134105817668,-1.5935255497980092,1.3113195269914504,1.2427045784740554,15.765886,-4.317576,2.9238365,0.58699656,10.99344,-11.120664,2.3893394,0.42144185,-0.2809409,0.41542697,0.75556546,-7.3370194,2.2065556,-0.11275643,-3.199831,3.2000823,1.1443893,0
0.6300000000000003,14.440134105817668,-1.5935255497980092,1.3113195269914504,1.2427045784740554,15.765886,-4.317576,2.9238365,0.58699656,10.920009,-11.097974,2.3880785,0.40635726,-0.29647735,0.41175848,0.759888,-7.350052,2.3315425,-0.13974321,-2.9491189,2.905708,1.1492136,0
0.6400000000000003,14.440134105817668,-1.5935255497980092,1.3113195269914504,1.2427045784740554,15.070585,-4.228148,1.5270368,0.20737697,10.846418,-11.074033,2.3865392,0.3919653,-0.3103691,0.4082314,0.7637939,-7.3688946,2.4567294,-0.16840088,-2.7375371,2.6572144,1.1538012,0
0.6500000000000004,14.440134105817668,-1.5935255497980092,1.3113195269914504,1.2427045784740554,15.070585,-4.228148,1.5270368,0.20737697,10.772614,-11.0488405,2.3847053,0.3781683,-0.32287347,0.4048432,0.76736116,-7.3930836,2.5818539,-0.19861674,-2.5589788,2.4474497,1.1581638,0
0.6600000000000004,14.440134105817668,-1.5935255497980092,1.3113195269914504,1.2427045784740554,15.070585,-4.228148,1.5270368,0.20737697,10.698541,-11.022397,2.3825617,0.36487886,-0.33420575,0.4015858,0.7706481,-7.42222,2.7067049,-0.23028582,-2.4082897,2.2703779,1.1623123,0
0.6700000000000004,14.440134105817668,-1.5935255497980092,1.3113195269914504,1.2427045784740554,15.070585,-4.228148,1.5270368,0.20737697,10.624153,-10.994708,2.3800948,0.3520198,-0.3445461,0.39844778,0.7736984,-7.4559627,2.831111,-0.26331228,-2.28112,2.1209035,1.1662571,0
0.6800000000000004,14.620296477437762,-0.0849299816945553,-0.37062391961336555,0.8548861858387896,12.812077,-3.145276,0.498741,-0.0039199395,10.549406,-10.965777,2.3772914,0.33952352,-0.35404536,0.39541617,0.7765446,-7.4940176,2.9549305,-0.29760978,-2.1737988,1.9947251,1.1700084,0
0.6900000000000004,14.620296477437762,-0.0849299816945553,-0.37062391961336555,0.8548861858387896,12.812077,-3.145276,0.498741,-0.0039199395,10.474256,-10.935604,2.3741426,0.32785267,-0.36212596,0.39270756,0.7792034,-7.5366035,3.0795882,-0.33229873,-1.8477434,1.6261173,1.1545453,0
0.7000000000000004,14.620296477437762,-0.0849299816945553,-0.37062391961336555,0.8548861858387896,12.812077,-3.145276,0.498741,-0.0039199395,10.398663,-10.904188,2.370642,0.3173879,-0.36835536,0.39051017,0.7817166,-7.5826697,3.2034996,-0.3679629,-1.5725869,1.3149486,1.1398408,0
0.7100000000000004,14.620296477437762,-0.0849299816945553,-0.37062391961336555,0.8548861858387896,12.812077,-3.145276,0.498741,-0.0039199395,10.322594,-10.871537,2.3667808,0.30796003,-0.37304077,0.38876656,0.7841311,-7.631627,3.3266757,-0.40437368,-1.340383,1.0522691,1.1258581,0
0.7200000000000004,14.893213409583897,1.181349370505514,-1.9078445438144038,0.5253298448294015,12.204619,-1.829657,-1.1213263,-0.5569097,10.246023,-10.837657,2.3625526,0.29942122,-0.37643677,0.38742152,0.7864774,-7.68298,3.4491484,-0.44133338,-1.1444259,0.8305234,1.1125613,0
0.7300000000000004,14.893213409583897,1.181349370505514,-1.9078445438144038,0.5253298448294015,12.204619,-1.829657,-1.1213263,-0.5569097,10.168923,-10.802546,2.3579583,0.29210567,-0.3781373,0.38662615,0.7888006,-7.737262,3.573247,-0.47751787,-0.78140545,0.40375426,1.0837457,0
0.7400000000000004,14.893213409583897,1.181349370505514,-1.9078445438144038,0.5253298448294015,12.204619,-1.829657,-1.1213263,-0.5569097,10.091273,-10.766193,2.3530016,0.2862765,-0.37783656,0.38650113,0.7911396,-7.7928457,3.6968105,-0.51378614,-0.47505966,0.043486662,1.0563442,0
0.7500000000000004,14.893213409583897,1.181349370505514,-1.9078445438144038,0.5253298448294015,12.204619,-1.829657,-1.1213263,-0.5569097,10.013063,-10.728609,2.347683,0.28171593,-0.3758597,0.38695207,0.79349446,-7.849076,3.8199854,-0.5498628,-0.21653846,-0.2606408,1.030287,0
0.7600000000000005,15.557645998163991,2.025311205667208,-3.121833550514872,0.1998523497781791,11.788561,-1.053289,-0.71652764,-0.6462039,9.934292,-10.689795,2.3420055,0.27823603,-0.3724755,0.38789272,0.7958553,-7.905397,3.9429078,-0.58552223,0.0016254634,-0.5173749,1.0055085,0
0.7700000000000005,15.557645998163991,2.025311205667208,-3.121833550514872,0.1998523497781791,11.788561,-1.053289,-0.71652764,-0.6462039,9.854945,-10.649725,2.3359885,0.27602088,-0.36744153,0.38936475,0.79824436,-7.9637976,4.071183,-0.61775273,0.3174607,-0.9233398,0.9659748,0
0.7800000000000005,15.557645998163991,2.025311205667208,-3.121833550514872,0.1998523497781791,11.788561,-1.053289,-0.71652764,-0.6462039,9.77502,-10.608372,2.3296535,0.27520734,-0.36057335,0.39139104,0.80066264,-8.021103,4.199483,-0.64907736,0.5839839,-1.26604,0.9283809,0
0.7900000000000005,15.557645998163991,2.025311205667208,-3.121833550514872,0.1998523497781791,11.788561,-1.053289,-0.71652764,-0.6462039,9.69453,-10.565735,2.323011,0.27558023,-0.352152,0.39387107,0.8030628,-8.076674,4.327945,-0.67925954,0.80889714,-1.5553327,0.8926318,0
0.8000000000000005,16.542713876807785,2.2624579718231983,-3.743031669674588,-0.13282697144023012,12.816085,-0.15977795,-0.20482054,-1.0131749,9.613494,-10.5218115,2.316073,0.27695498,-0.34241155,0.3967154,0.8053986,-8.129957,4.4566717,-0.7081223,0.9986985,-1.7995394,0.858637,0
0.8100000000000005,16.542713876807785,2.2624579718231983,-3.743031669674588,-0.13282697144023012,12.816085,-0.15977795,-0.20482054,-1.0131749,9.531923,-10.476558,2.308876,0.27933717,-0.33133692,0.39983845,0.8076606,-8.183654,4.5938997,-0.73105377,1.1958842,-2.1025531,0.8099856,0
0.8200000000000005,16.542713876807785,2.2624579718231983,-3.743031669674588,-0.13282697144023012,12.816085,-0.15977795,-0.20482054,-1.0131749,9.449833,-10.429931,2.3014581,0.28272343,-0.3189243,0.40316093,0.80982447,-8.233836,4.731512,-0.7522815,1.3622799,-2.3583379,0.76372147,0
0.8300000000000005,16.542713876807785,2.2624579718231983,-3.743031669674588,-0.13282697144023012,12.816085,-0.15977795,-0.20482054,-1.0131749,9.367261,-10.381926,2.2938366,0.28695437,-0.30536994,0.406618,0.81183,-8.279989,4.869502,-0.77168524,1.5026962,-2.574253,0.7197275,0
0.8400000000000005,16.542713876807785,2.2624579718231983,-3.743031669674588,-0.13282697144023012,12.713706,0.4518265,-0.45218197,-1.0924429,9.284248,-10.33254,2.2860305,0.29189327,-0.29083967,0.41015336,0.8136244,-8.321661,5.0078254,-0.789198,1.6211914,-2.7565122,0.6778924,0
0.8500000000000005,16.542713876807785,2.2624579718231983,-3.743031669674588,-0.13282697144023012,12.713706,0.4518265,-0.45218197,-1.0924429,9.200845,-10.281768,2.278059,0.2974227,-0.27547443,0.4137187,0.8151627,-8.358457,5.146403,-0.8047984,1.7211893,-2.9103596,0.63811016,0
0.8600000000000005,16.542713876807785,2.2624579718231983,-3.743031669674588,-0.13282697144023012,12.713706,0.4518265,-0.45218197,-1.0924429,9.117099,-10.229611,2.2699409,0.30344188,-0.25939453,0.41727272,0.81640726,-8.390035,5.2851253,-0.81850374,1.805579,-3.0402236,0.60028005,0
0.8700000000000006,16.542713876807785,2.2624579718231983,-3.743031669674588,-0.13282697144023012,12.713706,0.4518265,-0.45218197,-1.0924429,9.033065,-10.176066,2.2616954,0.30986416,-0.24270293,0.42078048,0.81732684,-8.416097,5.423858,-0.83036405,1.876798,-3.149842,0.56430626,0
0.8800000000000006,16.63249989135616,1.8708404862961021,-3.807145865481433,-0.3249904285018374,12.561995,0.5569832,-0.39386144,-1.1254716,8.948797,-10.121135,2.25334,0.31661502,-0.22548822,0.42421252,0.8178959,-8.436388,5.5624447,-0.8404573,1.9369034,-3.2423708,0.5300978,0
0.8900000000000006,16.63249989135616,1.8708404862961021,-3.807145865481433,-0.3249904285018374,12.561995,0.5569832,-0.39386144,-1.1254716,8.864357,-10.0648155,2.2448945,0.32362634,-0.20786601,0.42740282,0.81815916,-8.450777,5.701455,-0.84839034,1.9265403,-3.3305035,0.48813838,0
0.9000000000000006,16.63249989135616,1.8708404862961021,-3.807145865481433,-0.3249904285018374,12.561995,0.5569832,-0.39386144,-1.1254716,8.779803,-10.007109,2.2363777,0.33084667,-0.18993692,0.43021983,0.81815356,-8.459016,5.8399086,-0.8547103,1.9177891,-3.4048884,0.4482379,0
0.9100000000000006,16.63249989135616,1.8708404862961021,-3.807145865481433,-0.3249904285018374,12.561995,0.5569832,-0.39386144,-1.1254716,8.695198,-9.94802,2.2278056,0.33823776,-0.17175151,0.43268746,0.8178497,-8.461003,5.9775624,-0.85949326,1.9104002,-3.4676697,0.4102954,0
0.9200000000000006,16.917502324597677,0.9540454904928265,-3.353982002126744,-0.44322119914538916,12.4847975,0.20038693,-0.19887653,-1.0336894,8.610604,-9.887561,2.2191927,0.34576526,-0.15335351,0.43482652,0.81722385,-8.456662,6.114174,-0.8628355,1.9041623,-3.5206575,0.3742147,0
0.9300000000000006,16.917502324597677,0.9540454904928265,-3.353982002126744,-0.44322119914538916,12.4847975,0.20038693,-0.19887653,-1.0336894,8.526087,-9.825729,2.2105618,0.35327896,-0.13506368,0.4364184,0.8163887,-8.445782,6.251815,-0.86319417,1.7558945,-3.494747,0.33410287,0
0.9400000000000006,16.917502324597677,0.9540454904928265,-3.353982002126744,-0.44322119914538916,12.4847975,0.20038693,-0.19887653,-1.0336894,8.44171,-9.762529,2.2019334,0.3606716,-0.11714518,0.43730092,0.81545115,-8.428589,6.3878746,-0.8622543,1.6307558,-3.4728625,0.29595938,0
0.9500000000000006,16.917502324597677,0.9540454904928265,-3.353982002126744,-0.44322119914538916,12.4847975,0.20038693,-0.19887653,-1.0336894,8.357536,-9.697977,2.193321,0.36797062,-0.09955415,0.43756658,0.8143843,-8.40528,6.5220985,-0.86006695,1.5251377,-3.4543798,0.25968757,0
0.9600000000000006,16.770512114731087,-0.2542041481745862,-2.579899413291064,-0.3944382696713126,14.26416,-0.3699525,0.30191192,-0.8224791,8.273624,-9.632093,2.184736,0.375196,-0.08225271,0.4372934,0.8131646,-8.376034,6.654252,-0.85669243,1.4359963,-3.43877,0.22519565,0
0.9700000000000006,16.770512114731087,-0.2542041481745862,-2.579899413291064,-0.3944382696713126,14.26416,-0.3699525,0.30191192,-0.8224791,8.190033,-9.564906,2.1761863,0.38218683,-0.065640315,0.43627435,0.8119661,-8.341353,6.78299,-0.85307807,1.1723251,-3.3048918,0.19479002,0
0.9800000000000006,16.770512114731087,-0.2542041481745862,-2.579899413291064,-0.3944382696713126,14.26416,-0.3699525,0.30191192,-0.8224791,8.106815,-9.496443,2.1676784,0.388831,-0.05003551,0.43436104,0.8109483,-8.3014,6.909273,-0.84832495,0.9497838,-3.191876,0.16587642,0
0.9900000000000007,16.770512114731087,-0.2542041481745862,-2.579899413291064,-0.3944382696713126,14.26416,-0.3699525,0.30191192,-0.8224791,8.024021,-9.426729,2.1592238,0.39520365,-0.035297338,0.4316916,0.81006813,-8.256611,7.0329432,-0.84239453,0.76195663,-3.0964725,0.13838163,0
1.0000000000000007,16.50481244428904,-1.5033691757190926,-1.5013843095012733,-0.2271054462999835,14.593658,-0.69089085,0.3640419,-0.57231677,7.9416976,-9.355794,2.1508348,0.40136373,-0.021304756,0.42838064,0.8092856,-8.207358,7.1538653,-0.8352573,0.60342824,-3.015938,0.112236015,0
1.0100000000000007,16.50481244428904,-1.5033691757190926,-1.5013843095012733,-0.2271054462999835,14.593658,-0.69089085,0.3640419,-0.57231677,7.859884,-9.283672,2.1425147,0.4071497,-0.008496058,0.424296,0.8087829,-8.154858,7.270062,-0.82856685,0.27482685,-2.7797716,0.09558442,0
1.0200000000000007,16.50481244428904,-1.5033691757190926,-1.5013843095012733,-0.2271054462999835,14.593658,-0.69089085,0.3640419,-0.57231677,7.7786126,-9.2104025,2.1342683,0.41244692,0.0027861872,0.4193468,0.8087199,-8.098903,7.3834114,-0.8205531,-0.002520986,-2.5804253,0.07974994,0
1.0300000000000007,16.50481244428904,-1.5033691757190926,-1.5013843095012733,-0.2271054462999835,14.593658,-0.69089085,0.3640419,-0.57231677,7.697916,-9.136013,2.126109,0.41735598,0.012768103,0.41367397,0.80902696,-8.040068,7.49391,-0.81109774,-0.23660995,-2.4121592,0.06469246,0
1.0400000000000007,16.50481244428904,-1.5033691757190926,-1.5013843095012733,-0.2271054462999835,15.345899,-1.5618423,0.5113829,-0.3670605,7.6178193,-9.0605345,2.1180515,0.421956,0.021642383,0.4073928,0.8096392,-7.978838,7.601556,-0.8000976,-0.43418756,-2.2701287,0.05037385,0
1.0500000000000007,16.50481244428904,-1.5033691757190926,-1.5013843095012733,-0.2271054462999835,15.345899,-1.5618423,0.5113829,-0.3670605,7.5383453,-8.983992,2.1101122,0.42630917,0.029573046,0.4005983,0.8104978,-7.915624,7.706352,-0.7874658,-0.600949,-2.1502435,0.036757864,0
1.0600000000000007,16.50481244428904,-1.5033691757190926,-1.5013843095012733,-0.2271054462999835,15.345899,-1.5618423,0.5113829,-0.3670605,7.4595118,-8.906416,2.1023078,0.43046436,0.036699586,0.39336902,0.81155044,-7.8507752,7.808299,-0.773132,-0.74170077,-2.0490515,0.023810022,0
1.0700000000000007,16.50481244428904,-1.5033691757190926,-1.5013843095012733,-0.2271054462999835,15.345899,-1.5618423,0.5113829,-0.3670605,7.3813343,-8.827835,2.0946555,0.43446,0.043140583,0.38577017,0.8127512,-7.7845893,7.9073935,-0.75704116,-0.8604997,-1.963638,0.011497526,0
1.0800000000000007,16.401619445838598,-2.375290532885769,-0.5099029856879653,-0.01223183676581788,15.592835,-2.3551672,1.1488439,-0.4144406,7.303824,-8.748278,2.087173,0.43832636,0.048996806,0.37785608,0.8140601,-7.7173214,8.003631,-0.7391526,-0.9607697,-1.891543,-0.00021080207,0
1.0900000000000007,16.401619445838598,-2.375290532885769,-0.5099029856879653,-0.01223183676581788,15.592835,-2.3551672,1.1488439,-0.4144406,7.2269883,-8.667775,2.079875,0.44193462,0.053887375,0.3695614,0.81560653,-7.6496525,8.096431,-0.7201659,-1.1813642,-1.6760767,-0.00080068747,0
1.1000000000000008,16.401619445838598,-2.375290532885769,-0.5099029856879653,-0.01223183676581788,15.592835,-2.3551672,1.1488439,-0.4144406,7.150832,-8.586358,2.072776,0.44518656,0.05751458,0.3608382,0.81749403,-7.58158,8.186474,-0.6992756,-1.3675568,-1.4942119,-0.0013616228,0
1.1100000000000008,16.401619445838598,-2.375290532885769,-0.5099029856879653,-0.01223183676581788,15.592835,-2.3551672,1.1488439,-0.4144406,7.075357,-8.504055,2.065896,0.44814205,0.060069874,0.35175025,0.8196535,-7.5135307,8.273851,-0.67640066,-1.5247126,-1.3407089,-0.0018950272,0
1.1200000000000008,16.32366359769462,-2.9966426045770347,0.48712151448003527,0.20527414908988528,16.149134,-2.9826803,1.7234756,-0.100438334,7.0005608,-8.420891,2.059255,0.4508482,0.061715465,0.34235004,0.82202387,-7.4458675,8.358634,-0.6514802,-1.6573598,-1.2111444,-0.002402255,0
1.1300000000000008,16.32366359769462,-2.9966426045770347,0.48712151448003527,0.20527414908988528,16.149134,-2.9826803,1.7234756,-0.100438334,6.926436,-8.336893,2.0528703,0.45320025,0.06215734,0.33265495,0.8246735,-7.379248,8.440501,-0.6250617,-1.8662136,-0.94631284,0.007788486,0
1.1400000000000008,16.32366359769462,-2.9966426045770347,0.48712151448003527,0.20527414908988528,16.149134,-2.9826803,1.7234756,-0.100438334,6.852972,-8.252089,2.0467608,0.45511565,0.061169114,0.32268003,0.82765055,-7.3138146,8.520006,-0.5965019,-2.0425,-0.72278327,0.01747916,0
1.1500000000000008,16.32366359769462,-2.9966426045770347,0.48712151448003527,0.20527414908988528,16.149134,-2.9826803,1.7234756,-0.100438334,6.7801547,-8.166501,2.0409477,0.45665592,0.05896907,0.31246108,0.83087647,-7.2500224,8.597298,-0.5657546,-2.191297,-0.534114,0.026694307,0
1.1600000000000008,16.14002489009126,-3.2571499484948356,1.184070395339868,0.4204871054595554,14.658815,-2.9934497,2.0575042,0.42282,6.7079654,-8.080151,2.0354533,0.4578697,0.055742074,0.30202737,0.8342824,-7.1882606,8.672495,-0.53279704,-2.3168907,-0.3748684,0.03545727,0
1.1700000000000008,16.14002489009126,-3.2571499484948356,1.184070395339868,0.4204871054595554,14.658815,-2.9934497,2.0575042,0.42282,6.636379,-7.9930625,2.0302918,0.45869547,0.05137196,0.2914422,0.8378666,-7.129552,8.744875,-0.4991273,-2.4635274,-0.13178636,0.054350805,0
1.1800000000000008,16.14002489009126,-3.2571499484948356,1.184070395339868,0.4204871054595554,14.658815,-2.9934497,2.0575042,0.42282,6.5653653,-7.9052596,2.0254781,0.45908263,0.045774817,0.28075564,0.8416197,-7.0736027,8.815435,-0.463288,-2.5873003,0.073386185,0.07231721,0
1.1900000000000008,16.14002489009126,-3.2571499484948356,1.184070395339868,0.4204871054595554,14.658815,-2.9934497,2.0575042,0.42282,6.494896,-7.816759,2.0210335,0.45908,0.0391391,0.26997215,0.84547514,-7.020793,8.8843155,-0.42531672,-2.6917737,0.24656194,0.08940199,0
1.2000000000000008,16.042608811895217,-3.135298857036856,1.5990524486752717,0.5771447316040917,15.079153,-2.4591765,1.453601,0.66867924,6.4249377,-7.7275777,2.016979,0.45872664,0.03162475,0.25909555,0.8493755,-6.9714513,8.951619,-0.3852712,-2.7799566,0.39273125,0.10564843,1
1.2100000000000009,16.042608811895217,-3.135298857036856,1.5990524486752717,0.5771447316040917,15.079153,-2.4591765,1.453601,0.66867924,6.3554387,-7.6377525,2.0132887,0.4579924,0.023430271,0.24845017,0.8532092,-6.928847,9.013111,-0.35245046,-2.729952,0.5581273,0.1332765,1
1.2200000000000009,16.042608811895217,-3.135298857036856,1.5990524486752717,0.5771447316040917,15.079153,-2.4591765,1.453601,0.66867924,6.2863483,-7.5473194,2.0099356,0.4568593,0.014721035,0.23829791,0.85689926,-6.889884,9.073365,-0.3179309,-2.687749,0.69773364,0.15954885,1
1.2300000000000009,16.042608811895217,-3.135298857036856,1.5990524486752717,0.5771447316040917,15.079153,-2.4591765,1.453601,0.66867924,6.217629,-7.4562893,2.0069354,0.45537186,0.00557799,0.22855735,0.8604454,-6.8546658,9.132532,-0.2818828,-2.6521287,0.8155712,0.184532,1
1.2400000000000009,16.042608811895217,-3.135298857036856,1.5990524486752717,0.5771447316040917,15.097336,-2.2761233,1.0235323,0.84091914,6.1492424,-7.364672,2.0043027,0.4535666,-0.0039299885,0.2191597,0.86384624,-6.82328,9.190728,-0.24446556,-2.6220639,0.9150345,0.20828925,1
1.2500000000000009,16.042608811895217,-3.135298857036856,1.5990524486752717,0.5771447316040917,15.097336,-2.2761233,1.0235323,0.84091914,6.0811505,-7.2724776,2.0020514,0.45149326,-0.013557588,0.21003278,0.8670961,-6.795758,9.248106,-0.20566459,-2.5681357,0.9319099,0.23933259,1
1.260000000000001,16.042608811895217,-3.135298857036856,1.5990524486752717,0.5771447316040917,15.097336,-2.2761233,1.0235323,0.84091914,6.013314,-7.1797137,2.0001934,0.44919068,-0.023106132,0.20111848,0.870198,-6.7721305,9.304622,-0.16578153,-2.522617,0.9461568,0.2688526,1
1.270000000000001,16.042608811895217,-3.135298857036856,1.5990524486752717,0.5771447316040917,15.097336,-2.2761233,1.0235323,0.84091914,5.945694,-7.086388,1.998739,0.44667208,-0.03258445,0.19238225,0.8731614,-6.75237,9.360277,-0.12494399,-2.4841962,0.95818466,0.29692405,1
1.280000000000001,15.530130064685768,-2.7508491118338108,1.4539965021211958,0.6321524656178454,15.678925,-2.3465972,0.23164567,1.1797947,5.878253,-6.992511,1.9976974,0.44394884,-0.04199994,0.18379495,0.8759934,-6.7364507,9.415066,-0.08327154,-2.4517663,0.96833926,0.32361802,0
1.290000000000001,15.530130064685768,-2.7508491118338108,1.4539965021211958,0.6321524656178454,15.678925,-2.3465972,0.23164567,1.1797947,5.810954,-6.898082,1.9970963,0.44101283,-0.05159858,0.17524023,0.87871253,-6.724022,9.470526,-0.03684901,-2.4984343,1.0440428,0.33875793,0
1.300000000000001,15.530130064685768,-2.7508491118338108,1.4539965021211958,0.6321524656178454,15.678925,-2.3465972,0.23164567,1.1797947,5.743759,-6.803103,1.9969627,0.43785778,-0.061575297,0.16662173,0.88132054,-6.7156353,9.525082,0.010207512,-2.5378225,1.1079423,0.35315487,0
1.310000000000001,15.530130064685768,-2.7508491118338108,1.4539965021211958,0.6321524656178454,15.678925,-2.3465972,0.23164567,1.1797947,5.676627,-6.7075834,1.9973023,0.43449545,-0.071866676,0.15794416,0.8837998,-6.7114053,9.578721,0.057785306,-2.5710666,1.1618787,0.36684534,0
1.320000000000001,14.973469033601145,-2.434280915313945,0.8930636200587099,0.6662906209021754,15.977125,-2.2913432,-0.9770319,1.8721,5.609516,-6.611532,1.9981197,0.43093604,-0.08241864,0.14921214,0.88613576,-6.711425,9.63142,0.10576635,-2.599125,1.2074053,0.37986404,0
1.330000000000001,14.973469033601145,-2.434280915313945,0.8930636200587099,0.6662906209021754,15.977125,-2.2913432,-0.9770319,1.8721,5.5423846,-6.5149684,1.9993923,0.42722934,-0.09293113,0.14044671,0.88832045,-6.715598,9.681293,0.14878485,-2.573416,1.1583668,0.39391905,0
1.340000000000001,14.973469033601145,-2.434280915313945,0.8930636200587099,0.6662906209021754,15.977125,-2.2913432,-0.9770319,1.8721,5.47519,-6.41791,2.0010958,0.4234177,-0.10316423,0.13166776,0.89035827,-6.7238784,9.730151,0.1919763,-2.551717,1.1169761,0.4072844,0
1.350000000000001,14.973469033601145,-2.434280915313945,0.8930636200587099,0.6662906209021754,15.977125,-2.2913432,-0.9770319,1.8721,5.4078927,-6.320369,2.003232,0.41949943,-0.11315654,0.12287764,0.89225364,-6.7361903,9.777917,0.23524764,-2.5334027,1.0820409,0.4199939,0
1.360000000000001,13.904349135271634,-2.024201845162523,-0.1394499306192302,0.6248791036772626,14.63241,-2.454798,-1.3333852,1.6026,5.340452,-6.2223554,2.0058007,0.41547373,-0.122940555,0.114078395,0.89400953,-6.752465,9.824517,0.27850783,-2.517945,1.0525545,0.43207973,0
1.370000000000001,13.904349135271634,-2.024201845162523,-0.1394499306192302,0.6248791036772626,14.63241,-2.454798,-1.3333852,1.6026,5.2728367,-6.123899,2.0087514,0.41141263,-0.1321069,0.10524726,0.8956619,-6.7711735,9.866631,0.31158853,-2.4408994,0.8666686,0.44154045,0
1.380000000000001,13.904349135271634,-2.024201845162523,-0.1394499306192302,0.6248791036772626,14.63241,-2.454798,-1.3333852,1.6026,5.205017,-6.0250273,2.0120323,0.40737593,-0.14033395,0.0963695,0.8972536,-6.793267,9.907451,0.3445524,-2.3758748,0.70976985,0.45053697,0
1.390000000000001,13.904349135271634,-2.024201845162523,-0.1394499306192302,0.6248791036772626,14.63241,-2.454798,-1.3333852,1.6026,5.136961,-5.9257545,2.015642,0.4033467,-0.14776509,0.08745679,0.89879256,-6.8185143,9.946837,0.37738547,-2.320996,0.5773377,0.459092,0
1.400000000000001,12.765042179938842,-1.5977657243317849,-1.3333806222434283,0.5239658154572302,14.582735,-2.099725,-1.3174692,1.2161347,5.068638,-5.826096,2.0195794,0.39931068,-0.1545213,0.07851833,0.9002827,-6.846717,9.984673,0.41007307,-2.2746804,0.46555692,0.4672272,0
1.410000000000001,12.765042179938842,-1.5977657243317849,-1.3333806222434283,0.5239658154572302,14.582735,-2.099725,-1.3174692,1.2161347,5.0000305,-5.726082,2.0237894,0.3953311,-0.1602077,0.06952326,0.9017834,-6.8751388,10.017878,0.43190473,-2.1690311,0.18504174,0.47001138,0
1.420000000000001,12.765042179938842,-1.5977657243317849,-1.3333806222434283,0.5239658154572302,14.582735,-2.099725,-1.3174692,1.2161347,4.931127,-5.6257434,2.0282168,0.39145783,-0.16451752,0.06044962,0.90334964,-6.9057918,10.049394,0.45364302,-2.07987,-0.051731665,0.47265893,0
1.430000000000001,12.765042179938842,-1.5977657243317849,-1.3333806222434283,0.5239658154572302,14.582735,-2.099725,-1.3174692,1.2161347,4.861908,-5.5250998,2.0328617,0.3876617,-0.1676634,0.051315162,0.9049719,-6.9383717,10.079062,0.47534475,-2.0046244,-0.2515843,0.4751766,0
1.440000000000001,12.765042179938842,-1.5977657243317849,-1.3333806222434283,0.5239658154572302,14.662388,-1.9681903,-1.9752911,1.2327389,4.7923546,-5.424169,2.037724,0.383918,-0.16982447,0.042133935,0.9066374,-6.9726176,10.106751,0.4970558,-1.941122,-0.42027307,0.4775707,0
1.450000000000001,12.765042179938842,-1.5977657243317849,-1.3333806222434283,0.5239658154572302,14.662388,-1.9681903,-1.9752911,1.2327389,4.7224507,-5.322972,2.0428033,0.38020605,-0.17115167,0.032917097,0.90833193,-7.0083046,10.132349,0.51881105,-1.8875307,-0.5626578,0.47984734,0
1.460000000000001,12.765042179938842,-1.5977657243317849,-1.3333806222434283,0.5239658154572302,14.662388,-1.9681903,-1.9752911,1.2327389,4.6521835,-5.221529,2.0481005,0.3765088,-0.1717723,0.023673575,0.91004115,-7.045239,10.155765,0.54063493,-1.8423034,-0.68284005,0.48201224,0
1.470000000000001,12.765042179938842,-1.5977657243317849,-1.3333806222434283,0.5239658154572302,14.662388,-1.9681903,-1.9752911,1.2327389,4.581542,-5.119864,2.0536163,0.3728124,-0.1717937,0.014410542,0.91175115,-7.0832524,10.176916,0.56254214,-1.8041351,-0.784282,0.4840709,0
1.480000000000001,11.875311879390326,-1.1918286545858074,-2.2869420258322704,0.40794394969609926,17.959894,-3.0152488,-4.368125,2.8867586,4.510515,-5.017999,2.0593514,0.36910552,-0.17130643,0.0051338007,0.91344887,-7.122197,10.195739,0.58453834,-1.7719238,-0.8699057,0.48602855,0
1.490000000000001,11.875311879390326,-1.1918286545858074,-2.2869420258322704,0.40794394969609926,17.959894,-3.0152488,-4.368125,2.8867586,4.439109,-4.9159636,2.0652652,0.3654209,-0.16997842,-0.0041461703,0.91518176,-7.159155,10.211023,0.5982522,-1.6813911,-1.0908587,0.4821969,0
1.500000000000001,11.875311879390326,-1.1918286545858074,-2.2869420258322704,0.40794394969609926,17.959894,-3.0152488,-4.368125,2.8867586,4.3673306,-4.813787,2.0713167,0.3617814,-0.16754995,-0.013419306,0.9169848,-7.1966057,10.2239895,0.6120946,-1.6049885,-1.2773595,0.4785533,0
1.5100000000000011,11.875311879390326,-1.1918286545858074,-2.2869420258322704,0.40794394969609926,17.959894,-3.0152488,-4.368125,2.8867586,4.295176,-4.7114925,2.0775077,0.3581656,-0.16418888,-0.02268215,0.918828,-7.234309,10.234549,0.6261053,-1.5405107,-1.4347798,0.47508845,0
1.5200000000000011,10.467333456119784,-0.8665439139798287,-3.3076794065548807,0.2475576688928774,16.519455,-2.627995,-4.975918,2.6235304,4.2226443,-4.609105,2.0838397,0.35455605,-0.16003677,-0.031932067,0.9206837,-7.2720547,10.242624,0.64030784,-1.486096,-1.567654,0.47179365,0
1.5300000000000011,10.467333456119784,-0.8665439139798287,-3.3076794065548807,0.2475576688928774,16.519455,-2.627995,-4.975918,2.6235304,4.149758,-4.5066524,2.0902479,0.35096282,-0.15478987,-0.041194398,0.92258775,-7.305184,10.247493,0.6413787,-1.3894069,-1.8389702,0.46079034,0
1.5400000000000011,10.467333456119784,-0.8665439139798287,-3.3076794065548807,0.2475576688928774,16.519455,-2.627995,-4.975918,2.6235304,4.076542,-4.4041624,2.096668,0.34738833,-0.14821193,-0.050487183,0.924557,-7.337915,10.250013,0.6426686,-1.3078119,-2.067981,0.45032698,0
1.5500000000000012,10.467333456119784,-0.8665439139798287,-3.3076794065548807,0.2475576688928774,16.519455,-2.627995,-4.975918,2.6235304,4.003002,-4.30166,2.1031024,0.34381005,-0.14050423,-0.05979878,0.92654043,-7.3699903,10.250092,0.64420366,-1.2389544,-2.2612834,0.440377,0
1.5600000000000012,9.545504611146438,-0.623894592057305,-3.938882467752332,0.08257438919458458,13.374569,-1.6559807,-4.944256,1.4459196,3.9291453,-4.1991696,2.109553,0.34020954,-0.13183694,-0.06911933,0.9284928,-7.401185,10.24765,0.64598787,-1.1808454,-2.4244442,0.43091533,0
1.5700000000000012,9.545504611146438,-0.623894592057305,-3.938882467752332,0.08257438919458458,13.374569,-1.6559807,-4.944256,1.4459196,3.8549955,-4.0967135,2.115979,0.33658475,-0.12208487,-0.07843818,0.9304049,-7.428638,10.243068,0.63919204,-1.0939523,-2.6605835,0.41382214,0
1.5800000000000012,9.545504611146438,-0.623894592057305,-3.938882467752332,0.08257438919458458,13.374569,-1.6559807,-4.944256,1.4459196,3.780577,-3.9943159,2.1223378,0.33293045,-0.111155465,-0.087744504,0.93225664,-7.454869,10.23606,0.63260114,-1.0206234,-2.8599029,0.39756772,0
1.5900000000000012,9.545504611146438,-0.623894592057305,-3.938882467752332,0.08257438919458458,13.374569,-1.6559807,-4.944256,1.4459196,3.7059033,-3.8920007,2.1286316,0.3292294,-0.099226125,-0.09702998,0.9339952,-7.4796553,10.226569,0.6261882,-0.9587406,-3.0281436,0.38211092,0
1.6000000000000012,9.10380539119023,-0.5592497654249534,-4.015098903936046,-0.010243800038938258,12.568606,-2.0851393,-5.153343,1.2618023,3.6309896,-3.789793,2.134862,0.3254681,-0.086447686,-0.10628713,0.93557477,-7.502805,10.21455,0.6199065,-0.9065166,-3.1701512,0.3674126,0
1.6100000000000012,9.10380539119023,-0.5592497654249534,-4.015098903936046,-0.010243800038938258,12.568606,-2.0851393,-5.153343,1.2618023,3.5558584,-3.6877153,2.1410086,0.32164538,-0.07291043,-0.11549578,0.9369572,-7.5231586,10.200649,0.6094405,-0.85236883,-3.301897,0.3488809,0
1.6200000000000012,9.10380539119023,-0.5592497654249534,-4.015098903936046,-0.010243800038938258,12.568606,-2.0851393,-5.153343,1.2618023,3.480533,-3.5857887,2.1470506,0.3177613,-0.05869348,-0.124638736,0.93810856,-7.5416336,10.184294,0.5989665,-0.80667096,-3.413101,0.3312585,0
1.6300000000000012,9.10380539119023,-0.5592497654249534,-4.015098903936046,-0.010243800038938258,12.568606,-2.0851393,-5.153343,1.2618023,3.4050326,-3.4840376,2.1529877,0.3138081,-0.043901034,-0.1337135,0.9389981,-7.558095,10.165478,0.58839977,-0.7681039,-3.5069656,0.3145009,0
1.6400000000000012,9.10380539119023,-0.5592497654249534,-4.015098903936046,-0.010243800038938258,10.913843,-2.047827,-4.568658,1.0665041,3.3293784,-3.3824873,2.1588182,0.30978003,-0.028622374,-0.14271744,0.93960017,-7.572424,10.144206,0.5776454,-0.73555416,-3.5861945,0.29856557,0
1.6500000000000012,9.10380539119023,-0.5592497654249534,-4.015098903936046,-0.010243800038938258,10.913843,-2.047827,-4.568658,1.0665041,3.2535918,-3.281162,2.1645398,0.305673,-0.01293421,-0.15164773,0.9398933,-7.584517,10.120491,0.5665994,-0.7080827,-3.6530695,0.28341222,0
1.6600000000000013,9.10380539119023,-0.5592497654249534,-4.015098903936046,-0.010243800038938258,10.913843,-2.047827,-4.568658,1.0665041,3.177696,-3.180086,2.1701488,0.30148417,0.0030973745,-0.16050151,0.93986,-7.5942864,10.094356,0.555151,-0.6848967,-3.709517,0.26900244,0
1.6700000000000013,9.10380539119023,-0.5592497654249534,-4.015098903936046,-0.010243800038938258,10.913843,-2.047827,-4.568658,1.0665041,3.1017141,-3.079283,2.175641,0.29721174,0.019415285,-0.16927576,0.9394859,-7.6016555,10.065826,0.54318374,-0.6653273,-3.757163,0.25529978,0
1.6800000000000013,8.83356138177596,-0.4850623749488884,-3.2967473194324053,-0.0300859241721134,11.564068,-3.2441115,-3.5357468,1.2625238,3.0256712,-2.9787772,2.1810105,0.2928547,0.03597004,-0.17796744,0.9387596,-7.606562,10.034943,0.5305769,-0.64881027,-3.7973797,0.24226947,0
1.6900000000000013,8.83356138177596,-0.4850623749488884,-3.2967473194324053,-0.0300859241721134,11.564068,-3.2441115,-3.5357468,1.2625238,2.9495919,-2.878587,2.1862373,0.2884668,0.05245807,-0.18646243,0.93769217,-7.608891,10.002738,0.51469415,-0.62331855,-3.7192967,0.22890492,0
1.7000000000000013,8.83356138177596,-0.4850623749488884,-3.2967473194324053,-0.0300859241721134,11.564068,-3.2441115,-3.5357468,1.2625238,2.8735018,-2.7787297,2.191301,0.28409776,0.06863661,-0.19467385,0.93631154,-7.608803,9.968386,0.49797106,-0.60179764,-3.653392,0.21619615,0
1.7100000000000013,8.83356138177596,-0.4850623749488884,-3.2967473194324053,-0.0300859241721134,11.564068,-3.2441115,-3.5357468,1.2625238,2.797424,-2.6792264,2.1961932,0.2797412,0.08454793,-0.20263521,0.93463105,-7.6063313,9.931984,0.48031476,-0.583629,-3.5977664,0.20411102,0
1.7200000000000013,8.56960357335963,-0.4080956792679705,-2.210418021592557,0.01276908955512823,10.355567,-2.7522712,-2.5890737,0.9956223,2.721383,-2.580097,2.200904,0.2753912,0.100227274,-0.21037434,0.93266094,-7.601508,9.893625,0.46163613,-0.5682905,-3.5508163,0.1926189,0
1.7300000000000013,8.56960357335963,-0.4080956792679705,-2.210418021592557,0.01276908955512823,10.355567,-2.7522712,-2.5890737,0.9956223,2.6454008,-2.4813545,2.2054105,0.27112824,0.11530664,-0.2177682,0.9304679,-7.5945888,9.854606,0.4395148,-0.5433536,-3.3417754,0.18379362,0
1.7400000000000013,8.56960357335963,-0.4080956792679705,-2.210418021592557,0.01276908955512823,10.355567,-2.7522712,-2.5890737,0.9956223,2.5694985,-2.3830109,2.2096906,0.2670232,0.12949865,-0.22472684,0.9281305,-7.5855427,9.813912,0.41628456,-0.52229863,-3.1653352,0.17540139,0
1.7500000000000013,8.56960357335963,-0.4080956792679705,-2.210418021592557,0.01276908955512823,10.355567,-2.7522712,-2.5890737,0.9956223,2.4936967,-2.2850816,2.2137327,0.26305678,0.142939,-0.23131542,0.92566866,-7.5744944,9.771678,0.39192364,-0.50452155,-3.0164115,0.16742097,0
1.7600000000000013,8.48168959808871,-0.25393728290371037,-0.8098436846642812,0.07940046066292977,7.379412,-1.4816172,-1.3203031,0.6481172,2.418015,-2.187582,2.2175255,0.25921124,0.15574223,-0.23758812,0.9230956,-7.56155,9.728015,0.36641365,-0.489512,-2.8907135,0.15983216,0
1.7700000000000014,8.48168959808871,-0.25393728290371037,-0.8098436846642812,0.07940046066292977,7.379412,-1.4816172,-1.3203031,0.6481172,2.3424711,-2.0905235,2.2210536,0.2555886,0.16750269,-0.24339126,0.92053115,-7.546969,9.683494,0.33901525,-0.45281464,-2.566198,0.15588537,0
1.7800000000000014,8.48168959808871,-0.25393728290371037,-0.8098436846642812,0.07940046066292977,7.379412,-1.4816172,-1.3203031,0.6481172,2.2670813,-1.9939163,2.224302,0.25227463,0.17790817,-0.2486124,0.9180945,-7.530802,9.637815,0.3105261,-0.42183322,-2.2922912,0.15213224,0
1.7900000000000014,8.48168959808871,-0.25393728290371037,-0.8098436846642812,0.07940046066292977,7.379412,-1.4816172,-1.3203031,0.6481172,2.1918597,-1.8977708,2.2272606,0.24923061,0.18717304,-0.2533474,0.91578656,-7.513235,9.591123,0.28101757,-0.3956777,-2.061101,0.14856328,0
1.8000000000000014,8.571274187253566,-0.010728702001407787,0.7261467880513515,0.142874340342774,7.25055,-0.7348303,-0.28955165,0.5263778,2.1168206,-1.8020967,2.2299192,0.24642155,0.19547759,-0.25767562,0.9136015,-7.4944253,9.543531,0.25055608,-0.37359637,-1.8659651,0.14516942,0
1.8100000000000014,8.571274187253566,-0.010728702001407787,0.7261467880513515,0.142874340342774,7.25055,-0.7348303,-0.28955165,0.5263778,2.041976,-1.7069052,2.2322724,0.24395005,0.20243488,-0.26142573,0.9116823,-7.47431,9.494639,0.21991993,-0.31704572,-1.4617213,0.1450568,0
1.8200000000000014,8.571274187253566,-0.010728702001407787,0.7261467880513515,0.142874340342774,7.25055,-0.7348303,-0.28955165,0.5263778,1.9673373,-1.6122061,2.234315,0.24189825,0.20774885,-0.2644697,0.91015434,-7.4533105,9.445097,0.18853703,-0.269308,-1.12052,0.1449497,0
1.8300000000000014,8.571274187253566,-0.010728702001407787,0.7261467880513515,0.142874340342774,7.25055,-0.7348303,-0.28955165,0.5263778,1.892912,-1.5180051,2.2360408,0.2402079,0.21168041,-0.26692486,0.90897864,-7.431645,9.395049,0.15656063,-0.22900991,-0.83252937,0.14484785,0
1.8400000000000014,8.571274187253566,-0.010728702001407787,0.7261467880513515,0.142874340342774,7.979839,-0.26315945,0.79821426,0.26908723,1.8187059,-1.4243065,2.2374446,0.23882753,0.21444829,-0.26888785,0.90811455,-7.409497,9.34461,0.1241257,-0.19499196,-0.5894514,0.14475103,1
1.8500000000000014,8.571274187253566,-0.010728702001407787,0.7261467880513515,0.142874340342774,7.979839,-0.26315945,0.79821426,0.26908723,1.7447153,-1.3310964,2.2384999,0.23772743,0.21618155,-0.27052692,0.9075052,-7.3885736,9.297371,0.086841345,-0.20564154,-0.37304744,0.15085225,1
1.8600000000000014,8.571274187253566,-0.010728702001407787,0.7261467880513515,0.142874340342774,7.979839,-0.26315945,0.79821426,0.26908723,1.670935,-1.2383599,2.2391808,0.23687887,0.2169906,-0.2719787,0.90709996,-7.367485,9.249911,0.04932721,-0.21462862,-0.1903914,0.15665407,1
1.8700000000000014,8.571274187253566,-0.010728702001407787,0.7261467880513515,0.142874340342774,7.979839,-0.26315945,0.79821426,0.26908723,1.5973659,-1.1460989,2.2394857,0.23624143,0.21701938,-0.27327436,0.9068699,-7.346355,9.202272,0.011657385,-0.2222124,-0.036220506,0.16217121,1
1.8800000000000014,8.965570891963505,0.2063462640244589,1.9937723212552492,0.182414813422691,8.498524,-0.3420406,1.7577293,0.12949039,1.5240078,-1.054315,2.2394137,0.23578045,0.21638902,-0.27443936,0.90678865,-7.3252854,9.154489,-0.026105225,-0.22861224,0.0939076,0.16741762,1
1.8900000000000015,8.965570891963505,0.2063462640244589,1.9937723212552492,0.182414813422691,8.498524,-0.3420406,1.7577293,0.12949039,1.4508665,-0.96302503,2.2389832,0.23559426,0.21485044,-0.27542916,0.9069028,-7.303017,9.103479,-0.05998122,-0.24632917,0.35337806,0.16555652,1
1.9000000000000015,8.965570891963505,0.2063462640244589,1.9937723212552492,0.182414813422691,8.498524,-0.3420406,1.7577293,0.12949039,1.3779464,-0.8722456,2.2382143,0.2357612,0.21221158,-0.27620816,0.9072437,-7.2810783,9.0524025,-0.09379864,-0.26127812,0.5723845,0.16378675,1
1.9100000000000015,8.965570891963505,0.2063462640244589,1.9937723212552492,0.182414813422691,8.498524,-0.3420406,1.7577293,0.12949039,1.3052433,-0.78197706,2.2371078,0.23622628,0.20864268,-0.27680728,0.9077678,-7.259629,9.001306,-0.12746607,-0.27389187,0.75723726,0.16210383,1
1.9200000000000015,9.522390279360833,0.48404181171226557,2.8896043792068067,0.17585894713343497,9.246215,-0.0033303038,2.3460958,0.08168944,1.2327516,-0.6922194,2.2356656,0.23694225,0.20428698,-0.27725178,0.90843594,-7.2388043,8.950234,-0.16090909,-0.28453508,0.9132626,0.16050349,1
1.9300000000000015,9.522390279360833,0.48404181171226557,2.8896043792068067,0.17585894713343497,9.246215,-0.0033303038,2.3460958,0.08168944,1.1604735,-0.60299456,2.2339191,0.23791173,0.19908476,-0.2773822,0.9092973,-7.216959,8.894747,-0.18834746,-0.24070176,1.1367173,0.15663606,1
1.9400000000000015,9.522390279360833,0.48404181171226557,2.8896043792068067,0.17585894713343497,9.246215,-0.0033303038,2.3460958,0.08168944,1.0884092,-0.5143239,2.2319,0.2391351,0.1929943,-0.27707148,0.9103835,-7.1960645,8.839421,-0.21537225,-0.20369996,1.3253235,0.1529584,1
1.9500000000000015,9.522390279360833,0.48404181171226557,2.8896043792068067,0.17585894713343497,9.246215,-0.0033303038,2.3460958,0.08168944,1.0165485,-0.42620528,2.2296133,0.2405714,0.18615095,-0.27638227,0.91163874,-7.1762495,8.784349,-0.24189319,-0.17246483,1.4845158,0.14946121,1
1.9600000000000015,9.796184745409805,0.8082595725627173,3.236611265548363,0.1414946387146805,9.697329,0.50640386,3.1282294,-0.038380127,0.94488007,-0.3386358,2.2270641,0.24218528,0.1786689,-0.2753672,0.91301465,-7.157625,8.729611,-0.26784068,-0.14609788,1.6188817,0.14613563,1
1.9700000000000015,9.796184745409805,0.8082595725627173,3.236611265548363,0.1414946387146805,9.697329,0.50640386,3.1282294,-0.038380127,0.87339574,-0.25162494,2.2242763,0.24400964,0.17041188,-0.2738051,0.9145758,-7.1394486,8.672641,-0.2896025,-0.04435207,1.8542737,0.13708138,1
1.9800000000000015,9.796184745409805,0.8082595725627173,3.236611265548363,0.1414946387146805,9.697329,0.50640386,3.1282294,-0.038380127,0.8020859,-0.16518101,2.2212746,0.24606994,0.16127622,-0.27151966,0.91635996,-7.1227565,8.616251,-0.31059736,0.041531682,2.052954,0.12847143,1
1.9900000000000015,9.796184745409805,0.8082595725627173,3.236611265548363,0.1414946387146805,9.697329,0.50640386,3.1282294,-0.038380127,0.73093504,-0.0792974,2.2180672,0.24832705,0.15139472,-0.26861194,0.91829187,-7.1076727,8.560596,-0.33073276,0.11402603,2.220648,0.12028399,1
2.0000000000000013,,,,,9.577019,1.0070246,3.1155148,-0.27025375,0.65992653,0.0060339123,2.2146628,0.25074673,0.14087975,-0.26516718,0.9203067,-7.094305,8.505813,-0.34994417,0.17521794,2.3621888,0.11249829,1
2.010000000000001,,,,,9.577019,1.0070246,3.1155148,-0.27025375,0.589042,0.09082563,2.2110665,0.25329658,0.12988915,-0.26107034,0.92239416,-7.082885,8.452697,-0.3691785,0.30495945,2.4796753,0.09371653,1
2.020000000000001,,,,,9.577019,1.0070246,3.1155148,-0.27025375,0.51826257,0.17509179,2.2072825,0.2559548,0.11855489,-0.25623357,0.9245406,-7.0732937,8.400723,-0.38741475,0.41447008,2.5788357,0.07585639,1
2.0300000000000007,,,,,9.577019,1.0070246,3.1155148,-0.27025375,0.44756976,0.25884455,2.2033217,0.2587069,0.106929995,-0.2507604,0.92669034,-7.0655637,8.350042,-0.4046253,0.50690395,2.6625295,0.058872674,1
2.0400000000000005,,,,,9.577019,1.0070246,3.1155148,-0.27025375,0.3769448,0.34209752,2.1991935,0.26153922,0.09505951,-0.24473883,0.92879647,-7.0597215,8.30079,-0.42080203,0.5849236,2.733169,0.04272235,1
2.0500000000000003,,,,,9.169939,1.1706761,2.8893385,-0.35562965,0.30636874,0.42486563,2.1949089,0.26443896,0.082981825,-0.23824373,0.9308196,-7.055791,8.253088,-0.43595365,0.6507763,2.7927911,0.027364517,1
2.06,,,,,9.169939,1.1706761,2.8893385,-0.35562965,0.23582189,0.5071748,2.19046,0.26737767,0.07083402,-0.23130138,0.9327328,-7.05387,8.209004,-0.45367154,0.7318884,2.8078403,0.008570876,1
2.07,,,,,9.169939,1.1706761,2.8893385,-0.35562965,0.16528507,0.5890515,2.1858385,0.27033505,0.058727678,-0.22393739,0.93451655,-7.0537763,8.166613,-0.47046256,0.80034983,2.8205411,-0.009300551,1
2.0799999999999996,,,,,9.169939,1.1706761,2.8893385,-0.35562965,0.09474015,0.67051315,2.1810536,0.2733103,0.04665877,-0.21621011,0.93615,-7.055486,8.126002,-0.48636758,0.8581335,2.8312604,-0.02629502,1
2.0899999999999994,,,,,8.938711,1.1454581,2.4333072,0.063937925,0.024169216,0.7515779,2.1761138,0.2763015,0.034624036,-0.2081694,0.9376158,-7.0589776,8.087253,-0.50143456,0.9069042,2.8403075,-0.042455565,1
2.099999999999999,,,,,8.938711,1.1454581,2.4333072,0.063937925,-0.046444815,0.8322695,2.171017,0.27922064,0.02277871,-0.19991997,0.938908,-7.064091,8.051362,-0.5178323,0.9440952,2.7768383,-0.037234824,1
2.109999999999999,,,,,8.938711,1.1454581,2.4333072,0.063937925,-0.117118284,0.9126117,2.1657596,0.28199342,0.01124522,-0.19154896,0.94003266,-7.0708566,8.017391,-0.53353196,0.97548753,2.723267,-0.032270238,1
2.1199999999999988,,,,,8.938711,1.1454581,2.4333072,0.063937925,-0.1878674,0.992624,2.1603484,0.28463548,-2.2940105e-05,-0.18307185,0.9409923,-7.07921,7.985368,-0.54860044,1.0019853,2.6780505,-0.027549263,1
2.1299999999999986,,,,,8.611351,1.2390043,1.8337665,0.085748576,-0.25870776,1.0723258,2.1547894,0.28715953,-0.0110649355,-0.1745018,0.94178826,-7.089096,7.955314,-0.5631028,1.0243514,2.6398854,-0.023059968,1
2.1399999999999983,,,,,8.611351,1.2390043,1.8337665,0.085748576,-0.32965237,1.1517422,2.149073,0.28953317,-0.021677384,-0.16588415,0.94243413,-7.100042,7.9282756,-0.58018315,1.0578157,2.514175,-0.017720697,1
2.149999999999998,,,,,8.611351,1.2390043,1.8337665,0.085748576,-0.40071312,1.2308978,2.1431873,0.2917356,-0.03170065,-0.15725732,0.94294995,-7.112312,7.9031444,-0.5968401,1.0860627,2.408069,-0.012643416,1
2.159999999999998,,,,,8.611351,1.2390043,1.8337665,0.085748576,-0.47190282,1.3098116,2.1371372,0.2937909,-0.04122419,-0.14862205,0.94334406,-7.125806,7.8799057,-0.61312914,1.1099057,2.3185103,-0.007815291,1
2.1699999999999977,,,,,8.281821,1.0743281,0.75389034,0.02284028,-0.5432332,1.3885024,2.130926,0.2957186,-0.050323613,-0.13997881,0.9436223,-7.140438,7.858549,-0.6291016,1.1300315,2.242918,-0.0032240865,1
2.1799999999999975,,,,,8.281821,1.0743281,0.75389034,0.02284028,-0.6147123,1.4669927,2.1245406,0.29747996,-0.058673594,-0.13151887,0.9438034,-7.155522,7.8397985,-0.6479588,1.1213424,2.0107057,-0.0019450991,1
2.1899999999999973,,,,,8.281821,1.0743281,0.75389034,0.02284028,-0.68634665,1.5453042,2.1179676,0.29905277,-0.06602042,-0.123396434,0.94391793,-7.1714787,7.822754,-0.6666015,1.1140088,1.814707,-0.0007288697,1
2.199999999999997,,,,,8.281821,1.0743281,0.75389034,0.02284028,-0.7581444,1.6234533,2.1112092,0.30047226,-0.0725196,-0.115560964,0.943982,-7.188168,7.8073235,-0.68506485,1.1078192,1.6492742,0.00042768643,1
