time-since-start [s],throttle_mpc,roll_mpc,pitch_mpc,yaw_mpc,throttle_nw,roll_nw,pitch_nw,yaw_nw,position_x [m],position_y [m],position_z [m],rotation_w [quaternion],rotation_x [quaternion],rotation_y [quaternion],rotation_z [quaternion],velocity_x [m/s],velocity_y [m/s],velocity_z [m/s],omega_x [rad/s],omega_y [rad/s],omega_z [rad/s],network_used
0.0,12.678188826252713,5.9999995447260925,-5.999999880027149,-3.8941078763733725,11.814517,0.24061789,-2.9511867,-0.43781477,16.658035,-10.491577,1.3071088,-0.123516634,0.39882177,-0.23792987,-0.87696874,-8.7808275,-3.484091,-0.582589,1.3861026,-0.16205937,-0.108736776,0
0.01,12.678188826252713,5.9999995447260925,-5.999999880027149,-3.8941078763733725,13.9576,0.25151232,-2.7845287,-0.5795751,16.569641,-10.525943,1.3013128,-0.12757328,0.3966875,-0.24374254,-0.8757588,-8.897382,-3.389018,-0.576968,1.5232903,-0.49034193,-0.24240713,0
0.02,12.678188826252713,5.9999995447260925,-5.999999880027149,-3.8941078763733725,13.9576,0.25151232,-2.7845287,-0.5795751,16.4801,-10.559356,1.2955616,-0.13287777,0.39319068,-0.24970724,-0.87486607,-9.0100565,-3.293497,-0.57360226,1.6754848,-0.8039067,-0.37277704,0
0.03,12.678188826252713,5.9999995447260925,-5.999999880027149,-3.8941078763733725,13.9576,0.25151232,-2.7845287,-0.5795751,16.389454,-10.591809,1.2898341,-0.13942817,0.38837084,-0.25588545,-0.8742141,-9.118437,-3.197415,-0.57214326,1.8398494,-1.1045489,-0.49996373,0
0.04,12.678188826252713,5.9999995447260925,-5.999999880027149,-3.8941078763733725,12.103683,0.79442745,-2.7161853,-0.76736456,16.297749,-10.623301,1.2841132,-0.14721675,0.38225743,-0.26232344,-0.87372345,-9.222125,-3.1006682,-0.5722927,2.0139797,-1.3937739,-0.6240777,0
0.05,12.678188826252713,5.9999995447260925,-5.999999880027149,-3.8941078763733725,12.103683,0.79442745,-2.7161853,-0.76736456,16.20503,-10.653821,1.2783836,-0.15623027,0.37487146,-0.2690541,-0.87331164,-9.320739,-3.0031686,-0.5737991,2.1958368,-1.6728432,-0.7452232,0
0.060000000000000005,12.678188826252713,5.9999995447260925,-5.999999880027149,-3.8941078763733725,12.103683,0.79442745,-2.7161853,-0.76736456,16.111355,-10.683362,1.2726332,-0.16645011,0.3662268,-0.27609855,-0.87289274,-9.413908,-2.9048545,-0.57645386,2.383693,-1.942814,-0.86349905,0
0.07,12.678188826252713,5.9999995447260925,-5.999999880027149,-3.8941078763733725,12.103683,0.79442745,-2.7161853,-0.76736456,16.016773,-10.711917,1.2668511,-0.17785254,0.35633144,-0.28346735,-0.87237746,-9.501272,-2.8056948,-0.580089,2.5760832,-2.2045732,-0.9789983,0
0.08,14.201367222197057,5.999999592350423,-5.999999900052639,-4.081225149793081,14.682344,0.08095305,-3.0955787,-0.90002376,15.92135,-10.739474,1.2610284,-0.19040863,0.34518895,-0.29116166,-0.871673,-9.582484,-2.705694,-0.58457404,2.7717671,-2.4588637,-1.0918094,0
0.09,14.201367222197057,5.999999592350423,-5.999999900052639,-4.081225149793081,14.682344,0.08095305,-3.0955787,-0.90002376,15.825113,-10.765983,1.2551981,-0.20413084,0.33276683,-0.29918995,-0.870679,-9.663808,-2.595989,-0.5816085,2.984681,-2.7213607,-1.212538,0
0.09999999999999999,14.201367222197057,5.999999592350423,-5.999999900052639,-4.081225149793081,14.682344,0.08095305,-3.0955787,-0.90002376,15.7281,-10.79139,1.2493937,-0.21902509,0.3190276,-0.3075523,-0.8692875,-9.737701,-2.4854872,-0.57937926,3.1992178,-2.9778075,-1.3304588,0
0.10999999999999999,14.201367222197057,5.999999592350423,-5.999999900052639,-4.081225149793081,14.682344,0.08095305,-3.0955787,-0.90002376,15.630387,-10.81569,1.243608,-0.23504405,0.30396354,-0.31622472,-0.8673881,-9.803793,-2.3743265,-0.5778515,3.4145646,-3.2285843,-1.445659,0
0.11999999999999998,14.201367222197057,5.999999592350423,-5.999999900052639,-4.081225149793081,14.682344,0.08095305,-3.0955787,-0.90002376,15.532054,-10.838876,1.2378341,-0.252134,0.28756684,-0.32517552,-0.8648667,-9.861734,-2.262702,-0.57702637,3.6300316,-3.4740093,-1.5582219,0
0.12999999999999998,16.053916621479498,5.255066573058016,-5.999999850123223,-3.6231089034567163,16.585917,0.37822613,-3.5400481,-0.49585012,15.433184,-10.860944,1.2320648,-0.27023453,0.2698307,-0.33436576,-0.86160547,-9.9112,-2.1508672,-0.57694024,3.845036,-3.7143483,-1.6682262,0
0.13999999999999999,16.053916621479498,5.255066573058016,-5.999999850123223,-3.6231089034567163,16.585917,0.37822613,-3.5400481,-0.49585012,15.333852,-10.88187,1.2263125,-0.28936976,0.25045228,-0.34368894,-0.8575643,-9.953668,-2.0341759,-0.57332325,4.0642886,-4.071286,-1.7641529,0
0.15,16.053916621479498,5.255066573058016,-5.999999850123223,-3.6231089034567163,16.585917,0.37822613,-3.5400481,-0.49585012,15.234139,-10.901621,1.2206025,-0.30946094,0.22930923,-0.3529747,-0.85267806,-9.987252,-1.915663,-0.56850296,4.249385,-4.372533,-1.8553724,0
0.16,16.986800749573213,3.1075624620643802,-5.563844411879637,-1.3002727876191897,17.156698,0.6543761,-3.0027132,-0.788388,15.13414,-10.920179,1.2149464,-0.3303014,0.2066464,-0.3620983,-0.8468075,-10.011281,-1.7958394,-0.56253576,4.405653,-4.626773,-1.9421159,0
0.17,16.986800749573213,3.1075624620643802,-5.563844411879637,-1.3002727876191897,17.156698,0.6543761,-3.0027132,-0.788388,15.033945,-10.9375,1.2093856,-0.35123202,0.18301648,-0.37035224,-0.8402262,-10.026057,-1.6683315,-0.5494182,4.20313,-4.7725663,-1.9106205,0
0.18000000000000002,16.986800749573213,3.1075624620643802,-5.563844411879637,-1.3002727876191897,17.156698,0.6543761,-3.0027132,-0.788388,14.933657,-10.953547,1.2039615,-0.3717235,0.15889083,-0.37720808,-0.8332402,-10.030086,-1.5409716,-0.5352271,4.032219,-4.8956738,-1.8806703,0
0.19000000000000003,16.986800749573213,3.1075624620643802,-5.563844411879637,-1.3002727876191897,17.156698,0.6543761,-3.0027132,-0.788388,14.833382,-10.968324,1.1986846,-0.39177462,0.13435593,-0.38280916,-0.8257833,-10.023442,-1.4146478,-0.5199948,3.8879845,-4.9996257,-1.8521901,0
0.20000000000000004,16.867291474270967,1.9712529823144438,-4.3501337988426645,-1.0878202492957518,17.047033,1.5953604,-2.8882146,-1.2902144,14.733224,-10.981846,1.1935648,-0.41137797,0.10948614,-0.38727725,-0.81780016,-10.006251,-1.2901986,-0.5038013,3.7662618,-5.087402,-1.8251073,0
0.21000000000000005,16.867291474270967,1.9712529823144438,-4.3501337988426645,-1.0878202492957518,17.047033,1.5953604,-2.8882146,-1.2902144,14.63329,-10.99414,1.1886072,-0.43027118,0.08492321,-0.3905569,-0.8093947,-9.978927,-1.1692642,-0.4875766,3.4865854,-4.97201,-1.7889285,0
0.22000000000000006,16.867291474270967,1.9712529823144438,-4.3501337988426645,-1.0878202492957518,17.047033,1.5953604,-2.8882146,-1.2902144,14.53368,-11.00524,1.1838156,-0.44827282,0.06118821,-0.39264625,-0.8007097,-9.9418745,-1.0516254,-0.47065175,3.2504928,-4.8746805,-1.7545248,0
0.23000000000000007,16.867291474270967,1.9712529823144438,-4.3501337988426645,-1.0878202492957518,17.047033,1.5953604,-2.8882146,-1.2902144,14.434485,-11.015184,1.1791961,-0.46547773,0.038174473,-0.3937089,-0.79174876,-9.89569,-0.9378358,-0.45315737,3.051192,-4.7925844,-1.7218095,0
0.24000000000000007,16.867291474270967,1.9712529823144438,-4.3501337988426645,-1.0878202492957518,17.408384,1.2219747,-3.0197425,-1.1577412,14.335795,-11.024013,1.1747539,-0.4819618,0.015789287,-0.39387998,-0.78250986,-9.840931,-0.8283801,-0.43522123,2.8829496,-4.7233377,-1.6906993,0
0.25000000000000006,16.867291474270967,1.9712529823144438,-4.3501337988426645,-1.0878202492957518,17.408384,1.2219747,-3.0197425,-1.1577412,14.237694,-11.03177,1.1704926,-0.49778536,-0.006047194,-0.3932711,-0.77298814,-9.778116,-0.72368616,-0.4169711,2.7409253,-4.6649275,-1.661116,0
0.26000000000000006,16.867291474270967,1.9712529823144438,-4.3501337988426645,-1.0878202492957518,17.408384,1.2219747,-3.0197425,-1.1577412,14.140258,-11.038505,1.1664151,-0.5129965,-0.02740312,-0.39197463,-0.7631771,-9.707737,-0.62413514,-0.3985364,2.6210332,-4.615658,-1.6329843,0
0.2700000000000001,16.867291474270967,1.9712529823144438,-4.3501337988426645,-1.0878202492957518,17.408384,1.2219747,-3.0197425,-1.1577412,14.043563,-11.044271,1.1625221,-0.5276333,-0.04833616,-0.39006716,-0.7530698,-9.630255,-0.53006893,-0.38004926,2.5198243,-4.5740976,-1.6062329,0
0.2800000000000001,16.433119544055728,0.09845270631428774,-2.3504006878651533,0.05820678467390551,17.170475,-0.084726244,-0.06035602,-0.4265665,13.947677,-11.049126,1.1588137,-0.54172564,-0.06889468,-0.38761222,-0.7426597,-9.546116,-0.44179583,-0.36164498,2.434387,-4.5390406,-1.5807943,0
0.2900000000000001,16.433119544055728,0.09845270631428774,-2.3504006878651533,0.05820678467390551,17.170475,-0.084726244,-0.06035602,-0.4265665,13.852652,-11.053139,1.1552736,-0.55494905,-0.088174164,-0.3845435,-0.73238176,-9.45814,-0.36166486,-0.3464371,2.070672,-4.1972394,-1.5003681,0
0.3000000000000001,16.433119544055728,0.09845270631428774,-2.3504006878651533,0.05820678467390551,17.170475,-0.084726244,-0.06035602,-0.4265665,13.758532,-11.056379,1.1518843,-0.5670908,-0.10547178,-0.38085276,-0.72265816,-9.3649645,-0.28733003,-0.3314303,1.763583,-3.9088373,-1.4238884,0
0.3100000000000001,16.433119544055728,0.09845270631428774,-2.3504006878651533,0.05820678467390551,17.170475,-0.084726244,-0.06035602,-0.4265665,13.665367,-11.058905,1.1486443,-0.57831556,-0.121098176,-0.37665793,-0.71345294,-9.267396,-0.21860656,-0.31657636,1.5043068,-3.6654875,-1.3511616,0
0.3200000000000001,16.144633283210286,-2.063753142660975,0.060964680530789156,1.8956229125738615,17.057026,-0.29954734,-0.3602078,-0.27658746,13.573197,-11.06077,1.1455524,-0.58875537,-0.13531695,-0.3720502,-0.7047234,-9.16611,-0.15530978,-0.30182102,1.2854013,-3.460149,-1.2820034,0
0.3300000000000001,16.144633283210286,-2.063753142660975,0.060964680530789156,1.8956229125738615,17.057026,-0.29954734,-0.3602078,-0.27658746,13.482054,-11.06203,1.1426063,-0.59816456,-0.14725263,-0.36695763,-0.6970352,-9.062252,-0.097479925,-0.2876269,0.74282455,-2.9315197,-1.1280118,0
0.34000000000000014,16.144633283210286,-2.063753142660975,0.060964680530789156,1.8956229125738615,17.057026,-0.29954734,-0.3602078,-0.27658746,13.391954,-11.062738,1.1397958,-0.6063348,-0.15623434,-0.3614405,-0.6908762,-8.957445,-0.04485604,-0.27449045,0.30378106,-2.4664311,-0.97982204,0
0.35000000000000014,16.144633283210286,-2.063753142660975,0.060964680530789156,1.8956229125738615,17.057026,-0.29954734,-0.3602078,-0.27658746,13.30291,-11.062941,1.1371179,-0.61343235,-0.1627462,-0.35565677,-0.6860925,-8.851448,0.003832723,-0.26097596,-0.06499031,-2.072054,-0.8387231,0
0.36000000000000015,17.724176471481915,-4.003929138537368,3.0491815621267406,2.22015438968607,16.215855,-1.2208376,2.1766431,-0.26112005,13.214928,-11.062673,1.1345788,-0.61961025,-0.16719714,-0.3496639,-0.682542,-8.744794,0.04924383,-0.24670734,-0.37636065,-1.7392722,-0.70454794,0
0.37000000000000016,17.724176471481915,-4.003929138537368,3.0491815621267406,2.22015438968607,16.215855,-1.2208376,2.1766431,-0.26112005,13.128065,-11.061943,1.1322426,-0.62467754,-0.1686463,-0.3437084,-0.68058884,-8.627634,0.09615834,-0.22036268,-0.9416387,-0.9923413,-0.5610319,0
0.38000000000000017,17.724176471481915,-4.003929138537368,3.0491815621267406,2.22015438968607,16.215855,-1.2208376,2.1766431,-0.26112005,13.042371,-11.060755,1.1301765,-0.6284886,-0.16636361,-0.33799,-0.6805059,-8.511284,0.14123438,-0.1925857,-1.4189355,-0.36201745,-0.42455828,0
0.3900000000000002,17.724176471481915,-4.003929138537368,3.0491815621267406,2.22015438968607,16.215855,-1.2208376,2.1766431,-0.26112005,12.957834,-11.05912,1.1283969,-0.63119346,-0.16094309,-0.33246773,-0.6820246,-8.396595,0.18559352,-0.1630417,-1.8219286,0.16991615,-0.29478148,0
0.4000000000000002,18.700164132160783,-4.859650005620054,4.559066461636251,2.2817514661381564,16.777817,-1.8553879,3.52024,0.094528355,12.874433,-11.057042,1.1269226,-0.63289624,-0.15288036,-0.32709426,-0.6848938,-8.284296,0.23018183,-0.13147089,-2.162172,0.6188291,-0.17137283,0
0.4100000000000002,18.700164132160783,-4.859650005620054,4.559066461636251,2.2817514661381564,16.777817,-1.8553879,3.52024,0.094528355,12.792169,-11.054501,1.1258112,-0.63351613,-0.14196086,-0.32196677,-0.68908787,-8.169036,0.27834868,-0.0904201,-2.5828679,1.2331527,-0.05099733,0
0.4200000000000002,18.700164132160783,-4.859650005620054,4.559066461636251,2.2817514661381564,16.777817,-1.8553879,3.52024,0.094528355,12.711038,-11.051468,1.1251227,-0.6329659,-0.12802853,-0.31714615,-0.69453675,-8.057803,0.3286455,-0.04687058,-2.938042,1.7516211,0.06347131,0
0.4300000000000002,18.700164132160783,-4.859650005620054,4.559066461636251,2.2817514661381564,16.777817,-1.8553879,3.52024,0.094528355,12.630996,-11.047917,1.1248826,-0.6312957,-0.11154588,-0.312536,-0.7009598,-7.9513984,0.38198563,-0.00075253006,-3.2378874,2.1891997,0.17232296,0
0.4400000000000002,18.700164132160783,-4.859650005620054,4.559066461636251,2.2817514661381564,16.42059,-1.9226892,3.244943,0.2550351,12.551991,-11.043815,1.1251163,-0.628537,-0.092905544,-0.30805114,-0.70810616,-7.8505645,0.4390959,0.04789944,-3.4910128,2.5585163,0.27583322,0
0.45000000000000023,18.700164132160783,-4.859650005620054,4.559066461636251,2.2817514661381564,16.42059,-1.9226892,3.244943,0.2550351,12.473964,-11.039121,1.1258488,-0.6247109,-0.07244295,-0.30361816,-0.7157544,-7.756002,0.50053614,0.09895434,-3.70469,2.870226,0.37426418,0
0.46000000000000024,18.700164132160783,-4.859650005620054,4.559066461636251,2.2817514661381564,16.42059,-1.9226892,3.244943,0.2550351,12.396848,-11.033789,1.1271029,-0.61983275,-0.050446432,-0.29917526,-0.7237103,-7.668369,0.5667166,0.15219454,-3.8850598,3.1333191,0.4678651,0
0.47000000000000025,18.700164132160783,-4.859650005620054,4.559066461636251,2.2817514661381564,16.42059,-1.9226892,3.244943,0.2550351,12.32057,-11.02777,1.1288991,-0.6139155,-0.027165292,-0.29467154,-0.7318048,-7.5882835,0.6379128,0.2073262,-4.037308,3.3553832,0.5568731,0
0.48000000000000026,19.384337555571555,-4.80056737716486,4.897826143067767,2.165169559192377,18.798065,-1.7668661,2.6015317,0.30690634,12.245053,-11.021012,1.1312546,-0.60697174,-0.0028161942,-0.29006577,-0.7398912,-7.5163236,0.71427935,0.26398972,-4.1658154,3.542821,0.6415134,0
0.49000000000000027,19.384337555571555,-4.80056737716486,4.897826143067767,2.165169559192377,18.798065,-1.7668661,2.6015317,0.30690634,12.170226,-11.013452,1.1342111,-0.5989859,0.022502137,-0.28542444,-0.74782497,-7.450709,0.79885703,0.32746807,-4.2650747,3.753884,0.7162796,0
0.5000000000000002,19.384337555571555,-4.80056737716486,4.897826143067767,2.165169559192377,18.798065,-1.7668661,2.6015317,0.30690634,12.096006,-11.005017,1.137806,-0.5899497,0.04869699,-0.28079784,-0.75547355,-7.3945894,0.88886625,0.3915854,-4.3488493,3.9320407,0.78737706,0
0.5100000000000002,19.384337555571555,-4.80056737716486,4.897826143067767,2.165169559192377,18.798065,-1.7668661,2.6015317,0.30690634,12.0223,-10.995656,1.142043,-0.5798873,0.07559794,-0.27613524,-0.76273507,-7.3484354,0.9842363,0.45577925,-4.419551,4.0824237,0.8549857,0
0.5200000000000002,19.121103056980388,-3.9474248095350237,4.227829083630098,1.9422572492268357,19.043467,-1.7369814,2.1674135,0.6156265,11.949003,-10.985315,1.1469198,-0.56882304,0.10305396,-0.27139607,-0.7695221,-7.312665,1.0847977,0.5194578,-4.479217,4.209365,0.91927683,0
0.5300000000000002,19.121103056980388,-3.9474248095350237,4.227829083630098,1.9422572492268357,19.043467,-1.7369814,2.1674135,0.6156265,11.876009,-10.97395,1.1524173,-0.55691904,0.13053937,-0.26666,-0.7756886,-7.287946,1.1888485,0.5798298,-4.3964243,4.2121496,0.96947485,0
0.5400000000000003,19.121103056980388,-3.9474248095350237,4.227829083630098,1.9422572492268357,19.043467,-1.7369814,2.1674135,0.6156265,11.803208,-10.961522,1.1585107,-0.5443418,0.15763326,-0.26200485,-0.781151,-7.273861,1.2973546,0.6385072,-4.3265357,4.2145042,1.0172095,0
0.5500000000000003,19.121103056980388,-3.9474248095350237,4.227829083630098,1.9422572492268357,19.043467,-1.7369814,2.1674135,0.6156265,11.7304945,-10.947989,1.1651798,-0.53111964,0.18435171,-0.25739747,-0.7859214,-7.27038,1.4098696,0.6949372,-4.2675395,4.216495,1.0626018,0
0.5600000000000003,17.99584425798425,-2.5606978649781373,2.9076418423461345,1.6474038794527903,17.191813,-1.4381846,1.7985033,1.8858937,11.6577635,-10.933312,1.1723999,-0.51727813,0.21070512,-0.25281003,-0.7900084,-7.277458,1.5259327,0.7485959,-4.2177377,4.2181783,1.1057669,0
0.5700000000000003,17.99584425798425,-2.5606978649781373,2.9076418423461345,1.6474038794527903,17.191813,-1.4381846,1.7985033,1.8858937,11.584913,-10.917494,1.1800967,-0.50313145,0.23600924,-0.24838383,-0.7933873,-7.2939367,1.6380452,0.79026586,-3.9592462,4.013918,1.1323452,0
0.5800000000000003,17.99584425798425,-2.5606978649781373,2.9076418423461345,1.6474038794527903,17.191813,-1.4381846,1.7985033,1.8858937,11.511852,-10.900543,1.1881936,-0.48897812,0.25974208,-0.24425237,-0.79609966,-7.3197756,1.7525103,0.82857484,-3.7410798,3.8414936,1.1576194,0
0.5900000000000003,17.99584425798425,-2.5606978649781373,2.9076418423461345,1.6474038794527903,17.191813,-1.4381846,1.7985033,1.8858937,11.438487,-10.882438,1.1966558,-0.47481173,0.282127,-0.24037938,-0.7982326,-7.35445,1.8688328,0.86330825,-3.5569482,3.6959429,1.1816534,0
0.6000000000000003,17.036782062327248,-0.9440460825745423,1.2992999237968408,1.2900907386794274,16.320919,0.8061023,-0.21619204,1.0201775,11.364735,-10.863162,1.2054467,-0.46062168,0.3033514,-0.23673043,-0.79985225,-7.397497,1.9865748,0.8942909,-3.4015422,3.5730765,1.2045078,0
0.6100000000000003,17.036782062327248,-0.9440460825745423,1.2992999237968408,1.2900907386794274,16.320919,0.8061023,-0.21619204,1.0201775,11.2905245,-10.842735,1.2144947,-0.4467895,0.32277733,-0.2334882,-0.80104715,-7.4457235,2.0990086,0.91473585,-3.0180278,3.2187746,1.2087075,0
0.6200000000000003,17.036782062327248,-0.9440460825745423,1.2992999237968408,1.2900907386794274,16.320919,0.8061023,-0.21619204,1.0201775,11.215796,-10.82118,1.2237293,-0.4336546,0.33993477,-0.23081377,-0.8019428,-7.5006714,2.2120593,0.9316201,-2.6943634,2.919681,1.2127011,0
0.6300000000000003,17.036782062327248,-0.9440460825745423,1.2992999237968408,1.2900907386794274,16.320919,0.8061023,-0.21619204,1.0201775,11.140489,-10.798493,1.2331154,-0.42113888,0.35519123,-0.22864248,-0.8026226,-7.5615826,2.325449,0.9451199,-2.4212096,2.6671932,1.2164985,0
0.6400000000000003,17.036782062327248,-0.9440460825745423,1.2992999237968408,1.2900907386794274,16.238377,0.87745005,-0.4668716,1.1847173,11.064546,-10.774672,1.2426207,-0.40916666,0.368853,-0.22691356,-0.8031436,-7.627818,2.4389682,0.9554112,-2.1906838,2.4540482,1.2201097,0
0.6500000000000004,17.036782062327248,-0.9440460825745423,1.2992999237968408,1.2900907386794274,16.238377,0.87745005,-0.4668716,1.1847173,10.987916,-10.749714,1.2522132,-0.39766696,0.3811753,-0.22557104,-0.8035443,-7.6988425,2.552457,0.9626614,-1.9961337,2.2741158,1.2235436,0
0.6600000000000004,17.036782062327248,-0.9440460825745423,1.2992999237968408,1.2900907386794274,16.238377,0.87745005,-0.4668716,1.1847173,10.910555,-10.723622,1.2618638,-0.38657492,0.39237088,-0.2245642,-0.8038502,-7.774205,2.665792,0.9670252,-1.831945,2.1222208,1.2268093,0
0.6700000000000004,17.036782062327248,-0.9440460825745423,1.2992999237968408,1.2900907386794274,16.238377,0.87745005,-0.4668716,1.1847173,10.83242,-10.696399,1.2715442,-0.37583232,0.40261695,-0.22384758,-0.80407786,-7.8535275,2.7788758,0.96864283,-1.6933793,1.9939941,1.2299147,0
0.6800000000000004,16.1006435775084,0.5980860094368289,-0.29385000322856925,0.9292265283044231,16.842348,2.0352037,-2.86407,0.3464559,10.753474,-10.668046,1.2812277,-0.36538723,0.4120614,-0.2233808,-0.8042375,-7.9364896,2.8916292,0.96763885,-1.5764381,1.8857473,1.2328675,0
0.6900000000000004,16.1006435775084,0.5980860094368289,-0.29385000322856925,0.9292265283044231,16.842348,2.0352037,-2.86407,0.3464559,10.673704,-10.638598,1.2908624,-0.35563096,0.42010424,-0.22337726,-0.80445075,-8.018027,2.9978235,0.9589616,-1.2370343,1.5461249,1.2179677,0
0.7000000000000004,16.1006435775084,0.5980860094368289,-0.29385000322856925,0.9292265283044231,16.842348,2.0352037,-2.86407,0.3464559,10.593105,-10.608091,1.3004001,-0.3468888,0.42629352,-0.22401235,-0.80483526,-8.102145,3.1036801,0.94827485,-0.9506092,1.2594179,1.2037991,0
0.7100000000000004,16.1006435775084,0.5980860094368289,-0.29385000322856925,0.9292265283044231,16.842348,2.0352037,-2.86407,0.3464559,10.511655,-10.576527,1.3098223,-0.3390244,0.43093702,-0.22519809,-0.8053825,-8.188282,3.2092643,0.9359355,-0.7088924,1.0173821,1.1903257,0
0.7200000000000004,15.585475368919258,1.9732618352150442,-1.7962384789995471,0.5644606993825749,16.88438,2.1248019,-2.997498,0.34830296,10.429335,-10.543906,1.3191141,-0.33191717,0.43428928,-0.22685635,-0.8060765,-8.275976,3.314652,0.92225057,-0.5049046,0.8130585,1.1775136,0
0.7300000000000004,15.585475368919258,1.9732618352150442,-1.7962384789995471,0.5644606993825749,16.88438,2.1248019,-2.997498,0.34830296,10.346146,-10.51025,1.3282502,-0.3258749,0.43590623,-0.22914521,-0.80702114,-8.361954,3.416566,0.904848,-0.1181156,0.40643924,1.1474309,0
0.7400000000000004,15.585475368919258,1.9732618352150442,-1.7962384789995471,0.5644606993825749,16.88438,2.1248019,-2.997498,0.34830296,10.262094,-10.4755745,1.3372089,-0.32114214,0.43545023,-0.23218694,-0.8082941,-8.448413,3.5185368,0.88685685,0.20829162,0.063173115,1.1188244,0
0.7500000000000004,15.585475368919258,1.9732618352150442,-1.7962384789995471,0.5644606993825749,16.88438,2.1248019,-2.997498,0.34830296,10.177177,-10.439878,1.3459866,-0.31753162,0.4332534,-0.23586622,-0.8098343,-8.534755,3.6207395,0.86869735,0.48374498,-0.2266089,1.0916215,0
0.7600000000000005,15.80541082944588,2.93698426225996,-2.9782548406795466,0.2182371670272617,16.549503,2.832043,-5.1363525,-0.09461811,10.0914,-10.403158,1.3545834,-0.31487983,0.42958966,-0.24008171,-0.81158084,-8.620469,3.7233307,0.8507142,0.71620053,-0.47123834,1.0657535,0
0.7700000000000005,15.80541082944588,2.93698426225996,-2.9782548406795466,0.2182371670272617,16.549503,2.832043,-5.1363525,-0.09461811,10.0047655,-10.365402,1.3630083,-0.31335858,0.42419013,-0.24489099,-0.81357044,-8.706281,3.8279104,0.8343476,1.0627791,-0.861994,1.0241655,0
0.7800000000000005,15.80541082944588,2.93698426225996,-2.9782548406795466,0.2182371670272617,16.549503,2.832043,-5.1363525,-0.09461811,9.917281,-10.326597,1.3712734,-0.3130955,0.41684705,-0.25032952,-0.81580883,-8.790369,3.9332025,0.8188513,1.3552501,-1.1918634,0.9846184,0
0.7900000000000005,15.80541082944588,2.93698426225996,-2.9782548406795466,0.2182371670272617,16.549503,2.832043,-5.1363525,-0.09461811,9.828966,-10.286736,1.3793894,-0.31389716,0.40784907,-0.25628328,-0.81819665,-8.872132,4.039359,0.8045716,1.6020634,-1.4703312,0.9470118,0
0.8000000000000005,16.417525471484975,3.3825057329405457,-3.5581098494332704,-0.03328566106921445,18.768139,2.354409,-6.666216,-0.37061593,9.739848,-10.245807,1.38737,-0.31559598,0.39743647,-0.2626528,-0.8206437,-8.951039,4.146494,0.7917699,1.8103492,-1.7054048,0.91125065,0
0.8100000000000005,16.417525471484975,3.3825057329405457,-3.5581098494332704,-0.03328566106921445,18.768139,2.354409,-6.666216,-0.37061593,9.649942,-10.203781,1.3952473,-0.3182038,0.38557065,-0.269412,-0.82310265,-9.02953,4.2588754,0.78401285,2.0556376,-1.9942492,0.86490196,0
0.8200000000000005,16.417525471484975,3.3825057329405457,-3.5581098494332704,-0.03328566106921445,18.768139,2.354409,-6.666216,-0.37061593,9.559271,-10.160625,1.4030569,-0.3217195,0.3722271,-0.27652952,-0.8255145,-9.103989,4.3724146,0.7781974,2.262635,-2.2380807,0.8208276,0
0.8300000000000005,16.417525471484975,3.3825057329405457,-3.5581098494332704,-0.03328566106921445,18.768139,2.354409,-6.666216,-0.37061593,9.467878,-10.116329,1.4108185,-0.3259904,0.35761058,-0.2839175,-0.8277893,-9.173882,4.487133,0.7744688,2.4373217,-2.4439116,0.778916,0
0.8400000000000005,16.417525471484975,3.3825057329405457,-3.5581098494332704,-0.03328566106921445,18.776995,2.9075427,-7.143625,-1.0957487,9.375811,-10.07088,1.4185536,-0.33088475,0.34189484,-0.29149997,-0.8298496,-9.2387295,4.6030087,0.7729008,2.584743,-2.6176624,0.73906106,0
0.8500000000000005,16.417525471484975,3.3825057329405457,-3.5581098494332704,-0.03328566106921445,18.776995,2.9075427,-7.143625,-1.0957487,9.283121,-10.024265,1.426284,-0.3362889,0.32522818,-0.29921174,-0.8316298,-9.298104,4.719981,0.7735056,2.709156,-2.7643316,0.70116174,0
0.8600000000000005,16.417525471484975,3.3825057329405457,-3.5581098494332704,-0.03328566106921445,18.776995,2.9075427,-7.143625,-1.0957487,9.189867,-9.976476,1.4340311,-0.3421048,0.3077379,-0.30699673,-0.83307505,-9.351622,4.837956,0.77624285,2.8141534,-2.888139,0.66512215,0
0.8700000000000006,16.417525471484975,3.3825057329405457,-3.5581098494332704,-0.03328566106921445,18.776995,2.9075427,-7.143625,-1.0957487,9.096109,-9.927503,1.441816,-0.34824783,0.28953364,-0.31480703,-0.83414006,-9.398942,4.9568067,0.78102726,2.902766,-2.9926472,0.63085103,0
0.8800000000000006,16.942894056565777,3.3441553358620513,-3.63042360280733,-0.2685815628002758,18.117908,3.200623,-7.29583,-1.9094057,9.00191,-9.877337,1.4496584,-0.35464495,0.2707107,-0.3226017,-0.83478755,-9.439765,5.0763826,0.7877355,2.9775522,-3.0808632,0.59826165,0
0.8900000000000006,16.942894056565777,3.3441553358620513,-3.63042360280733,-0.2685815628002758,18.117908,3.200623,-7.29583,-1.9094057,8.907332,-9.825954,1.4575937,-0.36126262,0.25134256,-0.33031484,-0.8349897,-9.474918,5.200353,0.7996245,3.0346694,-3.1666284,0.5557254,0
0.9000000000000006,16.942894056565777,3.3441553358620513,-3.63042360280733,-0.2685815628002758,18.117908,3.200623,-7.29583,-1.9094057,8.812438,-9.773329,1.4656563,-0.3680734,0.23149599,-0.33789137,-0.8347218,-9.502858,5.3246818,0.8131647,3.0828743,-3.2390208,0.5152764,0
0.9100000000000006,16.942894056565777,3.3441553358620513,-3.63042360280733,-0.2685815628002758,18.117908,3.200623,-7.29583,-1.9094057,8.7173,-9.71946,1.4738618,-0.37502632,0.2112394,-0.3453137,-0.83396107,-9.523385,5.4491405,0.82815903,3.1235588,-3.3001246,0.47681224,0
0.9200000000000006,17.085281734328003,2.8126152014509396,-3.226082652501798,-0.4342495396637173,18.035004,4.2707334,-7.554848,-3.294293,8.621996,-9.664347,1.4822236,-0.3820766,0.19063288,-0.3525669,-0.83268994,-9.536331,5.5734887,0.84438914,3.1578968,-3.3516989,0.44023553,0
0.9300000000000006,17.085281734328003,2.8126152014509396,-3.226082652501798,-0.4342495396637173,18.035004,4.2707334,-7.554848,-3.294293,8.5266,-9.6079855,1.4907578,-0.38910696,0.16995385,-0.35952124,-0.83093643,-9.541627,5.6985173,0.8625889,3.1039517,-3.3322113,0.3973243,0
0.9400000000000006,17.085281734328003,2.8126152014509396,-3.226082652501798,-0.4342495396637173,18.035004,4.2707334,-7.554848,-3.294293,8.43119,-9.550378,1.499478,-0.39603332,0.14943217,-0.36608085,-0.8287411,-9.539196,5.82292,0.8815532,3.0584252,-3.3157535,0.35651872,0
0.9500000000000006,17.085281734328003,2.8126152014509396,-3.226082652501798,-0.4342495396637173,18.035004,4.2707334,-7.554848,-3.294293,8.335842,-9.49153,1.5083907,-0.4028627,0.12905239,-0.37227967,-0.8261079,-9.529118,5.9464417,0.9010411,3.0200047,-3.3018546,0.31771553,0
0.9600000000000006,16.75591329984151,1.9243071093420006,-2.5016996898730555,-0.5237156853526762,18.134808,6.056259,-6.629848,-4.8364654,8.240634,-9.431454,1.5174998,-0.40959898,0.108802065,-0.37814653,-0.8230403,-9.511476,6.0688357,0.92081636,2.9875808,-3.2901165,0.28081638,0
0.9700000000000006,16.75591329984151,1.9243071093420006,-2.5016996898730555,-0.5237156853526762,18.134808,6.056259,-6.629848,-4.8364654,8.145636,-9.370171,1.5267957,-0.41610894,0.08906077,-0.3835341,-0.8196477,-9.486878,6.187535,0.9383773,2.8216596,-3.1672664,0.24133776,0
0.9800000000000006,16.75591329984151,1.9243071093420006,-2.5016996898730555,-0.5237156853526762,18.134808,6.056259,-6.629848,-4.8364654,8.05092,-9.307708,1.5362668,-0.42230356,0.07013352,-0.38834062,-0.8160465,-9.455298,6.3047,0.95580757,2.6816263,-3.0635595,0.20379636,0
0.9900000000000007,16.75591329984151,1.9243071093420006,-2.5016996898730555,-0.5237156853526762,18.134808,6.056259,-6.629848,-4.8364654,7.9565525,-9.244083,1.5459108,-0.42824116,0.051909283,-0.39264843,-0.81224465,-9.417081,6.4201627,0.97294736,2.563442,-2.9760134,0.16809711,0
1.0000000000000007,16.652877950113048,0.9521834560587796,-1.6453932381070773,-0.5479318958258744,19.224241,4.803211,-6.4882627,-4.810081,7.8625994,-9.179312,1.5557241,-0.43396795,0.034293044,-0.3965261,-0.80824625,-9.37253,6.533774,0.9896537,2.463697,-2.9021099,0.13414964,0
1.0100000000000007,16.652877950113048,0.9521834560587796,-1.6453932381070773,-0.5479318958258744,19.224241,4.803211,-6.4882627,-4.810081,7.76912,-9.113418,1.5656984,-0.43937802,0.017651115,-0.39986855,-0.80420125,-9.322266,6.6447206,1.0051018,2.2279007,-2.7061954,0.100679696,0
1.0200000000000007,16.652877950113048,0.9521834560587796,-1.6453932381070773,-0.5479318958258744,19.224241,4.803211,-6.4882627,-4.810081,7.6761723,-9.046424,1.575824,-0.44440383,0.0022700345,-0.4026082,-0.80025357,-9.266491,6.753642,1.0199381,2.0288897,-2.5408192,0.068852134,0
1.0300000000000007,16.652877950113048,0.9521834560587796,-1.6453932381070773,-0.5479318958258744,19.224241,4.803211,-6.4882627,-4.810081,7.583808,-8.978351,1.586095,-0.44912732,-0.012033774,-0.404846,-0.796391,-9.2056875,6.860514,1.0341367,1.860924,-2.401222,0.03858637,0
1.0400000000000007,16.652877950113048,0.9521834560587796,-1.6453932381070773,-0.5479318958258744,19.83923,4.9410434,-6.674956,-5.1067505,7.492075,-8.90922,1.5965046,-0.4536135,-0.0254168,-0.40666482,-0.79259795,-9.140261,6.965321,1.0476826,1.7191604,-2.2833867,0.009805743,0
1.0500000000000007,16.652877950113048,0.9521834560587796,-1.6453932381070773,-0.5479318958258744,19.83923,4.9410434,-6.674956,-5.1067505,7.401017,-8.839051,1.6070464,-0.45791394,-0.03801225,-0.40813282,-0.7888577,-9.070559,7.068054,1.0605675,1.5995109,-2.1839216,-0.017562602,0
1.0600000000000007,16.652877950113048,0.9521834560587796,-1.6453932381070773,-0.5479318958258744,19.83923,4.9410434,-6.674956,-5.1067505,7.3106766,-8.767865,1.6177136,-0.46206963,-0.049933385,-0.40930623,-0.78515327,-8.996877,7.168706,1.0727863,1.498526,-2.099963,-0.04358797,0
1.0700000000000007,16.652877950113048,0.9521834560587796,-1.6453932381070773,-0.5479318958258744,19.83923,4.9410434,-6.674956,-5.1067505,7.221092,-8.6956835,1.6284997,-0.4661129,-0.061276447,-0.41023135,-0.7814685,-8.919466,7.267272,1.0843352,1.4132935,-2.0290933,-0.06833627,0
1.0800000000000007,16.092565989579406,0.06911278694643337,-1.041206845197891,-0.47025159961280527,20.336685,4.0599737,-6.8538375,-3.44327,7.1322994,-8.622527,1.6393979,-0.47006926,-0.07212316,-0.41094652,-0.77778846,-8.838547,7.363746,1.0952096,1.341356,-1.9692727,-0.09187016,0
1.0900000000000007,16.092565989579406,0.06911278694643337,-1.041206845197891,-0.47025159961280527,20.336685,4.0599737,-6.8538375,-3.44327,7.044318,-8.548431,1.6503832,-0.4738799,-0.082192756,-0.41132346,-0.77427,-8.757168,7.4549537,1.101774,1.1429368,-1.8245435,-0.110437445,0
1.1000000000000008,16.092565989579406,0.06911278694643337,-1.041206845197891,-0.47025159961280527,20.336685,4.0599737,-6.8538375,-3.44327,6.9571657,-8.473434,1.6614314,-0.47750625,-0.09126764,-0.41126844,-0.771048,-8.672936,7.544191,1.1077797,0.9754637,-1.7023818,-0.12809362,0
1.1100000000000008,16.092565989579406,0.06911278694643337,-1.041206845197891,-0.47025159961280527,20.336685,4.0599737,-6.8538375,-3.44327,6.870868,-8.397555,1.6725373,-0.48099163,-0.0994972,-0.41085556,-0.76807797,-8.586181,7.63152,1.1133304,0.8341099,-1.5992694,-0.14488341,0
1.1200000000000008,15.449274030385869,-0.736073027562465,-0.41121343623845913,-0.3200317954595541,21.030025,4.3405843,-6.6721616,-3.6845539,6.785449,-8.320811,1.6836969,-0.48437002,-0.10700795,-0.41014567,-0.7653197,-8.497177,7.716997,1.1185175,0.7148014,-1.5122362,-0.16084933,0
1.1300000000000008,15.449274030385869,-0.736073027562465,-0.41121343623845913,-0.3200317954595541,21.030025,4.3405843,-6.6721616,-3.6845539,6.700913,-8.243238,1.6948862,-0.48758668,-0.11356567,-0.40906373,-0.7629073,-8.409818,7.7973394,1.1193162,0.48854956,-1.3405112,-0.16866046,0
1.1400000000000008,15.449274030385869,-0.736073027562465,-0.41121343623845913,-0.3200317954595541,21.030025,4.3405843,-6.6721616,-3.6845539,6.617258,-8.16487,1.7060828,-0.4906018,-0.11899189,-0.40755576,-0.7609519,-8.320885,7.8760743,1.1200049,0.29758042,-1.1955683,-0.17608829,0
1.1500000000000008,15.449274030385869,-0.736073027562465,-0.41121343623845913,-0.3200317954595541,21.030025,4.3405843,-6.6721616,-3.6845539,6.5344987,-8.085722,1.7172866,-0.49345794,-0.12346045,-0.4056947,-0.7593861,-8.230705,7.9533215,1.1207391,0.13639183,-1.0732309,-0.18315163,0
1.1600000000000008,14.816239763538606,-1.4116209616110436,0.09993438958056475,-0.1276178436622817,19.245125,-0.54549944,-4.515558,2.98518,6.4526467,-8.005809,1.7284983,-0.49618834,-0.12711813,-0.4035401,-0.7581505,-8.139555,8.029186,1.1216538,0.00033939257,-0.9699734,-0.18986839,0
1.1700000000000008,14.816239763538606,-1.4116209616110436,0.09993438958056475,-0.1276178436622817,19.245125,-0.54549944,-4.515558,2.98518,6.371691,-7.925159,1.7397004,-0.4987536,-0.12980911,-0.40103486,-0.7573402,-8.051446,8.100711,1.1188058,-0.2198326,-0.8030949,-0.18681371,0
1.1800000000000008,14.816239763538606,-1.4116209616110436,0.09993438958056475,-0.1276178436622817,19.245125,-0.54549944,-4.515558,2.98518,6.291619,-7.8437996,1.7508761,-0.50112176,-0.13141727,-0.398136,-0.75702894,-7.9629474,8.171135,1.116416,-0.40567294,-0.662246,-0.18390897,0
1.1900000000000008,14.816239763538606,-1.4116209616110436,0.09993438958056475,-0.1276178436622817,19.245125,-0.54549944,-4.515558,2.98518,6.2124324,-7.7617407,1.7620308,-0.50332534,-0.13211016,-0.3949063,-0.757138,-7.87435,8.240585,1.1146437,-0.5625348,-0.5433667,-0.18114677,0
1.2000000000000008,13.361335202988048,-1.699479536066862,0.1590124281172675,0.06912746111975528,18.35882,-0.7342145,-4.1182494,3.5513039,6.134132,-7.678991,1.7731715,-0.5053899,-0.13202909,-0.39139727,-0.7575988,-7.7859015,8.309175,1.1136228,-0.6949367,-0.44302982,-0.1785201,0
1.2100000000000009,13.361335202988048,-1.699479536066862,0.1590124281172675,0.06912746111975528,18.35882,-0.7342145,-4.1182494,3.5513039,6.0566707,-7.5955925,1.7842582,-0.5073229,-0.13122652,-0.38757274,-0.7584121,-7.7064652,8.370333,1.1038513,-0.851581,-0.34913024,-0.16636795,0
1.2200000000000009,13.361335202988048,-1.699479536066862,0.1590124281172675,0.06912746111975528,18.35882,-0.7342145,-4.1182494,3.5513039,5.980001,-7.5115867,1.7952516,-0.5091269,-0.129751,-0.38340452,-0.7595748,-7.627553,8.430864,1.0949751,-0.98379976,-0.2698787,-0.15481214,0
1.2300000000000009,13.361335202988048,-1.699479536066862,0.1590124281172675,0.06912746111975528,18.35882,-0.7342145,-4.1182494,3.5513039,5.904117,-7.426978,1.8061613,-0.5108136,-0.12770711,-0.37894243,-0.76102656,-7.549342,8.4908285,1.087095,-1.0954016,-0.2029899,-0.14382336,0
1.2400000000000009,13.361335202988048,-1.699479536066862,0.1590124281172675,0.06912746111975528,17.31827,-0.5495069,-4.0284176,3.400107,5.8290114,-7.3417726,1.8169973,-0.5123924,-0.12518318,-0.37422806,-0.7627156,-7.4719872,8.550271,1.0802921,-1.1896008,-0.14653495,-0.1333738,0
1.2500000000000009,13.361335202988048,-1.699479536066862,0.1590124281172675,0.06912746111975528,17.31827,-0.5495069,-4.0284176,3.400107,5.7546744,-7.2559743,1.8277708,-0.5138708,-0.12225372,-0.36929628,-0.7645977,-7.3956223,8.609227,1.07463,-1.2691114,-0.09888627,-0.123436995,0
1.260000000000001,13.361335202988048,-1.699479536066862,0.1590124281172675,0.06912746111975528,17.31827,-0.5495069,-4.0284176,3.400107,5.681095,-7.169589,1.8384938,-0.5152549,-0.11898168,-0.3641765,-0.76663536,-7.320363,8.667727,1.0701578,-1.3362234,-0.058669906,-0.11398781,0
1.270000000000001,13.361335202988048,-1.699479536066862,0.1590124281172675,0.06912746111975528,17.31827,-0.5495069,-4.0284176,3.400107,5.608263,-7.0826216,1.8491781,-0.5165498,-0.115420215,-0.3588935,-0.76879674,-7.246312,8.725791,1.0669118,-1.3928702,-0.024726385,-0.105002314,0
1.280000000000001,11.530005712395837,-1.5907130155856608,-0.31204840746103724,0.26110900176191393,14.8518095,-0.35559988,-2.860878,3.1222365,5.5361648,-6.995075,1.8598362,-0.51776,-0.11161423,-0.35346827,-0.77105486,-7.1735597,8.783437,1.0649178,-1.4406837,0.003922705,-0.09645773,0
1.290000000000001,11.530005712395837,-1.5907130155856608,-0.31204840746103724,0.26110900176191393,14.8518095,-0.35559988,-2.860878,3.1222365,5.4647384,-6.9069934,1.8704143,-0.5189322,-0.10777814,-0.34785202,-0.7733633,-7.1119614,8.83282,1.0508465,-1.4640832,-0.045368116,-0.07891184,0
1.300000000000001,11.530005712395837,-1.5907130155856608,-0.31204840746103724,0.26110900176191393,14.8518095,-0.35559988,-2.860878,3.1222365,5.3939214,-6.81842,1.880857,-0.5201009,-0.1040855,-0.34200695,-0.77568746,-7.0515676,8.881795,1.0378809,-1.4838322,-0.08697177,-0.062226914,0
1.310000000000001,11.530005712395837,-1.5907130155856608,-0.31204840746103724,0.26110900176191393,14.8518095,-0.35559988,-2.860878,3.1222365,5.323703,-6.729359,1.8911756,-0.52125263,-0.10051611,-0.3359645,-0.77802217,-6.992387,8.930305,1.026027,-1.5005004,-0.12208701,-0.04636073,0
1.320000000000001,9.8834417275542,-1.4170381015933413,-0.7419539046384884,0.4615941440540255,14.71548,-0.42320684,-3.0430722,2.9680958,5.2540693,-6.639816,1.9013813,-0.52237666,-0.09705272,-0.3297514,-0.7803626,-6.93443,8.978298,1.015286,-1.5145686,-0.15172593,-0.031273097,0
1.330000000000001,9.8834417275542,-1.4170381015933413,-0.7419539046384884,0.4615941440540255,14.71548,-0.42320684,-3.0430722,2.9680958,5.1849694,-6.549829,1.9114221,-0.5234948,-0.093859434,-0.3233524,-0.7826783,-6.8858027,9.0189495,0.9930205,-1.4993569,-0.24379563,-0.0070879417,0
1.340000000000001,9.8834417275542,-1.4170381015933413,-0.7419539046384884,0.4615941440540255,14.71548,-0.42320684,-3.0430722,2.9680958,5.11635,-6.459439,1.921245,-0.5246208,-0.091066934,-0.31675673,-0.78494805,-6.8382,9.059041,0.971698,-1.4865149,-0.32150552,0.015910417,0
1.350000000000001,9.8834417275542,-1.4170381015933413,-0.7419539046384884,0.4615941440540255,14.71548,-0.42320684,-3.0430722,2.9680958,5.0482016,-6.368651,1.9308594,-0.52573633,-0.08861623,-0.30999136,-0.78717995,-6.7915893,9.098495,0.95130795,-1.4756739,-0.38709518,0.03778026,0
1.360000000000001,8.897483367012548,-1.398939881925103,-0.980740137261287,0.6696127825754462,13.128309,-2.78701,-1.9777566,2.3565068,4.980515,-6.2774715,1.9402744,-0.5268265,-0.08645712,-0.30307913,-0.78937984,-6.7459445,9.137247,0.9318384,-1.4665223,-0.44245484,0.058576938,0
1.370000000000001,8.897483367012548,-1.398939881925103,-0.980740137261287,0.6696127825754462,13.128309,-2.78701,-1.9777566,2.3565068,4.913257,-6.1859274,1.9494597,-0.52788687,-0.08463391,-0.29599252,-0.79155505,-6.7057014,9.17145,0.9053419,-1.4559693,-0.5264282,0.08856065,0
1.380000000000001,8.897483367012548,-1.398939881925103,-0.980740137261287,0.6696127825754462,13.128309,-2.78701,-1.9777566,2.3565068,4.846398,-6.094045,1.958384,-0.52891016,-0.083180234,-0.2887103,-0.79371274,-6.6662793,9.204899,0.8796529,-1.4470606,-0.59730434,0.117073044,0
1.390000000000001,8.897483367012548,-1.398939881925103,-0.980740137261287,0.6696127825754462,13.128309,-2.78701,-1.9777566,2.3565068,4.779929,-6.001832,1.9670556,-0.52988124,-0.082041994,-0.28125876,-0.7958561,-6.627652,9.237532,0.85476077,-1.4395401,-0.65712565,0.14418633,0
1.400000000000001,8.056156394411264,-1.3074617243990205,-0.8950198309595976,0.8489642858424795,12.268944,-3.8542984,-2.1222596,3.3770313,4.7138424,-5.9092975,1.975482,-0.53078824,-0.08117308,-0.27366042,-0.797987,-6.5898004,9.269293,0.8306528,-1.433192,-0.7076167,0.16996917,0
1.410000000000001,8.056156394411264,-1.3074617243990205,-0.8950198309595976,0.8489642858424795,12.268944,-3.8542984,-2.1222596,3.3770313,4.6481133,-5.8164644,1.9836359,-0.5315921,-0.08053223,-0.26597995,-0.800111,-6.556215,9.297219,0.80024457,-1.4135652,-0.73687065,0.20328768,0
1.420000000000001,8.056156394411264,-1.3074617243990205,-0.8950198309595976,0.8489642858424795,12.268944,-3.8542984,-2.1222596,3.3770313,4.5827165,-5.7233562,1.9914892,-0.5322601,-0.08008505,-0.2582699,-0.8022348,-6.5233006,9.324285,0.77051264,-1.3969995,-0.7615605,0.2349712,0
1.430000000000001,8.056156394411264,-1.3074617243990205,-0.8950198309595976,0.8489642858424795,12.268944,-3.8542984,-2.1222596,3.3770313,4.517645,-5.6299825,1.9990485,-0.5327931,-0.07980425,-0.25053146,-0.80436015,-6.491045,9.350466,0.74143565,-1.3830177,-0.7823984,0.26510003,0
1.440000000000001,8.056156394411264,-1.3074617243990205,-0.8950198309595976,0.8489642858424795,11.326434,-3.5698576,-1.4904758,3.0511644,4.452893,-5.5363503,2.00632,-0.53319216,-0.07966644,-0.2427657,-0.8064878,-6.4594364,9.375742,0.71299237,-1.3712169,-0.79998535,0.2937504,0
1.450000000000001,8.056156394411264,-1.3074617243990205,-0.8950198309595976,0.8489642858424795,11.326434,-3.5698576,-1.4904758,3.0511644,4.3884535,-5.4424706,2.0133102,-0.5334591,-0.07965154,-0.23497362,-0.8086178,-6.428467,9.400095,0.6851621,-1.3612568,-0.8148282,0.32099494,0
1.460000000000001,8.056156394411264,-1.3074617243990205,-0.8950198309595976,0.8489642858424795,11.326434,-3.5698576,-1.4904758,3.0511644,4.324321,-5.348352,2.020025,-0.5335962,-0.0797423,-0.22715619,-0.8107495,-6.398128,9.423509,0.6579244,-1.3528508,-0.8273551,0.34690255,0
1.470000000000001,8.056156394411264,-1.3074617243990205,-0.8950198309595976,0.8489642858424795,11.326434,-3.5698576,-1.4904758,3.0511644,4.2604885,-5.254004,2.0264704,-0.53360575,-0.079923846,-0.21931434,-0.81288177,-6.3684154,9.445967,0.63125885,-1.3457566,-0.83792746,0.37153885,0
1.480000000000001,7.512093103192667,-1.2476470174450096,-0.7400750785205987,0.9838235240734388,10.677672,-4.005279,-0.43275356,2.3808203,4.1969504,-5.159436,2.032652,-0.5334903,-0.08018339,-0.21144891,-0.8150132,-6.3393235,9.467455,0.60514516,-1.3397696,-0.8468501,0.39496627,0
1.490000000000001,7.512093103192667,-1.2476470174450096,-0.7400750785205987,0.9838235240734388,10.677672,-4.005279,-0.43275356,2.3808203,4.1336904,-5.0646653,2.0385506,-0.53322434,-0.080475576,-0.20361207,-0.8171512,-6.3127728,9.486576,0.5746652,-1.3253917,-0.83021986,0.42386168,0
1.500000000000001,7.512093103192667,-1.2476470174450096,-0.7400750785205987,0.9838235240734388,10.677672,-4.005279,-0.43275356,2.3808203,4.0706925,-4.969708,2.0441468,-0.53278726,-0.080763936,-0.19584535,-0.8193034,-6.2867956,9.504786,0.5446583,-1.3132567,-0.81618196,0.45133916,0
1.5100000000000011,7.512093103192667,-1.2476470174450096,-0.7400750785205987,0.9838235240734388,10.677672,-4.005279,-0.43275356,2.3808203,4.007952,-4.8745728,2.0494452,-0.5321887,-0.081050135,-0.18813525,-0.82146806,-6.2613926,9.522089,0.51510245,-1.3030146,-0.8043324,0.47746828,0
1.5200000000000011,7.181448054241911,-1.2561674429736065,-0.3120290783558331,1.0961203177389702,9.4972925,-4.1627812,0.14305976,2.0886216,3.945463,-4.779269,2.0544503,-0.53143716,-0.0813354,-0.18047039,-0.82364327,-6.236562,9.53849,0.48597673,-1.2943703,-0.79432976,0.5023153,0
1.5300000000000011,7.181448054241911,-1.2561674429736065,-0.3120290783558331,1.0961203177389702,9.4972925,-4.1627812,0.14305976,2.0886216,3.883214,-4.6838098,2.0591507,-0.5304988,-0.08148004,-0.17292842,-0.82584894,-6.2133718,9.553313,0.45420697,-1.2884233,-0.71913785,0.53145343,0
1.5400000000000011,7.181448054241911,-1.2561674429736065,-0.3120290783558331,1.0961203177389702,9.4972925,-4.1627812,0.14305976,2.0886216,3.821194,-4.5882063,2.0635355,-0.5293483,-0.08137315,-0.1655703,-0.8281026,-6.190745,9.567315,0.4228093,-1.283403,-0.6556709,0.5591618,0
1.5500000000000012,7.181448054241911,-1.2561674429736065,-0.3120290783558331,1.0961203177389702,9.4972925,-4.1627812,0.14305976,2.0886216,3.7593973,-4.4924664,2.067608,-0.52800405,-0.08105427,-0.15836495,-0.8303982,-6.168698,9.580532,0.39176518,-1.2791649,-0.60210055,0.5855105,0
1.5600000000000012,7.487727068837282,-1.4348582986916467,0.2276659405783944,1.2457103591379028,9.039621,-3.5875025,-0.065474994,2.1346726,3.6978183,-4.396598,2.071372,-0.52648145,-0.08055668,-0.15128621,-0.8327299,-6.1472454,9.592994,0.3610575,-1.2755866,-0.55688363,0.61056626,0
1.5700000000000012,7.487727068837282,-1.4348582986916467,0.2276659405783944,1.2457103591379028,9.039621,-3.5875025,-0.065474994,2.1346726,3.636455,-4.3006067,2.0748448,-0.524752,-0.07969353,-0.14436455,-0.83512974,-6.125515,9.605233,0.33355886,-1.3004645,-0.43456975,0.64173293,0
1.5800000000000012,7.487727068837282,-1.4348582986916467,0.2276659405783944,1.2457103591379028,9.039621,-3.5875025,-0.065474994,2.1346726,3.5753057,-4.2044964,2.0780442,-0.5227934,-0.07831789,-0.13762218,-0.8376229,-6.1044674,9.616774,0.30638373,-1.3214598,-0.33132872,0.6713703,0
1.5900000000000012,7.487727068837282,-1.4348582986916467,0.2276659405783944,1.2457103591379028,9.039621,-3.5875025,-0.065474994,2.1346726,3.5143633,-4.1082735,2.0809734,-0.5206257,-0.07650937,-0.13102798,-0.84019375,-6.0841494,9.627673,0.2795221,-1.3391777,-0.24418616,0.6995534,0
1.6000000000000012,8.554003507853116,-1.8021836415161823,0.8708009968547714,1.4726674219371048,11.1734915,-3.07052,0.9128356,3.1222174,3.4536202,-4.011945,2.0836356,-0.5182656,-0.07433521,-0.12455582,-0.84282833,-6.064602,9.637978,0.25296378,-1.3541296,-0.1706316,0.72635347,0
1.6100000000000012,8.554003507853116,-1.8021836415161823,0.8708009968547714,1.4726674219371048,11.1734915,-3.07052,0.9128356,3.1222174,3.393082,-3.915509,2.0860846,-0.51568264,-0.07156229,-0.11819079,-0.8455649,-6.043199,9.64912,0.23692934,-1.4240798,-0.008287583,0.7629753,0
1.6200000000000012,8.554003507853116,-1.8021836415161823,0.8708009968547714,1.4726674219371048,11.1734915,-3.07052,0.9128356,3.1222174,3.3327527,-3.8189645,2.088375,-0.51284957,-0.068008505,-0.11191838,-0.84842986,-6.0228205,9.659709,0.22122812,-1.4831158,0.12874284,0.79780006,0
1.6300000000000012,8.554003507853116,-1.8021836415161823,0.8708009968547714,1.4726674219371048,11.1734915,-3.07052,0.9128356,3.1222174,3.2726216,-3.7223165,2.0905104,-0.5097837,-0.06379488,-0.10571938,-0.8513947,-6.0035653,9.669816,0.20585677,-1.5329394,0.24440742,0.83091605,0
1.6400000000000012,8.554003507853116,-1.8021836415161823,0.8708009968547714,1.4726674219371048,13.509579,-3.5825953,0.0759942,3.6687403,3.212677,-3.6255698,2.0924935,-0.5064991,-0.05902363,-0.09957807,-0.85443413,-5.9855185,9.6795,0.19080783,-1.5749875,0.34203807,0.86240697,0
1.6500000000000012,8.554003507853116,-1.8021836415161823,0.8708009968547714,1.4726674219371048,13.509579,-3.5825953,0.0759942,3.6687403,3.152907,-3.5287282,2.0943274,-0.50300765,-0.053781103,-0.09348165,-0.8575258,-5.968753,9.688805,0.17607008,-1.6104732,0.4244471,0.8923526,0
1.6600000000000013,8.554003507853116,-1.8021836415161823,0.8708009968547714,1.4726674219371048,13.509579,-3.5825953,0.0759942,3.6687403,3.0932975,-3.4317951,2.0960157,-0.49931946,-0.0481403,-0.08741981,-0.86065024,-5.9533315,9.697766,0.16162886,-1.6404201,0.49400792,0.9208288,0
1.6700000000000013,8.554003507853116,-1.8021836415161823,0.8708009968547714,1.4726674219371048,13.509579,-3.5825953,0.0759942,3.6687403,3.0338354,-3.334774,2.0975611,-0.49544317,-0.04216295,-0.08138428,-0.8637902,-5.939307,9.70641,0.14746657,-1.6656919,0.5527241,0.9479077,0
1.6800000000000013,9.780265333375933,-2.164852961952942,1.2709736616361476,1.681913758094676,13.131921,-1.2791668,0.37035772,1.8311049,2.9745064,-3.237668,2.0989661,-0.49138647,-0.035901297,-0.07536854,-0.8669306,-5.926726,9.714752,0.13356295,-1.6870185,0.6022867,0.97365785,0
1.6900000000000013,9.780265333375933,-2.164852961952942,1.2709736616361476,1.681913758094676,13.131921,-1.2791668,0.37035772,1.8311049,2.915304,-3.1404743,2.1002936,-0.4871263,-0.029191336,-0.069318876,-0.8700858,-5.9140444,9.723962,0.13200027,-1.7616186,0.706481,1.0084121,0
1.7000000000000013,9.780265333375933,-2.164852961952942,1.2709736616361476,1.681913758094676,13.131921,-1.2791668,0.37035772,1.8311049,2.8562193,-3.04319,2.1016068,-0.4826392,-0.021905618,-0.06319127,-0.8732611,-5.903163,9.732868,0.13068539,-1.8245777,0.79443276,1.041461,0
1.7100000000000013,9.780265333375933,-2.164852961952942,1.2709736616361476,1.681913758094676,13.131921,-1.2791668,0.37035772,1.8311049,2.797234,-2.945818,2.1029081,-0.47793132,-0.014134287,-0.056994647,-0.87643135,-5.8941827,9.741489,0.1295909,-1.8777114,0.86867464,1.0728881,0
1.7200000000000013,11.056768461393464,-2.3258263783564206,1.6322496934287754,1.7678278946610322,13.174633,-1.188635,0.5988663,1.8120697,2.7383287,-2.848361,2.1041994,-0.47300825,-0.0059536872,-0.050737213,-0.87957484,-5.887188,9.749837,0.12868358,-1.922553,0.93134433,1.1027732,0
1.7300000000000013,11.056768461393464,-2.3258263783564206,1.6322496934287754,1.7678278946610322,13.174633,-1.188635,0.5988663,1.8120697,2.6794868,-2.7508166,2.1055458,-0.4678587,0.0027286408,-0.044437815,-0.8826803,-5.881613,9.758972,0.14063008,-1.9855436,1.0405627,1.1354076,0
1.7400000000000013,11.056768461393464,-2.3258263783564206,1.6322496934287754,1.7678278946610322,13.174633,-1.188635,0.5988663,1.8120697,2.6206882,-2.6531823,2.1070123,-0.46247175,0.011982431,-0.038111266,-0.88573265,-5.8784823,9.767827,0.15269588,-2.0387013,1.1327554,1.1664406,0
1.7500000000000013,11.056768461393464,-2.3258263783564206,1.6322496934287754,1.7678278946610322,13.174633,-1.188635,0.5988663,1.8120697,2.5619082,-2.555461,2.1086,-0.4568531,0.021717075,-0.03175971,-0.88870883,-5.877904,9.776422,0.16482508,-2.0835605,1.2105771,1.1959509,0
1.7600000000000013,12.083948371257467,-2.4153501617634037,1.497087957400347,1.7966842105846998,13.589337,-0.36030608,-0.095234424,1.317099,2.503121,-2.457655,2.110309,-0.4510081,0.031855587,-0.025385791,-0.891589,-5.879966,9.784762,0.17695585,-2.121416,1.2762684,1.2240131,0
1.7700000000000014,12.083948371257467,-2.4153501617634037,1.497087957400347,1.7966842105846998,13.589337,-0.36030608,-0.095234424,1.317099,2.4442976,-2.359763,2.11219,-0.44493875,0.042300154,-0.018936386,-0.8943601,-5.8851867,9.793595,0.19925596,-2.1673062,1.3106288,1.2521142,0
1.7800000000000014,12.083948371257467,-2.4153501617634037,1.497087957400347,1.7966842105846998,13.589337,-0.36030608,-0.095234424,1.317099,2.3854067,-2.261784,2.1142936,-0.4386462,0.052968968,-0.012370597,-0.8970113,-5.893439,9.802112,0.22140907,-2.2060356,1.3396369,1.2788365,0
1.7900000000000014,12.083948371257467,-2.4153501617634037,1.497087957400347,1.7966842105846998,13.589337,-0.36030608,-0.095234424,1.317099,2.326418,-2.163722,2.1166177,-0.43213478,0.06382302,-0.005707924,-0.8995288,-5.9047728,9.810266,0.24333595,-2.2387211,1.3641272,1.3042474,0
1.8000000000000014,12.676598666556819,-2.469520301787068,0.8767715949177722,1.7448579341009487,14.154954,0.31661156,-2.0155203,1.7288682,2.2673006,-2.0655806,2.1191595,-0.4254091,0.074829005,0.0010345809,-0.9019008,-5.9192266,9.818012,0.2649543,-2.266306,1.3848033,1.3284115,0
1.8100000000000014,12.676598666556819,-2.469520301787068,0.8767715949177722,1.7448579341009487,14.154954,0.31661156,-2.0155203,1.7288682,2.2080188,-1.9673618,2.1219447,-0.41847777,0.08574343,0.007966924,-0.90413463,-5.937682,9.825648,0.29203352,-2.297946,1.305518,1.3488467,0
1.8200000000000014,12.676598666556819,-2.469520301787068,0.8767715949177722,1.7448579341009487,14.154954,0.31661156,-2.0155203,1.7288682,2.1485357,-1.8690697,2.124998,-0.4113489,0.096371025,0.015173247,-0.9062411,-5.959396,9.8326645,0.3186253,-2.3246598,1.2386022,1.3682791,0
1.8300000000000014,12.676598666556819,-2.469520301787068,0.8767715949177722,1.7448579341009487,14.154954,0.31661156,-2.0155203,1.7288682,2.0888197,-1.7707111,2.1283147,-0.40402716,0.10675048,0.022605134,-0.9082147,-5.984314,9.838925,0.3446568,-2.347215,1.1821265,1.386758,0
1.8400000000000014,12.676598666556819,-2.469520301787068,0.8767715949177722,1.7448579341009487,13.886069,0.31159922,-2.4909027,2.3328073,2.0288389,-1.6722941,2.1318889,-0.39651752,0.11691445,0.030221652,-0.9100495,-6.0123835,9.844308,0.37005535,-2.3662586,1.1344625,1.40433,0
1.8500000000000014,12.676598666556819,-2.469520301787068,0.8767715949177722,1.7448579341009487,13.886069,0.31159922,-2.4909027,2.3328073,1.9685615,-1.5738282,2.1357133,-0.3888253,0.12689036,0.03798816,-0.9117396,-6.04355,9.8487015,0.3947483,-2.3823373,1.0942351,1.4210399,0
1.8600000000000014,12.676598666556819,-2.469520301787068,0.8767715949177722,1.7448579341009487,13.886069,0.31159922,-2.4909027,2.3328073,1.9079573,-1.4753238,2.139781,-0.380956,0.13670126,0.045875307,-0.9132794,-6.077758,9.852006,0.41866314,-2.395913,1.0602843,1.4369297,0
1.8700000000000014,12.676598666556819,-2.469520301787068,0.8767715949177722,1.7448579341009487,13.886069,0.31159922,-2.4909027,2.3328073,1.8469961,-1.3767922,2.1440837,-0.37291524,0.14636637,0.053858183,-0.91466326,-6.114952,9.854132,0.44172758,-2.407375,1.0316311,1.45204,0
1.8800000000000014,12.516374248307512,-2.2636317828915318,-0.036900456991168486,1.5310928882472696,12.764054,2.0658414,-2.6159012,1.4943904,1.7856482,-1.2782456,2.1486123,-0.36470872,0.15590179,0.06191561,-0.9158859,-6.155075,9.854996,0.46386954,-2.4170532,1.007449,1.4664085,0
1.8900000000000015,12.516374248307512,-2.2636317828915318,-0.036900456991168486,1.5310928882472696,12.764054,2.0658414,-2.6159012,1.4943904,1.7238874,-1.1796969,2.1533499,-0.3563566,0.16495454,0.07009039,-0.91699815,-6.197509,9.854516,0.48351642,-2.3929734,0.8446013,1.4695826,0
1.9000000000000015,12.516374248307512,-2.2636317828915318,-0.036900456991168486,1.5310928882472696,12.764054,2.0658414,-2.6159012,1.4943904,1.6616889,-1.0811603,2.1582792,-0.34787947,0.17324656,0.07841313,-0.9180497,-6.2425876,9.852568,0.50216085,-2.3726726,0.7071462,1.4726009,0
1.9100000000000015,12.516374248307512,-2.2636317828915318,-0.036900456991168486,1.5310928882472696,12.764054,2.0658414,-2.6159012,1.4943904,1.5990272,-0.98265105,2.1633897,-0.3392833,0.18089087,0.08685148,-0.9190324,-6.290124,9.849012,0.5197882,-2.3555577,0.5911245,1.4754711,0
1.9200000000000015,12.06390065628804,-1.8174667350277316,-0.7320442463119828,1.1825068708876776,12.8330345,1.9870654,-2.5847175,1.8168721,1.5358785,-0.88418597,2.1686714,-0.33057368,0.1879827,0.09537864,-0.9199374,-6.3399496,9.843732,0.5363825,-2.3411288,0.493194,1.4782003,0
1.9300000000000015,12.06390065628804,-1.8174667350277316,-0.7320442463119828,1.1825068708876776,12.8330345,1.9870654,-2.5847175,1.8168721,1.4722302,-0.78578144,2.1740935,-0.32180306,0.194284,0.10390738,-0.92081386,-6.3900156,9.83688,0.54782504,-2.2592776,0.3022189,1.4636906,0
1.9400000000000015,12.06390065628804,-1.8174667350277316,-0.7320442463119828,1.1825068708876776,12.8330345,1.9870654,-2.5847175,1.8168721,1.4080721,-0.6874547,2.179625,-0.3130204,0.19961219,0.11236709,-0.9217078,-6.441883,9.828169,0.55829304,-2.1902227,0.14101166,1.4498929,0
1.9500000000000015,12.06390065628804,-1.8174667350277316,-0.7320442463119828,1.1825068708876776,12.8330345,1.9870654,-2.5847175,1.8168721,1.3433872,-0.58922476,2.1852565,-0.30422574,0.20411529,0.12076038,-0.92260444,-6.495311,9.817515,0.56782764,-2.1319633,0.0049321353,1.4367722,0
1.9600000000000015,10.982635891154324,-1.453951736124919,-1.7023478976057043,0.7775599185909067,11.98593,1.5541509,-2.3081474,1.3660754,1.2781613,-0.49111128,2.1909788,-0.29541898,0.20791784,0.12909016,-0.92348903,-6.550086,9.804853,0.57646346,-2.082811,-0.109936126,1.4242954,0
1.9700000000000015,10.982635891154324,-1.453951736124919,-1.7023478976057043,0.7775599185909067,11.98593,1.5541509,-2.3081474,1.3660754,1.2124066,-0.3931283,2.1967354,-0.28662598,0.21071701,0.13734892,-0.92443365,-6.600992,9.791442,0.57474875,-1.984518,-0.35813963,1.39256,0
1.9800000000000015,10.982635891154324,-1.453951736124919,-1.7023478976057043,0.7775599185909067,11.98593,1.5541509,-2.3081474,1.3660754,1.1461387,-0.29528922,2.2024715,-0.2778715,0.21227814,0.1455293,-0.9254972,-6.6526723,9.7760725,0.5723272,-1.9015976,-0.56765574,1.3623819,0
1.9900000000000015,10.982635891154324,-1.453951736124919,-1.7023478976057043,0.7775599185909067,11.98593,1.5541509,-2.3081474,1.3660754,1.0793513,-0.19761388,2.2081802,-0.26915377,0.21278907,0.15363492,-0.92664546,-6.7048607,9.758675,0.5692808,-1.8316443,-0.7445141,1.3336846,0
2.0000000000000013,10.287767805884465,-1.1235300184395016,-2.5206943406713336,0.3429766447023427,10.322629,-0.7707111,-1.568309,2.3132458,1.0120406,-0.100122884,2.2138555,-0.26047105,0.21240772,0.16166951,-0.9278465,-6.7573247,9.739197,0.5656774,-1.7726295,-0.89380497,1.3063954,0
2.010000000000001,10.287767805884465,-1.1235300184395016,-2.5206943406713336,0.3429766447023427,10.322629,-0.7707111,-1.568309,2.3132458,0.94422126,-0.0028305147,2.2194626,-0.2518459,0.21092011,0.16960955,-0.9291487,-6.806524,9.718964,0.5556319,-1.6712219,-1.1473795,1.2591201,0
2.020000000000001,10.287767805884465,-1.1235300184395016,-2.5206943406713336,0.3429766447023427,10.322629,-0.7707111,-1.568309,2.3132458,0.8759108,0.0942494,2.2249672,-0.24329983,0.20816202,0.17743476,-0.93058527,-6.8555164,9.696698,0.5452103,-1.5856737,-1.3614304,1.2141646,0
2.0300000000000007,10.287767805884465,-1.1235300184395016,-2.5206943406713336,0.3429766447023427,10.322629,-0.7707111,-1.568309,2.3132458,0.8071126,0.19109634,2.230366,-0.23482962,0.20432259,0.18515335,-0.93210727,-6.904046,9.672365,0.5344959,-1.5135024,-1.5421177,1.1714151,0
2.0400000000000005,10.287767805884465,-1.1235300184395016,-2.5206943406713336,0.3429766447023427,10.322629,-0.7707111,-1.568309,2.3132458,0.7378323,0.28768954,2.2356563,-0.22643238,0.199561,0.1927726,-0.93367064,-6.9518886,9.645942,0.5235527,-1.4526148,-1.6946412,1.1307634,0
2.0500000000000003,10.287767805884465,-1.1235300184395016,-2.5206943406713336,0.3429766447023427,11.119009,-0.95058095,-2.5904288,1.8054041,0.6680779,0.38400796,2.2408361,-0.21810561,0.1940115,0.20029882,-0.93523693,-6.9988465,9.617418,0.51242805,-1.4012451,-1.8233906,1.0921066,1
2.06,10.287767805884465,-1.1235300184395016,-2.5206943406713336,0.3429766447023427,11.119009,-0.95058095,-2.5904288,1.8054041,0.5978404,0.4800184,2.2459393,-0.20968552,0.18778278,0.20764375,-0.93683076,-7.0484533,9.584322,0.5081714,-1.3308351,-1.9429901,1.1271083,1
2.07,10.287767805884465,-1.1235300184395016,-2.5206943406713336,0.3429766447023427,11.119009,-0.95058095,-2.5904288,1.8054041,0.52711344,0.57568663,2.250999,-0.20101659,0.18097416,0.21473336,-0.9384714,-7.0967317,9.548984,0.50378954,-1.2714164,-2.043942,1.1603924,1
2.0799999999999996,10.287767805884465,-1.1235300184395016,-2.5206943406713336,0.3429766447023427,11.119009,-0.95058095,-2.5904288,1.8054041,0.45591098,0.67099047,2.2560146,-0.19210935,0.17367731,0.22159225,-0.9401198,-7.143514,9.511437,0.49930757,-1.2212741,-2.1291537,1.1920433,1
2.0899999999999994,10.168332802035382,-0.691854202628549,-2.9274430643811433,-0.13485792382016265,11.689547,-0.26626083,-2.673585,0.71809757,0.38424882,0.76590794,2.2609851,-0.18297459,0.16596954,0.22824165,-0.9417421,-7.188652,9.4717245,0.49473897,-1.1789606,-2.2010798,1.2221413,1
2.099999999999999,10.168332802035382,-0.691854202628549,-2.9274430643811433,-0.13485792382016265,11.689547,-0.26626083,-2.673585,0.71809757,0.3121329,0.860407,2.2659333,-0.17378722,0.15780489,0.2344703,-0.9433543,-7.23423,9.427754,0.49488977,-1.0366037,-2.2746367,1.1974077,1
2.109999999999999,10.168332802035382,-0.691854202628549,-2.9274430643811433,-0.13485792382016265,11.689547,-0.26626083,-2.673585,0.71809757,0.23957123,0.95445573,2.2708826,-0.16470443,0.14914846,0.24011415,-0.94497114,-7.2777715,9.381692,0.49500507,-0.9164565,-2.3367448,1.1738878,1
2.1199999999999988,10.168332802035382,-0.691854202628549,-2.9274430643811433,-0.13485792382016265,11.689547,-0.26626083,-2.673585,0.71809757,0.16658497,1.0480341,2.2758334,-0.15571237,0.14007472,0.24525397,-0.9465629,-7.3191266,9.333676,0.4951298,-0.8150535,-2.3891852,1.151522,1
2.1299999999999986,9.18134488721776,-0.3447661827913607,-2.7788363918346533,-0.5281372944095476,9.812428,0.6872098,-1.8883821,0.16430168,0.09319665,1.1411229,2.2807853,-0.14679989,0.13064618,0.24995801,-0.94810355,-7.3581657,9.283837,0.495294,-0.7294701,-2.4334629,1.1302537,1
2.1399999999999983,9.18134488721776,-0.3447661827913607,-2.7788363918346533,-0.5281372944095476,9.812428,0.6872098,-1.8883821,0.16430168,0.01945969,1.233746,2.2856603,-0.13815117,0.12114219,0.2538868,-0.9496201,-7.3889065,9.240591,0.47973284,-0.5086751,-2.348279,1.0828543,1
