time-since-start [s],throttle_mpc,roll_mpc,pitch_mpc,yaw_mpc,throttle_nw,roll_nw,pitch_nw,yaw_nw,position_x [m],position_y [m],position_z [m],rotation_w [quaternion],rotation_x [quaternion],rotation_y [quaternion],rotation_z [quaternion],velocity_x [m/s],velocity_y [m/s],velocity_z [m/s],omega_x [rad/s],omega_y [rad/s],omega_z [rad/s],network_used
0.0,9.568595312364502,5.999999663760378,-5.999999942334133,-5.851388346477268,9.342418,-3.0094335,-3.1313763,-0.25108567,20.173117,-9.184057,2.2235897,-0.13200416,-0.46399406,0.32225332,0.81451654,-10.73557,-5.8553195,-0.17754099,1.3070804,0.09802565,0.11394855,0
0.01,9.568595312364502,5.999999663760378,-5.999999942334133,-5.851388346477268,15.784256,-6.1280413,-5.7884827,0.82889515,20.064903,-9.242197,2.2216907,-0.12923737,-0.4649542,0.32735252,0.8123765,-10.906276,-5.7728906,-0.20284702,1.1973699,-0.011541678,-0.0787757,0
0.02,9.568595312364502,5.999999663760378,-5.999999942334133,-5.851388346477268,15.784256,-6.1280413,-5.7884827,0.82889515,19.955006,-9.299515,2.2195213,-0.12576126,-0.46573308,0.33165398,0.81072956,-11.072535,-5.690698,-0.23152283,1.1053475,-0.104597166,-0.26672682,0
0.03,9.568595312364502,5.999999663760378,-5.999999942334133,-5.851388346477268,15.784256,-6.1280413,-5.7884827,0.82889515,19.843468,-9.356012,2.2170498,-0.1215828,-0.46640328,0.33522415,0.80951244,-11.234356,-5.6088333,-0.26321065,1.0281523,-0.1836137,-0.45002303,0
0.04,9.568595312364502,5.999999663760378,-5.999999942334133,-5.851388346477268,5.291875,-4.7056503,-4.0237613,0.1465567,19.730333,-9.411693,2.214248,-0.116710655,-0.46702346,0.338119,0.80866754,-11.391771,-5.5273714,-0.2976063,0.96338797,-0.2506968,-0.6287796,0
0.05,9.568595312364502,5.999999663760378,-5.999999942334133,-5.851388346477268,5.291875,-4.7056503,-4.0237613,0.1465567,19.615648,-9.466561,2.2110894,-0.11115477,-0.46764082,0.34038574,0.80814236,-11.5448265,-5.446374,-0.3344501,0.9090462,-0.3076384,-0.80310893,0
0.060000000000000005,9.568595312364502,5.999999663760378,-5.999999942334133,-5.851388346477268,5.291875,-4.7056503,-4.0237613,0.1465567,19.49945,-9.520622,2.2075512,-0.10492605,-0.4682928,0.34206432,0.80788875,-11.693575,-5.3658934,-0.37351936,0.8634448,-0.35596296,-0.9731208,0
0.07,9.568595312364502,5.999999663760378,-5.999999942334133,-5.851388346477268,5.291875,-4.7056503,-4.0237613,0.1465567,19.381786,-9.57388,2.2036126,-0.09802692,-0.4689994,0.34320027,0.80786365,-11.83872,-5.285622,-0.4143713,0.83366954,-0.40547544,-1.1381974,0
0.08,11.934931102512467,5.9999998834323565,-5.999999986487084,-5.840590193709678,13.777969,-5.771951,-7.2338824,0.6026767,19.262684,-9.626334,2.1992595,-0.09040518,-0.46971852,0.34390345,0.8080356,-11.981359,-5.2049856,-0.45643327,0.832152,-0.47091725,-1.2973102,0
0.09,11.934931102512467,5.9999998834323565,-5.999999986487084,-5.840590193709678,13.777969,-5.771951,-7.2338824,0.6026767,19.142097,-9.6779375,2.1945083,-0.08184948,-0.47027147,0.34443665,0.8083988,-12.135622,-5.1157527,-0.49402857,0.9208069,-0.6162623,-1.4561269,0
0.09999999999999999,11.934931102512467,5.9999998834323565,-5.999999986487084,-5.840590193709678,13.777969,-5.771951,-7.2338824,0.6026767,19.019983,-9.728647,2.1893747,-0.07216847,-0.470489,0.34502834,0.8089419,-12.286523,-5.026161,-0.53287095,1.0266101,-0.7699846,-1.609922,0
0.10999999999999999,11.934931102512467,5.9999998834323565,-5.999999986487084,-5.840590193709678,13.777969,-5.771951,-7.2338824,0.6026767,18.89638,-9.778458,2.183847,-0.061329175,-0.4703215,0.3457424,0.80962855,-12.43385,-4.9360275,-0.57285917,1.1471493,-0.93104094,-1.7589656,0
0.11999999999999998,11.934931102512467,5.9999998834323565,-5.999999986487084,-5.840590193709678,13.777969,-5.771951,-7.2338824,0.6026767,18.771322,-9.827364,2.177914,-0.04930498,-0.46971917,0.34662998,0.81041986,-12.577387,-4.845163,-0.6138918,1.2802984,-1.0984596,-1.9035062,0
0.12999999999999998,15.897225839394327,5.999999978323232,-6.0,-5.3472194139831775,11.129289,-2.933003,-7.066013,2.0965626,18.644846,-9.875357,2.1715658,-0.03607528,-0.46863177,0.3477307,0.8112743,-12.716906,-4.7533784,-0.65586555,1.4241815,-1.2713392,-2.0437727,0
0.13999999999999999,15.897225839394327,5.999999978323232,-6.0,-5.3472194139831775,11.129289,-2.933003,-7.066013,2.0965626,18.516909,-9.922366,2.1648302,-0.021278836,-0.4666506,0.34945768,0.8121967,-12.869924,-4.648245,-0.69140047,1.7527888,-1.6249695,-2.171478,0
0.15,15.897225839394327,5.999999978323232,-6.0,-5.3472194139831775,11.129289,-2.933003,-7.066013,2.0965626,18.38747,-9.968317,2.1577342,-0.0045976876,-0.46339038,0.35215396,0.8131639,-13.017013,-4.5417852,-0.72795576,2.0737746,-1.9671547,-2.2968206,0
0.16,20.042291926529614,6.0,-6.0,-4.521569439318402,13.152441,-1.9246352,-7.2905493,1.4956559,18.256592,-10.013195,2.1502683,0.013917523,-0.45883068,0.3557413,0.8140814,-13.157701,-4.433515,-0.76532364,2.38728,-2.298627,-2.4198225,0
0.17,20.042291926529614,6.0,-6.0,-4.521569439318402,13.152441,-1.9246352,-7.2905493,1.4956559,18.124268,-10.05692,2.142458,0.034640953,-0.4524394,0.36061457,0.81489587,-13.30579,-4.311178,-0.7968486,2.9203281,-2.8475816,-2.52029,0
0.18000000000000002,20.042291926529614,6.0,-6.0,-4.521569439318402,13.152441,-1.9246352,-7.2905493,1.4956559,17.990501,-10.099404,2.1343317,0.057850458,-0.4437417,0.36704284,0.8154911,-13.446331,-4.1848273,-0.8282619,3.3995814,-3.3402028,-2.6184933,0
0.19000000000000003,20.042291926529614,6.0,-6.0,-4.521569439318402,13.152441,-1.9246352,-7.2905493,1.4956559,17.855364,-10.140595,2.1258976,0.08321687,-0.4329184,0.3746552,0.8156529,-13.580159,-4.052082,-0.8583142,3.80418,-3.755917,-2.7118778,0
0.20000000000000004,20.999999932181087,6.0,-6.0,-3.855422888498126,14.228142,0.007406331,-7.8250666,1.0336655,17.718925,-10.180424,2.117171,0.11040134,-0.4201644,0.383094,0.815176,-13.706033,-3.9125857,-0.8867271,4.145761,-4.106723,-2.80068,0
0.21000000000000005,20.999999932181087,6.0,-6.0,-3.855422888498126,14.228142,0.007406331,-7.8250666,1.0336655,17.581247,-10.218788,2.1081867,0.13903387,-0.40561825,0.39208838,0.8138855,-13.828341,-3.7592728,-0.9098356,4.4342413,-4.4026537,-2.8524365,0
0.22000000000000006,20.999999932181087,6.0,-6.0,-3.855422888498126,14.228142,0.007406331,-7.8250666,1.0336655,17.442396,-10.255585,2.098982,0.16877927,-0.38940233,0.40141,0.81163347,-13.939883,-3.599001,-0.9307524,4.6778083,-4.6523614,-2.9016533,0
0.23000000000000007,20.999999932181087,6.0,-6.0,-3.855422888498126,14.228142,0.007406331,-7.8250666,1.0336655,17.30249,-10.290746,2.08958,0.19939724,-0.3716576,0.41083363,0.8082862,-14.039553,-3.4322011,-0.94930184,4.8834577,-4.863062,-2.948455,0
0.24000000000000007,20.999999932181087,6.0,-6.0,-3.855422888498126,15.624079,-0.15939787,-7.902289,0.6076825,17.161652,-10.324208,2.080005,0.230669,-0.35251427,0.42016795,0.80373126,-14.126334,-3.2595174,-0.9653506,5.057095,-5.0408463,-2.9929602,0
0.25000000000000006,20.999999932181087,6.0,-6.0,-3.855422888498126,15.624079,-0.15939787,-7.902289,0.6076825,17.020012,-10.355918,2.0702822,0.26239452,-0.33209386,0.4292506,0.79787606,-14.199319,-3.0817802,-0.9788067,5.2037053,-5.1908545,-3.0352817,0
0.26000000000000006,20.999999932181087,6.0,-6.0,-3.855422888498126,15.624079,-0.15939787,-7.902289,0.6076825,16.877716,-10.38583,2.0604382,0.29438993,-0.3105108,0.43794414,0.7906465,-14.257718,-2.8999803,-0.9896181,5.327498,-5.317425,-3.0755265,0
0.2700000000000001,20.999999932181087,6.0,-6.0,-3.855422888498126,15.624079,-0.15939787,-7.902289,0.6076825,16.734913,-10.413908,2.0504992,0.3264857,-0.2878737,0.44613275,0.7819852,-14.300873,-2.7152443,-0.9977718,5.4320254,-5.4242163,-3.1137962,0
0.2800000000000001,21.0,5.99999990956889,-5.9999999754303985,-3.1378188814934656,16.812248,0.57028556,-8.127977,-0.2906827,16.591755,-10.440129,2.0404918,0.35852486,-0.26428577,0.45371875,0.77184963,-14.328264,-2.5288095,-1.0032911,5.5202875,-5.5143194,-3.1501884,0
0.2900000000000001,21.0,5.99999990956889,-5.9999999754303985,-3.1378188814934656,16.812248,0.57028556,-8.127977,-0.2906827,16.448404,-10.464483,2.0304422,0.390294,-0.23980579,0.46064383,0.7602438,-14.339523,-2.3420017,-1.0062345,5.594945,-5.5902123,-3.1495817,0
0.3000000000000001,21.0,5.99999990956889,-5.9999999754303985,-3.1378188814934656,16.812248,0.57028556,-8.127977,-0.2906827,16.305023,-10.486973,2.0203755,0.42159703,-0.21449122,0.46686062,0.74718815,-14.334432,-2.1562095,-1.0066949,5.657984,-5.6542454,-3.1490045,0
0.3100000000000001,21.0,5.99999990956889,-5.9999999754303985,-3.1378188814934656,16.812248,0.57028556,-8.127977,-0.2906827,16.161774,-10.507615,2.0103161,0.45231906,-0.1884373,0.4723087,0.73268193,-14.312923,-1.9728622,-1.0048,5.711213,-5.7082725,-3.1484556,0
0.3200000000000001,21.0,3.8217410407537993,-5.999999423700644,0.17085060398035307,17.353449,-0.014908932,-7.1849627,0.26567182,16.01882,-10.526443,2.0002868,0.48235345,-0.16173588,0.47693798,0.7167331,-14.27509,-1.7934098,-1.0007098,5.756158,-5.753857,-3.1479335,0
0.3300000000000001,21.0,3.8217410407537993,-5.999999423700644,0.17085060398035307,17.353449,-0.014908932,-7.1849627,0.26567182,15.876325,-10.543501,1.9903088,0.5111864,-0.1347134,0.4801625,0.6999887,-14.221245,-1.6193053,-0.9945704,5.4550242,-5.791044,-2.9850798,0
0.34000000000000014,21.0,3.8217410407537993,-5.999999423700644,0.17085060398035307,17.353449,-0.014908932,-7.1849627,0.26567182,15.734446,-10.558851,1.9804027,0.5384352,-0.107652664,0.48156923,0.68307316,-14.152229,-1.4519632,-0.98631227,5.200841,-5.8226104,-2.8302174,0
0.35000000000000014,21.0,3.8217410407537993,-5.999999423700644,0.17085060398035307,17.353449,-0.014908932,-7.1849627,0.26567182,15.593328,-10.572568,1.9705902,0.564183,-0.08057136,0.48134938,0.665964,-14.069065,-1.2926636,-0.975846,4.9862823,-5.8493986,-2.6829543,0
0.36000000000000015,21.0,1.918947625806368,-4.279196277534429,3.0114000879782163,17.85168,-0.17065766,-5.7094493,1.1310893,15.45311,-10.584736,1.9608935,0.58849674,-0.05348432,0.47966236,0.6486406,-13.972787,-1.1425457,-0.96315384,4.8051686,-5.8721285,-2.5429173,0
0.37000000000000016,21.0,1.918947625806368,-4.279196277534429,3.0114000879782163,17.85168,-0.17065766,-5.7094493,1.1310893,15.314015,-10.595318,1.9514418,0.6108835,-0.027183393,0.4766848,0.6315485,-13.844445,-0.9765639,-0.92733836,4.386357,-5.5923705,-2.306632,0
0.38000000000000017,21.0,1.918947625806368,-4.279196277534429,3.0114000879782163,17.85168,-0.17065766,-5.7094493,1.1310893,15.176251,-10.604322,1.9423435,0.63101214,-0.002275988,0.47263882,0.61516714,-13.707118,-0.82691246,-0.89249885,4.0326567,-5.3565106,-2.0761988,0
0.3900000000000002,21.0,1.918947625806368,-4.279196277534429,3.0114000879782163,17.85168,-0.17065766,-5.7094493,1.1310893,15.039897,-10.611911,1.9335877,0.64914477,0.021479307,0.46769395,0.5995094,-13.562966,-0.69308406,-0.85885286,3.734033,-5.1575675,-1.8514727,0
0.4000000000000002,21.0,1.0777901032811315,-1.6265196610526953,3.2610205483983883,17.368876,-0.65654564,-2.4530158,1.733477,14.90501,-10.618237,1.9251617,0.6654979,0.04429064,0.46197975,0.58457255,-13.413808,-0.57448417,-0.8265985,3.4820774,-4.9895935,-1.6323124,0
0.4100000000000002,21.0,1.0777901032811315,-1.6265196610526953,3.2610205483983883,17.368876,-0.65654564,-2.4530158,1.733477,14.771655,-10.623435,1.9170691,0.6799676,0.06547013,0.4556691,0.5707213,-13.256814,-0.4673804,-0.79219216,2.998536,-4.5738707,-1.4123976,0
0.4200000000000002,21.0,1.0777901032811315,-1.6265196610526953,3.2610205483983883,17.368876,-0.65654564,-2.4530158,1.733477,14.63988,-10.627631,1.9093118,0.69254154,0.08449001,0.4489594,0.55828536,-13.097966,-0.37396923,-0.7595455,2.592967,-4.2204423,-1.1979293,0
0.4300000000000002,21.0,1.0777901032811315,-1.6265196610526953,3.2610205483983883,17.368876,-0.65654564,-2.4530158,1.733477,14.509698,-10.630956,1.901872,0.70349467,0.10173245,0.44196057,0.5471892,-12.938488,-0.2928451,-0.72860825,2.255652,-3.9171457,-0.98900425,0
0.4400000000000002,21.0,1.0777901032811315,-1.6265196610526953,3.2610205483983883,17.346262,-0.50734854,-0.47100905,1.6449716,14.381114,-10.633522,1.8947377,0.71301544,0.11752948,0.43482536,0.53732866,-12.77804,-0.22221257,-0.69833076,1.9969349,-3.6351852,-0.7872457,0
0.45000000000000023,21.0,1.0777901032811315,-1.6265196610526953,3.2610205483983883,17.346262,-0.50734854,-0.47100905,1.6449716,14.254138,-10.635431,1.8879032,0.7212161,0.13217404,0.4277629,0.5285789,-12.617208,-0.161084,-0.66867423,1.8096089,-3.366161,-0.5926048,0
0.46000000000000024,21.0,1.0777901032811315,-1.6265196610526953,3.2610205483983883,17.346262,-0.50734854,-0.47100905,1.6449716,14.128769,-10.636773,1.8813612,0.7281787,0.1459188,0.4209519,0.5208285,-12.456663,-0.10868068,-0.63988984,1.6834,-3.1071742,-0.40465638,0
0.47000000000000025,21.0,1.0777901032811315,-1.6265196610526953,3.2610205483983883,17.346262,-0.50734854,-0.47100905,1.6449716,14.005007,-10.6376295,1.8751056,0.7339874,0.15897118,0.4144949,0.5139883,-12.295444,-0.06387988,-0.61111677,1.5893555,-2.8760552,-0.2247806,0
0.48000000000000026,20.999999964042704,0.3204423920567508,0.6427845981135912,3.672486840619304,16.696917,-0.80712914,0.677999,1.3646106,13.882864,-10.638073,1.8691405,0.7387732,0.17147982,0.4083432,0.50799984,-12.132883,-0.025896939,-0.5818284,1.5099058,-2.6810102,-0.05373133,0
0.49000000000000027,20.999999964042704,0.3204423920567508,0.6427845981135912,3.672486840619304,16.696917,-0.80712914,0.677999,1.3646106,13.762367,-10.638165,1.8634818,0.74238455,0.18287317,0.40281588,0.5031512,-11.966646,0.0062605785,-0.5502174,1.2907797,-2.196413,0.12605453,0
0.5000000000000002,20.999999964042704,0.3204423920567508,0.6427845981135912,3.672486840619304,16.696917,-0.80712914,0.677999,1.3646106,13.643524,-10.637967,1.85813,0.7446633,0.1927435,0.39831534,0.49967045,-11.801821,0.032539506,-0.52029324,1.1361033,-1.7570436,0.2997517,0
0.5100000000000002,20.999999964042704,0.3204423920567508,0.6427845981135912,3.672486840619304,16.696917,-0.80712914,0.677999,1.3646106,13.526332,-10.637529,1.8530751,0.74575615,0.20139386,0.39477453,0.49743396,-11.636527,0.054317813,-0.49071172,1.0089799,-1.382707,0.4652528,0
0.5200000000000002,20.999999730739283,-0.5262624612658781,2.8532307040948095,3.5842422381519583,18.18928,-1.815309,3.2208717,0.85460377,13.410796,-10.636893,1.8483146,0.7458256,0.20905401,0.39203265,0.49633682,-11.470552,0.07247615,-0.46144682,0.9016186,-1.0667721,0.6226327,0
0.5300000000000002,20.999999730739283,-0.5262624612658781,2.8532307040948095,3.5842422381519583,18.18928,-1.815309,3.2208717,0.85460377,13.296923,-10.63609,1.8438445,0.74473655,0.21521753,0.39044043,0.49659282,-11.303931,0.08781215,-0.43265396,0.67874,-0.45547467,0.7679597,0
0.5400000000000003,20.999999730739283,-0.5262624612658781,2.8532307040948095,3.5842422381519583,18.18928,-1.815309,3.2208717,0.85460377,13.184719,-10.635142,1.8396593,0.7423928,0.21949054,0.3902675,0.49836475,-11.136685,0.10151316,-0.40449578,0.49055997,0.06046717,0.9061555,0
0.5500000000000003,20.999999730739283,-0.5262624612658781,2.8532307040948095,3.5842422381519583,18.18928,-1.815309,3.2208717,0.85460377,13.074192,-10.634062,1.835752,0.7389559,0.22219503,0.3912662,0.50148135,-10.968828,0.1147611,-0.37710345,0.33168977,0.4959326,1.03757,0
0.5600000000000003,20.99999968862954,-1.9947584947909989,5.069104886896829,3.275280256169133,20.04939,-3.220326,5.9231925,0.09832403,12.965345,-10.632847,1.8321142,0.7345491,0.22359765,0.39322203,0.50578386,-10.800376,0.12855776,-0.35057157,0.19757572,0.8634783,1.162536,0
0.5700000000000003,20.99999968862954,-1.9947584947909989,5.069104886896829,3.275280256169133,20.04939,-3.220326,5.9231925,0.09832403,12.858186,-10.631487,1.8287374,0.7290671,0.22302295,0.39630884,0.51152754,-10.631376,0.14384952,-0.32495877,-0.14491382,1.5190759,1.2662089,0
0.5800000000000003,20.99999968862954,-1.9947584947909989,5.069104886896829,3.275280256169133,20.04939,-3.220326,5.9231925,0.09832403,12.752719,-10.62996,1.825612,0.7224099,0.21993539,0.40063652,0.5188852,-10.462007,0.1619979,-0.30024537,-0.43398315,2.0724359,1.3647946,0
0.5900000000000003,20.99999968862954,-1.9947584947909989,5.069104886896829,3.275280256169133,20.04939,-3.220326,5.9231925,0.09832403,12.648946,-10.628233,1.8227295,0.7146611,0.21472436,0.40594405,0.52759975,-10.292517,0.18433909,-0.27639443,-0.67795384,2.5395076,1.4585427,0
0.6000000000000003,20.99999983914652,-3.3284362645657737,5.999997668534763,2.2700584711515215,20.66611,-3.4335413,5.8363338,-0.4256073,12.546866,-10.626255,1.8200812,0.7058788,0.20771523,0.41200554,0.5374385,-10.123207,0.21198982,-0.25338554,-0.883852,2.9337509,1.5476906,0
0.6100000000000003,20.99999983914652,-3.3284362645657737,5.999997668534763,2.2700584711515215,20.66611,-3.4335413,5.8363338,-0.4256073,12.446479,-10.623971,1.8176589,0.69612396,0.1985523,0.41862312,0.54839975,-9.954462,0.24592446,-0.2311947,-1.2656434,3.4115171,1.5831375,0
0.6200000000000003,20.99999983914652,-3.3284362645657737,5.999997668534763,2.2700584711515215,20.66611,-3.4335413,5.8363338,-0.4256073,12.347774,-10.621312,1.815455,0.6854297,0.18695633,0.42560932,0.5604367,-9.78688,0.28721818,-0.20968887,-1.5878339,3.814823,1.6168448,0
0.6300000000000003,20.99999983914652,-3.3284362645657737,5.999997668534763,2.2700584711515215,20.66611,-3.4335413,5.8363338,-0.4256073,12.250735,-10.618198,1.8134631,0.67379457,0.17328338,0.4327974,0.57328814,-9.621162,0.33682653,-0.1887487,-1.8597248,4.1552753,1.6488981,0
0.6400000000000003,20.99999983914652,-3.3284362645657737,5.999997668534763,2.2700584711515215,21.160616,-3.7552884,6.2820363,-1.1635336,12.155342,-10.614545,1.8116782,0.6612151,0.15783669,0.44004405,0.5867218,-9.458061,0.39549384,-0.16832134,-2.0891662,4.4426713,1.6793785,0
0.6500000000000004,20.99999983914652,-3.3284362645657737,5.999997668534763,2.2700584711515215,21.160616,-3.7552884,6.2820363,-1.1635336,12.061563,-10.610256,1.810095,0.64768964,0.1408763,0.44722703,0.60053235,-9.298364,0.46377307,-0.1484136,-2.2827828,4.6852813,1.7083634,0
0.6600000000000004,20.99999983914652,-3.3284362645657737,5.999997668534763,2.2700584711515215,21.160616,-3.7552884,6.2820363,-1.1635336,11.969359,-10.605235,1.808708,0.6332198,0.12262673,0.4542428,0.6145388,-9.142881,0.5420429,-0.1290843,-2.4461675,4.890085,1.735926,0
0.6700000000000004,20.99999983914652,-3.3284362645657737,5.999997668534763,2.2700584711515215,21.160616,-3.7552884,6.2820363,-1.1635336,11.878687,-10.59938,1.807511,0.6178118,0.103282996,0.46100396,0.6285822,-8.992447,0.6305226,-0.110436425,-2.5840383,5.062976,1.7621361,0
0.6800000000000004,20.99999986943161,-3.3900621072358406,5.941122710700293,2.063113337720946,21.017267,-4.041795,6.2002606,-1.3837837,11.78949,-10.592588,1.8064965,0.6014765,0.08301546,0.46743733,0.642523,-8.847894,0.7292849,-0.092609644,-2.7003787,5.2089267,1.7870599,0
0.6900000000000004,20.99999986943161,-3.3900621072358406,5.941122710700293,2.063113337720946,21.017267,-4.041795,6.2002606,-1.3837837,11.701706,-10.584759,1.8056555,0.58425874,0.061962392,0.473454,0.6562337,-8.710053,0.8382664,-0.07577055,-2.8081143,5.3229623,1.8006059,0
0.7000000000000004,20.99999986943161,-3.3900621072358406,5.941122710700293,2.063113337720946,21.017267,-4.041795,6.2002606,-1.3837837,11.615263,-10.5757885,1.804977,0.5662044,0.040245946,0.4789815,0.6696032,-8.579746,0.957272,-0.060094252,-2.8990273,5.4192333,1.8134872,0
0.7100000000000004,20.99999986943161,-3.3900621072358406,5.941122710700293,2.063113337720946,21.017267,-4.041795,6.2002606,-1.3837837,11.530083,-10.565579,1.804449,0.54733235,0.017985167,0.48398614,0.6825395,-8.4577675,1.0859923,-0.045770984,-2.9757438,5.500508,1.8257364,0
0.7200000000000004,20.99999979355886,-3.0083462687291473,4.952281161636423,1.4613076456677219,19.68007,-3.5067647,5.479811,-1.040931,11.446077,-10.554037,1.8040563,0.52766484,-0.0047139567,0.48844048,0.69496214,-8.344875,1.2240173,-0.03300652,-3.0404804,5.5691214,1.8373846,0
0.7300000000000004,20.99999979355886,-3.0083462687291473,4.952281161636423,1.4613076456677219,19.68007,-3.5067647,5.479811,-1.040931,11.363152,-10.541069,1.8037826,0.50747967,-0.027436873,0.49222732,0.70669854,-8.241759,1.3708189,-0.022006923,-3.0352883,5.472968,1.8189304,0
0.7400000000000004,20.99999979355886,-3.0083462687291473,4.952281161636423,1.4613076456677219,19.68007,-3.5067647,5.479811,-1.040931,11.281206,-10.526592,1.8036094,0.48703718,-0.049850557,0.495281,0.7176387,-8.148892,1.5256531,-0.012921856,-3.0309289,5.391807,1.8013816,0
0.7500000000000004,20.99999979355886,-3.0083462687291473,4.952281161636423,1.4613076456677219,19.68007,-3.5067647,5.479811,-1.040931,11.200136,-10.51053,1.803517,0.46633637,-0.071977444,0.49764878,0.72780097,-8.066638,1.6877207,-0.005878118,-3.0272686,5.3233004,1.7846941,0
0.7600000000000005,20.99999942663347,-2.2720004851758713,3.4319485467479014,0.9108006449701155,20.2401,-3.147144,4.6618533,-1.4206346,11.119836,-10.492815,1.8034843,0.4453782,-0.0938346,0.49936953,0.7371989,-7.995315,1.8562309,-0.0010003695,-3.0241964,5.2654753,1.7688253,0
0.7700000000000005,20.99999942663347,-2.2720004851758713,3.4319485467479014,0.9108006449701155,20.2401,-3.147144,4.6618533,-1.4206346,11.040193,-10.473386,1.8034891,0.42455578,-0.11489029,0.5004276,0.74573696,-7.9351435,2.030373,0.001605183,-2.9064257,4.979753,1.7267218,0
0.7800000000000005,20.99999942663347,-2.2720004851758713,3.4319485467479014,0.9108006449701155,20.2401,-3.147144,4.6618533,-1.4206346,10.961096,-10.452191,1.8035085,0.4042204,-0.13473485,0.50085294,0.75339067,-7.8859844,2.209215,0.0019317543,-2.8070922,4.738559,1.6866843,0
0.7900000000000005,20.99999942663347,-2.2720004851758713,3.4319485467479014,0.9108006449701155,20.2401,-3.147144,4.6618533,-1.4206346,10.882436,-10.429188,1.80352,0.38431293,-0.15354504,0.50073093,0.76025975,-7.8475814,2.3918746,1.1321332e-05,-2.7233088,4.5349526,1.6486115,0
0.8000000000000005,20.918253768133937,-1.386685727770236,1.7480583189307024,0.3813482564239681,18.173422,-3.2462952,3.4170191,-0.8307421,10.804107,-10.404342,1.8035012,0.36477897,-0.1714703,0.500128,0.7664235,-7.8196917,2.5775707,-0.0041228905,-2.6526396,4.363078,1.612407,0
0.8100000000000005,20.918253768133937,-1.386685727770236,1.7480583189307024,0.3813482564239681,18.173422,-3.2462952,3.4170191,-0.8307421,10.726006,-10.377632,1.8034283,0.34602365,-0.18802683,0.4991223,0.7718738,-7.8020883,2.7648587,-0.010777578,-2.4546301,3.9555721,1.5519986,0
0.8200000000000005,20.918253768133937,-1.386685727770236,1.7480583189307024,0.3813482564239681,18.173422,-3.2462952,3.4170191,-0.8307421,10.648032,-10.34904,1.8032787,0.32839257,-0.20285495,0.4978126,0.7766527,-7.794003,2.9537604,-0.019429212,-2.287601,3.611566,1.4945544,0
0.8300000000000005,20.918253768133937,-1.386685727770236,1.7480583189307024,0.3813482564239681,18.173422,-3.2462952,3.4170191,-0.8307421,10.570095,-10.318553,1.8030334,0.311753,-0.216237,0.49626592,0.78087795,-7.7947187,3.143683,-0.029892316,-2.1467023,3.3211663,1.4399291,0
0.8400000000000005,20.918253768133937,-1.386685727770236,1.7480583189307024,0.3813482564239681,17.13813,-3.3547313,2.1967344,-0.64011,10.492109,-10.286164,1.8026752,0.2959856,-0.2284101,0.49452996,0.7846401,-7.8036113,3.3341513,-0.041997787,-2.0278435,3.0760214,1.3879843,0
0.8500000000000005,20.918253768133937,-1.386685727770236,1.7480583189307024,0.3813482564239681,17.13813,-3.3547313,2.1967344,-0.64011,10.413996,-10.251868,1.8021884,0.28098413,-0.2395731,0.4926386,0.7880092,-7.8201375,3.5247786,-0.05559415,-1.9275756,2.869079,1.3385885,0
0.8600000000000005,20.918253768133937,-1.386685727770236,1.7480583189307024,0.3813482564239681,17.13813,-3.3547313,2.1967344,-0.64011,10.335681,-10.215669,1.8015586,0.26665494,-0.24989259,0.4906153,0.7910399,-7.8438253,3.7152486,-0.070547335,-1.842989,2.6943867,1.2916164,0
0.8700000000000006,20.918253768133937,-1.386685727770236,1.7480583189307024,0.3813482564239681,17.13813,-3.3547313,2.1967344,-0.64011,10.257096,-10.177566,1.8007731,0.2529159,-0.25950795,0.48847637,0.79377496,-7.874267,3.9052966,-0.08673979,-1.7716305,2.5469189,1.2469493,0
0.8800000000000006,18.712896038580162,-0.46541506068056876,0.006080699639558724,-0.05260144336368469,17.046783,-3.6263003,1.4613513,-0.49630746,10.178175,-10.137565,1.79982,0.23969528,-0.26853552,0.48623276,0.7962482,-7.9111094,4.0946975,-0.10406913,-1.7114303,2.4224336,1.204474,0
0.8900000000000006,18.712896038580162,-0.46541506068056876,0.006080699639558724,-0.05260144336368469,17.046783,-3.6263003,1.4613513,-0.49630746,10.098876,-10.095774,1.7986461,0.22741377,-0.27645835,0.48401102,0.79848963,-7.9494567,4.263385,-0.1308329,-1.5167365,2.0458186,1.142789,0
0.9000000000000006,18.712896038580162,-0.46541506068056876,0.006080699639558724,-0.05260144336368469,17.046783,-3.6263003,1.4613513,-0.49630746,10.01917,-10.052301,1.7972007,0.21641359,-0.2828854,0.48193136,0.8005509,-7.9925427,4.4312344,-0.15832257,-1.35248,1.7278967,1.0841308,0
0.9100000000000006,18.712896038580162,-0.46541506068056876,0.006080699639558724,-0.05260144336368469,17.046783,-3.6263003,1.4613513,-0.49630746,9.939012,-10.0071535,1.7954777,0.20652807,-0.28807327,0.47998574,0.80247873,-8.039694,4.5982084,-0.18633407,-1.2138995,1.4595226,1.028351,0
0.9200000000000006,17.129562572156093,0.3685055207572482,-1.6121061606199316,-0.4149560991514625,15.788156,-3.522436,0.9832088,-0.956718,9.858364,-9.960341,1.7934728,0.19761264,-0.29223552,0.47816154,0.8043057,-8.090343,4.764302,-0.21469235,-1.096979,1.2329757,0.97530836,0
0.9300000000000006,17.129562572156093,0.3685055207572482,-1.6121061606199316,-0.4149560991514625,15.788156,-3.522436,0.9832088,-0.956718,9.777217,-9.9119425,1.7911537,0.1899863,-0.29498616,0.47657505,0.8060788,-8.139419,4.9155583,-0.24911667,-0.8681197,0.7894712,0.9070877,0
0.9400000000000006,17.129562572156093,0.3685055207572482,-1.6121061606199316,-0.4149560991514625,15.788156,-3.522436,0.9832088,-0.956718,9.695568,-9.862034,1.7884905,0.18390004,-0.29603407,0.47532374,0.807843,-8.190493,5.066129,-0.2834858,-0.6750291,0.41508958,0.84221464,0
0.9500000000000006,17.129562572156093,0.3685055207572482,-1.6121061606199316,-0.4149560991514625,15.788156,-3.522436,0.9832088,-0.956718,9.613402,-9.810622,1.7854849,0.17914449,-0.2956675,0.4743627,0.80960876,-8.242863,5.21614,-0.31758454,-0.5121124,0.09905998,0.7805249,0
0.9600000000000006,15.817809234826445,0.8481144016977324,-2.9718579283518225,-0.6353336098238958,14.234423,-3.834284,-0.08917083,-1.0448359,9.530708,-9.757712,1.7821404,0.17553957,-0.29412568,0.47364786,0.8113766,-8.295938,5.3657103,-0.351235,-0.37465075,-0.16771095,0.72186226,0
0.9700000000000006,15.817809234826445,0.8481144016977324,-2.9718579283518225,-0.6353336098238958,14.234423,-3.834284,-0.08917083,-1.0448359,9.447503,-9.703366,1.7784375,0.17326687,-0.29114494,0.47319072,0.81320477,-8.3451,5.5035286,-0.3892573,-0.1837809,-0.604918,0.65526426,0
0.9800000000000006,15.817809234826445,0.8481144016977324,-2.9718579283518225,-0.6353336098238958,14.234423,-3.834284,-0.08917083,-1.0448359,9.363809,-9.647642,1.7743579,0.17246181,-0.286524,0.4729939,0.8151294,-8.393778,5.641179,-0.42650652,-0.02273938,-0.973971,0.5919342,0
0.9900000000000007,15.817809234826445,0.8481144016977324,-2.9718579283518225,-0.6353336098238958,14.234423,-3.834284,-0.08917083,-1.0448359,9.279632,-9.590543,1.7699107,0.17291805,-0.28052828,0.47300383,0.81711006,-8.441358,5.778781,-0.46278563,0.11314021,-1.2854922,0.53171176,0
1.0000000000000007,15.820749820810168,0.8648844988861154,-3.611260319353387,-0.834993413500415,13.851332,-3.8057892,-0.07778753,-1.2090576,9.194987,-9.532067,1.765106,0.17445898,-0.27337885,0.47317106,0.8191066,-8.487315,5.9164248,-0.49794054,0.22779281,-1.5484486,0.47444448,0
1.0100000000000007,15.820749820810168,0.8648844988861154,-3.611260319353387,-0.834993413500415,13.851332,-3.8057892,-0.07778753,-1.2090576,9.109892,-9.472214,1.759956,0.17707643,-0.2650609,0.47340444,0.8211414,-8.531193,6.0541964,-0.5318314,0.3271688,-1.8701258,0.41019,0
1.0200000000000007,15.820749820810168,0.8648844988861154,-3.611260319353387,-0.834993413500415,13.851332,-3.8057892,-0.07778753,-1.2090576,9.024372,-9.410982,1.7544742,0.18075614,-0.2555705,0.47362337,0.8232195,-8.572497,6.192099,-0.564315,0.4110132,-2.1416485,0.34908843,0
1.0300000000000007,15.820749820810168,0.8648844988861154,-3.611260319353387,-0.834993413500415,13.851332,-3.8057892,-0.07778753,-1.2090576,8.938453,-9.3483715,1.748675,0.18534923,-0.24509235,0.47380018,0.82528013,-8.610784,6.3301296,-0.595257,0.48175693,-2.370836,0.2909852,0
1.0400000000000007,15.820749820810168,0.8648844988861154,-3.611260319353387,-0.834993413500415,13.53631,-3.7668734,-0.2781711,-1.2003351,8.852167,-9.28438,1.7425746,0.19072793,-0.23378189,0.47391045,0.8272703,-8.645666,6.4682555,-0.62456185,0.54145,-2.564288,0.23573314,0
1.0500000000000007,15.820749820810168,0.8648844988861154,-3.611260319353387,-0.834993413500415,13.53631,-3.7668734,-0.2781711,-1.2003351,8.765552,-9.219007,1.7361896,0.19678247,-0.22177033,0.47393325,0.82914424,-8.676812,6.606417,-0.6521674,0.5918212,-2.7275753,0.18319228,0
1.0600000000000007,15.820749820810168,0.8648844988861154,-3.611260319353387,-0.834993413500415,13.53631,-3.7668734,-0.2781711,-1.2003351,8.678645,-9.152251,1.7295374,0.20341837,-0.20916864,0.473851,0.8308628,-8.703935,6.744531,-0.6780396,0.6343286,-2.8654013,0.13322961,0
1.0700000000000007,15.820749820810168,0.8648844988861154,-3.611260319353387,-0.834993413500415,13.53631,-3.7668734,-0.2781711,-1.2003351,8.591487,-9.084116,1.722635,0.21055418,-0.19607092,0.47364917,0.83239293,-8.726789,6.882494,-0.7021685,0.6702017,-2.9817352,0.08571865,0
1.0800000000000007,15.53999764320711,0.35382594462298034,-3.6628134520845537,-0.8847936387629294,12.902988,-2.9678779,-0.3821186,-0.8903485,8.504125,-9.014603,1.7155,0.21811952,-0.18255706,0.47331607,0.8337068,-8.745166,7.020185,-0.7245641,0.7004774,-3.0799282,0.040539056,0
1.0900000000000007,15.53999764320711,0.35382594462298034,-3.6628134520845537,-0.8847936387629294,12.902988,-2.9678779,-0.3821186,-0.8903485,8.416602,-8.943727,1.7081426,0.2260319,-0.16872601,0.47266632,0.8348808,-8.75865,7.155026,-0.74661624,0.6463258,-3.1708493,-0.004867291,0
1.1000000000000008,15.53999764320711,0.35382594462298034,-3.6628134520845537,-0.8847936387629294,12.902988,-2.9678779,-0.3821186,-0.8903485,8.328968,-8.871504,1.7005733,0.23422551,-0.15466261,0.47155312,0.8359748,-8.767461,7.289272,-0.7669507,0.600619,-3.2475877,-0.048045523,0
1.1100000000000008,15.53999764320711,0.35382594462298034,-3.6628134520845537,-0.8847936387629294,12.902988,-2.9678779,-0.3821186,-0.8903485,8.24127,-8.797943,1.6928095,0.2426651,-0.14041047,0.47002044,0.8369455,-8.771527,7.4227185,-0.7855375,0.5620412,-3.3123558,-0.089104995,0
1.1200000000000008,15.215627767745332,-0.5690427415374217,-3.170271492042155,-0.7678823480616485,12.929231,-3.213068,-0.20684089,-0.6710841,8.153555,-8.723052,1.6848686,0.25131878,-0.12600651,0.46810624,0.8377566,-8.770794,7.5551643,-0.802369,0.5294814,-3.367021,-0.12814966,0
1.1300000000000008,15.215627767745332,-0.5690427415374217,-3.170271492042155,-0.7678823480616485,12.929231,-3.213068,-0.20684089,-0.6710841,8.06587,-8.646857,1.6767595,0.26000935,-0.11173468,0.46558705,0.838533,-8.765358,7.6836615,-0.81917715,0.35810143,-3.3363316,-0.15954153,0
1.1400000000000008,15.215627767745332,-0.5690427415374217,-3.170271492042155,-0.7678823480616485,12.929231,-3.213068,-0.20684089,-0.6710841,7.9782634,-8.569384,1.668491,0.2686007,-0.09782568,0.462295,0.839384,-8.755341,7.81074,-0.8342095,0.21345206,-3.3104239,-0.189393,0
1.1500000000000008,15.215627767745332,-0.5690427415374217,-3.170271492042155,-0.7678823480616485,12.929231,-3.213068,-0.20684089,-0.6710841,7.890779,-8.490648,1.6600814,0.2771196,-0.08423552,0.45833457,0.8402601,-8.7409115,7.9361706,-0.8474065,0.091364145,-3.288554,-0.21777964,0
1.1600000000000008,15.059679790113938,-1.742985841808067,-2.4021910169898364,-0.4631143399604108,13.065018,-4.5555706,0.79715765,-0.18923417,7.80346,-8.410667,1.6515492,0.28558585,-0.0709259,0.45379382,0.8411183,-8.722224,8.059743,-0.8587297,-0.011680877,-3.270093,-0.24477333,0
1.1700000000000008,15.059679790113938,-1.742985841808067,-2.4021910169898364,-0.4631143399604108,13.065018,-4.5555706,0.79715765,-0.18923417,7.716347,-8.329467,1.6429088,0.29381254,-0.058240857,0.44844466,0.84212714,-8.699683,8.180012,-0.869053,-0.28167737,-3.1346993,-0.2554874,0
1.1800000000000008,15.059679790113938,-1.742985841808067,-2.4021910169898364,-0.4631143399604108,13.065018,-4.5555706,0.79715765,-0.18923417,7.629479,-8.247076,1.6341751,0.30165768,-0.04645366,0.4421174,0.8434308,-8.673446,8.2980385,-0.87738127,-0.50956863,-3.020424,-0.2656757,0
1.1900000000000008,15.059679790113938,-1.742985841808067,-2.4021910169898364,-0.4631143399604108,13.065018,-4.5555706,0.79715765,-0.18923417,7.5428896,-8.163516,1.6253685,0.30919176,-0.035436686,0.43495747,0.8449588,-8.643882,8.413633,-0.8836033,-0.70192116,-2.9239733,-0.27536407,0
1.2000000000000008,15.005442972447208,-2.8878414144722138,-1.3363513150916106,0.01229341255278089,13.938755,-4.4657164,0.6559744,-0.036084685,7.4566116,-8.078813,1.6165106,0.31647053,-0.025080362,0.4270861,0.8466484,-8.611313,8.526629,-0.8876343,-0.8642771,-2.8425674,-0.284577,0
1.2100000000000009,15.005442972447208,-2.8878414144722138,-1.3363513150916106,0.01229341255278089,13.938755,-4.4657164,0.6559744,-0.036084685,7.370672,-7.992995,1.6076219,0.32329774,-0.015773311,0.41835484,0.8486505,-8.576184,8.63648,-0.8897475,-1.1797824,-2.6076264,-0.27000952,0
1.2200000000000009,15.005442972447208,-2.8878414144722138,-1.3363513150916106,0.01229341255278089,13.938755,-4.4657164,0.6559744,-0.036084685,7.285095,-7.9060926,1.5987239,0.32952198,-0.007819156,0.40865546,0.85108966,-8.538881,8.74347,-0.88947845,-1.4460965,-2.409338,-0.25615686,0
1.2300000000000009,15.005442972447208,-2.8878414144722138,-1.3363513150916106,0.01229341255278089,13.938755,-4.4657164,0.6559744,-0.036084685,7.1999,-7.8181353,1.589841,0.33524016,-0.001015427,0.39813295,0.8538746,-8.499915,8.847494,-0.8867049,-1.6708884,-2.2419832,-0.24298392,0
1.2400000000000009,15.005442972447208,-2.8878414144722138,-1.3363513150916106,0.01229341255278089,14.548482,-5.085936,1.2985803,0.39298055,7.115101,-7.729153,1.5809988,0.34052935,0.004810401,0.38690707,0.85692376,-8.4597225,8.948459,-0.8813363,-1.860632,-2.1007357,-0.2304574,0
1.2500000000000009,15.005442972447208,-2.8878414144722138,-1.3363513150916106,0.01229341255278089,14.548482,-5.085936,1.2985803,0.39298055,7.0307083,-7.639177,1.5722234,0.34545112,0.00980517,0.37507743,0.8601645,-8.41868,9.046274,-0.87331045,-2.0207913,-1.9815222,-0.21854554,0
1.260000000000001,15.005442972447208,-2.8878414144722138,-1.3363513150916106,0.01229341255278089,14.548482,-5.085936,1.2985803,0.39298055,6.9467287,-7.548239,1.5635418,0.35005453,0.014093759,0.3627273,0.86353385,-8.377114,9.140855,-0.86259186,-2.155979,-1.8809048,-0.2072182,0
1.270000000000001,15.005442972447208,-2.8878414144722138,-1.3363513150916106,0.01229341255278089,14.548482,-5.085936,1.2985803,0.39298055,6.863167,-7.456372,1.554981,0.35437888,0.017782295,0.34992683,0.8669771,-8.335305,9.23212,-0.8491684,-2.2700884,-1.7959826,-0.1964467,0
1.280000000000001,15.065203780730124,-3.6653526266036613,-0.44338189771612485,0.53307058245915,14.267565,-5.362485,2.6421516,0.46233222,6.7800226,-7.3636084,1.5465678,0.35845557,0.020960925,0.33673516,0.8704472,-8.293499,9.31999,-0.833049,-2.3664062,-1.7243067,-0.18620375,0
1.290000000000001,15.065203780730124,-3.6653526266036613,-0.44338189771612485,0.53307058245915,14.267565,-5.362485,2.6421516,0.46233222,6.6972966,-7.2699823,1.5383315,0.3621415,0.02330426,0.32305834,0.87403804,-8.251777,9.404725,-0.81378806,-2.568917,-1.5245817,-0.15090875,0
1.300000000000001,15.065203780730124,-3.6653526266036613,-0.44338189771612485,0.53307058245915,14.267565,-5.362485,2.6421516,0.46233222,6.614985,-7.175526,1.5303013,0.36532038,0.024557913,0.30882373,0.87781805,-8.210696,9.4859295,-0.79183555,-2.7398589,-1.3560121,-0.11734569,0
1.310000000000001,15.065203780730124,-3.6653526266036613,-0.44338189771612485,0.53307058245915,14.267565,-5.362485,2.6421516,0.46233222,6.533079,-7.080276,1.5225041,0.36804962,0.02488867,0.2941059,0.8817145,-8.170655,9.5635605,-0.76719767,-2.8841527,-1.2137367,-0.08542958,0
1.320000000000001,15.320436621824014,-4.15117406380141,0.2811128376543921,1.05434938062964,14.992709,-5.6937637,3.180297,0.99098325,6.451567,-6.9842677,1.5149665,0.37037525,0.024437962,0.2789678,0.885664,-8.131996,9.637567,-0.7399072,-3.005952,-1.093653,-0.055079605,0
1.330000000000001,15.320436621824014,-4.15117406380141,0.2811128376543921,1.05434938062964,14.992709,-5.6937637,3.180297,0.99098325,6.3704367,-6.8875318,1.5077256,0.37220213,0.023014177,0.2633964,0.88969487,-8.094412,9.709092,-0.7078492,-3.1845093,-0.8793652,-0.0006396035,0
1.340000000000001,15.320436621824014,-4.15117406380141,0.2811128376543921,1.05434938062964,14.992709,-5.6937637,3.180297,0.99098325,6.2896714,-6.790099,1.5008185,0.3734501,0.020471616,0.24738322,0.8938211,-8.058968,9.77686,-0.67320603,-3.335236,-0.6985016,0.05112901,0
1.350000000000001,15.320436621824014,-4.15117406380141,0.2811128376543921,1.05434938062964,14.992709,-5.6937637,3.180297,0.99098325,6.209248,-6.6920075,1.4942702,0.37417212,0.016983239,0.2309841,0.897971,-8.026062,9.840847,-0.6360569,-3.4624684,-0.54584646,0.10035731,0
1.360000000000001,15.23195219747215,-4.20663251345699,0.544119262617125,1.4258992041830902,17.002493,-5.916423,2.5795972,1.9432136,6.12914,-6.593295,1.4881055,0.37441105,0.012695739,0.21424723,0.902082,-7.9960356,9.901016,-0.59650767,-3.5698671,-0.4169984,0.14716998,0
1.370000000000001,15.23195219747215,-4.20663251345699,0.544119262617125,1.4258992041830902,17.002493,-5.916423,2.5795972,1.9432136,6.0493155,-6.4940023,1.4823439,0.3741388,0.0076398607,0.19723326,0.9061233,-7.9693384,9.957001,-0.555497,-3.6691732,-0.2672719,0.20991759,0
1.380000000000001,15.23195219747215,-4.20663251345699,0.544119262617125,1.4258992041830902,17.002493,-5.916423,2.5795972,1.9432136,5.969741,-6.3941693,1.477003,0.37332973,0.0018469376,0.17999387,0.9100672,-7.946082,10.009121,-0.5123831,-3.7530012,-0.14089334,0.26958615,0
1.390000000000001,15.23195219747215,-4.20663251345699,0.544119262617125,1.4258992041830902,17.002493,-5.916423,2.5795972,1.9432136,5.8903804,-6.2938337,1.472103,0.37201947,-0.004567125,0.16255635,0.913868,-7.9265203,10.057346,-0.46733895,-3.823762,-0.03421986,0.32632676,0
1.400000000000001,15.378683143817783,-3.9170808581286947,0.5748765510611165,1.6195380147886163,18.9419,-5.38142,1.9565811,2.4694529,5.8111963,-6.1930356,1.4676622,0.37023798,-0.011503918,0.14494543,0.9174862,-7.910863,10.101637,-0.42055377,-3.8834913,0.055822678,0.3802831,0
1.410000000000001,15.378683143817783,-3.9170808581286947,0.5748765510611165,1.6195380147886163,18.9419,-5.38142,1.9565811,2.4694529,5.7321496,-6.091813,1.4637042,0.3679893,-0.018844977,0.12729521,0.92088175,-7.899167,10.142341,-0.37082273,-3.8887548,0.13661332,0.44109368,0
1.420000000000001,15.378683143817783,-3.9170808581286947,0.5748765510611165,1.6195380147886163,18.9419,-5.38142,1.9565811,2.4694529,5.653199,-5.9902034,1.4602504,0.36527857,-0.026492108,0.10971626,0.9240296,-7.8916936,10.179019,-0.31977016,-3.8931994,0.20481223,0.4989203,0
1.430000000000001,15.378683143817783,-3.9170808581286947,0.5748765510611165,1.6195380147886163,18.9419,-5.38142,1.9565811,2.4694529,5.5743017,-5.8882465,1.4573127,0.36213112,-0.034395337,0.0921981,0.92691755,-7.888518,10.211662,-0.26763085,-3.8969517,0.26238263,0.5539093,0
1.440000000000001,15.378683143817783,-3.9170808581286947,0.5748765510611165,1.6195380147886163,20.179285,-5.113666,1.2570055,3.1125717,5.4954143,-5.7859836,1.4549007,0.35856915,-0.042512115,0.07473323,0.9295346,-7.889693,10.240257,-0.2146398,-3.9001188,0.3109818,0.60620004,0
1.450000000000001,15.378683143817783,-3.9170808581286947,0.5748765510611165,1.6195380147886163,20.179285,-5.113666,1.2570055,3.1125717,5.4164934,-5.683455,1.453022,0.35461223,-0.050806142,0.057316538,0.9318704,-7.895253,10.264782,-0.16103227,-3.9027915,0.35200846,0.6559248,0
1.460000000000001,15.378683143817783,-3.9170808581286947,0.5748765510611165,1.6195380147886163,20.179285,-5.113666,1.2570055,3.1125717,5.337495,-5.580702,1.4516814,0.3502779,-0.059246387,0.039945025,0.9339156,-7.9052153,10.285211,-0.107043706,-3.9050467,0.38664335,0.7032095,0
1.470000000000001,15.378683143817783,-3.9170808581286947,0.5748765510611165,1.6195380147886163,20.179285,-5.113666,1.2570055,3.1125717,5.258374,-5.4777646,1.4508816,0.345582,-0.067806266,0.022617433,0.93566155,-7.919579,10.301517,-0.05290936,-3.9069488,0.41588292,0.748174,0
1.480000000000001,15.075993226741343,-3.266029075159283,0.30641423665976175,1.5942989935819445,20.256485,-4.873754,1.7849226,3.417556,5.179088,-5.3746853,1.4506228,0.34053907,-0.076462895,0.0053339703,0.93710023,-7.9383297,10.313671,0.0011359248,-3.9085531,0.44056818,0.79093206,0
1.490000000000001,15.075993226741343,-3.266029075159283,0.30641423665976175,1.5942989935819445,20.256485,-4.873754,1.7849226,3.417556,5.0995946,-5.271507,1.4508882,0.33518723,-0.08500793,-0.011696244,0.93823504,-7.960966,10.321497,0.051872026,-3.808352,0.41960052,0.8303535,0
1.500000000000001,15.075993226741343,-3.266029075159283,0.30641423665976175,1.5942989935819445,20.256485,-4.873754,1.7849226,3.417556,5.019854,-5.1682696,1.4516584,0.32956415,-0.093277484,-0.02830562,0.93908685,-7.9877076,10.325266,0.10208476,-3.723777,0.40190378,0.8678405,0
1.5100000000000011,15.075993226741343,-3.266029075159283,0.30641423665976175,1.5942989935819445,20.256485,-4.873754,1.7849226,3.417556,4.9398265,-5.065015,1.4529274,0.32368147,-0.10131301,-0.044549063,0.9396701,-8.01838,10.325022,0.15158296,-3.652392,0.38696754,0.903488,0
1.5200000000000011,14.481778571579092,-2.294106706967386,-0.05910925406535619,1.391293959885104,20.120745,-4.1405425,0.6031606,3.114948,4.859473,-4.961783,1.4546869,0.3175498,-0.10914913,-0.06047272,0.9399947,-8.052822,10.320802,0.2001872,-3.5921397,0.37436128,0.9373863,0
1.5300000000000011,14.481778571579092,-2.294106706967386,-0.05910925406535619,1.391293959885104,20.120745,-4.1405425,0.6031606,3.114948,4.7787647,-4.858611,1.4568986,0.31123784,-0.11655359,-0.07579871,0.940106,-8.08936,10.312975,0.24199386,-3.3896756,0.306836,0.95965964,0
1.5400000000000011,14.481778571579092,-2.294106706967386,-0.05910925406535619,1.391293959885104,20.120745,-4.1405425,0.6031606,3.114948,4.6976748,-4.755536,1.459523,0.30481115,-0.12334777,-0.090309665,0.9400629,-8.129072,10.301495,0.28267983,-3.2187903,0.24982934,0.98084,0
1.5500000000000012,14.481778571579092,-2.294106706967386,-0.05910925406535619,1.391293959885104,20.120745,-4.1405425,0.6031606,3.114948,4.616173,-4.652593,1.4625483,0.29827365,-0.12962988,-0.10412328,0.9398861,-8.171671,10.286493,0.3221692,-3.0745583,0.20170209,1.0009811,0
1.5600000000000012,13.755877919497074,-1.2720561289905936,-0.673115991914913,1.068794082283509,20.0735,-3.765637,-1.5239086,2.6194649,4.5342317,-4.5498176,1.465962,0.29162836,-0.13548207,-0.1173394,0.93958914,-8.216908,10.268086,0.36039776,-2.9528227,0.16107099,1.0201339,0
1.5700000000000012,13.755877919497074,-1.2720561289905936,-0.673115991914913,1.068794082283509,20.0735,-3.765637,-1.5239086,2.6194649,4.4518385,-4.4472365,1.4697177,0.2849428,-0.14061977,-0.12973522,0.9392557,-8.262152,10.247471,0.39055234,-2.6906219,0.031149976,1.0225216,0
1.5800000000000012,13.755877919497074,-1.2720561289905936,-0.673115991914913,1.068794082283509,20.0735,-3.765637,-1.5239086,2.6194649,4.368983,-4.344877,1.4737691,0.27827904,-0.14482452,-0.1411401,0.93897015,-8.309327,10.223882,0.41949365,-2.4693244,-0.07853634,1.0247921,0
1.5900000000000012,13.755877919497074,-1.2720561289905936,-0.673115991914913,1.068794082283509,20.0735,-3.765637,-1.5239086,2.6194649,4.285647,-4.242768,1.4781038,0.2716311,-0.14824761,-0.15170285,0.9387354,-8.358093,10.197476,0.44727483,-2.2825487,-0.1711394,1.0269512,0
1.6000000000000012,13.327871429723034,-0.3256142629490574,-1.1484789150418908,0.6658033080261391,19.098045,-2.7033966,-2.2439005,1.8872403,4.2018166,-4.140937,1.4827107,0.26499316,-0.15101552,-0.16154945,0.9385486,-8.408167,10.168391,0.47394824,-2.12491,-0.2493198,1.0290046,0
1.6100000000000012,13.327871429723034,-0.3256142629490574,-1.1484789150418908,0.6658033080261391,19.098045,-2.7033966,-2.2439005,1.8872403,4.117488,-4.039404,1.4875598,0.25843352,-0.15294822,-0.17048892,0.9384836,-8.457692,10.137741,0.4957247,-1.8442216,-0.3893336,1.0111823,0
1.6200000000000012,13.327871429723034,-0.3256142629490574,-1.1484789150418908,0.6658033080261391,19.098045,-2.7033966,-2.2439005,1.8872403,4.0326605,-3.9381893,1.4926221,0.2520134,-0.15391012,-0.17837703,0.9386062,-8.507903,10.104799,0.51660526,-1.6073232,-0.507548,0.9942344,0
1.6300000000000012,13.327871429723034,-0.3256142629490574,-1.1484789150418908,0.6658033080261391,19.098045,-2.7033966,-2.2439005,1.8872403,3.9473288,-3.8373148,1.4978893,0.2457173,-0.15405722,-0.18537511,0.93889534,-8.558492,10.069742,0.5367203,-1.4073832,-0.6073565,0.9781182,0
1.6400000000000012,13.327871429723034,-0.3256142629490574,-1.1484789150418908,0.6658033080261391,18.686178,-1.9203978,-3.1904433,1.5911151,3.86149,-3.7368011,1.5033542,0.23953122,-0.15351973,-0.19161937,0.93932825,-8.609197,10.032725,0.5561861,-1.2386353,-0.6916243,0.96279275,0
1.6500000000000012,13.327871429723034,-0.3256142629490574,-1.1484789150418908,0.6658033080261391,18.686178,-1.9203978,-3.1904433,1.5911151,3.775145,-3.6366668,1.509011,0.23344262,-0.15240641,-0.19722481,0.93988204,-8.659802,9.993883,0.5751044,-1.0962129,-0.76277083,0.94821936,0
1.6600000000000013,13.327871429723034,-0.3256142629490574,-1.1484789150418908,0.6658033080261391,18.686178,-1.9203978,-3.1904433,1.5911151,3.688295,-3.5369294,1.5148548,0.22744046,-0.15080819,-0.2022886,0.940535,-8.710126,9.95333,0.5935636,-0.97600865,-0.8228387,0.93436116,0
1.6700000000000013,13.327871429723034,-0.3256142629490574,-1.1484789150418908,0.6658033080261391,18.686178,-1.9203978,-3.1904433,1.5911151,3.6009438,-3.4376056,1.5208812,0.22151513,-0.14880109,-0.20689279,0.9412671,-8.760013,9.911169,0.6116392,-0.8745568,-0.8735527,0.9211829,0
1.6800000000000013,13.176959714401425,0.35629339155510664,-1.4544096797358712,0.22566961314533718,17.738445,-2.0548978,-4.147332,2.0097723,3.5130968,-3.338711,1.5270865,0.21565834,-0.14644879,-0.21110672,0.9420601,-8.809331,9.867488,0.6293953,-0.7889313,-0.91636944,0.9086513,0
1.6900000000000013,13.176959714401425,0.35629339155510664,-1.4544096797358712,0.22566961314533718,17.738445,-2.0548978,-4.147332,2.0097723,3.4247627,-3.2402582,1.5334616,0.20992805,-0.14361961,-0.21476597,0.94296247,-8.857409,9.822886,0.64558554,-0.61030626,-1.0001574,0.8751372,0
1.7000000000000013,13.176959714401425,0.35629339155510664,-1.4544096797358712,0.22566961314533718,17.738445,-2.0548978,-4.147332,2.0097723,3.335952,-3.142258,1.5399976,0.20437591,-0.14021154,-0.21774343,0.9440116,-8.9046335,9.777002,0.6616241,-0.45954743,-1.0709022,0.8432677,0
1.7100000000000013,13.176959714401425,0.35629339155510664,-1.4544096797358712,0.22566961314533718,17.738445,-2.0548978,-4.147332,2.0097723,3.2466738,-3.0447223,1.5466938,0.19898632,-0.13631329,-0.22014336,0.94517666,-8.950837,9.729973,0.6776138,-0.33230698,-1.1306335,0.81296194,0
1.7200000000000013,13.033834644632819,0.9086577972507058,-1.469082381287275,-0.2090695048944162,17.906763,-1.6500865,-4.268388,1.7470294,3.1569393,-2.947662,1.55355,0.19374557,-0.13199925,-0.22205369,0.9464301,-8.995881,9.681918,0.6936401,-0.22491553,-1.1810651,0.7841434,0
1.7300000000000013,13.033834644632819,0.9086577972507058,-1.469082381287275,-0.2090695048944162,17.906763,-1.6500865,-4.268388,1.7470294,3.0667632,-2.8510845,1.560561,0.18872008,-0.12727202,-0.22334753,0.94778764,-9.039166,9.633485,0.7085382,-0.04815139,-1.2258892,0.73540616,0
1.7400000000000013,13.033834644632819,0.9086577972507058,-1.469082381287275,-0.2090695048944162,17.906763,-1.6500865,-4.268388,1.7470294,2.9761608,-2.7549949,1.5677216,0.18396771,-0.122136176,-0.22392854,0.9492595,-9.081056,9.584314,0.72364336,0.10104254,-1.2637465,0.68906045,0
1.7500000000000013,13.033834644632819,0.9086577972507058,-1.469082381287275,-0.2090695048944162,17.906763,-1.6500865,-4.268388,1.7470294,2.8851473,-2.6594,1.5750347,0.17946517,-0.11665169,-0.22390614,0.95081526,-9.121435,9.534569,0.7390453,0.2269668,-1.2957184,0.644989,0
1.7600000000000013,12.729976557520228,1.184957355631199,-1.5295162932044797,-0.6025560709104454,17.472288,-1.3050414,-4.0967,1.1026998,2.7937376,-2.5643048,1.5825038,0.17519207,-0.110868946,-0.22337253,0.9524282,-9.160206,9.484387,0.75481546,0.33325148,-1.3227186,0.60308015,0
1.7700000000000014,12.729976557520228,1.184957355631199,-1.5295162932044797,-0.6025560709104454,17.472288,-1.3050414,-4.0967,1.1026998,2.7019532,-2.4697075,1.5901194,0.17118336,-0.104777254,-0.22230944,0.95409405,-9.196421,9.435075,0.7683479,0.4660349,-1.3549341,0.5439192,0
1.7800000000000014,12.729976557520228,1.184957355631199,-1.5295162932044797,-0.6025560709104454,17.472288,-1.3050414,-4.0967,1.1026998,2.6098151,-2.375604,1.5978725,0.16747099,-0.09836923,-0.22070621,0.95580584,-9.230895,9.3856,0.78235817,0.5781094,-1.3821416,0.48766133,0
1.7900000000000014,12.729976557520228,1.184957355631199,-1.5295162932044797,-0.6025560709104454,17.472288,-1.3050414,-4.0967,1.1026998,2.5173416,-2.2819955,1.6057683,0.16403359,-0.091688536,-0.21864454,0.9575384,-9.26355,9.336092,0.7968974,0.6727053,-1.405118,0.43416408,0
1.8000000000000014,12.033729051865777,1.1563482889805299,-1.5673642456215526,-0.8874507243662667,16.608614,-1.4224849,-4.5907125,0.97613835,2.4245505,-2.1888819,1.6138124,0.16085212,-0.084772184,-0.21619326,0.9592704,-9.294315,9.286665,0.8120021,0.7525492,-1.4245199,0.3832919,0
1.8100000000000014,12.033729051865777,1.1563482889805299,-1.5673642456215526,-0.8874507243662667,16.608614,-1.4224849,-4.5907125,0.97613835,2.3314695,-2.0962484,1.6219794,0.15793909,-0.07763135,-0.21342662,0.9609769,-9.321558,9.240109,0.82147205,0.81546825,-1.4468136,0.32093617,0
1.8200000000000014,12.033729051865777,1.1563482889805299,-1.5673642456215526,-0.8874507243662667,16.608614,-1.4224849,-4.5907125,0.97613835,2.2381258,-2.0040789,1.6302438,0.15530758,-0.070275776,-0.21040644,0.9626364,-9.346909,9.193803,0.83150953,0.8685756,-1.4656357,0.2616403,0
1.8300000000000014,12.033729051865777,1.1563482889805299,-1.5673642456215526,-0.8874507243662667,16.608614,-1.4224849,-4.5907125,0.97613835,2.1445382,-1.912371,1.6386114,0.15294185,-0.06273284,-0.20716928,0.96423703,-9.370322,9.14781,0.8421164,0.9134018,-1.481526,0.20525408,0
1.8400000000000014,12.033729051865777,1.1563482889805299,-1.5673642456215526,-0.8874507243662667,15.452835,-1.4808463,-4.432549,0.7025172,2.050726,-1.8211213,1.647088,0.15082735,-0.055026095,-0.20374584,0.96576893,-9.391759,9.102191,0.85328686,0.9512389,-1.4949405,0.15163475,0
1.8500000000000014,12.033729051865777,1.1563482889805299,-1.5673642456215526,-0.8874507243662667,15.452835,-1.4808463,-4.432549,0.7025172,1.9567097,-1.7303258,1.6556791,0.14895046,-0.047175873,-0.20016195,0.9672239,-9.411187,9.056998,0.8650089,0.9831767,-1.5062643,0.100646526,0
1.8600000000000014,12.033729051865777,1.1563482889805299,-1.5673642456215526,-0.8874507243662667,15.452835,-1.4808463,-4.432549,0.7025172,1.8625093,-1.6399798,1.6643901,0.1472985,-0.039199784,-0.19643922,0.9685952,-9.4285755,9.0122795,0.8772651,1.0101355,-1.5158228,0.052160308,0
1.8700000000000014,12.033729051865777,1.1563482889805299,-1.5673642456215526,-0.8874507243662667,15.452835,-1.4808463,-4.432549,0.7025172,1.7681452,-1.5500784,1.6732262,0.14585957,-0.031113133,-0.19259585,0.96987754,-9.443899,8.968075,0.8900336,1.0328919,-1.523891,0.006053322,0
1.8800000000000014,11.329524031075893,0.9123989112618303,-1.5521034137385492,-1.0408525162233502,14.870291,-1.7588162,-4.2115397,0.40041777,1.6736383,-1.4606162,1.6821926,0.14462247,-0.022929275,-0.18864709,0.9710662,-9.457137,8.924422,0.90328854,1.052101,-1.5307006,-0.037791185,0
1.8900000000000015,11.329524031075893,0.9123989112618303,-1.5521034137385492,-1.0408525162233502,14.870291,-1.7588162,-4.2115397,0.40041777,1.579013,-1.3715751,1.6912609,0.1435943,-0.014676367,-0.18470012,0.97213674,-9.46762,8.883872,0.91045594,1.0302653,-1.534071,-0.0870117,0
1.9000000000000015,11.329524031075893,0.9123989112618303,-1.5521034137385492,-1.0408525162233502,14.870291,-1.7588162,-4.2115397,0.40041777,1.4842927,-1.2829368,1.700403,0.14278278,-0.0063772257,-0.18084073,0.9730713,-9.476118,8.843867,0.9180106,1.011837,-1.536913,-0.13381694,0
1.9100000000000015,11.329524031075893,0.9123989112618303,-1.5521034137385492,-1.0408525162233502,14.870291,-1.7588162,-4.2115397,0.40041777,1.3894975,-1.1946958,1.7096223,0.14217827,0.0019643507,-0.17705177,0.97387516,-9.48263,8.804402,0.925908,0.9962848,-1.5393095,-0.17832546,0
1.9200000000000015,10.572363803338227,0.5062216058701182,-1.4528421355810242,-1.0678346785055586,14.045557,-1.7371958,-4.127019,0.24958679,1.2946471,-1.1068469,1.7189223,0.14177124,0.010344754,-0.1733186,0.97455287,-9.487155,8.765467,0.934105,0.98316014,-1.5413303,-0.22064991,0
1.9300000000000015,10.572363803338227,0.5062216058701182,-1.4528421355810242,-1.0678346785055586,14.045557,-1.7371958,-4.127019,0.24958679,1.1997623,-1.0193719,1.7282699,0.14156462,0.018699367,-0.16978164,0.9750809,-9.489527,8.729618,0.9354358,0.9087424,-1.5275446,-0.26222152,0
1.9400000000000015,10.572363803338227,0.5062216058701182,-1.4528421355810242,-1.0678346785055586,14.045557,-1.7371958,-4.127019,0.24958679,1.1048629,-0.93225306,1.7376317,0.14156134,0.026976602,-0.16655198,0.97544444,-9.490075,8.69421,0.9369506,0.8459324,-1.515906,-0.3017532,0
1.9500000000000015,10.572363803338227,0.5062216058701182,-1.4528421355810242,-1.0678346785055586,14.045557,-1.7371958,-4.127019,0.24958679,1.009967,-0.84548634,1.7470093,0.14175175,0.03519073,-0.16357842,0.97565824,-9.488827,8.659189,0.938596,0.7929197,-1.5060803,-0.33934504,0
1.9600000000000015,10.04748402498187,0.08285575801214456,-1.246549439814035,-0.9983106718480101,13.428208,-2.0036466,-3.5745766,0.26803014,0.9150924,-0.75906813,1.7564037,0.14212625,0.04335354,-0.16081758,0.9757342,-9.48581,8.624511,0.9403234,0.748176,-1.4977852,-0.37509224,0
1.9700000000000015,10.04748402498187,0.08285575801214456,-1.246549439814035,-0.9983106718480101,13.428208,-2.0036466,-3.5745766,0.26803014,0.82025564,-0.67298657,1.7657909,0.1426881,0.051368684,-0.15838678,0.97566074,-9.48129,8.591838,0.9371289,0.6444001,-1.4585929,-0.40567374,0
1.9800000000000015,10.04748402498187,0.08285575801214456,-1.246549439814035,-0.9983106718480101,13.428208,-2.0036466,-3.5745766,0.26803014,0.7254721,-0.5872307,1.7751462,0.14343874,0.059159983,-0.15637761,0.97543347,-9.47517,8.559381,0.9339187,0.55680937,-1.4255124,-0.4347546,0
1.9900000000000015,10.04748402498187,0.08285575801214456,-1.246549439814035,-0.9983106718480101,13.428208,-2.0036466,-3.5745766,0.26803014,0.6307575,-0.5017985,1.7844691,0.14436616,0.06676351,-0.15472133,0.97506994,-9.467514,8.527067,0.93064606,0.48287916,-1.3975912,-0.46240845,0
2.0000000000000013,,,,,12.249226,-1.9039229,-3.269632,0.30321226,0.536127,-0.41668904,1.7937587,0.1454589,0.07420958,-0.1533598,0.9745843,-9.458371,8.494837,0.92727,0.42047915,-1.3740249,-0.48870537,0
2.010000000000001,,,,,12.249226,-1.9039229,-3.269632,0.30321226,0.44159278,-0.33189458,1.802993,0.14672542,0.08133871,-0.1523433,0.9739847,-9.44826,8.464053,0.9195878,0.31880692,-1.2884948,-0.50709736,0
2.020000000000001,,,,,12.249226,-1.9039229,-3.269632,0.30321226,0.34716612,-0.2474081,1.8121499,0.14816973,0.08802561,-0.15170959,0.97328335,-9.4368725,8.433234,0.9117416,0.23298855,-1.2163059,-0.52458686,0
2.0300000000000007,,,,,12.249226,-1.9039229,-3.269632,0.30321226,0.25285935,-0.16323023,1.8212273,0.14977537,0.094339795,-0.15139651,0.9724944,-9.424304,8.402322,0.90370625,0.16055167,-1.1553774,-0.5412181,0
2.0400000000000005,,,,,12.249226,-1.9039229,-3.269632,0.30321226,0.15868382,-0.07936217,1.8302234,0.15152748,0.10033992,-0.15135159,0.971629,-9.410635,8.371263,0.89546055,0.09941001,-1.1039532,-0.55703324,0
2.0500000000000003,,,,,11.365263,-1.6727797,-2.667714,0.16266355,0.06465019,0.0041943826,1.8391359,0.15341267,0.10607541,-0.15153052,0.9706956,-9.395936,8.340015,0.8869869,0.047801882,-1.0605507,-0.5720723,1
2.06,,,,,11.365263,-1.6727797,-2.667714,0.16266355,-0.029217279,0.08740848,1.8480443,0.15524583,0.11219467,-0.15258266,0.96955067,-9.377371,8.30274,0.8946348,-0.22058466,-1.3110918,-0.53601867,1
2.07,,,,,11.365263,-1.6727797,-2.667714,0.16266355,-0.12289283,0.1702472,1.8570272,0.15686294,0.11920714,-0.15502237,0.9680654,-9.357529,8.264887,0.90184414,-0.4470938,-1.522587,-0.50173414,1
2.0799999999999996,,,,,11.365263,-1.6727797,-2.667714,0.16266355,-0.21636301,0.25270316,1.8660792,0.15828055,0.12696384,-0.15863241,0.96626186,-9.336281,8.2261505,0.9084563,-0.6382613,-1.7011198,-0.46913198,1
2.0899999999999994,,,,,10.800007,-1.4783263,-2.2270238,0.08298215,-0.30961326,0.3347663,1.8751937,0.15951186,0.13533856,-0.16322827,0.96415496,-9.313521,8.18628,0.91432256,-0.7996026,-1.8518265,-0.43812957,1
2.099999999999999,,,,,10.800007,-1.4783263,-2.2270238,0.08298215,-0.402634,0.41643435,1.884337,0.16059566,0.14406864,-0.16854893,0.9617917,-9.290389,8.147122,0.914178,-0.90543413,-1.9103231,-0.41255847,1
2.109999999999999,,,,,10.800007,-1.4783263,-2.2270238,0.08298215,-0.49541584,0.49770394,1.8934741,0.16156557,0.15294166,-0.17437944,0.95921636,-9.265736,8.106571,0.9130903,-0.9947586,-1.9597042,-0.38824213,1
2.1199999999999988,,,,,10.800007,-1.4783263,-2.2270238,0.08298215,-0.5879435,0.57856065,1.9025953,0.1624248,0.16192648,-0.18063721,0.9564345,-9.239565,8.064535,0.91096747,-1.0701512,-2.0013895,-0.36511898,1
2.1299999999999986,,,,,10.245712,-1.1707194,-1.6261377,0.28268978,-0.68020195,0.6589893,1.9116898,0.16317622,0.17099664,-0.1872522,0.95345116,-9.211886,8.020943,0.90772086,-1.1337851,-2.0365782,-0.34313053,1
2.1399999999999983,,,,,10.245712,-1.1707194,-1.6261377,0.28268978,-0.77218354,0.73898554,1.9207217,0.16382343,0.17991643,-0.19401313,0.9503419,-9.184216,7.978069,0.89846456,-1.1394911,-1.9725919,-0.31242135,1
2.149999999999998,,,,,10.245712,-1.1707194,-1.6261377,0.28268978,-0.86388165,0.8185455,1.9296551,0.1643684,0.18849935,-0.20075208,0.9471792,-9.155199,7.933686,0.8880299,-1.1443137,-1.9185833,-0.28321904,1
2.159999999999998,,,,,10.245712,-1.1707194,-1.6261377,0.28268978,-0.95528316,0.8976542,1.9384782,0.16481167,0.19679081,-0.20747261,0.94396216,-9.1249075,7.8878217,0.8763932,-1.1483892,-1.8729966,-0.25544968,1
2.1699999999999977,,,,,10.462315,-0.9661149,-0.40828148,0.40402302,-1.0463756,0.9762969,1.9471788,0.16515407,0.20482908,-0.21417755,0.9406892,-9.093404,7.8405023,0.86353076,-1.1518334,-1.8345183,-0.22904304,1
2.1799999999999975,,,,,10.462315,-0.9661149,-0.40828148,0.40402302,-1.1371439,1.0544541,1.9557534,0.16547173,0.21219938,-0.22071536,0.93748295,-9.060071,7.790731,0.85120577,-1.1228046,-1.6121244,-0.1979783,1
2.1899999999999973,,,,,10.462315,-0.9661149,-0.40828148,0.40402302,-1.2275736,1.1321067,1.9641987,0.16582847,0.21857844,-0.22696929,0.9344562,-9.025743,7.739586,0.8376723,-1.0983173,-1.4244102,-0.16843793,1
2.199999999999997,,,,,10.462315,-0.9661149,-0.40828148,0.40402302,-1.3176559,1.2092413,1.972503,0.16620822,0.22411866,-0.23298767,0.93159086,-8.990597,7.687149,0.8230043,-1.0776595,-1.2659676,-0.14034711,1
2.209999999999997,,,,,9.677786,-0.5032842,0.5090527,0.33471182,-1.4073832,1.2858455,1.9806551,0.16659714,0.22894812,-0.23881087,0.9288685,-8.954782,7.6334887,0.8072669,-1.060232,-1.132232,-0.11363469,1
2.2199999999999966,,,,,9.677786,-0.5032842,0.5090527,0.33471182,-1.4967633,1.3619276,1.9886142,0.16703738,0.2328672,-0.24423783,0.9264008,-8.921157,7.5827837,0.7844277,-0.9733446,-0.87629485,-0.09163419,1
2.2299999999999964,,,,,9.677786,-0.5032842,0.5090527,0.33471182,-1.5858053,1.4374977,1.9963406,0.16756526,0.23572598,-0.24911223,0.92428213,-8.887199,7.531119,0.7607821,-0.90001696,-0.66026753,-0.070713274,1
2.239999999999996,,,,,9.677786,-0.5032842,0.5090527,0.33471182,-1.6745068,1.512547,2.0038273,0.16816147,0.2376899,-0.2535245,0.9224694,-8.853062,7.478604,0.7364564,-0.838132,-0.47792628,-0.050818946,1
