time-since-start [s],throttle_mpc,roll_mpc,pitch_mpc,yaw_mpc,throttle_nw,roll_nw,pitch_nw,yaw_nw,position_x [m],position_y [m],position_z [m],rotation_w [quaternion],rotation_x [quaternion],rotation_y [quaternion],rotation_z [quaternion],velocity_x [m/s],velocity_y [m/s],velocity_z [m/s],omega_x [rad/s],omega_y [rad/s],omega_z [rad/s],network_used
0.0,10.980869944926203,5.9999997978308794,-5.99999992705688,-3.5572287994691827,19.313686,4.3438783,-3.2652092,-1.8926605,16.427908,-10.433682,2.219563,0.12565067,-0.4000597,0.33828384,0.84245366,-12.4194355,-2.4938538,0.37275848,2.1962318,-0.07443921,-0.97920495,0
0.01,10.980869944926203,5.9999997978308794,-5.99999992705688,-3.5572287994691827,19.864693,6.2958655,-5.997933,-0.4636878,16.30327,-10.45811,2.2231405,0.13505799,-0.39896098,0.34559268,0.83854353,-12.507739,-2.3916075,0.3423069,2.3593864,-0.56907237,-1.0672691,0
0.02,10.980869944926203,5.9999997978308794,-5.99999992705688,-3.5572287994691827,19.864693,6.2958655,-5.997933,-0.4636878,16.177769,-10.481515,2.2264,0.14596494,-0.39584035,0.35305494,0.83507895,-12.591759,-2.289224,0.30920485,2.5340924,-1.0236148,-1.154322,0
0.03,10.980869944926203,5.9999997978308794,-5.99999992705688,-3.5572287994691827,19.864693,6.2958655,-5.997933,-0.4636878,16.051449,-10.503894,2.2293172,0.15832588,-0.39083076,0.36069754,0.8319143,-12.67104,-2.1866047,0.27393556,2.7173307,-1.4430959,-1.2403044,0
0.04,10.980869944926203,5.9999997978308794,-5.99999992705688,-3.5572287994691827,14.569692,4.4596734,-5.775578,-0.22300297,15.924363,-10.525246,2.2318728,0.17209058,-0.38404006,0.36852965,0.8289052,-12.745171,-2.0836926,0.23690458,2.906624,-1.8318338,-1.3251656,0
0.05,10.980869944926203,5.9999997978308794,-5.99999992705688,-3.5572287994691827,14.569692,4.4596734,-5.775578,-0.22300297,15.796563,-10.545567,2.2340505,0.18720417,-0.3755554,0.37654567,0.8259092,-12.813779,-1.9804747,0.19844948,3.0999491,-2.193539,-1.4088643,0
0.060000000000000005,10.980869944926203,5.9999997978308794,-5.99999992705688,-3.5572287994691827,14.569692,4.4596734,-5.775578,-0.22300297,15.668107,-10.564854,2.235838,0.20360711,-0.3654473,0.38472763,0.82278615,-12.876523,-1.8769883,0.15884836,3.295657,-2.5314028,-1.4913658,0
0.07,10.980869944926203,5.9999997978308794,-5.99999992705688,-3.5572287994691827,14.569692,4.4596734,-5.775578,-0.22300297,15.539054,-10.583106,2.2372243,0.22123508,-0.353773,0.393047,0.8193984,-12.933093,-1.7733212,0.11832708,3.4924104,-2.8481755,-1.5726424,0
0.08,14.11834300108033,5.999999895267246,-5.999999959315176,-3.107436880872661,16.551643,5.647318,-4.4875064,-0.74909365,15.409468,-10.600322,2.2382016,0.2400188,-0.3405792,0.40146622,0.8156112,-12.983205,-1.6696131,0.077065304,3.6891315,-3.1462271,-1.6526723,0
0.09,14.11834300108033,5.999999895267246,-5.999999959315176,-3.107436880872661,16.551643,5.647318,-4.4875064,-0.74909365,15.279383,-10.616429,2.2388022,0.26013997,-0.32549584,0.41015598,0.8112655,-13.032532,-1.55184,0.04292255,4.032333,-3.575271,-1.7225453,0
0.09999999999999999,14.11834300108033,5.999999895267246,-5.999999959315176,-3.107436880872661,16.551643,5.647318,-4.4875064,-0.74909365,15.148844,-10.631355,2.2390606,0.2817,-0.3082196,0.41920564,0.8061715,-13.074172,-1.4331707,0.00894482,4.3385906,-3.9539409,-1.7905023,0
0.10999999999999999,14.11834300108033,5.999999895267246,-5.999999959315176,-3.107436880872661,16.551643,5.647318,-4.4875064,-0.74909365,15.017926,-10.645086,2.2389843,0.30442604,-0.28899258,0.42840487,0.8001733,-13.107911,-1.3125575,-0.024030613,4.5971355,-4.273517,-1.8551247,0
0.11999999999999998,14.11834300108033,5.999999895267246,-5.999999959315176,-3.107436880872661,16.551643,5.647318,-4.4875064,-0.74909365,14.886715,-10.657602,2.2385838,0.32805157,-0.26805425,0.43755972,0.79313964,-13.133062,-1.1904316,-0.055956118,4.8154044,-4.5432177,-1.9165759,0
0.12999999999999998,19.323298061805428,5.9999999340894465,-5.999999971041833,-2.420136620066046,17.286488,5.5805426,-4.561423,-0.55376875,14.755298,-10.668891,2.237869,0.35233712,-0.24561675,0.4465053,0.7849611,-13.149043,-1.0673392,-0.08683583,4.999676,-4.7708225,-1.9750118,0
0.13999999999999999,19.323298061805428,5.9999999340894465,-5.999999971041833,-2.420136620066046,17.286488,5.5805426,-4.561423,-0.55376875,14.623753,-10.67872,2.236976,0.37700078,-0.22183207,0.45512274,0.7755799,-13.157717,-0.89842415,-0.09157046,5.155359,-4.9627852,-1.9968542,0
0.15,19.323298061805428,5.9999999340894465,-5.999999971041833,-2.420136620066046,17.286488,5.5805426,-4.561423,-0.55376875,14.49219,-10.686862,2.236042,0.40178776,-0.196836,0.46331227,0.7649601,-13.1526985,-0.7300541,-0.09506587,5.2868004,-5.1247807,-2.0176249,0
0.16,20.999998244072213,4.53178095314262,-5.524023206125838,-0.8685217456276527,17.283253,4.8056207,-3.7401974,-0.15900148,14.360747,-10.693327,2.235078,0.42653126,-0.170788,0.470971,0.75305307,-13.133643,-0.5632995,-0.09749623,5.3977766,-5.261486,-2.0373762,0
0.17,20.999998244072213,4.53178095314262,-5.524023206125838,-0.8685217456276527,17.283253,4.8056207,-3.7401974,-0.15900148,14.22958,-10.698066,2.2341363,0.45075798,-0.14414468,0.477695,0.7401669,-13.0975275,-0.38505912,-0.090684004,5.26287,-5.302052,-1.98002,0
0.18000000000000002,20.999998244072213,4.53178095314262,-5.524023206125838,-0.8685217456276527,17.283253,4.8056207,-3.7401974,-0.15900148,14.098849,-10.701043,2.233267,0.47410378,-0.117293395,0.4832025,0.72662455,-13.046313,-0.21104111,-0.08306865,5.1490026,-5.3363376,-1.9254785,0
0.19000000000000003,20.999998244072213,4.53178095314262,-5.524023206125838,-0.8685217456276527,17.283253,4.8056207,-3.7401974,-0.15900148,13.968704,-10.702306,2.2324777,0.49657503,-0.09027462,0.4875767,0.71241325,-12.980502,-0.0424233,-0.07478274,5.0528917,-5.3653154,-1.8736132,0
0.20000000000000004,20.232548239158064,3.1266708525492954,-3.8813541259300024,-0.5186790662097785,17.76143,2.3259861,-1.7196444,0.93396777,13.839288,-10.701914,2.2317734,0.5181729,-0.06312611,0.49088767,0.697525,-12.900652,0.119686455,-0.06599153,4.971768,-5.3898067,-1.8242933,0
0.21000000000000005,20.232548239158064,3.1266708525492954,-3.8813541259300024,-0.5186790662097785,17.76143,2.3259861,-1.7196444,0.93396777,13.71072,-10.699967,2.2311392,0.5385222,-0.036614038,0.4931639,0.6822336,-12.810854,0.26864317,-0.060808938,4.684522,-5.1540265,-1.7602264,0
0.22000000000000006,20.232548239158064,3.1266708525492954,-3.8813541259300024,-0.5186790662097785,17.76143,2.3259861,-1.7196444,0.93396777,13.583111,-10.696569,2.2305574,0.55737865,-0.011350896,0.49449554,0.66683906,-12.709244,0.4097511,-0.055542152,4.4420013,-4.955099,-1.6993034,0
0.23000000000000007,20.232548239158064,3.1266708525492954,-3.8813541259300024,-0.5186790662097785,17.76143,2.3259861,-1.7196444,0.93396777,13.456573,-10.691801,2.230028,0.57491326,0.012841424,0.49501154,0.6513627,-12.596921,0.5425804,-0.050386205,4.2372437,-4.7872624,-1.6413698,0
0.24000000000000007,20.232548239158064,3.1266708525492954,-3.8813541259300024,-0.5186790662097785,16.623022,0.8449589,-0.33043694,0.9965204,13.331206,-10.685748,2.2295487,0.5912665,0.03611586,0.49481356,0.63581365,-12.47488,0.66678035,-0.045512903,4.0643682,-4.645655,-1.586279,0
0.25000000000000006,20.232548239158064,3.1266708525492954,-3.8813541259300024,-0.5186790662097785,16.623022,0.8449589,-0.33043694,0.9965204,13.207106,-10.678497,2.2291162,0.60655403,0.058602653,0.4939817,0.6201934,-12.344034,0.78206027,-0.041077476,3.9184132,-4.526178,-1.5338916,0
0.26000000000000006,20.232548239158064,3.1266708525492954,-3.8813541259300024,-0.5186790662097785,16.623022,0.8449589,-0.33043694,0.9965204,13.0843525,-10.670138,2.2287252,0.62087107,0.08041192,0.4925791,0.6044987,-12.20522,0.8881759,-0.037223373,3.795186,-4.425371,-1.4840748,0
0.2700000000000001,20.232548239158064,3.1266708525492954,-3.8813541259300024,-0.5186790662097785,16.623022,0.8449589,-0.33043694,0.9965204,12.963025,-10.660766,2.2283692,0.63429606,0.10163607,0.49065575,0.5887235,-12.059218,0.9849197,-0.03408585,3.6911478,-4.340317,-1.4367026,0
0.2800000000000001,18.54697147567931,1.4101529360280651,-1.8740808166289893,0.27859083148969965,15.703985,-0.09051865,-0.7840587,1.6717215,12.843191,-10.650473,2.2280407,0.64689374,0.12235209,0.48825112,0.57286054,-11.906758,1.0721145,-0.031794436,3.6033103,-4.2685537,-1.391655,0
0.2900000000000001,18.54697147567931,1.4101529360280651,-1.8740808166289893,0.27859083148969965,15.703985,-0.09051865,-0.7840587,1.6717215,12.724844,-10.639389,2.2276886,0.65837085,0.1417714,0.4855273,0.5574153,-11.761755,1.1432284,-0.038748432,3.2618368,-3.8946526,-1.3096955,0
0.3000000000000001,18.54697147567931,1.4101529360280651,-1.8740808166289893,0.27859083148969965,15.703985,-0.09051865,-0.7840587,1.6717215,12.60797,-10.627637,2.2272625,0.66855717,0.15929428,0.48266652,0.54285324,-11.612351,1.2059262,-0.046626844,2.973519,-3.5791476,-1.2317579,0
0.3100000000000001,18.54697147567931,1.4101529360280651,-1.8740808166289893,0.27859083148969965,15.703985,-0.09051865,-0.7840587,1.6717215,12.49261,-10.615298,2.226753,0.6776586,0.17523365,0.47971362,0.52909994,-11.459327,1.2607331,-0.05543352,2.7300873,-3.3129156,-1.1576445,0
0.3200000000000001,17.169900406620144,-0.2627151784581638,0.21488117223106842,1.3168910943895566,15.036513,-1.1298124,-0.46245885,1.9287168,12.378796,-10.6024475,2.2261508,0.68584114,0.18985282,0.47669595,0.5160802,-11.30332,1.3081231,-0.065158986,2.524556,-3.0882587,-1.087168,0
0.3300000000000001,17.169900406620144,-0.2627151784581638,0.21488117223106842,1.3168910943895566,15.036513,-1.1298124,-0.46245885,1.9287168,12.266495,-10.589174,2.2254143,0.69291455,0.20254791,0.4738438,0.50429726,-11.156643,1.345596,-0.082271814,2.0904474,-2.5726657,-0.9692001,0
0.34000000000000014,17.169900406620144,-0.2627151784581638,0.21488117223106842,1.3168910943895566,15.036513,-1.1298124,-0.46245885,1.9287168,12.155669,-10.575556,2.2245028,0.6987686,0.21287462,0.47136688,0.49418628,-11.008258,1.3775326,-0.100123,1.7239057,-2.1375904,-0.857021,0
0.35000000000000014,17.169900406620144,-0.2627151784581638,0.21488117223106842,1.3168910943895566,15.036513,-1.1298124,-0.46245885,1.9287168,12.046333,-10.561641,2.2234097,0.7036209,0.22124723,0.4692388,0.48557407,-10.858612,1.4048371,-0.11860231,1.4144225,-1.7704515,-0.7503465,0
0.36000000000000015,17.721581260598683,-3.241415567329898,3.34897653297786,2.349719932407968,14.064697,-1.9086269,-0.92616385,2.791262,11.938499,-10.547472,2.2221289,0.70764124,0.22801015,0.4674241,0.47829896,-10.708038,1.4282889,-0.1376038,1.1531231,-1.4606352,-0.6489065,0
0.37000000000000016,17.721581260598683,-3.241415567329898,3.34897653297786,2.349719932407968,14.064697,-1.9086269,-0.92616385,2.791262,11.832199,-10.533082,2.2206686,0.7105961,0.23206902,0.46618003,0.47315246,-10.551951,1.4493366,-0.15447319,0.4681867,-0.7102411,-0.5017631,0
0.38000000000000017,17.721581260598683,-3.241415567329898,3.34897653297786,2.349719932407968,14.064697,-1.9086269,-0.92616385,2.791262,11.727461,-10.518491,2.2190387,0.7123118,0.23258308,0.4657162,0.47077104,-10.395575,1.4686749,-0.1714693,-0.11010648,-0.077026516,-0.36183998,0
0.3900000000000002,17.721581260598683,-3.241415567329898,3.34897653297786,2.349719932407968,14.064697,-1.9086269,-0.92616385,2.791262,11.624287,-10.503709,2.2172396,0.7129632,0.23014702,0.465912,0.4707884,-10.239262,1.4877913,-0.18829282,-0.5983435,0.45732233,-0.22878294,0
0.4000000000000002,20.7042887657572,-5.564839958528016,5.656858026909239,3.049429690492031,13.294025,-3.9006734,0.70893085,2.9093094,11.522675,-10.48873,2.2152743,0.71266854,0.22525084,0.46664494,0.47287214,-10.083298,1.5079441,-0.20469745,-1.0105345,0.90825415,-0.10225506,0
0.4100000000000002,20.7042887657572,-5.564839958528016,5.656858026909239,3.049429690492031,13.294025,-3.9006734,0.70893085,2.9093094,11.42275,-10.473523,2.2132173,0.71123683,0.21723829,0.46799216,0.47742325,-9.901826,1.5340527,-0.2066097,-1.7208883,1.648674,0.05239902,0
0.4200000000000002,20.7042887657572,-5.564839958528016,5.656858026909239,3.049429690492031,13.294025,-3.9006734,0.70893085,2.9093094,11.3246355,-10.458034,2.211146,0.7084585,0.20559753,0.4699698,0.48471072,-9.721616,1.5645149,-0.20744455,-2.3205862,2.2735085,0.19946416,0
0.4300000000000002,20.7042887657572,-5.564839958528016,5.656858026909239,3.049429690492031,13.294025,-3.9006734,0.70893085,2.9093094,11.2283125,-10.442212,2.2090733,0.7043614,0.19089232,0.47237423,0.49426484,-9.543284,1.6010429,-0.20692323,-2.826847,2.8008194,0.3393128,0
0.4400000000000002,20.7042887657572,-5.564839958528016,5.656858026909239,3.049429690492031,12.712094,-4.638377,1.0678518,2.9870253,11.13376,-10.425988,2.207013,0.6989459,0.17359473,0.47501776,0.5056654,-9.36751,1.6450422,-0.20488115,-3.2542129,3.2458422,0.47229904,0
0.45000000000000023,20.7042887657572,-5.564839958528016,5.656858026909239,3.049429690492031,12.712094,-4.638377,1.0678518,2.9870253,11.040951,-10.409282,2.204981,0.69219977,0.15410434,0.47773257,0.518539,-9.195044,1.6976421,-0.20125821,-3.6149662,3.6214316,0.59875965,0
0.46000000000000024,20.7042887657572,-5.564839958528016,5.656858026909239,3.049429690492031,12.712094,-4.638377,1.0678518,2.9870253,10.949845,-10.392004,2.2029932,0.6841067,0.13276277,0.4803717,0.53255504,-9.026702,1.7597203,-0.1960875,-3.9194787,3.9384308,0.71901476,0
0.47000000000000025,20.7042887657572,-5.564839958528016,5.656858026909239,3.049429690492031,12.712094,-4.638377,1.0678518,2.9870253,10.860398,-10.374055,2.2010643,0.67465174,0.10986489,0.48280865,0.5474215,-8.863363,1.8319229,-0.18948318,-4.17651,4.205988,0.8333689,0
0.48000000000000026,20.999997273447768,-5.9999939344781215,5.80607854915884,3.362057278397588,15.346589,-4.396051,2.5127206,2.2088442,10.772557,-10.3553295,2.199208,0.66382474,0.08566734,0.48493603,0.5628807,-8.705949,1.9146813,-0.18162909,-4.3934546,4.4318223,0.9421116,0
0.49000000000000027,20.999997273447768,-5.9999939344781215,5.80607854915884,3.362057278397588,15.346589,-4.396051,2.5127206,2.2088442,10.686267,-10.335716,2.197443,0.6515819,0.060264915,0.4865995,0.57881767,-8.553273,2.009573,-0.17123201,-4.6444836,4.6456246,1.0608591,0
0.5000000000000002,20.999997273447768,-5.9999939344781215,5.80607854915884,3.362057278397588,15.346589,-4.396051,2.5127206,2.2088442,10.601465,-10.3151,2.1957862,0.63787556,0.03375667,0.48766312,0.5951132,-8.408647,2.115524,-0.16005234,-4.856354,4.8260937,1.1737795,0
0.5100000000000002,20.999997273447768,-5.9999939344781215,5.80607854915884,3.362057278397588,15.346589,-4.396051,2.5127206,2.2088442,10.518064,-10.293367,2.194244,0.62270194,0.006361168,0.48807058,0.61154616,-8.273154,2.232462,-0.1483765,-5.0351686,4.9784336,1.2811589,0
0.5200000000000002,20.999993984579575,-5.999991291996203,4.3478347510572535,2.9612099366702314,13.4122505,-4.4241376,3.476988,2.2178643,10.435967,-10.270412,2.1928196,0.6060669,-0.021727223,0.48777738,0.62792027,-8.1478615,2.3601227,-0.1365368,-5.1860795,5.107034,1.3832692,0
0.5300000000000002,20.999993984579575,-5.999991291996203,4.3478347510572535,2.9612099366702314,13.4122505,-4.4241376,3.476988,2.2178643,10.355068,-10.246129,2.191513,0.5883074,-0.049989466,0.48640296,0.6440555,-8.03378,2.4980257,-0.12486599,-5.313154,4.988255,1.4606992,0
0.5400000000000003,20.999993984579575,-5.999991291996203,4.3478347510572535,2.9612099366702314,13.4122505,-4.4241376,3.476988,2.2178643,10.27525,-10.220419,2.1903214,0.5697292,-0.07799157,0.4836778,0.65983456,-7.931763,2.6453211,-0.11352083,-5.420406,4.88802,1.5343297,0
0.5500000000000003,20.999993984579575,-5.999991291996203,4.3478347510572535,2.9612099366702314,13.4122505,-4.4241376,3.476988,2.2178643,10.196389,-10.193193,2.1892412,0.55030686,-0.105688885,0.4797199,0.6751747,-7.8425465,2.8010163,-0.102620766,-5.5109277,4.803437,1.604347,0
0.5600000000000003,20.13034296631616,-5.2705170126118945,2.2205682826364237,2.2918285559272418,14.086518,-4.267747,3.013825,2.3244455,10.118354,-10.164373,2.188267,0.5300265,-0.13304128,0.47463116,0.68999785,-7.766774,2.9640765,-0.09231694,-5.587328,4.7320642,1.6709286,0
0.5700000000000003,20.13034296631616,-5.2705170126118945,2.2205682826364237,2.2918285559272418,14.086518,-4.267747,3.013825,2.3244455,10.040993,-10.1339245,2.1873698,0.5093955,-0.15930979,0.4682557,0.7041827,-7.707502,3.1263728,-0.08720235,-5.5375824,4.3403416,1.7013963,0
0.5800000000000003,20.13034296631616,-5.2705170126118945,2.2205682826364237,2.2918285559272418,14.086518,-4.267747,3.013825,2.3244455,9.964157,-10.101829,2.1865208,0.48887137,-0.18391564,0.46053156,0.71769804,-7.661656,3.2933404,-0.08269713,-5.4956436,4.0097065,1.730369,0
0.5900000000000003,20.13034296631616,-5.2705170126118945,2.2205682826364237,2.2918285559272418,14.086518,-4.267747,3.013825,2.3244455,9.887714,-10.068045,2.1857142,0.46837863,-0.20704481,0.45165935,0.7305872,-7.6291285,3.4636848,-0.07865279,-5.460288,3.7306333,1.7579199,0
0.6000000000000003,18.19359470454776,-3.9528586185161356,-0.032246699314931467,1.7381047359372899,13.249409,-2.7839668,1.5179768,1.2308646,9.81153,-10.032547,2.1849463,0.44785234,-0.22885749,0.4418024,0.7428749,-7.6097693,3.6362278,-0.07495097,-5.430484,3.4950807,1.784119,0
0.6100000000000003,18.19359470454776,-3.9528586185161356,-0.032246699314931467,1.7381047359372899,13.249409,-2.7839668,1.5179768,1.2308646,9.73547,-9.9954,2.1841652,0.4278174,-0.2486201,0.43108404,0.7545375,-7.603934,3.7931566,-0.08123714,-5.199406,2.9452717,1.7818611,0
0.6200000000000003,18.19359470454776,-3.9528586185161356,-0.032246699314931467,1.7381047359372899,13.249409,-2.7839668,1.5179768,1.2308646,9.659412,-9.956684,2.1833217,0.40872735,-0.26578292,0.41966015,0.76562834,-7.609076,3.9500518,-0.08741692,-5.004466,2.481162,1.779714,0
0.6300000000000003,18.19359470454776,-3.9528586185161356,-0.032246699314931467,1.7381047359372899,13.249409,-2.7839668,1.5179768,1.2308646,9.583252,-9.916402,2.1824183,0.39042702,-0.2807208,0.40768397,0.77624506,-7.6244154,4.106021,-0.0931528,-4.840011,2.089394,1.7776722,0
0.6400000000000003,18.19359470454776,-3.9528586185161356,-0.032246699314931467,1.7381047359372899,12.468241,-2.1505802,0.17643218,0.7991155,9.50689,-9.874569,2.181461,0.3727785,-0.29375133,0.3952709,0.78645235,-7.6492405,4.2603235,-0.098149955,-4.7012753,1.7586914,1.7757306,0
0.6500000000000004,18.19359470454776,-3.9528586185161356,-0.032246699314931467,1.7381047359372899,12.468241,-2.1505802,0.17643218,0.7991155,9.430236,-9.831204,2.1804588,0.35566145,-0.30514315,0.38250795,0.79629153,-7.682907,4.4123344,-0.10215604,-4.5842357,1.4795363,1.7738844,0
0.6600000000000004,18.19359470454776,-3.9528586185161356,-0.032246699314931467,1.7381047359372899,12.468241,-2.1505802,0.17643218,0.7991155,9.353204,-9.786333,2.1794221,0.33897245,-0.31512344,0.3694609,0.8057875,-7.724828,4.561519,-0.104959235,-4.4854994,1.2438936,1.7721286,0
0.6700000000000004,18.19359470454776,-3.9528586185161356,-0.032246699314931467,1.7381047359372899,12.468241,-2.1505802,0.17643218,0.7991155,9.275713,-9.739985,2.1783643,0.3226235,-0.32388407,0.35617948,0.8149536,-7.7744684,4.7074137,-0.10638522,-4.4022036,1.0449811,1.770459,0
0.6800000000000004,17.085367447808643,-2.4348506342081997,-2.2183239903371157,0.9559309782697292,0.34050947,-0.19582413,-0.32956073,-0.32177582,9.19769,-9.692198,2.1772997,0.30654067,-0.33158717,0.3427014,0.8237952,-7.8313365,4.8496103,-0.106293865,-4.331934,0.8770734,1.7688714,0
0.6900000000000004,17.085367447808643,-2.4348506342081997,-2.2183239903371157,0.9559309782697292,0.34050947,-0.19582413,-0.32956073,-0.32177582,9.119083,-9.643049,2.1762137,0.29124448,-0.3375004,0.32926637,0.8323784,-7.891029,4.979343,-0.11062192,-4.035518,0.39479455,1.7289803,0
0.7000000000000004,17.085367447808643,-2.4348506342081997,-2.2183239903371157,0.9559309782697292,0.34050947,-0.19582413,-0.32956073,-0.32177582,9.039851,-9.592624,2.1750937,0.27715886,-0.34106934,0.316092,0.84079754,-7.9561357,5.105048,-0.1130831,-3.7854364,-0.012344748,1.6910466,0
0.7100000000000004,17.085367447808643,-2.4348506342081997,-2.2183239903371157,0.9559309782697292,0.34050947,-0.19582413,-0.32956073,-0.32177582,8.959945,-9.540962,2.17396,0.26409385,-0.34265622,0.30316493,0.8490773,-8.025752,5.226584,-0.113354586,-3.5744429,-0.35604948,1.6549743,0
0.7200000000000004,16.53434998982985,-0.9523106120524244,-3.9997072317095084,0.28208450408655455,0.37544832,-0.48561907,0.0006307089,-0.42339277,8.879323,-9.488106,2.1728354,0.25188679,-0.34256342,0.2904641,0.8572246,-8.099095,5.343853,-0.11116988,-3.3964255,-0.64620227,1.6206721,0
0.7300000000000004,16.53434998982985,-0.9523106120524244,-3.9997072317095084,0.28208450408655455,0.37544832,-0.48561907,0.0006307089,-0.42339277,8.797965,-9.434117,2.171729,0.24087963,-0.3403095,0.2782716,0.86529267,-8.172956,5.4531627,-0.10961034,-3.0147645,-1.168647,1.5549872,0
0.7400000000000004,16.53434998982985,-0.9523106120524244,-3.9997072317095084,0.28208450408655455,0.37544832,-0.48561907,0.0006307089,-0.42339277,8.715857,-9.379056,2.170653,0.23133841,-0.3355321,0.26681843,0.8733319,-8.24872,5.558382,-0.1051189,-2.692744,-1.6097131,1.4925253,0
0.7500000000000004,16.53434998982985,-0.9523106120524244,-3.9997072317095084,0.28208450408655455,0.37544832,-0.48561907,0.0006307089,-0.42339277,8.632986,-9.322962,2.169638,0.22303206,-0.32861972,0.25600523,0.8813212,-8.325424,5.6596437,-0.09739387,-2.4210386,-1.9820733,1.4331286,0
0.7600000000000005,16.862172957893925,0.1530418078670244,-5.134042738230889,-0.40121200517140737,-0.7574891,-0.23899974,0.23483089,0.23896156,8.549347,-9.265876,2.1687174,0.21576455,-0.31989568,0.2457393,0.889227,-8.402238,5.757072,-0.08620608,-2.191782,-2.2964272,1.3766465,0
0.7700000000000005,16.862172957893925,0.1530418078670244,-5.134042738230889,-0.40121200517140737,-0.7574891,-0.23899974,0.23483089,0.23896156,8.464934,-9.207824,2.167938,0.20969592,-0.30915156,0.23620752,0.8970278,-8.479906,5.852654,-0.06914133,-1.825866,-2.738519,1.2894064,0
0.7800000000000005,16.862172957893925,0.1530418078670244,-5.134042738230889,-0.40121200517140737,-0.7574891,-0.23899974,0.23483089,0.23896156,8.379753,-9.148834,2.1673484,0.20494476,-0.29623404,0.22755249,0.9046893,-8.555981,5.944675,-0.048180502,-1.5171102,-3.1117578,1.2064474,0
0.7900000000000005,16.862172957893925,0.1530418078670244,-5.134042738230889,-0.40121200517140737,-0.7574891,-0.23899974,0.23483089,0.23896156,8.293824,-9.088942,2.1669884,0.20130278,-0.28146482,0.21963322,0.912149,-8.629576,6.0333514,-0.02319238,-1.2565789,-3.426862,1.1275592,0
0.8000000000000005,17.99671963262835,0.8448779509704518,-5.511465598711807,-0.9347835023331221,-0.40973112,-0.7079185,-0.047174197,-0.5876827,8.207174,-9.028178,2.1668987,0.1985946,-0.26511422,0.21232621,0.9193432,-8.699915,6.118856,0.005875456,-1.0367339,-3.6928833,1.0525419,0
0.8100000000000005,17.99671963262835,0.8448779509704518,-5.511465598711807,-0.9347835023331221,-0.40973112,-0.7079185,-0.047174197,-0.5876827,8.119818,-8.966547,2.1671638,0.19683683,-0.24723077,0.20573236,0.9261782,-8.770762,6.206882,0.04783401,-0.74335515,-3.976241,0.9550233,0
0.8200000000000005,17.99671963262835,0.8448779509704518,-5.511465598711807,-0.9347835023331221,-0.40973112,-0.7079185,-0.047174197,-0.5876827,8.031777,-8.904052,2.1678698,0.19603707,-0.2278658,0.1999248,0.9325645,-8.83661,6.291876,0.09403902,-0.4957764,-4.215473,0.86228997,0
0.8300000000000005,17.99671963262835,0.8448779509704518,-5.511465598711807,-0.9347835023331221,-0.40973112,-0.7079185,-0.047174197,-0.5876827,7.9431057,-8.84072,2.1690586,0.19604729,-0.2072352,0.19476628,0.9384481,-8.89674,6.374012,0.14433488,-0.28684187,-4.4174485,0.77410704,0
0.8400000000000005,17.99671963262835,0.8448779509704518,-5.511465598711807,-0.9347835023331221,-0.2928151,-0.5026036,-0.24626482,-0.78193516,7.853864,-8.776581,2.17077,0.19674283,-0.18552375,0.1901398,0.9437795,-8.950526,6.453412,0.19850364,-0.11051495,-4.587964,0.6902513,0
0.8500000000000005,17.99671963262835,0.8448779509704518,-5.511465598711807,-0.9347835023331221,-0.2928151,-0.5026036,-0.24626482,-0.78193516,7.764119,-8.71166,2.173041,0.19801852,-0.16289067,0.185946,0.94851416,-8.99742,6.5301495,0.2562723,0.03829726,-4.7319183,0.6105103,0
0.8600000000000005,17.99671963262835,0.8448779509704518,-5.511465598711807,-0.9347835023331221,-0.2928151,-0.5026036,-0.24626482,-0.78193516,7.6739416,-8.645986,2.175907,0.19978544,-0.13947387,0.18210104,0.9526131,-9.036948,6.6042576,0.31731957,0.16389167,-4.853446,0.5346823,0
0.8700000000000006,17.99671963262835,0.8448779509704518,-5.511465598711807,-0.9347835023331221,-0.2928151,-0.5026036,-0.24626482,-0.78193516,7.5834074,-8.579583,2.1793978,0.2019682,-0.1153935,0.17853439,0.95604306,-9.068703,6.6757364,0.38128272,0.269894,-4.9560394,0.46257517,0
0.8800000000000006,18.18026861424544,0.8733653324847793,-5.021327372378913,-1.2159519736259765,0.65945125,-0.64600825,-0.27551997,-0.995108,7.4925957,-8.51248,2.1835413,0.20450254,-0.09075479,0.17518702,0.95877606,-9.09234,6.744557,0.4477635,0.35936323,-5.042647,0.39400637,0
0.8900000000000006,18.18026861424544,0.8733653324847793,-5.021327372378913,-1.2159519736259765,0.65945125,-0.64600825,-0.27551997,-0.995108,7.401589,-8.444697,2.1883688,0.20733428,-0.0658426,0.17205855,0.96076685,-9.107742,6.811348,0.51803017,0.43926117,-5.039324,0.31500524,0
0.9000000000000006,18.18026861424544,0.8733653324847793,-5.021327372378913,-1.2159519736259765,0.65945125,-0.64600825,-0.27551997,-0.995108,7.310471,-8.376262,2.1939075,0.21042478,-0.040892903,0.16915037,0.96199644,-9.114527,6.8753805,0.5899283,0.50671214,-5.036528,0.23988071,0
0.9100000000000006,18.18026861424544,0.8733653324847793,-5.021327372378913,-1.2159519736259765,0.65945125,-0.64600825,-0.27551997,-0.995108,7.2193284,-8.3071995,2.2001715,0.2137433,-0.015926016,0.16641968,0.9624783,-9.11262,6.9366236,0.6629752,0.56365657,-5.0341744,0.16844258,0
0.9200000000000006,19.123010649733587,0.6885354461958512,-4.0481500412433595,-1.4393783329026053,0.7854496,-0.60696113,-0.332193,-0.9902432,7.128248,-8.23754,2.2071693,0.21726234,0.009038674,0.16383094,0.9622238,-9.101982,6.9950294,0.73669237,0.6117325,-5.0321927,0.10050992,0
0.9300000000000006,19.123010649733587,0.6885354461958512,-4.0481500412433595,-1.4393783329026053,0.7854496,-0.60696113,-0.332193,-0.9902432,7.037323,-8.167295,2.2149506,0.22092296,0.033587385,0.16136996,0.9612619,-9.081627,7.053425,0.8195271,0.6234591,-4.8787613,0.024947148,0
0.9400000000000006,19.123010649733587,0.6885354461958512,-4.0481500412433595,-1.4393783329026053,0.7854496,-0.60696113,-0.332193,-0.9902432,6.946646,-8.096482,2.2235591,0.22468832,0.05738999,0.15903132,0.9596512,-9.052341,7.10877,0.9020967,0.63338274,-4.7492576,-0.046907745,0
0.9500000000000006,19.123010649733587,0.6885354461958512,-4.0481500412433595,-1.4393783329026053,0.7854496,-0.60696113,-0.332193,-0.9902432,6.8563056,-8.02513,2.2329903,0.22856349,0.08054263,0.15679896,0.9574369,-9.014415,7.161061,0.9839682,0.64178,-4.639949,-0.115236685,0
0.9600000000000006,19.0413665622365,0.23413321693324424,-2.680972301252706,-1.4797799805881606,-0.22849107,-0.70680934,-0.116697244,-0.9137464,6.7663865,-7.953271,2.2432349,0.23255017,0.10312632,0.1546591,0.95465475,-8.968116,7.210284,1.0647433,0.6488858,-4.547686,-0.1802127,0
0.9700000000000006,19.0413665622365,0.23413321693324424,-2.680972301252706,-1.4797799805881606,-0.22849107,-0.70680934,-0.116697244,-0.9137464,6.67697,-7.8809357,2.254276,0.23658995,0.124644935,0.15255642,0.95142794,-8.913981,7.256231,1.1433071,0.5840616,-4.2565904,-0.24398284,0
0.9800000000000006,19.0413665622365,0.23413321693324424,-2.680972301252706,-1.4797799805881606,-0.22849107,-0.70680934,-0.116697244,-0.9137464,6.588133,-7.8081565,2.266095,0.24064842,0.14471395,0.15045455,0.9478974,-8.85236,7.2991486,1.2201734,0.5293705,-4.010886,-0.30462378,0
0.9900000000000007,19.0413665622365,0.23413321693324424,-2.680972301252706,-1.4797799805881606,-0.22849107,-0.70680934,-0.116697244,-0.9137464,6.4999466,-7.734963,2.2786732,0.24475406,0.16354707,0.14836673,0.9441053,-8.783817,7.339089,1.2951621,0.4832262,-3.803496,-0.36228904,0
1.0000000000000007,18.85468083118672,-0.30889389185904004,-1.4250029909029729,-1.4000965327193358,0.14458153,-0.45357615,-0.16993916,-0.9746301,6.4124784,-7.661385,2.291991,0.24892728,0.18132521,0.14630273,0.94008064,-8.708846,7.3760943,1.368127,0.44429153,-3.6284459,-0.41712466,0
1.0100000000000007,18.85468083118672,-0.30889389185904004,-1.4250029909029729,-1.4000965327193358,0.14458153,-0.45357615,-0.16993916,-0.9746301,6.3257866,-7.587453,2.30602,0.2531417,0.19767764,0.14419055,0.9359763,-8.628706,7.4098725,1.4373085,0.32682213,-3.2847989,-0.46535936,0
1.0200000000000007,18.85468083118672,-0.30889389185904004,-1.4250029909029729,-1.4000965327193358,0.14458153,-0.45357615,-0.16993916,-0.9746301,6.2399225,-7.513197,2.32073,0.25738412,0.21232474,0.14197871,0.9319407,-8.543301,7.440863,1.5044132,0.22768047,-2.994742,-0.5112272,0
1.0300000000000007,18.85468083118672,-0.30889389185904004,-1.4250029909029729,-1.4000965327193358,0.14458153,-0.45357615,-0.16993916,-0.9746301,6.1549363,-7.4386444,2.336101,0.26168218,0.22552985,0.13969941,0.9279777,-8.453248,7.4691486,1.5695248,0.14400488,-2.7499182,-0.5548442,0
1.0400000000000007,18.85468083118672,-0.30889389185904004,-1.4250029909029729,-1.4000965327193358,0.19986519,-0.5177905,-0.16990873,-0.86517286,6.070872,-7.363823,2.3521135,0.26605508,0.23751484,0.13737774,0.9240825,-8.359068,7.4948034,1.6327313,0.07338133,-2.5432749,-0.596321,0
1.0500000000000007,18.85468083118672,-0.30889389185904004,-1.4250029909029729,-1.4000965327193358,0.19986519,-0.5177905,-0.16990873,-0.86517286,5.987768,-7.288758,2.3687494,0.2705157,0.24846658,0.13503307,0.92024535,-8.261198,7.517893,1.6941197,0.013772092,-2.3688583,-0.6357625,0
1.0600000000000007,18.85468083118672,-0.30889389185904004,-1.4250029909029729,-1.4000965327193358,0.19986519,-0.5177905,-0.16990873,-0.86517286,5.9056597,-7.2134743,2.3859901,0.2750722,0.25854242,0.13268037,0.91645336,-8.160008,7.5384727,1.7537714,-0.03654108,-2.2216427,-0.67326856,0
1.0700000000000007,18.85468083118672,-0.30889389185904004,-1.4250029909029729,-1.4000965327193358,0.19986519,-0.5177905,-0.16990873,-0.86517286,5.8245783,-7.137997,2.403819,0.27972898,0.26787475,0.13033107,0.91269284,-8.055815,7.5565915,1.8117609,-0.07900867,-2.097387,-0.70893425,0
1.0800000000000007,18.534112581934874,-0.8036809396356749,-0.359887452107915,-1.1968655832982,-0.35305664,-0.037537873,-0.4715408,-0.49161234,5.7445526,-7.0623507,2.4222198,0.2844879,0.27657518,0.1279938,0.90894985,-7.948885,7.572289,1.8681543,-0.114854924,-1.9925102,-0.7428497,0
1.0900000000000007,18.534112581934874,-0.8036809396356749,-0.359887452107915,-1.1968655832982,-0.35305664,-0.037537873,-0.4715408,-0.49161234,5.6656,-6.9865603,2.4411635,0.2893276,0.28429797,0.12561075,0.9053649,-7.8413405,7.5853806,1.9204309,-0.22217931,-1.7378485,-0.76512843,0
1.1000000000000008,18.534112581934874,-0.8036809396356749,-0.359887452107915,-1.1968655832982,-0.35305664,-0.037537873,-0.4715408,-0.49161234,5.587733,-6.9106507,2.460624,0.29423207,0.2907776,0.12313872,0.90206,-7.7317615,7.5962124,1.9714136,-0.31277835,-1.5229069,-0.7863139,0
1.1100000000000008,18.534112581934874,-0.8036809396356749,-0.359887452107915,-1.1968655832982,-0.35305664,-0.037537873,-0.4715408,-0.49161234,5.51097,-6.834644,2.4805884,0.29920655,0.2962078,0.12060209,0.8989944,-7.6205425,7.6048703,2.0213206,-0.38925913,-1.3414903,-0.8064598,0
1.1200000000000008,18.088055968621074,-1.25466098874877,0.6278379476341045,-0.9235052688743295,-0.2974729,-0.014560535,-0.4033172,-0.4912745,5.435326,-6.7585607,2.5010474,0.30425328,0.3007513,0.118019916,0.89613014,-7.5080132,7.611432,2.0703425,-0.45382246,-1.1883702,-0.82561713,0
1.1300000000000008,18.088055968621074,-1.25466098874877,0.6278379476341045,-0.9235052688743295,-0.2974729,-0.014560535,-0.4033172,-0.4912745,5.3608,-6.6824226,2.521975,0.3093505,0.30414012,0.11535653,0.8935845,-7.397211,7.615865,2.1151435,-0.57856345,-0.90506494,-0.83042055,0
1.1400000000000008,18.088055968621074,-1.25466098874877,0.6278379476341045,-0.9235052688743295,-0.2974729,-0.014560535,-0.4033172,-0.4912745,5.287384,-6.60625,2.5433486,0.31447822,0.3061701,0.11258499,0.8914524,-7.2858343,7.618443,2.159543,-0.6838732,-0.66595054,-0.8349882,0
1.1500000000000008,18.088055968621074,-1.25466098874877,0.6278379476341045,-0.9235052688743295,-0.2974729,-0.014560535,-0.4033172,-0.4912745,5.2150836,-6.53006,2.5651655,0.31963742,0.30705234,0.109729536,0.8896682,-7.1742754,7.619286,2.2038212,-0.7727788,-0.46413437,-0.8393317,0
1.1600000000000008,17.807184158420775,-1.5408250030175952,1.2555790511134948,-0.6038247317542929,0.4881657,-0.17368914,-0.50741524,-0.4245258,5.1438975,-6.45387,2.5874255,0.32482693,0.30696395,0.10680909,0.8881733,-7.0628657,7.618503,2.2482166,-0.8478359,-0.29379845,-0.8434621,0
1.1700000000000008,17.807184158420775,-1.5408250030175952,1.2555790511134948,-0.6038247317542929,0.4881657,-0.17368914,-0.50741524,-0.4245258,5.073816,-6.377695,2.6101198,0.33001754,0.30579743,0.10380682,0.8870174,-6.9536257,7.616233,2.2907257,-0.955774,-0.05212193,-0.831703,0
1.1800000000000008,17.807184158420775,-1.5408250030175952,1.2555790511134948,-0.6038247317542929,0.4881657,-0.17368914,-0.50741524,-0.4245258,5.0048227,-6.3015494,2.6332421,0.3351803,0.3034746,0.10070905,0.88623613,-6.8451705,7.6125903,2.3338122,-1.046903,0.15185505,-0.82052094,0
1.1900000000000008,17.807184158420775,-1.5408250030175952,1.2555790511134948,-0.6038247317542929,0.4881657,-0.17368914,-0.50741524,-0.4245258,4.9369082,-6.2254467,2.6567988,0.3403124,0.30017167,0.097533,0.8857603,-6.7378273,7.6077013,2.3777082,-1.1238402,0.32401362,-0.8098875,0
1.2000000000000008,17.058818138786247,-1.6945540054443415,1.5403647565552219,-0.29252384304286255,-0.7630653,0.5917288,0.49696332,0.0065479027,4.870061,-6.149399,2.6807992,0.3454102,0.29603678,0.09429231,0.8855295,-6.631878,7.6016803,2.4226034,-1.1887952,0.4693173,-0.799776,0
1.2100000000000009,17.058818138786247,-1.6945540054443415,1.5403647565552219,-0.29252384304286255,-0.7630653,0.5917288,0.49696332,0.0065479027,4.804243,-6.073415,2.7052245,0.35044342,0.29107594,0.09097156,0.8855438,-6.5319557,7.5949283,2.462597,-1.2675912,0.63636714,-0.774885,0
1.2200000000000009,17.058818138786247,-1.6945540054443415,1.5403647565552219,-0.29252384304286255,-0.7630653,0.5917288,0.49696332,0.0065479027,4.739415,-5.997503,2.7300558,0.35538182,0.28529975,0.087557696,0.88579965,-6.433862,7.5872984,2.5038495,-1.3341166,0.77735806,-0.7512154,0
1.2300000000000009,17.058818138786247,-1.6945540054443415,1.5403647565552219,-0.29252384304286255,-0.7630653,0.5917288,0.49696332,0.0065479027,4.675558,-5.9216714,2.7553065,0.3602223,0.27882946,0.084063746,0.88624316,-6.337833,7.578891,2.5464883,-1.3902814,0.8963555,-0.72870725,0
1.2400000000000009,17.058818138786247,-1.6945540054443415,1.5403647565552219,-0.29252384304286255,-0.6486935,0.4418429,0.45704818,0.082617596,4.6126504,-5.8459272,2.7809908,0.3649621,0.2717675,0.080500446,0.8868283,-6.2440753,7.569797,2.590608,-1.4376986,0.9967907,-0.7073036,0
1.2500000000000009,17.058818138786247,-1.6945540054443415,1.5403647565552219,-0.29252384304286255,-0.6486935,0.4418429,0.45704818,0.082617596,4.5506687,-5.7702775,2.8071241,0.36959893,0.26420054,0.076876715,0.88751584,-6.152771,7.5601006,2.6362755,-1.4777304,1.0815598,-0.68695027,0
1.260000000000001,17.058818138786247,-1.6945540054443415,1.5403647565552219,-0.29252384304286255,-0.6486935,0.4418429,0.45704818,0.082617596,4.489587,-5.6947274,2.8337219,0.37413105,0.25620186,0.07320004,0.8882725,-6.064081,7.5498776,2.683534,-1.5115261,1.1531061,-0.6675957,0
1.270000000000001,17.058818138786247,-1.6945540054443415,1.5403647565552219,-0.29252384304286255,-0.6486935,0.4418429,0.45704818,0.082617596,4.429378,-5.6192822,2.8608003,0.37855715,0.2478337,0.069476746,0.88907015,-5.978149,7.539198,2.7324066,-1.5400574,1.2134928,-0.64919084,0
1.280000000000001,15.555732976993621,-1.6904621640400914,1.602750661370237,-0.03195877841899692,-0.14363517,0.17081079,0.21073201,-0.4480927,4.3700137,-5.5439453,2.8883755,0.38287628,0.23914874,0.06571221,0.88988507,-5.8951006,7.528126,2.7828994,-1.564144,1.2644606,-0.63168913,0
1.290000000000001,15.555732976993621,-1.6904621640400914,1.602750661370237,-0.03195877841899692,-0.14363517,0.17081079,0.21073201,-0.4480927,4.3114295,-5.468716,2.9163978,0.38705736,0.2301723,0.061914526,0.8907153,-5.8221045,7.517727,2.8217692,-1.5838467,1.3171945,-0.6022602,0
1.300000000000001,15.555732976993621,-1.6904621640400914,1.602750661370237,-0.03195877841899692,-0.14363517,0.17081079,0.21073201,-0.4480927,4.2535615,-5.3935914,2.944816,0.39107195,0.22092715,0.058089796,0.89156,-5.751942,7.5070853,2.8620934,-1.6004806,1.3617041,-0.57427526,0
1.310000000000001,15.555732976993621,-1.6904621640400914,1.602750661370237,-0.03195877841899692,-0.14363517,0.17081079,0.21073201,-0.4480927,4.19638,-5.3185744,2.9736447,0.39492348,0.21145129,0.054239847,0.8924022,-5.6847043,7.4962564,2.9038472,-1.6145233,1.3992724,-0.5476636,0
1.320000000000001,12.821996051517619,-1.528543425219856,1.4514133589267741,0.2251041395044348,-0.25484368,0.15231968,0.20989868,-0.45475805,4.139857,-5.2436666,3.0028977,0.39861545,0.20177706,0.05036644,0.8932271,-5.620472,7.4852915,2.9469957,-1.6263784,1.430982,-0.5223579,0
1.330000000000001,12.821996051517619,-1.528543425219856,1.4514133589267741,0.2251041395044348,-0.25484368,0.15231968,0.20989868,-0.45475805,4.0839057,-5.1688585,3.032464,0.4021134,0.19201374,0.04649863,0.8940207,-5.5700603,7.4761806,2.9664347,-1.6111546,1.4341246,-0.4856797,0
1.340000000000001,12.821996051517619,-1.528543425219856,1.4514133589267741,0.2251041395044348,-0.25484368,0.15231968,0.20989868,-0.45475805,4.028446,-5.094142,3.06223,0.40538818,0.18225051,0.0426592,0.8947764,-5.5222034,7.4670315,2.9869342,-1.5983033,1.4367805,-0.4508013,0
1.350000000000001,12.821996051517619,-1.528543425219856,1.4514133589267741,0.2251041395044348,-0.25484368,0.15231968,0.20989868,-0.45475805,3.9734523,-5.019517,3.0922062,0.40845057,0.17248556,0.038841467,0.895493,-5.476915,7.457876,3.0084372,-1.5874547,1.4390248,-0.41763443,0
1.360000000000001,10.403198828155068,-1.2778094083901015,1.2357360682827059,0.44022286992768556,-0.22405313,-0.27157983,-0.08403863,-0.24514055,3.9188988,-4.9449835,3.1224022,0.41131046,0.16271749,0.035040095,0.89616877,-5.4342065,7.448741,3.0308871,-1.5782967,1.4409218,-0.38609505,0
1.370000000000001,10.403198828155068,-1.2778094083901015,1.2357360682827059,0.44022286992768556,-0.22405313,-0.27157983,-0.08403863,-0.24514055,3.8647213,-4.870533,3.1527126,0.41394034,0.15306494,0.031300995,0.8967967,-5.401652,7.441366,3.0313168,-1.5314813,1.4088709,-0.34554738,0
1.380000000000001,10.403198828155068,-1.2778094083901015,1.2357360682827059,0.44022286992768556,-0.22405313,-0.27157983,-0.08403863,-0.24514055,3.810859,-4.796156,3.1830306,0.41631842,0.14362283,0.027660238,0.89737725,-5.371165,7.434047,3.03241,-1.4919622,1.3818243,-0.3069894,0
1.390000000000001,10.403198828155068,-1.2778094083901015,1.2357360682827059,0.44022286992768556,-0.22405313,-0.27157983,-0.08403863,-0.24514055,3.757291,-4.7218513,3.2133627,0.41846102,0.13435802,0.02410088,0.89791816,-5.3427095,7.4268,3.03411,-1.4586022,1.3590002,-0.27032346,0
1.400000000000001,8.35305026605928,-1.0016300511003178,0.8736676194477911,0.638876989442583,-0.42066666,-0.6069381,0.026327994,-0.15559806,3.7039976,-4.6476192,3.2437146,0.4203826,0.12524238,0.020608908,0.8984251,-5.3162565,7.4196386,3.0363655,-1.4304414,1.3397397,-0.23545673,0
1.410000000000001,8.35305026605928,-1.0016300511003178,0.8736676194477911,0.638876989442583,-0.42066666,-0.6069381,0.026327994,-0.15559806,3.6509347,-4.573451,3.2739923,0.42206374,0.11642943,0.017208051,0.89889365,-5.2965975,7.4139657,3.01925,-1.363615,1.2670074,-0.19255294,0
1.420000000000001,8.35305026605928,-1.0016300511003178,0.8736676194477911,0.638876989442583,-0.42066666,-0.6069381,0.026327994,-0.15559806,3.5980606,-4.4993396,3.3041008,0.42348972,0.1080403,0.013916442,0.89932734,-5.2784595,7.4083676,3.0024939,-1.3072037,1.2056243,-0.15175442,0
1.430000000000001,8.35305026605928,-1.0016300511003178,0.8736676194477911,0.638876989442583,-0.42066666,-0.6069381,0.026327994,-0.15559806,3.5453606,-4.4252834,3.334043,0.4246789,0.100009106,0.010716021,0.8997393,-5.2617807,7.402841,2.9860544,-1.2595841,1.1538193,-0.11295792,0
1.440000000000001,8.35305026605928,-1.0016300511003178,0.8736676194477911,0.638876989442583,-0.34030065,-0.666053,-0.011253858,-0.09871165,3.4928203,-4.3512826,3.3638227,0.42564726,0.09227999,0.007591777,0.90013933,-5.2465076,7.397381,2.969894,-1.2193862,1.1100974,-0.07606517,0
1.450000000000001,8.35305026605928,-1.0016300511003178,0.8736676194477911,0.638876989442583,-0.34030065,-0.666053,-0.011253858,-0.09871165,3.4404259,-4.2773356,3.393442,0.4264091,0.08480567,0.0045312475,0.9005345,-5.232594,7.391983,2.9539797,-1.1854537,1.0731975,-0.040982757,0
1.460000000000001,8.35305026605928,-1.0016300511003178,0.8736676194477911,0.638876989442583,-0.34030065,-0.666053,-0.011253858,-0.09871165,3.3881636,-4.203442,3.4229033,0.42697713,0.07754609,0.0015241007,0.9009298,-5.2200036,7.3866453,2.9382823,-1.15681,1.0420549,-0.007621835,0
1.470000000000001,8.35305026605928,-1.0016300511003178,0.8736676194477911,0.638876989442583,-0.34030065,-0.666053,-0.011253858,-0.09871165,3.3360212,-4.129602,3.4522085,0.42736265,0.07046735,-0.0014382198,0.90132856,-5.2087026,7.381364,2.9227753,-1.132631,1.0157714,0.024102041,0
1.480000000000001,6.926694296231459,-0.833614575556493,0.8167609545760481,0.8213408058761216,-0.4092836,-0.51206994,0.20521672,-0.13674988,3.2839856,-4.0558147,3.4813595,0.42757595,0.06354081,-0.004362786,0.9017328,-5.1986637,7.376136,2.9074347,-1.1122208,0.9935888,0.054269217,0
1.490000000000001,6.926694296231459,-0.833614575556493,0.8167609545760481,0.8213408058761216,-0.4092836,-0.51206994,0.20521672,-0.13674988,3.2320364,-3.982075,3.5102868,0.4276019,0.05679143,-0.0072059305,0.9021525,-5.1913652,7.3718433,2.8780816,-1.0687951,0.9659878,0.09190964,0
1.500000000000001,6.926694296231459,-0.833614575556493,0.8167609545760481,0.8213408058761216,-0.4092836,-0.51206994,0.20521672,-0.13674988,3.1801548,-3.908378,3.538921,0.4274277,0.050237704,-0.009933215,0.9025978,-5.1850634,7.367596,2.8488297,-1.0321395,0.94269407,0.12770303,0
1.5100000000000011,6.926694296231459,-0.833614575556493,0.8167609545760481,0.8213408058761216,-0.4092836,-0.51206994,0.20521672,-0.13674988,3.1283317,-3.8347232,3.5672636,0.42706534,0.043848544,-0.012562397,0.90306944,-5.1797285,7.363398,2.8196628,-1.0011985,0.9230353,0.16174002,0
1.5200000000000011,5.62404778083465,-0.8028138468693001,1.176872016242191,0.9982086266016423,-0.34122762,-0.6171044,0.19593456,-0.07338499,3.076557,-3.76111,3.5953147,0.4265256,0.037597675,-0.015108366,0.9035673,-5.175336,7.3592525,2.7905653,-0.97508126,0.90644413,0.19410682,0
1.5300000000000011,5.62404778083465,-0.8028138468693001,1.176872016242191,0.9982086266016423,-0.34122762,-0.6171044,0.19593456,-0.07338499,3.0248184,-3.687534,3.6230104,0.4258001,0.031337567,-0.017511819,0.9041047,-5.1725197,7.3559327,2.7485366,-0.9482459,0.9485962,0.23356435,0
1.5400000000000011,5.62404778083465,-0.8028138468693001,1.176872016242191,0.9982086266016423,-0.34122762,-0.6171044,0.19593456,-0.07338499,2.9731042,-3.613991,3.6502855,0.42488047,0.024949906,-0.019726338,0.90469044,-5.170453,7.3526797,2.7065444,-0.9255952,0.98417646,0.27108565,0
1.5500000000000012,5.62404778083465,-0.8028138468693001,1.176872016242191,0.9982086266016423,-0.34122762,-0.6171044,0.19593456,-0.07338499,2.9214067,-3.5404801,3.677141,0.42377573,0.018453663,-0.021780692,0.9053171,-5.16914,7.349517,2.66458,-0.90647626,1.0142095,0.30676576,0
1.5600000000000012,4.47831234758431,-0.7593023941870225,1.7342536327208646,1.1245420379630233,-0.5388306,-0.47012782,0.29274234,-0.05698591,2.8697188,-3.4670005,3.7035768,0.4224942,0.011864945,-0.023699045,0.90597796,-5.168583,7.3464627,2.6226344,-0.8903382,1.0395601,0.34069505,0
1.5700000000000012,4.47831234758431,-0.7593023941870225,1.7342536327208646,1.1245420379630233,-0.5388306,-0.47012782,0.29274234,-0.05698591,2.8180327,-3.3935483,3.7295465,0.42103815,0.005029858,-0.025467256,0.9066713,-5.168753,7.344027,2.5712545,-0.8906938,1.1271317,0.37729746,0
1.5800000000000012,4.47831234758431,-0.7593023941870225,1.7342536327208646,1.1245420379630233,-0.5388306,-0.47012782,0.29274234,-0.05698591,2.7663417,-3.3201191,3.754999,0.4194061,-0.002186333,-0.027038628,0.9073933,-5.1695642,7.3417606,2.519081,-0.88271725,1.2093279,0.41284382,0
1.5900000000000012,4.47831234758431,-0.7593023941870225,1.7342536327208646,1.1245420379630233,-0.5388306,-0.47012782,0.29274234,-0.05698591,2.7146392,-3.246712,3.7799253,0.41760075,-0.009745152,-0.028388023,0.9081347,-5.1710167,7.3396873,2.4661083,-0.8677406,1.286954,0.44738296,0
1.6000000000000012,4.0786929461973145,-0.6960678309676313,2.1690214202017293,1.149469617391328,-0.30028546,-0.70864,0.16740145,-0.07372945,2.662919,-3.1733243,3.8043194,0.4156254,-0.017610665,-0.029503252,0.9088866,-5.173124,7.3378153,2.4127023,-0.85087925,1.3566966,0.48061135,0
1.6100000000000012,4.0786929461973145,-0.6960678309676313,2.1690214202017293,1.149469617391328,-0.30028546,-0.70864,0.16740145,-0.07372945,2.611175,-3.0999544,3.82817,0.41348895,-0.02585777,-0.030391978,0.9096343,-5.175795,7.3362236,2.3573406,-0.8482032,1.4619576,0.5115123,0
1.6200000000000012,4.0786929461973145,-0.6960678309676313,2.1690214202017293,1.149469617391328,-0.30028546,-0.70864,0.16740145,-0.07372945,2.5594013,-3.0265992,3.851463,0.41119778,-0.034553356,-0.03103491,0.9103621,-5.1790843,7.3348866,2.3011498,-0.83769757,1.5590539,0.5416342,0
1.6300000000000012,4.0786929461973145,-0.6960678309676313,2.1690214202017293,1.149469617391328,-0.30028546,-0.70864,0.16740145,-0.07372945,2.5075915,-2.953256,3.8741903,0.40875298,-0.04364776,-0.031414747,0.9110592,-5.1829915,7.3338256,2.2441297,-0.82069904,1.6491431,0.571005,0
1.6400000000000012,4.0786929461973145,-0.6960678309676313,2.1690214202017293,1.149469617391328,-0.25960717,-0.8287719,0.08771126,-0.03214085,2.4557393,-2.8799217,3.8963437,0.40615606,-0.053096354,-0.031523325,0.9117149,-5.187545,7.333054,2.186556,-0.80134934,1.7301857,0.5993881,0
1.6500000000000012,4.0786929461973145,-0.6960678309676313,2.1690214202017293,1.149469617391328,-0.25960717,-0.8287719,0.08771126,-0.03214085,2.4038382,-2.806594,3.917921,0.40340889,-0.062847756,-0.03138868,0.912319,-5.192806,7.3325863,2.1288989,-0.7849891,1.7986145,0.62638074,0
1.6600000000000013,4.0786929461973145,-0.6960678309676313,2.1690214202017293,1.149469617391328,-0.25960717,-0.8287719,0.08771126,-0.03214085,2.3518808,-2.7332692,3.9389212,0.40051344,-0.0728534,-0.03104679,0.9128621,-5.1987886,7.3324437,2.0711439,-0.77117646,1.856372,0.6520488,0
1.6700000000000013,4.0786929461973145,-0.6960678309676313,2.1690214202017293,1.149469617391328,-0.25960717,-0.8287719,0.08771126,-0.03214085,2.2998598,-2.659944,3.9593434,0.39747187,-0.08307186,-0.030527892,0.91333616,-5.2055044,7.3326426,2.0132728,-0.7595142,1.9051225,0.6764574,0
1.6800000000000013,4.274232983624122,-0.6336555967841621,2.4204738171892397,1.1131006233786613,-0.102141745,-0.8378704,0.096489415,-0.19941358,2.247768,-2.586615,3.9791865,0.3942866,-0.09346773,-0.029857412,0.9137342,-5.2129636,7.3331966,1.9552673,-0.7496672,1.9462703,0.6996682,0
1.6900000000000013,4.274232983624122,-0.6336555967841621,2.4204738171892397,1.1131006233786613,-0.102141745,-0.8378704,0.096489415,-0.19941358,2.195596,-2.5132787,3.9984581,0.39096934,-0.10409271,-0.02899477,0.9140387,-5.2215676,7.3341613,1.8990228,-0.73163563,2.0202208,0.71995544,0
1.7000000000000013,4.274232983624122,-0.6336555967841621,2.4204738171892397,1.1131006233786613,-0.102141745,-0.8378704,0.096489415,-0.19941358,2.143334,-2.4399304,4.017167,0.38753,-0.11498566,-0.027909279,0.9142317,-5.2309723,7.335529,1.8425943,-0.7164111,2.082638,0.7392472,0
1.7100000000000013,4.274232983624122,-0.6336555967841621,2.4204738171892397,1.1131006233786613,-0.102141745,-0.8378704,0.096489415,-0.19941358,2.0909736,-2.3665664,4.03531,0.38396844,-0.12610105,-0.026633896,0.91430694,-5.2411895,7.337317,1.7859579,-0.7035562,2.1353211,0.7575923,0
1.7200000000000013,4.935337970233644,-0.6060484656298563,2.4314822795578537,1.056063860677629,-0.06270864,-0.7230523,0.11108838,-0.10865309,2.0385072,-2.2931824,4.052885,0.380285,-0.13739993,-0.025196357,0.914259,-5.2522297,7.3395386,1.7290891,-0.692702,2.1797879,0.7750373,0
1.7300000000000013,4.935337970233644,-0.6060484656298563,2.4314822795578537,1.056063860677629,-0.06270864,-0.7230523,0.11108838,-0.10865309,1.9859172,-2.219772,4.069922,0.37648848,-0.14884858,-0.023609225,0.9140804,-5.265936,7.3426156,1.6783004,-0.67922807,2.2190402,0.78882736,0
1.7400000000000013,4.935337970233644,-0.6060484656298563,2.4314822795578537,1.056063860677629,-0.06270864,-0.7230523,0.11108838,-0.10865309,1.9331852,-2.1463284,4.08645,0.37258744,-0.16041815,-0.021883894,0.9137645,-5.2806053,7.346213,1.6271846,-0.66785204,2.2521706,0.8019407,0
1.7500000000000013,4.935337970233644,-0.6060484656298563,2.4314822795578537,1.056063860677629,-0.06270864,-0.7230523,0.11108838,-0.10865309,1.8803018,-2.0728462,4.1024647,0.3685823,-0.17208415,-0.020040328,0.91330844,-5.2962427,7.3503366,1.5757122,-0.658247,2.2801335,0.81441057,0
1.7600000000000013,6.329750287512597,-0.6371463070684454,2.4935300040532007,0.9774561003592147,0.029147753,-0.9396242,0.12307051,-0.13814439,1.827257,-1.9993197,4.117963,0.36447385,-0.1838255,-0.018095374,0.91270995,-5.312849,7.354989,1.5238533,-0.65013695,2.3037355,0.82626855,0
1.7700000000000014,6.329750287512597,-0.6371463070684454,2.4935300040532007,0.9774561003592147,0.029147753,-0.9396242,0.12307051,-0.13814439,1.7740169,-1.925737,4.133005,0.36026987,-0.19565086,-0.016067423,0.9119584,-5.335391,7.3616343,1.484525,-0.6481384,2.3333318,0.83368737,0
1.7800000000000014,6.329750287512597,-0.6371463070684454,2.4935300040532007,0.9774561003592147,0.029147753,-0.9396242,0.12307051,-0.13814439,1.720545,-1.8520846,4.147651,0.3559779,-0.20756555,-0.013972316,0.9110439,-5.35918,7.3689556,1.4446218,-0.6464488,2.3583124,0.8407422,0
1.7900000000000014,6.329750287512597,-0.6371463070684454,2.4935300040532007,0.9774561003592147,0.029147753,-0.9396242,0.12307051,-0.13814439,1.6668291,-1.7783557,4.1618958,0.3515983,-0.21954794,-0.011819733,0.90996575,-5.3842173,7.376949,1.4041033,-0.64502007,2.3793976,0.8474508,0
1.8000000000000014,8.068511095191063,-0.6525644105121892,2.3736826676761424,0.8614125304816226,-0.4025851,-1.0332026,0.16261001,0.48023513,1.6128565,-1.7045435,4.1757317,0.34713176,-0.23157935,-0.009617869,0.9087233,-5.4105024,7.3856077,1.3629287,-0.64381206,2.3971946,0.85383016,0
1.8100000000000014,8.068511095191063,-0.6525644105121892,2.3736826676761424,0.8614125304816226,-0.4025851,-1.0332026,0.16261001,0.48023513,1.5585772,-1.6306287,4.18923,0.3425906,-0.24360219,-0.0073991907,0.9073229,-5.4455934,7.39748,1.3365047,-0.6451755,2.3935273,0.8542022,0
1.8200000000000014,8.068511095191063,-0.6525644105121892,2.3736826676761424,0.8614125304816226,-0.4025851,-1.0332026,0.16261001,0.48023513,1.5039392,-1.5565912,4.202459,0.33798724,-0.25557002,-0.0051902714,0.90577126,-5.4822564,7.4101644,1.3091486,-0.64632666,2.3904314,0.854556,0
1.8300000000000014,8.068511095191063,-0.6525644105121892,2.3736826676761424,0.8614125304816226,-0.4025851,-1.0332026,0.16261001,0.48023513,1.4489267,-1.4824227,4.2154093,0.3333229,-0.26748288,-0.0029896323,0.90406847,-5.520476,7.423636,1.2808166,-0.64729863,2.387819,0.8548925,0
1.8400000000000014,8.068511095191063,-0.6525644105121892,2.3736826676761424,0.8614125304816226,-0.4367962,-1.008258,0.2193488,0.5492147,1.3935244,-1.4081157,4.2280717,0.3285988,-0.2793406,-0.0007960919,0.9022145,-5.560234,7.437869,1.251466,-0.64811915,2.3856142,0.8552124,0
1.8500000000000014,8.068511095191063,-0.6525644105121892,2.3736826676761424,0.8614125304816226,-0.4367962,-1.008258,0.2193488,0.5492147,1.3377168,-1.3336629,4.240435,0.323816,-0.29114258,0.0013912814,0.90020955,-5.601513,7.452837,1.2210548,-0.6488119,2.3837528,0.8555166,0
1.8600000000000014,8.068511095191063,-0.6525644105121892,2.3736826676761424,0.8614125304816226,-0.4367962,-1.008258,0.2193488,0.5492147,1.2814889,-1.2590567,4.252489,0.31897563,-0.30288818,0.0035732067,0.89805377,-5.6442943,7.4685144,1.1895415,-0.64939666,2.382182,0.855806,0
1.8700000000000014,8.068511095191063,-0.6525644105121892,2.3736826676761424,0.8614125304816226,-0.4367962,-1.008258,0.2193488,0.5492147,1.2248259,-1.1842903,4.264222,0.31407872,-0.31457645,0.0057502287,0.8957473,-5.688557,7.4848747,1.1568854,-0.64989007,2.3808563,0.8560811,0
1.8800000000000014,9.298258849016117,-0.5840470975664475,1.9807077498646495,0.6967151029003311,-0.5071961,-0.8671601,0.34423864,0.3469673,1.1677128,-1.1093569,4.275623,0.30912638,-0.32620624,0.0079227425,0.89329034,-5.7342815,7.5018916,1.1230464,-0.6503068,2.3797374,0.85634273,0
1.8900000000000015,9.298258849016117,-0.5840470975664475,1.9807077498646495,0.6967151029003311,-0.5071961,-0.8671601,0.34423864,0.3469673,1.1100997,-1.0342369,4.2867274,0.30414864,-0.33762825,0.010060526,0.8907298,-5.7886295,7.5222244,1.0975977,-0.6399272,2.317518,0.8485097,0
1.9000000000000015,9.298258849016117,-0.5840470975664475,1.9807077498646495,0.6967151029003311,-0.5071961,-0.8671601,0.34423864,0.3469673,1.051935,-0.9589101,4.29757,0.29917437,-0.34872627,0.012139216,0.8881089,-5.844577,7.543233,1.0707291,-0.6311726,2.2650006,0.84106106,0
1.9100000000000015,9.298258849016117,-0.5840470975664475,1.9807077498646495,0.6967151029003311,-0.5071961,-0.8671601,0.34423864,0.3469673,0.9932029,-0.8833701,4.3081374,0.29420266,-0.35954374,0.0141668,0.8854222,-5.9020653,7.564867,1.0424318,-0.6237888,2.2206721,0.8339779,0
1.9200000000000015,10.005961759714808,-0.46831262189829764,1.0790752206795118,0.4844468145307672,-0.42509794,-0.834944,0.33882594,0.3486406,0.93388855,-0.8076108,4.318414,0.2892323,-0.37011704,0.016149888,0.8826649,-5.9610424,7.5870814,1.0126957,-0.6175613,2.183256,0.8272424,0
1.9300000000000015,10.005961759714808,-0.46831262189829764,1.0790752206795118,0.4844468145307672,-0.42509794,-0.834944,0.33882594,0.3486406,0.87395424,-0.7316179,4.328412,0.28430948,-0.38014665,0.018021446,0.8799614,-6.026048,7.611562,0.9866133,-0.5941711,2.0110786,0.81042135,0
1.9400000000000015,10.005961759714808,-0.46831262189829764,1.0790752206795118,0.4844468145307672,-0.42509794,-0.834944,0.33882594,0.3486406,0.8133627,-0.65537775,4.3381414,0.27947786,-0.389402,0.019728916,0.8774219,-6.092482,7.6365356,0.95904315,-0.57444733,1.8657495,0.7944257,0
1.9500000000000015,10.005961759714808,-0.46831262189829764,1.0790752206795118,0.4844468145307672,-0.42509794,-0.834944,0.33882594,0.3486406,0.75210017,-0.5788858,4.347588,0.27473196,-0.39800364,0.021296484,0.87502116,-6.16023,7.661922,0.93006176,-0.55781496,1.7430823,0.779215,0
1.9600000000000015,10.064759887478736,-0.34892109792056414,-0.058269400189490804,0.25734770821464764,-0.18251355,-0.65856713,0.34345254,0.16288346,0.69015396,-0.50213814,4.356738,0.27006617,-0.4060526,0.022744259,0.87273616,-6.229196,7.687653,0.8997355,-0.54378897,1.6395428,0.7647506,0
1.9700000000000015,10.064759887478736,-0.34892109792056414,-0.058269400189490804,0.25734770821464764,-0.18251355,-0.65856713,0.34345254,0.16288346,0.6275103,-0.42513096,4.3655806,0.26553008,-0.41322568,0.023997197,0.87072533,-6.2996993,7.713815,0.86852735,-0.51324487,1.3747935,0.73985225,0
1.9800000000000015,10.064759887478736,-0.34892109792056414,-0.058269400189490804,0.25734770821464764,-0.18251355,-0.65856713,0.34345254,0.16288346,0.56415653,-0.34786117,4.374105,0.2611688,-0.41927582,0.024997104,0.8691225,-6.3711896,7.7401614,0.8361904,-0.48749298,1.151328,0.71617556,0
1.9900000000000015,10.064759887478736,-0.34892109792056414,-0.058269400189490804,0.25734770821464764,-0.18251355,-0.65856713,0.34345254,0.16288346,0.50008357,-0.27032742,4.3823004,0.25696948,-0.42438254,0.025781631,0.8678719,-6.4435244,7.7665977,0.80288714,-0.4657806,0.96270883,0.69366074,0
2.0000000000000013,,,,,-0.056786068,-0.447841,0.28379822,0.15854779,0.43528357,-0.19252916,4.390159,0.2529196,-0.42869607,0.026382104,0.86692303,-6.516586,7.793049,0.76875806,-0.44747323,0.8035022,0.67225075,0
2.010000000000001,,,,,-0.056786068,-0.447841,0.28379822,0.15854779,0.36980054,-0.11448483,4.3976293,0.24905436,-0.43187615,0.026692392,0.86645406,-6.5800953,7.8157997,0.7252097,-0.42543077,0.46091464,0.6403432,0
2.020000000000001,,,,,-0.056786068,-0.447841,0.28379822,0.15854779,0.30368033,-0.03621365,4.4046617,0.2454045,-0.43366075,0.02663007,0.86660606,-6.643995,7.838406,0.68126506,-0.40686142,0.1717506,0.6100014,0
2.0300000000000007,,,,,-0.056786068,-0.447841,0.28379822,0.15854779,0.23691978,0.04228247,4.4112535,0.24195169,-0.43426928,0.02625061,0.8672835,-6.7081447,7.860774,0.63712245,-0.39121658,-0.07232073,0.5811485,0
2.0400000000000005,,,,,-0.056786068,-0.447841,0.28379822,0.15854779,0.16951698,0.12100076,4.4174037,0.23867856,-0.43388495,0.025600338,0.8684016,-6.772428,7.8828278,0.5929507,-0.3780341,-0.27833092,0.5537114,0
2.0500000000000003,,,,,-0.21448995,-0.28511956,0.2977665,-0.010751827,0.1014711,0.19993772,4.423113,0.235569,-0.4326609,0.024718028,0.8698857,-6.8367443,7.904504,0.54889244,-0.36692542,-0.4522155,0.5276206,1
2.06,,,,,-0.21448995,-0.28511956,0.2977665,-0.010751827,0.0330514,0.27900007,4.428155,0.23263285,-0.43116143,0.023901943,0.8714418,-6.8471518,7.9079466,0.45957884,-0.30097762,-0.38844645,0.51428694,1
2.07,,,,,-0.21448995,-0.28511956,0.2977665,-0.010751827,-0.035471022,0.35809615,4.4323034,0.22987486,-0.4298431,0.02338972,0.8728377,-6.857291,7.9112453,0.37008238,-0.2453404,-0.3345962,0.5012836,1
2.0799999999999996,,,,,-0.21448995,-0.28511956,0.2977665,-0.010751827,-0.10409352,0.43722457,4.4355564,0.22727469,-0.4286791,0.023129934,0.87409717,-6.86717,7.9144154,0.28040224,-0.19840162,-0.2891221,0.48860225,1
2.0899999999999994,,,,,-0.12060368,0.22122225,0.2138557,0.12986727,-0.17281355,0.51638407,4.4379115,0.22481488,-0.4276465,0.023079336,0.8752397,-6.8767953,7.9174685,0.19053867,-0.1588013,-0.2507215,0.47623494,1
2.099999999999999,,,,,-0.12060368,0.22122225,0.2138557,0.12986727,-0.24161498,0.5955693,4.4393544,0.22250704,-0.42678055,0.023298196,0.87624574,-6.8834653,7.9195642,0.09816681,-0.0924954,-0.18531258,0.4676566,1
2.109999999999999,,,,,-0.12060368,0.22122225,0.2138557,0.12986727,-0.31048226,0.6747751,4.4398737,0.2203579,-0.4261088,0.02383287,0.87710094,-6.889965,7.9215937,0.005664708,-0.03662411,-0.1300101,0.4592907,1
2.1199999999999988,,,,,-0.12060368,0.22122225,0.2138557,0.12986727,-0.37941372,0.75400096,4.4394674,0.21834706,-0.4256023,0.024631128,0.8778274,-6.896299,7.9235654,-0.08696765,0.010444002,-0.08324193,0.45113203,1
2.1299999999999986,,,,,-0.21554662,0.35438925,0.032359056,-0.05177529,-0.4484077,0.8332463,4.438134,0.21645719,-0.4252363,0.02564899,0.8784434,-6.9024715,7.9254856,-0.17972967,0.050085343,-0.04368075,0.4431754,1
2.1399999999999983,,,,,-0.21554662,0.35438925,0.032359056,-0.05177529,-0.51748013,0.91251606,4.4358873,0.21467958,-0.42498368,0.02683407,0.87896633,-6.911976,7.928447,-0.2696002,0.07969757,-0.013979401,0.43091717,1
2.149999999999998,,,,,-0.21554662,0.35438925,0.032359056,-0.05177529,-0.5866464,0.99181503,4.432741,0.21300831,-0.42482167,0.028142236,0.8794102,-6.921239,7.9313426,-0.35967156,0.10462167,0.011160208,0.41896254,1
2.159999999999998,,,,,-0.21554662,0.35438925,0.032359056,-0.05177529,-0.6559042,1.0711427,4.4286933,0.21143332,-0.4247368,0.029550534,0.879785,-6.930269,7.934179,-0.44994083,0.12559214,0.03244594,0.40730396,1
2.1699999999999977,,,,,-0.5702499,0.2921993,0.19269764,-0.09994166,-0.725251,1.1504984,4.423742,0.209946,-0.4247176,0.031039702,0.8800991,-6.9390707,7.936959,-0.54040486,0.14322872,0.05047578,0.39593413,1
2.1799999999999975,,,,,-0.5702499,0.2921993,0.19269764,-0.09994166,-0.7946894,1.2298832,4.4178886,0.20854934,-0.42476764,0.032613713,0.88035005,-6.948574,7.939981,-0.63025934,0.16569905,0.07341576,0.38365296,1
