time-since-start [s],throttle_mpc,roll_mpc,pitch_mpc,yaw_mpc,throttle_nw,roll_nw,pitch_nw,yaw_nw,position_x [m],position_y [m],position_z [m],rotation_w [quaternion],rotation_x [quaternion],rotation_y [quaternion],rotation_z [quaternion],velocity_x [m/s],velocity_y [m/s],velocity_z [m/s],omega_x [rad/s],omega_y [rad/s],omega_z [rad/s],network_used
0.0,10.980869944927417,5.9999997978308794,-5.99999992705688,-3.55722879946895,17.33473,5.3327346,-0.4548149,0.61860514,16.427908,-10.433682,2.219563,0.12565067,-0.4000597,0.33828384,0.84245366,-12.4194355,-2.4938538,0.37275848,2.1962318,-0.07443921,-0.97920495,0
0.01,10.980869944927417,5.9999997978308794,-5.99999992705688,-3.55722879946895,18.380323,4.799798,-2.9152102,-0.45331517,16.30327,-10.45811,2.2231405,0.13505799,-0.39896098,0.34559268,0.83854353,-12.507739,-2.3916075,0.3423069,2.3593864,-0.56907237,-1.0672691,0
0.02,10.980869944927417,5.9999997978308794,-5.99999992705688,-3.55722879946895,18.380323,4.799798,-2.9152102,-0.45331517,16.177769,-10.481515,2.2264,0.14596494,-0.39584035,0.35305494,0.83507895,-12.591759,-2.289224,0.30920485,2.5340924,-1.0236148,-1.154322,0
0.03,10.980869944927417,5.9999997978308794,-5.99999992705688,-3.55722879946895,18.380323,4.799798,-2.9152102,-0.45331517,16.051449,-10.503894,2.2293172,0.15832588,-0.39083076,0.36069754,0.8319143,-12.67104,-2.1866047,0.27393556,2.7173307,-1.4430959,-1.2403044,0
0.04,10.980869944927417,5.9999997978308794,-5.99999992705688,-3.55722879946895,17.088766,5.1481156,-3.033103,-0.9003528,15.924363,-10.525246,2.2318728,0.17209058,-0.38404006,0.36852965,0.8289052,-12.745171,-2.0836926,0.23690458,2.906624,-1.8318338,-1.3251656,0
0.05,10.980869944927417,5.9999997978308794,-5.99999992705688,-3.55722879946895,17.088766,5.1481156,-3.033103,-0.9003528,15.796563,-10.545567,2.2340505,0.18720417,-0.3755554,0.37654567,0.8259092,-12.813779,-1.9804747,0.19844948,3.0999491,-2.193539,-1.4088643,0
0.060000000000000005,10.980869944927417,5.9999997978308794,-5.99999992705688,-3.55722879946895,17.088766,5.1481156,-3.033103,-0.9003528,15.668107,-10.564854,2.235838,0.20360711,-0.3654473,0.38472763,0.82278615,-12.876523,-1.8769883,0.15884836,3.295657,-2.5314028,-1.4913658,0
0.07,10.980869944927417,5.9999997978308794,-5.99999992705688,-3.55722879946895,17.088766,5.1481156,-3.033103,-0.9003528,15.539054,-10.583106,2.2372243,0.22123508,-0.353773,0.393047,0.8193984,-12.933093,-1.7733212,0.11832708,3.4924104,-2.8481755,-1.5726424,0
0.08,14.118343001080332,5.999999895267246,-5.999999959315176,-3.10743688087266,17.691736,4.578835,-2.788514,-0.58528715,15.409468,-10.600322,2.2382016,0.2400188,-0.3405792,0.40146622,0.8156112,-12.983205,-1.6696131,0.077065304,3.6891315,-3.1462271,-1.6526723,0
0.09,14.118343001080332,5.999999895267246,-5.999999959315176,-3.10743688087266,17.691736,4.578835,-2.788514,-0.58528715,15.279383,-10.616429,2.2388022,0.26013997,-0.32549584,0.41015598,0.8112655,-13.032532,-1.55184,0.04292255,4.032333,-3.575271,-1.7225453,0
0.09999999999999999,14.118343001080332,5.999999895267246,-5.999999959315176,-3.10743688087266,17.691736,4.578835,-2.788514,-0.58528715,15.148844,-10.631355,2.2390606,0.2817,-0.3082196,0.41920564,0.8061715,-13.074172,-1.4331707,0.00894482,4.3385906,-3.9539409,-1.7905023,0
0.10999999999999999,14.118343001080332,5.999999895267246,-5.999999959315176,-3.10743688087266,17.691736,4.578835,-2.788514,-0.58528715,15.017926,-10.645086,2.2389843,0.30442604,-0.28899258,0.42840487,0.8001733,-13.107911,-1.3125575,-0.024030613,4.5971355,-4.273517,-1.8551247,0
0.11999999999999998,14.118343001080332,5.999999895267246,-5.999999959315176,-3.10743688087266,17.691736,4.578835,-2.788514,-0.58528715,14.886715,-10.657602,2.2385838,0.32805157,-0.26805425,0.43755972,0.79313964,-13.133062,-1.1904316,-0.055956118,4.8154044,-4.5432177,-1.9165759,0
0.12999999999999998,19.32329806180543,5.9999999340894465,-5.999999971041833,-2.4201366200660446,18.125555,4.396875,-2.0899186,-0.64884293,14.755298,-10.668891,2.237869,0.35233712,-0.24561675,0.4465053,0.7849611,-13.149043,-1.0673392,-0.08683583,4.999676,-4.7708225,-1.9750118,0
0.13999999999999999,19.32329806180543,5.9999999340894465,-5.999999971041833,-2.4201366200660446,18.125555,4.396875,-2.0899186,-0.64884293,14.623753,-10.67872,2.236976,0.37700078,-0.22183207,0.45512274,0.7755799,-13.157717,-0.89842415,-0.09157046,5.155359,-4.9627852,-1.9968542,0
0.15,19.32329806180543,5.9999999340894465,-5.999999971041833,-2.4201366200660446,18.125555,4.396875,-2.0899186,-0.64884293,14.49219,-10.686862,2.236042,0.40178776,-0.196836,0.46331227,0.7649601,-13.1526985,-0.7300541,-0.09506587,5.2868004,-5.1247807,-2.0176249,0
0.16,20.999998244072213,4.5317809531426185,-5.5240232061258405,-0.868521745627646,18.751097,3.6428726,-1.9008484,-0.13312393,14.360747,-10.693327,2.235078,0.42653126,-0.170788,0.470971,0.75305307,-13.133643,-0.5632995,-0.09749623,5.3977766,-5.261486,-2.0373762,0
0.17,20.999998244072213,4.5317809531426185,-5.5240232061258405,-0.868521745627646,18.751097,3.6428726,-1.9008484,-0.13312393,14.22958,-10.698066,2.2341363,0.45075798,-0.14414468,0.477695,0.7401669,-13.0975275,-0.38505912,-0.090684004,5.26287,-5.302052,-1.98002,0
0.18000000000000002,20.999998244072213,4.5317809531426185,-5.5240232061258405,-0.868521745627646,18.751097,3.6428726,-1.9008484,-0.13312393,14.098849,-10.701043,2.233267,0.47410378,-0.117293395,0.4832025,0.72662455,-13.046313,-0.21104111,-0.08306865,5.1490026,-5.3363376,-1.9254785,0
0.19000000000000003,20.999998244072213,4.5317809531426185,-5.5240232061258405,-0.868521745627646,18.751097,3.6428726,-1.9008484,-0.13312393,13.968704,-10.702306,2.2324777,0.49657503,-0.09027462,0.4875767,0.71241325,-12.980502,-0.0424233,-0.07478274,5.0528917,-5.3653154,-1.8736132,0
0.20000000000000004,20.232548239158056,3.126670852549298,-3.881354125930004,-0.5186790662097766,16.932898,2.1278825,-1.2070392,-0.4300144,13.839288,-10.701914,2.2317734,0.5181729,-0.06312611,0.49088767,0.697525,-12.900652,0.119686455,-0.06599153,4.971768,-5.3898067,-1.8242933,0
0.21000000000000005,20.232548239158056,3.126670852549298,-3.881354125930004,-0.5186790662097766,16.932898,2.1278825,-1.2070392,-0.4300144,13.71072,-10.699967,2.2311392,0.5385222,-0.036614038,0.4931639,0.6822336,-12.810854,0.26864317,-0.060808938,4.684522,-5.1540265,-1.7602264,0
0.22000000000000006,20.232548239158056,3.126670852549298,-3.881354125930004,-0.5186790662097766,16.932898,2.1278825,-1.2070392,-0.4300144,13.583111,-10.696569,2.2305574,0.55737865,-0.011350896,0.49449554,0.66683906,-12.709244,0.4097511,-0.055542152,4.4420013,-4.955099,-1.6993034,0
0.23000000000000007,20.232548239158056,3.126670852549298,-3.881354125930004,-0.5186790662097766,16.932898,2.1278825,-1.2070392,-0.4300144,13.456573,-10.691801,2.230028,0.57491326,0.012841424,0.49501154,0.6513627,-12.596921,0.5425804,-0.050386205,4.2372437,-4.7872624,-1.6413698,0
0.24000000000000007,20.232548239158056,3.126670852549298,-3.881354125930004,-0.5186790662097766,15.569923,0.43091387,0.10561543,0.053552896,13.331206,-10.685748,2.2295487,0.5912665,0.03611586,0.49481356,0.63581365,-12.47488,0.66678035,-0.045512903,4.0643682,-4.645655,-1.586279,0
0.25000000000000006,20.232548239158056,3.126670852549298,-3.881354125930004,-0.5186790662097766,15.569923,0.43091387,0.10561543,0.053552896,13.207106,-10.678497,2.2291162,0.60655403,0.058602653,0.4939817,0.6201934,-12.344034,0.78206027,-0.041077476,3.9184132,-4.526178,-1.5338916,0
0.26000000000000006,20.232548239158056,3.126670852549298,-3.881354125930004,-0.5186790662097766,15.569923,0.43091387,0.10561543,0.053552896,13.0843525,-10.670138,2.2287252,0.62087107,0.08041192,0.4925791,0.6044987,-12.20522,0.8881759,-0.037223373,3.795186,-4.425371,-1.4840748,0
0.2700000000000001,20.232548239158056,3.126670852549298,-3.881354125930004,-0.5186790662097766,15.569923,0.43091387,0.10561543,0.053552896,12.963025,-10.660766,2.2283692,0.63429606,0.10163607,0.49065575,0.5887235,-12.059218,0.9849197,-0.03408585,3.6911478,-4.340317,-1.4367026,0
0.2800000000000001,18.546971475679307,1.4101529360280647,-1.8740808166289902,0.2785908314896976,14.661331,-0.16776145,0.93512976,1.1781223,12.843191,-10.650473,2.2280407,0.64689374,0.12235209,0.48825112,0.57286054,-11.906758,1.0721145,-0.031794436,3.6033103,-4.2685537,-1.391655,0
0.2900000000000001,18.546971475679307,1.4101529360280647,-1.8740808166289902,0.2785908314896976,14.661331,-0.16776145,0.93512976,1.1781223,12.724844,-10.639389,2.2276886,0.65837085,0.1417714,0.4855273,0.5574153,-11.761755,1.1432284,-0.038748432,3.2618368,-3.8946526,-1.3096955,0
0.3000000000000001,18.546971475679307,1.4101529360280647,-1.8740808166289902,0.2785908314896976,14.661331,-0.16776145,0.93512976,1.1781223,12.60797,-10.627637,2.2272625,0.66855717,0.15929428,0.48266652,0.54285324,-11.612351,1.2059262,-0.046626844,2.973519,-3.5791476,-1.2317579,0
0.3100000000000001,18.546971475679307,1.4101529360280647,-1.8740808166289902,0.2785908314896976,14.661331,-0.16776145,0.93512976,1.1781223,12.49261,-10.615298,2.226753,0.6776586,0.17523365,0.47971362,0.52909994,-11.459327,1.2607331,-0.05543352,2.7300873,-3.3129156,-1.1576445,0
0.3200000000000001,17.16990040662015,-0.26271517845816267,0.21488117223107217,1.3168910943895653,14.206051,-0.7096527,1.6466308,1.5086277,12.378796,-10.6024475,2.2261508,0.68584114,0.18985282,0.47669595,0.5160802,-11.30332,1.3081231,-0.065158986,2.524556,-3.0882587,-1.087168,0
0.3300000000000001,17.16990040662015,-0.26271517845816267,0.21488117223107217,1.3168910943895653,14.206051,-0.7096527,1.6466308,1.5086277,12.266495,-10.589174,2.2254143,0.69291455,0.20254791,0.4738438,0.50429726,-11.156643,1.345596,-0.082271814,2.0904474,-2.5726657,-0.9692001,0
0.34000000000000014,17.16990040662015,-0.26271517845816267,0.21488117223107217,1.3168910943895653,14.206051,-0.7096527,1.6466308,1.5086277,12.155669,-10.575556,2.2245028,0.6987686,0.21287462,0.47136688,0.49418628,-11.008258,1.3775326,-0.100123,1.7239057,-2.1375904,-0.857021,0
0.35000000000000014,17.16990040662015,-0.26271517845816267,0.21488117223107217,1.3168910943895653,14.206051,-0.7096527,1.6466308,1.5086277,12.046333,-10.561641,2.2234097,0.7036209,0.22124723,0.4692388,0.48557407,-10.858612,1.4048371,-0.11860231,1.4144225,-1.7704515,-0.7503465,0
0.36000000000000015,17.72158126059869,-3.24141556732989,3.3489765329778556,2.349719932407969,15.3977165,-1.9270629,2.501253,1.7685486,11.938499,-10.547472,2.2221289,0.70764124,0.22801015,0.4674241,0.47829896,-10.708038,1.4282889,-0.1376038,1.1531231,-1.4606352,-0.6489065,0
0.37000000000000016,17.72158126059869,-3.24141556732989,3.3489765329778556,2.349719932407969,15.3977165,-1.9270629,2.501253,1.7685486,11.832199,-10.533082,2.2206686,0.7105961,0.23206902,0.46618003,0.47315246,-10.551951,1.4493366,-0.15447319,0.4681867,-0.7102411,-0.5017631,0
0.38000000000000017,17.72158126059869,-3.24141556732989,3.3489765329778556,2.349719932407969,15.3977165,-1.9270629,2.501253,1.7685486,11.727461,-10.518491,2.2190387,0.7123118,0.23258308,0.4657162,0.47077104,-10.395575,1.4686749,-0.1714693,-0.11010648,-0.077026516,-0.36183998,0
0.3900000000000002,17.72158126059869,-3.24141556732989,3.3489765329778556,2.349719932407969,15.3977165,-1.9270629,2.501253,1.7685486,11.624287,-10.503709,2.2172396,0.7129632,0.23014702,0.465912,0.4707884,-10.239262,1.4877913,-0.18829282,-0.5983435,0.45732233,-0.22878294,0
0.4000000000000002,20.704288765757205,-5.564839958528017,5.656858026909241,3.049429690492034,15.797577,-4.71215,3.7895365,2.5335832,11.522675,-10.48873,2.2152743,0.71266854,0.22525084,0.46664494,0.47287214,-10.083298,1.5079441,-0.20469745,-1.0105345,0.90825415,-0.10225506,0
0.4100000000000002,20.704288765757205,-5.564839958528017,5.656858026909241,3.049429690492034,15.797577,-4.71215,3.7895365,2.5335832,11.42275,-10.473523,2.2132173,0.71123683,0.21723829,0.46799216,0.47742325,-9.901826,1.5340527,-0.2066097,-1.7208883,1.648674,0.05239902,0
0.4200000000000002,20.704288765757205,-5.564839958528017,5.656858026909241,3.049429690492034,15.797577,-4.71215,3.7895365,2.5335832,11.3246355,-10.458034,2.211146,0.7084585,0.20559753,0.4699698,0.48471072,-9.721616,1.5645149,-0.20744455,-2.3205862,2.2735085,0.19946416,0
0.4300000000000002,20.704288765757205,-5.564839958528017,5.656858026909241,3.049429690492034,15.797577,-4.71215,3.7895365,2.5335832,11.2283125,-10.442212,2.2090733,0.7043614,0.19089232,0.47237423,0.49426484,-9.543284,1.6010429,-0.20692323,-2.826847,2.8008194,0.3393128,0
0.4400000000000002,20.704288765757205,-5.564839958528017,5.656858026909241,3.049429690492034,15.6273575,-5.539948,4.7328506,2.8771918,11.13376,-10.425988,2.207013,0.6989459,0.17359473,0.47501776,0.5056654,-9.36751,1.6450422,-0.20488115,-3.2542129,3.2458422,0.47229904,0
0.45000000000000023,20.704288765757205,-5.564839958528017,5.656858026909241,3.049429690492034,15.6273575,-5.539948,4.7328506,2.8771918,11.040951,-10.409282,2.204981,0.69219977,0.15410434,0.47773257,0.518539,-9.195044,1.6976421,-0.20125821,-3.6149662,3.6214316,0.59875965,0
0.46000000000000024,20.704288765757205,-5.564839958528017,5.656858026909241,3.049429690492034,15.6273575,-5.539948,4.7328506,2.8771918,10.949845,-10.392004,2.2029932,0.6841067,0.13276277,0.4803717,0.53255504,-9.026702,1.7597203,-0.1960875,-3.9194787,3.9384308,0.71901476,0
0.47000000000000025,20.704288765757205,-5.564839958528017,5.656858026909241,3.049429690492034,15.6273575,-5.539948,4.7328506,2.8771918,10.860398,-10.374055,2.2010643,0.67465174,0.10986489,0.48280865,0.5474215,-8.863363,1.8319229,-0.18948318,-4.17651,4.205988,0.8333689,0
0.48000000000000026,20.999997273447768,-5.9999939344781215,5.8060785491588405,3.3620572783975917,16.55738,-5.0844994,4.225545,2.3140087,10.772557,-10.3553295,2.199208,0.66382474,0.08566734,0.48493603,0.5628807,-8.705949,1.9146813,-0.18162909,-4.3934546,4.4318223,0.9421116,0
0.49000000000000027,20.999997273447768,-5.9999939344781215,5.8060785491588405,3.3620572783975917,16.55738,-5.0844994,4.225545,2.3140087,10.686267,-10.335716,2.197443,0.6515819,0.060264915,0.4865995,0.57881767,-8.553273,2.009573,-0.17123201,-4.6444836,4.6456246,1.0608591,0
0.5000000000000002,20.999997273447768,-5.9999939344781215,5.8060785491588405,3.3620572783975917,16.55738,-5.0844994,4.225545,2.3140087,10.601465,-10.3151,2.1957862,0.63787556,0.03375667,0.48766312,0.5951132,-8.408647,2.115524,-0.16005234,-4.856354,4.8260937,1.1737795,0
0.5100000000000002,20.999997273447768,-5.9999939344781215,5.8060785491588405,3.3620572783975917,16.55738,-5.0844994,4.225545,2.3140087,10.518064,-10.293367,2.194244,0.62270194,0.006361168,0.48807058,0.61154616,-8.273154,2.232462,-0.1483765,-5.0351686,4.9784336,1.2811589,0
0.5200000000000002,20.999993984579575,-5.999991291996203,4.347834751057256,2.961209936670233,16.62332,-4.6283684,3.4969292,2.0145025,10.435967,-10.270412,2.1928196,0.6060669,-0.021727223,0.48777738,0.62792027,-8.1478615,2.3601227,-0.1365368,-5.1860795,5.107034,1.3832692,0
0.5300000000000002,20.999993984579575,-5.999991291996203,4.347834751057256,2.961209936670233,16.62332,-4.6283684,3.4969292,2.0145025,10.355068,-10.246129,2.191513,0.5883074,-0.049989466,0.48640296,0.6440555,-8.03378,2.4980257,-0.12486599,-5.313154,4.988255,1.4606992,0
0.5400000000000003,20.999993984579575,-5.999991291996203,4.347834751057256,2.961209936670233,16.62332,-4.6283684,3.4969292,2.0145025,10.27525,-10.220419,2.1903214,0.5697292,-0.07799157,0.4836778,0.65983456,-7.931763,2.6453211,-0.11352083,-5.420406,4.88802,1.5343297,0
0.5500000000000003,20.999993984579575,-5.999991291996203,4.347834751057256,2.961209936670233,16.62332,-4.6283684,3.4969292,2.0145025,10.196389,-10.193193,2.1892412,0.55030686,-0.105688885,0.4797199,0.6751747,-7.8425465,2.8010163,-0.102620766,-5.5109277,4.803437,1.604347,0
0.5600000000000003,20.130342966316157,-5.270517012611896,2.2205682826364224,2.2918285559272396,16.301332,-5.115356,1.7343652,1.7684854,10.118354,-10.164373,2.188267,0.5300265,-0.13304128,0.47463116,0.68999785,-7.766774,2.9640765,-0.09231694,-5.587328,4.7320642,1.6709286,0
0.5700000000000003,20.130342966316157,-5.270517012611896,2.2205682826364224,2.2918285559272396,16.301332,-5.115356,1.7343652,1.7684854,10.040993,-10.1339245,2.1873698,0.5093955,-0.15930979,0.4682557,0.7041827,-7.707502,3.1263728,-0.08720235,-5.5375824,4.3403416,1.7013963,0
0.5800000000000003,20.130342966316157,-5.270517012611896,2.2205682826364224,2.2918285559272396,16.301332,-5.115356,1.7343652,1.7684854,9.964157,-10.101829,2.1865208,0.48887137,-0.18391564,0.46053156,0.71769804,-7.661656,3.2933404,-0.08269713,-5.4956436,4.0097065,1.730369,0
0.5900000000000003,20.130342966316157,-5.270517012611896,2.2205682826364224,2.2918285559272396,16.301332,-5.115356,1.7343652,1.7684854,9.887714,-10.068045,2.1857142,0.46837863,-0.20704481,0.45165935,0.7305872,-7.6291285,3.4636848,-0.07865279,-5.460288,3.7306333,1.7579199,0
0.6000000000000003,18.193594704547763,-3.9528586185161347,-0.03224669931493408,1.7381047359372919,13.773756,-4.1577277,-0.2877478,0.55038923,9.81153,-10.032547,2.1849463,0.44785234,-0.22885749,0.4418024,0.7428749,-7.6097693,3.6362278,-0.07495097,-5.430484,3.4950807,1.784119,0
0.6100000000000003,18.193594704547763,-3.9528586185161347,-0.03224669931493408,1.7381047359372919,13.773756,-4.1577277,-0.2877478,0.55038923,9.73547,-9.9954,2.1841652,0.4278174,-0.2486201,0.43108404,0.7545375,-7.603934,3.7931566,-0.08123714,-5.199406,2.9452717,1.7818611,0
0.6200000000000003,18.193594704547763,-3.9528586185161347,-0.03224669931493408,1.7381047359372919,13.773756,-4.1577277,-0.2877478,0.55038923,9.659412,-9.956684,2.1833217,0.40872735,-0.26578292,0.41966015,0.76562834,-7.609076,3.9500518,-0.08741692,-5.004466,2.481162,1.779714,0
0.6300000000000003,18.193594704547763,-3.9528586185161347,-0.03224669931493408,1.7381047359372919,13.773756,-4.1577277,-0.2877478,0.55038923,9.583252,-9.916402,2.1824183,0.39042702,-0.2807208,0.40768397,0.77624506,-7.6244154,4.106021,-0.0931528,-4.840011,2.089394,1.7776722,0
0.6400000000000003,18.193594704547763,-3.9528586185161347,-0.03224669931493408,1.7381047359372919,12.916986,-2.826097,-1.4915248,-0.111171275,9.50689,-9.874569,2.181461,0.3727785,-0.29375133,0.3952709,0.78645235,-7.6492405,4.2603235,-0.098149955,-4.7012753,1.7586914,1.7757306,0
0.6500000000000004,18.193594704547763,-3.9528586185161347,-0.03224669931493408,1.7381047359372919,12.916986,-2.826097,-1.4915248,-0.111171275,9.430236,-9.831204,2.1804588,0.35566145,-0.30514315,0.38250795,0.79629153,-7.682907,4.4123344,-0.10215604,-4.5842357,1.4795363,1.7738844,0
0.6600000000000004,18.193594704547763,-3.9528586185161347,-0.03224669931493408,1.7381047359372919,12.916986,-2.826097,-1.4915248,-0.111171275,9.353204,-9.786333,2.1794221,0.33897245,-0.31512344,0.3694609,0.8057875,-7.724828,4.561519,-0.104959235,-4.4854994,1.2438936,1.7721286,0
0.6700000000000004,18.193594704547763,-3.9528586185161347,-0.03224669931493408,1.7381047359372919,12.916986,-2.826097,-1.4915248,-0.111171275,9.275713,-9.739985,2.1783643,0.3226235,-0.32388407,0.35617948,0.8149536,-7.7744684,4.7074137,-0.10638522,-4.4022036,1.0449811,1.770459,0
0.6800000000000004,17.085367447808643,-2.434850634208196,-2.2183239903371144,0.9559309782697331,12.784816,-2.5556812,-2.3116012,-0.35797894,9.19769,-9.692198,2.1772997,0.30654067,-0.33158717,0.3427014,0.8237952,-7.8313365,4.8496103,-0.106293865,-4.331934,0.8770734,1.7688714,0
0.6900000000000004,17.085367447808643,-2.434850634208196,-2.2183239903371144,0.9559309782697331,12.784816,-2.5556812,-2.3116012,-0.35797894,9.119083,-9.643049,2.1762137,0.29124448,-0.3375004,0.32926637,0.8323784,-7.891029,4.979343,-0.11062192,-4.035518,0.39479455,1.7289803,0
0.7000000000000004,17.085367447808643,-2.434850634208196,-2.2183239903371144,0.9559309782697331,12.784816,-2.5556812,-2.3116012,-0.35797894,9.039851,-9.592624,2.1750937,0.27715886,-0.34106934,0.316092,0.84079754,-7.9561357,5.105048,-0.1130831,-3.7854364,-0.012344748,1.6910466,0
0.7100000000000004,17.085367447808643,-2.434850634208196,-2.2183239903371144,0.9559309782697331,12.784816,-2.5556812,-2.3116012,-0.35797894,8.959945,-9.540962,2.17396,0.26409385,-0.34265622,0.30316493,0.8490773,-8.025752,5.226584,-0.113354586,-3.5744429,-0.35604948,1.6549743,0
0.7200000000000004,16.534349989829845,-0.9523106120524211,-3.9997072317095106,0.2820845040865533,12.742104,-2.0369287,-3.0965307,-0.67147624,8.879323,-9.488106,2.1728354,0.25188679,-0.34256342,0.2904641,0.8572246,-8.099095,5.343853,-0.11116988,-3.3964255,-0.64620227,1.6206721,0
0.7300000000000004,16.534349989829845,-0.9523106120524211,-3.9997072317095106,0.2820845040865533,12.742104,-2.0369287,-3.0965307,-0.67147624,8.797965,-9.434117,2.171729,0.24087963,-0.3403095,0.2782716,0.86529267,-8.172956,5.4531627,-0.10961034,-3.0147645,-1.168647,1.5549872,0
0.7400000000000004,16.534349989829845,-0.9523106120524211,-3.9997072317095106,0.2820845040865533,12.742104,-2.0369287,-3.0965307,-0.67147624,8.715857,-9.379056,2.170653,0.23133841,-0.3355321,0.26681843,0.8733319,-8.24872,5.558382,-0.1051189,-2.692744,-1.6097131,1.4925253,0
0.7500000000000004,16.534349989829845,-0.9523106120524211,-3.9997072317095106,0.2820845040865533,12.742104,-2.0369287,-3.0965307,-0.67147624,8.632986,-9.322962,2.169638,0.22303206,-0.32861972,0.25600523,0.8813212,-8.325424,5.6596437,-0.09739387,-2.4210386,-1.9820733,1.4331286,0
0.7600000000000005,16.86217295789393,0.15304180786702487,-5.134042738230889,-0.40121200517140754,10.360713,-0.1772674,-3.5873442,-1.3869506,8.549347,-9.265876,2.1687174,0.21576455,-0.31989568,0.2457393,0.889227,-8.402238,5.757072,-0.08620608,-2.191782,-2.2964272,1.3766465,0
0.7700000000000005,16.86217295789393,0.15304180786702487,-5.134042738230889,-0.40121200517140754,10.360713,-0.1772674,-3.5873442,-1.3869506,8.464934,-9.207824,2.167938,0.20969592,-0.30915156,0.23620752,0.8970278,-8.479906,5.852654,-0.06914133,-1.825866,-2.738519,1.2894064,0
0.7800000000000005,16.86217295789393,0.15304180786702487,-5.134042738230889,-0.40121200517140754,10.360713,-0.1772674,-3.5873442,-1.3869506,8.379753,-9.148834,2.1673484,0.20494476,-0.29623404,0.22755249,0.9046893,-8.555981,5.944675,-0.048180502,-1.5171102,-3.1117578,1.2064474,0
0.7900000000000005,16.86217295789393,0.15304180786702487,-5.134042738230889,-0.40121200517140754,10.360713,-0.1772674,-3.5873442,-1.3869506,8.293824,-9.088942,2.1669884,0.20130278,-0.28146482,0.21963322,0.912149,-8.629576,6.0333514,-0.02319238,-1.2565789,-3.426862,1.1275592,0
0.8000000000000005,17.99671963262835,0.8448779509704554,-5.5114655987118075,-0.9347835023331249,11.5492,2.3219047,-5.049874,-2.5242546,8.207174,-9.028178,2.1668987,0.1985946,-0.26511422,0.21232621,0.9193432,-8.699915,6.118856,0.005875456,-1.0367339,-3.6928833,1.0525419,0
0.8100000000000005,17.99671963262835,0.8448779509704554,-5.5114655987118075,-0.9347835023331249,11.5492,2.3219047,-5.049874,-2.5242546,8.119818,-8.966547,2.1671638,0.19683683,-0.24723077,0.20573236,0.9261782,-8.770762,6.206882,0.04783401,-0.74335515,-3.976241,0.9550233,0
0.8200000000000005,17.99671963262835,0.8448779509704554,-5.5114655987118075,-0.9347835023331249,11.5492,2.3219047,-5.049874,-2.5242546,8.031777,-8.904052,2.1678698,0.19603707,-0.2278658,0.1999248,0.9325645,-8.83661,6.291876,0.09403902,-0.4957764,-4.215473,0.86228997,0
0.8300000000000005,17.99671963262835,0.8448779509704554,-5.5114655987118075,-0.9347835023331249,11.5492,2.3219047,-5.049874,-2.5242546,7.9431057,-8.84072,2.1690586,0.19604729,-0.2072352,0.19476628,0.9384481,-8.89674,6.374012,0.14433488,-0.28684187,-4.4174485,0.77410704,0
0.8400000000000005,17.99671963262835,0.8448779509704554,-5.5114655987118075,-0.9347835023331249,12.441256,2.1592479,-4.838251,-2.2558944,7.853864,-8.776581,2.17077,0.19674283,-0.18552375,0.1901398,0.9437795,-8.950526,6.453412,0.19850364,-0.11051495,-4.587964,0.6902513,0
0.8500000000000005,17.99671963262835,0.8448779509704554,-5.5114655987118075,-0.9347835023331249,12.441256,2.1592479,-4.838251,-2.2558944,7.764119,-8.71166,2.173041,0.19801852,-0.16289067,0.185946,0.94851416,-8.99742,6.5301495,0.2562723,0.03829726,-4.7319183,0.6105103,0
0.8600000000000005,17.99671963262835,0.8448779509704554,-5.5114655987118075,-0.9347835023331249,12.441256,2.1592479,-4.838251,-2.2558944,7.6739416,-8.645986,2.175907,0.19978544,-0.13947387,0.18210104,0.9526131,-9.036948,6.6042576,0.31731957,0.16389167,-4.853446,0.5346823,0
0.8700000000000006,17.99671963262835,0.8448779509704554,-5.5114655987118075,-0.9347835023331249,12.441256,2.1592479,-4.838251,-2.2558944,7.5834074,-8.579583,2.1793978,0.2019682,-0.1153935,0.17853439,0.95604306,-9.068703,6.6757364,0.38128272,0.269894,-4.9560394,0.46257517,0
0.8800000000000006,18.180268614245442,0.8733653324847842,-5.02132737237892,-1.2159519736259778,12.714512,1.4981477,-4.349636,-1.5329162,7.4925957,-8.51248,2.1835413,0.20450254,-0.09075479,0.17518702,0.95877606,-9.09234,6.744557,0.4477635,0.35936323,-5.042647,0.39400637,0
0.8900000000000006,18.180268614245442,0.8733653324847842,-5.02132737237892,-1.2159519736259778,12.714512,1.4981477,-4.349636,-1.5329162,7.401589,-8.444697,2.1883688,0.20733428,-0.0658426,0.17205855,0.96076685,-9.107742,6.811348,0.51803017,0.43926117,-5.039324,0.31500524,0
0.9000000000000006,18.180268614245442,0.8733653324847842,-5.02132737237892,-1.2159519736259778,12.714512,1.4981477,-4.349636,-1.5329162,7.310471,-8.376262,2.1939075,0.21042478,-0.040892903,0.16915037,0.96199644,-9.114527,6.8753805,0.5899283,0.50671214,-5.036528,0.23988071,0
0.9100000000000006,18.180268614245442,0.8733653324847842,-5.02132737237892,-1.2159519736259778,12.714512,1.4981477,-4.349636,-1.5329162,7.2193284,-8.3071995,2.2001715,0.2137433,-0.015926016,0.16641968,0.9624783,-9.11262,6.9366236,0.6629752,0.56365657,-5.0341744,0.16844258,0
0.9200000000000006,19.12301064973359,0.6885354461958496,-4.048150041243358,-1.4393783329026044,12.972308,0.31090015,-3.956199,-1.0298265,7.128248,-8.23754,2.2071693,0.21726234,0.009038674,0.16383094,0.9622238,-9.101982,6.9950294,0.73669237,0.6117325,-5.0321927,0.10050992,0
0.9300000000000006,19.12301064973359,0.6885354461958496,-4.048150041243358,-1.4393783329026044,12.972308,0.31090015,-3.956199,-1.0298265,7.037323,-8.167295,2.2149506,0.22092296,0.033587385,0.16136996,0.9612619,-9.081627,7.053425,0.8195271,0.6234591,-4.8787613,0.024947148,0
0.9400000000000006,19.12301064973359,0.6885354461958496,-4.048150041243358,-1.4393783329026044,12.972308,0.31090015,-3.956199,-1.0298265,6.946646,-8.096482,2.2235591,0.22468832,0.05738999,0.15903132,0.9596512,-9.052341,7.10877,0.9020967,0.63338274,-4.7492576,-0.046907745,0
0.9500000000000006,19.12301064973359,0.6885354461958496,-4.048150041243358,-1.4393783329026044,12.972308,0.31090015,-3.956199,-1.0298265,6.8563056,-8.02513,2.2329903,0.22856349,0.08054263,0.15679896,0.9574369,-9.014415,7.161061,0.9839682,0.64178,-4.639949,-0.115236685,0
0.9600000000000006,19.04136656223649,0.23413321693324227,-2.6809723012527016,-1.4797799805881593,12.322094,-0.08561685,-1.6488738,-0.74499583,6.7663865,-7.953271,2.2432349,0.23255017,0.10312632,0.1546591,0.95465475,-8.968116,7.210284,1.0647433,0.6488858,-4.547686,-0.1802127,0
0.9700000000000006,19.04136656223649,0.23413321693324227,-2.6809723012527016,-1.4797799805881593,12.322094,-0.08561685,-1.6488738,-0.74499583,6.67697,-7.8809357,2.254276,0.23658995,0.124644935,0.15255642,0.95142794,-8.913981,7.256231,1.1433071,0.5840616,-4.2565904,-0.24398284,0
0.9800000000000006,19.04136656223649,0.23413321693324227,-2.6809723012527016,-1.4797799805881593,12.322094,-0.08561685,-1.6488738,-0.74499583,6.588133,-7.8081565,2.266095,0.24064842,0.14471395,0.15045455,0.9478974,-8.85236,7.2991486,1.2201734,0.5293705,-4.010886,-0.30462378,0
0.9900000000000007,19.04136656223649,0.23413321693324227,-2.6809723012527016,-1.4797799805881593,12.322094,-0.08561685,-1.6488738,-0.74499583,6.4999466,-7.734963,2.2786732,0.24475406,0.16354707,0.14836673,0.9441053,-8.783817,7.339089,1.2951621,0.4832262,-3.803496,-0.36228904,0
1.0000000000000007,18.854680831186716,-0.30889389185904015,-1.4250029909029722,-1.4000965327193378,14.134107,-0.45906007,-0.36710227,-0.25306198,6.4124784,-7.661385,2.291991,0.24892728,0.18132521,0.14630273,0.94008064,-8.708846,7.3760943,1.368127,0.44429153,-3.6284459,-0.41712466,0
1.0100000000000007,18.854680831186716,-0.30889389185904015,-1.4250029909029722,-1.4000965327193378,14.134107,-0.45906007,-0.36710227,-0.25306198,6.3257866,-7.587453,2.30602,0.2531417,0.19767764,0.14419055,0.9359763,-8.628706,7.4098725,1.4373085,0.32682213,-3.2847989,-0.46535936,0
1.0200000000000007,18.854680831186716,-0.30889389185904015,-1.4250029909029722,-1.4000965327193378,14.134107,-0.45906007,-0.36710227,-0.25306198,6.2399225,-7.513197,2.32073,0.25738412,0.21232474,0.14197871,0.9319407,-8.543301,7.440863,1.5044132,0.22768047,-2.994742,-0.5112272,0
1.0300000000000007,18.854680831186716,-0.30889389185904015,-1.4250029909029722,-1.4000965327193378,14.134107,-0.45906007,-0.36710227,-0.25306198,6.1549363,-7.4386444,2.336101,0.26168218,0.22552985,0.13969941,0.9279777,-8.453248,7.4691486,1.5695248,0.14400488,-2.7499182,-0.5548442,0
1.0400000000000007,18.854680831186716,-0.30889389185904015,-1.4250029909029722,-1.4000965327193378,16.30274,-0.87381095,0.3218977,0.38948786,6.070872,-7.363823,2.3521135,0.26605508,0.23751484,0.13737774,0.9240825,-8.359068,7.4948034,1.6327313,0.07338133,-2.5432749,-0.596321,0
1.0500000000000007,18.854680831186716,-0.30889389185904015,-1.4250029909029722,-1.4000965327193378,16.30274,-0.87381095,0.3218977,0.38948786,5.987768,-7.288758,2.3687494,0.2705157,0.24846658,0.13503307,0.92024535,-8.261198,7.517893,1.6941197,0.013772092,-2.3688583,-0.6357625,0
1.0600000000000007,18.854680831186716,-0.30889389185904015,-1.4250029909029722,-1.4000965327193378,16.30274,-0.87381095,0.3218977,0.38948786,5.9056597,-7.2134743,2.3859901,0.2750722,0.25854242,0.13268037,0.91645336,-8.160008,7.5384727,1.7537714,-0.03654108,-2.2216427,-0.67326856,0
1.0700000000000007,18.854680831186716,-0.30889389185904015,-1.4250029909029722,-1.4000965327193378,16.30274,-0.87381095,0.3218977,0.38948786,5.8245783,-7.137997,2.403819,0.27972898,0.26787475,0.13033107,0.91269284,-8.055815,7.5565915,1.8117609,-0.07900867,-2.097387,-0.70893425,0
1.0800000000000007,18.534112581934867,-0.8036809396356729,-0.35988745210791384,-1.1968655832982005,17.768549,-2.558375,1.1416234,1.2489873,5.7445526,-7.0623507,2.4222198,0.2844879,0.27657518,0.1279938,0.90894985,-7.948885,7.572289,1.8681543,-0.114854924,-1.9925102,-0.7428497,0
1.0900000000000007,18.534112581934867,-0.8036809396356729,-0.35988745210791384,-1.1968655832982005,17.768549,-2.558375,1.1416234,1.2489873,5.6656,-6.9865603,2.4411635,0.2893276,0.28429797,0.12561075,0.9053649,-7.8413405,7.5853806,1.9204309,-0.22217931,-1.7378485,-0.76512843,0
1.1000000000000008,18.534112581934867,-0.8036809396356729,-0.35988745210791384,-1.1968655832982005,17.768549,-2.558375,1.1416234,1.2489873,5.587733,-6.9106507,2.460624,0.29423207,0.2907776,0.12313872,0.90206,-7.7317615,7.5962124,1.9714136,-0.31277835,-1.5229069,-0.7863139,0
1.1100000000000008,18.534112581934867,-0.8036809396356729,-0.35988745210791384,-1.1968655832982005,17.768549,-2.558375,1.1416234,1.2489873,5.51097,-6.834644,2.4805884,0.29920655,0.2962078,0.12060209,0.8989944,-7.6205425,7.6048703,2.0213206,-0.38925913,-1.3414903,-0.8064598,0
1.1200000000000008,18.088055968621074,-1.25466098874877,0.6278379476341022,-0.9235052688743289,18.13783,-2.7437458,1.3855021,1.4205945,5.435326,-6.7585607,2.5010474,0.30425328,0.3007513,0.118019916,0.89613014,-7.5080132,7.611432,2.0703425,-0.45382246,-1.1883702,-0.82561713,0
1.1300000000000008,18.088055968621074,-1.25466098874877,0.6278379476341022,-0.9235052688743289,18.13783,-2.7437458,1.3855021,1.4205945,5.3608,-6.6824226,2.521975,0.3093505,0.30414012,0.11535653,0.8935845,-7.397211,7.615865,2.1151435,-0.57856345,-0.90506494,-0.83042055,0
1.1400000000000008,18.088055968621074,-1.25466098874877,0.6278379476341022,-0.9235052688743289,18.13783,-2.7437458,1.3855021,1.4205945,5.287384,-6.60625,2.5433486,0.31447822,0.3061701,0.11258499,0.8914524,-7.2858343,7.618443,2.159543,-0.6838732,-0.66595054,-0.8349882,0
1.1500000000000008,18.088055968621074,-1.25466098874877,0.6278379476341022,-0.9235052688743289,18.13783,-2.7437458,1.3855021,1.4205945,5.2150836,-6.53006,2.5651655,0.31963742,0.30705234,0.109729536,0.8896682,-7.1742754,7.619286,2.2038212,-0.7727788,-0.46413437,-0.8393317,0
1.1600000000000008,17.807184158420778,-1.5408250030175976,1.2555790511134957,-0.6038247317542936,17.571856,-3.5690975,1.8011854,1.5788206,5.1438975,-6.45387,2.5874255,0.32482693,0.30696395,0.10680909,0.8881733,-7.0628657,7.618503,2.2482166,-0.8478359,-0.29379845,-0.8434621,0
1.1700000000000008,17.807184158420778,-1.5408250030175976,1.2555790511134957,-0.6038247317542936,17.571856,-3.5690975,1.8011854,1.5788206,5.073816,-6.377695,2.6101198,0.33001754,0.30579743,0.10380682,0.8870174,-6.9536257,7.616233,2.2907257,-0.955774,-0.05212193,-0.831703,0
1.1800000000000008,17.807184158420778,-1.5408250030175976,1.2555790511134957,-0.6038247317542936,17.571856,-3.5690975,1.8011854,1.5788206,5.0048227,-6.3015494,2.6332421,0.3351803,0.3034746,0.10070905,0.88623613,-6.8451705,7.6125903,2.3338122,-1.046903,0.15185505,-0.82052094,0
1.1900000000000008,17.807184158420778,-1.5408250030175976,1.2555790511134957,-0.6038247317542936,17.571856,-3.5690975,1.8011854,1.5788206,4.9369082,-6.2254467,2.6567988,0.3403124,0.30017167,0.097533,0.8857603,-6.7378273,7.6077013,2.3777082,-1.1238402,0.32401362,-0.8098875,0
1.2000000000000008,17.05881813878625,-1.6945540054443402,1.5403647565552208,-0.29252384304286133,15.070884,-2.9543753,1.6236818,1.1252476,4.870061,-6.149399,2.6807992,0.3454102,0.29603678,0.09429231,0.8855295,-6.631878,7.6016803,2.4226034,-1.1887952,0.4693173,-0.799776,0
1.2100000000000009,17.05881813878625,-1.6945540054443402,1.5403647565552208,-0.29252384304286133,15.070884,-2.9543753,1.6236818,1.1252476,4.804243,-6.073415,2.7052245,0.35044342,0.29107594,0.09097156,0.8855438,-6.5319557,7.5949283,2.462597,-1.2675912,0.63636714,-0.774885,0
1.2200000000000009,17.05881813878625,-1.6945540054443402,1.5403647565552208,-0.29252384304286133,15.070884,-2.9543753,1.6236818,1.1252476,4.739415,-5.997503,2.7300558,0.35538182,0.28529975,0.087557696,0.88579965,-6.433862,7.5872984,2.5038495,-1.3341166,0.77735806,-0.7512154,0
1.2300000000000009,17.05881813878625,-1.6945540054443402,1.5403647565552208,-0.29252384304286133,15.070884,-2.9543753,1.6236818,1.1252476,4.675558,-5.9216714,2.7553065,0.3602223,0.27882946,0.084063746,0.88624316,-6.337833,7.578891,2.5464883,-1.3902814,0.8963555,-0.72870725,0
1.2400000000000009,17.05881813878625,-1.6945540054443402,1.5403647565552208,-0.29252384304286133,14.421641,-3.099506,1.4741124,1.1670908,4.6126504,-5.8459272,2.7809908,0.3649621,0.2717675,0.080500446,0.8868283,-6.2440753,7.569797,2.590608,-1.4376986,0.9967907,-0.7073036,0
1.2500000000000009,17.05881813878625,-1.6945540054443402,1.5403647565552208,-0.29252384304286133,14.421641,-3.099506,1.4741124,1.1670908,4.5506687,-5.7702775,2.8071241,0.36959893,0.26420054,0.076876715,0.88751584,-6.152771,7.5601006,2.6362755,-1.4777304,1.0815598,-0.68695027,0
1.260000000000001,17.05881813878625,-1.6945540054443402,1.5403647565552208,-0.29252384304286133,14.421641,-3.099506,1.4741124,1.1670908,4.489587,-5.6947274,2.8337219,0.37413105,0.25620186,0.07320004,0.8882725,-6.064081,7.5498776,2.683534,-1.5115261,1.1531061,-0.6675957,0
1.270000000000001,17.05881813878625,-1.6945540054443402,1.5403647565552208,-0.29252384304286133,14.421641,-3.099506,1.4741124,1.1670908,4.429378,-5.6192822,2.8608003,0.37855715,0.2478337,0.069476746,0.88907015,-5.978149,7.539198,2.7324066,-1.5400574,1.2134928,-0.64919084,0
1.280000000000001,15.55573297699362,-1.6904621640400908,1.6027506613702374,-0.03195877841899608,14.034656,-2.268158,1.5344427,1.1590754,4.3700137,-5.5439453,2.8883755,0.38287628,0.23914874,0.06571221,0.88988507,-5.8951006,7.528126,2.7828994,-1.564144,1.2644606,-0.63168913,0
1.290000000000001,15.55573297699362,-1.6904621640400908,1.6027506613702374,-0.03195877841899608,14.034656,-2.268158,1.5344427,1.1590754,4.3114295,-5.468716,2.9163978,0.38705736,0.2301723,0.061914526,0.8907153,-5.8221045,7.517727,2.8217692,-1.5838467,1.3171945,-0.6022602,0
1.300000000000001,15.55573297699362,-1.6904621640400908,1.6027506613702374,-0.03195877841899608,14.034656,-2.268158,1.5344427,1.1590754,4.2535615,-5.3935914,2.944816,0.39107195,0.22092715,0.058089796,0.89156,-5.751942,7.5070853,2.8620934,-1.6004806,1.3617041,-0.57427526,0
1.310000000000001,15.55573297699362,-1.6904621640400908,1.6027506613702374,-0.03195877841899608,14.034656,-2.268158,1.5344427,1.1590754,4.19638,-5.3185744,2.9736447,0.39492348,0.21145129,0.054239847,0.8924022,-5.6847043,7.4962564,2.9038472,-1.6145233,1.3992724,-0.5476636,0
1.320000000000001,12.821996051517624,-1.5285434252198582,1.4514133589267713,0.22510413950443608,13.486727,-1.9941305,1.3912281,1.0658519,4.139857,-5.2436666,3.0028977,0.39861545,0.20177706,0.05036644,0.8932271,-5.620472,7.4852915,2.9469957,-1.6263784,1.430982,-0.5223579,1
1.330000000000001,12.821996051517624,-1.5285434252198582,1.4514133589267713,0.22510413950443608,13.486727,-1.9941305,1.3912281,1.0658519,4.083919,-5.1688614,3.0324945,0.40205842,0.19196571,0.04630174,0.894066,-5.567454,7.4757,2.9725304,-1.6838037,1.4247165,-0.44442394,1
1.340000000000001,12.821996051517624,-1.5285434252198582,1.4514133589267713,0.22510413950443608,13.486727,-1.9941305,1.3912281,1.0658519,4.028498,-5.094153,3.0623524,0.4051629,0.1820673,0.041910473,0.8949512,-5.5171766,7.466002,2.9991968,-1.732269,1.4194244,-0.37031424,1
1.350000000000001,12.821996051517624,-1.5285434252198582,1.4514133589267713,0.22510413950443608,13.486727,-1.9941305,1.3912281,1.0658519,3.973566,-5.019542,3.0924826,0.40793344,0.17209208,0.037238624,0.89587253,-5.469709,7.456165,3.026948,-1.7731724,1.4149557,-0.29984114,1
1.360000000000001,10.290510292409383,-1.2579999663201937,1.2553129274813968,0.43532129857248403,12.209432,-2.436565,0.59302247,1.6101068,3.9190946,-4.9450307,3.122895,0.41037592,0.16204883,0.03232581,0.8968202,-5.425111,7.4461613,3.0557315,-1.807693,1.4111832,-0.2328262,0
1.370000000000001,10.290510292409383,-1.2579999663201937,1.2553129274813968,0.43532129857248403,12.209432,-2.436565,0.59302247,1.6101068,3.8650043,-4.870608,3.153449,0.41252282,0.15211289,0.027460648,0.89773726,-5.393302,7.438392,3.0551858,-1.7220021,1.3868256,-0.20004,0
1.380000000000001,10.290510292409383,-1.2579999663201937,1.2553129274813968,0.43532129857248403,12.209432,-2.436565,0.59302247,1.6101068,3.8112211,-4.7962637,3.1840012,0.41441828,0.14242569,0.022875391,0.8985816,-5.3636746,7.430519,3.0553164,-1.6496717,1.3662732,-0.16886263,0
1.390000000000001,10.290510292409383,-1.2579999663201937,1.2553129274813968,0.43532129857248403,12.209432,-2.436565,0.59302247,1.6101068,3.7577233,-4.721998,3.214558,0.41608396,0.1329483,0.01852561,0.89936393,-5.336173,7.4225845,3.0560586,-1.5886188,1.3489314,-0.13921514,0
1.400000000000001,8.219580621828976,-0.8919790147712691,0.9213462575751562,0.6022545729300872,11.741467,-1.7858094,-0.3766643,0.83178407,3.7044902,-4.647812,3.2451248,0.41753826,0.12364763,0.014373953,0.90009236,-5.310751,7.4146237,3.057354,-1.5370847,1.3342986,-0.11102248,0
1.410000000000001,8.219580621828976,-0.8919790147712691,0.9213462575751562,0.6022545729300872,11.741467,-1.7858094,-0.3766643,0.83178407,3.6514773,-4.5736976,3.2756064,0.41876304,0.11467761,0.010462561,0.90076464,-5.292068,7.408267,3.0390444,-1.4365146,1.2698586,-0.07602176,0
1.420000000000001,8.219580621828976,-0.8919790147712691,0.9213462575751562,0.6022545729300872,11.741467,-1.7858094,-0.3766643,0.83178407,3.5986438,-4.4996467,3.305907,0.41974545,0.10615946,0.0068231933,0.90138626,-5.274935,7.4019322,3.0210836,-1.3516238,1.2154744,-0.042738553,0
1.430000000000001,8.219580621828976,-0.8919790147712691,0.9213462575751562,0.6022545729300872,11.741467,-1.7858094,-0.3766643,0.83178407,3.5459743,-4.4256587,3.3360293,0.42050698,0.09802299,0.0034129974,0.901972,-5.259275,7.3956337,3.0034266,-1.2799678,1.1695768,-0.011088551,0
1.440000000000001,8.219580621828976,-0.8919790147712691,0.9213462575751562,0.6022545729300872,11.604506,-1.6744232,-0.51544785,0.8302366,3.4934537,-4.3517337,3.3659766,0.42106602,0.090208665,0.00019592373,0.9025329,-5.2450233,7.3893833,2.9860349,-1.2194837,1.130841,0.019008374,0
1.450000000000001,8.219580621828976,-0.8919790147712691,0.9213462575751562,0.6022545729300872,11.604506,-1.6744232,-0.51544785,0.8302366,3.4410691,-4.277871,3.3957508,0.4214383,0.08266606,-0.002858336,0.9030769,-5.2321253,7.383191,2.968875,-1.1684296,1.0981492,0.047628433,0
1.460000000000001,8.219580621828976,-0.8919790147712691,0.9213462575751562,0.6022545729300872,11.604506,-1.6744232,-0.51544785,0.8302366,3.3888068,-4.20407,3.4253547,0.42163754,0.07535249,-0.0057752538,0.90360963,-5.2205343,7.3770657,2.951918,-1.1253355,1.0705581,0.07484411,0
1.470000000000001,8.219580621828976,-0.8919790147712691,0.9213462575751562,0.6022545729300872,11.604506,-1.6744232,-0.51544785,0.8302366,3.3366542,-4.13033,3.4547899,0.42167565,0.068231836,-0.008576225,0.9041352,-5.210211,7.3710136,2.935137,-1.0889604,1.0472718,0.100724295,0
1.480000000000001,6.822249657377171,-0.681272960779092,0.8740303531469207,0.756814666146804,11.083599,-1.4224111,-0.112494044,0.9721236,3.2845984,-4.0566497,3.4840581,0.42156306,0.061273582,-0.011279209,0.90465623,-5.201122,7.365039,2.9185095,-1.0582564,1.0276189,0.12533453,0
1.490000000000001,6.822249657377171,-0.681272960779092,0.8740303531469207,0.756814666146804,11.083599,-1.4224111,-0.112494044,0.9721236,3.2326205,-3.983024,3.5130913,0.42128676,0.05450439,-0.013832106,0.90518254,-5.194577,7.360149,2.8881407,-0.9994844,1.0036514,0.15632145,0
1.500000000000001,6.822249657377171,-0.681272960779092,0.8740303531469207,0.756814666146804,11.083599,-1.4224111,-0.112494044,0.9721236,3.1807036,-3.9094465,3.5418215,0.42083597,0.047944017,-0.016194284,0.9057241,-5.188997,7.3553395,2.857864,-0.9498765,0.98342395,0.18578781,0
1.5100000000000011,6.822249657377171,-0.681272960779092,0.8740303531469207,0.756814666146804,11.083599,-1.4224111,-0.112494044,0.9721236,3.1288378,-3.8359168,3.570249,0.4202225,0.04155933,-0.018395072,0.90628225,-5.1843457,7.3506207,2.8276634,-0.9080035,0.9663524,0.21380825,0
1.5200000000000011,5.546346101889462,-0.6396228559413484,1.2319252554287123,0.9132200253999045,10.814984,-1.4105289,-0.08031256,0.98117065,3.077014,-3.7624338,3.5983753,0.41945672,0.035322353,-0.020459156,0.9068571,-5.1805954,7.3460016,2.7975256,-0.87265944,0.95194453,0.24045373,0
1.5300000000000011,5.546346101889462,-0.6396228559413484,1.2319252554287123,0.9132200253999045,10.814984,-1.4105289,-0.08031256,0.98117065,3.0252204,-3.688992,3.6261365,0.41853264,0.029086137,-0.022332836,0.9074611,-5.17826,7.3423357,2.754718,-0.83634573,0.995595,0.27346656,0
1.5400000000000011,5.546346101889462,-0.6396228559413484,1.2319252554287123,0.9132200253999045,10.814984,-1.4105289,-0.08031256,0.98117065,2.9734461,-3.6155865,3.6534698,0.41744357,0.022732757,-0.023974605,0.9081021,-5.1766357,7.338784,2.7119436,-0.80569464,1.0324396,0.30485946,0
1.5500000000000012,5.546346101889462,-0.6396228559413484,1.2319252554287123,0.9132200253999045,10.814984,-1.4105289,-0.08031256,0.98117065,2.921685,-3.542216,3.6803758,0.41619745,0.016279638,-0.025419991,0.90877306,-5.1757226,7.3353724,2.669194,-0.77982277,1.0635393,0.33471188,0
1.5600000000000012,4.418578005343852,-0.6158144653833484,1.7753309745741144,1.027024162186007,12.239423,-2.2291145,-0.826888,1.6875782,2.8699293,-3.4688787,3.7068539,0.41480142,0.009741604,-0.026698887,0.90946794,-5.1755223,7.3321214,2.626461,-0.7579845,1.0897894,0.36309946,0
1.5700000000000012,4.418578005343852,-0.6158144653833484,1.7753309745741144,1.027024162186007,12.239423,-2.2291145,-0.826888,1.6875782,2.8181725,-3.39557,3.732852,0.4132559,0.0029461528,-0.027762156,0.9101868,-5.1759386,7.3296456,2.5730345,-0.7415662,1.1909832,0.39516115,0
1.5800000000000012,4.418578005343852,-0.6158144653833484,1.7753309745741144,1.027024162186007,12.239423,-2.2291145,-0.826888,1.6875782,2.7664082,-3.322285,3.7583127,0.41155788,-0.004255277,-0.028539374,0.9109267,-5.1769404,7.3273764,2.5190573,-0.72207296,1.2820339,0.42616045,0
1.5900000000000012,4.418578005343852,-0.6158144653833484,1.7753309745741144,1.027024162186007,12.239423,-2.2291145,-0.826888,1.6875782,2.714631,-3.2490218,3.7832332,0.4097103,-0.011805517,-0.029059792,0.9116762,-5.1785536,7.3253174,2.4650652,-0.7055494,1.3589544,0.45564497,0
1.6000000000000012,4.049175318088894,-0.5911581581113471,2.184078576003544,1.0450375736914876,12.562138,-2.5658455,-0.5738846,2.7290156,2.662835,-3.175778,3.8076138,0.40771666,-0.019650588,-0.029362395,0.9124246,-5.180795,7.3234973,2.4110563,-0.69160044,1.4238795,0.48368272,0
1.6100000000000012,4.049175318088894,-0.5911581581113471,2.184078576003544,1.0450375736914876,12.562138,-2.5658455,-0.5738846,2.7290156,2.6110141,-3.1025505,3.8314378,0.4055834,-0.027884083,-0.029419707,0.9131588,-5.183461,7.32206,2.3536434,-0.67910093,1.5393233,0.51094425,0
1.6200000000000012,4.049175318088894,-0.5911581581113471,2.184078576003544,1.0450375736914876,12.562138,-2.5658455,-0.5738846,2.7290156,2.5591636,-3.0293357,3.8546855,0.4033144,-0.036586817,-0.029187808,0.9138637,-5.1867247,7.320909,2.2958863,-0.6654476,1.6398658,0.53715235,0
1.6300000000000012,4.049175318088894,-0.5911581581113471,2.184078576003544,1.0450375736914876,12.562138,-2.5658455,-0.5738846,2.7290156,2.5072773,-2.9561312,3.8773553,0.40090996,-0.045687433,-0.0287048,0.9145271,-5.1906295,7.320063,2.23808,-0.6539199,1.7247288,0.5620744,0
1.6400000000000012,4.049175318088894,-0.5911581581113471,2.184078576003544,1.0450375736914876,12.454496,-2.6203237,-0.35035917,2.7813337,2.4553487,-2.8829331,3.8994467,0.3983707,-0.055122994,-0.028008562,0.9151381,-5.1951966,7.319548,2.1802096,-0.6441861,1.7963579,0.5857736,0
1.6500000000000012,4.049175318088894,-0.5911581581113471,2.184078576003544,1.0450375736914876,12.454496,-2.6203237,-0.35035917,2.7813337,2.4033713,-2.8097386,3.920959,0.39569777,-0.06483996,-0.027130915,0.9156872,-5.200443,7.3193855,2.1222594,-0.63596666,1.8568165,0.60830986,0
1.6600000000000013,4.049175318088894,-0.5911581581113471,2.184078576003544,1.0450375736914876,12.454496,-2.6203237,-0.35035917,2.7813337,2.3513377,-2.7365441,3.9418912,0.39289248,-0.07479274,-0.026098605,0.9161662,-5.2063828,7.319592,2.064212,-0.6290255,1.9078467,0.62974024,0
1.6700000000000013,4.049175318088894,-0.5911581581113471,2.184078576003544,1.0450375736914876,12.454496,-2.6203237,-0.35035917,2.7813337,2.299241,-2.6633456,3.9622426,0.3899564,-0.084942445,-0.024934102,0.91656816,-5.2130294,7.3201804,2.0060499,-0.6231637,1.950919,0.65011895,0
1.6800000000000013,4.271041857741569,-0.5742199840247144,2.4068234224729723,1.004436054583103,10.792557,-2.2538795,-0.116263874,1.4712796,2.2470744,-2.5901392,3.9820118,0.38689148,-0.0952559,-0.023656294,0.91688704,-5.2203918,7.321161,1.9477539,-0.61821294,1.9872743,0.66949767,0
1.6900000000000013,4.271041857741569,-0.5742199840247144,2.4068234224729723,1.004436054583103,10.792557,-2.2538795,-0.116263874,1.4712796,2.1948283,-2.5169206,4.0012083,0.38370696,-0.10578367,-0.022240968,0.9171065,-5.228923,7.322616,1.8914776,-0.61140287,2.0526993,0.68593323,0
1.7000000000000013,4.271041857741569,-0.5742199840247144,2.4068234224729723,1.004436054583103,10.792557,-2.2538795,-0.116263874,1.4712796,2.1424932,-2.4436855,4.019841,0.38041043,-0.11656381,-0.020670125,0.91720974,-5.2382336,7.3245063,1.8350171,-0.6056504,2.1079211,0.7015622,0
1.7100000000000013,4.271041857741569,-0.5742199840247144,2.4068234224729723,1.004436054583103,10.792557,-2.2538795,-0.116263874,1.4712796,2.090061,-2.370429,4.037908,0.37700197,-0.12755299,-0.01896674,0.9171915,-5.248337,7.326844,1.7783484,-0.6007909,2.1545312,0.7164243,0
1.7200000000000013,4.937426252991053,-0.5873060628912546,2.402921579594681,0.9490212531328964,10.810406,-2.18885,-0.13435137,1.4720191,2.0375237,-2.297147,4.055407,0.37348202,-0.13871413,-0.017150149,0.91704726,-5.2592435,7.3296385,1.7214472,-0.59668577,2.1938725,0.7305571,0
1.7300000000000013,4.937426252991053,-0.5873060628912546,2.402921579594681,0.9490212531328964,10.810406,-2.18885,-0.13435137,1.4720191,1.9848645,-2.2238324,4.072368,0.36985686,-0.150016,-0.0152429845,0.916771,-5.2727904,7.333402,1.6706761,-0.5952541,2.2264702,0.74127716,0
1.7400000000000013,4.937426252991053,-0.5873060628912546,2.402921579594681,0.9490212531328964,10.810406,-2.18885,-0.13435137,1.4720191,1.932065,-2.1504772,4.08882,0.36613292,-0.16143169,-0.013264238,0.9163574,-5.2872834,7.3377028,1.6195778,-0.5940429,2.2539842,0.7514712,0
1.7500000000000013,4.937426252991053,-0.5873060628912546,2.402921579594681,0.9490212531328964,10.810406,-2.18885,-0.13435137,1.4720191,1.8791156,-2.0770764,4.1047587,0.36231112,-0.17293777,-0.011224024,0.9158043,-5.302728,7.3425403,1.5681229,-0.593018,2.2772076,0.761165,0
1.7600000000000013,6.332701033379633,-0.6521482732203102,2.458486274027256,0.8782935155087233,10.665248,-2.8813725,0.59485805,1.1756804,1.8260071,-2.0036244,4.1201816,0.35839266,-0.18451406,-0.009130888,0.91510993,-5.3191276,7.347913,1.5162821,-0.59215075,2.2968094,0.7703832,0
1.7700000000000014,6.332701033379633,-0.6521482732203102,2.458486274027256,0.8782935155087233,10.665248,-2.8813725,0.59485805,1.1756804,1.7727057,-1.930108,4.1351485,0.35438213,-0.19617262,-0.0070095113,0.91426516,-5.3413887,7.355484,1.4769804,-0.60152805,2.322016,0.77567834,0
1.7800000000000014,6.332701033379633,-0.6521482732203102,2.458486274027256,0.8782935155087233,10.665248,-2.8813725,0.59485805,1.1756804,1.7191753,-1.8565124,4.1497197,0.3502841,-0.2079215,-0.004880289,0.9132613,-5.364882,7.363728,1.4371059,-0.60944074,2.3432927,0.7807137,0
1.7900000000000014,6.332701033379633,-0.6521482732203102,2.458486274027256,0.8782935155087233,10.665248,-2.8813725,0.59485805,1.1756804,1.665404,-1.7828312,4.1638885,0.34609988,-0.219739,-0.0027441187,0.9120978,-5.3896127,7.372635,1.3966184,-0.6161175,2.3612518,0.78550196,0
1.8000000000000014,8.070717274177321,-0.6961204601475257,2.3374433695572763,0.7755456310592929,10.366757,-2.786674,0.6444949,2.0165598,1.6113789,-1.7090576,4.17765,0.34183103,-0.23160644,-0.00060177833,0.91077435,-5.4155817,7.382192,1.3554778,-0.62175137,2.376411,0.7900553,0
1.8100000000000014,8.070717274177321,-0.6961204601475257,2.3374433695572763,0.7755456310592929,10.366757,-2.786674,0.6444949,2.0165598,1.557051,-1.6351714,4.191074,0.33748668,-0.24346969,0.0015105817,0.9092982,-5.4502535,7.395183,1.3290884,-0.6333449,2.3703284,0.7893433,0
1.8200000000000014,8.070717274177321,-0.6961204601475257,2.3374433695572763,0.7755456310592929,10.366757,-2.786674,0.6444949,2.0165598,1.5023682,-1.5611513,4.204229,0.3330765,-0.25528508,0.0035639075,0.90767676,-5.4864917,7.408956,1.301773,-0.6431312,2.365195,0.78866625,0
1.8300000000000014,8.070717274177321,-0.6961204601475257,2.3374433695572763,0.7755456310592929,10.366757,-2.786674,0.6444949,2.0165598,1.4473155,-1.4869896,4.2171063,0.32860273,-0.26705176,0.0055670724,0.90590996,-5.5242825,7.42348,1.2734886,-0.6513916,2.3608634,0.7880224,0
1.8400000000000014,8.070717274177321,-0.6961204601475257,2.3374433695572763,0.7755456310592929,10.124408,-2.7890272,-0.1296848,1.8642864,1.3918772,-1.4126791,4.229696,0.3240674,-0.2787687,0.0075275064,0.9039977,-5.5636125,7.4387245,1.2441939,-0.6583642,2.3572078,0.7874101,0
1.8500000000000014,8.070717274177321,-0.6961204601475257,2.3374433695572763,0.7755456310592929,10.124408,-2.7890272,-0.1296848,1.8642864,1.336038,-1.3382127,4.2419868,0.31947243,-0.29043478,0.009451418,0.90194005,-5.6044645,7.4546595,1.2138473,-0.6642497,2.3541229,0.7868279,0
1.8600000000000014,8.070717274177321,-0.6961204601475257,2.3374433695572763,0.7755456310592929,10.124408,-2.7890272,-0.1296848,1.8642864,1.2797827,-1.2635837,4.253969,0.31481957,-0.3020488,0.011343991,0.89973694,-5.6468225,7.471256,1.1824085,-0.6692178,2.3515193,0.7862743,0
1.8700000000000014,8.070717274177321,-0.6961204601475257,2.3374433695572763,0.7755456310592929,10.124408,-2.7890272,-0.1296848,1.8642864,1.2230963,-1.1887854,4.265631,0.31011048,-0.31360948,0.013209546,0.8973886,-5.690668,7.488485,1.1498379,-0.6734113,2.3493223,0.7857478,0
1.8800000000000014,9.299742035373212,-0.646434686884514,1.9496995203168532,0.6265903610780176,11.390875,-0.5216557,-2.1410375,-0.20570652,1.1659641,-1.1138119,4.2769623,0.30534664,-0.3251154,0.015051673,0.89489496,-5.735981,7.506319,1.1160966,-0.676951,2.3474681,0.78524727,0
1.8900000000000015,9.299742035373212,-0.646434686884514,1.9496995203168532,0.6265903610780176,11.390875,-0.5216557,-2.1410375,-0.20570652,1.1083362,-1.0386431,4.2879977,0.30055547,-0.33642113,0.01683805,0.8923026,-5.789857,7.5275297,1.090767,-0.6721487,2.2854424,0.7774619,0
1.9000000000000015,9.299742035373212,-0.646434686884514,1.9496995203168532,0.6265903610780176,11.390875,-0.5216557,-2.1410375,-0.20570652,1.0501614,-0.9632592,4.298773,0.29576313,-0.34741342,0.018542927,0.88965404,-5.845344,7.549351,1.0640332,-0.66810125,2.2330887,0.7700586,0
1.9100000000000015,9.299742035373212,-0.646434686884514,1.9496995203168532,0.6265903610780176,11.390875,-0.5216557,-2.1410375,-0.20570652,0.99142385,-0.88765424,4.3092737,0.29096925,-0.35813427,0.020177769,0.88694406,-5.9023857,7.5717335,1.0358865,-0.6646902,2.188899,0.7630186,0
1.9200000000000015,10.008078830595059,-0.5400197529446396,1.0597662035489683,0.43075166961073275,11.257668,1.0041652,-2.3878996,-1.7309902,0.9321084,-0.81182283,4.319486,0.28617314,-0.36861888,0.02175212,0.88416743,-5.9609303,7.59463,1.0063173,-0.66181546,2.1516004,0.75632405,0
1.9300000000000015,10.008078830595059,-0.5400197529446396,1.0597662035489683,0.43075166961073275,11.257668,1.0041652,-2.3878996,-1.7309902,0.8721775,-0.73575115,4.329421,0.28142014,-0.37857154,0.023201423,0.8814467,-6.025492,7.6197724,0.98043567,-0.64271694,1.9813454,0.74034816,0
1.9400000000000015,10.008078830595059,-0.5400197529446396,1.0597662035489683,0.43075166961073275,11.257668,1.0041652,-2.3878996,-1.7309902,0.8115936,-0.65942585,4.3390894,0.27675268,-0.38776457,0.024475312,0.8788902,-6.0915017,7.6453347,0.9530831,-0.6266141,1.8376396,0.7251561,0
1.9500000000000015,10.008078830595059,-0.5400197529446396,1.0597662035489683,0.43075166961073275,11.257668,1.0041652,-2.3878996,-1.7309902,0.75034285,-0.5828432,4.348477,0.27216536,-0.39631617,0.025599899,0.8764729,-6.1588464,7.6712365,0.9243349,-0.6130362,1.7163428,0.71070963,0
1.9600000000000015,10.068220046185925,-0.418941378614307,-0.06253540574167414,0.21974714488696237,11.868336,-0.72518706,-3.053201,-0.8160067,0.6884124,-0.5060001,4.357571,0.26765263,-0.40432552,0.026596915,0.87417173,-6.227432,7.69741,0.8942563,-0.6015874,1.6139606,0.696972,0
1.9700000000000015,10.068220046185925,-0.418941378614307,-0.06253540574167414,0.21974714488696237,11.868336,-0.72518706,-3.053201,-0.8160067,0.6257882,-0.42889342,4.36636,0.26326442,-0.41147232,0.027396867,0.87214243,-6.297585,7.7239485,0.8633195,-0.57296425,1.3525337,0.6735545,0
1.9800000000000015,10.068220046185925,-0.418941378614307,-0.06253540574167414,0.21974714488696237,11.868336,-0.72518706,-3.053201,-0.8160067,0.56245726,-0.35152072,4.374834,0.25904548,-0.41751167,0.027946092,0.87051654,-6.3687506,7.7505994,0.8312651,-0.54883105,1.1318729,0.651286,0
1.9900000000000015,10.068220046185925,-0.418941378614307,-0.06253540574167414,0.21974714488696237,11.868336,-0.72518706,-3.053201,-0.8160067,0.49841022,-0.27388135,4.3829827,0.2549826,-0.42262056,0.028282113,0.869239,-6.440785,7.777272,0.7982528,-0.52848256,0.9456215,0.63011026,0
2.0000000000000013,,,,,11.974127,1.2597498,-3.7387147,-2.2498171,0.433639,-0.19597547,4.3907967,0.2510631,-0.4269471,0.028436163,0.86825997,-6.5135713,7.803891,0.7644212,-0.51132476,0.7884137,0.60997367,0
2.010000000000001,,,,,11.974127,1.2597498,-3.7387147,-2.2498171,0.368187,-0.11782218,4.398225,0.24732368,-0.43015146,0.02830956,0.8677556,-6.5769005,7.826743,0.72116333,-0.48823756,0.44942057,0.58000386,0
2.020000000000001,,,,,11.974127,1.2597498,-3.7387147,-2.2498171,0.3020996,-0.039441295,4.405218,0.24379587,-0.43197197,0.027825795,0.8678652,-6.6406417,7.8493958,0.6775101,-0.46878332,0.16329055,0.55150473,0
2.0300000000000007,,,,,11.974127,1.2597498,-3.7387147,-2.2498171,0.23537326,0.039164737,4.4117737,0.24046047,-0.43262613,0.027038211,0.8684945,-6.704654,7.871758,0.6336577,-0.45238873,-0.078219965,0.52440405,0
2.0400000000000005,,,,,11.974127,1.2597498,-3.7387147,-2.2498171,0.16800597,0.117992625,4.4178905,0.23729952,-0.43229556,0.025991336,0.8695599,-6.768821,7.893756,0.58977294,-0.43857148,-0.2820687,0.4986332,0
2.0500000000000003,,,,,11.948445,1.3879857,-4.1876044,-2.4396775,0.09999668,0.1970384,4.423569,0.23429659,-0.43113217,0.024722433,0.8709876,-6.8330393,7.9153295,0.5459965,-0.42692515,-0.45412886,0.47412696,1
2.06,,,,,11.948445,1.3879857,-4.1876044,-2.4396775,0.03111875,0.27637225,4.4290037,0.23162171,-0.42897385,0.023022627,0.87281334,-6.9422235,7.951209,0.54071635,-0.43782923,-0.7423601,0.3574453,1
2.07,,,,,11.948445,1.3879857,-4.1876044,-2.4396775,-0.038840346,0.35605714,4.4343805,0.22948357,-0.42559788,0.020768795,0.87508446,-7.0492406,7.9855075,0.5344992,-0.42030466,-1.012409,0.24409603,1
2.0799999999999996,,,,,11.948445,1.3879857,-4.1876044,-2.4396775,-0.10985792,0.43607667,4.4396915,0.22791757,-0.42103902,0.018106049,0.8777541,-7.1538863,8.018129,0.52762276,-0.37894845,-1.2669487,0.13393065,1
2.0899999999999994,,,,,13.882693,1.1900696,-4.4351745,-2.4151757,-0.18190923,0.5164138,4.444932,0.22694916,-0.41532522,0.015157976,0.88077784,-7.255961,8.049025,0.5203325,-0.3176698,-1.508205,0.026810648,1
2.099999999999999,,,,,13.882693,1.1900696,-4.4351745,-2.4151757,-0.25501916,0.5970664,4.450145,0.22662948,-0.40825838,0.012022957,0.8842059,-7.365502,8.081184,0.5222014,-0.21689811,-1.8304095,-0.08099341,1
2.109999999999999,,,,,13.882693,1.1900696,-4.4351745,-2.4151757,-0.32920724,0.6780307,4.4553757,0.22700162,-0.3996595,0.008795485,0.88806844,-7.4715514,8.111371,0.5240069,-0.10109611,-2.1331675,-0.18625975,1
2.1199999999999988,,,,,13.882693,1.1900696,-4.4351745,-2.4151757,-0.40443727,0.7592872,4.4606256,0.2280663,-0.3895748,0.005567423,0.89229286,-7.573842,8.139609,0.52602196,0.026833028,-2.4189498,-0.28906247,1
2.1299999999999986,,,,,14.242833,2.2980046,-4.221998,-3.386159,-0.4806703,0.84081644,4.4658976,0.22981693,-0.37804234,0.0024165844,0.8968069,-7.6721168,8.16594,0.5284692,0.16444522,-2.6898475,-0.38947263,1
2.1399999999999983,,,,,14.242833,2.2980046,-4.221998,-3.386159,-0.55792856,0.9226163,4.471265,0.23232943,-0.36553136,-0.00047762942,0.90133786,-7.7788343,8.193737,0.5451546,0.32270753,-2.7546394,-0.5209266,1
2.149999999999998,,,,,14.242833,2.2980046,-4.221998,-3.386159,-0.6362313,1.0046849,4.4768047,0.23566927,-0.35243246,-0.0029760988,0.90567255,-7.8809724,8.219714,0.56293607,0.48272118,-2.835797,-0.6482936,1
2.159999999999998,,,,,14.242833,2.2980046,-4.221998,-3.386159,-0.71553177,1.0870049,4.482527,0.23980771,-0.3386655,-0.005070736,0.9098201,-7.978363,8.24404,0.5817371,0.64435786,-2.9309142,-0.7717874,1
2.1699999999999977,,,,,12.957141,3.5453863,-3.9707744,-3.7741148,-0.7957816,1.1695604,4.488442,0.24471411,-0.324159,-0.0067529064,0.91377825,-8.070837,8.266857,0.60148644,0.80743694,-3.0378876,-0.8916048,1
2.1799999999999975,,,,,12.957141,3.5453863,-3.9707744,-3.7741148,-0.8769287,1.2523367,4.494556,0.25043395,-0.3091952,-0.0077549075,0.9173993,-8.157813,8.288214,0.6215298,1.0398059,-2.9891899,-1.0156535,1
2.1899999999999973,,,,,12.957141,3.5453863,-3.9707744,-3.7741148,-0.95892054,1.3353211,4.500875,0.25699544,-0.2940061,-0.007865611,0.9205717,-8.239772,8.3085,0.64244133,1.2602406,-2.972424,-1.1357881,1
2.199999999999997,,,,,12.957141,3.5453863,-3.9707744,-3.7741148,-1.0417066,1.4185041,4.5074067,0.2643426,-0.2784624,-0.00715318,0.92332596,-8.316617,8.327963,0.6640337,1.4708403,-2.9828503,-1.2522223,1
2.209999999999997,,,,,11.7604,3.6163573,-3.698831,-3.6929963,-1.125235,1.5018783,4.514158,0.2724222,-0.26245096,-0.005674917,0.9256748,-8.388246,8.346794,0.6861404,1.6732956,-3.0163848,-1.365152,1
