time-since-start [s],throttle_mpc,roll_mpc,pitch_mpc,yaw_mpc,throttle_nw,roll_nw,pitch_nw,yaw_nw,position_x [m],position_y [m],position_z [m],rotation_w [quaternion],rotation_x [quaternion],rotation_y [quaternion],rotation_z [quaternion],velocity_x [m/s],velocity_y [m/s],velocity_z [m/s],omega_x [rad/s],omega_y [rad/s],omega_z [rad/s],network_used
0.0,15.126804736056826,5.999999274213739,-5.999999603064342,1.2135262516271645,11.459925,1.4925609,-2.3348186,-0.4308508,16.999525,-10.656731,1.9619073,0.37164322,-0.37610918,0.29531124,0.79574776,-9.238564,-1.0128195,-0.1531564,0.4600709,-0.09721121,0.21838483,0
0.01,15.126804736056826,5.999999274213739,-5.999999603064342,1.2135262516271645,12.52445,2.0219946,-1.2471061,-0.06904684,16.906853,-10.666292,1.9602959,0.37321228,-0.37180015,0.2983007,0.79592323,-9.295477,-0.89929205,-0.16907209,1.324181,-1.0175841,0.26721668,0
0.02,15.126804736056826,5.999999274213739,-5.999999603064342,1.2135262516271645,12.52445,2.0219946,-1.2471061,-0.06904684,16.813622,-10.674716,1.9585284,0.3773034,-0.36253852,0.30293915,0.7965147,-9.350288,-0.78527516,-0.18424384,2.0535605,-1.7944012,0.31365237,0
0.03,15.126804736056826,5.999999274213739,-5.999999603064342,1.2135262516271645,12.52445,2.0219946,-1.2471061,-0.06904684,16.71986,-10.681996,1.9566159,0.3834407,-0.3490275,0.3089259,0.797319,-9.40151,-0.6706575,-0.19796719,2.6692083,-2.4500604,0.35780942,0
0.04,15.126804736056826,5.999999274213739,-5.999999603064342,1.2135262516271645,11.960218,2.2370763,-3.8679905,0.18160336,16.62561,-10.688127,1.9545757,0.39119896,-0.33184436,0.31598663,0.79811966,-9.447843,-0.5554295,-0.20972477,3.1888535,-3.0034637,0.3997997,0
0.05,15.126804736056826,5.999999274213739,-5.999999603064342,1.2135262516271645,11.960218,2.2370763,-3.8679905,0.18160336,16.530928,-10.693103,1.9524293,0.40020224,-0.31147036,0.32387447,0.7987049,-9.488144,-0.4396903,-0.21917723,3.6274612,-3.4705637,0.43972948,0
0.060000000000000005,15.126804736056826,5.999999274213739,-5.999999603064342,1.2135262516271645,11.960218,2.2370763,-3.8679905,0.18160336,16.435873,-10.69692,1.9502007,0.41012058,-0.28831345,0.33236915,0.7988786,-9.521409,-0.32364482,-0.22615077,3.997665,-3.8648236,0.47769994,0
0.07,15.126804736056826,5.999999274213739,-5.999999603064342,1.2135262516271645,11.960218,2.2370763,-3.8679905,0.18160336,16.340525,-10.699575,1.9479148,0.42066595,-0.26272488,0.34127545,0.7984652,-9.546757,-0.20759563,-0.23062263,4.3101296,-4.1976047,0.5138071,0
0.08,17.038702646176734,5.9999988679942,-5.999999635682356,0.7005495104126085,13.3901005,1.1769618,-4.4686165,0.062364444,16.244967,-10.701073,1.9455965,0.43158802,-0.23501137,0.3504212,0.79731184,-9.563426,-0.091931425,-0.23270622,4.573858,-4.4784966,0.54814255,0
0.09,17.038702646176734,5.9999988679942,-5.999999635682356,0.7005495104126085,13.3901005,1.1769618,-4.4686165,0.062364444,16.149282,-10.7013445,1.94333,0.44272047,-0.2054667,0.3596403,0.7952613,-9.571702,0.03739774,-0.22022806,4.7963715,-4.7156715,0.5556212,0
0.09999999999999999,17.038702646176734,5.9999988679942,-5.999999635682356,0.7005495104126085,13.3901005,1.1769618,-4.4686165,0.062364444,16.053572,-10.700331,1.941199,0.45392317,-0.17435542,0.36878893,0.7921795,-9.568884,0.16518475,-0.20570624,4.984172,-4.9158707,0.56273293,0
0.10999999999999999,17.038702646176734,5.9999988679942,-5.999999635682356,0.7005495104126085,13.3901005,1.1769618,-4.4686165,0.062364444,15.957946,-10.69805,1.9392213,0.46502963,-0.1418958,0.37775567,0.78798056,-9.554511,0.29078814,-0.18962413,5.142674,-5.0848594,0.5694956,0
0.11999999999999998,17.038702646176734,5.9999988679942,-5.999999635682356,0.7005495104126085,13.3901005,1.1769618,-4.4686165,0.062364444,15.862523,-10.694526,1.9374099,0.47589615,-0.108286366,0.38644364,0.78259695,-9.528254,0.4135279,-0.17255002,5.2764482,-5.2275033,0.5759265,0
0.12999999999999998,19.30323851037583,3.49550681827433,-5.999998973008547,0.9243785465352409,14.468931,-0.25312474,-2.3892856,-0.16944574,15.767423,-10.689792,1.9357715,0.48639873,-0.07370898,0.39476871,0.77597725,-9.48991,0.5326999,-0.15512186,5.389352,-5.3479095,0.5820418,0
0.13999999999999999,19.30323851037583,3.49550681827433,-5.999998973008547,0.9243785465352409,14.468931,-0.25312474,-2.3892856,-0.16944574,15.672799,-10.683809,1.934383,0.49635568,-0.038811706,0.4018914,0.76851004,-9.432766,0.66284186,-0.1226749,5.094106,-5.4496584,0.59884036,0
0.15,19.30323851037583,3.49550681827433,-5.999998973008547,0.9243785465352409,14.468931,-0.25312474,-2.3892856,-0.16944574,15.578813,-10.676554,1.9333152,0.5056882,-0.0041407784,0.40717834,0.7605707,-9.362423,0.7872174,-0.09105124,4.8448963,-5.53553,0.6148146,0
0.16,19.300573854650672,0.245388077750502,-4.259631649924771,1.1952061968281198,13.208188,-1.6683013,-1.0209447,-0.3678741,15.485594,-10.668087,1.9325578,0.5144271,0.03028886,0.4108391,0.7521025,-9.279552,0.9049836,-0.060662355,4.634544,-5.6080017,0.63000494,0
0.17,19.300573854650672,0.245388077750502,-4.259631649924771,1.1952061968281198,13.208188,-1.6683013,-1.0209447,-0.3678741,15.393263,-10.65848,1.9320964,0.52234834,0.063283235,0.41244778,0.7436625,-9.184944,1.0154101,-0.03190794,3.9500697,-5.397933,0.6577395,0
0.18000000000000002,19.300573854650672,0.245388077750502,-4.259631649924771,1.1952061968281198,13.208188,-1.6683013,-1.0209447,-0.3678741,15.30193,-10.647807,1.9319139,0.5293744,0.0939002,0.41174278,0.73580766,-9.079954,1.1181098,-0.0048326817,3.3723407,-5.2206044,0.6841132,0
0.19000000000000003,19.300573854650672,0.245388077750502,-4.259631649924771,1.1952061968281198,13.208188,-1.6683013,-1.0209447,-0.3678741,15.211695,-10.636146,1.9319942,0.53569806,0.12247229,0.40909767,0.7284688,-8.965971,1.2128619,0.020640839,2.8847106,-5.070911,0.7091927,0
0.20000000000000004,17.929444563551073,-2.5124325410264308,0.16192225835095977,1.047330134980108,13.960814,-2.911728,1.5794936,-0.13107994,15.122639,-10.623577,1.9323215,0.54145986,0.14928606,0.40481767,0.7215657,-8.844175,1.299521,0.04459709,2.4731283,-4.9445434,0.73304147,0
0.21000000000000005,17.929444563551073,-2.5124325410264308,0.16192225835095977,1.047330134980108,13.960814,-2.911728,1.5794936,-0.13107994,15.03479,-10.610212,1.9328383,0.5462548,0.17271262,0.3993365,0.7157555,-8.72482,1.3725384,0.05858029,1.6952952,-4.148546,0.7484637,0
0.22000000000000006,17.929444563551073,-2.5124325410264308,0.16192225835095977,1.047330134980108,13.960814,-2.911728,1.5794936,-0.13107994,14.94816,-10.59615,1.9334898,0.54986197,0.1915043,0.3930706,0.71166915,-8.600731,1.4388369,0.07160494,1.0388085,-3.4766407,0.7631292,0
0.23000000000000007,17.929444563551073,-2.5124325410264308,0.16192225835095977,1.047330134980108,13.960814,-2.911728,1.5794936,-0.13107994,14.862788,-10.581455,1.9342687,0.552587,0.20639762,0.3862031,0.70915043,-8.473285,1.4993589,0.08413137,0.48473948,-2.9094794,0.777075,0
0.24000000000000007,17.929444563551073,-2.5124325410264308,0.16192225835095977,1.047330134980108,13.412113,-4.279873,5.0416126,-0.22703125,14.778703,-10.56618,1.9351723,0.5546497,0.21801022,0.37886393,0.70802325,-8.343572,1.5549343,0.096623495,0.017111309,-2.430732,0.79033655,0
0.25000000000000006,17.929444563551073,-2.5124325410264308,0.16192225835095977,1.047330134980108,13.412113,-4.279873,5.0416126,-0.22703125,14.695921,-10.550372,1.9362025,0.5562079,0.22685903,0.37114593,0.70810884,-8.212467,1.606279,0.10952167,-0.3775609,-2.026615,0.80294734,0
0.26000000000000006,17.929444563551073,-2.5124325410264308,0.16192225835095977,1.047330134980108,13.412113,-4.279873,5.0416126,-0.22703125,14.614455,-10.534067,1.9373654,0.55737436,0.23337658,0.36311617,0.7092359,-8.080681,1.6540009,0.12322798,-0.7106579,-1.6854931,0.81493926,0
0.2700000000000001,17.929444563551073,-2.5124325410264308,0.16192225835095977,1.047330134980108,13.412113,-4.279873,5.0416126,-0.22703125,14.534308,-10.517301,1.938671,0.5582298,0.23792493,0.35482383,0.71124613,-7.9487977,1.6986101,0.13809942,-0.9917859,-1.397546,0.82634276,0
0.2800000000000001,16.83182244384032,-4.601193746394578,5.028368489468374,1.282284364387696,15.458184,-4.3807487,5.316888,0.0036846474,14.455478,-10.500103,1.9401325,0.5588319,0.2408075,0.34630552,0.7139964,-7.8173046,1.7405305,0.15444583,-1.2290525,-1.1544843,0.83718663,0
0.2900000000000001,16.83182244384032,-4.601193746394578,5.028368489468374,1.282284364387696,15.458184,-4.3807487,5.316888,0.0036846474,14.377919,-10.482511,1.9417305,0.55873436,0.24042895,0.33807242,0.7181341,-7.6946917,1.7778201,0.16546041,-1.755458,-0.19058329,0.85902774,0
0.3000000000000001,16.83182244384032,-4.601193746394578,5.028368489468374,1.282284364387696,15.458184,-4.3807487,5.316888,0.0036846474,14.3015785,-10.464551,1.943449,0.5575856,0.23552562,0.33051816,0.72414327,-7.5737576,1.8141818,0.17863873,-2.1997118,0.6230316,0.87979704,0
0.3100000000000001,16.83182244384032,-4.601193746394578,5.028368489468374,1.282284364387696,15.458184,-4.3807487,5.316888,0.0036846474,14.226436,-10.446225,1.9453123,0.5555218,0.22677092,0.323497,0.7316556,-7.455404,1.8508105,0.19446999,-2.5746312,1.3097938,0.8995473,0
0.3200000000000001,16.265039056285403,-5.753351937659283,5.999999159684344,1.0431654405205848,16.243998,-5.8597813,5.1403084,0.17777069,14.152459,-10.427529,1.9473487,0.5526284,0.21472663,0.31687325,0.74032784,-7.3404517,1.8886795,0.21333453,-2.8910346,1.8894832,0.91832834,0
0.3300000000000001,16.265039056285403,-5.753351937659283,5.999999159684344,1.0431654405205848,16.243998,-5.8597813,5.1403084,0.17777069,14.079593,-10.408452,1.9495701,0.54895025,0.19931097,0.31040055,0.7500532,-7.233429,1.9272449,0.2314719,-3.3378046,2.5302358,0.92445415,0
0.34000000000000014,16.265039056285403,-5.753351937659283,5.999999159684344,1.0431654405205848,16.243998,-5.8597813,5.1403084,0.17777069,14.007773,-10.388976,1.9519901,0.5444919,0.18047522,0.30385652,0.760676,-7.1313887,1.9684999,0.25310838,-3.7148447,3.0711029,0.9302793,0
0.35000000000000014,16.265039056285403,-5.753351937659283,5.999999159684344,1.0431654405205848,16.243998,-5.8597813,5.1403084,0.17777069,13.936946,-10.369072,1.9546449,0.5392416,0.15870386,0.29716083,0.77183324,-7.035279,2.013023,0.27842045,-4.033038,3.5276551,0.9358187,0
0.36000000000000015,16.36773407188353,-5.861449554042726,5.999999470214209,0.5888298339748423,16.170736,-6.133543,4.9890537,-0.36842138,13.867045,-10.348704,1.9575714,0.5331808,0.13441429,0.290245,0.78320396,-6.9460077,2.061224,0.30742735,-4.3015685,3.9130375,0.94108623,0
0.37000000000000016,16.36773407188353,-5.861449554042726,5.999999470214209,0.5888298339748423,16.170736,-6.133543,4.9890537,-0.36842138,13.798001,-10.327833,1.96081,0.52633923,0.107930645,0.28302592,0.7944897,-6.8639283,2.113692,0.34082967,-4.544983,4.2384,0.92380095,0
0.38000000000000017,16.36773407188353,-5.861449554042726,5.999999470214209,0.5888298339748423,16.170736,-6.133543,4.9890537,-0.36842138,13.729736,-10.306417,1.9643995,0.51874363,0.07953943,0.275436,0.8054273,-6.790441,2.1702442,0.37757525,-4.7504025,4.5130477,0.90736383,0
0.3900000000000002,16.36773407188353,-5.861449554042726,5.999999470214209,0.5888298339748423,16.170736,-6.133543,4.9890537,-0.36842138,13.66216,-10.284414,1.9683716,0.51037353,0.049532462,0.26744655,0.8158048,-6.7263293,2.230881,0.4172934,-4.923759,4.744885,0.8917332,0
0.4000000000000002,16.923062468710032,-4.647478420742096,5.999999393313485,0.4258233731566971,17.972641,-4.8005986,5.493871,-0.4576738,13.595175,-10.261785,1.9727539,0.50121427,0.018170126,0.25903764,0.8254413,-6.6723065,2.2954953,0.4595028,-5.070057,4.940583,0.8768697,0
0.4100000000000002,16.923062468710032,-4.647478420742096,5.999999393313485,0.4258233731566971,17.972641,-4.8005986,5.493871,-0.4576738,13.528685,-10.23848,1.9775923,0.4912743,-0.014077155,0.25060204,0.8340562,-6.62751,2.3662202,0.5084366,-5.004177,5.1059084,0.85473675,0
0.4200000000000002,16.923062468710032,-4.647478420742096,5.999999393313485,0.4258233731566971,17.972641,-4.8005986,5.493871,-0.4576738,13.4625845,-10.214448,1.9829267,0.48060104,-0.046818115,0.2424666,0.8414513,-6.594142,2.4406686,0.55856454,-4.948556,5.2454405,0.83368987,0
0.4300000000000002,16.923062468710032,-4.647478420742096,5.999999393313485,0.4258233731566971,17.972641,-4.8005986,5.493871,-0.4576738,13.396761,-10.189654,1.9887649,0.4692372,-0.079938956,0.23453087,0.8475973,-6.572443,2.5186028,0.6090671,-4.901597,5.3632026,0.8136757,0
0.4400000000000002,16.923062468710032,-4.647478420742096,5.999999393313485,0.4258233731566971,18.718594,-3.1921692,5.395165,0.34217185,13.331095,-10.164065,1.9951065,0.45721912,-0.11333331,0.22671138,0.85247165,-6.562594,2.5997238,0.6591208,-4.8619523,5.462592,0.79464364,0
0.45000000000000023,16.923062468710032,-4.647478420742096,5.999999393313485,0.4258233731566971,18.718594,-3.1921692,5.395165,0.34217185,13.265468,-10.1376505,2.0019429,0.4445786,-0.14690147,0.21893935,0.8560579,-6.5647078,2.683678,0.70790255,-4.828483,5.546475,0.7765455,0
0.46000000000000024,16.923062468710032,-4.647478420742096,5.999999393313485,0.4258233731566971,18.718594,-3.1921692,5.395165,0.34217185,13.1997595,-10.110384,2.0092573,0.43134397,-0.1805498,0.21115857,0.8583449,-6.5788317,2.7700644,0.75459445,-4.8002286,5.6172695,0.7593355,0
0.47000000000000025,16.923062468710032,-4.647478420742096,5.999999393313485,0.4258233731566971,18.718594,-3.1921692,5.395165,0.34217185,13.133851,-10.082243,2.0170245,0.4175411,-0.21419014,0.20332359,0.85932606,-6.6049414,2.8584437,0.79838896,-4.776376,5.677019,0.74297,0
0.48000000000000026,17.11921720401592,-2.881617004062299,5.999998799670042,0.35767167528265265,18.037357,-1.8043227,4.9645386,0.16881979,13.067622,-10.05321,2.025212,0.40319404,-0.24773929,0.19539812,0.85899895,-6.6429424,2.9483433,0.8384939,-4.7562413,5.7274456,0.7274076,0
0.49000000000000027,17.11921720401592,-2.881617004062299,5.999998799670042,0.35767167528265265,18.037357,-1.8043227,4.9645386,0.16881979,13.000951,-10.023268,2.0337868,0.38852006,-0.2808419,0.18796054,0.8572343,-6.6932044,3.0403507,0.8756813,-4.463846,5.7701416,0.7092645,0
0.5000000000000002,17.11921720401592,-2.881617004062299,5.999998799670042,0.35767167528265265,18.037357,-1.8043227,4.9645386,0.16881979,12.933719,-9.992401,2.0427077,0.373739,-0.31322917,0.18147454,0.85397506,-6.754777,3.1331275,0.9075658,-4.2170496,5.8061495,0.6920117,0
0.5100000000000002,17.11921720401592,-2.881617004062299,5.999998799670042,0.35767167528265265,18.037357,-1.8043227,4.9645386,0.16881979,12.865817,-9.960604,2.0519176,0.3588682,-0.34494144,0.17575756,0.8493163,-6.8270664,3.226423,0.9334228,-4.008741,5.836517,0.67560554,0
0.5200000000000002,16.56508621054484,-0.845410491104002,5.397959332044,0.17043687557082285,17.286259,-0.8735059,5.015692,0.023260646,12.797141,-9.927872,2.061353,0.34391624,-0.37600583,0.1706545,0.84333754,-6.9094844,3.319961,0.95259726,-3.8329184,5.8621283,0.6600045,1
0.5300000000000002,16.56508621054484,-0.845410491104002,5.397959332044,0.17043687557082285,17.286259,-0.8735059,5.015692,0.023260646,12.72759,-9.894199,2.0709498,0.32930338,-0.40584925,0.16656397,0.8361232,-7.002288,3.414386,0.9655914,-3.3712258,5.7303944,0.62875926,1
0.5400000000000003,16.56508621054484,-0.845410491104002,5.397959332044,0.17043687557082285,17.286259,-0.8735059,5.015692,0.023260646,12.657066,-9.859584,2.0806384,0.31541055,-0.43405813,0.1638014,0.8278157,-7.1037207,3.5086892,0.9708831,-2.9815533,5.6191545,0.59904724,1
0.5500000000000003,16.56508621054484,-0.845410491104002,5.397959332044,0.17043687557082285,17.286259,-0.8735059,5.015692,0.023260646,12.585489,-9.824026,2.0903401,0.30217525,-0.46085763,0.16213083,0.81854385,-7.212819,3.6028354,0.9682098,-2.6526656,5.5252223,0.5707933,1
0.5600000000000003,14.928663279409758,1.0975631665975294,1.6713076655006054,0.13645637336534022,17.524017,0.4342844,4.2700095,-0.17208563,12.512787,-9.787528,2.0999744,0.2895319,-0.4864311,0.16135074,0.8084071,-7.3287287,3.6967776,0.957361,-2.3750815,5.4459066,0.54392564,0
0.5700000000000003,14.928663279409758,1.0975631665975294,1.6713076655006054,0.13645637336534022,17.524017,0.4342844,4.2700095,-0.17208563,12.438976,-9.750155,2.109404,0.27801824,-0.5096372,0.16155462,0.7980451,-7.433987,3.7776923,0.92748463,-1.8332522,4.8574767,0.5239311,0
0.5800000000000003,14.928663279409758,1.0975631665975294,1.6713076655006054,0.13645637336534022,17.524017,0.4342844,4.2700095,-0.17208563,12.364093,-9.711976,2.1185012,0.26809677,-0.52965546,0.162834,0.7880828,-7.5434184,3.858449,0.8909103,-1.3759694,4.360769,0.50491756,0
0.5900000000000003,14.928663279409758,1.0975631665975294,1.6713076655006054,0.13645637336534022,17.524017,0.4342844,4.2700095,-0.17208563,12.288097,-9.672988,2.1272016,0.25958988,-0.54704124,0.1650224,0.77854145,-7.656109,3.9391677,0.84820455,-0.9900389,3.9414873,0.48683706,0
0.6000000000000003,13.527429325774936,2.275859317615678,-2.9696926240987938,0.37053962071389684,15.474858,1.1439071,-0.5745137,-0.14873761,12.210961,-9.633191,2.135446,0.25233027,-0.5622478,0.16797432,0.7694099,-7.7713256,4.019986,0.7998777,-0.66432595,3.5875647,0.46964377,0
0.6100000000000003,13.527429325774936,2.275859317615678,-2.9696926240987938,0.37053962071389684,15.474858,1.1439071,-0.5745137,-0.14873761,12.132711,-9.592619,2.1431632,0.2466854,-0.57416403,0.1714558,0.7616331,-7.8784847,4.09416,0.7427077,-0.21877816,2.5783885,0.4660063,0
0.6200000000000003,13.527429325774936,2.275859317615678,-2.9696926240987938,0.37053962071389684,15.474858,1.1439071,-0.5745137,-0.14873761,12.053391,-9.551309,2.1502872,0.24302424,-0.5818844,0.17533633,0.75604695,-7.9856343,4.1679735,0.681609,0.17052701,1.7132859,0.4613217,0
0.6300000000000003,13.527429325774936,2.275859317615678,-2.9696926240987938,0.37053962071389684,15.474858,1.1439071,-0.5745137,-0.14873761,11.972997,-9.509257,2.1567874,0.24109854,-0.58611494,0.17957531,0.7523919,-8.093204,4.2423306,0.61813253,0.4990748,0.98307526,0.456867,0
0.6400000000000003,13.527429325774936,2.275859317615678,-2.9696926240987938,0.37053962071389684,13.991092,1.7850614,-4.1615977,0.2698471,11.891527,-9.466458,2.162645,0.240668,-0.5874345,0.18412168,0.7503992,-8.200707,4.317419,0.5532528,0.77634776,0.36672372,0.4526309,0
0.6500000000000004,13.527429325774936,2.275859317615678,-2.9696926240987938,0.37053962071389684,13.991092,1.7850614,-4.1615977,0.2698471,11.808985,-9.422905,2.1678505,0.24151753,-0.58630806,0.18892589,0.7498128,-8.307751,4.3934145,0.48779416,1.0103486,-0.15352215,0.44860268,0
0.6600000000000004,13.527429325774936,2.275859317615678,-2.9696926240987938,0.37053962071389684,13.991092,1.7850614,-4.1615977,0.2698471,11.725375,-9.378587,2.1724012,0.24345678,-0.583112,0.19394155,0.75039715,-8.413998,4.470471,0.42244905,1.207831,-0.5926475,0.4447721,0
0.6700000000000004,13.527429325774936,2.275859317615678,-2.9696926240987938,0.37053962071389684,13.991092,1.7850614,-4.1615977,0.2698471,11.640709,-9.333491,2.1763017,0.2463188,-0.5781531,0.19912633,0.75194067,-8.519154,4.548716,0.35779622,1.3744946,-0.96330136,0.44112948,0
0.6800000000000004,12.783233889909129,2.540050540895155,-5.999981780158434,0.5306106349313212,14.249186,1.7208726,-5.1845393,0.19716048,11.5549965,-9.287608,2.1795614,0.24995805,-0.5716832,0.20444232,0.75425637,-8.622952,4.628252,0.29431608,1.5151488,-1.27616,0.4376656,0
0.6900000000000004,12.783233889909129,2.540050540895155,-5.999981780158434,0.5306106349313212,14.249186,1.7208726,-5.1845393,0.19716048,11.468284,-9.240944,2.182184,0.25454184,-0.56296027,0.20964107,0.75784886,-8.719506,4.7046967,0.23048,1.6751974,-2.0127869,0.44222644,0
0.7000000000000004,12.783233889909129,2.540050540895155,-5.999981780158434,0.5306106349313212,14.249186,1.7208726,-5.1845393,0.19716048,11.380614,-9.19351,2.184179,0.2601878,-0.55137795,0.21451072,0.7630661,-8.814169,4.782432,0.16893339,1.8102572,-2.634544,0.44656348,0
0.7100000000000004,12.783233889909129,2.540050540895155,-5.999981780158434,0.5306106349313212,14.249186,1.7208726,-5.1845393,0.19716048,11.292009,-9.145291,2.185573,0.26670533,-0.5373039,0.21906619,0.7695341,-8.906551,4.861419,0.11040981,1.9242291,-3.1593442,0.4506877,0
0.7200000000000004,12.416521761252826,2.314492800956967,-5.999998674294093,0.42921791974442997,14.062189,1.8710724,-5.8419514,0.11935803,11.202493,-9.096277,2.1863995,0.27392504,-0.5210423,0.22331625,0.7769233,-8.996262,4.9415817,0.055498548,2.0204053,-3.6023068,0.45460954,0
0.7300000000000004,12.416521761252826,2.314492800956967,-5.999998674294093,0.42921791974442997,14.062189,1.8710724,-5.8419514,0.11935803,11.112106,-9.046468,2.1866903,0.28166044,-0.5028763,0.22718905,0.7849636,-9.080424,5.0204735,0.003305599,2.0663753,-3.9762135,0.45336354,0
0.7400000000000004,12.416521761252826,2.314492800956967,-5.999998674294093,0.42921791974442997,14.062189,1.8710724,-5.8419514,0.11935803,11.020895,-8.995865,2.1864805,0.2897547,-0.48304805,0.23062548,0.79342204,-9.161254,5.100226,-0.044589706,2.1051588,-4.291812,0.4521787,0
0.7500000000000004,12.416521761252826,2.314492800956967,-5.999998674294093,0.42921791974442997,14.062189,1.8710724,-5.8419514,0.11935803,10.928894,-8.944461,2.1858141,0.29810748,-0.46174023,0.23364747,0.8020827,-9.238397,5.180638,-0.08794422,2.1378794,-4.558195,0.45105198,0
0.7600000000000005,12.11225368120267,1.804692697943442,-5.999999124123192,0.20639530122048988,13.692513,1.6408279,-6.5505204,-0.06657624,10.836142,-8.892251,2.1847377,0.30663005,-0.43911195,0.23627347,0.81076103,-9.3115015,5.261485,-0.12660252,2.165485,-4.7830377,0.4499806,0
0.7700000000000005,12.11225368120267,1.804692697943442,-5.999999124123192,0.20639530122048988,13.692513,1.6408279,-6.5505204,-0.06657624,10.742687,-8.839241,2.183291,0.315179,-0.41537374,0.23834173,0.8193412,-9.378546,5.3405313,-0.16206019,2.1092365,-4.972855,0.4380278,0
0.7800000000000005,12.11225368120267,1.804692697943442,-5.999999124123192,0.20639530122048988,13.692513,1.6408279,-6.5505204,-0.06657624,10.648586,-8.78544,2.1815128,0.32364476,-0.39071116,0.239724,0.82772654,-9.44105,5.419456,-0.19284487,2.0617507,-5.133066,0.42666152,0
0.7900000000000005,12.11225368120267,1.804692697943442,-5.999999124123192,0.20639530122048988,13.692513,1.6408279,-6.5505204,-0.06657624,10.553884,-8.730852,2.17945,0.33199856,-0.3652224,0.24048117,0.8357981,-9.498762,5.497941,-0.21899825,2.0216632,-5.268289,0.415853,0
0.8000000000000005,12.274220549003395,1.0454235550085311,-5.999998674190775,0.12368945896841789,14.841707,1.8011242,-6.304391,0.06280035,10.458629,-8.675484,2.1771483,0.3402128,-0.33899575,0.24066629,0.8434554,-9.551443,5.5756717,-0.24061602,1.9878217,-5.382421,0.40557486,0
0.8100000000000005,12.274220549003395,1.0454235550085311,-5.999998674190775,0.12368945896841789,14.841707,1.8011242,-6.304391,0.06280035,10.36287,-8.619337,2.174658,0.3481704,-0.3122185,0.24006577,0.8506853,-9.599513,5.6533494,-0.25675806,1.8408313,-5.4787874,0.39174268,0
0.8200000000000005,12.274220549003395,1.0454235550085311,-5.999998674190775,0.12368945896841789,14.841707,1.8011242,-6.304391,0.06280035,10.266658,-8.562422,2.1720278,0.35578808,-0.28505385,0.23851362,0.8574791,-9.642136,5.729554,-0.26861545,1.7167609,-5.560117,0.3785892,0
0.8300000000000005,12.274220549003395,1.0454235550085311,-5.999998674190775,0.12368945896841789,14.841707,1.8011242,-6.304391,0.06280035,10.170047,-8.504754,2.1692996,0.36308444,-0.25754455,0.23611826,0.8637643,-9.679212,5.8039045,-0.27638817,1.612037,-5.628755,0.3660812,0
0.8400000000000005,12.274220549003395,1.0454235550085311,-5.999998674190775,0.12368945896841789,14.471231,0.8846424,-6.3843226,0.07699004,10.073093,-8.446353,2.1665132,0.37007123,-0.2297303,0.23297356,0.8694795,-9.710648,5.8760433,-0.28031045,1.5236436,-5.686683,0.35418695,0
0.8500000000000005,12.274220549003395,1.0454235550085311,-5.999998674190775,0.12368945896841789,14.471231,0.8846424,-6.3843226,0.07699004,9.975853,-8.387242,2.1637058,0.3767551,-0.2016486,0.22916102,0.8745734,-9.736359,5.945634,-0.28064752,1.4490342,-5.7355723,0.34287637,0
0.8600000000000005,12.274220549003395,1.0454235550085311,-5.999998674190775,0.12368945896841789,14.471231,0.8846424,-6.3843226,0.07699004,9.878384,-8.32745,2.1609118,0.38313854,-0.17333522,0.2247515,0.87900317,-9.756273,6.0123625,-0.27769217,1.3860601,-5.776833,0.3321208,0
0.8700000000000006,12.274220549003395,1.0454235550085311,-5.999998674190775,0.12368945896841789,14.471231,0.8846424,-6.3843226,0.07699004,9.780746,-8.267007,2.1581624,0.38922125,-0.1448244,0.21980676,0.8827331,-9.770334,6.075935,-0.27176172,1.3329067,-5.8116555,0.321893,0
0.8800000000000006,12.172128944618764,0.3824737073314681,-5.999997628380824,0.004354394522228319,12.934429,-0.6703455,-6.3859076,0.06317372,9.682998,-8.205944,2.1554856,0.39500073,-0.116149254,0.21438082,0.885734,-9.778499,6.1360765,-0.263195,1.288043,-5.8410444,0.3121671,0
0.8900000000000006,12.172128944618764,0.3824737073314681,-5.999997628380824,0.004354394522228319,12.934429,-0.6703455,-6.3859076,0.06317372,9.5851965,-8.144301,2.1529016,0.40045804,-0.087450385,0.20828442,0.88803357,-9.780735,6.1920543,-0.2532516,1.1467671,-5.865873,0.29706267,0
0.9000000000000006,12.172128944618764,0.3824737073314681,-5.999997628380824,0.004354394522228319,12.934429,-0.6703455,-6.3859076,0.06317372,9.487403,-8.082117,2.1504269,0.40558866,-0.058847263,0.20137243,0.889654,-9.777177,6.2440805,-0.24138543,1.027525,-5.8868227,0.28269938,0
0.9100000000000006,12.172128944618764,0.3824737073314681,-5.999997628380824,0.004354394522228319,12.934429,-0.6703455,-6.3859076,0.06317372,9.389672,-8.019433,2.1480792,0.41040537,-0.030342247,0.19374916,0.89056623,-9.767916,6.2918777,-0.22794363,0.9268801,-5.9044995,0.2690409,0
0.9200000000000006,11.86841388499614,-0.2808291328697162,-5.999990790715736,-0.09677626650041524,12.0135355,-1.0671847,-6.405935,0.011264801,9.292063,-7.956294,2.1458724,0.4149155,-0.001940506,0.18550493,0.89074653,-9.753052,6.3352003,-0.21328673,0.8419328,-5.9194145,0.25605267,1
0.9300000000000006,11.86841388499614,-0.2808291328697162,-5.999990790715736,-0.09677626650041524,12.0135355,-1.0671847,-6.405935,0.011264801,9.194628,-7.892748,2.1438093,0.41912624,0.026109014,0.17620158,0.8902834,-9.73298,6.37331,-0.19925615,0.5441626,-5.9320354,0.24404085,1
0.9400000000000006,11.86841388499614,-0.2808291328697162,-5.999990790715736,-0.09677626650041524,12.0135355,-1.0671847,-6.405935,0.011264801,9.09742,-7.828845,2.1418893,0.42306137,0.053602844,0.16549952,0.8892445,-9.707772,6.4064636,-0.18468864,0.29283133,-5.9426765,0.23261847,1
0.9500000000000006,11.86841388499614,-0.2808291328697162,-5.999990790715736,-0.09677626650041524,12.0135355,-1.0671847,-6.405935,0.011264801,9.000489,-7.7646365,2.1401165,0.42674014,0.08059453,0.15360509,0.88758266,-9.677727,6.434363,-0.16988422,0.0806967,-5.951649,0.22175658,1
0.9600000000000006,11.503304711270687,-0.7295388541292823,-4.553384395679925,-0.07067722348190239,11.678239,-1.6314336,-6.126439,-0.1640573,8.903881,-7.7001762,2.1384914,0.4301716,0.10712695,0.14069505,0.8852577,-9.643123,6.456758,-0.1551591,-0.09835374,-5.9592147,0.21142769,0
0.9700000000000006,11.503304711270687,-0.7295388541292823,-4.553384395679925,-0.07067722348190239,11.678239,-1.6314336,-6.126439,-0.1640573,8.807633,-7.635524,2.136988,0.43327704,0.13277993,0.12729302,0.88229084,-9.60589,6.4727597,-0.14561743,-0.1968689,-5.7399874,0.1975847,0
0.9800000000000006,11.503304711270687,-0.7295388541292823,-4.553384395679925,-0.07067722348190239,11.678239,-1.6314336,-6.126439,-0.1640573,8.711777,-7.570739,2.1355767,0.43601498,0.15722881,0.11383159,0.8787562,-9.564888,6.4833446,-0.13677818,-0.28001013,-5.5549455,0.184421,0
0.9900000000000007,11.503304711270687,-0.7295388541292823,-4.553384395679925,-0.07067722348190239,11.678239,-1.6314336,-6.126439,-0.1640573,8.616347,-7.5058746,2.1342492,0.438434,0.18063405,0.10032686,0.8746894,-9.520436,6.488602,-0.12892622,-0.3501768,-5.3987584,0.17190325,0
1.0000000000000007,10.897298379153066,-0.8347482797817394,-0.21366041684613862,-0.024099225905978825,12.822355,-1.2168334,-4.971253,-0.37307513,8.521379,-7.4409847,2.132994,0.44057074,0.203131,0.086792104,0.8701163,-9.472825,6.4886208,-0.12232319,-0.40939397,-5.2669263,0.15999976,0
1.0100000000000007,10.897298379153066,-0.8347482797817394,-0.21366041684613862,-0.024099225905978825,12.822355,-1.2168334,-4.971253,-0.37307513,8.426888,-7.376119,2.1317704,0.44232592,0.22331314,0.07396911,0.8654522,-9.425023,6.4838243,-0.122623354,-0.47583646,-4.478876,0.15096597,0
1.0200000000000007,10.897298379153066,-0.8347482797817394,-0.21366041684613862,-0.024099225905978825,12.822355,-1.2168334,-4.971253,-0.37307513,8.332886,-7.3113236,2.1305368,0.44369087,0.24010535,0.06245625,0.86115444,-9.375038,6.4747343,-0.12432672,-0.5318956,-3.8137207,0.14237547,0
1.0300000000000007,10.897298379153066,-0.8347482797817394,-0.21366041684613862,-0.024099225905978825,12.822355,-1.2168334,-4.971253,-0.37307513,8.239392,-7.246638,2.1292794,0.44479513,0.2540558,0.052065074,0.8572643,-9.323375,6.4619246,-0.12734433,-0.5791947,-3.2522948,0.1342065,0
1.0400000000000007,10.897298379153066,-0.8347482797817394,-0.21366041684613862,-0.024099225905978825,11.415289,-1.2144202,0.19835307,-0.32626927,8.146423,-7.182097,2.1279857,0.44573078,0.26562342,0.042631537,0.8537861,-9.270441,6.445879,-0.13155791,-0.61910367,-2.7784216,0.1264384,1
1.0500000000000007,10.897298379153066,-0.8347482797817394,-0.21366041684613862,-0.024099225905978825,11.415289,-1.2144202,0.19835307,-0.32626927,8.053999,-7.1177344,2.1266665,0.44662923,0.2749825,0.033968,0.85073674,-9.214014,6.4261093,-0.13241951,-0.712015,-2.3141928,0.1042239,1
1.0600000000000007,10.897298379153066,-0.8347482797817394,-0.21366041684613862,-0.024099225905978825,11.415289,-1.2144202,0.19835307,-0.32626927,7.9621444,-7.0535836,2.125334,0.4475978,0.28228948,0.025919199,0.8481138,-9.156954,6.4037485,-0.13421468,-0.79041815,-1.9223572,0.08309947,1
1.0700000000000007,10.897298379153066,-0.8347482797817394,-0.21366041684613862,-0.024099225905978825,11.415289,-1.2144202,0.19835307,-0.32626927,7.8708615,-6.9896674,2.1239798,0.4486594,0.28787276,0.018397408,0.84586966,-9.099564,6.3791103,-0.1367648,-0.8565799,-1.591626,0.063011624,1
1.0800000000000007,10.672447325613332,-0.6674894499467844,3.8950270952467116,-0.01356920443389721,10.311871,0.011871723,3.3152115,-0.20612456,7.7801533,-6.9260077,2.1225967,0.44982597,0.29200706,0.011327335,0.84395504,-9.04209,6.3524575,-0.13990743,-0.9124129,-1.3124707,0.043909486,1
1.0900000000000007,10.672447325613332,-0.6674894499467844,3.8950270952467116,-0.01356920443389721,10.311871,0.011871723,3.3152115,-0.20612456,7.689991,-6.86261,2.1211343,0.45093697,0.29409286,0.0056156786,0.8426943,-8.990289,6.3268166,-0.15261175,-0.76829684,-0.59077585,0.031640254,1
1.1000000000000008,10.672447325613332,-0.6674894499467844,3.8950270952467116,-0.01356920443389721,10.311871,0.011871723,3.3152115,-0.20612456,7.6003456,-6.7994742,2.119544,0.45187235,0.29367188,0.001976962,0.8423564,-8.938802,6.3001547,-0.16543697,-0.6466428,0.018368244,0.019973062,1
1.1100000000000008,10.672447325613332,-0.6674894499467844,3.8950270952467116,-0.01356920443389721,10.311871,0.011871723,3.3152115,-0.20612456,7.511213,-6.736608,2.1178262,0.45267984,0.29113975,9.236229e-05,0.842804,-8.88781,6.2730412,-0.1781087,-0.5439509,0.53251433,0.008878393,1
1.1200000000000008,10.653128954756363,-0.41973791354386436,5.999996734031228,-0.047755538989761766,9.477584,0.003324992,6.122737,0.28419647,7.422587,-6.6740136,2.1159832,0.45338792,0.28682372,-0.00030785258,0.8439025,-8.837458,6.2459545,-0.19039296,-0.45726666,0.966478,-0.001671863,0
1.1300000000000008,10.653128954756363,-0.41973791354386436,5.999996734031228,-0.047755538989761766,9.477584,0.003324992,6.122737,0.28419647,7.334469,-6.6116924,2.1140347,0.45404282,0.28000852,0.0008840969,0.84583664,-8.78626,6.2184534,-0.199211,-0.4514107,1.7514532,-0.0039331997,0
1.1400000000000008,10.653128954756363,-0.41973791354386436,5.999996734031228,-0.047755538989761766,9.477584,0.003324992,6.122737,0.28419647,7.246858,-6.549641,2.1120021,0.45465836,0.27012828,0.0037411626,0.8487064,-8.736188,6.1920204,-0.20707406,-0.4464663,2.4140117,-0.006083582,0
1.1500000000000008,10.653128954756363,-0.41973791354386436,5.999996734031228,-0.047755538989761766,9.477584,0.003324992,6.122737,0.28419647,7.1597404,-6.4878464,2.1098971,0.45519647,0.25763124,0.008005302,0.8522666,-8.687574,6.167226,-0.21368504,-0.4422918,2.9732444,-0.008128432,0
1.1600000000000008,10.961592279142407,-0.20222659034840812,5.999998438231084,-0.10757049907634086,9.135738,0.2783921,5.4633145,0.27759314,7.0731,-6.4262896,2.1077332,0.4556148,0.24289274,0.013457351,0.8562927,-8.640721,6.1445637,-0.21883783,-0.43876776,3.4452653,-0.010072948,0
1.1700000000000008,10.961592279142407,-0.20222659034840812,5.999998438231084,-0.10757049907634086,9.135738,0.2783921,5.4633145,0.27759314,6.986925,-6.364949,2.1055393,0.45585677,0.22626919,0.01998704,0.8605797,-8.594606,6.123883,-0.21967456,-0.4018648,3.8436756,-0.014857187,0
1.1800000000000008,10.961592279142407,-0.20222659034840812,5.999998438231084,-0.10757049907634086,9.135738,0.2783921,5.4633145,0.27759314,6.9012,-6.3038015,2.1033454,0.45587394,0.2080615,0.027495869,0.8649471,-8.550835,6.106237,-0.21884649,-0.37071583,4.1799536,-0.019406658,0
1.1900000000000008,10.961592279142407,-0.20222659034840812,5.999998438231084,-0.10757049907634086,9.135738,0.2783921,5.4633145,0.27759314,6.8159003,-6.2428136,2.1011682,0.4556377,0.18848959,0.03582615,0.86924255,-8.50963,6.091976,-0.21638435,-0.3444239,4.4637895,-0.023732893,0
1.2000000000000008,11.457233571623117,0.03241726584976197,5.999998787461138,-0.14387395773528894,10.093695,0.123803996,5.952141,0.22888492,6.7309985,-6.181949,2.0990233,0.45512235,0.16774322,0.04484233,0.87333566,-8.471207,6.0813994,-0.21237923,-0.3222319,4.703361,-0.027846836,0
1.2100000000000009,11.457233571623117,0.03241726584976197,5.999998787461138,-0.14387395773528894,10.093695,0.123803996,5.952141,0.22888492,6.6464744,-6.1211734,2.096949,0.4542944,0.1460298,0.054510403,0.8771093,-8.434156,6.0744634,-0.20229577,-0.26690271,4.905571,-0.033540327,0
1.2200000000000009,11.457233571623117,0.03241726584976197,5.999998787461138,-0.14387395773528894,10.093695,0.123803996,5.952141,0.22888492,6.562304,-6.060445,2.094982,0.45312917,0.12352697,0.06479531,0.88046396,-8.400386,6.071887,-0.19095539,-0.22020237,5.0762463,-0.038954422,0
1.2300000000000009,11.457233571623117,0.03241726584976197,5.999998787461138,-0.14387395773528894,10.093695,0.123803996,5.952141,0.22888492,6.4784546,-5.99972,2.0931334,0.4516176,0.10034914,0.07558644,0.88332236,-8.370044,6.0738716,-0.17860386,-0.1807854,5.2203045,-0.044102862,0
1.2400000000000009,11.457233571623117,0.03241726584976197,5.999998787461138,-0.14387395773528894,9.081966,0.5751598,5.895364,0.3538996,6.3948913,-5.9389515,2.0914123,0.44975215,0.07659782,0.08678789,0.8856206,-8.343268,6.0805783,-0.16551927,-0.1475161,5.3418965,-0.048998654,0
1.2500000000000009,11.457233571623117,0.03241726584976197,5.999998787461138,-0.14387395773528894,9.081966,0.5751598,5.895364,0.3538996,6.311577,-5.8780913,2.0898244,0.44752672,0.052363474,0.09831623,0.88730603,-8.320181,6.0921288,-0.15200645,-0.11943574,5.4445267,-0.05365422,0
1.260000000000001,11.457233571623117,0.03241726584976197,5.999998787461138,-0.14387395773528894,9.081966,0.5751598,5.895364,0.3538996,6.2284746,-5.8170915,2.0883725,0.44493666,0.02772719,0.11009871,0.88833606,-8.300893,6.108607,-0.13839184,-0.09573543,5.5311513,-0.058081318,0
1.270000000000001,11.457233571623117,0.03241726584976197,5.999998787461138,-0.14387395773528894,9.081966,0.5751598,5.895364,0.3538996,6.1455455,-5.755902,2.087056,0.44197866,0.002762014,0.122071676,0.88867646,-8.285496,6.130063,-0.12501882,-0.07573208,5.604267,-0.062291194,0
1.280000000000001,12.142117218452636,0.268468257400222,5.999998216098008,-0.13845430186210406,10.754855,0.72229606,5.5203085,0.60371995,6.0627513,-5.6944733,2.0858703,0.43865064,-0.02246593,0.13417923,0.88830006,-8.27407,6.1565146,-0.11224355,-0.058848932,5.665981,-0.06629448,0
1.290000000000001,12.142117218452636,0.268468257400222,5.999998216098008,-0.13845430186210406,10.754855,0.72229606,5.5203085,0.60371995,5.980053,-5.632746,2.0848408,0.434954,-0.047855042,0.14645605,0.8871729,-8.26623,6.189831,-0.093861945,-0.0077885333,5.7180686,-0.069835395,0
1.300000000000001,12.142117218452636,0.268468257400222,5.999998216098008,-0.13845430186210406,10.754855,0.72229606,5.5203085,0.60371995,5.897412,-5.570659,2.0839882,0.43089324,-0.073317885,0.15892489,0.88526756,-8.262679,6.228404,-0.07690192,0.03530829,5.7620335,-0.07320255,0
1.310000000000001,12.142117218452636,0.268468257400222,5.999998216098008,-0.13845430186210406,10.754855,0.72229606,5.5203085,0.60371995,5.8147845,-5.5081606,2.0832963,0.4264717,-0.09881602,0.17152324,0.88257426,-8.263418,6.272183,-0.0617671,0.07168327,5.799142,-0.07640449,0
1.320000000000001,12.99058263109155,0.4244365192933471,5.999930882000245,-0.07808926026151916,11.930009,0.689264,5.5181403,0.4591673,5.7321286,-5.445198,2.082745,0.4216926,-0.12431297,0.18419628,0.8790869,-8.268434,6.321084,-0.048859257,0.10238478,5.8304634,-0.07944928,0
1.330000000000001,12.99058263109155,0.4244365192933471,5.999930882000245,-0.07808926026151916,11.930009,0.689264,5.5181403,0.4591673,5.6493983,-5.381703,2.082348,0.4165607,-0.14974639,0.19695151,0.87479347,-8.278342,6.3787646,-0.031003091,0.15260957,5.8568897,-0.07938254,0
1.340000000000001,12.99058263109155,0.4244365192933471,5.999930882000245,-0.07808926026151916,11.930009,0.689264,5.5181403,0.4591673,5.5665464,-5.317605,2.082114,0.4110816,-0.17506129,0.2097905,0.869686,-8.292729,6.4416714,-0.016378962,0.19500172,5.8791947,-0.07931908,0
1.350000000000001,12.99058263109155,0.4244365192933471,5.999930882000245,-0.07808926026151916,11.930009,0.689264,5.5181403,0.4591673,5.4835286,-5.252852,2.0820084,0.40525916,-0.20023371,0.22265981,0.8637676,-8.311515,6.5096436,-0.0054016244,0.23078275,5.8980217,-0.07925874,0
1.360000000000001,13.01498750351224,0.5053293337542872,2.094226026108216,-0.010046321333463304,12.014912,0.3791361,3.4135633,0.35881186,5.4003015,-5.187395,2.0819924,0.39909706,-0.22523974,0.23551252,0.85704315,-8.334606,6.5824914,0.0015264956,0.26098335,5.913913,-0.07920136,0
1.370000000000001,13.01498750351224,0.5053293337542872,2.094226026108216,-0.010046321333463304,12.014912,0.3791361,3.4135633,0.35881186,5.316822,-5.121186,2.0820248,0.39298585,-0.24871203,0.24772349,0.8499048,-8.3618965,6.660096,0.0042604366,0.2990465,5.3182335,-0.07580792,0
1.380000000000001,13.01498750351224,0.5053293337542872,2.094226026108216,-0.010046321333463304,12.014912,0.3791361,3.4135633,0.35881186,5.233051,-5.054179,2.0820627,0.38730127,-0.2696055,0.25883383,0.8428026,-8.39288,6.7417774,0.002616061,0.33118123,4.81545,-0.07258098,0
1.390000000000001,13.01498750351224,0.5053293337542872,2.094226026108216,-0.010046321333463304,12.014912,0.3791361,3.4135633,0.35881186,5.1489534,-4.986338,2.082063,0.38201416,-0.28833064,0.26902565,0.83579683,-8.42706,6.8269887,-0.003251256,0.3583105,4.3910766,-0.06951238,0
1.400000000000001,13.027086472266529,0.43614673249377994,-2.6292191145496746,0.09957001489937953,12.065701,0.6304803,-0.89330935,0.34955764,5.0645,-4.9176292,2.0819838,0.3770887,-0.305232,0.27844915,0.82891744,-8.464021,6.915282,-0.013176035,0.381214,4.0328836,-0.066594355,0
1.410000000000001,13.027086472266529,0.43614673249377994,-2.6292191145496746,0.09957001489937953,12.065701,0.6304803,-0.89330935,0.34955764,4.9796643,-4.848023,2.0817864,0.37300694,-0.31904912,0.286506,0.82279295,-8.50339,7.006324,-0.026835835,0.38971946,2.9939342,-0.05844063,0
1.420000000000001,13.027086472266529,0.43614673249377994,-2.6292191145496746,0.09957001489937953,12.065701,0.6304803,-0.89330935,0.34955764,4.8944263,-4.777496,2.0814364,0.3701851,-0.32883263,0.2927574,0.81800103,-8.544476,7.099422,-0.04360824,0.3969155,2.1170082,-0.050687004,0
1.430000000000001,13.027086472266529,0.43614673249377994,-2.6292191145496746,0.09957001489937953,12.065701,0.6304803,-0.89330935,0.34955764,4.8087716,-4.7060294,2.0809066,0.36847848,-0.33525303,0.29751945,0.8144395,-8.586636,7.194017,-0.06268658,0.40300226,1.3768382,-0.043313842,0
1.440000000000001,13.027086472266529,0.43614673249377994,-2.6292191145496746,0.09957001489937953,12.446865,0.9671557,-3.291067,0.6296918,4.722692,-4.6336117,2.0801775,0.3677442,-0.33886084,0.30104533,0.8119789,-8.629345,7.2896743,-0.08335358,0.40814987,0.7520975,-0.036302477,1
1.450000000000001,13.027086472266529,0.43614673249377994,-2.6292191145496746,0.09957001489937953,12.446865,0.9671557,-3.291067,0.6296918,4.636194,-4.560255,2.0792193,0.36794642,-0.33979627,0.3036363,0.8105303,-8.670248,7.3817596,-0.108380996,0.49530828,0.12157668,-0.0036219405,1
1.460000000000001,13.027086472266529,0.43614673249377994,-2.6292191145496746,0.09957001489937953,12.446865,0.9671557,-3.291067,0.6296918,4.5492887,-4.4859753,2.0780087,0.36903298,-0.33818203,0.30553672,0.80999714,-8.7107935,7.474272,-0.13374983,0.5688989,-0.4106119,0.027454939,1
1.470000000000001,13.027086472266529,0.43614673249377994,-2.6292191145496746,0.09957001489937953,12.446865,0.9671557,-3.291067,0.6296918,4.4619813,-4.4107695,2.0765448,0.37085405,-0.3344091,0.30685514,0.8102334,-8.750567,7.566995,-0.1589606,0.6310309,-0.8598041,0.057006873,1
1.480000000000001,13.249206169761411,0.26655853904046495,-5.99998072881495,0.18184963359028206,12.252107,1.0480165,-5.7203326,0.62411666,4.374281,-4.3346357,2.0748315,0.37327707,-0.3288021,0.30767825,0.8111029,-8.789216,7.6597395,-0.18359654,0.6834856,-1.2389438,0.08510868,1
1.490000000000001,13.249206169761411,0.26655853904046495,-5.99998072881495,0.18184963359028206,12.252107,1.0480165,-5.7203326,0.62411666,4.2862043,-4.2575827,2.0728705,0.37649438,-0.32082924,0.30773634,0.81278497,-8.825826,7.7508664,-0.20843914,0.7404055,-1.937798,0.11155796,1
1.500000000000001,13.249206169761411,0.26655853904046495,-5.99998072881495,0.18184963359028206,12.252107,1.0480165,-5.7203326,0.62411666,4.1977706,-4.1796207,2.0706677,0.38063896,-0.31007054,0.306805,0.81537807,-8.860554,7.8415303,-0.23180772,0.7884608,-2.5276656,0.13670935,1
1.5100000000000011,13.249206169761411,0.26655853904046495,-5.99998072881495,0.18184963359028206,12.252107,1.0480165,-5.7203326,0.62411666,4.109001,-4.1007557,2.0682411,0.3855174,-0.2969235,0.30500537,0.8186483,-8.892951,7.9314065,-0.25320563,0.82902926,-3.025544,0.16062656,1
1.5200000000000011,13.788767697545413,-0.14938292479751092,-5.999997735723487,0.2186511598710238,12.42624,0.8788595,-6.1288667,0.6155644,4.0199203,-4.0209966,2.0656118,0.39095917,-0.28172123,0.30243537,0.82238513,-8.922621,8.020179,-0.27225292,0.863275,-3.4457781,0.18337016,0
1.5300000000000011,13.788767697545413,-0.14938292479751092,-5.999997735723487,0.2186511598710238,12.42624,0.8788595,-6.1288667,0.6155644,3.9305418,-3.940302,2.062856,0.39675784,-0.26485673,0.29872254,0.82655877,-8.95257,8.118473,-0.27841687,0.70540327,-3.8441253,0.1851014,0
1.5400000000000011,13.788767697545413,-0.14938292479751092,-5.999997735723487,0.2186511598710238,12.42624,0.8788595,-6.1288667,0.6155644,3.8408816,-3.8586342,2.0600545,0.40275243,-0.24666232,0.2935709,0.8311226,-8.978861,8.214687,-0.2813208,0.57214487,-4.180348,0.18674769,0
1.5500000000000012,13.788767697545413,-0.14938292479751092,-5.999997735723487,0.2186511598710238,12.42624,0.8788595,-6.1288667,0.6155644,3.7509775,-3.776017,2.0572414,0.4088635,-0.2273175,0.28715855,0.8358814,-9.001335,8.308335,-0.28075382,0.45966208,-4.464134,0.1883132,0
1.5600000000000012,14.156372786769984,-0.6583014401886851,-5.999997385612093,0.2531123249151494,13.22217,0.4177392,-5.9190364,0.6896636,3.6608684,-3.692478,2.0544517,0.41501927,-0.20697667,0.27963743,0.84066814,-9.019852,8.398955,-0.2766035,0.36471587,-4.7036624,0.18980189,0
1.5700000000000012,14.156372786769984,-0.6583014401886851,-5.999997385612093,0.2531123249151494,13.22217,0.4177392,-5.9190364,0.6896636,3.5705926,-3.608038,2.0517359,0.42111117,-0.18585764,0.27096748,0.84539896,-9.034674,8.488423,-0.26601857,0.20521176,-4.9058447,0.19290856,0
1.5800000000000012,14.156372786769984,-0.6583014401886851,-5.999997385612093,0.2531123249151494,13.22217,0.4177392,-5.9190364,0.6896636,3.4801896,-3.5227232,2.0491443,0.42705157,-0.16414535,0.2611254,0.84999835,-9.045261,8.573852,-0.2517523,0.07057856,-5.0764937,0.19586277,0
1.5900000000000012,14.156372786769984,-0.6583014401886851,-5.999997385612093,0.2531123249151494,13.22217,0.4177392,-5.9190364,0.6896636,3.3897018,-3.4365764,2.046713,0.4328074,-0.14192086,0.25025603,0.8543469,-9.051593,8.654787,-0.23389718,-0.043062013,-5.2205286,0.19867203,0
1.6000000000000012,14.190388102100153,-0.928725311688959,-5.998083128811634,0.35333514897415846,14.574514,-0.035391726,-5.378819,0.72690666,3.2991722,-3.3496444,2.044478,0.43834776,-0.11925655,0.2384849,0.85834396,-9.053652,8.730805,-0.21261114,-0.13898322,-5.3420987,0.20134342,1
1.6100000000000012,14.190388102100153,-0.928725311688959,-5.998083128811634,0.35333514897415846,14.574514,-0.035391726,-5.378819,0.72690666,3.2086437,-3.261968,2.04249,0.44356564,-0.09630815,0.22625275,0.8618493,-9.051362,8.803621,-0.18449906,-0.12273746,-5.347825,0.22713298,1
1.6200000000000012,14.190388102100153,-0.928725311688959,-5.998083128811634,0.35333514897415846,14.574514,-0.035391726,-5.378819,0.72690666,3.1181602,-3.1735919,2.0407982,0.44837052,-0.07320646,0.2139233,0.86477846,-9.044638,8.870751,-0.15342806,-0.1090298,-5.3526583,0.251657,1
1.6300000000000012,14.190388102100153,-0.928725311688959,-5.998083128811634,0.35333514897415846,14.574514,-0.035391726,-5.378819,0.72690666,3.0277662,-3.0845733,2.0394304,0.45275941,-0.049979135,0.20149356,0.8671283,-9.033462,8.932018,-0.11977712,-0.09746383,-5.356738,0.27497762,1
1.6400000000000012,14.190388102100153,-0.928725311688959,-5.998083128811634,0.35333514897415846,13.913924,-0.072398566,-5.499835,0.94777966,2.9375064,-2.9949722,2.0384104,0.45673048,-0.026652593,0.18896219,0.86889607,-9.017834,8.987262,-0.0839334,-0.08770561,-5.3601813,0.2971539,1
1.6500000000000012,14.190388102100153,-0.928725311688959,-5.998083128811634,0.35333514897415846,13.913924,-0.072398566,-5.499835,0.94777966,2.8474207,-2.9048607,2.0377274,0.4602672,-0.0032117316,0.17629467,0.8700943,-8.998673,9.034107,-0.052442946,-0.08520239,-5.381962,0.32908025,1
1.6600000000000013,14.190388102100153,-0.928725311688959,-5.998083128811634,0.35333514897415846,13.913924,-0.072398566,-5.499835,0.94777966,2.7575476,-2.8143108,2.0373664,0.46335158,0.02035135,0.16346346,0.87073004,-8.975291,9.074922,-0.0196125,-0.08309501,-5.4003453,0.35944,1
1.6700000000000013,14.190388102100153,-0.928725311688959,-5.998083128811634,0.35333514897415846,13.913924,-0.072398566,-5.499835,0.94777966,2.6679292,-2.7233834,2.0373385,0.4659814,0.044001818,0.15047881,0.8707935,-8.947717,9.109579,0.014173084,-0.08132142,-5.415862,0.38831002,1
1.6800000000000013,13.617425280864563,-1.1924794323053218,-3.2200060094997025,0.49537368098862883,12.804856,-0.8664993,-4.1354156,0.9702471,2.5786073,-2.6321406,2.0376515,0.46815553,0.06770697,0.13735093,0.87027633,-8.915994,9.137975,0.048521344,-0.079829246,-5.428959,0.41576338,1
1.6900000000000013,13.617425280864563,-1.1924794323053218,-3.2200060094997025,0.49537368098862883,12.804856,-0.8664993,-4.1354156,0.9702471,2.489609,-2.540655,2.0382566,0.4698275,0.090813145,0.12407039,0.86926496,-8.883064,9.158286,0.072469935,-0.20247172,-5.227268,0.44297203,1
1.7000000000000013,13.617425280864563,-1.1924794323053218,-3.2200060094997025,0.49537368098862883,12.804856,-0.8664993,-4.1354156,0.9702471,2.4009578,-2.448995,2.0391004,0.47099543,0.112801924,0.11063755,0.86787003,-8.84667,9.172832,0.09625871,-0.30599013,-5.0570297,0.46884558,1
1.7100000000000013,13.617425280864563,-1.1924794323053218,-3.2200060094997025,0.49537368098862883,12.804856,-0.8664993,-4.1354156,0.9702471,2.3126864,-2.357218,2.0401802,0.47171518,0.13382792,0.09707428,0.86611295,-8.80711,9.181701,0.11960649,-0.3933662,-4.913337,0.49344948,1
1.7200000000000013,13.101307903991085,-1.4235998854551535,0.1261575616781913,0.6843713793632757,12.235321,-1.3247154,-1.8493419,1.0694653,2.2248256,-2.2653804,2.04149,0.47203055,0.1540215,0.08339893,0.8640077,-8.764648,9.184985,0.1422528,-0.46711695,-4.7920513,0.5168461,0
1.7300000000000013,13.101307903991085,-1.4235998854551535,0.1261575616781913,0.6843713793632757,12.235321,-1.3247154,-1.8493419,1.0694653,2.1374078,-2.1735375,2.0430357,0.47191945,0.17191592,0.070246875,0.8618599,-8.718535,9.182797,0.16675162,-0.6165162,-4.0251126,0.5250667,0
1.7400000000000013,13.101307903991085,-1.4235998854551535,0.1261575616781913,0.6843713793632757,12.235321,-1.3247154,-1.8493419,1.0694653,2.050462,-2.0817416,2.0448217,0.47144118,0.18637547,0.058130212,0.8600166,-8.670353,9.175654,0.19026525,-0.7425844,-3.3777711,0.5328838,0
1.7500000000000013,13.101307903991085,-1.4235998854551535,0.1261575616781913,0.6843713793632757,12.235321,-1.3247154,-1.8493419,1.0694653,1.9640057,-1.9900392,2.046838,0.47071782,0.1979455,0.046893362,0.8585124,-8.620709,9.164211,0.21286178,-0.84896386,-2.8313763,0.54031736,0
1.7600000000000013,12.722207871114659,-1.4551799820299742,4.574465804333171,0.8390578090170996,12.449206,-1.7064897,3.4204066,0.6815574,1.878051,-1.8984704,2.0490763,0.46983388,0.20708412,0.03640154,0.8573491,-8.570107,9.149016,0.2346446,-0.93872917,-2.370186,0.54738617,0
1.7700000000000014,12.722207871114659,-1.4551799820299742,4.574465804333171,0.8390578090170996,12.449206,-1.7064897,3.4204066,0.6815574,1.792598,-1.8070674,2.0515118,0.46877974,0.21264678,0.027359845,0.8569006,-8.520485,9.131148,0.25231692,-1.0196427,-1.2872097,0.56169856,0
1.7800000000000014,12.722207871114659,-1.4551799820299742,4.574465804333171,0.8390578090170996,12.449206,-1.7064897,3.4204066,0.6815574,1.707641,-1.715855,2.054122,0.4675688,0.21375087,0.02031749,0.8574832,-8.471024,9.111081,0.26969916,-1.0878947,-0.37311935,0.57530856,0
1.7900000000000014,12.722207871114659,-1.4551799820299742,4.574465804333171,0.8390578090170996,12.449206,-1.7064897,3.4204066,0.6815574,1.6231749,-1.6248504,2.056906,0.4662604,0.21109445,0.01495698,0.85896266,-8.422358,9.089734,0.2871898,-1.1454645,0.39842266,0.5882508,0
1.8000000000000014,12.46467094534013,-1.1829669945640786,5.999990026624112,0.8619208326740325,11.701873,-1.6078422,5.2600017,0.7234168,1.5391892,-1.5340623,2.0598671,0.46487758,0.20525715,0.0110099185,0.86118364,-8.375022,9.067876,0.3051368,-1.1940218,1.0496463,0.600558,1
1.8100000000000014,12.46467094534013,-1.1829669945640786,5.999990026624112,0.8619208326740325,11.701873,-1.6078422,5.2600017,0.7234168,1.4556499,-1.4434838,2.0629644,0.4634426,0.19645676,0.008327668,0.864035,-8.333145,9.047902,0.31446332,-1.2588199,1.7062187,0.60658664,1
1.8200000000000014,12.46467094534013,-1.1829669945640786,5.999990026624112,0.8619208326740325,11.701873,-1.6078422,5.2600017,0.7234168,1.372519,-1.3531021,2.0661595,0.4619585,0.18488526,0.006780951,0.86739033,-8.29337,9.028621,0.32470983,-1.3134769,2.260403,0.6123195,1
1.8300000000000014,12.46467094534013,-1.1829669945640786,5.999990026624112,0.8619208326740325,11.701873,-1.6078422,5.2600017,0.7234168,1.2897738,-1.2629076,2.0694623,0.46039578,0.17095375,0.006187544,0.87107545,-8.256106,9.010522,0.33604667,-1.3595792,2.7281656,0.61777115,1
1.8400000000000014,12.46467094534013,-1.1829669945640786,5.999990026624112,0.8619208326740325,11.61548,-1.4817361,5.463772,0.6229705,1.2073871,-1.1728863,2.0728846,0.4587215,0.15500963,0.0063941153,0.87493193,-8.221723,8.994021,0.3485709,-1.398465,3.1229837,0.62295526,1
1.8500000000000014,12.46467094534013,-1.1829669945640786,5.999990026624112,0.8619208326740325,11.61548,-1.4817361,5.463772,0.6229705,1.1253271,-1.08302,2.0764337,0.4569051,0.13729972,0.0073549687,0.87882453,-8.190778,8.979582,0.3614868,-1.4115993,3.488023,0.622956,1
1.8600000000000014,12.46467094534013,-1.1829669945640786,5.999990026624112,0.8619208326740325,11.61548,-1.4817361,5.463772,0.6229705,1.0435593,-0.993287,2.0801182,0.4549187,0.11803714,0.009027339,0.88262945,-8.163316,8.967406,0.37558293,-1.4226621,3.7961354,0.6229567,1
1.8700000000000014,12.46467094534013,-1.1829669945640786,5.999990026624112,0.8619208326740325,11.61548,-1.4817361,5.463772,0.6229705,0.96204776,-0.9036631,2.0839493,0.45273447,0.09745133,0.0112958085,0.8862321,-8.139604,8.957777,0.3907755,-1.4319801,4.0561986,0.6229574,1
1.8800000000000014,12.456868211616047,-0.8018655686439057,5.9999941277973345,0.7477301283628056,12.3438015,-1.1644874,5.646763,0.50550777,0.8807535,-0.81412184,2.0879369,0.45032737,0.07574037,0.014062598,0.8895342,-8.119884,8.95093,0.40693024,-1.4398286,4.275706,0.6229581,1
1.8900000000000015,12.456868211616047,-0.8018655686439057,5.9999941277973345,0.7477301283628056,12.3438015,-1.1644874,5.646763,0.50550777,0.7996408,-0.72463566,2.0921261,0.4476785,0.053067654,0.01739172,0.8924491,-8.103393,8.946816,0.4310823,-1.3969591,4.489544,0.61719483,1
1.9000000000000015,12.456868211616047,-0.8018655686439057,5.9999941277973345,0.7477301283628056,12.3438015,-1.1644874,5.646763,0.50550777,0.7186697,-0.6351739,2.0965602,0.44477564,0.029575435,0.021328902,0.8948995,-8.091543,8.946081,0.4558371,-1.3607608,4.670031,0.6117143,1
1.9100000000000015,12.456868211616047,-0.8018655686439057,5.9999941277973345,0.7477301283628056,12.3438015,-1.1644874,5.646763,0.50550777,0.63779336,-0.5457018,2.101244,0.441607,0.00539629,0.025772337,0.8968222,-8.084484,8.948905,0.48092905,-1.3301965,4.8223686,0.6065027,1
1.9200000000000015,12.160066497319157,-0.3525034397751789,5.371302414729261,0.6512865378894298,12.015923,-0.77706593,3.6595993,0.5680395,0.55696315,-0.45618305,2.1061792,0.43816215,-0.019353021,0.030635098,0.89816535,-8.082339,8.955428,0.5060636,-1.3043891,4.950947,0.6015468,0
1.9300000000000015,12.160066497319157,-0.3525034397751789,5.371302414729261,0.6512865378894298,12.015923,-0.77706593,3.6595993,0.5680395,0.47612956,-0.36658084,2.1113553,0.43442994,-0.0443278,0.036087234,0.8988901,-8.085151,8.965606,0.52909243,-1.1559769,5.0165577,0.6039876,0
1.9400000000000015,12.160066497319157,-0.3525034397751789,5.371302414729261,0.6512865378894298,12.015923,-0.77706593,3.6595993,0.5680395,0.39524335,-0.27685767,2.116759,0.4304142,-0.06924695,0.04226034,0.8989786,-8.092849,8.97964,0.55152214,-1.0307052,5.0719275,0.6063085,0
1.9500000000000015,12.160066497319157,-0.3525034397751789,5.371302414729261,0.6512865378894298,12.015923,-0.77706593,3.6595993,0.5680395,0.31425604,-0.18697448,2.1223826,0.4261249,-0.09409945,0.049033143,0.89842004,-8.105356,8.997616,0.5730216,-0.92496574,5.118655,0.6085156,0
1.9600000000000015,11.596283664097694,0.07812491262723385,2.9080391496709024,0.5882375683287708,11.412163,-0.10830978,0.73006856,0.663253,0.2331199,-0.09689161,2.1282153,0.42156872,-0.118872665,0.056301873,0.8972063,-8.1226,9.019583,0.5932589,-0.83571327,5.15809,0.6106144,0
1.9700000000000015,11.596283664097694,0.07812491262723385,2.9080391496709024,0.5882375683287708,11.412163,-0.10830978,0.73006856,0.663253,0.15179302,-0.006574981,2.1342154,0.416844,-0.14259902,0.06371857,0.89545876,-8.143446,9.044324,0.60650516,-0.69305784,4.8072534,0.6095164,0
1.9800000000000015,11.596283664097694,0.07812491262723385,2.9080391496709024,0.5882375683287708,11.412163,-0.10830978,0.73006856,0.663253,0.07023698,0.08400717,2.1403394,0.41206914,-0.16452171,0.071010984,0.89335823,-8.16837,9.072644,0.618049,-0.57267165,4.5111203,0.60847217,0
1.9900000000000015,11.596283664097694,0.07812491262723385,2.9080391496709024,0.5882375683287708,11.412163,-0.10830978,0.73006856,0.663253,-0.011587163,0.17488934,2.14657,0.40726852,-0.18491305,0.078198366,0.8909682,-8.197016,9.104294,0.6277595,-0.4710786,4.2611613,0.60747933,0
2.0000000000000013,,,,,10.842327,0.7920321,-2.1240244,1.1662543,-0.09371506,0.26610374,2.152888,0.40245664,-0.20400332,0.08529611,0.8883331,-8.229075,9.139055,0.63553363,-0.38534462,4.0501766,0.60653514,0
2.010000000000001,,,,,10.842327,0.7920321,-2.1240244,1.1662543,-0.17616768,0.35766786,2.1592386,0.39779282,-0.22057725,0.09175283,0.885826,-8.261869,9.174152,0.63432574,-0.28696007,3.2633734,0.60870117,0
2.020000000000001,,,,,10.842327,0.7920321,-2.1240244,1.1662543,-0.25896063,0.4495944,2.1655686,0.39343813,-0.23370214,0.09714678,0.88382804,-8.297044,9.211461,0.631445,-0.20396498,2.599266,0.6107609,0
2.0300000000000007,,,,,10.842327,0.7920321,-2.1240244,1.1662543,-0.34211496,0.5419031,2.1718626,0.389388,-0.24393329,0.10166053,0.8823483,-8.334081,9.250508,0.627152,-0.13395233,2.0387208,0.6127196,0
2.0400000000000005,,,,,10.842327,0.7920321,-2.1240244,1.1662543,-0.42564714,0.6346092,2.178108,0.3856244,-0.2517347,0.10544465,0.88136524,-8.372552,9.290912,0.62170124,-0.07489164,1.565588,0.6145821,0
2.0500000000000003,,,,,10.901009,1.4185194,-2.1254427,0.98894393,-0.5095697,0.7277249,2.1842937,0.38212237,-0.257494,0.10862335,0.88084054,-8.412102,9.33236,0.61533046,-0.025069633,1.1662364,0.61635333,1
2.06,,,,,10.901009,1.4185194,-2.1254427,0.98894393,-0.5938934,0.82126087,2.1904156,0.37898892,-0.26095358,0.1115521,0.88081014,-8.452726,9.374938,0.6089902,0.20025516,0.65299344,0.63463646,1
2.07,,,,,10.901009,1.4185194,-2.1254427,0.98894393,-0.6786253,0.91522574,2.196472,0.37630156,-0.26192474,0.11451941,0.8812932,-8.493668,9.418123,0.6022246,0.39041907,0.21978053,0.6520225,1
2.0799999999999996,,,,,10.901009,1.4185194,-2.1254427,0.98894393,-0.76376635,1.0096248,2.2024596,0.3739903,-0.26079646,0.11752783,0.8822151,-8.534494,9.461766,0.5952927,0.5509074,-0.14588183,0.6685553,1
2.0899999999999994,,,,,11.731071,1.5606,-5.400916,0.5624018,-0.8493135,1.1044621,2.208378,0.3719905,-0.25789353,0.12057696,0.8835015,-8.5748415,9.505745,0.58841276,0.68634987,-0.4545275,0.6842768,1
2.099999999999999,,,,,11.731071,1.5606,-5.400916,0.5624018,-0.93527544,1.1997572,2.2142637,0.37046325,-0.25231326,0.12321444,0.8853886,-8.617366,9.553288,0.588765,0.8230275,-1.2258565,0.6782964,1
2.109999999999999,,,,,11.731071,1.5606,-5.400916,0.5624018,-1.0216557,1.2955275,2.220156,0.36953208,-0.24334536,0.12507807,0.8880227,-8.6584215,9.600705,0.5897991,0.938332,-1.8769072,0.6726094,1
2.1199999999999988,,,,,11.731071,1.5606,-5.400916,0.5624018,-1.1084367,1.3917696,2.2260635,0.3690838,-0.23149614,0.1262837,0.89120084,-8.697422,9.647623,0.59189326,1.0356065,-2.4264355,0.6672015,1
2.1299999999999986,,,,,11.646479,1.2040634,-5.8696065,0.10233989,-1.1955951,1.4884771,2.2319982,0.36901334,-0.21718986,0.12692544,0.89473325,-8.733852,9.693721,0.5953257,1.1176707,-2.8902726,0.66205895,1
2.1399999999999983,,,,,11.646479,1.2040634,-5.8696065,0.10233989,-1.2831019,1.5856385,2.237971,0.36926952,-0.20067592,0.12687084,0.89848375,-8.767014,9.738378,0.5995439,1.131284,-3.3549125,0.6345934,1
2.149999999999998,,,,,11.646479,1.2040634,-5.8696065,0.10233989,-1.3709236,1.6832396,2.2439947,0.3698103,-0.18217123,0.1260153,0.902316,-8.796758,9.781601,0.6054131,1.1427324,-3.7470925,0.60847557,1
2.159999999999998,,,,,11.646479,1.2040634,-5.8696065,0.10233989,-1.4590242,1.7812645,2.2500854,0.37055779,-0.16196437,0.12446747,0.90606976,-8.822718,9.823077,0.6129923,1.1523622,-4.078112,0.5836393,1
2.1699999999999977,,,,,11.616446,0.588799,-6.0649004,-0.1299146,-1.5473639,1.8796942,2.2562604,0.37144232,-0.14030303,0.12231904,0.90960634,-8.844568,9.862523,0.62226367,1.1604642,-4.357509,0.5600218,1
2.1799999999999975,,,,,11.616446,0.588799,-6.0649004,-0.1299146,-1.6359001,1.9785066,2.2625349,0.37240234,-0.11744849,0.11940042,0.9128339,-8.861982,9.899577,0.6328634,1.0713053,-4.613711,0.5261664,1
2.1899999999999973,,,,,11.616446,0.588799,-6.0649004,-0.1299146,-1.7245877,2.0776768,2.2689228,0.3733941,-0.09362439,0.115581535,0.91567034,-8.874814,9.934043,0.6449414,0.9960315,-4.8299484,0.4939723,1
2.199999999999997,,,,,11.616446,0.588799,-6.0649004,-0.1299146,-1.81338,2.1771774,2.2754383,0.37438282,-0.06897985,0.110988684,0.91802,-8.882903,9.965633,0.65832305,0.9324828,-5.0124564,0.463358,1
2.209999999999997,,,,,11.8814335,-0.81478405,-6.0515237,0.11007584,-1.902229,2.2769785,2.282093,0.37533638,-0.04364577,0.105730295,0.9198036,-8.886113,9.994095,0.6727885,0.8788342,-5.166496,0.43424597,1
