time-since-start [s],throttle_mpc,roll_mpc,pitch_mpc,yaw_mpc,throttle_nw,roll_nw,pitch_nw,yaw_nw,position_x [m],position_y [m],position_z [m],rotation_w [quaternion],rotation_x [quaternion],rotation_y [quaternion],rotation_z [quaternion],velocity_x [m/s],velocity_y [m/s],velocity_z [m/s],omega_x [rad/s],omega_y [rad/s],omega_z [rad/s],network_used
0.0,12.67817691311383,5.999999609728737,-5.999999884295085,-3.89415025374825,14.314064,1.497993,1.9542252,-2.5610495,16.658035,-10.491577,1.3071088,-0.123516634,0.39882177,-0.23792987,-0.87696874,-8.7808275,-3.484091,-0.582589,1.3861026,-0.16205937,-0.108736776,0
0.01,12.67817691311383,5.999999609728737,-5.999999884295085,-3.89415025374825,15.041073,1.2623537,1.9296395,-2.8514032,16.569641,-10.525943,1.3013128,-0.12757328,0.39668754,-0.24374254,-0.8757588,-8.897382,-3.3890178,-0.5769678,1.5232842,-0.49033582,-0.24240862,0
0.02,12.67817691311383,5.999999609728737,-5.999999884295085,-3.89415025374825,15.041073,1.2623537,1.9296395,-2.8514032,16.4801,-10.559356,1.2955616,-0.13287774,0.39319074,-0.24970719,-0.87486607,-9.010057,-3.2934961,-0.5736018,1.6754732,-0.803895,-0.37278,0
0.03,12.67817691311383,5.999999609728737,-5.999999884295085,-3.89415025374825,15.041073,1.2623537,1.9296395,-2.8514032,16.389454,-10.591809,1.2898341,-0.13942811,0.38837096,-0.25588536,-0.87421405,-9.118438,-3.197414,-0.5721425,1.839833,-1.1045325,-0.49996802,0
0.04,12.67817691311383,5.999999609728737,-5.999999884295085,-3.89415025374825,15.039325,1.7816874,1.8046012,-2.8540156,16.297749,-10.623301,1.2841132,-0.14721665,0.38225767,-0.2623233,-0.8737234,-9.222127,-3.1006663,-0.5722916,2.0139594,-1.3937529,-0.6240832,0
0.05,12.67817691311383,5.999999609728737,-5.999999884295085,-3.89415025374825,15.039325,1.7816874,1.8046012,-2.8540156,16.20503,-10.653821,1.2783836,-0.1562301,0.37487182,-0.26905385,-0.8733116,-9.320742,-3.0031667,-0.5737977,2.1958132,-1.6728184,-0.7452299,0
0.060000000000000005,12.67817691311383,5.999999609728737,-5.999999884295085,-3.89415025374825,15.039325,1.7816874,1.8046012,-2.8540156,16.111355,-10.683362,1.2726332,-0.1664499,0.3662273,-0.2760982,-0.8728927,-9.413911,-2.9048524,-0.57645226,2.3836656,-1.9427862,-0.86350685,0
0.07,12.67817691311383,5.999999609728737,-5.999999884295085,-3.89415025374825,15.039325,1.7816874,1.8046012,-2.8540156,16.016773,-10.711917,1.2668511,-0.17785229,0.35633215,-0.28346688,-0.87237734,-9.501276,-2.8056924,-0.58008707,2.5760527,-2.2045424,-0.9790072,0
0.08,14.201349553060892,5.999999592363002,-5.999999900053605,-4.081209450217659,15.661614,1.873827,-1.2858655,-1.5072116,15.92135,-10.739474,1.2610284,-0.19040832,0.34518987,-0.29116103,-0.87167287,-9.582488,-2.7056913,-0.5845719,2.7717338,-2.4588306,-1.0918193,0
0.09,14.201349553060892,5.999999592363002,-5.999999900053605,-4.081209450217659,15.661614,1.873827,-1.2858655,-1.5072116,15.825113,-10.765983,1.2551981,-0.20413049,0.332768,-0.2991892,-0.8706789,-9.663813,-2.5959868,-0.58160657,2.9846532,-2.7213333,-1.2125468,0
0.09999999999999999,14.201349553060892,5.999999592363002,-5.999999900053605,-4.081209450217659,15.661614,1.873827,-1.2858655,-1.5072116,15.7281,-10.79139,1.2493937,-0.21902469,0.3190289,-0.30755147,-0.8692874,-9.737706,-2.4854853,-0.57937765,3.1991954,-2.9777853,-1.3304664,0
0.10999999999999999,14.201349553060892,5.999999592363002,-5.999999900053605,-4.081209450217659,15.661614,1.873827,-1.2858655,-1.5072116,15.630387,-10.81569,1.243608,-0.2350436,0.30396497,-0.3162238,-0.867388,-9.803799,-2.3743248,-0.5778501,3.4145463,-3.2285666,-1.4456657,0
0.11999999999999998,14.201349553060892,5.999999592363002,-5.999999900053605,-4.081209450217659,15.661614,1.873827,-1.2858655,-1.5072116,15.532054,-10.838876,1.2378341,-0.25213352,0.2875684,-0.32517448,-0.8648666,-9.86174,-2.2627008,-0.57702523,3.6300173,-3.4739952,-1.5582277,0
0.12999999999999998,16.05392222372616,5.255113075968407,-5.999999850124327,-3.623143675652899,15.530802,1.8210117,-1.744059,-1.449253,15.433184,-10.860944,1.2320648,-0.27023405,0.26983234,-0.33436465,-0.86160547,-9.911205,-2.1508665,-0.57693934,3.845025,-3.714338,-1.6682311,0
0.13999999999999999,16.05392222372616,5.255113075968407,-5.999999850124327,-3.623143675652899,15.530802,1.8210117,-1.744059,-1.449253,15.333852,-10.88187,1.2263125,-0.28936931,0.25045395,-0.34368783,-0.8575643,-9.953673,-2.0341754,-0.57332236,4.0642867,-4.0712776,-1.7641592,0
0.15,16.05392222372616,5.255113075968407,-5.999999850124327,-3.623143675652899,15.530802,1.8210117,-1.744059,-1.449253,15.234139,-10.901621,1.2206025,-0.30946052,0.22931096,-0.35297367,-0.85267806,-9.987259,-1.9156625,-0.56850207,4.2493906,-4.372526,-1.8553802,0
0.16,16.986825848162407,3.1075965559639194,-5.563864375335058,-1.300264777086688,16.300056,1.1691551,-2.4498146,-1.1502353,15.13414,-10.920179,1.2149464,-0.33030105,0.20664816,-0.36209726,-0.8468075,-10.01129,-1.795839,-0.56253487,4.4056644,-4.6267676,-1.9421247,0
0.17,16.986825848162407,3.1075965559639194,-5.563864375335058,-1.300264777086688,16.300056,1.1691551,-2.4498146,-1.1502353,15.033945,-10.9375,1.2093856,-0.35123172,0.18301824,-0.37035125,-0.84022623,-10.026068,-1.6683309,-0.5494171,4.2031446,-4.772565,-1.9106284,0
0.18000000000000002,16.986825848162407,3.1075965559639194,-5.563864375335058,-1.300264777086688,16.300056,1.1691551,-2.4498146,-1.1502353,14.933657,-10.953547,1.2039615,-0.37172323,0.15889256,-0.37720716,-0.8332403,-10.030097,-1.540971,-0.53522575,4.0322366,-4.895676,-1.8806778,0
0.19000000000000003,16.986825848162407,3.1075965559639194,-5.563864375335058,-1.300264777086688,16.300056,1.1691551,-2.4498146,-1.1502353,14.833382,-10.968324,1.1986846,-0.39177442,0.13435763,-0.3828083,-0.8257834,-10.023455,-1.4146469,-0.5199932,3.8880048,-4.9996305,-1.8521967,0
0.20000000000000004,16.86732441994234,1.9712917260103258,-4.350153434628528,-1.0878095451521999,15.271353,1.5381482,-1.0744432,-0.8915325,14.733224,-10.981846,1.1935649,-0.4113778,0.10948778,-0.3872764,-0.8178002,-10.006266,-1.2901976,-0.50379944,3.7662845,-5.087409,-1.8251133,0
0.21000000000000005,16.86732441994234,1.9712917260103258,-4.350153434628528,-1.0878095451521999,15.271353,1.5381482,-1.0744432,-0.8915325,14.63329,-10.99414,1.1886073,-0.43027106,0.08492477,-0.3905562,-0.8093948,-9.978941,-1.169263,-0.48757443,3.486611,-4.9720187,-1.7889335,0
0.22000000000000006,16.86732441994234,1.9712917260103258,-4.350153434628528,-1.0878095451521999,15.271353,1.5381482,-1.0744432,-0.8915325,14.53368,-11.00524,1.1838157,-0.44827273,0.061189674,-0.3926456,-0.8007098,-9.941889,-1.0516237,-0.47064924,3.2505205,-4.874691,-1.7545291,0
0.23000000000000007,16.86732441994234,1.9712917260103258,-4.350153434628528,-1.0878095451521999,15.271353,1.5381482,-1.0744432,-0.8915325,14.434485,-11.015184,1.1791962,-0.4654777,0.03817583,-0.39370835,-0.7917488,-9.895705,-0.9378337,-0.4531545,3.0512216,-4.792597,-1.7218128,0
0.24000000000000007,16.86732441994234,1.9712917260103258,-4.350153434628528,-1.0878095451521999,15.44933,1.5017788,-1.128357,-0.78752637,14.335795,-11.024013,1.174754,-0.48196176,0.015790524,-0.3938795,-0.7825099,-9.840946,-0.82837766,-0.435218,2.8829803,-4.7233505,-1.6907022,0
0.25000000000000006,16.86732441994234,1.9712917260103258,-4.350153434628528,-1.0878095451521999,15.44933,1.5017788,-1.128357,-0.78752637,14.237694,-11.03177,1.1704928,-0.4977854,-0.0060460847,-0.3932707,-0.77298814,-9.7781315,-0.72368336,-0.4169675,2.740957,-4.664942,-1.661118,0
0.26000000000000006,16.86732441994234,1.9712917260103258,-4.350153434628528,-1.0878095451521999,15.44933,1.5017788,-1.128357,-0.78752637,14.140258,-11.038505,1.1664152,-0.5129966,-0.027402148,-0.3919743,-0.763177,-9.707752,-0.6241321,-0.39853248,2.6210659,-4.6156726,-1.6329857,0
0.2700000000000001,16.86732441994234,1.9712917260103258,-4.350153434628528,-1.0878095451521999,15.44933,1.5017788,-1.128357,-0.78752637,14.043563,-11.044271,1.1625224,-0.5276334,-0.048335332,-0.39006692,-0.75306964,-9.630271,-0.5300656,-0.38004503,2.519858,-4.5741134,-1.6062337,0
0.2800000000000001,16.43312888963027,0.09852768440013585,-2.3504341737138876,0.058148920784484415,15.875157,0.21725652,0.30653292,-0.3422254,13.947677,-11.049126,1.1588141,-0.54172575,-0.068894,-0.38761204,-0.7426595,-9.546132,-0.44179225,-0.36164045,2.434421,-4.5390573,-1.5807945,0
0.2900000000000001,16.43312888963027,0.09852768440013585,-2.3504341737138876,0.058148920784484415,15.875157,0.21725652,0.30653292,-0.3422254,13.852651,-11.053139,1.1552739,-0.55494916,-0.08817364,-0.38454336,-0.7323815,-9.458157,-0.36166117,-0.34643242,2.0707123,-4.1972585,-1.5003711,0
0.3000000000000001,16.43312888963027,0.09852768440013585,-2.3504341737138876,0.058148920784484415,15.875157,0.21725652,0.30653292,-0.3422254,13.758531,-11.056379,1.1518847,-0.5670909,-0.10547145,-0.38085273,-0.72265786,-9.364981,-0.28732634,-0.33142552,1.7636286,-3.9088588,-1.4238939,0
0.3100000000000001,16.43312888963027,0.09852768440013585,-2.3504341737138876,0.058148920784484415,15.875157,0.21725652,0.30653292,-0.3422254,13.665366,-11.058905,1.1486448,-0.57831573,-0.121098034,-0.37665802,-0.7134525,-9.267412,-0.2186028,-0.3165715,1.5043571,-3.665511,-1.3511697,0
0.3200000000000001,16.144618345903837,-2.063703054769992,0.06092797362227216,1.8956239765934453,15.984038,0.08462878,0.106784165,-0.20619331,13.573196,-11.06077,1.145553,-0.58875555,-0.135317,-0.37205037,-0.7047228,-9.166126,-0.15530606,-0.30181617,1.2854557,-3.460174,-1.282014,0
0.3300000000000001,16.144618345903837,-2.063703054769992,0.06092797362227216,1.8956239765934453,15.984038,0.08462878,0.106784165,-0.20619331,13.482053,-11.06203,1.142607,-0.59816474,-0.14725289,-0.36695793,-0.6970344,-9.062268,-0.097476244,-0.28762203,0.7428772,-2.9315474,-1.1280222,0
0.34000000000000014,16.144618345903837,-2.063703054769992,0.06092797362227216,1.8956239765934453,15.984038,0.08462878,0.106784165,-0.20619331,13.391953,-11.062737,1.1397965,-0.60633504,-0.15623482,-0.36144093,-0.6908752,-8.957461,-0.04485248,-0.27448574,0.30383244,-2.466461,-0.97983205,0
0.35000000000000014,16.144618345903837,-2.063703054769992,0.06092797362227216,1.8956239765934453,15.984038,0.08462878,0.106784165,-0.20619331,13.302908,-11.06294,1.1371186,-0.61343265,-0.1627469,-0.35565728,-0.68609136,-8.851463,0.0038360944,-0.26097152,-0.06493914,-2.072085,-0.83873254,0
0.36000000000000015,17.72414825916004,-4.0039080966595515,3.0491624912143966,2.2201579827399742,17.141516,-2.7530255,2.3558717,1.0424043,13.214926,-11.062672,1.1345795,-0.6196106,-0.16719808,-0.3496645,-0.6825408,-8.744809,0.049246974,-0.24670321,-0.3763096,-1.7393042,-0.7045569,0
0.37000000000000016,17.72414825916004,-4.0039080966595515,3.0491624912143966,2.2201579827399742,17.141516,-2.7530255,2.3558717,1.0424043,13.128063,-11.061942,1.1322433,-0.62467796,-0.16864747,-0.3437091,-0.6805874,-8.627649,0.09616116,-0.22035903,-0.94159204,-0.99237126,-0.5610403,0
0.38000000000000017,17.72414825916004,-4.0039080966595515,3.0491624912143966,2.2201579827399742,17.141516,-2.7530255,2.3558717,1.0424043,13.042369,-11.060754,1.1301774,-0.628489,-0.166365,-0.33799076,-0.6805044,-8.511299,0.14123684,-0.19258259,-1.4188927,-0.36204588,-0.4245661,0
0.3900000000000002,17.72414825916004,-4.0039080966595515,3.0491624912143966,2.2201579827399742,17.141516,-2.7530255,2.3558717,1.0424043,12.95783,-11.059119,1.1283977,-0.6311939,-0.16094467,-0.3324686,-0.682023,-8.39661,0.18559556,-0.16303916,-1.8218892,0.16988927,-0.2947887,0
0.4000000000000002,18.700153811759517,-4.8596519001297365,4.559064570537184,2.281754580702752,15.501637,-2.4465375,1.2254107,-0.33032343,12.874429,-11.057041,1.1269234,-0.63289666,-0.15288213,-0.3270952,-0.68489206,-8.28431,0.23018344,-0.13146897,-2.1621354,0.6188032,-0.17137954,0
0.4100000000000002,18.700153811759517,-4.8596519001297365,4.559064570537184,2.281754580702752,15.501637,-2.4465375,1.2254107,-0.33032343,12.792165,-11.0545,1.125812,-0.63351667,-0.14196281,-0.32196775,-0.689086,-8.16905,0.27834985,-0.0904187,-2.582837,1.2331306,-0.05100356,0
0.4200000000000002,18.700153811759517,-4.8596519001297365,4.559064570537184,2.281754580702752,15.501637,-2.4465375,1.2254107,-0.33032343,12.711034,-11.051467,1.1251235,-0.6329665,-0.12803064,-0.31714723,-0.6945349,-8.057817,0.32864618,-0.046869703,-2.9380164,1.751602,0.06346556,0
0.4300000000000002,18.700153811759517,-4.8596519001297365,4.559064570537184,2.281754580702752,15.501637,-2.4465375,1.2254107,-0.33032343,12.630992,-11.047916,1.1248834,-0.63129634,-0.11154814,-0.31253716,-0.70095795,-7.9514117,0.38198578,-0.0007521976,-3.237866,2.1891832,0.17231764,0
0.4400000000000002,18.700153811759517,-4.8596519001297365,4.559064570537184,2.281754580702752,15.0966,-2.3478737,1.0138018,-0.3112953,12.551988,-11.043814,1.1251172,-0.6285378,-0.09290792,-0.30805236,-0.7081043,-7.850578,0.43909547,0.047899228,-3.490995,2.558502,0.2758283,0
0.45000000000000023,18.700153811759517,-4.8596519001297365,4.559064570537184,2.281754580702752,15.0966,-2.3478737,1.0138018,-0.3112953,12.47396,-11.03912,1.1258496,-0.62471175,-0.07244542,-0.3036194,-0.71575254,-7.7560143,0.5005352,0.0989536,-3.7046752,2.8702133,0.37425968,0
0.46000000000000024,18.700153811759517,-4.8596519001297365,4.559064570537184,2.281754580702752,15.0966,-2.3478737,1.0138018,-0.3112953,12.396844,-11.033788,1.1271037,-0.61983365,-0.050449003,-0.29917657,-0.72370857,-7.66838,0.5667152,0.1521933,-3.8850472,3.1333084,0.467861,0
0.47000000000000025,18.700153811759517,-4.8596519001297365,4.559064570537184,2.281754580702752,15.0966,-2.3478737,1.0138018,-0.3112953,12.320566,-11.027769,1.1288999,-0.61391646,-0.027167937,-0.29467288,-0.73180324,-7.588293,0.63791096,0.20732446,-4.037298,3.3553743,0.5568693,0
0.48000000000000026,19.384344839453448,-4.800587013541031,4.897838170349229,2.165173718693173,14.068866,-1.5972048,1.6680013,-0.40119368,12.245049,-11.021011,1.1312554,-0.6069728,-0.0028189044,-0.29006717,-0.7398896,-7.516332,0.714277,0.26398754,-4.165807,3.542813,0.64150995,0
0.49000000000000027,19.384344839453448,-4.800587013541031,4.897838170349229,2.165173718693173,14.068866,-1.5972048,1.6680013,-0.40119368,12.170222,-11.013451,1.1342119,-0.59898704,0.02249938,-0.28542587,-0.7478235,-7.4507165,0.7988543,0.32746565,-4.2650704,3.7538795,0.7162765,0
0.5000000000000002,19.384344839453448,-4.800587013541031,4.897838170349229,2.165173718693173,14.068866,-1.5972048,1.6680013,-0.40119368,12.096003,-11.005016,1.1378069,-0.5899509,0.048694216,-0.2807993,-0.7554721,-7.394595,0.8888631,0.39158282,-4.348849,3.9320388,0.7873744,0
0.5100000000000002,19.384344839453448,-4.800587013541031,4.897838170349229,2.165173718693173,14.068866,-1.5972048,1.6680013,-0.40119368,12.022296,-10.995655,1.1420438,-0.5798885,0.07559517,-0.2761367,-0.76273376,-7.3484397,0.98423284,0.4557765,-4.4195538,4.082424,0.8549834,0
0.5200000000000002,19.121128327130137,-3.9474601791101707,4.227852761568984,1.9422610622309882,14.152236,-1.5860773,1.5189737,-0.29544446,11.948999,-10.985314,1.1469207,-0.56882435,0.10305119,-0.27139753,-0.76952076,-7.3126683,1.0847943,0.519455,-4.4792223,4.2093673,0.91927475,0
0.5300000000000002,19.121128327130137,-3.9474601791101707,4.227852761568984,1.9422610622309882,14.152236,-1.5860773,1.5189737,-0.29544446,11.876005,-10.973949,1.1524181,-0.55692035,0.13053665,-0.26666152,-0.77568746,-7.287948,1.188845,0.5798272,-4.396434,4.2121553,0.969473,0
0.5400000000000003,19.121128327130137,-3.9474601791101707,4.227852761568984,1.9422610622309882,14.152236,-1.5860773,1.5189737,-0.29544446,11.803205,-10.961521,1.1585115,-0.5443432,0.1576306,-0.26200637,-0.7811499,-7.2738614,1.2973511,0.6385047,-4.3265495,4.214513,1.017208,0
0.5500000000000003,19.121128327130137,-3.9474601791101707,4.227852761568984,1.9422610622309882,14.152236,-1.5860773,1.5189737,-0.29544446,11.730491,-10.9479885,1.1651807,-0.5311211,0.18434912,-0.257399,-0.78592044,-7.2703795,1.4098663,0.69493496,-4.2675567,4.216506,1.0626006,0
0.5600000000000003,17.995871025468958,-2.560741345180608,2.9076698530974756,1.6474078475793716,15.303958,-0.2208055,1.0571446,0.5296078,11.65776,-10.933312,1.1724007,-0.51727957,0.21070261,-0.25281155,-0.79000753,-7.277456,1.5259296,0.74859387,-4.217758,4.218191,1.1057658,0
0.5700000000000003,17.995871025468958,-2.560741345180608,2.9076698530974756,1.6474078475793716,15.303958,-0.2208055,1.0571446,0.5296078,11.584909,-10.917494,1.1800976,-0.5031329,0.23600684,-0.24838535,-0.79338646,-7.293933,1.6380423,0.7902641,-3.9592702,4.0139337,1.1323442,0
0.5800000000000003,17.995871025468958,-2.560741345180608,2.9076698530974756,1.6474078475793716,15.303958,-0.2208055,1.0571446,0.5296078,11.511848,-10.900543,1.1881944,-0.48897955,0.25973982,-0.24425389,-0.79609895,-7.31977,1.7525077,0.82857347,-3.7411065,3.8415112,1.1576185,0
0.5900000000000003,17.995871025468958,-2.560741345180608,2.9076698530974756,1.6474078475793716,15.303958,-0.2208055,1.0571446,0.5296078,11.438483,-10.882438,1.1966566,-0.47481316,0.28212485,-0.24038084,-0.7982321,-7.3544436,1.8688304,0.86330724,-3.5569775,3.695962,1.1816525,0
0.6000000000000003,17.036805232397292,-0.9440919673463073,1.2993309382018807,1.2900943964872575,15.824593,1.7156432,1.8127567,1.0368228,11.364731,-10.863162,1.2054476,-0.46062306,0.3033494,-0.23673183,-0.79985183,-7.39749,1.9865727,0.8942903,-3.401574,3.573097,1.2045074,0
0.6100000000000003,17.036805232397292,-0.9440919673463073,1.2993309382018807,1.2900943964872575,15.824593,1.7156432,1.8127567,1.0368228,11.290521,-10.842735,1.2144955,-0.4467908,0.32277548,-0.23348953,-0.8010468,-7.445716,2.099007,0.9147356,-3.0180619,3.2187965,1.2087071,0
0.6200000000000003,17.036805232397292,-0.9440919673463073,1.2993309382018807,1.2900943964872575,15.824593,1.7156432,1.8127567,1.0368228,11.215793,-10.82118,1.2237301,-0.4336559,0.33993313,-0.23081504,-0.8019426,-7.5006633,2.2120578,0.93162024,-2.6943996,2.9197042,1.2127007,0
0.6300000000000003,17.036805232397292,-0.9440919673463073,1.2993309382018807,1.2900943964872575,15.824593,1.7156432,1.8127567,1.0368228,11.140485,-10.798493,1.2331163,-0.4211401,0.35518977,-0.22864369,-0.8026224,-7.561573,2.3254478,0.9451204,-2.4212475,2.6672175,1.2164985,0
0.6400000000000003,17.036805232397292,-0.9440919673463073,1.2993309382018807,1.2900943964872575,15.76735,1.7043082,1.618298,1.1058402,11.064542,-10.774672,1.2426215,-0.40916777,0.36885175,-0.22691466,-0.8031434,-7.627808,2.4389672,0.955412,-2.1907227,2.4540737,1.2201098,0
0.6500000000000004,17.036805232397292,-0.9440919673463073,1.2993309382018807,1.2900943964872575,15.76735,1.7043082,1.618298,1.1058402,10.987912,-10.749714,1.2522141,-0.39766794,0.38117424,-0.22557203,-0.8035441,-7.6988316,2.5524566,0.96266246,-1.9961736,2.274142,1.223544,0
0.6600000000000004,17.036805232397292,-0.9440919673463073,1.2993309382018807,1.2900943964872575,15.76735,1.7043082,1.618298,1.1058402,10.910551,-10.723622,1.2618647,-0.3865758,0.39237,-0.2245651,-0.80385005,-7.7741942,2.665792,0.96702653,-1.8319857,2.1222477,1.2268096,0
0.6700000000000004,17.036805232397292,-0.9440919673463073,1.2993309382018807,1.2900943964872575,15.76735,1.7043082,1.618298,1.1058402,10.832417,-10.696399,1.271545,-0.37583306,0.4026163,-0.2238484,-0.80407774,-7.8535156,2.7788758,0.9686444,-1.6934209,1.9940215,1.229915,0
0.6800000000000004,16.1006529435408,0.5980469854001573,-0.2938243867218333,0.9292299927141918,15.189705,0.19149555,-2.4106476,0.5947653,10.75347,-10.668046,1.2812285,-0.36538786,0.41206092,-0.2233815,-0.80423737,-7.936477,2.8916295,0.9676405,-1.5764804,1.8857756,1.232868,0
0.6900000000000004,16.1006529435408,0.5980469854001573,-0.2938243867218333,0.9292299927141918,15.189705,0.19149555,-2.4106476,0.5947653,10.6737,-10.638598,1.2908633,-0.35563144,0.420104,-0.22337784,-0.80445063,-8.018015,2.9978242,0.9589633,-1.2370762,1.5461527,1.2179682,0
0.7000000000000004,16.1006529435408,0.5980469854001573,-0.2938243867218333,0.9292299927141918,15.189705,0.19149555,-2.4106476,0.5947653,10.5931015,-10.608091,1.300401,-0.34688917,0.42629343,-0.22401282,-0.80483514,-8.102133,3.1036808,0.94827664,-0.9506505,1.2594453,1.2037998,0
0.7100000000000004,16.1006529435408,0.5980469854001573,-0.2938243867218333,0.9292299927141918,15.189705,0.19149555,-2.4106476,0.5947653,10.511651,-10.576527,1.3098232,-0.33902463,0.4309371,-0.22519845,-0.8053824,-8.18827,3.2092652,0.9359373,-0.7089333,1.0174096,1.1903266,0
0.7200000000000004,15.585470432466556,1.973236209012002,-1.7962236072669273,0.5644632468627749,15.427721,-0.21451764,-2.5897937,0.7938208,10.429331,-10.543906,1.3191149,-0.3319173,0.43428954,-0.22685659,-0.8060764,-8.275964,3.3146532,0.92225236,-0.50494516,0.8130856,1.1775144,0
0.7300000000000004,15.585470432466556,1.973236209012002,-1.7962236072669273,0.5644632468627749,15.427721,-0.21451764,-2.5897937,0.7938208,10.346142,-10.51025,1.328251,-0.3258749,0.43590668,-0.22914533,-0.807021,-8.361941,3.416567,0.9048496,-0.11815399,0.40646446,1.1474319,0
0.7400000000000004,15.585470432466556,1.973236209012002,-1.7962236072669273,0.5644632468627749,15.427721,-0.21451764,-2.5897937,0.7938208,10.26209,-10.4755745,1.3372097,-0.32114202,0.43545082,-0.23218694,-0.808294,-8.4484005,3.5185382,0.8868582,0.208255,0.06319663,1.1188253,0
0.7500000000000004,15.585470432466556,1.973236209012002,-1.7962236072669273,0.5644632468627749,15.427721,-0.21451764,-2.5897937,0.7938208,10.177174,-10.439878,1.3459874,-0.31753138,0.43325415,-0.23586614,-0.8098342,-8.534742,3.620741,0.8686985,0.48371023,-0.2265867,1.0916226,0
0.7600000000000005,15.805397036790524,2.936973632852352,-2.9782527989473326,0.21823851598986171,14.215369,3.4239354,-4.216109,-0.23150234,10.091396,-10.403158,1.3545842,-0.31487948,0.42959052,-0.24008152,-0.8115807,-8.620457,3.7233322,0.8507151,0.7161672,-0.47121716,1.0657547,0
0.7700000000000005,15.805397036790524,2.936973632852352,-2.9782527989473326,0.21823851598986171,14.215369,3.4239354,-4.216109,-0.23150234,10.004762,-10.365402,1.3630091,-0.31335816,0.42419115,-0.2448907,-0.8135703,-8.706268,3.8279119,0.8343482,1.0627491,-0.8619758,1.0241668,0
0.7800000000000005,15.805397036790524,2.936973632852352,-2.9782527989473326,0.21823851598986171,14.215369,3.4239354,-4.216109,-0.23150234,9.917277,-10.326597,1.3712742,-0.313095,0.41684818,-0.25032917,-0.8158088,-8.790357,3.9332037,0.81885153,1.3552232,-1.1918476,0.98461974,0
0.7900000000000005,15.805397036790524,2.936973632852352,-2.9782527989473326,0.21823851598986171,14.215369,3.4239354,-4.216109,-0.23150234,9.828962,-10.286736,1.3793902,-0.31389657,0.40785033,-0.25628284,-0.81819665,-8.87212,4.0393605,0.8045715,1.602039,-1.4703172,0.94701314,0
0.8000000000000005,16.4175105533685,3.382507197200996,-3.558116448079125,-0.03328542411410514,15.110653,3.085189,-4.9559174,0.91614324,9.739844,-10.245807,1.3873708,-0.31559536,0.39743775,-0.26265225,-0.8206437,-8.951027,4.1464953,0.7917695,1.8103269,-1.7053922,0.91125196,0
0.8100000000000005,16.4175105533685,3.382507197200996,-3.558116448079125,-0.03328542411410514,15.110653,3.085189,-4.9559174,0.91614324,9.649939,-10.203781,1.3952482,-0.31820312,0.38557202,-0.26941139,-0.82310265,-9.029517,4.258877,0.78401214,2.055619,-1.9942398,0.8649032,0
0.8200000000000005,16.4175105533685,3.382507197200996,-3.558116448079125,-0.03328542411410514,15.110653,3.085189,-4.9559174,0.91614324,9.559267,-10.160625,1.4030577,-0.32171872,0.3722285,-0.27652887,-0.82551455,-9.103976,4.3724155,0.7781964,2.26262,-2.2380736,0.82082886,0
0.8300000000000005,16.4175105533685,3.382507197200996,-3.558116448079125,-0.03328542411410514,15.110653,3.085189,-4.9559174,0.91614324,9.467875,-10.116329,1.4108193,-0.32598957,0.35761207,-0.28391677,-0.82778937,-9.17387,4.4871335,0.7744675,2.4373095,-2.4439065,0.7789172,0
0.8400000000000005,16.4175105533685,3.382507197200996,-3.558116448079125,-0.03328542411410514,15.061263,3.0133934,-5.0713563,0.8922034,9.375807,-10.07088,1.4185544,-0.33088392,0.34189644,-0.29149926,-0.82984966,-9.238718,4.6030087,0.77289927,2.5847325,-2.617659,0.7390622,0
0.8500000000000005,16.4175105533685,3.382507197200996,-3.558116448079125,-0.03328542411410514,15.061263,3.0133934,-5.0713563,0.8922034,9.283117,-10.024265,1.4262848,-0.33628806,0.32522982,-0.299211,-0.8316299,-9.298093,4.719981,0.7735038,2.7091477,-2.7643297,0.7011629,0
0.8600000000000005,16.4175105533685,3.382507197200996,-3.558116448079125,-0.03328542411410514,15.061263,3.0133934,-5.0713563,0.8922034,9.189863,-9.976476,1.434032,-0.34210393,0.30773953,-0.306996,-0.8330752,-9.35161,4.8379555,0.77624077,2.8141465,-2.8881383,0.6651232,0
0.8700000000000006,16.4175105533685,3.382507197200996,-3.558116448079125,-0.03328542411410514,15.061263,3.0133934,-5.0713563,0.8922034,9.096106,-9.927503,1.4418168,-0.34824696,0.2895353,-0.31480628,-0.83414024,-9.3989315,4.956806,0.7810249,2.9027605,-2.9926474,0.6308521,0
0.8800000000000006,16.94288786624229,3.344165448517161,-3.6304368770806272,-0.2685817392969361,18.202204,1.7131455,-6.2637506,-0.22314264,9.001906,-9.877337,1.4496592,-0.3546441,0.27071238,-0.32260096,-0.8347877,-9.4397545,5.076382,0.7877329,2.9775476,-3.0808647,0.59826267,0
0.8900000000000006,16.94288786624229,3.344165448517161,-3.6304368770806272,-0.2685817392969361,18.202204,1.7131455,-6.2637506,-0.22314264,8.907329,-9.825954,1.4575945,-0.36126176,0.25134423,-0.3303141,-0.8349899,-9.474908,5.200352,0.7996217,3.0346673,-3.1666317,0.5557264,0
0.9000000000000006,16.94288786624229,3.344165448517161,-3.6304368770806272,-0.2685817392969361,18.202204,1.7131455,-6.2637506,-0.22314264,8.812434,-9.773329,1.4656571,-0.36807254,0.23149766,-0.33789062,-0.834722,-9.502851,5.324681,0.8131617,3.0828743,-3.2390254,0.5152774,0
0.9100000000000006,16.94288786624229,3.344165448517161,-3.6304368770806272,-0.2685817392969361,18.202204,1.7131455,-6.2637506,-0.22314264,8.717298,-9.71946,1.4738626,-0.37502548,0.21124105,-0.34531295,-0.8339613,-9.523379,5.449139,0.8281559,3.1235604,-3.3001304,0.47681317,0
0.9200000000000006,17.085289060915603,2.8126333356466793,-3.2261019084539813,-0.4342504617628573,18.214792,1.9325918,-6.2767553,-0.5423615,8.621993,-9.664347,1.4822245,-0.38207582,0.1906345,-0.3525662,-0.83269024,-9.536326,5.5734873,0.8443859,3.1579,-3.351706,0.44023645,0
0.9300000000000006,17.085289060915603,2.8126333356466793,-3.2261019084539813,-0.4342504617628573,18.214792,1.9325918,-6.2767553,-0.5423615,8.526597,-9.6079855,1.4907587,-0.3891062,0.16995545,-0.35952058,-0.83093673,-9.541623,5.698516,0.86258566,3.103957,-3.3322203,0.39732513,0
0.9400000000000006,17.085289060915603,2.8126333356466793,-3.2261019084539813,-0.4342504617628573,18.214792,1.9325918,-6.2767553,-0.5423615,8.431187,-9.550378,1.4994788,-0.39603263,0.14943372,-0.3660802,-0.8287414,-9.539192,5.822919,0.88154995,3.0584328,-3.3157644,0.3565195,0
0.9500000000000006,17.085289060915603,2.8126333356466793,-3.2261019084539813,-0.4342504617628573,18.214792,1.9325918,-6.2767553,-0.5423615,8.335839,-9.49153,1.5083915,-0.40286204,0.12905388,-0.37227902,-0.8261082,-9.529115,5.9464407,0.90103793,3.0200136,-3.301867,0.31771618,0
0.9600000000000006,16.75592713075764,1.9243298485299465,-2.5017205645015483,-0.5237166266783185,20.243622,1.3783208,-5.8336525,2.0237935,8.240631,-9.431454,1.5175006,-0.40959835,0.10880348,-0.37814587,-0.8230406,-9.511474,6.0688353,0.9208133,2.987591,-3.29013,0.28081697,0
0.9700000000000006,16.75592713075764,1.9243298485299465,-2.5017205645015483,-0.5237166266783185,20.243622,1.3783208,-5.8336525,2.0237935,8.145633,-9.370171,1.5267966,-0.41610834,0.08906211,-0.38353348,-0.819648,-9.4868765,6.1875343,0.93837446,2.8216717,-3.167281,0.24133827,0
0.9800000000000006,16.75592713075764,1.9243298485299465,-2.5017205645015483,-0.5237166266783185,20.243622,1.3783208,-5.8336525,2.0237935,8.050917,-9.307708,1.5362676,-0.422303,0.07013478,-0.38834003,-0.8160468,-9.455297,6.3046994,0.95580494,2.6816401,-3.063575,0.20379679,0
0.9900000000000007,16.75592713075764,1.9243298485299465,-2.5017205645015483,-0.5237166266783185,20.243622,1.3783208,-5.8336525,2.0237935,7.9565496,-9.244083,1.5459117,-0.42824066,0.051910453,-0.3926479,-0.81224495,-9.41708,6.4201627,0.9729449,2.563457,-2.9760296,0.16809748,0
1.0000000000000007,16.65288847268981,0.9522042765384569,-1.645411136785796,-0.5479330398706702,19.470129,2.0710766,-6.9728847,-0.093719944,7.8625965,-9.179312,1.555725,-0.43396753,0.034294114,-0.39652562,-0.80824655,-9.372529,6.533774,0.9896515,2.463713,-2.902127,0.13414995,0
1.0100000000000007,16.65288847268981,0.9522042765384569,-1.645411136785796,-0.5479330398706702,19.470129,2.0710766,-6.9728847,-0.093719944,7.7691174,-9.113418,1.5656992,-0.4393776,0.01765208,-0.3998681,-0.80420154,-9.322265,6.6447206,1.0050998,2.2279174,-2.7062125,0.10067995,0
1.0200000000000007,16.65288847268981,0.9522042765384569,-1.645411136785796,-0.5479330398706702,19.470129,2.0710766,-6.9728847,-0.093719944,7.6761694,-9.046424,1.5758249,-0.4444035,0.002270891,-0.40260777,-0.80025387,-9.266492,6.7536426,1.0199363,2.0289068,-2.5408368,0.06885232,0
1.0300000000000007,16.65288847268981,0.9522042765384569,-1.645411136785796,-0.5479330398706702,19.470129,2.0710766,-6.9728847,-0.093719944,7.583805,-8.978351,1.5860957,-0.44912702,-0.0120330285,-0.4048456,-0.79639125,-9.205688,6.8605146,1.034135,1.8609419,-2.4012403,0.038586486,0
1.0400000000000007,16.65288847268981,0.9522042765384569,-1.645411136785796,-0.5479330398706702,19.80692,2.3310897,-7.00107,-0.27977479,7.492072,-8.90922,1.5965053,-0.45361322,-0.025416167,-0.40666446,-0.7925982,-9.140263,6.965322,1.0476811,1.7191788,-2.283405,0.009805805,0
1.0500000000000007,16.65288847268981,0.9522042765384569,-1.645411136785796,-0.5479330398706702,19.80692,2.3310897,-7.00107,-0.27977479,7.4010143,-8.839051,1.6070471,-0.45791373,-0.03801173,-0.40813252,-0.7888578,-9.07056,7.068055,1.0605663,1.5995297,-2.1839397,-0.017562598,0
1.0600000000000007,16.65288847268981,0.9522042765384569,-1.645411136785796,-0.5479330398706702,19.80692,2.3310897,-7.00107,-0.27977479,7.3106737,-8.767865,1.6177143,-0.46206945,-0.049932975,-0.40930596,-0.7851534,-8.99688,7.1687074,1.0727853,1.4985449,-2.0999808,-0.043588046,0
1.0700000000000007,16.65288847268981,0.9522042765384569,-1.645411136785796,-0.5479330398706702,19.80692,2.3310897,-7.00107,-0.27977479,7.2210894,-8.6956835,1.6285005,-0.46611273,-0.061276153,-0.4102311,-0.78146863,-8.919469,7.2672734,1.0843341,1.4133124,-2.0291114,-0.06833639,0
1.0800000000000007,16.092578868264656,0.06913113039864567,-1.0412219620234975,-0.47025282196423857,18.336662,-1.5198753,-5.3198304,3.4404426,7.132296,-8.622527,1.6393986,-0.47006914,-0.07212298,-0.41094634,-0.7777886,-8.83855,7.3637476,1.0952085,1.3413752,-1.9692909,-0.09187035,0
1.0900000000000007,16.092578868264656,0.06913113039864567,-1.0412219620234975,-0.47025282196423857,18.336662,-1.5198753,-5.3198304,3.4404426,7.044315,-8.548431,1.650384,-0.47387984,-0.0821927,-0.4113233,-0.77427,-8.757171,7.454955,1.1017729,1.1429559,-1.8245611,-0.110437684,0
1.1000000000000008,16.092578868264656,0.06913113039864567,-1.0412219620234975,-0.47025282196423857,18.336662,-1.5198753,-5.3198304,3.4404426,6.9571624,-8.473434,1.6614321,-0.47750622,-0.09126769,-0.4112683,-0.77104795,-8.672939,7.5441923,1.1077788,0.97548264,-1.702399,-0.12809391,0
1.1100000000000008,16.092578868264656,0.06913113039864567,-1.0412219620234975,-0.47025282196423857,18.336662,-1.5198753,-5.3198304,3.4404426,6.870865,-8.397555,1.6725379,-0.48099163,-0.09949736,-0.41085544,-0.7680779,-8.586183,7.631521,1.1133295,0.83412856,-1.5992864,-0.14488375,0
1.1200000000000008,15.449287564901367,-0.7360600181009317,-0.41122326703035195,-0.3200328299098406,18.585896,-1.6554524,-5.4564543,3.593105,6.7854457,-8.320811,1.6836975,-0.48437005,-0.10700823,-0.41014555,-0.7653195,-8.497179,7.7169986,1.1185167,0.71482,-1.5122529,-0.1608497,0
1.1300000000000008,15.449287564901367,-0.7360600181009317,-0.41122326703035195,-0.3200328299098406,18.585896,-1.6554524,-5.4564543,3.593105,6.7009096,-8.243238,1.6948868,-0.48758674,-0.11356606,-0.40906364,-0.76290715,-8.409819,7.797341,1.1193155,0.48856717,-1.3405268,-0.16866085,0
1.1400000000000008,15.449287564901367,-0.7360600181009317,-0.41122326703035195,-0.3200328299098406,18.585896,-1.6554524,-5.4564543,3.593105,6.6172547,-8.16487,1.7060834,-0.49060187,-0.11899237,-0.40755573,-0.7609517,-8.320886,7.8760757,1.1200043,0.29759735,-1.1955831,-0.1760887,0
1.1500000000000008,15.449287564901367,-0.7360600181009317,-0.41122326703035195,-0.3200328299098406,18.585896,-1.6554524,-5.4564543,3.593105,6.5344954,-8.085722,1.7172872,-0.493458,-0.12346102,-0.40569466,-0.7593859,-8.230706,7.953323,1.1207385,0.13640817,-1.0732448,-0.18315208,0
1.1600000000000008,14.816248458459068,-1.4116189024510786,0.0999342793265756,-0.127618303612334,17.293293,-1.0139914,-3.68944,1.8531721,6.4526434,-8.005809,1.7284989,-0.4961884,-0.1271188,-0.4035401,-0.7581502,-8.139556,8.029187,1.1216532,0.00035538524,-0.9699868,-0.18986887,0
1.1700000000000008,14.816248458459068,-1.4116189024510786,0.0999342793265756,-0.127618303612334,17.293293,-1.0139914,-3.68944,1.8531721,6.371688,-7.925159,1.739701,-0.49875367,-0.12980989,-0.40103492,-0.7573399,-8.051447,8.100712,1.1188052,-0.21981895,-0.8031063,-0.1868142,0
1.1800000000000008,14.816248458459068,-1.4116189024510786,0.0999342793265756,-0.127618303612334,17.293293,-1.0139914,-3.68944,1.8531721,6.2916155,-7.8437996,1.7508767,-0.5011218,-0.13141812,-0.39813605,-0.75702864,-7.9629483,8.171136,1.1164153,-0.40566105,-0.66225564,-0.18390946,0
1.1900000000000008,14.816248458459068,-1.4116189024510786,0.0999342793265756,-0.127618303612334,17.293293,-1.0139914,-3.68944,1.8531721,6.212429,-7.7617407,1.7620314,-0.50332546,-0.13211107,-0.39490637,-0.7571377,-7.874351,8.240586,1.114643,-0.56252426,-0.5433747,-0.18114723,0
1.2000000000000008,13.361343772761842,-1.69948348411067,0.1590184876431886,0.06912691643604861,17.73211,-1.8804523,-3.5359519,3.6661975,6.1341286,-7.678991,1.7731721,-0.50539005,-0.13203005,-0.39139736,-0.7575985,-7.785902,8.3091755,1.113622,-0.6949274,-0.44303656,-0.17852056,0
1.2100000000000009,13.361343772761842,-1.69948348411067,0.1590184876431886,0.06912691643604861,17.73211,-1.8804523,-3.5359519,3.6661975,6.0566673,-7.5955925,1.7842588,-0.507323,-0.13122752,-0.38757285,-0.7584118,-7.7064652,8.370334,1.1038504,-0.8515736,-0.34913495,-0.16636842,0
1.2200000000000009,13.361343772761842,-1.69948348411067,0.1590184876431886,0.06912691643604861,17.73211,-1.8804523,-3.5359519,3.6661975,5.9799976,-7.5115867,1.7952522,-0.509127,-0.129752,-0.3834047,-0.7595745,-7.6275516,8.430865,1.0949739,-0.98379403,-0.2698818,-0.15481259,0
1.2300000000000009,13.361343772761842,-1.69948348411067,0.1590184876431886,0.06912691643604861,17.73211,-1.8804523,-3.5359519,3.6661975,5.904114,-7.426978,1.8061619,-0.5108137,-0.12770814,-0.37894264,-0.76102626,-7.5493402,8.490829,1.0870938,-1.0953972,-0.20299156,-0.1438238,0
1.2400000000000009,13.361343772761842,-1.69948348411067,0.1590184876431886,0.06912691643604861,17.080614,-2.0985727,-3.6355584,3.621282,5.829008,-7.3417726,1.8169979,-0.5123925,-0.12518421,-0.37422827,-0.7627153,-7.4719853,8.550272,1.0802908,-1.1895978,-0.14653541,-0.13337426,0
1.2500000000000009,13.361343772761842,-1.69948348411067,0.1590184876431886,0.06912691643604861,17.080614,-2.0985727,-3.6355584,3.621282,5.754671,-7.2559743,1.8277714,-0.5138709,-0.12225475,-0.3692965,-0.7645974,-7.39562,8.609228,1.0746286,-1.2691094,-0.09888571,-0.12343747,0
1.260000000000001,13.361343772761842,-1.69948348411067,0.1590184876431886,0.06912691643604861,17.080614,-2.0985727,-3.6355584,3.621282,5.681092,-7.169589,1.8384944,-0.51525503,-0.11898271,-0.36417672,-0.76663506,-7.3203607,8.667728,1.0701563,-1.3362225,-0.058668505,-0.11398829,0
1.270000000000001,13.361343772761842,-1.69948348411067,0.1590184876431886,0.06912691643604861,17.080614,-2.0985727,-3.6355584,3.621282,5.6082597,-7.0826216,1.8491787,-0.51654994,-0.115421236,-0.35889372,-0.76879644,-7.2463098,8.725792,1.0669103,-1.3928704,-0.024724275,-0.105002776,0
1.280000000000001,11.530011215016437,-1.5907272532678676,-0.31203910709568716,0.26110998095005356,13.650988,-2.0380824,-3.2054346,3.1940086,5.5361614,-6.995075,1.8598368,-0.5177601,-0.11161525,-0.3534685,-0.77105457,-7.1735563,8.783438,1.0649163,-1.4406846,0.0039257016,-0.09645818,0
1.290000000000001,11.530011215016437,-1.5907272532678676,-0.31203910709568716,0.26110998095005356,13.650988,-2.0380824,-3.2054346,3.1940086,5.464735,-6.9069934,1.8704149,-0.51893234,-0.10777914,-0.34785226,-0.773363,-7.111958,8.832821,1.0508449,-1.4640862,-0.045364007,-0.078912206,0
1.300000000000001,11.530011215016437,-1.5907272532678676,-0.31203910709568716,0.26110998095005356,13.650988,-2.0380824,-3.2054346,3.1940086,5.393918,-6.81842,1.8808576,-0.520101,-0.104086466,-0.3420072,-0.77568716,-7.051564,8.881796,1.0378793,-1.483837,-0.08696685,-0.06222722,0
1.310000000000001,11.530011215016437,-1.5907272532678676,-0.31203910709568716,0.26110998095005356,13.650988,-2.0380824,-3.2054346,3.1940086,5.3236995,-6.729359,1.8911762,-0.52125275,-0.10051705,-0.33596474,-0.7780219,-6.9923835,8.9303055,1.0260254,-1.5005068,-0.12208158,-0.046360977,0
1.320000000000001,9.88344598617587,-1.4170548095883024,-0.7419446431208522,0.4615961877848792,13.133647,-1.7264168,-3.2823975,2.9033525,5.254066,-6.639816,1.9013819,-0.5223768,-0.09705362,-0.3297516,-0.78036237,-6.934427,8.978299,1.0152844,-1.5145762,-0.1517197,-0.03127329,0
1.330000000000001,9.88344598617587,-1.4170548095883024,-0.7419446431208522,0.4615961877848792,13.133647,-1.7264168,-3.2823975,2.9033525,5.184966,-6.549829,1.9114227,-0.5234949,-0.09386028,-0.3233526,-0.78267807,-6.885799,9.01895,0.9930189,-1.499366,-0.2437889,-0.0070880316,0
1.340000000000001,9.88344598617587,-1.4170548095883024,-0.7419446431208522,0.4615961877848792,13.133647,-1.7264168,-3.2823975,2.9033525,5.116347,-6.459439,1.9212455,-0.5246209,-0.09106773,-0.3167569,-0.7849478,-6.8381963,9.059042,0.9716964,-1.4865253,-0.32149833,0.015910435,0
1.350000000000001,9.88344598617587,-1.4170548095883024,-0.7419446431208522,0.4615961877848792,13.133647,-1.7264168,-3.2823975,2.9033525,5.048198,-6.368651,1.9308598,-0.52573645,-0.08861697,-0.30999154,-0.7871797,-6.7915854,9.0984955,0.9513063,-1.4756854,-0.3870875,0.03778037,0
1.360000000000001,8.897489169879536,-1.3989554752639424,-0.9807332071813417,0.6696155769626799,14.169315,-2.017587,-2.4403274,2.7662244,4.9805117,-6.2774715,1.9402747,-0.5268266,-0.08645779,-0.3030793,-0.7893796,-6.7459407,9.137248,0.9318367,-1.4665346,-0.442447,0.058577146,0
1.370000000000001,8.897489169879536,-1.3989554752639424,-0.9807332071813417,0.6696155769626799,14.169315,-2.017587,-2.4403274,2.7662244,4.913254,-6.1859274,1.94946,-0.527887,-0.08463452,-0.29599267,-0.7915548,-6.705697,9.171451,0.90534025,-1.4559823,-0.5264205,0.08856097,0
1.380000000000001,8.897489169879536,-1.3989554752639424,-0.9807332071813417,0.6696155769626799,14.169315,-2.017587,-2.4403274,2.7662244,4.8463945,-6.094045,1.9583843,-0.5289103,-0.08318078,-0.2887104,-0.7937125,-6.666275,9.2049,0.87965125,-1.4470739,-0.5972966,0.11707349,0
1.390000000000001,8.897489169879536,-1.3989554752639424,-0.9807332071813417,0.6696155769626799,14.169315,-2.017587,-2.4403274,2.7662244,4.779926,-6.001832,1.9670558,-0.52988136,-0.08204247,-0.28125885,-0.7958559,-6.627648,9.237533,0.8547591,-1.4395539,-0.65711826,0.14418688,0
1.400000000000001,8.056161790912014,-1.307474689582621,-0.8950148256731029,0.8489679891833907,13.839758,-2.0156715,-3.4121056,3.520685,4.7138395,-5.9092975,1.9754822,-0.53078836,-0.08117348,-0.27366045,-0.79798675,-6.589796,9.269294,0.8306512,-1.4332061,-0.70760936,0.16996984,0
1.410000000000001,8.056161790912014,-1.307474689582621,-0.8950148256731029,0.8489679891833907,13.839758,-2.0156715,-3.4121056,3.520685,4.6481104,-5.8164644,1.9836361,-0.5315922,-0.080532566,-0.2659799,-0.80011076,-6.5562105,9.29722,0.800243,-1.4135793,-0.73686373,0.20328847,0
1.420000000000001,8.056161790912014,-1.307474689582621,-0.8950148256731029,0.8489679891833907,13.839758,-2.0156715,-3.4121056,3.520685,4.5827136,-5.7233562,1.9914894,-0.53226024,-0.08008532,-0.2582698,-0.8022346,-6.5232964,9.324285,0.7705112,-1.3970135,-0.76155406,0.23497215,0
1.430000000000001,8.056161790912014,-1.307474689582621,-0.8950148256731029,0.8489679891833907,13.839758,-2.0156715,-3.4121056,3.520685,4.517642,-5.6299825,1.9990487,-0.5327932,-0.079804465,-0.25053132,-0.80436,-6.4910407,9.350466,0.7414342,-1.3830316,-0.78239226,0.26510108,0
1.440000000000001,8.056161790912014,-1.307474689582621,-0.8950148256731029,0.8489679891833907,12.917454,-1.7693462,-3.1156151,3.1598294,4.45289,-5.5363503,2.0063202,-0.5331923,-0.0796666,-0.24276552,-0.8064877,-6.459432,9.375742,0.71299094,-1.3712306,-0.7999793,0.29375157,0
1.450000000000001,8.056161790912014,-1.307474689582621,-0.8950148256731029,0.8489679891833907,12.917454,-1.7693462,-3.1156151,3.1598294,4.3884506,-5.4424706,2.0133104,-0.53345925,-0.07965164,-0.2349734,-0.8086177,-6.4284625,9.400095,0.6851608,-1.3612705,-0.8148223,0.32099622,0
1.460000000000001,8.056161790912014,-1.307474689582621,-0.8950148256731029,0.8489679891833907,12.917454,-1.7693462,-3.1156151,3.1598294,4.324318,-5.348352,2.0200253,-0.53359634,-0.079742335,-0.22715594,-0.8107494,-6.3981237,9.423509,0.65792316,-1.3528646,-0.82734936,0.34690395,0
1.470000000000001,8.056161790912014,-1.307474689582621,-0.8950148256731029,0.8489679891833907,12.917454,-1.7693462,-3.1156151,3.1598294,4.2604856,-5.254004,2.0264707,-0.5336058,-0.07992382,-0.21931402,-0.8128817,-6.368411,9.445967,0.63125765,-1.3457702,-0.83792186,0.3715404,0
1.480000000000001,7.512096633000621,-1.2476507129851586,-0.7400694339452284,0.9838255688254799,10.779128,-0.43317646,-2.3815577,1.3740182,4.1969476,-5.159436,2.0326521,-0.53349036,-0.080183305,-0.21144854,-0.8150131,-6.339319,9.467455,0.605144,-1.339783,-0.84684443,0.39496794,0
1.490000000000001,7.512096633000621,-1.2476507129851586,-0.7400694339452284,0.9838255688254799,10.779128,-0.43317646,-2.3815577,1.3740182,4.1336875,-5.0646653,2.0385509,-0.53322434,-0.080475435,-0.20361166,-0.8171511,-6.3127685,9.486576,0.5746641,-1.3254036,-0.83021426,0.42386338,0
1.500000000000001,7.512096633000621,-1.2476507129851586,-0.7400694339452284,0.9838255688254799,10.779128,-0.43317646,-2.3815577,1.3740182,4.0706897,-4.969708,2.044147,-0.53278726,-0.080763735,-0.1958449,-0.81930333,-6.286792,9.504786,0.5446573,-1.3132672,-0.8161764,0.45134085,0
1.5100000000000011,7.512096633000621,-1.2476507129851586,-0.7400694339452284,0.9838255688254799,10.779128,-0.43317646,-2.3815577,1.3740182,4.0079494,-4.8745728,2.0494454,-0.53218865,-0.0810499,-0.18813476,-0.821468,-6.261389,9.522089,0.51510155,-1.303024,-0.8043268,0.47747004,0
1.5200000000000011,7.181451935463241,-1.2561636034597914,-0.3120273202709291,1.09612115461709,10.400047,-0.4304772,-2.2031493,1.0204172,3.94546,-4.779269,2.0544505,-0.5314371,-0.08133512,-0.1804699,-0.8236432,-6.236558,9.53849,0.48597595,-1.2943789,-0.79432416,0.5023171,0
1.5300000000000011,7.181451935463241,-1.2561636034597914,-0.3120273202709291,1.09612115461709,10.400047,-0.4304772,-2.2031493,1.0204172,3.8832111,-4.6838098,2.059151,-0.53049874,-0.08147971,-0.17292792,-0.8258489,-6.213368,9.553313,0.4542062,-1.2884302,-0.71913266,0.5314552,0
1.5400000000000011,7.181451935463241,-1.2561636034597914,-0.3120273202709291,1.09612115461709,10.400047,-0.4304772,-2.2031493,1.0204172,3.821191,-4.5882063,2.0635357,-0.52934825,-0.08137278,-0.1655698,-0.8281025,-6.190741,9.567315,0.4228086,-1.2834083,-0.65566635,0.5591636,0
1.5500000000000012,7.181451935463241,-1.2561636034597914,-0.3120273202709291,1.09612115461709,10.400047,-0.4304772,-2.2031493,1.0204172,3.7593946,-4.4924664,2.0676084,-0.528004,-0.08105387,-0.15836444,-0.83039814,-6.1686945,9.580532,0.39176452,-1.2791686,-0.60209656,0.5855123,0
1.5600000000000012,7.487729941595791,-1.434850798092793,0.22766466153787823,1.2457106568100094,9.500456,-0.49109513,-2.0086455,1.1762156,3.6978157,-4.396598,2.0713723,-0.5264814,-0.08055625,-0.15128571,-0.8327298,-6.147242,9.592994,0.36105692,-1.275589,-0.55687994,0.610568,0
1.5700000000000012,7.487729941595791,-1.434850798092793,0.22766466153787823,1.2457106568100094,9.500456,-0.49109513,-2.0086455,1.1762156,3.6364524,-4.3006067,2.0748448,-0.52475196,-0.07969308,-0.14436404,-0.8351297,-6.1255126,9.605233,0.3335584,-1.3004655,-0.43456686,0.6417346,0
1.5800000000000012,7.487729941595791,-1.434850798092793,0.22766466153787823,1.2457106568100094,9.500456,-0.49109513,-2.0086455,1.1762156,3.575303,-4.2044964,2.0780442,-0.52279335,-0.07831741,-0.13762169,-0.8376228,-6.104465,9.616774,0.30638328,-1.3214594,-0.33132645,0.6713719,0
1.5900000000000012,7.487729941595791,-1.434850798092793,0.22766466153787823,1.2457106568100094,9.500456,-0.49109513,-2.0086455,1.1762156,3.5143607,-4.1082735,2.0809734,-0.52062565,-0.076508895,-0.13102749,-0.8401937,-6.084147,9.627673,0.27952173,-1.339176,-0.24418445,0.69955486,0
1.6000000000000012,8.554006477069768,-1.802172734833192,0.8707960451109948,1.4726672376989531,12.216868,0.21777768,-3.0505433,1.7129574,3.4536176,-4.011945,2.0836356,-0.51826555,-0.074334726,-0.124555334,-0.8428283,-6.0645995,9.637978,0.25296354,-1.3541269,-0.17063038,0.7263549,0
1.6100000000000012,8.554006477069768,-1.802172734833192,0.8707960451109948,1.4726672376989531,12.216868,0.21777768,-3.0505433,1.7129574,3.3930793,-3.915509,2.0860846,-0.5156825,-0.07156182,-0.11819032,-0.84556484,-6.043197,9.64912,0.23692916,-1.4240758,-0.008287303,0.7629767,0
1.6200000000000012,8.554006477069768,-1.802172734833192,0.8707960451109948,1.4726672376989531,12.216868,0.21777768,-3.0505433,1.7129574,3.33275,-3.8189645,2.088375,-0.51284945,-0.06800806,-0.11191791,-0.8484298,-6.022819,9.659709,0.221228,-1.4831107,0.12874226,0.7978014,0
1.6300000000000012,8.554006477069768,-1.802172734833192,0.8707960451109948,1.4726672376989531,12.216868,0.21777768,-3.0505433,1.7129574,3.272619,-3.7223165,2.0905104,-0.50978357,-0.063794464,-0.10571894,-0.85139465,-6.003564,9.669816,0.20585671,-1.5329334,0.24440628,0.8309172,0
1.6400000000000012,8.554006477069768,-1.802172734833192,0.8707960451109948,1.4726672376989531,14.717405,0.18151279,-3.8550026,2.2277021,3.2126744,-3.6255698,2.0924935,-0.506499,-0.05902323,-0.09957765,-0.8544341,-5.985517,9.6795,0.19080782,-1.574981,0.3420364,0.8624081,0
1.6500000000000012,8.554006477069768,-1.802172734833192,0.8707960451109948,1.4726672376989531,14.717405,0.18151279,-3.8550026,2.2277021,3.1529043,-3.5287282,2.0943274,-0.50300753,-0.05378073,-0.09348126,-0.85752577,-5.968752,9.688805,0.17607011,-1.6104659,0.42444476,0.8923537,0
1.6600000000000013,8.554006477069768,-1.802172734833192,0.8707960451109948,1.4726672376989531,14.717405,0.18151279,-3.8550026,2.2277021,3.0932949,-3.4317951,2.0960157,-0.49931934,-0.048139956,-0.08741944,-0.8606502,-5.9533305,9.697766,0.16162893,-1.6404121,0.4940051,0.9208299,0
1.6700000000000013,8.554006477069768,-1.802172734833192,0.8707960451109948,1.4726672376989531,14.717405,0.18151279,-3.8550026,2.2277021,3.0338328,-3.334774,2.0975611,-0.49544302,-0.042162642,-0.08138394,-0.86379015,-5.9393067,9.70641,0.14746667,-1.6656834,0.552721,0.94790876,0
1.6800000000000013,9.780265742660607,-2.1648401073844403,1.270966468197011,1.6819124418982463,15.559569,-0.8456883,-4.026779,2.6239336,2.9745038,-3.237668,2.0989661,-0.49138632,-0.03590102,-0.07536823,-0.86693054,-5.9267254,9.714752,0.13356309,-1.6870095,0.6022831,0.9736588,0
1.6900000000000013,9.780265742660607,-2.1648401073844403,1.270966468197011,1.6819124418982463,15.559569,-0.8456883,-4.026779,2.6239336,2.9153013,-3.1404743,2.1002936,-0.48712614,-0.029191101,-0.06931861,-0.8700857,-5.914044,9.723962,0.13200042,-1.7616088,0.7064769,1.008413,0
1.7000000000000013,9.780265742660607,-2.1648401073844403,1.270966468197011,1.6819124418982463,15.559569,-0.8456883,-4.026779,2.6239336,2.856217,-3.04319,2.1016068,-0.48263904,-0.021905428,-0.06319105,-0.87326103,-5.9031625,9.732868,0.13068555,-1.8245672,0.79442817,1.0414618,0
1.7100000000000013,9.780265742660607,-2.1648401073844403,1.270966468197011,1.6819124418982463,15.559569,-0.8456883,-4.026779,2.6239336,2.7972317,-2.945818,2.1029081,-0.47793114,-0.014134146,-0.056994457,-0.8764313,-5.8941827,9.741489,0.12959109,-1.8777007,0.8686695,1.072889,0
1.7200000000000013,11.056767064543692,-2.325816910355994,1.6322436942472,1.7678264446169312,14.400038,-0.7758461,-2.5013902,1.6864619,2.7383263,-2.848361,2.1041994,-0.47300807,-0.005953598,-0.05073706,-0.8795748,-5.887188,9.749837,0.12868378,-1.9225416,0.9313388,1.1027739,0
1.7300000000000013,11.056767064543692,-2.325816910355994,1.6322436942472,1.7678264446169312,14.400038,-0.7758461,-2.5013902,1.6864619,2.6794844,-2.7508166,2.1055458,-0.46785852,0.0027286778,-0.044437703,-0.88268024,-5.8816133,9.758972,0.14063026,-1.9855326,1.0405574,1.1354082,0
1.7400000000000013,11.056767064543692,-2.325816910355994,1.6322436942472,1.7678264446169312,14.400038,-0.7758461,-2.5013902,1.6864619,2.6206858,-2.6531823,2.1070123,-0.46247157,0.011982416,-0.038111184,-0.8857326,-5.878483,9.767827,0.15269603,-2.0386908,1.1327502,1.1664411,0
1.7500000000000013,11.056767064543692,-2.325816910355994,1.6322436942472,1.7678264446169312,14.400038,-0.7758461,-2.5013902,1.6864619,2.5619059,-2.555461,2.1086,-0.4568529,0.021717012,-0.03175966,-0.8887088,-5.8779044,9.776422,0.16482522,-2.0835502,1.2105718,1.1959513,0
1.7600000000000013,12.083945260595412,-2.415343176317346,1.4970830428709738,1.7966824321618193,14.696493,0.050512984,-2.2774165,1.00114,2.5031185,-2.457655,2.110309,-0.45100793,0.031855475,-0.025385775,-0.8915889,-5.8799663,9.784762,0.17695595,-2.1214058,1.276263,1.2240134,0
1.7700000000000014,12.083945260595412,-2.415343176317346,1.4970830428709738,1.7966824321618193,14.696493,0.050512984,-2.2774165,1.00114,2.4442952,-2.359763,2.11219,-0.44493857,0.042299997,-0.018936401,-0.89436007,-5.885187,9.793595,0.19925603,-2.1672966,1.3106235,1.2521145,0
1.7800000000000014,12.083945260595412,-2.415343176317346,1.4970830428709738,1.7966824321618193,14.696493,0.050512984,-2.2774165,1.00114,2.3854043,-2.261784,2.1142936,-0.43864602,0.05296876,-0.01237064,-0.8970112,-5.8934393,9.802112,0.22140913,-2.2060263,1.3396317,1.2788365,0
1.7900000000000014,12.083945260595412,-2.415343176317346,1.4970830428709738,1.7966824321618193,14.696493,0.050512984,-2.2774165,1.00114,2.3264155,-2.163722,2.1166177,-0.4321346,0.06382277,-0.005707997,-0.89952874,-5.904773,9.810266,0.24333599,-2.2387123,1.364122,1.3042473,0
1.8000000000000014,12.6765961681564,-2.469517562662168,0.8767697535011659,1.7448567456535513,14.463195,0.8096051,-3.050174,0.9221411,2.2672982,-2.0655806,2.1191595,-0.42540896,0.0748287,0.0010344823,-0.90190077,-5.919227,9.818012,0.2649543,-2.266297,1.3847982,1.3284112,0
1.8100000000000014,12.6765961681564,-2.469517562662168,0.8767697535011659,1.7448567456535513,14.463195,0.8096051,-3.050174,0.9221411,2.2080164,-1.9673618,2.1219447,-0.41847762,0.085743085,0.007966801,-0.90413463,-5.9376826,9.825648,0.29203352,-2.297938,1.3055134,1.3488463,0
1.8200000000000014,12.6765961681564,-2.469517562662168,0.8767697535011659,1.7448567456535513,14.463195,0.8096051,-3.050174,0.9221411,2.1485333,-1.8690697,2.124998,-0.41134882,0.09637064,0.015173103,-0.9062411,-5.959396,9.8326645,0.31862527,-2.3246524,1.238598,1.3682787,0
1.8300000000000014,12.6765961681564,-2.469517562662168,0.8767697535011659,1.7448567456535513,14.463195,0.8096051,-3.050174,0.9221411,2.0888174,-1.7707111,2.1283147,-0.40402707,0.10675006,0.022604968,-0.9082147,-5.984314,9.838925,0.34465677,-2.347208,1.1821227,1.3867575,0
1.8400000000000014,12.6765961681564,-2.469517562662168,0.8767697535011659,1.7448567456535513,13.52384,0.8584768,-3.6104043,1.0319668,2.0288365,-1.6722941,2.1318889,-0.39651746,0.116914004,0.030221468,-0.9100495,-6.012383,9.844308,0.37005532,-2.3662522,1.1344588,1.4043295,0
1.8500000000000014,12.6765961681564,-2.469517562662168,0.8767697535011659,1.7448567456535513,13.52384,0.8584768,-3.6104043,1.0319668,1.9685591,-1.5738282,2.1357133,-0.38882524,0.12688988,0.03798796,-0.9117396,-6.0435495,9.8487015,0.39474824,-2.3823316,1.0942316,1.4210393,0
1.8600000000000014,12.6765961681564,-2.469517562662168,0.8767697535011659,1.7448567456535513,13.52384,0.8584768,-3.6104043,1.0319668,1.9079549,-1.4753238,2.139781,-0.38095593,0.13670073,0.04587509,-0.9132794,-6.0777574,9.852006,0.41866308,-2.3959076,1.0602813,1.4369291,0
1.8700000000000014,12.6765961681564,-2.469517562662168,0.8767697535011659,1.7448567456535513,13.52384,0.8584768,-3.6104043,1.0319668,1.8469937,-1.3767922,2.1440837,-0.37291518,0.14636584,0.05385796,-0.91466326,-6.1149516,9.854132,0.44172752,-2.4073703,1.0316285,1.4520392,0
1.8800000000000014,12.516373042986388,-2.263633800436983,-0.03689812851002122,1.5310928600772202,14.4347105,0.6511193,-3.7956185,0.5139395,1.7856458,-1.2782456,2.1486123,-0.36470866,0.15590121,0.061915375,-0.9158859,-6.1550746,9.854996,0.4638695,-2.417049,1.0074464,1.4664078,0
1.8900000000000015,12.516373042986388,-2.263633800436983,-0.03689812851002122,1.5310928600772202,14.4347105,0.6511193,-3.7956185,0.5139395,1.723885,-1.1796969,2.1533499,-0.35635653,0.16495393,0.070090145,-0.91699815,-6.1975083,9.854516,0.48351642,-2.39297,0.84459955,1.469582,0
1.9000000000000015,12.516373042986388,-2.263633800436983,-0.03689812851002122,1.5310928600772202,14.4347105,0.6511193,-3.7956185,0.5139395,1.6616865,-1.0811603,2.1582792,-0.3478794,0.17324592,0.07841288,-0.9180497,-6.2425866,9.852568,0.50216085,-2.37267,0.70714504,1.4726003,0
1.9100000000000015,12.516373042986388,-2.263633800436983,-0.03689812851002122,1.5310928600772202,14.4347105,0.6511193,-3.7956185,0.5139395,1.5990248,-0.98265105,2.1633897,-0.33928326,0.1808902,0.08685122,-0.9190324,-6.290123,9.849012,0.51978827,-2.3555555,0.591124,1.4754705,0
1.9200000000000015,12.063901423940335,-1.817471250949028,-0.7320384753043514,1.1825074972014114,15.593431,0.81422514,-4.488445,0.2512821,1.5358762,-0.88418597,2.1686714,-0.33057365,0.187982,0.09537838,-0.9199374,-6.339948,9.843732,0.5363826,-2.341127,0.493194,1.4781998,0
1.9300000000000015,12.063901423940335,-1.817471250949028,-0.7320384753043514,1.1825074972014114,15.593431,0.81422514,-4.488445,0.2512821,1.4722278,-0.78578144,2.1740935,-0.32180306,0.1942833,0.10390711,-0.92081386,-6.390014,9.83688,0.5478252,-2.2592764,0.30221966,1.4636902,0
1.9400000000000015,12.063901423940335,-1.817471250949028,-0.7320384753043514,1.1825074972014114,15.593431,0.81422514,-4.488445,0.2512821,1.4080697,-0.6874547,2.179625,-0.31302044,0.19961149,0.112366825,-0.9217078,-6.4418817,9.828169,0.55829334,-2.1902223,0.14101325,1.4498924,0
1.9500000000000015,12.063901423940335,-1.817471250949028,-0.7320384753043514,1.1825074972014114,15.593431,0.81422514,-4.488445,0.2512821,1.3433849,-0.58922476,2.1852565,-0.30422577,0.20411459,0.12076011,-0.92260444,-6.4953094,9.817515,0.56782806,-2.1319635,0.004934527,1.4367718,0
1.9600000000000015,10.982635393213805,-1.4539581591296435,-1.7023406138819095,0.7775619919431461,13.734156,-0.6706986,-2.9143887,0.8499681,1.2781589,-0.49111128,2.1909788,-0.295419,0.20791715,0.12908989,-0.92348903,-6.5500846,9.804853,0.576464,-2.082812,-0.10993327,1.4242951,0
1.9700000000000015,10.982635393213805,-1.4539581591296435,-1.7023406138819095,0.7775619919431461,13.734156,-0.6706986,-2.9143887,0.8499681,1.2124043,-0.3931283,2.1967354,-0.286626,0.21071632,0.13734865,-0.92443365,-6.600991,9.791442,0.5747493,-1.9845196,-0.35813618,1.3925596,0
1.9800000000000015,10.982635393213805,-1.4539581591296435,-1.7023406138819095,0.7775619919431461,13.734156,-0.6706986,-2.9143887,0.8499681,1.1461363,-0.29528922,2.2024715,-0.27787152,0.21227746,0.14552903,-0.9254972,-6.652671,9.7760725,0.57232773,-1.9015998,-0.56765145,1.3623816,0
1.9900000000000015,10.982635393213805,-1.4539581591296435,-1.7023406138819095,0.7775619919431461,13.734156,-0.6706986,-2.9143887,0.8499681,1.0793489,-0.19761388,2.2081802,-0.2691538,0.21278842,0.15363467,-0.92664546,-6.7048593,9.758675,0.5692814,-1.8316472,-0.7445094,1.3336843,0
2.0000000000000013,,,,,13.268548,-1.8214394,-2.8395069,0.50582373,1.0120382,-0.100122884,2.2138555,-0.26047108,0.21240708,0.1616693,-0.9278465,-6.7573233,9.739197,0.56567806,-1.7726331,-0.8937999,1.3063952,0
2.010000000000001,,,,,13.268548,-1.8214394,-2.8395069,0.50582373,0.94421893,-0.0028305147,2.2194626,-0.251846,0.2109195,0.16960934,-0.9291487,-6.8065224,9.718964,0.55563265,-1.6712258,-1.1473744,1.25912,0
2.020000000000001,,,,,13.268548,-1.8214394,-2.8395069,0.50582373,0.8759085,0.0942494,2.2249672,-0.24329993,0.20816146,0.17743455,-0.93058527,-6.8555145,9.696698,0.54521114,-1.5856781,-1.3614255,1.2141646,0
2.0300000000000007,,,,,13.268548,-1.8214394,-2.8395069,0.50582373,0.80711025,0.19109634,2.230366,-0.23482974,0.20432204,0.18515319,-0.93210715,-6.9040437,9.672365,0.5344967,-1.513507,-1.5421127,1.1714153,0
2.0400000000000005,,,,,13.268548,-1.8214394,-2.8395069,0.50582373,0.73783,0.28768954,2.2356563,-0.2264325,0.1995605,0.19277243,-0.9336705,-6.9518857,9.645942,0.5235536,-1.4526196,-1.694636,1.1307636,0
2.0500000000000003,,,,,13.595332,-1.680548,-3.3273113,0.7180291,0.66807556,0.38400796,2.2408361,-0.21810575,0.19401099,0.20029867,-0.9352368,-6.9988437,9.617418,0.51242894,-1.40125,-1.8233852,1.0921068,1
2.06,,,,,13.595332,-1.680548,-3.3273113,0.7180291,0.5977826,0.47998193,2.2460437,-0.20969495,0.1875414,0.20800573,-0.9367965,-7.0594883,9.576928,0.5290688,-1.4446642,-2.0579352,1.0737507,1
2.07,,,,,13.595332,-1.680548,-3.3273113,0.7180291,0.5268916,0.57553643,2.251417,-0.2010672,0.18004951,0.2161043,-0.93832344,-7.118437,9.533521,0.54552585,-1.4813372,-2.2559025,1.0562954,1
2.0799999999999996,,,,,13.595332,-1.680548,-3.3273113,0.7180291,0.4554207,0.6706417,2.2569537,-0.19225018,0.17168109,0.22451445,-0.939764,-7.175404,9.487072,0.561791,-1.5123152,-2.422993,1.0396966,1
2.0899999999999994,,,,,13.08435,-1.9695803,-4.4362326,0.4811351,0.38339114,0.76526695,2.262652,-0.183268,0.16256012,0.23316854,-0.94107234,-7.2301316,9.437492,0.57783496,-1.5384818,-2.5640228,1.0239123,1
2.099999999999999,,,,,13.08435,-1.9695803,-4.4362326,0.4811351,0.31083652,0.8593904,2.2684882,-0.17404543,0.15238766,0.24220158,-0.9422432,-7.2803993,9.386697,0.5893327,-1.6055659,-2.85601,0.99727815,1
2.109999999999999,,,,,13.08435,-1.9695803,-4.4362326,0.4811351,0.23779266,0.9529899,2.2744374,-0.16452225,0.1409276,0.2517083,-0.9432457,-7.327914,9.332694,0.60052353,-1.6622249,-3.1024547,0.9719509,1
2.1199999999999988,,,,,13.08435,-1.9695803,-4.4362326,0.4811351,0.16428894,1.0460328,2.2804968,-0.15473898,0.1283634,0.26158118,-0.9440083,-7.3723164,9.275375,0.6113329,-1.710077,-3.3104599,0.94786644,1
2.1299999999999986,,,,,10.981828,-0.9621822,-4.2069182,-0.18017684,0.09035813,1.1384857,2.2866623,-0.14473118,0.11485216,0.27172863,-0.9444698,-7.413282,9.214684,0.62165993,-1.7504902,-3.4860225,0.9249638,1
2.1399999999999983,,,,,10.981828,-0.9621822,-4.2069182,-0.18017684,0.016066508,1.230366,2.2928412,-0.13467771,0.10053674,0.28168893,-0.9446711,-7.444535,9.160921,0.6140659,-1.6276133,-3.598314,0.87073416,1
2.149999999999998,,,,,10.981828,-0.9621822,-4.2069182,-0.18017684,-0.058521062,1.3216949,2.2989419,-0.12473065,0.08554154,0.29109648,-0.9446616,-7.4724407,9.104466,0.60592586,-1.5239099,-3.6931152,0.81916565,1
2.159999999999998,,,,,10.981828,-0.9621822,-4.2069182,-0.18017684,-0.13337015,1.4124465,2.3049579,-0.114883445,0.06996604,0.3000085,-0.94440424,-7.496811,9.045495,0.59719604,-1.4363868,-3.77315,0.7701276,1
2.1699999999999977,,,,,10.44899,-2.1106083,-3.1030004,-0.45417774,-0.20844457,1.5025966,2.3108833,-0.10513156,0.053895243,0.30847278,-0.9438671,-7.517484,8.984179,0.5878164,-1.3625176,-3.8407173,0.7234959,1
2.1799999999999975,,,,,10.44899,-2.1106083,-3.1030004,-0.45417774,-0.28370246,1.5921378,2.31669,-0.095619306,0.037855305,0.316921,-0.9428589,-7.533529,8.923753,0.57343024,-1.4793768,-3.7256703,0.6657071,1
2.1899999999999973,,,,,10.44899,-2.1106083,-3.1030004,-0.45417774,-0.35910285,1.6810647,2.3223486,-0.086480215,0.02226091,0.32570502,-0.94124377,-7.545992,8.86132,0.55817604,-1.5779893,-3.6285517,0.6107541,1
2.199999999999997,,,,,10.44899,-2.1106083,-3.1030004,-0.45417774,-0.43461025,1.7693574,2.3278496,-0.07769374,0.0070301387,0.3347526,-0.9390702,-7.554958,8.796933,0.54187256,-1.6612045,-3.546569,0.55849755,1
