time-since-start [s],throttle_mpc,roll_mpc,pitch_mpc,yaw_mpc,throttle_nw,roll_nw,pitch_nw,yaw_nw,position_x [m],position_y [m],position_z [m],rotation_w [quaternion],rotation_x [quaternion],rotation_y [quaternion],rotation_z [quaternion],velocity_x [m/s],velocity_y [m/s],velocity_z [m/s],omega_x [rad/s],omega_y [rad/s],omega_z [rad/s],network_used
0.0,11.391677725042607,-5.999998790157913,-6.0,5.999999964131854,14.147801,3.6967428,-5.0366426,0.09739064,18.355885,-9.814914,1.9594383,0.11226715,0.48129898,-0.20184672,-0.84557986,-11.745883,-6.44068,0.09428011,1.8713328,-0.18862069,-0.27076226,0
0.01,11.391677725042607,-5.999998790157913,-6.0,5.999999964131854,13.655621,-2.5380588,-7.552166,-0.040099695,18.237476,-9.879059,1.9603918,0.107150644,0.48199835,-0.20906048,-0.8440913,-11.934905,-6.3879633,0.09577039,1.7097049,-0.028770763,-0.061903127,0
0.02,11.391677725042607,-5.999998790157913,-6.0,5.999999964131854,13.655621,-2.5380588,-7.552166,-0.040099695,18.117199,-9.942665,1.9613408,0.10341063,0.4829771,-0.21604063,-0.8422386,-12.119876,-6.332978,0.09357489,1.5645022,0.09736113,0.14095646,0
0.03,11.391677725042607,-5.999998790157913,-6.0,5.999999964131854,13.655621,-2.5380588,-7.552166,-0.040099695,17.995085,-10.005711,1.9622532,0.100969456,0.4840632,-0.22281325,-0.8401442,-12.302425,-6.2757883,0.08844728,1.4137266,0.17558122,0.33646405,0
0.04,11.391677725042607,-5.999998790157913,-6.0,5.999999964131854,18.109154,0.13205047,-7.3610134,-0.60603166,17.871157,-10.068174,1.9630997,0.09976491,0.48507005,-0.22936334,-0.8379418,-12.482565,-6.216853,0.0803892,1.2566547,0.21175228,0.52504134,0
0.05,11.391677725042607,-5.999998790157913,-6.0,5.999999964131854,18.109154,0.13205047,-7.3610134,-0.60603166,17.745441,-10.130043,1.9638511,0.09974044,0.4858349,-0.23567186,-0.8357482,-12.660246,-6.156601,0.06947057,1.0933223,0.21147117,0.7071143,0
0.060000000000000005,11.391677725042607,-5.999998790157913,-6.0,5.999999964131854,18.109154,0.13205047,-7.3610134,-0.60603166,17.617962,-10.191303,1.9644797,0.1008442,0.4862161,-0.2417178,-0.8336647,-12.835407,-6.0954237,0.05583694,0.92393464,0.1796421,0.883072,0
0.07,11.391677725042607,-5.999998790157913,-6.0,5.999999964131854,18.109154,0.13205047,-7.3610134,-0.60603166,17.488743,-10.251949,1.9649593,0.10302844,0.48609018,-0.2474793,-0.83177847,-13.0079775,-6.033682,0.039696816,0.7488217,0.12056327,1.0532703,0
0.08,12.585993512210104,-5.9999996040434995,-6.0,5.99999999913493,15.7648945,-0.32364717,-8.444631,-0.008593991,17.357811,-10.311976,1.9652659,0.10624881,0.48534918,-0.25293452,-0.83016354,-13.177877,-5.9717007,0.021309922,0.56839985,0.038003743,1.218035,0
0.09,12.585993512210104,-5.9999996040434995,-6.0,5.99999999913493,15.7648945,-0.32364717,-8.444631,-0.008593991,17.225157,-10.371369,1.9653965,0.11048841,0.48382005,-0.25800675,-0.8289409,-13.352627,-5.906958,0.0045253728,0.3509181,-0.09701441,1.3805455,0
0.09999999999999999,12.585993512210104,-5.9999996040434995,-6.0,5.99999999913493,15.7648945,-0.32364717,-8.444631,-0.008593991,17.090769,-10.430117,1.9653506,0.115730464,0.48134702,-0.262626,-0.82821447,-13.524267,-5.8426104,-0.013927538,0.13129443,-0.24712655,1.5383085,0
0.10999999999999999,12.585993512210104,-5.9999996040434995,-6.0,5.99999999913493,15.7648945,-0.32364717,-8.444631,-0.008593991,16.954681,-10.488223,1.9651138,0.12193433,0.47786385,-0.2667806,-0.82801354,-13.692683,-5.778917,-0.033599928,-0.09013721,-0.40997756,1.691557,0
0.11999999999999998,12.585993512210104,-5.9999996040434995,-6.0,5.99999999913493,15.7648945,-0.32364717,-8.444631,-0.008593991,16.816925,-10.545697,1.964676,0.12906061,0.47331017,-0.27045864,-0.8283557,-13.857754,-5.7161007,-0.05403898,-0.3130216,-0.58350575,1.8405062,0
0.12999999999999998,16.888869036562625,6.0,-6.0,-4.624525621913605,14.194824,0.69739157,-9.054992,-0.2431273,16.677536,-10.602549,1.9640319,0.13707073,0.4676305,-0.27364767,-0.82924694,-14.019347,-5.6543503,-0.074795306,-0.5369944,-0.7659059,1.9853547,0
0.13999999999999999,16.888869036562625,6.0,-6.0,-4.624525621913605,14.194824,0.69739157,-9.054992,-0.2431273,16.53625,-10.658673,1.9633269,0.14493105,0.46175018,-0.27648953,-0.83026236,-14.237245,-5.570837,-0.06617667,-0.4241346,-0.67558885,1.7426856,0
0.15,16.888869036562625,6.0,-6.0,-4.624525621913605,14.194824,0.69739157,-9.054992,-0.2431273,16.392803,-10.713969,1.9627098,0.15161096,0.45652846,-0.27919552,-0.8310512,-14.451188,-5.4885235,-0.057195522,-0.2985572,-0.6296231,1.5085864,0
0.16,20.999999572494627,6.0,-6.0,-4.914720873118769,19.374823,0.3029861,-10.117143,-2.4397132,16.247238,-10.768447,1.9621834,0.15705454,0.45179835,-0.28189352,-0.8317142,-14.66144,-5.407128,-0.04809321,-0.15744269,-0.62592065,1.2828411,0
0.17,20.999999572494627,6.0,-6.0,-4.914720873118769,19.374823,0.3029861,-10.117143,-2.4397132,16.099445,-10.822058,1.9618219,0.16103828,0.44730607,-0.2848573,-0.83237046,-14.8967285,-5.3151193,-0.024262607,0.06849233,-0.72953594,1.0443982,0
0.18000000000000002,20.999999572494627,6.0,-6.0,-4.914720873118769,19.374823,0.3029861,-10.117143,-2.4397132,15.949322,-10.87475,1.9616958,0.1633532,0.4428217,-0.2883419,-0.83311695,-15.127281,-5.2234178,-0.0010996121,0.3045865,-0.86246157,0.8135976,0
0.19000000000000003,20.999999572494627,6.0,-6.0,-4.914720873118769,19.374823,0.3029861,-10.117143,-2.4397132,15.796918,-10.926525,1.9617968,0.16397232,0.4382369,-0.29243436,-0.8339927,-15.352892,-5.131385,0.021143507,0.5497686,-1.0206546,0.59001714,0
0.20000000000000004,21.0,6.0,-6.0,-5.0086054944264395,19.720825,2.9400303,-12.336895,-4.5123835,15.6422825,-10.977375,1.9621147,0.16287255,0.43345332,-0.29721007,-0.8350193,-15.573336,-5.038363,0.04224558,0.80298096,-1.2005452,0.37326932,0
0.21000000000000005,21.0,6.0,-6.0,-5.0086054944264395,19.720825,2.9400303,-12.336895,-4.5123835,15.485464,-11.027286,1.9626399,0.16005145,0.42840597,-0.30269557,-0.8361983,-15.78939,-4.943245,0.06257353,1.0500834,-1.3858782,0.15956223,0
0.22000000000000006,21.0,6.0,-6.0,-5.0086054944264395,19.720825,2.9400303,-12.336895,-4.5123835,15.326514,-11.076233,1.963361,0.15550639,0.423033,-0.30891138,-0.8375171,-15.999791,-4.8458285,0.08141113,1.3047297,-1.5884979,-0.047781076,0
0.23000000000000007,21.0,6.0,-6.0,-5.0086054944264395,19.720825,2.9400303,-12.336895,-4.5123835,15.16549,-11.124192,1.9642624,0.14921902,0.41725087,-0.3159055,-0.83895135,-16.204237,-4.745518,0.09859214,1.565827,-1.8057956,-0.24908075,0
0.24000000000000007,21.0,6.0,-6.0,-5.0086054944264395,20.626877,4.3722854,-13.409968,-5.2012124,15.002452,-11.171132,1.9653267,0.14117394,0.4109801,-0.32371342,-0.84046125,-16.40238,-4.6417456,0.11396205,1.832349,-2.035465,-0.44463196,0
0.25000000000000006,21.0,6.0,-6.0,-5.0086054944264395,20.626877,4.3722854,-13.409968,-5.2012124,14.837465,-11.217013,1.9665349,0.13135871,0.40414414,-0.33235785,-0.8419922,-16.59384,-4.533981,0.12737472,2.10334,-2.2754676,-0.63470715,0
0.26000000000000006,21.0,6.0,-6.0,-5.0086054944264395,20.626877,4.3722854,-13.409968,-5.2012124,14.670599,-11.261796,1.9678669,0.119763985,0.39666843,-0.341849,-0.8434751,-16.778187,-4.4217424,0.13868977,2.377913,-2.5240018,-0.81955826,0
0.2700000000000001,21.0,6.0,-6.0,-5.0086054944264395,20.626877,4.3722854,-13.409968,-5.2012124,14.501927,-11.305432,1.969301,0.10638395,0.38848007,-0.35218436,-0.84482664,-16.954947,-4.3046126,0.14777024,2.65525,-2.7794757,-0.9994184,0
0.2800000000000001,21.0,6.0,-6.0,-4.931338030649087,26.112507,7.6171126,-15.100543,-6.307616,14.331528,-11.347871,1.9708142,0.09121683,0.37950742,-0.36334884,-0.84594995,-17.123596,-4.1822443,0.1544809,2.9345996,-3.0404835,-1.1745038,0
0.2900000000000001,21.0,6.0,-6.0,-4.931338030649087,26.112507,7.6171126,-15.100543,-6.307616,14.159488,-11.389061,1.9723798,0.07425117,0.3696564,-0.37534276,-0.84673417,-17.282845,-4.054954,0.15822431,3.2260568,-3.3165748,-1.3421876,0
0.3000000000000001,21.0,6.0,-6.0,-4.931338030649087,26.112507,7.6171126,-15.100543,-6.307616,13.985903,-11.428951,1.9739697,0.05548349,0.35883635,-0.38814786,-0.8470534,-17.432785,-3.9220407,0.15931016,3.5169528,-3.5946078,-1.505661,0
0.3100000000000001,21.0,6.0,-6.0,-4.931338030649087,26.112507,7.6171126,-15.100543,-6.307616,13.810867,-11.4674835,1.9755564,0.034932498,0.34698266,-0.4017024,-0.8467692,-17.572756,-3.7834284,0.15760233,3.8068442,-3.8737433,-1.6650828,0
0.3200000000000001,21.0,6.0,-6.0,-4.718625774458399,28.940727,8.062552,-15.851725,-5.953603,13.634484,-11.504601,1.9771116,0.012624389,0.33403298,-0.4159321,-0.8457324,-17.702063,-3.6391654,0.15296273,4.0953293,-4.153246,-1.8206017,0
0.3300000000000001,21.0,6.0,-6.0,-4.718625774458399,28.940727,8.062552,-15.851725,-5.953603,13.45687,-11.540254,1.9786016,-0.011418896,0.31988198,-0.43079332,-0.8437786,-17.819424,-3.4901042,0.14483313,4.3916087,-4.442003,-1.9628085,0
0.34000000000000014,21.0,6.0,-6.0,-4.718625774458399,28.940727,8.062552,-15.851725,-5.953603,13.278131,-11.574375,1.9800031,-0.03704238,0.3045522,-0.44610667,-0.8407524,-17.926796,-3.3328562,0.13522176,4.641713,-4.6856995,-2.0980372,0
0.35000000000000014,21.0,6.0,-6.0,-4.718625774458399,28.940727,8.062552,-15.851725,-5.953603,13.098372,-11.606884,1.9813002,-0.06402562,0.2881683,-0.46161157,-0.83652526,-18.023066,-3.1676764,0.123910226,4.8528476,-4.8913584,-2.2266302,0
0.36000000000000015,21.0,6.0,-6.0,-4.489568594424584,29.190817,9.996112,-15.003224,-4.979254,12.917711,-11.637703,1.9824748,-0.09216539,0.27084395,-0.47708344,-0.83098763,-18.107183,-2.9950416,0.11069005,5.031091,-5.0649095,-2.348913,0
0.37000000000000016,21.0,6.0,-6.0,-4.489568594424584,29.190817,9.996112,-15.003224,-4.979254,12.736274,-11.666761,1.9835068,-0.12124944,0.25267035,-0.4923365,-0.8240516,-18.17818,-2.8156278,0.09536776,5.1816125,-5.2113214,-2.4539557,0
0.38000000000000017,21.0,6.0,-6.0,-4.489568594424584,29.190817,9.996112,-15.003224,-4.979254,12.554195,-11.693995,1.9843743,-0.1510797,0.23373184,-0.50721115,-0.8156478,-18.235182,-2.6302865,0.0777688,5.3086953,-5.3348637,-2.5538437,0
0.3900000000000002,21.0,6.0,-6.0,-4.489568594424584,29.190817,9.996112,-15.003224,-4.979254,12.371621,-11.71935,1.9850538,-0.18149321,0.21412034,-0.5215627,-0.80572027,-18.277422,-2.440022,0.05774099,5.4159946,-5.439105,-2.6488302,0
0.4000000000000002,21.0,4.069334416342692,-5.999999809990206,-2.2555426430779066,28.261751,10.093273,-13.834615,-4.607506,12.1887,-11.742783,1.9855202,-0.21233626,0.19392231,-0.5352669,-0.79422724,-18.304255,-2.245969,0.035157766,5.506593,-5.5270567,-2.7391558,0
0.4100000000000002,21.0,4.069334416342692,-5.999999809990206,-2.2555426430779066,28.261751,10.093273,-13.834615,-4.607506,12.0055895,-11.76426,1.9857479,-0.2431033,0.17324682,-0.54766816,-0.78163034,-18.315208,-2.0493932,0.009976478,5.282409,-5.6003304,-2.715425,0
0.4200000000000002,21.0,4.069334416342692,-5.999999809990206,-2.2555426430779066,28.261751,10.093273,-13.834615,-4.607506,11.822449,-11.783767,1.9857119,-0.27338022,0.15220517,-0.55828905,-0.7683816,-18.310179,-1.8517382,-0.017504998,5.0932045,-5.662249,-2.6928585,0
0.4300000000000002,21.0,4.069334416342692,-5.999999809990206,-2.2555426430779066,28.261751,10.093273,-13.834615,-4.607506,11.63944,-11.801297,1.9853913,-0.3031527,0.13087176,-0.5672692,-0.75443804,-18.289265,-1.6544473,-0.04690965,4.933521,-5.714572,-2.6713994,0
0.4400000000000002,21.0,4.069334416342692,-5.999999809990206,-2.2555426430779066,26.514008,9.789053,-12.591627,-5.1394024,11.4567175,-11.816862,1.9847683,-0.3324002,0.109309316,-0.57472634,-0.73976433,-18.252663,-1.4589025,-0.077904925,4.7987514,-5.758786,-2.6509933,0
0.45000000000000023,21.0,4.069334416342692,-5.999999809990206,-2.2555426430779066,26.514008,9.789053,-12.591627,-5.1394024,11.274439,-11.830485,1.9838288,-0.3610975,0.08757176,-0.5807598,-0.7243327,-18.200672,-1.2664264,-0.11019752,4.6850076,-5.796148,-2.6315885,0
0.46000000000000024,21.0,4.069334416342692,-5.999999809990206,-2.2555426430779066,26.514008,9.789053,-12.591627,-5.1394024,11.092756,-11.842206,1.9825609,-0.3892161,0.06570632,-0.5854535,-0.7081227,-18.133675,-1.0782846,-0.14352867,4.58901,-5.827719,-2.6131358,0
0.47000000000000025,21.0,4.069334416342692,-5.999999809990206,-2.2555426430779066,26.514008,9.789053,-12.591627,-5.1394024,10.911817,-11.852071,1.9809554,-0.41672495,0.04375509,-0.58887863,-0.6911207,-18.052141,-0.8956848,-0.17766994,4.5079885,-5.8543963,-2.5955887,0
0.48000000000000026,21.0,2.420341819802349,-4.479140654897396,-0.8536699335664328,25.51551,9.239259,-11.0215025,-4.925682,10.731762,-11.860143,1.9790053,-0.44359145,0.021756442,-0.59109586,-0.6733194,-17.956621,-0.7197757,-0.21241961,4.4396067,-5.876939,-2.5789027,0
0.49000000000000027,21.0,2.420341819802349,-4.479140654897396,-0.8536699335664328,25.51551,9.239259,-11.0215025,-4.925682,10.55273,-11.866493,1.9767054,-0.4693065,0.00034839055,-0.5920098,-0.65519136,-17.847813,-0.55160373,-0.24758308,4.1253834,-5.658196,-2.494245,0
0.5000000000000002,21.0,2.420341819802349,-4.479140654897396,-0.8536699335664328,25.51551,9.239259,-11.0215025,-4.925682,10.374847,-11.871204,1.974053,-0.49350548,-0.019968264,-0.59162825,-0.63720447,-17.72686,-0.39188063,-0.28289467,3.86007,-5.473688,-2.4137416,0
0.5100000000000002,21.0,2.420341819802349,-4.479140654897396,-0.8536699335664328,25.51551,9.239259,-11.0215025,-4.925682,10.19823,-11.874362,1.9710479,-0.5163502,-0.039349742,-0.590128,-0.6193407,-17.59496,-0.2411124,-0.3180914,3.6360552,-5.318054,-2.3371882,0
0.5200000000000002,21.0,1.279092350825621,-2.508899047961444,-0.811808308079749,23.41937,8.31969,-8.5005245,-4.410454,10.022982,-11.87606,1.9676923,-0.5379747,-0.05793057,-0.5876497,-0.60157716,-17.453215,-0.09970887,-0.35294688,3.4469113,-5.186774,-2.2643914,0
0.5300000000000002,21.0,1.279092350825621,-2.508899047961444,-0.811808308079749,23.41937,8.31969,-8.5005245,-4.410454,9.849196,-11.87639,1.9639908,-0.55806303,-0.07511157,-0.58447444,-0.58422047,-17.30269,0.032060497,-0.3872766,3.1096804,-4.768518,-2.1931129,0
0.5400000000000003,21.0,1.279092350825621,-2.508899047961444,-0.811808308079749,23.41937,8.31969,-8.5005245,-4.410454,9.676954,-11.875451,1.959949,-0.57641894,-0.09043649,-0.5808923,-0.56756204,-17.144642,0.15437959,-0.42097095,2.824901,-4.415599,-2.1253319,0
0.5500000000000003,21.0,1.279092350825621,-2.508899047961444,-0.811808308079749,23.41937,8.31969,-8.5005245,-4.410454,9.506325,-11.873334,1.9555739,-0.5932999,-0.10420475,-0.5770047,-0.5515454,-16.980228,0.26759875,-0.45394796,2.5844188,-4.117808,-2.0608768,0
0.5600000000000003,21.0,0.08918580959240853,-0.8391575902762054,0.2736152917007405,22.60129,7.739313,-5.4671574,-3.703361,9.337367,-11.870129,1.9508729,-0.60891753,-0.11666994,-0.57288194,-0.5361099,-16.810423,0.3720665,-0.4861332,2.381346,-3.8665314,-1.9995847,0
0.5700000000000003,21.0,0.08918580959240853,-0.8391575902762054,0.2736152917007405,22.60129,7.739313,-5.4671574,-3.703361,9.170132,-11.865921,1.9458542,-0.6230573,-0.12747736,-0.568722,-0.52163625,-16.636076,0.468183,-0.51746213,2.0247488,-3.3938007,-1.8880382,0
0.5800000000000003,21.0,0.08918580959240853,-0.8391575902762054,0.2736152917007405,22.60129,7.739313,-5.4671574,-3.703361,9.004658,-11.860792,1.9405267,-0.6355846,-0.13637632,-0.56471527,-0.50845885,-16.458094,0.5567164,-0.54789114,1.7235979,-2.9949148,-1.7819651,0
0.5900000000000003,21.0,0.08918580959240853,-0.8391575902762054,0.2736152917007405,22.60129,7.739313,-5.4671574,-3.703361,8.84098,-11.854811,1.9348997,-0.6467596,-0.14370209,-0.56088346,-0.49644879,-16.277258,0.63849705,-0.5773877,1.4692785,-2.6583328,-1.6810973,0
0.6000000000000003,21.0,-0.6885726323256863,0.42615771334897246,1.4181076080921495,21.452484,7.203101,-3.1886191,-2.3577702,8.679122,-11.8480425,1.9289825,-0.6567941,-0.1497349,-0.5572303,-0.48548463,-16.09418,0.7142621,-0.6059257,1.254514,-2.374319,-1.5851791,0
0.6100000000000003,21.0,-0.6885726323256863,0.42615771334897246,1.4181076080921495,21.452484,7.203101,-3.1886191,-2.3577702,8.519102,-11.840544,1.9227847,-0.6655614,-0.15433885,-0.55391467,-0.4758004,-15.909356,0.78471136,-0.6334915,0.9521301,-1.937181,-1.437807,0
0.6200000000000003,21.0,-0.6885726323256863,0.42615771334897246,1.4181076080921495,21.452484,7.203101,-3.1886191,-2.3577702,8.360937,-11.832364,1.9163159,-0.672974,-0.15743186,-0.55106896,-0.46759394,-15.723272,0.8507584,-0.6601144,0.6967539,-1.5683155,-1.2976665,0
0.6300000000000003,21.0,-0.6885726323256863,0.42615771334897246,1.4181076080921495,21.452484,7.203101,-3.1886191,-2.3577702,8.2046385,-11.823541,1.9095855,-0.6792379,-0.15929888,-0.54864264,-0.4607069,-15.536324,0.913297,-0.68583786,0.4810866,-1.2570534,-1.1644026,0
0.6400000000000003,21.0,-0.6885726323256863,0.42615771334897246,1.4181076080921495,20.50213,6.39126,-2.0849032,-1.3969661,8.050214,-11.814106,1.9026021,-0.68452024,-0.16017604,-0.54658353,-0.45499653,-15.348812,0.9730947,-0.7107052,0.29896134,-0.99439406,-1.037678,0
0.6500000000000004,21.0,-0.6885726323256863,0.42615771334897246,1.4181076080921495,20.50213,6.39126,-2.0849032,-1.3969661,7.897665,-11.804085,1.8953741,-0.6889578,-0.16025892,-0.5448409,-0.45033568,-15.160966,1.0308071,-0.7347588,0.14516768,-0.772744,-0.91717184,0
0.6600000000000004,21.0,-0.6885726323256863,0.42615771334897246,1.4181076080921495,20.50213,6.39126,-2.0849032,-1.3969661,7.746995,-11.793494,1.8879094,-0.69266313,-0.15970942,-0.5433674,-0.44661188,-14.972962,1.0869929,-0.75804,0.01530266,-0.5856969,-0.802579,0
0.6700000000000004,21.0,-0.6885726323256863,0.42615771334897246,1.4181076080921495,20.50213,6.39126,-2.0849032,-1.3969661,7.5982056,-11.782348,1.8802158,-0.6957294,-0.15866147,-0.54212,-0.443726,-14.784941,1.1421266,-0.78058845,-0.09435268,-0.4278479,-0.69360924,0
0.6800000000000004,21.0,-1.0793854059051902,1.0793831353182468,1.9050147276900515,20.677816,5.6543903,-1.4827614,-0.96867424,7.451296,-11.770654,1.8723,-0.6982343,-0.1572257,-0.5410601,-0.4415909,-14.59701,1.1966101,-0.80244184,-0.18694046,-0.2946365,-0.5899867,0
0.6900000000000004,21.0,-1.0793854059051902,1.0793831353182468,1.9050147276900515,20.677816,5.6543903,-1.4827614,-0.96867424,7.306265,-11.758416,1.864169,-0.7000999,-0.15530148,-0.54025835,-0.44029775,-14.409264,1.2508112,-0.82364035,-0.3260269,-0.08033105,-0.46755624,0
0.7000000000000004,21.0,-1.0793854059051902,1.0793831353182468,1.9050147276900515,20.677816,5.6543903,-1.4827614,-0.96867424,7.16311,-11.745636,1.8558291,-0.70126337,-0.15281649,-0.53976744,-0.43991756,-14.221815,1.3051988,-0.84424984,-0.44346455,0.10052864,-0.35113347,0
0.7100000000000004,21.0,-1.0793854059051902,1.0793831353182468,1.9050147276900515,20.677816,5.6543903,-1.4827614,-0.96867424,7.021827,-11.73231,1.8472859,-0.70180464,-0.14989182,-0.5395309,-0.4403506,-14.034767,1.3602219,-0.86434007,-0.5426188,0.2531644,-0.24042359,0
0.7200000000000004,21.0,-1.2637555158332916,1.3172700715709447,2.0758758015943206,20.64843,4.7788467,-0.9014745,-0.15527566,6.8824124,-11.71843,1.838544,-0.70179045,-0.14662759,-0.53949946,-0.44150922,-13.848213,1.4162581,-0.88397366,-0.6263326,0.38198304,-0.1351463,0
0.7300000000000004,21.0,-1.2637555158332916,1.3172700715709447,2.0758758015943206,20.64843,4.7788467,-0.9014745,-0.15527566,6.7448606,-11.703981,1.8296078,-0.70122635,-0.14302391,-0.539662,-0.44338495,-13.662236,1.4736351,-0.90320736,-0.72576195,0.5277983,-0.026650827,0
0.7400000000000004,21.0,-1.2637555158332916,1.3172700715709447,2.0758758015943206,20.64843,4.7788467,-0.9014745,-0.15527566,6.609165,-11.6889515,1.8204811,-0.70011705,-0.13908477,-0.54000545,-0.44596553,-13.476931,1.5326889,-0.922097,-0.8097029,0.6508634,0.076520756,0
0.7500000000000004,21.0,-1.2637555158332916,1.3172700715709447,2.0758758015943206,20.64843,4.7788467,-0.9014745,-0.15527566,6.475319,-11.673321,1.8111669,-0.6985124,-0.13489078,-0.54048836,-0.4491735,-13.292394,1.5937216,-0.9406939,-0.88056517,0.7547295,0.17462967,0
0.7600000000000005,21.0,-1.2930853817427523,1.2566861131556935,2.079545621005838,20.317604,4.291344,-0.7790618,-0.14270718,6.3433137,-11.657069,1.8016679,-0.69645464,-0.13050845,-0.54107547,-0.45294088,-13.108717,1.656984,-0.95904344,-0.9403845,0.8423939,0.2679244,0
0.7700000000000005,21.0,-1.2930853817427523,1.2566861131556935,2.079545621005838,20.317604,4.291344,-0.7790618,-0.14270718,6.213141,-11.640172,1.7919866,-0.69399405,-0.12599571,-0.5417146,-0.45721135,-12.925989,1.722682,-0.9771829,-0.99545145,0.90693545,0.35682115,0
0.7800000000000005,21.0,-1.2930853817427523,1.2566861131556935,2.079545621005838,20.317604,4.291344,-0.7790618,-0.14270718,6.08479,-11.622606,1.7821248,-0.6911728,-0.12140017,-0.5423631,-0.46193516,-12.744301,1.7909784,-0.9951321,-1.0419328,0.96141076,0.44135574,0
0.7900000000000005,21.0,-1.2930853817427523,1.2566861131556935,2.079545621005838,20.317604,4.291344,-0.7790618,-0.14270718,5.958251,-11.604342,1.7720844,-0.6880131,-0.116758004,-0.5430062,-0.4670648,-12.563741,1.8620033,-1.0129033,-1.0811658,1.0073907,0.52174217,0
0.8000000000000005,21.0,-1.2414356717524166,1.0235969222993377,1.919430954595682,20.290356,3.6014898,-0.7195687,-0.42736322,5.8335114,-11.585356,1.7618673,-0.68453425,-0.1120986,-0.5436314,-0.4725582,-12.384396,1.9358606,-1.0305068,-1.1142796,1.0462017,0.59818405,0
0.8100000000000005,21.0,-1.2414356717524166,1.0235969222993377,1.919430954595682,20.290356,3.6014898,-0.7195687,-0.42736322,5.7105584,-11.565616,1.751475,-0.68081146,-0.10749336,-0.544177,-0.4783429,-12.20635,2.0126252,-1.0479461,-1.1341522,1.0426207,0.663018,0
0.8200000000000005,21.0,-1.2414356717524166,1.0235969222993377,1.919430954595682,20.290356,3.6014898,-0.7195687,-0.42736322,5.5893793,-11.545094,1.7409091,-0.67690843,-0.10299824,-0.5445954,-0.48435715,-12.029678,2.0923092,-1.0651981,-1.1509234,1.0396004,0.7246705,0
0.8300000000000005,21.0,-1.2414356717524166,1.0235969222993377,1.919430954595682,20.290356,3.6014898,-0.7195687,-0.42736322,5.4699597,-11.52376,1.7301717,-0.6728257,-0.0986138,-0.5448962,-0.49058,-11.854447,2.1749032,-1.0822334,-1.1650771,1.0370535,0.7832978,0
0.8400000000000005,21.0,-1.2414356717524166,1.0235969222993377,1.919430954595682,21.073236,2.5781047,-0.35041666,-0.5925806,5.3522854,-11.501585,1.7192652,-0.6685642,-0.094339564,-0.5450875,-0.49699217,-11.680723,2.2603912,-1.0990255,-1.1770217,1.0349059,0.83904815,0
0.8500000000000005,21.0,-1.2414356717524166,1.0235969222993377,1.919430954595682,21.073236,2.5781047,-0.35041666,-0.5925806,5.2363405,-11.478541,1.7081921,-0.66412544,-0.09017423,-0.54517615,-0.50357586,-11.508572,2.3487566,-1.11555,-1.187102,1.0330958,0.8920629,0
0.8600000000000005,21.0,-1.2414356717524166,1.0235969222993377,1.919430954595682,21.073236,2.5781047,-0.35041666,-0.5925806,5.122109,-11.454599,1.6969552,-0.65951085,-0.086115845,-0.54516804,-0.5103146,-11.338055,2.4399772,-1.1317841,-1.1956084,1.0315703,0.9424762,0
0.8700000000000006,21.0,-1.2414356717524166,1.0235969222993377,1.919430954595682,21.073236,2.5781047,-0.35041666,-0.5925806,5.009574,-11.42973,1.6855575,-0.6547223,-0.08216197,-0.545068,-0.517193,-11.169235,2.5340278,-1.1477058,-1.2027864,1.0302849,0.99041563,0
0.8800000000000006,21.0,-1.0798898241404964,0.7208968607716991,1.6820202517744938,21.64044,1.4829937,-0.043068416,-0.45319468,4.898719,-11.403908,1.6740022,-0.6497617,-0.07830978,-0.5448803,-0.52419686,-11.002171,2.6308815,-1.1632947,-1.2088435,1.0292021,1.0360028,0
0.8900000000000006,21.0,-1.0798898241404964,0.7208968607716991,1.6820202517744938,21.64044,1.4829937,-0.043068416,-0.45319468,4.7895246,-11.377103,1.6622927,-0.644708,-0.07464596,-0.5445667,-0.53124964,-10.836916,2.730497,-1.1785275,-1.1887213,0.981111,1.067703,0
0.9000000000000006,21.0,-1.0798898241404964,0.7208968607716991,1.6820202517744938,21.64044,1.4829937,-0.043068416,-0.45319468,4.6819744,-11.349288,1.650433,-0.639629,-0.07123691,-0.54410017,-0.5382885,-10.673492,2.832767,-1.1933649,-1.1717395,0.94051945,1.0978478,0
0.9100000000000006,21.0,-1.0798898241404964,0.7208968607716991,1.6820202517744938,21.64044,1.4829937,-0.043068416,-0.45319468,4.5760493,-11.320438,1.638427,-0.6345116,-0.0680521,-0.54349864,-0.54531884,-10.511911,2.9375749,-1.2077651,-1.1574081,0.9062581,1.1265132,0
0.9200000000000006,21.0,-0.8769767524360911,0.39507812175552287,1.3753510695162017,22.201773,0.8661255,0.3706956,-0.39073807,4.47173,-11.290528,1.6262794,-0.6293447,-0.06506517,-0.54277694,-0.5523445,-10.352182,3.044816,-1.2216909,-1.1453137,0.87733966,1.1537721,0
0.9300000000000006,21.0,-0.8769767524360911,0.39507812175552287,1.3753510695162017,22.201773,0.8661255,0.3706956,-0.39073807,4.368999,-11.259534,1.6139951,-0.6242063,-0.062356092,-0.5419134,-0.5592921,-10.194315,3.154385,-1.2351058,-1.103416,0.80215496,1.1646451,0
0.9400000000000006,21.0,-0.8769767524360911,0.39507812175552287,1.3753510695162017,22.201773,0.8661255,0.3706956,-0.39073807,4.2678375,-11.227433,1.6015793,-0.61916333,-0.05998439,-0.54089475,-0.5661017,-10.038274,3.2661183,-1.2479641,-1.0680597,0.7386912,1.1749845,0
0.9500000000000006,21.0,-0.8769767524360911,0.39507812175552287,1.3753510695162017,22.201773,0.8661255,0.3706956,-0.39073807,4.1682277,-11.194204,1.5890379,-0.6141924,-0.057901267,-0.53974277,-0.5727936,-9.884015,3.3798497,-1.2602218,-1.0382236,0.68512124,1.1848165,0
0.9600000000000006,21.0,-0.6649811853578151,0.10569298576407794,1.034936289960902,22.295876,0.28984377,0.6744714,-0.2924152,4.0701513,-11.159829,1.5763769,-0.6092738,-0.056065146,-0.53847533,-0.57938427,-9.7315035,3.4954362,-1.2718396,-1.0130463,0.6399025,1.1941661,0
0.9700000000000006,21.0,-0.6649811853578151,0.10569298576407794,1.034936289960902,22.295876,0.28984377,0.6744714,-0.2924152,3.9735913,-11.1242895,1.5636033,-0.60447305,-0.0545369,-0.5370889,-0.58581,-9.580698,3.6127434,-1.2827826,-0.95869815,0.55663997,1.1863526,0
0.9800000000000006,21.0,-0.6649811853578151,0.10569298576407794,1.034936289960902,22.295876,0.28984377,0.6744714,-0.2924152,3.8785317,-11.087569,1.5507238,-0.5998467,-0.05336002,-0.53558385,-0.59201884,-9.431521,3.7315922,-1.293015,-0.91283655,0.4863548,1.1789225,0
0.9900000000000007,21.0,-0.6649811853578151,0.10569298576407794,1.034936289960902,22.295876,0.28984377,0.6744714,-0.2924152,3.7849562,-11.049653,1.5377456,-0.59536684,-0.05247835,-0.53397864,-0.5980392,-9.283888,3.8518088,-1.3025049,-0.87413603,0.42702445,1.1718571,0
1.0000000000000007,21.0,-0.5686955178250677,-0.07282322036684193,0.7493305232724952,22.214998,-0.2758768,0.7190409,-0.29592544,3.6928494,-11.010529,1.5246763,-0.59100944,-0.0518444,-0.53228813,-0.60389495,-9.137723,3.9732456,-1.311225,-0.84147865,0.37694165,1.1651385,0
1.0100000000000007,21.0,-0.5686955178250677,-0.07282322036684193,0.7493305232724952,22.214998,-0.2758768,0.7190409,-0.29592544,3.602197,-10.970183,1.5115237,-0.5868116,-0.051465265,-0.5305076,-0.6095612,-8.992962,4.09577,-1.319151,-0.79888105,0.30684406,1.1447346,0
1.0200000000000007,21.0,-0.5686955178250677,-0.07282322036684193,0.7493305232724952,22.214998,-0.2758768,0.7190409,-0.29592544,3.5129855,-10.928609,1.498296,-0.58280534,-0.051342204,-0.52863526,-0.61501735,-8.849517,4.219233,-1.3262552,-0.7629366,0.24767154,1.125332,0
1.0300000000000007,21.0,-0.5686955178250677,-0.07282322036684193,0.7493305232724952,22.214998,-0.2758768,0.7190409,-0.29592544,3.4252021,-10.885797,1.4850014,-0.5789648,-0.051430397,-0.5266855,-0.6202876,-8.707308,4.3434963,-1.3325125,-0.73260564,0.19772168,1.1068814,0
1.0400000000000007,21.0,-0.5686955178250677,-0.07282322036684193,0.7493305232724952,21.629202,-0.88758594,0.80735016,-0.119405344,3.3388352,-10.841737,1.4716487,-0.5752678,-0.051692154,-0.52467006,-0.62539244,-8.566264,4.4684415,-1.3379022,-0.7070118,0.15555702,1.0893362,1
1.0500000000000007,21.0,-0.5686955178250677,-0.07282322036684193,0.7493305232724952,21.629202,-0.88758594,0.80735016,-0.119405344,3.253894,-10.796407,1.4582605,-0.57158476,-0.051745288,-0.5227261,-0.6303731,-8.422151,4.597758,-1.3396126,-0.7352347,0.25721207,1.0300229,1
1.0600000000000007,21.0,-0.5686955178250677,-0.07282322036684193,0.7493305232724952,21.629202,-0.88758594,0.80735016,-0.119405344,3.170388,-10.74978,1.4448595,-0.5678224,-0.05127618,-0.52096087,-0.6352541,-8.279272,4.727802,-1.3404684,-0.7590388,0.3430179,0.97362006,1
1.0700000000000007,21.0,-0.5686955178250677,-0.07282322036684193,0.7493305232724952,21.629202,-0.88758594,0.80735016,-0.119405344,3.0883043,-10.701848,1.431454,-0.5640114,-0.050348837,-0.51934296,-0.6400301,-8.137736,4.8587112,-1.3405255,-0.77911735,0.41544467,0.919985,1
1.0800000000000007,21.0,-0.49272273117688653,-0.13008541179242158,0.6744505527588435,20.841236,-1.6188525,1.202909,0.055765077,3.0076284,-10.652602,1.4180516,-0.5601765,-0.04901834,-0.517846,-0.6446973,-7.9976387,4.9905977,-1.3398293,-0.7960539,0.4765783,0.8689818,0
1.0900000000000007,21.0,-0.49272273117688653,-0.13008541179242158,0.6744505527588435,20.841236,-1.6188525,1.202909,0.055765077,2.928326,-10.602052,1.4046454,-0.55646086,-0.04771381,-0.5163357,-0.6492086,-7.863074,5.119654,-1.3413044,-0.74869376,0.38200092,0.8594361,0
1.1000000000000008,21.0,-0.49272273117688653,-0.13008541179242158,0.6744505527588435,20.841236,-1.6188525,1.202909,0.055765077,2.850362,-10.550206,1.391228,-0.5529695,-0.046787128,-0.51470816,-0.65353715,-7.7298865,5.2495947,-1.3420581,-0.70872885,0.30216792,0.85035884,0
1.1100000000000008,21.0,-0.49272273117688653,-0.13008541179242158,0.6744505527588435,20.841236,-1.6188525,1.202909,0.055765077,2.7737236,-10.497058,1.3778067,-0.54966927,-0.04617773,-0.5129828,-0.65770787,-7.597962,5.380255,-1.3420594,-0.6750042,0.23478067,0.84172696,0
1.1200000000000008,21.0,-0.3925054628888463,-0.2709479288756411,0.38795933191763265,19.852222,-1.8867481,1.2486434,0.30439466,2.6983988,-10.442599,1.3643892,-0.54653174,-0.045834437,-0.5111753,-0.66174144,-7.4672003,5.5114985,-1.3412837,-0.64654547,0.1778991,0.8335187,0
1.1300000000000008,21.0,-0.3925054628888463,-0.2709479288756411,0.38795933191763265,19.852222,-1.8867481,1.2486434,0.30439466,2.624376,-10.3868265,1.3509836,-0.5435834,-0.045755204,-0.5092961,-0.66561294,-7.337512,5.6432023,-1.3397102,-0.60688853,0.10793183,0.8116549,0
1.1400000000000008,21.0,-0.3925054628888463,-0.2709479288756411,0.38795933191763265,19.852222,-1.8867481,1.2486434,0.30439466,2.5516453,-10.329734,1.3375978,-0.5408474,-0.045933835,-0.50735503,-0.66930157,-7.208793,5.775238,-1.3373228,-0.5734235,0.048871156,0.79086405,0
1.1500000000000008,21.0,-0.3925054628888463,-0.2709479288756411,0.38795933191763265,19.852222,-1.8867481,1.2486434,0.30439466,2.4801972,-10.27132,1.3242401,-0.53829706,-0.04632499,-0.50536245,-0.67282873,-7.0809445,5.907488,-1.3341094,-0.5451838,-0.0009825835,0.7710934,0
1.1600000000000008,21.0,-0.3034796694379632,-0.3627339008172399,0.03715892328748237,18.910252,-2.3997939,1.5420763,0.2927472,2.4100235,-10.211584,1.3109186,-0.5359095,-0.046890587,-0.50332695,-0.6762127,-6.9538813,6.0398526,-1.3300605,-0.52135307,-0.04306508,0.75229293,0
1.1700000000000008,21.0,-0.3034796694379632,-0.3627339008172399,0.03715892328748237,18.910252,-2.3997939,1.5420763,0.2927472,2.341117,-10.150524,1.2976419,-0.5337112,-0.047620818,-0.5012621,-0.67942643,-6.827527,6.172244,-1.3251698,-0.48735347,-0.09288926,0.7172011,0
1.1800000000000008,21.0,-0.3034796694379632,-0.3627339008172399,0.03715892328748237,18.910252,-2.3997939,1.5420763,0.2927472,2.2734706,-10.08814,1.2844181,-0.53172636,-0.04850353,-0.49917984,-0.6824466,-6.7017956,6.304571,-1.319438,-0.45866165,-0.13494784,0.6838313,0
1.1900000000000008,21.0,-0.3034796694379632,-0.3627339008172399,0.03715892328748237,18.910252,-2.3997939,1.5420763,0.2927472,2.207079,-10.024433,1.271256,-0.5299335,-0.04950636,-0.49708393,-0.685293,-6.576605,6.4367504,-1.3128682,-0.43444875,-0.17045109,0.65209883,0
1.2000000000000008,21.0,-0.4013286351709186,-0.1515439371366538,1.784686022699201,18.220442,-2.6275427,1.3266726,0.31676477,2.1419368,-9.959406,1.2581636,-0.52831393,-0.0506024,-0.4949774,-0.687983,-6.4518857,6.568712,-1.3054643,-0.41401535,-0.2004205,0.6219236,0
1.2100000000000009,21.0,-0.4013286351709186,-0.1515439371366538,1.784686022699201,18.220442,-2.6275427,1.3266726,0.31676477,2.0780396,-9.89306,1.2451494,-0.5266623,-0.051797267,-0.4928691,-0.6906688,-6.3275847,6.7004027,-1.2972311,-0.41203275,-0.19281274,0.6789807,0
1.2200000000000009,21.0,-0.4013286351709186,-0.1515439371366538,1.784686022699201,18.220442,-2.6275427,1.3266726,0.31676477,2.0153835,-9.825398,1.2322216,-0.52479196,-0.05310904,-0.4907629,-0.6934869,-6.2036905,6.8318124,-1.2881789,-0.4103598,-0.1863907,0.733238,0
1.2300000000000009,21.0,-0.4013286351709186,-0.1515439371366538,1.784686022699201,18.220442,-2.6275427,1.3266726,0.31676477,1.9539644,-9.756425,1.2193885,-0.52271354,-0.054533225,-0.48865438,-0.69642884,-6.0802045,6.9629445,-1.2783179,-0.408948,-0.18096943,0.78483284,0
1.2400000000000009,21.0,-0.4013286351709186,-0.1515439371366538,1.784686022699201,18.26621,-3.1585574,1.4835854,0.77364916,1.8937781,-9.686141,1.2066581,-0.5204367,-0.05606528,-0.48653972,-0.6994862,-5.957128,7.0938,-1.2676572,-0.40775657,-0.17639317,0.83389586,0
1.2500000000000009,21.0,-0.4013286351709186,-0.1515439371366538,1.784686022699201,18.26621,-3.1585574,1.4835854,0.77364916,1.8348205,-9.61455,1.1940384,-0.5179703,-0.057700623,-0.4844156,-0.70265096,-5.8344607,7.2243786,-1.2562041,-0.40675104,-0.17252983,0.88055146,0
1.260000000000001,21.0,-0.4013286351709186,-0.1515439371366538,1.784686022699201,18.26621,-3.1585574,1.4835854,0.77364916,1.7770875,-9.541655,1.1815369,-0.5153227,-0.059434682,-0.482279,-0.70591533,-5.712202,7.3546786,-1.2439653,-0.4059023,-0.16926825,0.92491764,0
1.270000000000001,21.0,-0.4013286351709186,-0.1515439371366538,1.784686022699201,18.26621,-3.1585574,1.4835854,0.77364916,1.720575,-9.467458,1.1691618,-0.51250136,-0.06126295,-0.48012745,-0.70927167,-5.5903506,7.484697,-1.2309463,-0.40518627,-0.1665149,0.9671067,0
1.280000000000001,21.0,-0.3755647748042136,-0.09355271430049872,2.407694558814966,18.452862,-3.3861716,1.5081172,1.0322403,1.6652792,-9.391963,1.1569208,-0.5095134,-0.063180976,-0.47795856,-0.71271265,-5.468905,7.614429,-1.2171521,-0.40458176,-0.1641905,1.0072256,0
1.290000000000001,21.0,-0.3755647748042136,-0.09355271430049872,2.407694558814966,18.452862,-3.3861716,1.5081172,1.0322403,1.6111956,-9.315171,1.1448215,-0.50629854,-0.06520983,-0.47578448,-0.71626675,-5.3478622,7.7438717,-1.2025883,-0.40005678,-0.15318967,1.075947,0
1.300000000000001,21.0,-0.3755647748042136,-0.09355271430049872,2.407694558814966,18.452862,-3.3861716,1.5081172,1.0322403,1.5583204,-9.237087,1.1328716,-0.50280124,-0.067370236,-0.4736131,-0.71996,-5.227223,7.873031,-1.1872694,-0.3962378,-0.1439034,1.1412963,0
1.310000000000001,21.0,-0.3755647748042136,-0.09355271430049872,2.407694558814966,18.452862,-3.3861716,1.5081172,1.0322403,1.5066497,-9.157713,1.1210787,-0.4990345,-0.06965716,-0.47143686,-0.7237812,-5.106986,8.001914,-1.1712102,-0.3930142,-0.13606481,1.2034388,0
1.320000000000001,21.0,-0.46970658258553183,0.07092428739478308,2.5751552950551546,18.637524,-3.4981935,0.9907069,1.1495486,1.4561793,-9.07705,1.1094499,-0.49501017,-0.07206544,-0.46924913,-0.7277199,-4.987151,8.130523,-1.154423,-0.390293,-0.12944782,1.2625319,0
1.330000000000001,21.0,-0.46970658258553183,0.07092428739478308,2.5751552950551546,18.637524,-3.4981935,0.9907069,1.1495486,1.4069052,-8.995103,1.0979927,-0.4906959,-0.07453292,-0.46704754,-0.73179805,-4.867721,8.258865,-1.1369181,-0.40269896,-0.09822692,1.3269427,0
1.340000000000001,21.0,-0.46970658258553183,0.07092428739478308,2.5751552950551546,18.637524,-3.4981935,0.9907069,1.1495486,1.3588232,-8.911874,1.086714,-0.48606524,-0.07701041,-0.46482873,-0.73603237,-4.7487288,8.386971,-1.1187005,-0.41316858,-0.07187347,1.3881929,0
1.350000000000001,21.0,-0.46970658258553183,0.07092428739478308,2.5751552950551546,18.637524,-3.4981935,0.9907069,1.1495486,1.3119287,-8.827364,1.0756211,-0.48113656,-0.079510055,-0.462586,-0.7404049,-4.630213,8.514871,-1.0997729,-0.42200378,-0.049628105,1.4464375,0
1.360000000000001,21.0,-0.8095254276798712,0.07616001904013886,2.0727357295798035,17.075638,-4.372724,1.7881424,2.9744718,1.266217,-8.741576,1.0647211,-0.47592616,-0.08204126,-0.4603136,-0.744899,-4.5122037,8.64259,-1.0801363,-0.4294595,-0.030850522,1.501824,0
1.370000000000001,21.0,-0.8095254276798712,0.07616001904013886,2.0727357295798035,17.075638,-4.372724,1.7881424,2.9744718,1.2216827,-8.654512,1.054021,-0.47050536,-0.08451663,-0.45791113,-0.7495323,-4.3947363,8.770142,-1.0597807,-0.48874646,-0.014229046,1.5298387,0
1.380000000000001,21.0,-0.8095254276798712,0.07616001904013886,2.0727357295798035,17.075638,-4.372724,1.7881424,2.9744718,1.1783202,-8.566174,1.0435282,-0.46493983,-0.08686344,-0.45529923,-0.7543128,-4.2778854,8.89753,-1.0386411,-0.5387857,-0.00019214978,1.5564789,0
1.390000000000001,21.0,-0.8095254276798712,0.07616001904013886,2.0727357295798035,17.075638,-4.372724,1.7881424,2.9744718,1.1361225,-8.4765625,1.033251,-0.45923537,-0.08910777,-0.45250162,-0.75921303,-4.161729,9.024745,-1.0166421,-0.58101946,0.011662459,1.5818118,0
1.400000000000001,21.0,-1.6654093786499606,0.03219563661969895,1.7789583259093318,17.257854,-4.652699,1.5611858,3.3523324,1.095083,-8.38568,1.0231986,-0.45339718,-0.09127102,-0.4495385,-0.76420885,-4.0463305,9.151775,-0.99371994,-0.6166655,0.021674447,1.6059016,0
1.410000000000001,21.0,-1.6654093786499606,0.03219563661969895,1.7789583259093318,17.257854,-4.652699,1.5611858,3.3523324,1.0551933,-8.293528,1.0133802,-0.447497,-0.093213506,-0.4461597,-0.76941454,-3.9317613,9.278596,-0.9697948,-0.7802181,0.02313998,1.6143935,0
1.420000000000001,21.0,-1.6654093786499606,0.03219563661969895,1.7789583259093318,17.257854,-4.652699,1.5611858,3.3523324,1.0164444,-8.200108,1.003807,-0.441596,-0.09482496,-0.4421655,-0.77491313,-3.8181856,9.405136,-0.9446549,-0.91826475,0.024402354,1.6224687,0
1.430000000000001,21.0,-1.6654093786499606,0.03219563661969895,1.7789583259093318,17.257854,-4.652699,1.5611858,3.3523324,0.9788256,-8.105426,0.99449205,-0.43568373,-0.09616054,-0.43763974,-0.7806432,-3.7057767,9.531303,-0.9180732,-1.0347828,0.025489338,1.6301476,0
1.440000000000001,21.0,-1.6654093786499606,0.03219563661969895,1.7789583259093318,19.274887,-5.722781,0.4889316,3.6349463,0.94232446,-8.009484,0.98545104,-0.42975092,-0.097266,-0.43265352,-0.786552,-3.5946772,9.657008,-0.889861,-1.1331298,0.026425444,1.6374497,0
1.450000000000001,21.0,-1.6654093786499606,0.03219563661969895,1.7789583259093318,19.274887,-5.722781,0.4889316,3.6349463,0.90692717,-7.9122877,0.97670096,-0.4237896,-0.09817933,-0.42726707,-0.79259425,-3.485005,9.782157,-0.8598622,-1.2161393,0.027231447,1.6443937,0
1.460000000000001,21.0,-1.6654093786499606,0.03219563661969895,1.7789583259093318,19.274887,-5.722781,0.4889316,3.6349463,0.8726191,-7.8138433,0.96826035,-0.41779304,-0.09893203,-0.42153168,-0.79873157,-3.3768573,9.906656,-0.82794917,-1.2862036,0.02792513,1.6509969,0
1.470000000000001,21.0,-1.6654093786499606,0.03219563661969895,1.7789583259093318,19.274887,-5.722781,0.4889316,3.6349463,0.83938456,-7.7141576,0.9601489,-0.41175553,-0.099550195,-0.41549093,-0.80493104,-3.270314,10.030414,-0.7940185,-1.3453413,0.028521985,1.657276,0
1.480000000000001,20.99999988010591,-2.779745797522437,0.9044741820202048,5.999999717006608,20.881948,-6.4097342,-0.62509775,4.361347,0.80720705,-7.6132383,0.95238715,-0.4056724,-0.10005547,-0.40918204,-0.8111648,-3.1654398,10.153336,-0.7579879,-1.3952565,0.029035687,1.663247,0
1.490000000000001,20.99999988010591,-2.779745797522437,0.9044741820202048,5.999999717006608,20.881948,-6.4097342,-0.62509775,4.361347,0.7760895,-7.5110707,0.94502264,-0.3989892,-0.10017225,-0.40246415,-0.817799,-3.0588005,10.279526,-0.71511316,-1.5792662,0.19725776,1.8693771,0
1.500000000000001,20.99999988010591,-2.779745797522437,0.9044741820202048,5.999999717006608,20.881948,-6.4097342,-0.62509775,4.361347,0.7460153,-7.407661,0.93808204,-0.3911959,-0.099720225,-0.3951793,-0.8251389,-2.9566627,10.402017,-0.67297906,-1.7447255,0.32907644,2.069869,0
1.5100000000000011,20.99999988010591,-2.779745797522437,0.9044741820202048,5.999999717006608,20.881948,-6.4097342,-0.62509775,4.361347,0.7169437,-7.303038,0.9315665,-0.38238436,-0.09886751,-0.38725758,-0.8330896,-2.858111,10.522303,-0.62978375,-1.9052254,0.4194396,2.2626202,0
1.5200000000000011,20.99999969673097,-3.2192705933933254,2.1139395873294493,5.999999642073685,19.505602,-7.568636,0.101832226,6.3496075,0.68884337,-7.1972184,0.92549574,-0.37261862,-0.097730614,-0.3786945,-0.84154254,-2.762421,10.641536,-0.5839197,-2.0417762,0.49463636,2.4460144,0
1.5300000000000011,20.99999969673097,-3.2192705933933254,2.1139395873294493,5.999999642073685,19.505602,-7.568636,0.101832226,6.3496075,0.66168463,-7.0902114,0.91989803,-0.36176848,-0.09590792,-0.3695749,-0.8504933,-2.669841,10.759669,-0.5351466,-2.2258906,0.74662125,2.6204095,0
1.5400000000000011,20.99999969673097,-3.2192705933933254,2.1139395873294493,5.999999642073685,19.505602,-7.568636,0.101832226,6.3496075,0.63543415,-6.9820285,0.9148033,-0.34973586,-0.09307778,-0.35995907,-0.8599128,-2.580861,10.8766985,-0.48329753,-2.3812733,0.95933264,2.786247,0
1.5500000000000012,20.99999969673097,-3.2192705933933254,2.1139395873294493,5.999999642073685,19.505602,-7.568636,0.101832226,6.3496075,0.61005336,-6.872681,0.91024315,-0.33659664,-0.08941412,-0.34986705,-0.8696552,-2.4959776,10.992596,-0.4282301,-2.5124004,1.1388979,2.9439466,0
1.5600000000000012,20.999999447419974,-2.8861157692589066,3.5730702552250984,5.999998914378108,17.858828,-7.793008,1.0847704,5.709336,0.58549917,-6.7621813,0.9062502,-0.32241672,-0.085061915,-0.33931804,-0.8795877,-2.415611,11.107265,-0.3698394,-2.6230526,1.2904875,3.093908,0
1.5700000000000012,20.999999447419974,-2.8861157692589066,3.5730702552250984,5.999998914378108,17.858828,-7.793008,1.0847704,5.709336,0.5617244,-6.650541,0.902858,-0.3070466,-0.07966813,-0.3286326,-0.88959277,-2.3401504,11.220593,-0.3080667,-2.6649446,1.6461239,3.2365108,0
1.5800000000000012,20.999999447419974,-2.8861157692589066,3.5730702552250984,5.999998914378108,17.858828,-7.793008,1.0847704,5.709336,0.53867745,-6.5377736,0.9001004,-0.29037964,-0.07294863,-0.31805682,-0.89955395,-2.2701356,11.332639,-0.2429479,-2.7002397,1.9463179,3.3721159,0
1.5900000000000012,20.999999447419974,-2.8861157692589066,3.5730702552250984,5.999998914378108,17.858828,-7.793008,1.0847704,5.709336,0.5163011,-6.4238925,0.8980104,-0.27252743,-0.06510976,-0.3075101,-0.90935487,-2.2061064,11.443437,-0.1745541,-2.7299669,2.199715,3.5010667,0
1.6000000000000012,20.999999366741445,-2.073661089877015,5.25575491233543,5.999986098031121,16.9617,-7.7370515,1.8632754,4.6386623,0.49453312,-6.3089094,0.89662033,-0.25358662,-0.056327585,-0.29692793,-0.9188874,-2.1485248,11.552918,-0.102967784,-2.754998,2.4136124,3.62369,0
1.6100000000000012,20.999999366741445,-2.073661089877015,5.25575491233543,5.999986098031121,16.9617,-7.7370515,1.8632754,4.6386623,0.47330698,-6.1928387,0.8959617,-0.23342665,-0.046211142,-0.28672358,-0.9279899,-2.0978227,11.660983,-0.028306087,-2.6500049,2.85689,3.7402954,0
1.6200000000000012,20.999999366741445,-2.073661089877015,5.25575491233543,5.999986098031121,16.9617,-7.7370515,1.8632754,4.6386623,0.4525509,-6.075694,0.896064,-0.21196142,-0.034445837,-0.27720916,-0.9365042,-2.0546143,11.767732,0.049185097,-2.5612671,3.2310228,3.8511791,0
1.6300000000000012,20.999999366741445,-2.073661089877015,5.25575491233543,5.999986098031121,16.9617,-7.7370515,1.8632754,4.6386623,0.43218678,-5.9574885,0.8969542,-0.18932982,-0.021278957,-0.2682037,-0.9443344,-2.019519,11.873226,0.12922305,-2.4862595,3.5467963,3.9566214,0
1.6400000000000012,20.999999366741445,-2.073661089877015,5.25575491233543,5.999986098031121,16.236738,-7.6294065,1.4922559,4.4821825,0.4121308,-5.8382344,0.89865625,-0.16565283,-0.0069263084,-0.25955844,-0.9513884,-1.9930706,11.977383,0.21152578,-2.42285,3.813313,4.05689,0
1.6500000000000012,20.999999366741445,-2.073661089877015,5.25575491233543,5.999986098031121,16.236738,-7.6294065,1.4922559,4.4821825,0.39229408,-5.717946,0.9011915,-0.14103776,0.008423006,-0.25115216,-0.95758,-1.9757179,12.079995,0.29580578,-2.3692384,4.038256,4.1522384,0
1.6600000000000013,20.999999366741445,-2.073661089877015,5.25575491233543,5.999986098031121,16.236738,-7.6294065,1.4922559,4.4821825,0.37258387,-5.596641,0.90457815,-0.11558166,0.024602626,-0.24288686,-0.9628297,-1.9678254,12.18075,0.3817665,-2.3239057,4.2281103,4.242908,0
1.6700000000000013,20.999999366741445,-2.073661089877015,5.25575491233543,5.999986098031121,16.236738,-7.6294065,1.4922559,4.4821825,0.35290405,-5.4743395,0.9088315,-0.089373715,0.041465607,-0.23468432,-0.96706545,-1.9696722,12.27925,0.46910116,-2.2855687,4.388349,4.3291283,0
1.6800000000000013,20.636428278039407,-1.2709793870648907,5.9999998966818255,5.914215271811896,17.577013,-7.894753,2.978323,1.513882,0.33315626,-5.3510656,0.9139638,-0.062497046,0.058881648,-0.22648276,-0.9702226,-1.9814532,12.375029,0.5574928,-2.2531445,4.5235915,4.4111176,0
1.6900000000000013,20.636428278039407,-1.2709793870648907,5.9999998966818255,5.914215271811896,17.577013,-7.894753,2.978323,1.513882,0.3132422,-5.2268577,0.91996765,-0.034994215,0.07700981,-0.2185602,-0.97215,-2.0029242,12.465988,0.6433572,-2.1008658,4.7541738,4.484875,0
1.7000000000000013,20.636428278039407,-1.2709793870648907,5.9999998966818255,5.914215271811896,17.577013,-7.894753,2.978323,1.513882,0.29306316,-5.1017575,0.92683184,-0.006922436,0.095974155,-0.21112682,-0.97271055,-2.0344753,12.553412,0.7294817,-1.9722391,4.9487457,4.555013,0
1.7100000000000013,20.636428278039407,-1.2709793870648907,5.9999998966818255,5.914215271811896,17.577013,-7.894753,2.978323,1.513882,0.27251756,-4.9758024,0.9345566,0.02162284,0.11561402,-0.20404954,-0.9718688,-2.0762503,12.636902,0.81539494,-1.8635865,5.11293,4.6217093,0
1.7200000000000013,18.91312353097219,-0.34195750620033716,5.9999999253206955,5.999997601230964,16.106895,-8.594571,3.0731683,1.8504299,0.25150284,-4.849034,0.94313747,0.05055307,0.13578424,-0.19722001,-0.96959305,-2.128297,12.715986,0.90063286,-1.7718034,5.251471,4.6851325,0
1.7300000000000013,18.91312353097219,-0.34195750620033716,5.9999999253206955,5.999997601230964,16.106895,-8.594571,3.0731683,1.8504299,0.22994182,-4.7215304,0.9524892,0.07974271,0.15637484,-0.19091247,-0.96578455,-2.1853702,12.783978,0.9695113,-1.5494026,5.3688164,4.7496533,0
1.7400000000000013,18.91312353097219,-0.34195750620033716,5.9999999253206955,5.999997601230964,16.106895,-8.594571,3.0731683,1.8504299,0.20776361,-4.593371,0.96252245,0.10907252,0.17729682,-0.18534286,-0.96037304,-2.2517078,12.847152,1.0368507,-1.3616259,5.467775,4.811008,0
1.7500000000000013,18.91312353097219,-0.34195750620033716,5.9999999253206955,5.999997601230964,16.106895,-8.594571,3.0731683,1.8504299,0.18487638,-4.4646053,0.9732192,0.13847157,0.19845039,-0.18035227,-0.95337063,-2.3271403,12.905183,1.1021644,-1.203081,5.551226,4.869352,0
1.7600000000000013,17.978113175677294,0.07458222840901343,5.9999999238639425,5.999998856969984,14.962739,-8.917229,2.6838474,1.8203049,0.16119035,-4.335286,0.98455715,0.16787292,0.21974109,-0.17580834,-0.9447875,-2.411433,12.957697,1.1649947,-1.0692153,5.621598,4.9248333,0
1.7700000000000014,17.978113175677294,0.07458222840901343,5.9999999238639425,5.999998856969984,14.962739,-8.917229,2.6838474,1.8203049,0.13664094,-4.2054834,0.9964699,0.19717492,0.2411098,-0.17175815,-0.93460506,-2.4996967,13.001993,1.2170955,-0.8912263,5.68115,4.9775925,0
1.7800000000000014,17.978113175677294,0.07458222840901343,5.9999999238639425,5.999998856969984,14.962739,-8.917229,2.6838474,1.8203049,0.11116955,-4.075267,1.008888,0.2262823,0.2625022,-0.16823316,-0.92281413,-2.5957735,13.040335,1.266006,-0.74095845,5.731337,5.0277624,0
1.7900000000000014,17.978113175677294,0.07458222840901343,5.9999999238639425,5.999998856969984,14.962739,-8.917229,2.6838474,1.8203049,0.0846999,-3.9446983,1.0217777,0.25514126,0.2838371,-0.1651116,-0.9094378,-2.6992865,13.072384,1.3113307,-0.6140927,5.773631,5.0754704,0
1.8000000000000014,17.574950564186988,-0.40862348607314963,5.9999997784349395,5.999999449147609,16.166338,-8.9298115,4.2566314,1.3986728,0.057159755,-3.813842,1.035101,0.2836992,0.30503684,-0.16229203,-0.89449877,-2.8098004,13.097789,1.3527082,-0.5069834,5.809272,5.120837,0
1.8100000000000014,17.574950564186988,-0.40862348607314963,5.9999997784349395,5.999999449147609,16.166338,-8.9298115,4.2566314,1.3986728,0.028494544,-3.6827688,1.0488019,0.31196457,0.32597005,-0.15951829,-0.8780518,-2.9241917,13.115763,1.3867872,-0.49190772,5.8390527,5.163978,0
1.8200000000000014,17.574950564186988,-0.40862348607314963,5.9999997784349395,5.999999449147609,16.166338,-8.9298115,4.2566314,1.3986728,-0.0013439325,-3.551552,1.0628216,0.33993816,0.3465145,-0.1565882,-0.8601449,-3.0443568,13.126452,1.416459,-0.4791607,5.864183,5.205002,0
1.8300000000000014,17.574950564186988,-0.40862348607314963,5.9999997784349395,5.999999449147609,16.166338,-8.9298115,4.2566314,1.3986728,-0.032410227,-3.4202662,1.0771153,0.3675572,0.36661243,-0.15349716,-0.84079427,-3.1696508,13.129443,1.4415336,-0.468382,5.8853884,5.244013,0
1.8400000000000014,17.574950564186988,-0.40862348607314963,5.9999997784349395,5.999999449147609,17.65746,-8.533442,4.8433824,0.655672,-0.064752206,-3.2889905,1.0916361,0.39476004,0.38621,-0.15024255,-0.82002,-3.299383,13.124362,1.4618533,-0.45926642,5.903282,5.2811093,0
1.8500000000000014,17.574950564186988,-0.40862348607314963,5.9999997784349395,5.999999449147609,17.65746,-8.533442,4.8433824,0.655672,-0.098410636,-3.1578078,1.1063356,0.42148623,0.40525672,-0.1468234,-0.79784626,-3.4328234,13.110882,1.477293,-0.45155647,5.9183817,5.3163853,0
1.8600000000000014,17.574950564186988,-0.40862348607314963,5.9999997784349395,5.999999449147609,17.65746,-8.533442,4.8433824,0.655672,-0.13341881,-3.0268028,1.1211648,0.44767654,0.42370534,-0.14324002,-0.77430046,-3.5692093,13.088725,1.4877626,-0.44503486,5.9311233,5.349931,0
1.8700000000000014,17.574950564186988,-0.40862348607314963,5.9999997784349395,5.999999449147609,17.65746,-8.533442,4.8433824,0.655672,-0.16980225,-2.8960638,1.1360737,0.473273,0.4415115,-0.13949385,-0.74941385,-3.7077496,13.057669,1.4932069,-0.43951765,5.9418745,5.3818297,0
1.8800000000000014,15.93481487376952,-1.4909854589513183,5.229696991340724,5.999999806795774,20.296673,-7.0512314,5.7550783,-0.30709472,-0.20757842,-2.7656808,1.1510118,0.4982191,0.45863363,-0.13558726,-0.7232208,-3.8476322,13.017545,1.4936066,-0.4348492,5.9509473,5.4121633,0
1.8900000000000015,15.93481487376952,-1.4909854589513183,5.229696991340724,5.999999806795774,20.296673,-7.0512314,5.7550783,-0.30709472,-0.24669111,-2.6357224,1.1658849,0.5226215,0.47459528,-0.13137214,-0.69596463,-3.9749079,12.972846,1.4802877,-0.5992654,5.8378773,5.4410086,0
1.9000000000000015,15.93481487376952,-1.4909854589513183,5.229696991340724,5.999999806795774,20.296673,-7.0512314,5.7550783,-0.30709472,-0.2870751,-2.5062525,1.180603,0.5465752,0.48902157,-0.12675774,-0.66786623,-4.1017547,12.919821,1.4627067,-0.73809433,5.7425265,5.4684386,0
1.9100000000000015,15.93481487376952,-1.4909854589513183,5.229696991340724,5.999999806795774,20.296673,-7.0512314,5.7550783,-0.30709472,-0.32872173,-2.3773541,1.1951256,0.5700078,0.5020138,-0.12181998,-0.63893074,-4.2273045,12.858537,1.4412019,-0.8553179,5.6621194,5.4945226,0
1.9200000000000015,15.688307762979443,-2.126934346379607,3.98495510830628,5.9999998131082455,20.597305,-6.541997,5.835103,-0.83183354,-0.37161392,-2.2491093,1.2094148,0.59284955,0.5136567,-0.11661973,-0.6091679,-4.3507414,12.7891245,1.416112,-0.9542983,5.594314,5.5193267,0
1.9300000000000015,15.688307762979443,-2.126934346379607,3.98495510830628,5.9999998131082455,20.597305,-6.541997,5.835103,-0.83183354,-0.41571733,-2.1215928,1.2234315,0.61511195,0.5235745,-0.11135459,-0.578884,-4.4694366,12.712994,1.3867266,-1.1363494,5.3426633,5.542914,0
1.9400000000000015,15.688307762979443,-2.126934346379607,3.98495510830628,5.9999998131082455,20.597305,-6.541997,5.835103,-0.83183354,-0.46099052,-1.9948751,1.2371404,0.6368184,0.5315008,-0.10620633,-0.548351,-4.5846024,12.629468,1.3547105,-1.2901406,5.130355,5.5653434,0
1.9500000000000015,15.688307762979443,-2.126934346379607,3.98495510830628,5.9999998131082455,20.597305,-6.541997,5.835103,-0.83183354,-0.50739515,-1.8690274,1.2505186,0.6579179,0.5376455,-0.10119198,-0.5175334,-4.695633,12.539017,1.3206265,-1.4200588,4.951239,5.586672,0
1.9600000000000015,15.392128923235449,-2.9568322609813102,2.808229389558182,5.999999840375432,20.559935,-6.3134656,6.025256,-1.3160838,-0.5548872,-1.744117,1.2635475,0.67835903,0.5421835,-0.09631886,-0.48640317,-4.8020067,12.442118,1.2849976,-1.5298104,4.800128,5.606954,0
1.9700000000000015,15.392128923235449,-2.9568322609813102,2.808229389558182,5.999999840375432,20.559935,-6.3134656,6.025256,-1.3160838,-0.6034081,-1.6201961,1.276209,0.6982299,0.5448128,-0.09175375,-0.4552303,-4.901369,12.341222,1.2471821,-1.7512747,4.4886603,5.6262407,0
1.9800000000000015,15.392128923235449,-2.9568322609813102,2.808229389558182,5.999999840375432,20.559935,-6.3134656,6.025256,-1.3160838,-0.65289617,-1.4973105,1.2884899,0.71760845,0.54532146,-0.08764826,-0.42424032,-4.995399,12.235133,1.2090092,-1.93837,4.2258887,5.644581,0
1.9900000000000015,15.392128923235449,-2.9568322609813102,2.808229389558182,5.999999840375432,20.559935,-6.3134656,6.025256,-1.3160838,-0.7032969,-1.3755089,1.3003902,0.7364284,0.5439618,-0.08397468,-0.39335284,-5.0838637,12.124516,1.171121,-2.0964305,4.0042,5.6620216,0
2.0000000000000013,,,,,19.709934,-6.1994953,6.207547,-1.6382324,-0.7545538,-1.2548335,1.3119153,0.75462496,0.5409439,-0.08070053,-0.3625019,-5.166604,12.010002,1.1340845,-2.229962,3.8171718,5.6786065,0
2.010000000000001,,,,,19.709934,-6.1994953,6.207547,-1.6382324,-0.80664337,-1.1353719,1.323104,0.77238077,0.5359029,-0.07793333,-0.33190623,-5.250322,11.881831,1.1039518,-2.5430505,3.493505,5.6943774,0
2.020000000000001,,,,,19.709934,-6.1994953,6.207547,-1.6382324,-0.8595385,-1.0172063,1.334002,0.7898306,0.5285638,-0.07577702,-0.30173686,-5.327718,11.750935,1.0760813,-2.8074927,3.2204897,5.709375,0
2.0300000000000007,,,,,19.709934,-6.1994953,6.207547,-1.6382324,-0.91317636,-0.90035975,1.3446358,0.80684596,0.51920676,-0.07418566,-0.2718819,-5.3988867,11.61815,1.051187,-3.0308475,2.9902008,5.7236357,0
2.0400000000000005,,,,,19.709934,-6.1994953,6.207547,-1.6382324,-0.96749544,-0.78484714,1.3550382,0.8233085,0.50806653,-0.07310954,-0.24225117,-5.4639864,11.48427,1.0298616,-3.219499,2.795952,5.737197,0
2.0500000000000003,,,,,18.428043,-6.2094445,6.4927526,-1.7127599,-1.022436,-0.6706755,1.3652471,0.83911115,0.49534118,-0.072497495,-0.21277404,-5.523226,11.350054,1.0125886,-3.3788397,2.6321046,5.7500925,1
2.06,,,,,18.428043,-6.2094445,6.4927526,-1.7127599,-1.0781351,-0.5583231,1.375607,0.8538032,0.48179725,-0.07165359,-0.18372913,-5.6147785,11.121489,1.0600005,-3.3093312,2.68019,5.4786305,1
2.07,,,,,18.428043,-6.2094445,6.4927526,-1.7127599,-1.1346921,-0.44822156,1.3864604,0.86708313,0.46808165,-0.06994667,-0.15547672,-5.6948943,10.89996,1.1112428,-3.2511346,2.7212005,5.2138915,1
2.0799999999999996,,,,,18.428043,-6.2094445,6.4927526,-1.7127599,-1.1919959,-0.3402983,1.397844,0.87906885,0.4541893,-0.06742625,-0.12807412,-5.76423,10.685896,1.1659846,-3.2024045,2.756164,4.95571,1
2.0899999999999994,,,,,17.385448,-5.4877462,5.046059,1.8176571,-1.249942,-0.23447673,1.409791,0.8898682,0.4401179,-0.06414206,-0.10156728,-5.8234296,10.479674,1.2238961,-3.1615982,2.785961,4.7039223,1
2.099999999999999,,,,,17.385448,-5.4877462,5.046059,1.8176571,-1.3083582,-0.13038987,1.4221038,0.8999394,0.42524716,-0.059716426,-0.075545736,-5.858804,10.338514,1.2390833,-3.4150887,3.0281808,4.5721345,1
2.109999999999999,,,,,17.385448,-5.4877462,5.046059,1.8176571,-1.3670955,-0.027687524,1.4345821,0.90963024,0.4089276,-0.053767577,-0.049592182,-5.887631,10.202857,1.257052,-3.6662161,3.2698753,4.443487,1
2.1199999999999988,,,,,17.385448,-5.4877462,5.046059,1.8176571,-1.4260882,0.07368812,1.4472547,0.91886663,0.39111707,-0.046340887,-0.023736492,-5.9098926,10.073266,1.2779281,-3.914814,3.510589,4.317875,1
2.1299999999999986,,,,,15.205301,-5.5856724,3.8509474,2.0114958,-1.485271,0.17380016,1.4601513,0.92756134,0.37177923,-0.03748993,0.0019871881,-5.9256573,9.950048,1.3020611,-4.1561174,3.7453392,4.1955934,1
2.1399999999999983,,,,,15.205301,-5.5856724,3.8509474,2.0114958,-1.5445733,0.27278122,1.4732345,0.9355872,0.35093254,-0.027807813,0.027366484,-5.9339786,9.846902,1.315343,-4.378837,3.7615054,4.0884194,1
2.149999999999998,,,,,15.205301,-5.5856724,3.8509474,2.0114958,-1.6039324,0.37075573,1.4864744,0.9428194,0.32870162,-0.017865025,0.052220084,-5.937039,9.748849,1.3333907,-4.566828,3.775256,3.986504,1
2.159999999999998,,,,,15.205301,-5.5856724,3.8509474,2.0114958,-1.6632969,0.46777824,1.4999183,0.9491615,0.3052425,-0.007720832,0.07654381,-5.935123,9.65661,1.3561287,-4.725507,3.786946,3.8895898,1
2.1699999999999977,,,,,14.633968,-5.5194387,3.6284337,2.0709498,-1.7226188,0.56391025,1.5136124,0.9545347,0.2806954,0.0025734555,0.10033057,-5.928555,9.570856,1.3833947,-4.859446,3.7968793,3.7974312,1
2.1799999999999975,,,,,14.633968,-5.5194387,3.6284337,2.0709498,-1.7818552,0.6592348,1.5275768,0.9588686,0.25522235,0.012888689,0.12355397,-5.918104,9.495167,1.4100773,-4.962098,3.7706301,3.7127123,1
2.1899999999999973,,,,,14.633968,-5.5194387,3.6284337,2.0709498,-1.8409681,0.75383896,1.5418273,0.96211463,0.22897051,0.023118785,0.14619389,-5.9039264,9.426847,1.4405864,-5.0487647,3.7485096,3.6321504,1
2.199999999999997,,,,,14.633968,-5.5194387,3.6284337,2.0709498,-1.8999225,0.8477987,1.5564005,0.9642437,0.20203915,0.0332526,0.16824897,-5.88645,9.366368,1.474568,-5.1219354,3.729866,3.5555418,1
2.209999999999997,,,,,14.407801,-5.298835,3.541334,1.6126012,-1.9586873,0.9411947,1.5713292,0.96523434,0.17451869,0.043279044,0.18971564,-5.8661127,9.31414,1.5116245,-5.183713,3.7141504,3.4826925,1
2.2199999999999966,,,,,14.407801,-5.298835,3.541334,1.6126012,-2.0172381,1.0341146,1.5866314,0.96507204,0.14658196,0.05318058,0.21052471,-5.843712,9.271187,1.5491897,-5.201385,3.687471,3.3909264,1
2.2299999999999964,,,,,14.407801,-5.298835,3.541334,1.6126012,-2.0755548,1.1266483,1.6023203,0.9637642,0.11837757,0.06294299,0.2306138,-5.8193717,9.236952,1.5888845,-5.216324,3.6649444,3.3036635,1
2.239999999999996,,,,,14.407801,-5.298835,3.541334,1.6126012,-2.1336203,1.2188841,1.6184148,0.96132684,0.08995136,0.07255908,0.24998765,-5.793529,9.211624,1.630221,-5.228953,3.6459234,3.2206826,1
2.249999999999996,,,,,12.634666,-5.554267,3.430938,0.7714593,-2.1914217,1.3109118,1.6349287,0.9577763,0.061347023,0.082020536,0.26865008,-5.7666144,9.195342,1.6726998,-5.23963,3.6298597,3.1417737,1
2.259999999999996,,,,,12.634666,-5.554267,3.430938,0.7714593,-2.248967,1.4028274,1.6517861,0.95316684,0.032525316,0.09124621,0.28651077,-5.7423997,9.18906,1.6986814,-5.2858667,3.5966516,3.0256925,1
2.2699999999999956,,,,,12.634666,-5.554267,3.430938,0.7714593,-2.3062694,1.4947207,1.6689022,0.94754785,0.0034389137,0.10017693,0.30348828,-5.7180676,9.190865,1.7245291,-5.327416,3.5711107,2.9150765,1
2.2799999999999954,,,,,12.634666,-5.554267,3.430938,0.7714593,-2.3633294,1.5866725,1.6862755,0.9409293,-0.02585134,0.10881613,0.31959686,-5.6939626,9.200755,1.7500392,-5.362509,3.5495517,2.8098888,1
2.289999999999995,,,,,9.645222,-5.481679,2.349049,-0.3497067,-2.4201508,1.6787636,1.7039003,0.93332285,-0.055285864,0.1171634,0.33484942,-5.670461,9.218702,1.7747556,-5.3921494,3.531351,2.7098625,1
2.299999999999995,,,,,9.645222,-5.481679,2.349049,-0.3497067,-2.4767401,1.7710757,1.7217749,0.92478377,-0.084875055,0.12492815,0.34923306,-5.64771,9.244876,1.7994477,-5.4765096,3.4181232,2.588744,1
2.3099999999999947,,,,,9.645222,-5.481679,2.349049,-0.3497067,-2.5331116,1.8636855,1.739873,0.9153689,-0.11460405,0.13186985,0.36273327,-5.6269245,9.278131,1.8194416,-5.544847,3.3196664,2.4706252,1
2.3199999999999945,,,,,9.645222,-5.481679,2.349049,-0.3497067,-2.5892866,1.956661,1.7581466,0.9050959,-0.14438763,0.1380547,0.3753585,-5.6084437,9.31792,1.8344868,-5.599854,3.2338703,2.355432,1
