time-since-start [s],throttle_mpc,roll_mpc,pitch_mpc,yaw_mpc,throttle_nw,roll_nw,pitch_nw,yaw_nw,position_x [m],position_y [m],position_z [m],rotation_w [quaternion],rotation_x [quaternion],rotation_y [quaternion],rotation_z [quaternion],velocity_x [m/s],velocity_y [m/s],velocity_z [m/s],omega_x [rad/s],omega_y [rad/s],omega_z [rad/s],network_used
0.0,9.445615318196715,5.999999757810362,-5.9999999390204986,-4.635838740740954,10.747344,-1.756301,-4.939818,0.5619495,19.780336,-9.4559555,2.096834,0.08758204,0.48357797,-0.21206595,-0.8446951,-10.582685,-5.98996,-0.36935806,1.1471577,0.24454348,0.35477722,0
0.01,9.445615318196715,5.999999757810362,-5.9999999390204986,-4.635838740740954,13.532201,-2.4400938,-5.7168875,-1.408529,19.67375,-9.51561,2.093042,0.08628264,0.4845576,-0.21724541,-0.8429494,-10.734265,-5.9408097,-0.3894039,1.0422834,0.13228515,0.18716973,0
0.02,9.445615318196715,5.999999757810362,-5.9999999390204986,-4.635838740740954,13.532201,-2.4400938,-5.7168875,-1.408529,19.56566,-9.574769,2.0890388,0.08436981,0.4851836,-0.22170855,-0.84161985,-10.883784,-5.8907743,-0.411548,0.9763698,0.014930584,0.025526576,0
0.03,9.445615318196715,5.999999757810362,-5.9999999390204986,-4.635838740740954,13.532201,-2.4400938,-5.7168875,-1.408529,19.456083,-9.633424,2.0848045,0.08176964,0.485446,-0.22562999,-0.84068245,-11.0311775,-5.839925,-0.43553516,0.9454567,-0.10885441,-0.13039607,0
0.04,9.445615318196715,5.999999757810362,-5.9999999390204986,-4.635838740740954,13.295115,-2.2653837,-5.5573273,-1.5839145,19.345045,-9.6915655,2.080322,0.07841789,0.48533013,-0.22916116,-0.84011334,-11.176275,-5.788306,-0.46118748,0.94478565,-0.23877728,-0.28094158,0
0.05,9.445615318196715,5.999999757810362,-5.9999999390204986,-4.635838740740954,13.295115,-2.2653837,-5.5573273,-1.5839145,19.232569,-9.749187,2.0755756,0.07425946,0.48481807,-0.23243254,-0.8398881,-11.31891,-5.735913,-0.48834234,0.9702145,-0.3744641,-0.4264253,0
0.060000000000000005,9.445615318196715,5.999999757810362,-5.9999999390204986,-4.635838740740954,13.295115,-2.2653837,-5.5573273,-1.5839145,19.118677,-9.80628,2.0705507,0.069247454,0.48388925,-0.23555619,-0.8399816,-11.458918,-5.682698,-0.5168505,1.0181344,-0.5154836,-0.56713706,0
0.07,9.445615318196715,5.999999757810362,-5.9999999390204986,-4.635838740740954,13.295115,-2.2653837,-5.5573273,-1.5839145,19.0034,-9.862837,2.0652344,0.06334231,0.48252097,-0.23862773,-0.84036773,-11.596138,-5.628586,-0.5465741,1.0853978,-0.66136825,-0.70334315,0
0.08,12.05501127875485,5.999999907520798,-5.999999983198854,-4.714473150911791,15.353407,-3.1832333,-5.878337,-0.5339209,18.886766,-9.918848,2.0596156,0.056511045,0.48068854,-0.2417284,-0.84101856,-11.730411,-5.5734787,-0.5773853,1.1692563,-0.8116309,-0.83528876,0
0.09,12.05501127875485,5.999999907520798,-5.999999983198854,-4.714473150911791,15.353407,-3.1832333,-5.878337,-0.5339209,18.768719,-9.974266,2.053727,0.048598796,0.47825244,-0.24504957,-0.84194016,-11.878563,-5.509967,-0.60056686,1.326763,-1.0253197,-0.9723716,0
0.09999999999999999,12.05501127875485,5.999999907520798,-5.999999983198854,-4.714473150911791,15.353407,-3.1832333,-5.878337,-0.5339209,18.64921,-10.029042,2.0476007,0.039463896,0.47507662,-0.24875793,-0.84312755,-12.0227785,-5.4450436,-0.6247778,1.4928783,-1.2389216,-1.1056961,0
0.10999999999999999,12.05501127875485,5.999999907520798,-5.999999983198854,-4.714473150911791,15.353407,-3.1832333,-5.878337,-0.5339209,18.528278,-10.08316,2.041228,0.029100977,0.4711384,-0.25288045,-0.8445312,-12.162823,-5.3784633,-0.64985955,1.6660526,-1.4522407,-1.2354282,0
0.11999999999999998,12.05501127875485,5.999999907520798,-5.999999983198854,-4.714473150911791,15.353407,-3.1832333,-5.878337,-0.5339209,18.405968,-10.136605,2.0346007,0.017508663,0.466412,-0.25743547,-0.84609693,-12.298453,-5.310002,-0.67566556,1.844937,-1.6650718,-1.3617216,0
0.12999999999999998,16.13028571582307,5.999999978058315,-6.0,-4.337842146466782,17.364443,1.8927926,-4.074416,-3.0712373,18.282324,-10.189354,2.0277126,0.0046895286,0.460869,-0.2624333,-0.8477654,-12.429422,-5.239464,-0.7020606,2.028358,-1.8772054,-1.48472,0
0.13999999999999999,16.13028571582307,5.999999978058315,-6.0,-4.337842146466782,17.364443,1.8927926,-4.074416,-3.0712373,18.157295,-10.24133,2.0206137,-0.009638971,0.45412344,-0.26822937,-0.8495479,-12.575014,-5.1553497,-0.7178488,2.3777702,-2.251237,-1.6006031,0
0.15,16.13028571582307,5.999999978058315,-6.0,-4.337842146466782,17.364443,1.8927926,-4.074416,-3.0712373,18.030844,-10.292452,2.0133538,-0.0257249,0.4458072,-0.27511805,-0.8514129,-12.713888,-5.0685334,-0.7342537,2.7162473,-2.6105683,-1.7146974,0
0.16,20.146480559639222,5.9999999974110825,-6.0,-3.7541821962650315,18.416628,1.2137994,-4.452207,-2.5733132,17.903042,-10.34269,2.0059276,-0.043508787,0.43591237,-0.2830094,-0.8532249,-12.845553,-4.9786525,-0.7510559,3.0442767,-2.9562683,-1.8269814,0
0.17,20.146480559639222,5.9999999974110825,-6.0,-3.7541821962650315,18.416628,1.2137994,-4.452207,-2.5733132,17.773867,-10.391946,1.9983916,-0.063169286,0.42406464,-0.29213223,-0.85489017,-12.988203,-4.871331,-0.7558026,3.5044448,-3.4316986,-1.9215498,0
0.18000000000000002,20.146480559639222,5.9999999974110825,-6.0,-3.7541821962650315,18.416628,1.2137994,-4.452207,-2.5733132,17.6433,-10.440094,1.9908187,-0.084716074,0.41005605,-0.30252904,-0.85624355,-13.124126,-4.7573285,-0.7584662,3.8929005,-3.8329368,-2.0114775,0
0.19000000000000003,20.146480559639222,5.9999999974110825,-6.0,-3.7541821962650315,18.416628,1.2137994,-4.452207,-2.5733132,17.511412,-10.487067,1.9832301,-0.10785706,0.3941031,-0.31386417,-0.85705227,-13.252105,-4.6362834,-0.75885475,4.2208276,-4.1715527,-2.0969925,0
0.20000000000000004,20.999999857438965,5.999999980940693,-6.0,-3.29166176278958,19.22046,3.2965372,-4.3862405,-3.7094212,17.378286,-10.532796,1.9756497,-0.13233146,0.37639508,-0.32584983,-0.85710955,-13.370958,-4.5080976,-0.7568629,4.497663,-4.457314,-2.178311,0
0.21000000000000005,20.999999857438965,5.999999980940693,-6.0,-3.29166176278958,19.22046,3.2965372,-4.3862405,-3.7094212,17.244001,-10.577177,1.9681227,-0.15785569,0.35708252,-0.33826083,-0.8562436,-13.484156,-4.3671827,-0.74812293,4.731443,-4.698395,-2.2329435,0
0.22000000000000006,20.999999857438965,5.999999980940693,-6.0,-3.29166176278958,19.22046,3.2965372,-4.3862405,-3.7094212,17.108643,-10.620115,1.9606956,-0.18417168,0.33630115,-0.35090518,-0.8543113,-13.58555,-4.21934,-0.73692566,4.9288125,-4.901833,-2.2848952,0
0.23000000000000007,20.999999857438965,5.999999980940693,-6.0,-3.29166176278958,19.22046,3.2965372,-4.3862405,-3.7094212,16.972336,-10.661543,1.9533924,-0.21109107,0.31419343,-0.3635988,-0.85118675,-13.6741085,-4.065138,-0.723392,5.095445,-5.073504,-2.3342977,0
0.24000000000000007,20.999999857438965,5.999999980940693,-6.0,-3.29166176278958,20.447535,2.7135184,-4.229661,-3.6707191,16.835209,-10.7014,1.9462352,-0.23844172,0.29089177,-0.37618375,-0.84676635,-13.748894,-3.9053204,-0.70770556,5.23613,-5.2183647,-2.3812757,0
0.25000000000000006,20.999999857438965,5.999999980940693,-6.0,-3.29166176278958,20.447535,2.7135184,-4.229661,-3.6707191,16.697407,-10.739634,1.9392449,-0.26606563,0.26652032,-0.38852465,-0.8409664,-13.809081,-3.7407856,-0.690105,5.3549104,-5.3406005,-2.4259486,0
0.26000000000000006,20.999999857438965,5.999999980940693,-6.0,-3.29166176278958,20.447535,2.7135184,-4.229661,-3.6707191,16.55908,-10.776204,1.9324387,-0.29381722,0.24119598,-0.40050542,-0.83372134,-13.853962,-3.5725605,-0.6708765,5.4551983,-5.4437428,-2.4684293,0
0.2700000000000001,20.999999857438965,5.999999980940693,-6.0,-3.29166176278958,20.447535,2.7135184,-4.229661,-3.6707191,16.420383,-10.811078,1.9258317,-0.32156184,0.21502946,-0.41202644,-0.8249815,-13.882964,-3.401783,-0.650346,5.5398746,-5.530773,-2.5088258,0
0.2800000000000001,21.0,5.99999950974377,-5.99999985453162,-2.8575589718387593,20.945684,1.2864023,-3.9365032,-2.6707897,16.281479,-10.844236,1.919435,-0.3491745,0.18812609,-0.4230023,-0.81471145,-13.895649,-3.2296786,-0.6288724,5.6113706,-5.6042056,-2.5472398,0
0.2900000000000001,21.0,5.99999950974377,-5.99999985453162,-2.8575589718387593,20.945684,1.2864023,-3.9365032,-2.6707897,16.142529,-10.875671,1.9132563,-0.3764956,0.16056345,-0.4333698,-0.8029078,-13.891726,-3.0575418,-0.60684055,5.671818,-5.666086,-2.562467,0
0.3000000000000001,21.0,5.99999950974377,-5.99999985453162,-2.8575589718387593,20.945684,1.2864023,-3.9365032,-2.6707897,16.003702,-10.905392,1.9072989,-0.4033777,0.13241589,-0.44307452,-0.7895805,-13.871053,-2.886715,-0.58465606,5.7228565,-5.718299,-2.5769472,0
0.3100000000000001,21.0,5.99999950974377,-5.99999985453162,-2.8575589718387593,20.945684,1.2864023,-3.9365032,-2.6707897,15.865166,-10.933415,1.9015623,-0.42972627,0.10377703,-0.45206037,-0.7747303,-13.833634,-2.7185678,-0.5627403,5.765951,-5.7623544,-2.5907168,0
0.3200000000000001,21.0,3.373270810765153,-5.459561314163419,0.5352828419982546,20.321306,-1.0116049,-3.9112031,-0.76207006,15.727087,-10.959777,1.8960418,-0.45545325,0.07473683,-0.4602794,-0.75836647,-13.77963,-2.554482,-0.5415247,5.8023386,-5.7995257,-2.6038108,0
0.3300000000000001,21.0,3.373270810765153,-5.459561314163419,0.5352828419982546,20.321306,-1.0116049,-3.9112031,-0.76207006,15.58963,-10.984525,1.890728,-0.480004,0.045841087,-0.46704292,-0.7411921,-13.709427,-2.3958309,-0.52139246,5.4241953,-5.7453203,-2.4497745,0
0.34000000000000014,21.0,3.373270810765153,-5.459561314163419,0.5352828419982546,20.321306,-1.0116049,-3.9112031,-0.76207006,15.452951,-11.007718,1.8856097,-0.50297904,0.017533625,-0.47187048,-0.7239081,-13.624025,-2.2439098,-0.50242114,5.1049714,-5.6997576,-2.3032968,0
0.35000000000000014,21.0,3.373270810765153,-5.459561314163419,0.5352828419982546,20.321306,-1.0116049,-3.9112031,-0.76207006,15.317198,-11.02943,1.8806756,-0.52450794,-0.010250273,-0.47499827,-0.7065147,-13.524588,-2.0998442,-0.48460096,4.835485,-5.661454,-2.164007,0
0.36000000000000015,21.0,1.959055396056969,-2.991402207369019,0.7393219438351533,20.25175,-2.6035624,-3.2067924,0.10618989,15.182504,-11.049745,1.8759137,-0.5446965,-0.037568025,-0.47662055,-0.68900454,-13.412236,-1.9645995,-0.4679517,4.607985,-5.629249,-2.0315518,0
0.37000000000000016,21.0,1.959055396056969,-2.991402207369019,0.7393219438351533,20.25175,-2.6035624,-3.2067924,0.10618989,15.048993,-11.068755,1.8713124,-0.56318325,-0.063495964,-0.47706786,-0.6717136,-13.288132,-1.83893,-0.45252684,4.195895,-5.216959,-1.8955843,0
0.38000000000000017,21.0,1.959055396056969,-2.991402207369019,0.7393219438351533,20.25175,-2.6035624,-3.2067924,0.10618989,14.916776,-11.086557,1.8668587,-0.5797556,-0.08732292,-0.47668615,-0.6550026,-13.153764,-1.7230031,-0.43841374,3.8479028,-4.8691287,-1.7662888,0
0.3900000000000002,21.0,1.959055396056969,-2.991402207369019,0.7393219438351533,20.25175,-2.6035624,-3.2067924,0.10618989,14.785948,-11.10325,1.8625394,-0.59468627,-0.109384105,-0.47562897,-0.63887435,-13.010557,-1.6167297,-0.42567533,3.5540433,-4.575674,-1.6433378,0
0.4000000000000002,20.999999944628748,0.288884750843661,-0.6213968408891046,1.4204701762319463,19.265015,-3.0272682,-1.9215913,0.3052594,14.656591,-11.118925,1.8583404,-0.6081986,-0.12996536,-0.47401148,-0.623311,-12.859721,-1.5199683,-0.4143468,3.3059018,-4.3280888,-1.52642,0
0.4100000000000002,20.999999944628748,0.288884750843661,-0.6213968408891046,1.4204701762319463,19.265015,-3.0272682,-1.9215913,0.3052594,14.528776,-11.133681,1.8542477,-0.62007815,-0.1483562,-0.4720866,-0.608792,-12.702346,-1.4324613,-0.40443674,2.8363314,-3.7492952,-1.3818153,0
0.4200000000000002,20.999999944628748,0.288884750843661,-0.6213968408891046,1.4204701762319463,19.265015,-3.0272682,-1.9215913,0.3052594,14.402562,-11.147604,1.8502473,-0.6302158,-0.16403024,-0.47010487,-0.59575456,-12.539661,-1.3534087,-0.39587107,2.4397926,-3.2609239,-1.2443063,0
0.4300000000000002,20.999999944628748,0.288884750843661,-0.6213968408891046,1.4204701762319463,19.265015,-3.0272682,-1.9215913,0.3052594,14.277996,-11.160776,1.8463261,-0.63890845,-0.1774568,-0.46812555,-0.5840921,-12.372744,-1.2818834,-0.38853073,2.1049383,-2.8488386,-1.1135451,0
0.4400000000000002,20.999999944628748,0.288884750843661,-0.6213968408891046,1.4204701762319463,18.474072,-3.2109892,0.14133398,0.9727796,14.155118,-11.173265,1.8424727,-0.6463922,-0.18902893,-0.4661806,-0.5736906,-12.202435,-1.2170495,-0.38228795,1.8221822,-2.5011163,-0.9892003,0
0.45000000000000023,20.999999944628748,0.288884750843661,-0.6213968408891046,1.4204701762319463,18.474072,-3.2109892,0.14133398,0.9727796,14.033957,-11.185137,1.8386768,-0.65285605,-0.19907513,-0.46428385,-0.5644365,-12.029391,-1.1581651,-0.3770169,1.5834254,-2.2076976,-0.870957,0
0.46000000000000024,20.999999944628748,0.288884750843661,-0.6213968408891046,1.4204701762319463,18.474072,-3.2109892,0.14133398,0.9727796,13.914536,-11.196447,1.8349293,-0.6584524,-0.20786937,-0.4624377,-0.55622137,-11.85413,-1.1045799,-0.3725994,1.3818277,-1.9600983,-0.7585161,0
0.47000000000000025,20.999999944628748,0.288884750843661,-0.6213968408891046,1.4204701762319463,18.474072,-3.2109892,0.14133398,0.9727796,13.79688,-11.207245,1.8312223,-0.6633048,-0.21563992,-0.46063748,-0.5489439,-11.677059,-1.0557284,-0.36892787,1.21161,-1.7511593,-0.6515926,0
0.48000000000000026,20.999999649724728,-1.0911068697189479,1.4314017635192011,1.9531876511922859,17.651075,-3.8821483,1.9411036,2.0072432,13.681001,-11.217576,1.8275486,-0.6675142,-0.22257674,-0.45887464,-0.5425114,-11.498501,-1.011122,-0.36590657,1.0678912,-1.5748413,-0.5499159,0
0.49000000000000027,20.999999649724728,-1.0911068697189479,1.4314017635192011,1.9531876511922859,17.651075,-3.8821483,1.9411036,2.0072432,13.566915,-11.22748,1.8239022,-0.67087907,-0.2280559,-0.45737746,-0.53732467,-11.318738,-0.9702521,-0.36343867,0.7314553,-1.105839,-0.4270879,0
0.5000000000000002,20.999999649724728,-1.0911068697189479,1.4314017635192011,1.9531876511922859,17.651075,-3.8821483,1.9411036,2.0072432,13.45463,-11.23699,1.8202784,-0.673254,-0.23159984,-0.4563356,-0.5337121,-11.138143,-0.93217564,-0.36136383,0.44739354,-0.71004343,-0.3102871,0
0.5100000000000002,20.999999649724728,-1.0911068697189479,1.4314017635192011,1.9531876511922859,17.651075,-3.8821483,1.9411036,2.0072432,13.344153,-11.24613,1.8166742,-0.67478216,-0.23354723,-0.45567998,-0.53148913,-10.95705,-0.89591354,-0.3595135,0.2075614,-0.37602153,-0.19921774,0
0.5200000000000002,20.9999995845552,-3.163501543418159,3.8303705047066114,2.2344391363845206,18.628162,-4.8843293,3.8803215,2.9724753,13.23549,-11.254913,1.8130879,-0.67557544,-0.23417877,-0.45534497,-0.5304897,-10.775721,-0.8606334,-0.35774076,0.0050790533,-0.09412745,-0.09359858,0
0.5300000000000002,20.9999995845552,-3.163501543418159,3.8303705047066114,2.2344391363845206,18.628162,-4.8843293,3.8803215,2.9724753,13.128639,-11.263346,1.8095195,-0.6754601,-0.23267336,-0.4554707,-0.5311905,-10.594399,-0.8255209,-0.355891,-0.4890581,0.51789176,0.020638907,0
0.5400000000000003,20.9999995845552,-3.163501543418159,3.8303705047066114,2.2344391363845206,18.628162,-4.8843293,3.8803215,2.9724753,13.0236,-11.2714205,1.8059714,-0.6742853,-0.22838743,-0.45615384,-0.53394973,-10.413513,-0.7892603,-0.3536683,-0.9062141,1.0344028,0.12927072,0
0.5500000000000003,20.9999995845552,-3.163501543418159,3.8303705047066114,2.2344391363845206,18.628162,-4.8843293,3.8803215,2.9724753,12.920366,-11.279122,1.8024485,-0.6721493,-0.22176959,-0.45727095,-0.538458,-10.233513,-0.750531,-0.35077676,-1.2583709,1.4703196,0.23257193,0
0.5600000000000003,20.999999810650362,-4.4669269063159955,5.27757276145914,2.1150813271057243,18.69504,-5.714246,5.2870297,2.2777314,12.818927,-11.286419,1.7989589,-0.66912043,-0.2131926,-0.4587082,-0.5444389,-10.054831,-0.70823,-0.34698614,-1.5556469,1.8382246,0.33080414,0
0.5700000000000003,20.999999810650362,-4.4669269063159955,5.27757276145914,2.1150813271057243,18.69504,-5.714246,5.2870297,2.2777314,12.719264,-11.293271,1.7955124,-0.6650942,-0.2022944,-0.46046486,-0.5519954,-9.877916,-0.661379,-0.3421099,-2.0099084,2.374378,0.4183591,0
0.5800000000000003,20.999999810650362,-4.4669269063159955,5.27757276145914,2.1150813271057243,18.69504,-5.714246,5.2870297,2.2777314,12.621359,-11.299626,1.7921212,-0.65995586,-0.18879227,-0.4625087,-0.5611608,-9.703397,-0.6088034,-0.33592674,-2.3933547,2.8268964,0.5016178,0
0.5900000000000003,20.999999810650362,-4.4669269063159955,5.27757276145914,2.1150813271057243,18.69504,-5.714246,5.2870297,2.2777314,12.525186,-11.305424,1.788799,-0.65373033,-0.1730805,-0.4646988,-0.57160723,-9.531977,-0.5494286,-0.32827014,-2.7170162,3.208833,0.5807909,0
0.6000000000000003,20.999999856380473,-4.750017245745651,5.38168776699196,1.738007231598521,19.910051,-6.3074465,5.6503286,2.1858191,12.430706,-11.31059,1.7855612,-0.64643204,-0.1554934,-0.466911,-0.58304507,-9.364387,-0.48240656,-0.31906244,-2.990208,3.5312026,0.65607893,0
0.6100000000000003,20.999999856380473,-4.750017245745651,5.38168776699196,1.738007231598521,19.910051,-6.3074465,5.6503286,2.1858191,12.33788,-11.315044,1.7824231,-0.6380947,-0.1361972,-0.46900448,-0.59524804,-9.201389,-0.40708762,-0.30829948,-3.264904,3.819555,0.7091695,0
0.6200000000000003,20.999999856380473,-4.750017245745651,5.38168776699196,1.738007231598521,19.910051,-6.3074465,5.6503286,2.1858191,12.246658,-11.318702,1.7794003,-0.6287439,-0.11533967,-0.47085598,-0.60800695,-9.04381,-0.32297355,-0.2960153,-3.4967525,4.0629473,0.75965494,0
0.6300000000000003,20.999999856380473,-4.750017245745651,5.38168776699196,1.738007231598521,19.910051,-6.3074465,5.6503286,2.1858191,12.156982,-11.321473,1.7765077,-0.61837983,-0.09316295,-0.47239053,-0.6211072,-8.892501,-0.22973372,-0.28230536,-3.6924334,4.268392,0.80766296,0
0.6400000000000003,20.999999856380473,-4.750017245745651,5.38168776699196,1.738007231598521,21.501972,-6.156467,5.8405247,1.8164494,12.068785,-11.323265,1.7737586,-0.6070066,-0.06987813,-0.47354564,-0.6343615,-8.748311,-0.12720458,-0.26733145,-3.857586,4.441808,0.85331523,0
0.6500000000000004,20.999999856380473,-4.750017245745651,5.38168776699196,1.738007231598521,21.501972,-6.156467,5.8405247,1.8164494,11.981988,-11.323985,1.7711649,-0.5946324,-0.045670338,-0.47427002,-0.6476067,-8.612082,-0.015375329,-0.25131178,-3.9969711,4.5881915,0.8967273,0
0.6600000000000004,20.999999856380473,-4.750017245745651,5.38168776699196,1.738007231598521,21.501972,-6.156467,5.8405247,1.8164494,11.896511,-11.323542,1.7687352,-0.5812697,-0.020702854,-0.4745221,-0.66070074,-8.484631,0.105625175,-0.23451181,-4.1146073,4.7117577,0.93800914,0
0.6700000000000004,20.999999856380473,-4.750017245745651,5.38168776699196,1.738007231598521,21.501972,-6.156467,5.8405247,1.8164494,11.812263,-11.321843,1.7664763,-0.56693506,0.0048795515,-0.47426903,-0.67352027,-8.366747,0.23554063,-0.21723567,-4.2138863,4.816065,0.97726536,0
0.6800000000000004,20.999999797700465,-4.372224504338428,4.593627121348643,1.444280767724898,21.439636,-5.922585,5.6673913,1.6145945,11.729141,-11.318802,1.7643911,-0.5516487,0.030947853,-0.4734851,-0.68595755,-8.259179,0.37399882,-0.19981857,-4.2976713,4.9041157,1.0145952,0
0.6900000000000004,20.999999797700465,-4.372224504338428,4.593627121348643,1.444280767724898,21.439636,-5.922585,5.6673913,1.6145945,11.647041,-11.314336,1.7624793,-0.53561807,0.05710382,-0.4720854,-0.69784504,-8.162605,0.5205015,-0.1826109,-4.309333,4.855628,1.0356799,0
0.7000000000000004,20.999999797700465,-4.372224504338428,4.593627121348643,1.444280767724898,21.439636,-5.922585,5.6673913,1.6145945,11.56585,-11.308366,1.7607372,-0.51903915,0.083022796,-0.47002444,-0.7090715,-8.07751,0.67434794,-0.16592646,-4.3191757,4.8147063,1.05573,0
0.7100000000000004,20.999999797700465,-4.372224504338428,4.593627121348643,1.444280767724898,21.439636,-5.922585,5.6673913,1.6145945,11.485452,-11.300824,1.7591579,-0.5019183,0.10869684,-0.467337,-0.7196241,-8.004273,0.83476824,-0.15006422,-4.327484,4.7801695,1.0747962,0
0.7200000000000004,20.999999464680013,-3.4049191103507765,3.2572294609913444,1.0688178546512566,21.100597,-5.8858995,4.5573244,1.0304546,11.405725,-11.29165,1.757732,-0.48426455,0.13411628,-0.46405312,-0.72948956,-7.943227,1.0009788,-0.13532332,-4.334497,4.7510223,1.0929269,0
0.7300000000000004,20.999999464680013,-3.4049191103507765,3.2572294609913444,1.0688178546512566,21.100597,-5.8858995,4.5573244,1.0304546,11.326546,-11.280787,1.7564466,-0.46643224,0.15871662,-0.46022707,-0.7385395,-7.8945923,1.17216,-0.12198781,-4.1893606,4.5181727,1.091744,0
0.7400000000000004,20.999999464680013,-3.4049191103507765,3.2572294609913444,1.0688178546512566,21.100597,-5.8858995,4.5573244,1.0304546,11.247791,-11.268192,1.7552867,-0.4487452,0.18206201,-0.45594156,-0.7467249,-7.858221,1.3473753,-0.11025138,-4.0668845,4.321619,1.090619,0
0.7500000000000004,20.999999464680013,-3.4049191103507765,3.2572294609913444,1.0688178546512566,21.100597,-5.8858995,4.5573244,1.0304546,11.169341,-11.253828,1.7542356,-0.43116757,0.20431638,-0.45125383,-0.7541346,-7.8338437,1.5257283,-0.10025839,-3.9635308,4.1557045,1.0895493,0
0.7600000000000005,20.605727545729255,-2.1265321172807017,1.5785241014118723,0.6627182718607821,19.750244,-5.5793757,3.894333,0.57194936,11.091075,-11.237668,1.7532752,-0.41366637,0.22561806,-0.44620812,-0.76083815,-7.8212004,1.7064102,-0.09213633,-3.8763137,4.0156517,1.088532,0
0.7700000000000005,20.605727545729255,-2.1265321172807017,1.5785241014118723,0.6627182718607821,19.750244,-5.5793757,3.894333,0.57194936,11.012877,-11.21971,1.7523763,-0.3966738,0.24538834,-0.44095045,-0.7668095,-7.8199887,1.8852482,-0.087935805,-3.603117,3.635826,1.0676371,0
0.7800000000000005,20.605727545729255,-2.1265321172807017,1.5785241014118723,0.6627182718607821,19.750244,-5.5793757,3.894333,0.57194936,10.934639,-11.19996,1.7515099,-0.38056502,0.26319718,-0.4356345,-0.77208793,-7.8292456,2.064917,-0.085612535,-3.3725784,3.315195,1.0477676,0
0.7900000000000005,20.605727545729255,-2.1265321172807017,1.5785241014118723,0.6627182718607821,19.750244,-5.5793757,3.894333,0.57194936,10.856259,-11.178411,1.7506579,-0.365228,0.27935115,-0.43029308,-0.7768005,-7.848186,2.244811,-0.085061535,-3.178036,3.0445344,1.0288732,0
0.8000000000000005,18.683278061416928,-0.6142827592037895,-0.12816125987697763,0.23890815484431488,18.547405,-5.003076,3.1150773,-0.23506983,10.777643,-11.155064,1.749803,-0.35056072,0.29410776,-0.42494512,-0.78104365,-7.876124,2.4244413,-0.08617715,-3.0138683,2.8160563,1.010906,0
0.8100000000000005,18.683278061416928,-0.6142827592037895,-0.12816125987697763,0.23890815484431488,18.547405,-5.003076,3.1150773,-0.23506983,10.698723,-11.130007,1.7488844,-0.33698657,0.30696535,-0.41982713,-0.78482944,-7.9089994,2.5867157,-0.09774029,-2.6392937,2.3572192,0.97302383,0
0.8200000000000005,18.683278061416928,-0.6142827592037895,-0.12816125987697763,0.23890815484431488,18.547405,-5.003076,3.1150773,-0.23506983,10.61944,-11.103332,1.7478442,-0.3248572,0.3175589,-0.41514948,-0.78820986,-7.948471,2.7481422,-0.11047676,-2.3232021,1.9698808,0.9370006,0
0.8300000000000005,18.683278061416928,-0.6142827592037895,-0.12816125987697763,0.23890815484431488,18.547405,-5.003076,3.1150773,-0.23506983,10.539734,-11.0750475,1.7466718,-0.31398404,0.32626724,-0.41087598,-0.79129285,-7.9935904,2.908573,-0.12413523,-2.0564601,1.6429014,0.90274495,0
0.8400000000000005,18.683278061416928,-0.6142827592037895,-0.12816125987697763,0.23890815484431488,17.375885,-4.2391515,2.3232818,-0.9069433,10.459551,-11.045164,1.7453592,-0.30419984,0.33340496,-0.40696567,-0.794155,-8.043561,3.0679283,-0.13848834,-1.8313617,1.3668766,0.8701703,0
0.8500000000000005,18.683278061416928,-0.6142827592037895,-0.12816125987697763,0.23890815484431488,17.375885,-4.2391515,2.3232818,-0.9069433,10.378848,-11.013693,1.7439004,-0.29535767,0.33923367,-0.40337658,-0.7968509,-8.097712,3.2261736,-0.15333414,-1.6414036,1.1338673,0.8391941,0
0.8600000000000005,18.683278061416928,-0.6142827592037895,-0.12816125987697763,0.23890815484431488,17.375885,-4.2391515,2.3232818,-0.9069433,10.2975855,-10.980644,1.7422915,-0.2873297,0.343971,-0.40006799,-0.7994191,-8.1554785,3.3833034,-0.16849554,-1.4810991,0.9371709,0.80973786,0
0.8700000000000006,18.683278061416928,-0.6142827592037895,-0.12816125987697763,0.23890815484431488,17.375885,-4.2391515,2.3232818,-0.9069433,10.215729,-10.946031,1.7405299,-0.2800052,0.34779835,-0.3970016,-0.8018871,-8.216385,3.5393295,-0.18381889,-1.3458178,0.77112895,0.7817271,0
0.8800000000000006,17.41769311261733,0.5283257407274438,-1.4262936515175573,-0.058892379064916386,16.35569,-3.732589,2.231237,-1.162616,10.133249,-10.909862,1.7386149,-0.27328855,0.3508667,-0.39414245,-0.8042745,-8.280032,3.694274,-0.19917174,-1.2316531,0.6309647,0.75509083,0
0.8900000000000006,17.41769311261733,0.5283257407274438,-1.4262936515175573,-0.058892379064916386,16.35569,-3.732589,2.231237,-1.162616,10.050141,-10.8722,1.7365187,-0.26749313,0.35277554,-0.39167467,-0.80659014,-8.341558,3.837753,-0.22003575,-0.95701927,0.31029674,0.7151484,0
0.9000000000000006,17.41769311261733,0.5283257407274438,-1.4262936515175573,-0.058892379064916386,16.35569,-3.732589,2.231237,-1.162616,9.966411,-10.833109,1.7342153,-0.2628677,0.35321906,-0.3897467,-0.8088474,-8.404683,3.9803808,-0.24061128,-0.7252531,0.039602533,0.677166,0
0.9100000000000006,17.41769311261733,0.5283257407274438,-1.4262936515175573,-0.058892379064916386,16.35569,-3.732589,2.231237,-1.162616,9.882045,-10.792595,1.7317083,-0.2592473,0.35243833,-0.3882781,-0.8110598,-8.468811,4.1222963,-0.26070327,-0.5296616,-0.18890405,0.64104736,0
0.9200000000000006,16.870441734747065,1.4729280942929845,-2.4948343014699557,-0.36072028769490605,15.093122,-2.5873828,1.3271272,-1.6972374,9.797033,-10.750665,1.7290034,-0.25649017,0.35063362,-0.3871971,-0.8132325,-8.533438,4.2636266,-0.28014907,-0.36459678,-0.3817969,0.60670114,0
0.9300000000000006,16.870441734747065,1.4729280942929845,-2.4948343014699557,-0.36072028769490605,15.093122,-2.5873828,1.3271272,-1.6972374,9.711385,-10.707346,1.7260957,-0.2548028,0.34754124,-0.386626,-0.8153593,-8.596069,4.400071,-0.30129874,-0.077927075,-0.7112078,0.55922943,0
0.9400000000000006,16.870441734747065,1.4729280942929845,-2.4948343014699557,-0.36072028769490605,15.093122,-2.5873828,1.3271272,-1.6972374,9.625113,-10.662664,1.7229809,-0.2543429,0.34295952,-0.38665494,-0.8174265,-8.658126,4.536239,-0.32149914,0.16400036,-0.9892798,0.51408726,0
0.9500000000000006,16.870441734747065,1.4729280942929845,-2.4948343014699557,-0.36072028769490605,15.093122,-2.5873828,1.3271272,-1.6972374,9.538225,-10.616622,1.7196695,-0.25493115,0.33712327,-0.38718012,-0.81942004,-8.719009,4.6722927,-0.34058338,0.3681716,-1.224012,0.4711602,0
0.9600000000000006,16.659174844998184,1.9706958975216375,-3.1489490656797754,-0.5896179196373437,13.117396,-1.5570033,0.56270856,-1.7003226,9.450738,-10.569219,1.7161734,-0.2564138,0.3302283,-0.38811088,-0.8213226,-8.778209,4.808361,-0.35842285,0.5404811,-1.4221573,0.4303396,0
0.9700000000000006,16.659174844998184,1.9706958975216375,-3.1489490656797754,-0.5896179196373437,13.117396,-1.5570033,0.56270856,-1.7003226,9.362672,-10.520463,1.7125006,-0.25884926,0.32218224,-0.38945532,-0.823116,-8.834547,4.9428377,-0.3759369,0.763543,-1.6914115,0.38029,0
0.9800000000000006,16.659174844998184,1.9706958975216375,-3.1489490656797754,-0.5896179196373437,13.117396,-1.5570033,0.56270856,-1.7003226,9.2740555,-10.470362,1.7086596,-0.26227543,0.3129174,-0.39121,-0.82477194,-8.888243,5.0775228,-0.39200836,0.9517949,-1.9186962,0.33269632,0
0.9900000000000007,16.659174844998184,1.9706958975216375,-3.1489490656797754,-0.5896179196373437,13.117396,-1.5570033,0.56270856,-1.7003226,9.184917,-10.418912,1.7046657,-0.2665423,0.3026174,-0.39328608,-0.82625884,-8.938796,5.212481,-0.40654832,1.1106715,-2.1105514,0.2874381,0
1.0000000000000007,16.47115642285493,1.9756463193726004,-3.278016445134828,-0.7124005370895511,12.094789,-1.0780568,-0.25487646,-1.566174,9.095291,-10.366112,1.7005343,-0.2715214,0.29143673,-0.39560726,-0.8275477,-8.985776,5.3477387,-0.4195038,1.2447585,-2.2724986,0.24440068,0
1.0100000000000007,16.47115642285493,1.9756463193726004,-3.278016445134828,-0.7124005370895511,12.094789,-1.0780568,-0.25487646,-1.566174,9.005217,-10.311965,1.6962764,-0.2771363,0.27946863,-0.39809152,-0.8286226,-9.02832,5.481757,-0.431829,1.358691,-2.429332,0.19745018,0
1.0200000000000007,16.47115642285493,1.9756463193726004,-3.278016445134828,-0.7124005370895511,12.094789,-1.0780568,-0.25487646,-1.566174,8.914739,-10.256476,1.6919034,-0.28332075,0.26679447,-0.40066874,-0.82946616,-9.066622,5.616019,-0.44255036,1.4548476,-2.5617137,0.15280353,0
1.0300000000000007,16.47115642285493,1.9756463193726004,-3.278016445134828,-0.7124005370895511,12.094789,-1.0780568,-0.25487646,-1.566174,8.8239,-10.199645,1.6874311,-0.28998622,0.2535193,-0.4032952,-0.8300533,-9.10038,5.7504506,-0.45167592,1.5360032,-2.673455,0.11034772,0
1.0400000000000007,16.47115642285493,1.9756463193726004,-3.278016445134828,-0.7124005370895511,12.063691,-1.0083477,-0.54964715,-1.256833,8.732748,-10.141467,1.6828753,-0.29705662,0.23973258,-0.4059341,-0.8303631,-9.129338,5.8849564,-0.4592364,1.6044995,-2.7677734,0.069975235,0
1.0500000000000007,16.47115642285493,1.9756463193726004,-3.278016445134828,-0.7124005370895511,12.063691,-1.0083477,-0.54964715,-1.256833,8.641331,-10.081945,1.6782515,-0.3044662,0.2255107,-0.40855476,-0.8303783,-9.153277,6.01942,-0.46528155,1.6623122,-2.8473845,0.03158384,0
1.0600000000000007,16.47115642285493,1.9756463193726004,-3.278016445134828,-0.7124005370895511,12.063691,-1.0083477,-0.54964715,-1.256833,8.5497,-10.021078,1.6735747,-0.31215814,0.2109191,-0.41113162,-0.830085,-9.172008,6.15371,-0.4698771,1.7111088,-2.9145806,-0.004923689,0
1.0700000000000007,16.47115642285493,1.9756463193726004,-3.278016445134828,-0.7124005370895511,12.063691,-1.0083477,-0.54964715,-1.256833,8.457909,-9.958871,1.6688588,-0.32008323,0.19601396,-0.41364342,-0.82947224,-9.18537,6.2876787,-0.47310218,1.752296,-2.9712977,-0.03963978,0
1.0800000000000007,16.513770873394165,1.553098032500662,-2.8867391599508214,-0.7967230450399928,11.937225,-1.1472832,-0.6190935,-1.2489744,8.366012,-9.895326,1.664117,-0.32819864,0.18084355,-0.41607276,-0.82853156,-9.1932335,6.4211693,-0.47504702,1.7870611,-3.0191696,-0.07265235,0
1.0900000000000007,16.513770873394165,1.553098032500662,-2.8867391599508214,-0.7967230450399928,11.937225,-1.1472832,-0.6190935,-1.2489744,8.274064,-9.830448,1.659363,-0.3363815,0.16564004,-0.41831616,-0.82729816,-9.195514,6.554358,-0.47555855,1.7505062,-2.998556,-0.1081827,0
1.1000000000000008,16.513770873394165,1.553098032500662,-2.8867391599508214,-0.7967230450399928,11.937225,-1.1472832,-0.6190935,-1.2489744,8.18212,-9.764242,1.6546094,-0.34453857,0.15059397,-0.4202974,-0.8258114,-9.192217,6.6867237,-0.47498566,1.719656,-2.981154,-0.14196958,0
1.1100000000000008,16.513770873394165,1.553098032500662,-2.8867391599508214,-0.7967230450399928,11.937225,-1.1472832,-0.6190935,-1.2489744,8.090238,-9.696718,1.6498667,-0.35267442,0.13568743,-0.42203954,-0.82407033,-9.183406,6.818095,-0.47342685,1.6936204,-2.9664633,-0.17409852,0
1.1200000000000008,15.978004317276206,0.7721700058672278,-2.30959884950308,-0.7734298113177529,12.317207,-1.6912185,-0.42540416,-1.1253979,7.998471,-9.627885,1.6451441,-0.36079141,0.12090517,-0.42356202,-0.8220744,-9.169141,6.9483056,-0.47097978,1.6716486,-2.954061,-0.20465088,0
1.1300000000000008,15.978004317276206,0.7721700058672278,-2.30959884950308,-0.7734298113177529,12.317207,-1.6912185,-0.42540416,-1.1253979,7.9068704,-9.557776,1.6404335,-0.36875498,0.10653694,-0.4247108,-0.81993294,-9.150148,7.073012,-0.47102368,1.5313368,-2.8535666,-0.23256104,0
1.1400000000000008,15.978004317276206,0.7721700058672278,-2.30959884950308,-0.7734298113177529,12.317207,-1.6912185,-0.42540416,-1.1253979,7.815485,-9.486429,1.6357262,-0.3764675,0.0928152,-0.42537415,-0.8177494,-9.126201,7.1962914,-0.4703496,1.41291,-2.7687416,-0.25910163,0
1.1500000000000008,15.978004317276206,0.7721700058672278,-2.30959884950308,-0.7734298113177529,12.317207,-1.6912185,-0.42540416,-1.1253979,7.724363,-9.413856,1.6310289,-0.3839774,0.07964988,-0.42562312,-0.81551325,-9.097558,7.3180127,-0.46899524,1.3129547,-2.6971436,-0.28433985,0
1.1600000000000008,15.4540549235503,-0.21746622074004682,-1.4787355448363106,-0.6535490972405602,12.589211,-2.534549,-0.10193427,-0.7581897,7.633549,-9.340075,1.6263485,-0.39132348,0.06696384,-0.42551696,-0.8132138,-9.064446,7.4380617,-0.4669961,1.2285894,-2.63671,-0.30833963,0
1.1700000000000008,15.4540549235503,-0.21746622074004682,-1.4787355448363106,-0.6535490972405602,12.589211,-2.534549,-0.10193427,-0.7581897,7.543082,-9.265121,1.6216747,-0.39835984,0.05511112,-0.424917,-0.8109978,-9.028324,7.5524592,-0.4676813,1.0030868,-2.4560905,-0.32527915,0
1.1800000000000008,15.4540549235503,-0.21746622074004682,-1.4787355448363106,-0.6535490972405602,12.589211,-2.534549,-0.10193427,-0.7581897,7.4529953,-9.189033,1.616997,-0.40498117,0.04437036,-0.42372572,-0.8089979,-8.9885,7.6650863,-0.46774736,0.81275004,-2.3036408,-0.34138742,0
1.1900000000000008,15.4540549235503,-0.21746622074004682,-1.4787355448363106,-0.6535490972405602,12.589211,-2.534549,-0.10193427,-0.7581897,7.363323,-9.111826,1.6123221,-0.41126797,0.034577783,-0.42204177,-0.80718243,-8.945376,7.775912,-0.4671569,0.65209514,-2.174968,-0.35670528,0
1.2000000000000008,15.199250542483071,-1.1708753610395723,-0.6264251072186897,-0.442496047903525,13.319313,-3.3451548,0.5774557,-0.19589145,7.2740974,-9.033521,1.6076564,-0.417285,0.025593663,-0.41994604,-0.8055205,-8.899295,7.884914,-0.4658745,0.51649314,-2.0663648,-0.37127146,0
1.2100000000000009,15.199250542483071,-1.1708753610395723,-0.6264251072186897,-0.442496047903525,13.319313,-3.3451548,0.5774557,-0.19589145,7.1853423,-8.954143,1.6029989,-0.42291284,0.017722603,-0.4173429,-0.80414885,-8.851383,7.9903193,-0.46551076,0.25339904,-1.8417441,-0.37476647,0
1.2200000000000009,15.199250542483071,-1.1708753610395723,-0.6264251072186897,-0.442496047903525,13.319313,-3.3451548,0.5774557,-0.19589145,7.0970774,-8.87372,1.598349,-0.42806298,0.011199498,-0.41416508,-0.8031835,-8.801339,8.093967,-0.4643446,0.03132696,-1.6521616,-0.37809,0
1.2300000000000009,15.199250542483071,-1.1708753610395723,-0.6264251072186897,-0.442496047903525,13.319313,-3.3451548,0.5774557,-0.19589145,7.009321,-8.79227,1.5937151,-0.4328223,0.0058198036,-0.41050974,-0.80256623,-8.749614,8.195918,-0.4622856,-0.15611947,-1.4921519,-0.3812504,0
1.2400000000000009,15.199250542483071,-1.1708753610395723,-0.6264251072186897,-0.442496047903525,14.291241,-3.9338715,0.9271911,0.42900878,6.922089,-8.709808,1.5891067,-0.43726048,0.0014098444,-0.406456,-0.8022435,-8.696588,8.296228,-0.4592545,-0.31433916,-1.3571023,-0.38425574,0
1.2500000000000009,15.199250542483071,-1.1708753610395723,-0.6264251072186897,-0.442496047903525,14.291241,-3.9338715,0.9271911,0.42900878,6.8353925,-8.62635,1.5845336,-0.4414338,-0.00217775,-0.40206853,-0.8021672,-8.642583,8.39495,-0.45518315,-0.4478893,-1.2431194,-0.3871136,0
1.260000000000001,15.199250542483071,-1.1708753610395723,-0.6264251072186897,-0.442496047903525,14.291241,-3.9338715,0.9271911,0.42900878,6.74924,-8.541913,1.5800067,-0.44538766,-0.0050679697,-0.39740053,-0.8022947,-8.587872,8.492129,-0.4500146,-0.56061655,-1.1469167,-0.38983124,0
1.270000000000001,15.199250542483071,-1.1708753610395723,-0.6264251072186897,-0.442496047903525,14.291241,-3.9338715,0.9271911,0.42900878,6.6636367,-8.456512,1.5755372,-0.449159,-0.0073667956,-0.3924959,-0.80258876,-8.532686,8.587805,-0.44370186,-0.65576726,-1.065721,-0.3924155,0
1.280000000000001,14.866923178419185,-1.8941390697753357,0.06480318838361403,-0.15990606656081208,14.473191,-4.176614,1.203557,0.872362,6.578587,-8.370163,1.5711366,-0.45277762,-0.009164074,-0.38739085,-0.8030172,-8.4772215,8.682012,-0.43620744,-0.73608214,-0.99719113,-0.39487293,0
1.290000000000001,14.866923178419185,-1.8941390697753357,0.06480318838361403,-0.15990606656081208,14.473191,-4.176614,1.203557,0.872362,6.4940867,-8.282888,1.5668055,-0.45613593,-0.0101958765,-0.38200843,-0.8036824,-8.422888,8.7727585,-0.42983136,-0.9166315,-0.8315342,-0.38334307,0
1.300000000000001,14.866923178419185,-1.8941390697753357,0.06480318838361403,-0.15990606656081208,14.473191,-4.176614,1.203557,0.872362,6.410128,-8.194712,1.5625443,-0.45914707,-0.01025762,-0.37628934,-0.80466443,-8.368775,8.862178,-0.42220473,-1.0690334,-0.6917205,-0.37237895,0
1.310000000000001,14.866923178419185,-1.8941390697753357,0.06480318838361403,-0.15990606656081208,14.473191,-4.176614,1.203557,0.872362,6.326709,-8.105648,1.558366,-0.46185997,-0.009499758,-0.37028423,-0.805906,-8.315191,8.950351,-0.4132697,-1.1976756,-0.5737179,-0.3619528,0
1.320000000000001,14.370922843163244,-2.441702630869544,0.4186039977505655,0.16846600995832658,14.188059,-4.586191,1.7766923,1.5200046,6.2438216,-8.015709,1.5542837,-0.46431455,-0.008049615,-0.36403486,-0.80735713,-8.262399,9.037342,-0.4029832,-1.3062621,-0.4741237,-0.35203832,0
1.330000000000001,14.370922843163244,-2.441702630869544,0.4186039977505655,0.16846600995832658,14.188059,-4.586191,1.7766923,1.5200046,6.1614485,-7.92492,1.5502928,-0.46646065,-0.00581335,-0.35746405,-0.8090735,-8.212364,9.120342,-0.39497218,-1.4832959,-0.33488733,-0.32649705,0
1.340000000000001,14.370922843163244,-2.441702630869544,0.4186039977505655,0.16846600995832658,14.188059,-4.586191,1.7766923,1.5200046,6.07957,-7.833306,1.5463891,-0.46825343,-0.0027233353,-0.35051072,-0.81109387,-8.163616,9.202311,-0.38556892,-1.6327302,-0.21737462,-0.30220908,0
1.350000000000001,14.370922843163244,-2.441702630869544,0.4186039977505655,0.16846600995832658,14.188059,-4.586191,1.7766923,1.5200046,5.998171,-7.740877,1.5425866,-0.4697297,0.0010855522,-0.3432281,-0.8133554,-8.116434,9.283292,-0.37473,-1.7588676,-0.11819569,-0.2791129,0
1.360000000000001,13.952829151469329,-2.7747712644474216,0.6162978282932078,0.5085445799681845,14.047651,-4.66801,1.7938224,1.9432645,5.917235,-7.647643,1.5388997,-0.4709197,0.0054992144,-0.33566067,-0.8158039,-8.071061,9.363323,-0.36243054,-1.8653395,-0.034489263,-0.25715008,0
1.370000000000001,13.952829151469329,-2.7747712644474216,0.6162978282932078,0.5085445799681845,14.047651,-4.66801,1.7938224,1.9432645,5.8367357,-7.5536256,1.5353268,-0.47178665,0.010534498,-0.3277743,-0.8184559,-8.028975,9.440125,-0.35191372,-2.0071492,0.06697538,-0.21957724,0
1.380000000000001,13.952829151469329,-2.7747712644474216,0.6162978282932078,0.5085445799681845,14.047651,-4.66801,1.7938224,1.9432645,5.7566476,-7.458844,1.5318664,-0.47229564,0.016198294,-0.3195428,-0.82131994,-7.9890895,9.516046,-0.33995524,-2.1268506,0.15260968,-0.1838481,0
1.390000000000001,13.952829151469329,-2.7747712644474216,0.6162978282932078,0.5085445799681845,14.047651,-4.66801,1.7938224,1.9432645,5.6769457,-7.3633075,1.5285327,-0.47247273,0.022388052,-0.31101137,-0.8243421,-7.9516273,9.591089,-0.32655463,-2.2278895,0.22488439,-0.14987217,0
1.400000000000001,13.462727591359835,-2.8607120870388014,0.5271589051507656,0.8049835725424423,14.644622,-4.8823175,1.2691288,2.562655,5.5976057,-7.2670255,1.5253402,-0.47234,0.029017039,-0.30221856,-0.82747597,-7.916779,9.665255,-0.31172776,-2.3131754,0.28588474,-0.11756348,0
1.410000000000001,13.462727591359835,-2.8607120870388014,0.5271589051507656,0.8049835725424423,14.644622,-4.8823175,1.2691288,2.562655,5.5185947,-7.170019,1.522283,-0.47189558,0.035987563,-0.2931528,-0.8307108,-7.8858366,9.735952,-0.29951847,-2.39857,0.3234471,-0.07229382,0
1.420000000000001,13.462727591359835,-2.8607120870388014,0.5271589051507656,0.8049835725424423,14.644622,-4.8823175,1.2691288,2.562655,5.439879,-7.07231,1.5193545,-0.47113395,0.043216947,-0.28380734,-0.83403724,-7.857717,9.805753,-0.28598958,-2.4706495,0.35515,-0.02924557,0
1.430000000000001,13.462727591359835,-2.8607120870388014,0.5271589051507656,0.8049835725424423,14.644622,-4.8823175,1.2691288,2.562655,5.3614297,-6.9739075,1.5165677,-0.4700682,0.050657816,-0.274219,-0.8374206,-7.8325415,9.874608,-0.2711791,-2.5314891,0.3819084,0.011690277,0
1.440000000000001,13.462727591359835,-2.8607120870388014,0.5271589051507656,0.8049835725424423,15.029606,-4.7643075,0.7801178,2.6627464,5.283217,-6.8748217,1.5139351,-0.4687104,0.05827024,-0.26441938,-0.8408312,-7.810415,9.94247,-0.25513586,-2.5828419,0.40449417,0.050617397,0
1.450000000000001,13.462727591359835,-2.8607120870388014,0.5271589051507656,0.8049835725424423,15.029606,-4.7643075,0.7801178,2.6627464,5.20521,-6.775062,1.5114688,-0.4670717,0.066020556,-0.25443575,-0.8442437,-7.7914267,10.009287,-0.23791753,-2.6261861,0.4235591,0.08763436,0
1.460000000000001,13.462727591359835,-2.8607120870388014,0.5271589051507656,0.8049835725424423,15.029606,-4.7643075,0.7801178,2.6627464,5.1273775,-6.67464,1.5091803,-0.4651625,0.0738804,-0.24429168,-0.84763604,-7.775652,10.0750065,-0.21958932,-2.6627712,0.43965217,0.12283489,0
1.470000000000001,13.462727591359835,-2.8607120870388014,0.5271589051507656,0.8049835725424423,15.029606,-4.7643075,0.7801178,2.6627464,5.049686,-6.573566,1.5070804,-0.46299246,0.08182584,-0.23400751,-0.8509893,-7.763155,10.139573,-0.20022263,-2.693651,0.45323774,0.15630813,0
1.480000000000001,13.191454556559417,-2.7448918913884532,0.19664042825204917,1.060427372026734,15.40288,-4.7237215,0.3426639,2.6650898,4.9721036,-6.4718523,1.505179,-0.4605707,0.0898367,-0.223601,-0.8542871,-7.753988,10.2029295,-0.17989406,-2.7197149,0.46470654,0.18813883,0
1.490000000000001,13.191454556559417,-2.7448918913884532,0.19664042825204917,1.060427372026734,15.40288,-4.7237215,0.3426639,2.6650898,4.8945947,-6.369518,1.5034735,-0.45791242,0.09775457,-0.21306947,-0.8575322,-7.7483044,10.263763,-0.1610865,-2.723648,0.42282543,0.2309423,0
1.500000000000001,13.191454556559417,-2.7448918913884532,0.19664042825204917,1.060427372026734,15.40288,-4.7237215,0.3426639,2.6650898,4.817126,-6.266582,1.50196,-0.4550269,0.10545237,-0.20241383,-0.86073154,-7.7459087,10.323264,-0.14148206,-2.7269661,0.3874792,0.27164537,0
1.5100000000000011,13.191454556559417,-2.7448918913884532,0.19664042825204917,1.060427372026734,15.40288,-4.7237215,0.3426639,2.6650898,4.7396646,-6.163058,1.5006464,-0.45191476,0.11295681,-0.19165324,-0.8638765,-7.7467756,10.381341,-0.12114793,-2.7297657,0.35764864,0.31035113,0
1.5200000000000011,12.702322725584471,-2.499137794659354,-0.4000235923199902,1.1918050641717208,15.668347,-4.5326295,0.08305089,2.580299,4.662179,-6.0589604,1.4995394,-0.44857773,0.12029069,-0.18080403,-0.866959,-7.7508802,10.437912,-0.10015413,-2.7321277,0.33247346,0.3471576,0
1.5300000000000011,12.702322725584471,-2.499137794659354,-0.4000235923199902,1.1918050641717208,15.668347,-4.5326295,0.08305089,2.580299,4.5846376,-5.954315,1.4986231,-0.4450593,0.12721942,-0.169861,-0.86999106,-7.757914,10.490851,-0.08300675,-2.6957734,0.21817642,0.38860473,0
1.5400000000000011,12.702322725584471,-2.499137794659354,-0.4000235923199902,1.1918050641717208,15.668347,-4.5326295,0.08305089,2.580299,4.5070105,-5.849149,1.497881,-0.44139257,0.13355829,-0.15882337,-0.87298894,-7.7679224,10.54214,-0.065333985,-2.6650872,0.12170778,0.42801803,0
1.5500000000000012,12.702322725584471,-2.499137794659354,-0.4000235923199902,1.1918050641717208,15.668347,-4.5326295,0.08305089,2.580299,4.429269,-5.743479,1.4973183,-0.4375669,0.13939258,-0.14770968,-0.87594897,-7.780787,10.5916605,-0.047174558,-2.6391861,0.040286634,0.46549731,0
1.5600000000000012,12.474565910107453,-2.1742947638961416,-0.9179892995676906,1.237021407414381,16.576197,-4.1466804,-0.84124655,2.5111253,4.351385,-5.6373224,1.4969393,-0.43357453,0.14479467,-0.13653535,-0.878866,-7.796403,10.639308,-0.028570475,-2.6173244,-0.028433679,0.50113744,0
1.5700000000000012,12.474565910107453,-2.1742947638961416,-0.9179892995676906,1.237021407414381,16.576197,-4.1466804,-0.84124655,2.5111253,4.2733335,-5.5307035,1.496738,-0.42945233,0.14958678,-0.125339,-0.88175076,-7.8143344,10.684169,-0.01166304,-2.548185,-0.16719697,0.5372475,0
1.5800000000000012,12.474565910107453,-2.1742947638961416,-0.9179892995676906,1.237021407414381,16.576197,-4.1466804,-0.84124655,2.5111253,4.195091,-5.4236465,1.4967073,-0.4252294,0.15363197,-0.114153825,-0.8846162,-7.834695,10.726988,0.005617832,-2.4898298,-0.28431815,0.57158554,0
1.5900000000000012,12.474565910107453,-2.1742947638961416,-0.9179892995676906,1.237021407414381,16.576197,-4.1466804,-0.84124655,2.5111253,4.116632,-5.316171,1.4968514,-0.42089093,0.15704194,-0.102983765,-0.88745856,-7.857313,10.767663,0.023253288,-2.4405775,-0.38317257,0.6042387,0
1.6000000000000012,12.518778541299085,-1.847656422364375,-1.3629281747429893,1.232241173800809,18.027447,-3.7639601,-2.2955096,2.7146573,4.0379367,-5.208301,1.4971734,-0.4164256,0.1599112,-0.091831625,-0.8902723,-7.882038,10.806107,0.04122024,-2.3990088,-0.46660918,0.6352895,0
1.6100000000000012,12.518778541299085,-1.847656422364375,-1.3629281747429893,1.232241173800809,18.027447,-3.7639601,-2.2955096,2.7146573,3.9589837,-5.100057,1.4976789,-0.4118625,0.16210704,-0.08074204,-0.8930683,-7.9088197,10.842366,0.059907444,-2.3129566,-0.6063982,0.66458213,0
1.6200000000000012,12.518778541299085,-1.847656422364375,-1.3629281747429893,1.232241173800809,18.027447,-3.7639601,-2.2955096,2.7146573,3.879754,-4.991462,1.4983727,-0.40722457,0.16352907,-0.06975169,-0.8958576,-7.9373736,10.876224,0.07889577,-2.240329,-0.72438794,0.69243735,0
1.6300000000000012,12.518778541299085,-1.847656422364375,-1.3629281747429893,1.232241173800809,18.027447,-3.7639601,-2.2955096,2.7146573,3.800231,-4.882541,1.4992579,-0.40249622,0.16429473,-0.058851182,-0.89863247,-7.967505,10.907602,0.098178975,-2.1790326,-0.823978,0.7189257,0
1.6400000000000012,12.518778541299085,-1.847656422364375,-1.3629281747429893,1.232241173800809,18.402529,-3.529445,-3.1569412,2.6337423,3.7203991,-4.7733192,1.5003374,-0.39766535,0.16450323,-0.048032034,-0.9013843,-7.999042,10.936438,0.11774483,-2.1273003,-0.90803784,0.7441142,0
1.6500000000000012,12.518778541299085,-1.847656422364375,-1.3629281747429893,1.232241173800809,18.402529,-3.529445,-3.1569412,2.6337423,3.6402457,-4.6638217,1.5016139,-0.3927229,0.16423838,-0.037286647,-0.90410393,-8.031834,10.962673,0.13757555,-2.08364,-0.9789891,0.76806676,0
1.6600000000000013,12.518778541299085,-1.847656422364375,-1.3629281747429893,1.232241173800809,18.402529,-3.529445,-3.1569412,2.6337423,3.5597584,-4.554075,1.5030898,-0.38766226,0.16357106,-0.026608275,-0.9067823,-8.065745,10.986264,0.1576483,-2.046793,-1.0388763,0.7908439,0
1.6700000000000013,12.518778541299085,-1.847656422364375,-1.3629281747429893,1.232241173800809,18.402529,-3.529445,-3.1569412,2.6337423,3.4789271,-4.4441056,1.5047675,-0.38247892,0.16256116,-0.015990991,-0.90941066,-8.100656,11.00717,0.17793575,-2.0156963,-1.0894246,0.81250346,0
1.6800000000000013,12.488345946377745,-1.5034329742025616,-1.63388689731945,1.1330688655583159,18.139025,-3.1792786,-3.2079098,2.2627828,3.3977423,-4.333941,1.5066491,-0.37717006,0.1612594,-0.0054296106,-0.91198045,-8.136456,11.0253525,0.19840659,-1.9894527,-1.1320903,0.8331001,0
1.6900000000000013,12.488345946377745,-1.5034329742025616,-1.63388689731945,1.1330688655583159,18.139025,-3.1792786,-3.2079098,2.2627828,3.316196,-4.2236085,1.5087347,-0.37176803,0.15955812,0.004997217,-0.91449684,-8.172947,11.040749,0.21874022,-1.9136041,-1.2103225,0.8478196,0
1.7000000000000013,12.488345946377745,-1.5034329742025616,-1.63388689731945,1.1330688655583159,18.139025,-3.1792786,-3.2079098,2.2627828,3.2342813,-4.113136,1.5110244,-0.36629996,0.15737504,0.015226689,-0.91696525,-8.210066,11.053389,0.23920554,-1.8495901,-1.2763587,0.8618169,0
1.7100000000000013,12.488345946377745,-1.5034329742025616,-1.63388689731945,1.1330688655583159,18.139025,-3.1792786,-3.2079098,2.2627828,3.151993,-4.0025496,1.5135192,-0.36075804,0.15478379,0.025284562,-0.91937804,-8.247658,11.063261,0.25978452,-1.7955643,-1.3321004,0.87512726,0
1.7200000000000013,12.570994429420903,-1.1421442602797278,-1.8065407607377069,0.967787664131187,18.779894,-2.7653573,-3.6564255,2.2021787,3.0693269,-3.8918796,1.5162202,-0.3551365,0.15184647,0.035192844,-0.92172766,-8.285585,11.070362,0.28045473,-1.7499685,-1.3791523,0.8877845,0
1.7300000000000013,12.570994429420903,-1.1421442602797278,-1.8065407607377069,0.967787664131187,18.779894,-2.7653573,-3.6564255,2.2021787,2.9862792,-3.781152,1.5191324,-0.34946954,0.14850006,0.044864383,-0.92401606,-8.323972,11.074719,0.30197862,-1.6551365,-1.4457527,0.8917102,0
1.7400000000000013,12.570994429420903,-1.1421442602797278,-1.8065407607377069,0.967787664131187,18.779894,-2.7653573,-3.6564255,2.2021787,2.9028473,-3.670395,1.5222601,-0.34378687,0.14469801,0.054230873,-0.9262461,-8.362404,11.076311,0.32355675,-1.5750993,-1.5019748,0.8954434,0
1.7500000000000013,12.570994429420903,-1.1421442602797278,-1.8065407607377069,0.967787664131187,18.779894,-2.7653573,-3.6564255,2.2021787,2.8190317,-3.5596356,1.5256037,-0.33807907,0.14051075,0.0633352,-0.92841136,-8.4007225,11.075168,0.34517625,-1.507549,-1.5494357,0.8989934,0
1.7600000000000013,12.682869998709393,-0.7324638394357237,-1.6507686321285997,0.7547934653973242,19.110014,-2.4679773,-3.8544898,2.0661058,2.734834,-3.4489012,1.5291637,-0.33233872,0.13599758,0.07221382,-0.9305055,-8.438789,11.071316,0.3668197,-1.4505372,-1.5895009,0.90236914,0
1.7700000000000014,12.682869998709393,-0.7324638394357237,-1.6507686321285997,0.7547934653973242,19.110014,-2.4679773,-3.8544898,2.0661058,2.6502557,-3.338219,1.5329454,-0.32661188,0.13121058,0.08072805,-0.9325187,-8.476814,11.064735,0.38953283,-1.3385562,-1.5989834,0.89512753,0
1.7800000000000014,12.682869998709393,-0.7324638394357237,-1.6507686321285997,0.7547934653973242,19.110014,-2.4679773,-3.8544898,2.0661058,2.5652997,-3.2276156,1.5369544,-0.32094002,0.12619479,0.08877049,-0.9344474,-8.514328,11.05555,0.41223556,-1.2440389,-1.6069988,0.88824135,0
1.7900000000000014,12.682869998709393,-0.7324638394357237,-1.6507686321285997,0.7547934653973242,19.110014,-2.4679773,-3.8544898,2.0661058,2.4799714,-3.1171165,1.5411903,-0.3153117,0.12098642,0.09641186,-0.9362935,-8.551215,11.043855,0.4349149,-1.164262,-1.6137736,0.881693,0
1.8000000000000014,12.551864179995647,-0.3479882892293162,-1.393835427820916,0.5231310691307283,18.86246,-2.2539907,-3.6144536,1.8187457,2.3942778,-3.0067468,1.5456526,-0.30971736,0.115615666,0.10371196,-0.93805754,-8.587372,11.029738,0.457556,-1.0969267,-1.6194997,0.875466,0
1.8100000000000014,12.551864179995647,-0.3479882892293162,-1.393835427820916,0.5231310691307283,18.86246,-2.2539907,-3.6144536,1.8187457,2.3082287,-2.896529,1.550335,-0.30420467,0.11015414,0.11054866,-0.9397364,-8.622345,11.013454,0.47889727,-0.9801681,-1.5842298,0.8581768,0
1.8200000000000014,12.551864179995647,-0.3479882892293162,-1.393835427820916,0.5231310691307283,18.86246,-2.2539907,-3.6144536,1.8187457,2.2218342,-2.7864852,1.5552305,-0.2988163,0.10466064,0.11682897,-0.941332,-8.656429,10.994993,0.5001789,-0.8816133,-1.5544733,0.841736,0
1.8300000000000014,12.551864179995647,-0.3479882892293162,-1.393835427820916,0.5231310691307283,18.86246,-2.2539907,-3.6144536,1.8187457,2.1351035,-2.676636,1.5603385,-0.29353768,0.099140815,0.12263863,-0.9428502,-8.689557,10.974491,0.5213966,-0.7984241,-1.5293682,0.826102,0
1.8400000000000014,12.551864179995647,-0.3479882892293162,-1.393835427820916,0.5231310691307283,17.982288,-2.1424701,-2.979411,1.4391267,2.0480466,-2.5670018,1.5656583,-0.28835618,0.09359904,0.12804994,-0.944295,-8.721671,10.952065,0.54254544,-0.72820497,-1.508187,0.81123513,0
1.8500000000000014,12.551864179995647,-0.3479882892293162,-1.393835427820916,0.5231310691307283,17.982288,-2.1424701,-2.979411,1.4391267,1.9606736,-2.457601,1.5711892,-0.2832609,0.08803866,0.13312384,-0.9456693,-8.752723,10.927818,0.5636195,-0.6689337,-1.4903166,0.7970978,0
1.8600000000000014,12.551864179995647,-0.3479882892293162,-1.393835427820916,0.5231310691307283,17.982288,-2.1424701,-2.979411,1.4391267,1.8729956,-2.3484516,1.5769303,-0.27824238,0.08246227,0.13791172,-0.9469749,-8.782667,10.901837,0.58461154,-0.6189031,-1.475239,0.78365415,0
1.8700000000000014,12.551864179995647,-0.3479882892293162,-1.393835427820916,0.5231310691307283,17.982288,-2.1424701,-2.979411,1.4391267,1.7850239,-2.2395701,1.582881,-0.2732924,0.07687189,0.14245684,-0.94821304,-8.81147,10.874202,0.60551316,-0.5766728,-1.4625177,0.7708702,0
1.8800000000000014,12.421264140430667,-0.10695026876465957,-1.1621154689492592,0.3153444017433384,18.260225,-2.2981212,-3.0157528,1.5058131,1.6967701,-2.1309729,1.58904,-0.26840386,0.07126909,0.14679566,-0.94938457,-8.839096,10.844979,0.62631464,-0.54102653,-1.4517845,0.75871354,0
1.8900000000000015,12.421264140430667,-0.10695026876465957,-1.1621154689492592,0.3153444017433384,18.260225,-2.2981212,-3.0157528,1.5058131,1.6082474,-2.022674,1.5954006,-0.26361558,0.06571376,0.15084442,-0.95049167,-8.865243,10.814559,0.6457706,-0.4733749,-1.4065707,0.7369573,0
1.9000000000000015,12.421264140430667,-0.10695026876465957,-1.1621154689492592,0.3153444017433384,18.260225,-2.2981212,-3.0157528,1.5058131,1.5194693,-1.9146864,1.6019552,-0.25896186,0.060253486,0.15453917,-0.9515387,-8.890184,10.782734,0.66511667,-0.416268,-1.368415,0.71626866,0
1.9100000000000015,12.421264140430667,-0.10695026876465957,-1.1621154689492592,0.3153444017433384,18.260225,-2.2981212,-3.0157528,1.5058131,1.4304479,-1.8070236,1.6087027,-0.25443053,0.05487268,0.15793468,-0.95252854,-8.913914,10.749604,0.68435335,-0.36806208,-1.3362154,0.6965952,0
1.9200000000000015,12.089750869173386,0.09730546817264289,-0.9177911805495794,0.12243248858624708,18.088493,-2.3022597,-2.8653898,1.6697627,1.3411952,-1.6996984,1.615642,-0.25001082,0.049558036,0.16107702,-0.95346355,-8.936422,10.715255,0.7034799,-0.32737008,-1.3090419,0.6778871,0
1.9300000000000015,12.089750869173386,0.09730546817264289,-0.9177911805495794,0.12243248858624708,18.088493,-2.3022597,-2.8653898,1.6697627,1.2517264,-1.5927178,1.6227564,-0.24573587,0.04436736,0.16390401,-0.95434844,-8.957139,10.680715,0.7193701,-0.26119143,-1.2479926,0.65063083,0
1.9400000000000015,12.089750869173386,0.09730546817264289,-0.9177911805495794,0.12243248858624708,18.088493,-2.3022597,-2.8653898,1.6697627,1.1620564,-1.4860877,1.6300291,-0.24163473,0.039345745,0.16636893,-0.955189,-8.976677,10.645168,0.7351596,-0.20532611,-1.1964706,0.624712,0
1.9500000000000015,12.089750869173386,0.09730546817264289,-0.9177911805495794,0.12243248858624708,18.088493,-2.3022597,-2.8653898,1.6697627,1.0721968,-1.3798175,1.6374593,-0.23769256,0.034465484,0.16852832,-0.9559878,-8.995049,10.608718,0.75085676,-0.15816708,-1.1529888,0.60006493,0
1.9600000000000015,11.777451743342416,0.23321719276740205,-0.5604585641135758,-0.026680922579547364,17.8317,-2.2904198,-2.620075,1.6346967,0.9821594,-1.273916,1.645046,-0.23389629,0.029703092,0.17042966,-0.95674664,-9.012273,10.571448,0.76646847,-0.11835772,-1.1162925,0.5766274,0
1.9700000000000015,11.777451743342416,0.23321719276740205,-0.5604585641135758,-0.026680922579547364,17.8317,-2.2904198,-2.620075,1.6346967,0.8919574,-1.168386,1.6527736,-0.23027803,0.025159761,0.17202827,-0.9574683,-9.027947,10.53442,0.77906585,-0.06358246,-1.0295887,0.5470229,0
1.9800000000000015,11.777451743342416,0.23321719276740205,-0.5604585641135758,-0.026680922579547364,17.8317,-2.2904198,-2.620075,1.6346967,0.80160403,-1.0632296,1.660627,-0.22686505,0.020914521,0.1732915,-0.9581572,-9.042565,10.49677,0.7915982,-0.017340496,-0.9564115,0.51887107,0
1.9900000000000015,11.777451743342416,0.23321719276740205,-0.5604585641135758,-0.026680922579547364,17.8317,-2.2904198,-2.620075,1.6346967,0.7111096,-0.95845234,1.6686054,-0.22363965,0.016919088,0.17427227,-0.95881623,-9.056175,10.458592,0.8040785,0.021697313,-0.89465,0.49210075,0
2.0000000000000013,,,,,17.633245,-2.4565268,-2.3449821,1.6229906,0.6204839,-0.8540592,1.6767085,-0.22058615,0.013132663,0.17501494,-0.9594474,-9.068822,10.419969,0.8165182,0.05465281,-0.84252346,0.46664396,0
2.010000000000001,,,,,17.633245,-2.4565268,-2.3449821,1.6229906,0.5297376,-0.75005007,1.6849236,-0.21772195,0.009624108,0.17551395,-0.9600519,-9.080293,10.381813,0.8265359,0.08978046,-0.7540798,0.4378448,0
2.020000000000001,,,,,17.633245,-2.4565268,-2.3449821,1.6229906,0.4388809,-0.646424,1.693239,-0.21506134,0.006446079,0.1757672,-0.96063167,-9.090924,10.343368,0.83653665,0.119437665,-0.6794316,0.41045883,0
2.0300000000000007,,,,,17.633245,-2.4565268,-2.3449821,1.6229906,0.3479218,-0.54318345,1.7016543,-0.21258678,0.0035449574,0.17581354,-0.9611889,-9.100781,10.304704,0.84653324,0.14447597,-0.6164268,0.3844167,0
2.0400000000000005,,,,,17.633245,-2.4565268,-2.3449821,1.6229906,0.25686777,-0.44033045,1.7101697,-0.2102827,0.0008755187,0.17568555,-0.9617251,-9.109918,10.265883,0.8565366,0.16561463,-0.56324923,0.35965246,0
2.0500000000000003,,,,,17.467352,-2.5636559,-2.3069928,1.7974479,0.16572577,-0.33786616,1.7187852,-0.20813532,-0.0016003642,0.17541063,-0.96224135,-9.118379,10.226955,0.86655647,0.18346053,-0.51836586,0.33610344,1
2.06,,,,,17.467352,-2.5636559,-2.3069928,1.7974479,0.07448199,-0.23589233,1.72778,-0.20576392,-0.0044198614,0.17627573,-0.96258444,-9.130219,10.167746,0.93236107,-0.24485329,-0.7974051,0.407812,1
2.07,,,,,17.467352,-2.5636559,-2.3069928,1.7974479,-0.01687489,-0.13451402,1.7374319,-0.20283362,-0.008007622,0.17929895,-0.9626248,-9.140976,10.10773,0.9979463,-0.6063615,-1.0329466,0.47600186,1
2.0799999999999996,,,,,17.467352,-2.5636559,-2.3069928,1.7974479,-0.10833332,-0.03374295,1.7477374,-0.19939367,-0.012240965,0.1841378,-0.9623855,-9.15051,10.0462,1.0630441,-0.91148734,-1.2317657,0.5408456,1
2.0899999999999994,,,,,18.343527,-3.1810198,-3.275875,2.5402806,-0.19988047,0.06640275,1.7586904,-0.19548495,-0.017015414,0.19050144,-0.9618761,-9.158697,9.98257,1.1274076,-1.1690273,-1.399584,0.6025074,1
2.099999999999999,,,,,18.343527,-3.1810198,-3.275875,2.5402806,-0.29150397,0.165883,1.7703227,-0.19098291,-0.022549147,0.19845673,-0.96105796,-9.165739,9.91301,1.1988931,-1.4825777,-1.6924042,0.6975945,1
2.109999999999999,,,,,18.343527,-3.1810198,-3.275875,2.5402806,-0.38318902,0.26465145,1.7826635,-0.18577401,-0.029006569,0.2080383,-0.9598787,-9.170968,9.840116,1.2690371,-1.7472231,-1.939568,0.78801566,1
2.1199999999999988,,,,,18.343527,-3.1810198,-3.275875,2.5402806,-0.47491616,0.36267203,1.7956976,-0.17990626,-0.036231834,0.21897374,-0.95831716,-9.174108,9.763356,1.3375045,-1.9705961,-2.1481888,0.8739998,1
2.1299999999999986,,,,,18.301172,-3.8404884,-3.8451452,3.3668344,-0.56666315,0.45990387,1.8094066,-0.17342232,-0.044091493,0.23103105,-0.95635015,-9.174907,9.68232,1.4039598,-2.1591377,-2.3242729,0.9557646,1
2.1399999999999983,,,,,18.301172,-3.8404884,-3.8451452,3.3668344,-0.6584054,0.55630356,1.8237668,-0.16622108,-0.05261959,0.24430723,-0.9538952,-9.173133,9.596869,1.4676793,-2.420999,-2.5618005,1.0740764,1
2.149999999999998,,,,,18.301172,-3.8404884,-3.8451452,3.3668344,-0.750116,0.6518242,1.8387507,-0.15820982,-0.061830636,0.25886154,-0.9508615,-9.168512,9.506451,1.5286167,-2.6420257,-2.7622848,1.1865827,1
2.159999999999998,,,,,18.301172,-3.8404884,-3.8451452,3.3668344,-0.8417649,0.7464144,1.8543282,-0.14943795,-0.071590714,0.27445886,-0.94721466,-9.160773,9.410767,1.586317,-2.8285906,-2.931497,1.2935683,1
2.1699999999999977,,,,,17.439707,-3.4701464,-3.61772,2.9190044,-0.9333198,0.8400207,1.8704643,-0.13995177,-0.081783734,0.2908975,-0.94292295,-9.149664,9.309631,1.6403261,-2.9860718,-3.07431,1.3953041,1
2.1799999999999975,,,,,17.439707,-3.4701464,-3.61772,2.9190044,-1.0247492,0.932613,1.8870854,-0.12986208,-0.09225978,0.30784842,-0.93800503,-9.135651,9.207996,1.6832361,-3.061332,-3.1592722,1.4700724,1
2.1899999999999973,,,,,17.439707,-3.4701464,-3.61772,2.9190044,-1.1160204,1.0241628,1.9041144,-0.119272396,-0.10289553,0.32504302,-0.9324879,-9.118033,9.101174,1.7218404,-3.1248684,-3.2309723,1.5411719,1
2.199999999999997,,,,,17.439707,-3.4701464,-3.61772,2.9190044,-1.207097,1.1146191,1.9215064,-0.10821512,-0.11363314,0.34240177,-0.92635745,-9.096658,8.989312,1.7557994,-3.1785085,-3.291479,1.6087825,1
