time-since-start [s],throttle_mpc,roll_mpc,pitch_mpc,yaw_mpc,throttle_nw,roll_nw,pitch_nw,yaw_nw,position_x [m],position_y [m],position_z [m],rotation_w [quaternion],rotation_x [quaternion],rotation_y [quaternion],rotation_z [quaternion],velocity_x [m/s],velocity_y [m/s],velocity_z [m/s],omega_x [rad/s],omega_y [rad/s],omega_z [rad/s],network_used
0.0,15.102841661612498,5.999999850382844,-5.9999999258660655,-0.5630804983024502,-24120.691,26580.402,-5844.479,23766.809,20.519749,-9.384986,1.8845072,-0.0022597413,-0.47155327,0.26801482,0.8401193,-10.157165,-6.9699016,0.0781498,2.3544414,-0.3883938,-0.26600987,0
0.01,15.102841661612498,5.999999850382844,-5.9999999258660655,-0.5630804983024502,-125.055534,10525.488,413.4221,1649.4404,20.417585,-9.454336,1.8851123,0.02228722,-0.4467532,0.29170913,0.8454706,-10.274182,-6.8984876,0.043323044,6.0,-6.0,-0.5630805,0
0.02,15.102841661612498,5.999999850382844,-5.9999999258660655,-0.5630804983024502,-125.055534,10525.488,413.4221,1649.4404,20.314293,-9.522923,1.885383,0.046793893,-0.42114556,0.31487614,0.8492936,-10.38317,-6.817475,0.011219139,6.0,-6.0,-0.5630805,0
0.03,15.102841661612498,5.999999850382844,-5.9999999258660655,-0.5630804983024502,-125.055534,10525.488,413.4221,1649.4404,20.209953,-9.590655,1.8853446,0.07121598,-0.39477658,0.33747393,0.8515814,-10.483327,-6.727478,-0.018573496,6.0,-6.0,-0.5630805,0
0.04,15.102841661612498,5.999999850382844,-5.9999999258660655,-0.5630804983024502,1641.0327,4431.67,1054.0586,56.591774,20.10466,-9.657444,1.8850181,0.09550933,-0.367694,0.3594617,0.85232985,-10.573917,-6.6291757,-0.046483148,6.0,-6.0,-0.5630805,0
0.05,15.102841661612498,5.999999850382844,-5.9999999258660655,-0.5630804983024502,1641.0327,4431.67,1054.0586,56.591774,19.998512,-9.723212,1.8844199,0.119630024,-0.33994675,0.38079968,0.8515375,-10.654276,-6.5233073,-0.07295172,6.0,-6.0,-0.5630805,0
0.060000000000000005,15.102841661612498,5.999999850382844,-5.9999999258660655,-0.5630804983024502,1641.0327,4431.67,1054.0586,56.591774,19.891613,-9.787888,1.8835624,0.14353448,-0.31158504,0.40144932,0.849206,-10.723809,-6.410665,-0.09843154,6.0,-6.0,-0.5630805,0
0.07,15.102841661612498,5.999999850382844,-5.9999999258660655,-0.5630804983024502,1641.0327,4431.67,1054.0586,56.591774,19.784077,-9.851405,1.8824532,0.16717947,-0.2826601,0.4213733,0.84533936,-10.782002,-6.292093,-0.1233821,6.0,-6.0,-0.5630805,0
0.08,20.999981726149183,5.999999610788094,-5.999999826012079,-0.40225489032711326,15.598423,-19.587555,-50.140656,-144.71992,19.676014,-9.913711,1.881095,0.19052225,-0.2532242,0.44053558,0.8399447,-10.8284235,-6.168475,-0.14826667,6.0,-6.0,-0.5630805,0
0.09,20.999981726149183,5.999999610788094,-5.999999826012079,-0.40225489032711326,15.598423,-19.587555,-50.140656,-144.71992,19.567476,-9.974511,1.8796288,0.2128458,-0.2229769,0.4591059,0.8331865,-10.87612,-5.9908547,-0.145119,5.9999995,-6.0,-0.40225488,0
0.09999999999999999,20.999981726149183,5.999999610788094,-5.999999826012079,-0.40225489032711326,15.598423,-19.587555,-50.140656,-144.71992,19.458548,-10.033512,1.8781885,0.23478544,-0.19232738,0.47684813,0.82492536,-10.906609,-5.808813,-0.14318718,5.9999995,-6.0,-0.40225488,0
0.10999999999999999,20.999981726149183,5.999999610788094,-5.999999826012079,-0.40225489032711326,15.598423,-19.587555,-50.140656,-144.71992,19.349401,-10.090676,1.8767586,0.25630158,-0.16133095,0.49373025,0.81517625,-10.919657,-5.6236925,-0.14312835,5.9999995,-6.0,-0.40225488,0
0.11999999999999998,20.999981726149183,5.999999610788094,-5.999999826012079,-0.40225489032711326,15.598423,-19.587555,-50.140656,-144.71992,19.240213,-10.14598,1.8753172,0.2773554,-0.13004352,0.50972176,0.8039567,-10.915158,-5.436857,-0.14558612,5.9999995,-6.0,-0.40225488,0
0.12999999999999998,20.999999635399618,3.2312022295168354,-5.999995477677238,0.2229078911575996,29.452045,6.917602,-3.342424,-18.969152,19.131159,-10.199412,1.873836,0.2979089,-0.09852151,0.5247938,0.791287,-10.893135,-5.2496843,-0.15118593,5.9999995,-6.0,-0.40225488,0
0.13999999999999999,20.999999635399618,3.2312022295168354,-5.999995477677238,0.2229078911575996,29.452045,6.917602,-3.342424,-18.969152,19.022408,-10.250979,1.8722856,0.31418622,-0.06933338,0.5284447,0.7856373,-10.854976,-5.064088,-0.15883313,3.2312021,-5.9999957,0.22290789,0
0.15,20.999999635399618,3.2312022295168354,-5.999995477677238,0.2229078911575996,29.452045,6.917602,-3.342424,-18.969152,18.914108,-10.300707,1.8706604,0.33009836,-0.04006468,0.5314815,0.7790746,-10.802956,-4.8820257,-0.1662062,3.2312021,-5.9999957,0.22290789,0
0.16,20.999999387607055,0.4121798067468855,-1.65024805799313,-0.21203382444258473,18.15671,-1.7352238,-0.6358651,-0.7007657,18.806396,-10.348635,1.8689609,0.34562692,-0.010749424,0.53390056,0.7716065,-10.737314,-4.7043304,-0.17375506,3.2312021,-5.9999957,0.22290789,0
0.17,20.999999387607055,0.4121798067468855,-1.65024805799313,-0.21203382444258473,18.15671,-1.7352238,-0.6358651,-0.7007657,18.699398,-10.394808,1.8671846,0.3508597,-0.0042361207,0.532608,0.77020013,-10.662132,-4.530369,-0.18139051,0.4121798,-1.650248,-0.21203382,0
0.18000000000000002,20.999999387607055,0.4121798067468855,-1.65024805799313,-0.21203382444258473,18.15671,-1.7352238,-0.6358651,-0.7007657,18.593168,-10.439248,1.8653352,0.3560667,0.0022774935,0.5312763,0.7687372,-10.583863,-4.358096,-0.18841329,0.4121798,-1.650248,-0.21203382,0
0.19000000000000003,20.999999387607055,0.4121798067468855,-1.65024805799313,-0.21203382444258473,18.15671,-1.7352238,-0.6358651,-0.7007657,18.487736,-10.481975,1.8634185,0.36124757,0.008790941,0.5299055,0.7672178,-10.502533,-4.1875653,-0.19484305,0.4121798,-1.650248,-0.21203382,0
0.20000000000000004,20.99999875786921,-0.38740944535684907,0.03019956959504735,-0.3263406208301723,17.951578,-2.7524226,3.0127556,-1.1624599,18.383131,-10.523005,1.8614403,0.36640188,0.015303742,0.5284958,0.765642,-10.418167,-4.0188274,-0.20069961,0.4121798,-1.650248,-0.21203382,0
0.21000000000000005,20.99999875786921,-0.38740944535684907,0.03019956959504735,-0.3263406208301723,17.951578,-2.7524226,3.0127556,-1.1624599,18.279379,-10.562355,1.8594066,0.36759987,0.013615999,0.52709126,0.7660677,-10.3321,-3.8512735,-0.20596586,-0.38740945,0.030199569,-0.32634062,0
0.22000000000000006,20.99999875786921,-0.38740944535684907,0.03019956959504735,-0.3263406208301723,17.951578,-2.7524226,3.0127556,-1.1624599,18.176489,-10.600031,1.8573234,0.36879548,0.011928168,0.5256834,0.76648843,-10.246526,-3.6838245,-0.21058989,-0.38740945,0.030199569,-0.32634062,0
0.23000000000000007,20.99999875786921,-0.38740944535684907,0.03019956959504735,-0.3263406208301723,17.951578,-2.7524226,3.0127556,-1.1624599,18.07445,-10.636032,1.8551972,0.3699887,0.0102402605,0.5242721,0.7669043,-10.161447,-3.5164814,-0.21457425,-0.38740945,0.030199569,-0.32634062,0
0.24000000000000007,20.99999875786921,-0.38740944535684907,0.03019956959504735,-0.3263406208301723,18.049273,-3.05134,3.8273633,-1.276536,17.973259,-10.670361,1.8530343,0.37117955,0.008552287,0.5228574,0.7673152,-10.076866,-3.349245,-0.21792151,-0.38740945,0.030199569,-0.32634062,0
0.25000000000000006,20.99999875786921,-0.38740944535684907,0.03019956959504735,-0.3263406208301723,18.049273,-3.05134,3.8273633,-1.276536,17.872911,-10.703017,1.8508409,0.372368,0.006864257,0.52143943,0.7677212,-9.992788,-3.1821163,-0.22063427,-0.38740945,0.030199569,-0.32634062,0
0.26000000000000006,20.99999875786921,-0.38740944535684907,0.03019956959504735,-0.3263406208301723,18.049273,-3.05134,3.8273633,-1.276536,17.773401,-10.734004,1.8486236,0.37355408,0.0051761842,0.5200181,0.7681222,-9.909214,-3.0150964,-0.22271514,-0.38740945,0.030199569,-0.32634062,0
0.2700000000000001,20.99999875786921,-0.38740944535684907,0.03019956959504735,-0.3263406208301723,18.049273,-3.05134,3.8273633,-1.276536,17.674725,-10.76332,1.8463887,0.37473777,0.0034880773,0.51859343,0.76851827,-9.826148,-2.848186,-0.22416677,-0.38740945,0.030199569,-0.32634062,0
0.2800000000000001,20.999971753194703,-1.1032083081434887,1.402812842241997,-0.4358289297392661,18.26331,-3.1792397,4.1531415,-1.3085666,17.576874,-10.790968,1.8441424,0.37591898,0.0017999482,0.5171654,0.7689094,-9.743592,-2.681386,-0.22499175,-0.38740945,0.030199569,-0.32634062,0
0.2900000000000001,20.999971753194703,-1.1032083081434887,1.402812842241997,-0.4358289297392661,18.26331,-3.1792397,4.1531415,-1.3085666,17.479845,-10.816947,1.8418912,0.37396124,-0.0067937505,0.5155429,0.7709231,-9.662655,-2.5141788,-0.2251658,-1.1032083,1.4028128,-0.43582892,0
0.3000000000000001,20.999971753194703,-1.1032083081434887,1.402812842241997,-0.4358289297392661,18.26331,-3.1792397,4.1531415,-1.3085666,17.38361,-10.8412485,1.8396415,0.37197188,-0.015386876,0.513877,0.77287173,-9.585187,-2.3457253,-0.22467117,-1.1032083,1.4028128,-0.43582892,0
0.3100000000000001,20.999971753194703,-1.1032083081434887,1.402812842241997,-0.4358289297392661,18.26331,-3.1792397,4.1531415,-1.3085666,17.288132,-10.863859,1.8374,0.3699512,-0.023978703,0.51216763,0.7747551,-9.511213,-2.176071,-0.22355342,-1.1032083,1.4028128,-0.43582892,0
0.3200000000000001,20.117720240582067,-1.7377493375496056,2.384351259304798,-0.48947490158769835,18.036825,-3.5238726,4.653164,-1.3218559,17.193375,-10.884768,1.8351725,0.36789927,-0.032568507,0.5104151,0.7765732,-9.440759,-2.0052617,-0.22185828,-1.1032083,1.4028128,-0.43582892,0
0.3300000000000001,20.117720240582067,-1.7377493375496056,2.384351259304798,-0.48947490158769835,18.036825,-3.5238726,4.653164,-1.3218559,17.099289,-10.903996,1.8329438,0.36339086,-0.04626823,0.5079169,0.77963245,-9.377486,-1.8402767,-0.22380127,-1.7377493,2.3843513,-0.4894749,0
0.34000000000000014,20.117720240582067,-1.7377493375496056,2.384351259304798,-0.48947490158769835,18.036825,-3.5238726,4.653164,-1.3218559,17.005808,-10.921567,1.8306983,0.35880116,-0.059957605,0.50530523,0.7825174,-9.319862,-1.6735519,-0.22519623,-1.7377493,2.3843513,-0.4894749,0
0.35000000000000014,20.117720240582067,-1.7377493375496056,2.384351259304798,-0.48947490158769835,18.036825,-3.5238726,4.653164,-1.3218559,16.912874,-10.937462,1.8284411,0.35413122,-0.073633574,0.5025806,0.78522736,-9.267935,-1.5052185,-0.22615269,-1.7377493,2.3843513,-0.4894749,0
0.36000000000000015,19.14516041457748,-1.965055200955323,2.3070028087960783,-0.5494772045058482,17.510487,-3.4706302,4.5386834,-1.4916291,16.82043,-10.951666,1.8261762,0.34938213,-0.08729308,0.49974355,0.7877617,-9.2217455,-1.3354089,-0.22678061,-1.7377493,2.3843513,-0.4894749,0
0.37000000000000016,19.14516041457748,-1.965055200955323,2.3070028087960783,-0.5494772045058482,17.510487,-3.4706302,4.5386834,-1.4916291,16.72841,-10.964206,1.8238829,0.3448829,-0.10117479,0.49573478,0.79061145,-9.1833515,-1.1725992,-0.23176819,-1.9650552,2.3070028,-0.5494772,0
0.38000000000000017,19.14516041457748,-1.965055200955323,2.3070028087960783,-0.5494772045058482,17.510487,-3.4706302,4.5386834,-1.4916291,16.636745,-10.975113,1.8215423,0.34030196,-0.11503251,0.49160844,0.79327375,-9.150658,-1.0088251,-0.23627204,-1.9650552,2.3070028,-0.5494772,0
0.3900000000000002,19.14516041457748,-1.965055200955323,2.3070028087960783,-0.5494772045058482,17.510487,-3.4706302,4.5386834,-1.4916291,16.545378,-10.984379,1.8191587,0.33564028,-0.12886295,0.4873655,0.79574794,-9.1236925,-0.8442214,-0.24040581,-1.9650552,2.3070028,-0.5494772,0
0.4000000000000002,18.408996824445904,-1.719417597201674,1.4148295707575924,-0.6001772528686642,17.17393,-3.2955077,3.641946,-1.774712,16.454252,-10.991995,1.816735,0.330899,-0.14266282,0.48300704,0.7980334,-9.102483,-0.6789236,-0.24428353,-1.9650552,2.3070028,-0.5494772,0
0.4100000000000002,18.408996824445904,-1.719417597201674,1.4148295707575924,-0.6001772528686642,17.17393,-3.2955077,3.641946,-1.774712,16.363306,-10.997988,1.814256,0.32862854,-0.15259273,0.478027,0.80013055,-9.0870695,-0.5196251,-0.25142068,-1.7194176,1.4148296,-0.6001772,0
0.4200000000000002,18.408996824445904,-1.719417597201674,1.4148295707575924,-0.6001772528686642,17.17393,-3.2955077,3.641946,-1.774712,16.272497,-11.002388,1.8117089,0.32631433,-0.16250238,0.47298336,0.8021213,-9.075702,-0.3603636,-0.2579,-1.7194176,1.4148296,-0.6001772,0
0.4300000000000002,18.408996824445904,-1.719417597201674,1.4148295707575924,-0.6001772528686642,17.17393,-3.2955077,3.641946,-1.774712,16.18178,-11.005197,1.8091,0.32395676,-0.17239042,0.46787688,0.80400544,-9.068389,-0.20120561,-0.26378796,-1.7194176,1.4148296,-0.6001772,0
0.4400000000000002,18.408996824445904,-1.719417597201674,1.4148295707575924,-0.6001772528686642,16.629581,-3.2427819,3.166494,-1.7472353,16.091116,-11.006413,1.806435,0.32155612,-0.18225552,0.46270818,0.8057826,-9.065138,-0.04221776,-0.26915124,-1.7194176,1.4148296,-0.6001772,0
0.45000000000000023,18.408996824445904,-1.719417597201674,1.4148295707575924,-0.6001772528686642,16.629581,-3.2427819,3.166494,-1.7472353,16.000462,-11.0060425,1.8037186,0.31911272,-0.19209638,0.45747793,0.8074527,-9.065953,0.116533466,-0.27405694,-1.7194176,1.4148296,-0.6001772,0
0.46000000000000024,18.408996824445904,-1.719417597201674,1.4148295707575924,-0.6001772528686642,16.629581,-3.2427819,3.166494,-1.7472353,15.9097805,-11.004086,1.800955,0.3166269,-0.20191172,0.45218688,0.8090154,-9.070838,0.27498174,-0.2785723,-1.7194176,1.4148296,-0.6001772,0
0.47000000000000025,18.408996824445904,-1.719417597201674,1.4148295707575924,-0.6001772528686642,16.629581,-3.2427819,3.166494,-1.7472353,15.819031,-11.0005455,1.7981482,0.31409895,-0.21170022,0.4468357,0.8104706,-9.079792,0.43306082,-0.28276473,-1.7194176,1.4148296,-0.6001772,0
0.48000000000000026,17.935977625989178,-1.5120123359965956,0.9401767129599428,-0.5866994095564343,16.468462,-3.1828227,2.4342036,-1.6955726,15.72817,-10.995426,1.7953007,0.31152925,-0.22146055,0.44142514,0.811818,-9.0928135,0.5907048,-0.28670195,-1.7194176,1.4148296,-0.6001772,0
0.49000000000000027,17.935977625989178,-1.5120123359965956,0.9401767129599428,-0.5866994095564343,16.468462,-3.1828227,2.4342036,-1.6955726,15.637164,-10.988753,1.7924031,0.3101477,-0.22891709,0.43608323,0.8131646,-9.109138,0.7437716,-0.29275188,-1.5120124,0.9401767,-0.5866994,0
0.5000000000000002,17.935977625989178,-1.5120123359965956,0.9401767129599428,-0.5866994095564343,16.468462,-3.1828227,2.4342036,-1.6955726,15.545979,-10.980553,1.7894473,0.30873895,-0.2363535,0.43070298,0.8144398,-9.128555,0.8961985,-0.29834187,-1.5120124,0.9401767,-0.5866994,0
0.5100000000000002,17.935977625989178,-1.5120123359965956,0.9401767129599428,-0.5866994095564343,16.468462,-3.1828227,2.4342036,-1.6955726,15.454583,-10.970832,1.7864377,0.30730304,-0.24376914,0.42528492,0.8156434,-9.151066,1.0479462,-0.30351707,-1.5120124,0.9401767,-0.5866994,0
0.5200000000000002,17.387010185034807,-1.0772900950509448,-0.0005274608751704232,-0.5550139692269999,16.25244,-2.9890776,1.6589192,-1.6054469,15.362947,-10.959596,1.7833782,0.3058401,-0.25116336,0.41982952,0.8167753,-9.176665,1.1989758,-0.30832282,-1.5120124,0.9401767,-0.5866994,0
0.5300000000000002,17.387010185034807,-1.0772900950509448,-0.0005274608751704232,-0.5550139692269999,16.25244,-2.9890776,1.6589192,-1.6054469,15.271047,-10.9468775,1.7802588,0.3067493,-0.253969,0.4147245,0.81817365,-9.203852,1.344605,-0.31540868,-1.07729,-0.0005274609,-0.55501395,0
0.5400000000000003,17.387010185034807,-1.0772900950509448,-0.0005274608751704232,-0.5550139692269999,16.25244,-2.9890776,1.6589192,-1.6054469,15.178865,-10.932708,1.7770733,0.30764726,-0.25676537,0.40960428,0.81954193,-9.232371,1.4893595,-0.32151243,-1.07729,-0.0005274609,-0.55501395,0
0.5500000000000003,17.387010185034807,-1.0772900950509448,-0.0005274608751704232,-0.5550139692269999,16.25244,-2.9890776,1.6589192,-1.6054469,15.086393,-10.917094,1.7738317,0.3085339,-0.25955224,0.404469,0.8208801,-9.262229,1.6332254,-0.32665172,-1.07729,-0.0005274609,-0.55501395,0
0.5600000000000003,17.008787510375395,-0.7481172108916679,-0.3074076254234592,-0.5041831826581681,16.033428,-2.714424,1.317805,-1.4115952,14.993616,-10.900047,1.7705436,0.30940923,-0.2623296,0.39931887,0.8221882,-9.293426,1.7761892,-0.3308444,-1.07729,-0.0005274609,-0.55501395,0
0.5700000000000003,17.008787510375395,-0.7481172108916679,-0.3074076254234592,-0.5041831826581681,16.033428,-2.714424,1.317805,-1.4115952,14.900525,-10.88159,1.767208,0.31111088,-0.2632269,0.39510202,0.8232958,-9.324979,1.915192,-0.33614138,-0.7481172,-0.30740762,-0.5041832,0
0.5800000000000003,17.008787510375395,-0.7481172108916679,-0.3074076254234592,-0.5041831826581681,16.033428,-2.714424,1.317805,-1.4115952,14.8071165,-10.861746,1.7638241,0.31280547,-0.26411822,0.39087617,0.8243846,-9.357098,2.0534077,-0.34046263,-0.7481172,-0.30740762,-0.5041832,0
0.5900000000000003,17.008787510375395,-0.7481172108916679,-0.3074076254234592,-0.5041831826581681,16.033428,-2.714424,1.317805,-1.4115952,14.713383,-10.840525,1.7604018,0.31449294,-0.26500356,0.38664144,0.8254548,-9.389788,2.190828,-0.34381738,-0.7481172,-0.30740762,-0.5041832,0
0.6000000000000003,16.51848533407116,-0.5013243370174777,-0.5948614926310243,-0.43890133880914417,15.577823,-2.5319526,0.91825473,-1.2422484,14.619319,-10.817932,1.756951,0.31617326,-0.26588288,0.38239795,0.82650614,-9.423053,2.327445,-0.34621492,-0.7481172,-0.30740762,-0.5041832,0
0.6100000000000003,16.51848533407116,-0.5013243370174777,-0.5948614926310243,-0.43890133880914417,15.577823,-2.5319526,0.91825473,-1.2422484,14.524925,-10.793997,1.7534671,0.31845477,-0.26505363,0.37879854,0.8275534,-9.455693,2.4593558,-0.3504,-0.50132436,-0.5948615,-0.43890134,0
0.6200000000000003,16.51848533407116,-0.5013243370174777,-0.5948614926310243,-0.43890133880914417,15.577823,-2.5319526,0.91825473,-1.2422484,14.430205,-10.768747,1.7499466,0.3207299,-0.2642191,0.37519157,0.82858413,-9.48829,2.590525,-0.3535368,-0.50132436,-0.5948615,-0.43890134,0
0.6300000000000003,16.51848533407116,-0.5013243370174777,-0.5948614926310243,-0.43890133880914417,15.577823,-2.5319526,0.91825473,-1.2422484,14.335159,-10.742189,1.7463999,0.3229987,-0.26337934,0.3715771,0.82959837,-9.520848,2.7209432,-0.3556316,-0.50132436,-0.5948615,-0.43890134,0
0.6400000000000003,16.51848533407116,-0.5013243370174777,-0.5948614926310243,-0.43890133880914417,15.253486,-2.2470775,0.5864134,-0.99659526,14.239788,-10.714333,1.7428374,0.32526103,-0.26253432,0.36795524,0.8305961,-9.55337,2.8506017,-0.35669068,-0.50132436,-0.5948615,-0.43890134,0
0.6500000000000004,16.51848533407116,-0.5013243370174777,-0.5948614926310243,-0.43890133880914417,15.253486,-2.2470775,0.5864134,-0.99659526,14.144092,-10.685182,1.7392696,0.32751688,-0.26168406,0.36432603,0.8315772,-9.58586,2.9794912,-0.35672045,-0.50132436,-0.5948615,-0.43890134,0
0.6600000000000004,16.51848533407116,-0.5013243370174777,-0.5948614926310243,-0.43890133880914417,15.253486,-2.2470775,0.5864134,-0.99659526,14.048071,-10.654744,1.7357066,0.32976618,-0.26082855,0.36068955,0.8325417,-9.618321,3.1076035,-0.3557274,-0.50132436,-0.5948615,-0.43890134,0
0.6700000000000004,16.51848533407116,-0.5013243370174777,-0.5948614926310243,-0.43890133880914417,15.253486,-2.2470775,0.5864134,-0.99659526,13.951726,-10.623031,1.7321585,0.3320089,-0.25996783,0.35704586,0.83348966,-9.650758,3.2349298,-0.35371816,-0.50132436,-0.5948615,-0.43890134,0
0.6800000000000004,16.261931713922483,-0.33576475708914344,-0.46261543556247914,-0.3896508164770196,14.907028,-1.9514499,0.2971513,-0.78503764,13.855056,-10.590047,1.7286355,0.33424503,-0.25910196,0.35339507,0.8344209,-9.683172,3.3614612,-0.35069934,-0.50132436,-0.5948615,-0.43890134,0
0.6900000000000004,16.261931713922483,-0.33576475708914344,-0.46261543556247914,-0.3896508164770196,14.907028,-1.9514499,0.2971513,-0.78503764,13.758065,-10.555812,1.7251397,0.33625114,-0.25841996,0.3507142,0.83495736,-9.715042,3.4853203,-0.34835944,-0.33576477,-0.46261543,-0.38965082,0
0.7000000000000004,16.261931713922483,-0.33576475708914344,-0.46261543556247914,-0.3896508164770196,14.907028,-1.9514499,0.2971513,-0.78503764,13.660755,-10.520342,1.721671,0.3382532,-0.25773486,0.34802914,0.8354838,-9.746836,3.608606,-0.34529212,-0.33576477,-0.46261543,-0.38965082,0
0.7100000000000004,16.261931713922483,-0.33576475708914344,-0.46261543556247914,-0.3896508164770196,14.907028,-1.9514499,0.2971513,-0.78503764,13.5631275,-10.483642,1.7182366,0.3402512,-0.25704673,0.3453399,0.8360002,-9.778555,3.7313132,-0.3415009,-0.33576477,-0.46261543,-0.38965082,0
0.7200000000000004,15.778546972202944,-0.1620948564082203,-0.571383902247101,-0.3301123558521032,14.584528,-1.6095359,0.035529733,-0.5475018,13.465184,-10.445716,1.7148435,0.34224516,-0.2563555,0.3426465,0.8365066,-9.810204,3.8534372,-0.33698937,-0.33576477,-0.46261543,-0.38965082,0
0.7300000000000004,15.778546972202944,-0.1620948564082203,-0.571383902247101,-0.3301123558521032,14.584528,-1.6095359,0.035529733,-0.5475018,13.366929,-10.406591,1.711484,0.34439504,-0.2548071,0.34056568,0.83694696,-9.840727,3.9713895,-0.33483064,-0.16209486,-0.5713839,-0.33011237,0
0.7400000000000004,15.778546972202944,-0.1620948564082203,-0.571383902247101,-0.3301123558521032,14.584528,-1.6095359,0.035529733,-0.5475018,13.268371,-10.366291,1.7081494,0.34654096,-0.2532558,0.33848092,0.83737767,-9.870871,4.088844,-0.3319746,-0.16209486,-0.5713839,-0.33011237,0
0.7500000000000004,15.778546972202944,-0.1620948564082203,-0.571383902247101,-0.3301123558521032,14.584528,-1.6095359,0.035529733,-0.5475018,13.169513,-10.324818,1.7048469,0.34868285,-0.25170156,0.33639225,0.8377987,-9.900637,4.205794,-0.32842422,-0.16209486,-0.5713839,-0.33011237,0
0.7600000000000005,15.356392934327847,-0.006367108990882212,-0.6726286067463036,-0.2867305302784277,14.200991,-1.3605866,-0.25787422,-0.40003213,13.070359,-10.282178,1.7015833,0.35082072,-0.25014445,0.33429968,0.83821005,-9.930027,4.3222346,-0.32418245,-0.16209486,-0.5713839,-0.33011237,0
0.7700000000000005,15.356392934327847,-0.006367108990882212,-0.6726286067463036,-0.2867305302784277,14.200991,-1.3605866,-0.25787422,-0.40003213,12.970918,-10.238391,1.6983517,0.3531364,-0.24781421,0.3327323,0.8385534,-9.958164,4.435083,-0.32200536,-0.006367109,-0.6726286,-0.28673053,0
0.7800000000000005,15.356392934327847,-0.006367108990882212,-0.6726286067463036,-0.2867305302784277,14.200991,-1.3605866,-0.25787422,-0.40003213,12.871198,-10.193478,1.6951455,0.35544738,-0.24548064,0.33116043,0.83888555,-9.985661,4.5474854,-0.31915206,-0.006367109,-0.6726286,-0.28673053,0
0.7900000000000005,15.356392934327847,-0.006367108990882212,-0.6726286067463036,-0.2867305302784277,14.200991,-1.3605866,-0.25787422,-0.40003213,12.771207,-10.147442,1.6919711,0.3577536,-0.2431438,0.32958415,0.83920646,-10.012516,4.659435,-0.315626,-0.006367109,-0.6726286,-0.28673053,0
0.8000000000000005,14.925896166476027,0.020068136174637412,-0.6413245728080013,-0.22999897352726803,13.873918,-1.1489608,-0.47079912,-0.2720533,12.670951,-10.10029,1.6888351,0.36005506,-0.2408037,0.3280035,0.83951616,-10.038732,4.7709255,-0.31143066,-0.006367109,-0.6726286,-0.28673053,0
0.8100000000000005,14.925896166476027,0.020068136174637412,-0.6413245728080013,-0.22999897352726803,13.873918,-1.1489608,-0.47079912,-0.2720533,12.570438,-10.052041,1.6857301,0.36209434,-0.23845138,0.32665437,0.8398365,-10.063592,4.8788543,-0.3094728,0.020068137,-0.6413246,-0.22999898,0
0.8200000000000005,14.925896166476027,0.020068136174637412,-0.6413245728080013,-0.22999897352726803,13.873918,-1.1489608,-0.47079912,-0.2720533,12.469681,-10.002715,1.6826477,0.36412942,-0.23609628,0.32530147,0.840147,-10.0878315,4.9863667,-0.306916,0.020068137,-0.6413246,-0.22999898,0
0.8300000000000005,14.925896166476027,0.020068136174637412,-0.6413245728080013,-0.22999897352726803,13.873918,-1.1489608,-0.47079912,-0.2720533,12.368684,-9.952315,1.6795938,0.3661603,-0.23373844,0.32394475,0.84044784,-10.111452,5.0934563,-0.30376348,0.020068137,-0.6413246,-0.22999898,0
0.8400000000000005,14.925896166476027,0.020068136174637412,-0.6413245728080013,-0.22999897352726803,13.931471,-0.7858475,-0.47964486,-0.17339842,12.267455,-9.900847,1.6765745,0.36818692,-0.23137787,0.32258424,0.8407389,-10.134454,5.200118,-0.30001855,0.020068137,-0.6413246,-0.22999898,1
0.8500000000000005,14.925896166476027,0.020068136174637412,-0.6413245728080013,-0.22999897352726803,13.931471,-0.7858475,-0.47964486,-0.17339842,12.166003,-9.8483515,1.6735617,0.36877623,-0.23108542,0.31819364,0.8422328,-10.155721,5.2990894,-0.30240604,-0.7858475,-0.47964486,-0.17339842,1
0.8600000000000005,14.925896166476027,0.020068136174637412,-0.6413245728080013,-0.22999897352726803,13.931471,-0.7858475,-0.47964486,-0.17339842,12.064338,-9.79487,1.6705291,0.36935756,-0.2307879,0.31379607,0.84370834,-10.177415,5.3971696,-0.30397528,-0.7858475,-0.47964486,-0.17339842,1
0.8700000000000006,14.925896166476027,0.020068136174637412,-0.6413245728080013,-0.22999897352726803,13.931471,-0.7858475,-0.47964486,-0.17339842,11.962453,-9.740413,1.6674848,0.36993077,-0.23048532,0.30939162,0.8451653,-10.199536,5.4943504,-0.30473524,-0.7858475,-0.47964486,-0.17339842,1
0.8800000000000006,14.612508806874784,0.1150670621861452,-0.8826330980645577,-0.1879404078516934,13.961163,-0.4881528,-0.5683712,-0.12237419,11.860345,-9.684987,1.664437,0.37049583,-0.23017767,0.3049804,0.8466037,-10.222081,5.590624,-0.30469492,-0.7858475,-0.47964486,-0.17339842,1
0.8900000000000006,14.612508806874784,0.1150670621861452,-0.8826330980645577,-0.1879404078516934,13.961163,-0.4881528,-0.5683712,-0.12237419,11.75801,-9.628602,1.6613946,0.37131605,-0.228861,0.30171812,0.84776944,-10.244954,5.686248,-0.30367747,-0.4881528,-0.5683712,-0.12237419,1
0.9000000000000006,14.612508806874784,0.1150670621861452,-0.8826330980645577,-0.1879404078516934,13.961163,-0.4881528,-0.5683712,-0.12237419,11.655446,-9.571264,1.658366,0.37213093,-0.22754103,0.29845148,0.84892297,-10.2678585,5.7811127,-0.30194077,-0.4881528,-0.5683712,-0.12237419,1
0.9100000000000006,14.612508806874784,0.1150670621861452,-0.8826330980645577,-0.1879404078516934,13.961163,-0.4881528,-0.5683712,-0.12237419,11.552653,-9.512981,1.6553582,0.37294045,-0.22621778,0.29518056,0.8500642,-10.290796,5.875213,-0.2994906,-0.4881528,-0.5683712,-0.12237419,1
0.9200000000000006,14.458552376486265,0.5257813104128313,-1.023319650860588,-0.12721477879415896,13.911111,0.046620756,-0.65771794,-0.067677766,11.449632,-9.453762,1.6523784,0.3737446,-0.22489126,0.29190534,0.85119325,-10.313765,5.968544,-0.2963328,-0.4881528,-0.5683712,-0.12237419,1
0.9300000000000006,14.458552376486265,0.5257813104128313,-1.023319650860588,-0.12721477879415896,13.911111,0.046620756,-0.65771794,-0.067677766,11.346381,-9.393615,1.6494318,0.37504295,-0.22210246,0.29079697,0.8517336,-10.336439,6.060898,-0.2929023,0.046620756,-0.65771794,-0.067677766,1
0.9400000000000006,14.458552376486265,0.5257813104128313,-1.023319650860588,-0.12721477879415896,13.911111,0.046620756,-0.65771794,-0.067677766,11.242906,-9.332546,1.646522,0.3763372,-0.21931124,0.28968537,0.85226464,-10.358496,6.1528215,-0.28894684,0.046620756,-0.65771794,-0.067677766,1
0.9500000000000006,14.458552376486265,0.5257813104128313,-1.023319650860588,-0.12721477879415896,13.911111,0.046620756,-0.65771794,-0.067677766,11.1392145,-9.270561,1.6436546,0.3776273,-0.21651757,0.2885706,0.8527863,-10.379936,6.244311,-0.28447062,0.046620756,-0.65771794,-0.067677766,1
0.9600000000000006,14.19724640138839,0.6596143705028391,-1.2656265735247736,-0.08191234523532039,13.677501,0.40277642,-0.77876425,-0.028385803,11.035311,-9.207663,1.6408343,0.37891325,-0.21372154,0.28745267,0.8532986,-10.400758,6.3353615,-0.2794779,0.046620756,-0.65771794,-0.067677766,1
0.9700000000000006,14.19724640138839,0.6596143705028391,-1.2656265735247736,-0.08191234523532039,13.677501,0.40277642,-0.77876425,-0.028385803,10.931203,-9.143864,1.6380578,0.3805804,-0.20967461,0.2876626,0.85348994,-10.420443,6.424515,-0.27573702,0.40277642,-0.77876425,-0.028385803,1
0.9800000000000006,14.19724640138839,0.6596143705028391,-1.2656265735247736,-0.08191234523532039,13.677501,0.40277642,-0.77876425,-0.028385803,10.826905,-9.079174,1.635321,0.38224024,-0.20562366,0.28786698,0.8536648,-10.43904,6.5134053,-0.2715633,0.40277642,-0.77876425,-0.028385803,1
0.9900000000000007,14.19724640138839,0.6596143705028391,-1.2656265735247736,-0.08191234523532039,13.677501,0.40277642,-0.77876425,-0.028385803,10.722426,-9.013596,1.6326281,0.38389271,-0.20156875,0.28806585,0.85382324,-10.45655,6.602026,-0.26696444,0.40277642,-0.77876425,-0.028385803,1
1.0000000000000007,13.941734956236317,0.5279178503649063,-1.5745136712132228,-0.032389772732507795,13.490482,0.52116156,-0.84475064,-0.008185767,10.617778,-8.947133,1.6299832,0.3855378,-0.19750997,0.28825915,0.8539653,-10.472969,6.6903706,-0.2619481,0.40277642,-0.77876425,-0.028385803,1
1.0100000000000007,13.941734956236317,0.5279178503649063,-1.5745136712132228,-0.032389772732507795,13.490482,0.52116156,-0.84475064,-0.008185767,10.512973,-8.879794,1.6273835,0.3873002,-0.19290778,0.2888444,0.854022,-10.488021,6.7772403,-0.25793958,0.52116156,-0.84475064,-0.008185767,1
1.0200000000000007,13.941734956236317,0.5279178503649063,-1.5745136712132228,-0.032389772732507795,13.490482,0.52116156,-0.84475064,-0.008185767,10.408022,-8.811588,1.6248257,0.38905305,-0.18830083,0.2894225,0.8540578,-10.501817,6.8638597,-0.25354114,0.52116156,-0.84475064,-0.008185767,1
1.0300000000000007,13.941734956236317,0.5279178503649063,-1.5745136712132228,-0.032389772732507795,13.490482,0.52116156,-0.84475064,-0.008185767,10.302939,-8.742517,1.622314,0.39079633,-0.18368925,0.28999346,0.8540726,-10.514355,6.950219,-0.24876285,0.52116156,-0.84475064,-0.008185767,1
1.0400000000000007,13.941734956236317,0.5279178503649063,-1.5745136712132228,-0.032389772732507795,13.225419,0.42251346,-0.910228,0.021854445,10.197738,-8.672585,1.6198518,0.39253,-0.17907315,0.29055727,0.85406625,-10.525635,7.0363107,-0.24361475,0.52116156,-0.84475064,-0.008185767,1
1.0500000000000007,13.941734956236317,0.5279178503649063,-1.5745136712132228,-0.032389772732507795,13.225419,0.42251346,-0.910228,0.021854445,10.092431,-8.601801,1.617433,0.39413238,-0.17432295,0.290591,0.85429955,-10.535476,7.1203957,-0.24010794,0.42251346,-0.910228,0.021854445,1
1.0600000000000007,13.941734956236317,0.5279178503649063,-1.5745136712132228,-0.032389772732507795,13.225419,0.42251346,-0.910228,0.021854445,9.987032,-8.530178,1.6150512,0.39572483,-0.16956834,0.2906174,0.8545113,-10.544127,7.2040834,-0.2361662,0.42251346,-0.910228,0.021854445,1
1.0700000000000007,13.941734956236317,0.5279178503649063,-1.5745136712132228,-0.032389772732507795,13.225419,0.42251346,-0.910228,0.021854445,9.881554,-8.457721,1.6127111,0.39730734,-0.16480948,0.29063648,0.8547016,-10.551589,7.287367,-0.23179995,0.42251346,-0.910228,0.021854445,1
1.0800000000000007,13.76614748007808,0.14631380340380584,-1.5427826228533494,0.00939003546962765,13.069364,0.17625335,-0.9573525,0.024208575,9.776005,-8.384432,1.6104167,0.39887986,-0.16004646,0.29064825,0.8548703,-10.557858,7.370236,-0.22701967,0.42251346,-0.910228,0.021854445,1
1.0900000000000007,13.76614748007808,0.14631380340380584,-1.5427826228533494,0.00939003546962765,13.069364,0.17625335,-0.9573525,0.024208575,9.6704,-8.310323,1.6081661,0.40030393,-0.15556581,0.2895082,0.85541844,-10.562955,7.451636,-0.22299829,0.17625335,-0.9573525,0.024208575,1
1.1000000000000008,13.76614748007808,0.14631380340380584,-1.5427826228533494,0.00939003546962765,13.069364,0.17625335,-0.9573525,0.024208575,9.564749,-8.235401,1.6059586,0.40171856,-0.15108149,0.2883613,0.8559463,-10.567082,7.53241,-0.21843806,0.17625335,-0.9573525,0.024208575,1
1.1100000000000008,13.76614748007808,0.14631380340380584,-1.5427826228533494,0.00939003546962765,13.069364,0.17625335,-0.9573525,0.024208575,9.459063,-8.159676,1.6037993,0.40312368,-0.14659359,0.28720757,0.85645384,-10.570242,7.6125517,-0.21334888,0.17625335,-0.9573525,0.024208575,1
1.1200000000000008,13.520666797599565,-0.2322151896247297,-1.8790135562239652,0.07134116968767364,12.936215,-0.054136515,-1.0019084,0.03495483,9.353349,-8.083153,1.6016935,0.40451923,-0.14210221,0.286047,0.8569411,-10.572432,7.6920533,-0.20774063,0.17625335,-0.9573525,0.024208575,1
1.1300000000000008,13.520666797599565,-0.2322151896247297,-1.8790135562239652,0.07134116968767364,12.936215,-0.054136515,-1.0019084,0.03495483,9.247618,-8.005842,1.5996411,0.40575886,-0.13786705,0.28380987,0.8577903,-10.573713,7.7700343,-0.20263293,-0.054136515,-1.0019084,0.03495483,1
1.1400000000000008,13.520666797599565,-0.2322151896247297,-1.8790135562239652,0.07134116968767364,12.936215,-0.054136515,-1.0019084,0.03495483,9.141877,-7.9277554,1.5976429,0.40698826,-0.13362841,0.28156558,0.85861784,-10.574228,7.847179,-0.1968926,-0.054136515,-1.0019084,0.03495483,1
1.1500000000000008,13.520666797599565,-0.2322151896247297,-1.8790135562239652,0.07134116968767364,12.936215,-0.054136515,-1.0019084,0.03495483,9.036135,-7.8489017,1.5957053,0.40820742,-0.12938641,0.27931413,0.85942376,-10.573977,7.9234815,-0.19053024,-0.054136515,-1.0019084,0.03495483,1
1.1600000000000008,13.397274118706886,-0.5870860432575123,-1.8175330352786796,0.13009969868400956,12.941719,-0.32583722,-0.90651274,0.0053232014,8.930399,-7.7692885,1.5938344,0.40941626,-0.12514116,0.27705568,0.86020803,-10.57296,7.9989324,-0.1835565,-0.054136515,-1.0019084,0.03495483,1
1.1700000000000008,13.397274118706886,-0.5870860432575123,-1.8175330352786796,0.13009969868400956,12.941719,-0.32583722,-0.90651274,0.0053232014,8.8246765,-7.6889253,1.5920365,0.4104405,-0.121900424,0.27379864,0.8612276,-10.571307,8.07352,-0.17590821,-0.32583722,-0.90651274,0.0053232014,1
1.1800000000000008,13.397274118706886,-0.5870860432575123,-1.8175330352786796,0.13009969868400956,12.941719,-0.32583722,-0.90651274,0.0053232014,8.718974,-7.6078215,1.5903184,0.4114552,-0.11865685,0.27053526,0.86222714,-10.569237,8.14714,-0.16759199,-0.32583722,-0.90651274,0.0053232014,1
1.1900000000000008,13.397274118706886,-0.5870860432575123,-1.8175330352786796,0.13009969868400956,12.941719,-0.32583722,-0.90651274,0.0053232014,8.613294,-7.525986,1.5886867,0.4124604,-0.11541053,0.26726565,0.8632067,-10.56675,8.219787,-0.15861776,-0.32583722,-0.90651274,0.0053232014,1
1.2000000000000008,13.144018750433505,-0.8159342417637453,-2.060874232463632,0.20413785989607197,12.910359,-0.551715,-0.8050343,-0.0075435936,8.507642,-7.443429,1.5871481,0.41345602,-0.11216152,0.26398984,0.8641662,-10.563847,8.291453,-0.14899547,-0.32583722,-0.90651274,0.0053232014,0
1.2100000000000009,13.144018750433505,-0.8159342417637453,-2.060874232463632,0.20413785989607197,12.910359,-0.551715,-0.8050343,-0.0075435936,8.402021,-7.360156,1.5857183,0.41481102,-0.10466734,0.25630218,0.86676735,-10.560303,8.362738,-0.13672386,-0.81593424,-2.0608742,0.20413786,0
1.2200000000000009,13.144018750433505,-0.8159342417637453,-2.060874232463632,0.20413785989607197,12.910359,-0.551715,-0.8050343,-0.0075435936,8.29644,-7.2761817,1.5844184,0.41611463,-0.09716021,0.24858281,0.8692612,-10.555869,8.431661,-0.12299446,-0.81593424,-2.0608742,0.20413786,0
1.2300000000000009,13.144018750433505,-0.8159342417637453,-2.060874232463632,0.20413785989607197,12.910359,-0.551715,-0.8050343,-0.0075435936,8.1909075,-7.1915307,1.583263,0.41736668,-0.08964104,0.24083266,0.8716474,-10.550544,8.498191,-0.107863344,-0.81593424,-2.0608742,0.20413786,0
1.2400000000000009,13.144018750433505,-0.8159342417637453,-2.060874232463632,0.20413785989607197,12.764366,-0.6060259,-1.1884805,0.02814047,8.085432,-7.1062264,1.5822657,0.41856706,-0.08211077,0.23305264,0.87392557,-10.544325,8.562296,-0.09138726,-0.81593424,-2.0608742,0.20413786,1
1.2500000000000009,13.144018750433505,-0.8159342417637453,-2.060874232463632,0.20413785989607197,12.764366,-0.6060259,-1.1884805,0.02814047,7.9800224,-7.0203013,1.5814224,0.41957086,-0.07815127,0.22792363,0.8751591,-10.537603,8.622512,-0.07714168,-0.6060259,-1.1884805,0.02814047,1
1.260000000000001,13.144018750433505,-0.8159342417637453,-2.060874232463632,0.20413785989607197,12.764366,-0.6060259,-1.1884805,0.02814047,7.8746815,-6.933781,1.5807254,0.42055598,-0.0741883,0.22278449,0.8763537,-10.530512,8.681248,-0.062138066,-0.6060259,-1.1884805,0.02814047,1
1.270000000000001,13.144018750433505,-0.8159342417637453,-2.060874232463632,0.20413785989607197,12.764366,-0.6060259,-1.1884805,0.02814047,7.7694135,-6.846681,1.5801822,0.42152238,-0.07022203,0.21763544,0.8775092,-10.523054,8.738495,-0.04639662,-0.6060259,-1.1884805,0.02814047,1
1.280000000000001,12.862783018315614,-0.8178223330663646,-1.2845146770845177,0.26236992524792335,12.913791,-0.67443436,-1.3215173,-0.053268492,7.664222,-6.7590165,1.5797999,0.42247,-0.06625263,0.21247669,0.8786258,-10.515226,8.794241,-0.029937673,-0.6060259,-1.1884805,0.02814047,1
1.290000000000001,12.862783018315614,-0.8178223330663646,-1.2845146770845177,0.26236992524792335,12.913791,-0.67443436,-1.3215173,-0.053268492,7.5591106,-6.670799,1.5795926,0.42387292,-0.061926473,0.20669886,0.8796433,-10.506924,8.849049,-0.011403383,-0.67443436,-1.3215173,-0.053268492,1
1.300000000000001,12.862783018315614,-0.8178223330663646,-1.2845146770845177,0.26236992524792335,12.913791,-0.67443436,-1.3215173,-0.053268492,7.4540844,-6.5820417,1.5795745,0.42525247,-0.05759691,0.20090964,0.8806124,-10.498211,8.902144,0.007890053,-0.67443436,-1.3215173,-0.053268492,1
1.310000000000001,12.862783018315614,-0.8178223330663646,-1.2845146770845177,0.26236992524792335,12.913791,-0.67443436,-1.3215173,-0.053268492,7.349148,-6.492762,1.5797528,0.4266086,-0.053264175,0.19510935,0.88153297,-10.489092,8.953518,0.027916947,-0.67443436,-1.3215173,-0.053268492,1
1.320000000000001,12.533794594345851,-0.8252143757411788,-1.006949138750629,0.3368180914249801,13.152176,-0.592108,-1.3650542,-0.08278452,7.244304,-6.4029775,1.5801351,0.4279412,-0.048928503,0.1892983,0.882405,-10.479571,9.003157,0.048651446,-0.67443436,-1.3215173,-0.053268492,1
1.330000000000001,12.533794594345851,-0.8252143757411788,-1.006949138750629,0.3368180914249801,13.152176,-0.592108,-1.3650542,-0.08278452,7.139559,-6.3127007,1.5807391,0.4294417,-0.044249825,0.18373963,0.8830977,-10.469422,9.051941,0.07226724,-0.592108,-1.3650542,-0.08278452,1
1.340000000000001,12.533794594345851,-0.8252143757411788,-1.006949138750629,0.3368180914249801,13.152176,-0.592108,-1.3650542,-0.08278452,7.034918,-6.2219453,1.5815827,0.43091834,-0.03956869,0.17817077,0.88374144,-10.45875,9.098955,0.09653314,-0.592108,-1.3650542,-0.08278452,1
1.350000000000001,12.533794594345851,-0.8252143757411788,-1.006949138750629,0.3368180914249801,13.152176,-0.592108,-1.3650542,-0.08278452,6.9303856,-6.130728,1.582672,0.43237108,-0.03488536,0.172592,0.88433605,-10.447557,9.144188,0.12142231,-0.592108,-1.3650542,-0.08278452,1
1.360000000000001,12.133235927901488,-0.8440535762000131,-0.01865349538335278,0.40609500275224625,12.952397,-0.4795503,-1.4659468,-0.07686065,6.825968,-6.0390673,1.5840132,0.4337998,-0.030200094,0.16700366,0.88488156,-10.435851,9.187631,0.1469078,-0.592108,-1.3650542,-0.08278452,0
1.370000000000001,12.133235927901488,-0.8440535762000131,-0.01865349538335278,0.40609500275224625,12.952397,-0.4795503,-1.4659468,-0.07686065,6.721664,-5.9469967,1.5855639,0.43188646,-0.031608883,0.16328827,0.88646024,-10.425049,9.226445,0.16325518,-0.84405357,-0.018653495,0.406095,0
1.380000000000001,12.133235927901488,-0.8440535762000131,-0.01865349538335278,0.40609500275224625,12.952397,-0.4795503,-1.4659468,-0.07686065,6.617464,-5.8545403,1.5872793,0.42996362,-0.03301698,0.15956928,0.8880195,-10.415028,9.264656,0.17987646,-0.84405357,-0.018653495,0.406095,0
1.390000000000001,12.133235927901488,-0.8440535762000131,-0.01865349538335278,0.40609500275224625,12.952397,-0.4795503,-1.4659468,-0.07686065,6.513361,-5.7617054,1.5891622,0.42803136,-0.03442435,0.15584679,0.8895593,-10.4057865,9.302258,0.19676426,-0.84405357,-0.018653495,0.406095,0
1.400000000000001,11.815244696402786,-0.716679662480848,-0.2532706550312674,0.42242469334778887,13.409809,-0.58355945,-2.255042,0.1496588,6.409346,-5.6684976,1.5912155,0.4260897,-0.035830967,0.1521209,0.8910796,-10.397321,9.339243,0.21391118,-0.84405357,-0.018653495,0.406095,0
1.410000000000001,11.815244696402786,-0.716679662480848,-0.2532706550312674,0.42242469334778887,13.409809,-0.58355945,-2.255042,0.1496588,6.305411,-5.574928,1.5934263,0.4242679,-0.035907757,0.14846249,0.8925616,-10.389722,9.374611,0.2282894,-0.7166797,-0.25327066,0.4224247,0
1.420000000000001,11.815244696402786,-0.716679662480848,-0.2532706550312674,0.42242469334778887,13.409809,-0.58355945,-2.255042,0.1496588,6.20155,-5.481008,1.5957823,0.42243803,-0.035983868,0.14480126,0.89402676,-10.382585,9.409251,0.24292389,-0.7166797,-0.25327066,0.4224247,0
1.430000000000001,11.815244696402786,-0.716679662480848,-0.2532706550312674,0.42242469334778887,13.409809,-0.58355945,-2.255042,0.1496588,6.0977583,-5.3867455,1.5982857,0.42060018,-0.036059298,0.1411373,0.895475,-10.375903,9.44316,0.2578085,-0.7166797,-0.25327066,0.4224247,0
1.440000000000001,11.815244696402786,-0.716679662480848,-0.2532706550312674,0.42242469334778887,12.824529,-0.35066724,-1.9441489,0.17287344,5.994031,-5.2921476,1.6009392,0.41875437,-0.03613405,0.13747069,0.89690626,-10.369676,9.476334,0.2729371,-0.7166797,-0.25327066,0.4224247,0
1.450000000000001,11.815244696402786,-0.716679662480848,-0.2532706550312674,0.42242469334778887,12.824529,-0.35066724,-1.9441489,0.17287344,5.8903637,-5.1972218,1.6037452,0.41690066,-0.036208116,0.13380146,0.8983206,-10.3639,9.508767,0.28830346,-0.7166797,-0.25327066,0.4224247,0
1.460000000000001,11.815244696402786,-0.716679662480848,-0.2532706550312674,0.42242469334778887,12.824529,-0.35066724,-1.9441489,0.17287344,5.7867517,-5.101975,1.606706,0.41503903,-0.036281496,0.1301297,0.899718,-10.358572,9.540458,0.3039015,-0.7166797,-0.25327066,0.4224247,0
1.470000000000001,11.815244696402786,-0.716679662480848,-0.2532706550312674,0.42242469334778887,12.824529,-0.35066724,-1.9441489,0.17287344,5.6831913,-5.006415,1.609824,0.4131696,-0.03635419,0.12645549,0.9010984,-10.35369,9.571401,0.31972492,-0.7166797,-0.25327066,0.4224247,0
1.480000000000001,11.694130472089359,-0.6160885919965745,0.26502980723844716,0.4008983784528862,12.752948,-0.43596584,-2.5987072,0.25173292,5.579677,-4.9105496,1.6131012,0.41129234,-0.0364262,0.12277888,0.90246165,-10.349251,9.601595,0.3357675,-0.7166797,-0.25327066,0.4224247,0
1.490000000000001,11.694130472089359,-0.6160885919965745,0.26502980723844716,0.4008983784528862,12.752948,-0.43596584,-2.5987072,0.25173292,5.4762044,-4.814387,1.616534,0.40920532,-0.038642667,0.120616004,0.90360916,-10.3454075,9.630928,0.3508047,-0.61608857,0.26502982,0.40089837,0
1.500000000000001,11.694130472089359,-0.6160885919965745,0.26502980723844716,0.4008983784528862,12.752948,-0.43596584,-2.5987072,0.25173292,5.3727665,-4.717932,1.6201175,0.40711206,-0.040858544,0.11845129,0.90474284,-10.34231,9.66003,0.36592445,-0.61608857,0.26502982,0.40089837,0
1.5100000000000011,11.694130472089359,-0.6160885919965745,0.26502980723844716,0.4008983784528862,12.752948,-0.43596584,-2.5987072,0.25173292,5.269356,-4.6211877,1.6238527,0.4050126,-0.0430738,0.116284765,0.9058627,-10.339956,9.688896,0.3811224,-0.61608857,0.26502982,0.40089837,0
1.5200000000000011,11.466070918423561,-0.4720107359853596,-0.146610657019053,0.39971521106732577,12.9749155,-0.40841183,-3.0331244,0.30442265,5.1659646,-4.524155,1.6277404,0.40290695,-0.045288395,0.11411647,0.9069687,-10.338346,9.717522,0.39639416,-0.61608857,0.26502982,0.40089837,0
1.5300000000000011,11.466070918423561,-0.4720107359853596,-0.146610657019053,0.39971521106732577,12.9749155,-0.40841183,-3.0331244,0.30442265,5.0625863,-4.426841,1.6317699,0.40106905,-0.04534612,0.11177056,0.9080719,-10.337329,9.745264,0.40954348,-0.47201073,-0.14661066,0.39971521,0
1.5400000000000011,11.466070918423561,-0.4720107359853596,-0.146610657019053,0.39971521106732577,12.9749155,-0.40841183,-3.0331244,0.30442265,4.9592166,-4.329252,1.6359315,0.39922708,-0.045403387,0.10942353,0.90916586,-10.336599,9.772532,0.42281222,-0.47201073,-0.14661066,0.39971521,0
1.5500000000000012,11.466070918423561,-0.4720107359853596,-0.146610657019053,0.39971521106732577,12.9749155,-0.40841183,-3.0331244,0.30442265,4.855853,-4.2313924,1.6402265,0.39738107,-0.045460198,0.10707539,0.9102507,-10.336154,9.799324,0.43619785,-0.47201073,-0.14661066,0.39971521,0
1.5600000000000012,11.361049216232566,-0.38334056315704707,-0.08967764200393248,0.38465086442863494,12.152781,-0.25479278,-2.388901,0.3123704,4.7524924,-4.133267,1.6446558,0.39553106,-0.045516547,0.10472618,0.91132635,-10.335992,9.825638,0.44969797,-0.47201073,-0.14661066,0.39971521,0
1.5700000000000012,11.361049216232566,-0.38334056315704707,-0.08967764200393248,0.38465086442863494,12.152781,-0.25479278,-2.388901,0.3123704,4.6491323,-4.034882,1.6492158,0.39373657,-0.04566445,0.10288923,0.91230476,-10.336098,9.851278,0.46227714,-0.38334057,-0.08967764,0.38465086,0
1.5800000000000012,11.361049216232566,-0.38334056315704707,-0.08967764200393248,0.38465086442863494,12.152781,-0.25479278,-2.388901,0.3123704,4.54577,-3.9362426,1.6539018,0.3919391,-0.045812,0.1010515,0.91327626,-10.336452,9.876555,0.47493932,-0.38334057,-0.08967764,0.38465086,0
1.5900000000000012,11.361049216232566,-0.38334056315704707,-0.08967764200393248,0.38465086442863494,12.152781,-0.25479278,-2.388901,0.3123704,4.442403,-3.837352,1.6587149,0.39013866,-0.04595921,0.09921301,0.91424084,-10.33705,9.901469,0.48768303,-0.38334057,-0.08967764,0.38465086,0
1.6000000000000012,11.199014889301857,-0.358999381548209,-0.47226373290236257,0.3977299930045245,12.330038,-0.29158974,-3.027142,0.3179804,4.3390284,-3.7382143,1.6636558,0.38833526,-0.046106067,0.09737377,0.9151985,-10.3378935,9.926017,0.5005068,-0.38334057,-0.08967764,0.38465086,0
1.6100000000000012,11.199014889301857,-0.358999381548209,-0.47226373290236257,0.3977299930045245,12.330038,-0.29158974,-3.027142,0.3179804,4.235645,-3.638835,1.6687174,0.38665995,-0.044448122,0.09490508,0.91624856,-10.338845,9.949746,0.51184994,-0.35899937,-0.47226372,0.39773,0
1.6200000000000012,11.199014889301857,-0.358999381548209,-0.47226373290236257,0.3977299930045245,12.330038,-0.29158974,-3.027142,0.3179804,4.132252,-3.5392215,1.6738931,0.38497972,-0.04278961,0.09243518,0.91728693,-10.339718,9.97283,0.52333146,-0.35899937,-0.47226372,0.39773,0
1.6300000000000012,11.199014889301857,-0.358999381548209,-0.47226373290236257,0.3977299930045245,12.330038,-0.29158974,-3.027142,0.3179804,4.028851,-3.4393804,1.6791843,0.38329458,-0.04113055,0.0899641,0.9183136,-10.3405075,9.995269,0.5349477,-0.35899937,-0.47226372,0.39773,0
1.6400000000000012,11.199014889301857,-0.358999381548209,-0.47226373290236257,0.3977299930045245,12.440943,-0.3342858,-3.2087817,0.39309987,3.925442,-3.3393183,1.6845924,0.38160455,-0.039470963,0.08749188,0.91932863,-10.341211,10.017061,0.5466946,-0.35899937,-0.47226372,0.39773,0
1.6500000000000012,11.199014889301857,-0.358999381548209,-0.47226373290236257,0.3977299930045245,12.440943,-0.3342858,-3.2087817,0.39309987,3.8220267,-3.2390413,1.6901186,0.37990963,-0.037810873,0.08501854,0.9203319,-10.341827,10.038208,0.5585681,-0.35899937,-0.47226372,0.39773,0
1.6600000000000013,11.199014889301857,-0.358999381548209,-0.47226373290236257,0.3977299930045245,12.440943,-0.3342858,-3.2087817,0.39309987,3.7186058,-3.1385562,1.6957641,0.3782099,-0.036150303,0.082544126,0.9213234,-10.342354,10.058708,0.5705645,-0.35899937,-0.47226372,0.39773,0
1.6700000000000013,11.199014889301857,-0.358999381548209,-0.47226373290236257,0.3977299930045245,12.440943,-0.3342858,-3.2087817,0.39309987,3.6151803,-3.0378692,1.7015302,0.37650532,-0.03448927,0.08006865,0.9223032,-10.342786,10.078562,0.58267987,-0.35899937,-0.47226372,0.39773,0
1.6800000000000013,11.154225182345368,-0.3582961566441863,-0.3015326746423321,0.39504732941691606,12.075158,-0.28273708,-3.0498612,0.359858,3.511751,-2.936987,1.7074182,0.37479597,-0.0328278,0.07759215,0.92327124,-10.3431225,10.097768,0.59491014,-0.35899937,-0.47226372,0.39773,0
1.6900000000000013,11.154225182345368,-0.3582961566441863,-0.3015326746423321,0.39504732941691606,12.075158,-0.28273708,-3.0498612,0.359858,3.4083183,-2.8359163,1.7134266,0.3730287,-0.031953838,0.07543753,0.9241957,-10.3434105,10.116302,0.6068014,-0.35829616,-0.3015327,0.39504734,0
1.7000000000000013,11.154225182345368,-0.3582961566441863,-0.3015326746423321,0.39504732941691606,12.075158,-0.28273708,-3.0498612,0.359858,3.3048825,-2.7346625,1.7195544,0.37125793,-0.03107958,0.07328222,0.9251116,-10.343734,10.134321,0.61877793,-0.35829616,-0.3015327,0.39504734,0
1.7100000000000013,11.154225182345368,-0.3582961566441863,-0.3015326746423321,0.39504732941691606,12.075158,-0.28273708,-3.0498612,0.359858,3.2014437,-2.6332316,1.7258024,0.36948368,-0.030205028,0.071126215,0.92601866,-10.344091,10.151826,0.6308373,-0.35829616,-0.3015327,0.39504734,0
1.7200000000000013,11.017421617996629,-0.4078556010008853,-0.6032603013926713,0.43037429491989054,12.423262,-0.3460924,-3.5086899,0.3907844,3.098001,-2.531628,1.7321714,0.36770597,-0.029330196,0.06896954,0.92691714,-10.3444805,10.168816,0.6429773,-0.35829616,-0.3015327,0.39504734,0
1.7300000000000013,11.017421617996629,-0.4078556010008853,-0.6032603013926713,0.43037429491989054,12.423262,-0.3460924,-3.5086899,0.3907844,2.9945545,-2.4298582,1.7386557,0.3658563,-0.02713552,0.0660327,0.9279292,-10.344816,10.184989,0.6538573,-0.4078556,-0.6032603,0.4303743,0
1.7400000000000013,11.017421617996629,-0.4078556010008853,-0.6032603013926713,0.43037429491989054,12.423262,-0.3460924,-3.5086899,0.3907844,2.8911054,-2.3279307,1.7452492,0.36400005,-0.024940357,0.063094676,0.9289247,-10.344974,10.200388,0.66484976,-0.4078556,-0.6032603,0.4303743,0
1.7500000000000013,11.017421617996629,-0.4078556010008853,-0.6032603013926713,0.43037429491989054,12.423262,-0.3460924,-3.5086899,0.3907844,2.7876556,-2.2258532,1.751953,0.36213735,-0.022744749,0.06015552,0.92990357,-10.344951,10.215013,0.6759488,-0.4078556,-0.6032603,0.4303743,0
1.7600000000000013,10.966915619896517,-0.4840322052600241,-0.11346500222742817,0.43078545839649146,12.149423,-0.2930928,-3.2446766,0.41469118,2.684207,-2.123633,1.7587684,0.36026815,-0.020548735,0.057215285,0.9308658,-10.344741,10.228864,0.68714845,-0.4078556,-0.6032603,0.4303743,0
1.7700000000000014,10.966915619896517,-0.4840322052600241,-0.11346500222742817,0.43078545839649146,12.149423,-0.2930928,-3.2446766,0.41469118,2.580761,-2.0212781,1.7656938,0.3582439,-0.02076919,0.054802004,0.9317869,-10.344515,10.241992,0.69792867,-0.4840322,-0.113465,0.43078545,0
1.7800000000000014,10.966915619896517,-0.4840322052600241,-0.11346500222742817,0.43078545839649146,12.149423,-0.2930928,-3.2446766,0.41469118,2.477316,-1.9187945,1.7727273,0.3562158,-0.02098942,0.05238813,0.9326979,-10.344551,10.254647,0.7087652,-0.4840322,-0.113465,0.43078545,0
1.7900000000000014,10.966915619896517,-0.4840322052600241,-0.11346500222742817,0.43078545839649146,12.149423,-0.2930928,-3.2446766,0.41469118,2.3738692,-1.8161869,1.7798693,0.35418388,-0.021209422,0.049973693,0.9335988,-10.344851,10.266826,0.7196555,-0.4840322,-0.113465,0.43078545,0
1.8000000000000014,10.850916679570767,-0.5980807819341935,-0.9514411445822231,0.49987641164331986,12.026788,-0.5436922,-3.3384542,0.42677256,2.270418,-1.7134598,1.7871206,0.35214812,-0.021429196,0.047558714,0.9344896,-10.345409,10.278528,0.730597,-0.4840322,-0.113465,0.43078545,0
1.8100000000000014,10.850916679570767,-0.5980807819341935,-0.9514411445822231,0.49987641164331986,12.026788,-0.5436922,-3.3384542,0.42677256,2.1669607,-1.6106194,1.7944758,0.34996802,-0.017917454,0.043141663,0.9355962,-10.34599,10.289374,0.7404606,-0.59808075,-0.95144117,0.4998764,0
1.8200000000000014,10.850916679570767,-0.5980807819341935,-0.9514411445822231,0.49987641164331986,12.026788,-0.5436922,-3.3384542,0.42677256,2.0634995,-1.5076764,1.8019303,0.34777465,-0.014405032,0.038722977,0.9366675,-10.346219,10.29906,0.7504359,-0.59808075,-0.95144117,0.4998764,0
1.8300000000000014,10.850916679570767,-0.5980807819341935,-0.9514411445822231,0.49987641164331986,12.026788,-0.5436922,-3.3384542,0.42677256,1.9600376,-1.4046423,1.8094851,0.34556815,-0.010892064,0.034302827,0.9377033,-10.346089,10.307582,0.7605092,-0.59808075,-0.95144117,0.4998764,0
1.8400000000000014,10.850916679570767,-0.5980807819341935,-0.9514411445822231,0.49987641164331986,11.84702,-0.61707836,-3.1101625,0.46258196,1.8565788,-1.3015288,1.8171409,0.34334856,-0.0073786853,0.029881379,0.93870366,-10.345597,10.314944,0.77066666,-0.59808075,-0.95144117,0.4998764,0
1.8500000000000014,10.850916679570767,-0.5980807819341935,-0.9514411445822231,0.49987641164331986,11.84702,-0.61707836,-3.1101625,0.46258196,1.753127,-1.1983474,1.8248987,0.34111598,-0.003865027,0.0254588,0.93966854,-10.344734,10.321147,0.78089446,-0.59808075,-0.95144117,0.4998764,0
1.8600000000000014,10.850916679570767,-0.5980807819341935,-0.9514411445822231,0.49987641164331986,11.84702,-0.61707836,-3.1101625,0.46258196,1.6496856,-1.0951098,1.8327589,0.3388705,-0.00035122258,0.021035258,0.9405979,-10.343496,10.32619,0.79117876,-0.59808075,-0.95144117,0.4998764,0
1.8700000000000014,10.850916679570767,-0.5980807819341935,-0.9514411445822231,0.49987641164331986,11.84702,-0.61707836,-3.1101625,0.46258196,1.5462584,-0.99182767,1.8407222,0.3366122,0.0031625954,0.01661092,0.94149166,-10.341877,10.330076,0.8015057,-0.59808075,-0.95144117,0.4998764,0
1.8800000000000014,10.836749311771674,-0.7043317481798504,0.0917100145870285,0.49857184127890103,11.663807,-0.75888497,-2.5409493,0.3099518,1.4428494,-0.8885124,1.848789,0.33434117,0.006676294,0.012185955,0.9423498,-10.339872,10.332806,0.81186146,-0.59808075,-0.95144117,0.4998764,0
1.8900000000000015,10.836749311771674,-0.7043317481798504,0.0917100145870285,0.49857184127890103,11.663807,-0.75888497,-2.5409493,0.3099518,1.3394612,-0.78517485,1.8569587,0.3320068,0.0050970633,0.009003885,0.9432204,-10.337835,10.334612,0.82209444,-0.70433176,0.091710016,0.49857184,0
1.9000000000000015,10.836749311771674,-0.7043317481798504,0.0917100145870285,0.49857184127890103,11.663807,-0.75888497,-2.5409493,0.3099518,1.2360908,-0.6818219,1.8652309,0.3296662,0.0035177376,0.0058216457,0.9440732,-10.336353,10.335884,0.8323441,-0.70433176,0.091710016,0.49857184,0
1.9100000000000015,10.836749311771674,-0.7043317481798504,0.0917100145870285,0.49857184127890103,11.663807,-0.75888497,-2.5409493,0.3099518,1.1327324,-0.57845896,1.8736056,0.32731938,0.0019383451,0.0026392965,0.9449082,-10.335424,10.336622,0.8426049,-0.70433176,0.091710016,0.49857184,0
1.9200000000000015,10.72683267092949,-0.8762173510973159,-0.4305801944108983,0.5910453366683818,11.917641,-0.89888006,-2.0512574,0.24250033,1.0293806,-0.47509134,1.8820829,0.32496637,0.00035891638,-0.0005431024,0.94572544,-10.335047,10.336823,0.8528713,-0.70433176,0.091710016,0.49857184,0
1.9300000000000015,10.72683267092949,-0.8762173510973159,-0.4305801944108983,0.5910453366683818,11.917641,-0.89888006,-2.0512574,0.24250033,0.92603,-0.3717249,1.8906574,0.32216665,0.0009696496,-0.005387054,0.94666725,-10.335092,10.336304,0.8620379,-0.87621737,-0.4305802,0.5910453,0
1.9400000000000015,10.72683267092949,-0.8762173510973159,-0.4305801944108983,0.5910453366683818,11.917641,-0.89888006,-2.0512574,0.24250033,0.82267797,-0.26836878,1.8993235,0.31935644,0.0015803514,-0.010230829,0.9475782,-10.335344,10.334758,0.87119436,-0.87621737,-0.4305802,0.5910453,0
1.9500000000000015,10.72683267092949,-0.8762173510973159,-0.4305801944108983,0.5910453366683818,11.917641,-0.89888006,-2.0512574,0.24250033,0.7193224,-0.16503327,1.908081,0.31653586,0.0021910015,-0.015074272,0.9484583,-10.3358,10.332184,0.8803304,-0.87621737,-0.4305802,0.5910453,0
1.9600000000000015,10.692215379640826,-1.02948144898129,-0.05656050467790393,0.59334820487192,11.405062,-0.8981615,-1.1613044,0.37618294,0.6159613,-0.06172864,1.91693,0.31370494,0.0028015806,-0.019917224,0.94930756,-10.33645,10.328583,0.8894359,-0.87621737,-0.4305802,0.5910453,0
1.9700000000000015,10.692215379640826,-1.02948144898129,-0.05656050467790393,0.59334820487192,11.405062,-0.8981615,-1.1613044,0.37618294,0.5125924,0.041535027,1.9258679,0.31089184,0.0013961496,-0.024900341,0.9501181,-10.337444,10.324007,0.898155,-1.0294814,-0.056560505,0.5933482,0
1.9800000000000015,10.692215379640826,-1.02948144898129,-0.05656050467790393,0.59334820487192,11.405062,-0.8981615,-1.1613044,0.37618294,0.4092104,0.14474833,1.9348928,0.3080677,-9.330659e-06,-0.02988258,0.9508951,-10.339041,10.318508,0.9068233,-1.0294814,-0.056560505,0.5933482,0
1.9900000000000015,10.692215379640826,-1.02948144898129,-0.05656050467790393,0.59334820487192,11.405062,-0.8981615,-1.1613044,0.37618294,0.30580953,0.24790202,1.9440039,0.30523273,-0.0014148105,-0.03486376,0.9516384,-10.341234,10.312085,0.91542935,-1.0294814,-0.056560505,0.5933482,0
2.0000000000000013,,,,,11.723553,-1.0664437,-1.0074202,0.42379615,0.20238374,0.35098684,1.9532009,0.30238694,-0.0028202406,-0.03984371,0.95234805,-10.344019,10.304734,0.92396176,-1.0294814,-0.056560505,0.5933482,0
2.010000000000001,,,,,11.723553,-1.0664437,-1.0074202,0.42379615,0.09892829,0.45399287,1.9624791,0.2987774,0.0010338201,-0.04718403,0.9531552,-10.347019,10.296205,0.93164206,-1.1606452,-1.2072402,0.70147717,0
2.020000000000001,,,,,11.723553,-1.0664437,-1.0074202,0.42379615,-0.004555436,0.556905,1.9718333,0.29514328,0.0048877955,-0.054520465,0.95388377,-10.34967,10.285938,0.9391772,-1.1606452,-1.2072402,0.70147717,0
2.0300000000000007,,,,,11.723553,-1.0664437,-1.0074202,0.42379615,-0.10806388,0.65970576,1.981262,0.2914848,0.008741368,-0.061852407,0.9545337,-10.351959,10.273941,0.9465382,-1.1606452,-1.2072402,0.70147717,0
2.0400000000000005,,,,,11.723553,-1.0664437,-1.0074202,0.42379615,-0.21159333,0.76237786,1.9907633,0.2878023,0.012594219,-0.06917925,0.95510495,-10.353872,10.260218,0.9536961,-1.1606452,-1.2072402,0.70147717,0
2.0500000000000003,,,,,11.826956,-1.0680196,-0.8645352,0.68247354,-0.31513998,0.86490417,2.000335,0.2840961,0.016446033,-0.0765004,0.9555975,-10.355398,10.244774,0.9606217,-1.1606452,-1.2072402,0.70147717,1
2.06,,,,,11.826956,-1.0680196,-0.8645352,0.68247354,-0.4187009,0.96725816,2.0100343,0.28058404,0.018798117,-0.08288525,0.9560592,-10.356757,10.225779,0.97924703,-1.0680196,-0.8645352,0.68247354,1
2.07,,,,,11.826956,-1.0680196,-0.8645352,0.68247354,-0.52227455,1.0694143,2.019919,0.2770555,0.021149093,-0.08926522,0.95646465,-10.35794,10.205191,0.99760395,-1.0680196,-0.8645352,0.68247354,1
2.0799999999999996,,,,,11.826956,-1.0680196,-0.8645352,0.68247354,-0.625859,1.1713566,2.0299854,0.2735107,0.023498824,-0.09563994,0.9568138,-10.3589325,10.183016,1.0156707,-1.0680196,-0.8645352,0.68247354,1
2.0899999999999994,,,,,11.888876,-1.0724554,-0.5270431,0.6640961,-0.72945255,1.2730693,2.0402312,0.26994973,0.025847172,-0.10200903,0.9571067,-10.359725,10.159258,1.0334257,-1.0680196,-0.8645352,0.68247354,1
2.099999999999999,,,,,11.888876,-1.0724554,-0.5270431,0.6640961,-0.83305323,1.3745359,2.050656,0.26663518,0.026582481,-0.10793607,0.9573656,-10.360438,10.133865,1.0514683,-1.0724554,-0.5270431,0.6640961,1
2.109999999999999,,,,,11.888876,-1.0724554,-0.5270431,0.6640961,-0.9366617,1.4757419,2.0612597,0.26330817,0.027316548,-0.11385807,0.9575798,-10.361275,10.107092,1.0691994,-1.0724554,-0.5270431,0.6640961,1
2.1199999999999988,,,,,11.888876,-1.0724554,-0.5270431,0.6640961,-1.0402792,1.5766732,2.072039,0.25996885,0.028049337,-0.119774744,0.9577492,-10.362226,10.07894,1.0866028,-1.0724554,-0.5270431,0.6640961,1
2.1299999999999986,,,,,11.888727,-1.0894551,-0.5602058,0.6484126,-1.1439066,1.6773161,2.0829904,0.2566174,0.028780816,-0.12568583,0.95787376,-10.363279,10.049415,1.1036614,-1.0724554,-0.5270431,0.6640961,1
2.1399999999999983,,,,,11.888727,-1.0894551,-0.5602058,0.6484126,-1.2475451,1.7776569,2.094111,0.2533105,0.029657803,-0.13171268,0.95791745,-10.364418,10.018505,1.120354,-1.0894551,-0.5602058,0.6484126,1
2.149999999999998,,,,,11.888727,-1.0894551,-0.5602058,0.6484126,-1.3511953,1.8776815,2.1053963,0.24999143,0.030533366,-0.13773319,0.9579151,-10.365618,9.986194,1.1366593,-1.0894551,-0.5602058,0.6484126,1
