time-since-start [s],throttle_mpc,roll_mpc,pitch_mpc,yaw_mpc,throttle_nw,roll_nw,pitch_nw,yaw_nw,position_x [m],position_y [m],position_z [m],rotation_w [quaternion],rotation_x [quaternion],rotation_y [quaternion],rotation_z [quaternion],velocity_x [m/s],velocity_y [m/s],velocity_z [m/s],omega_x [rad/s],omega_y [rad/s],omega_z [rad/s],network_used
0.0,9.605485910715531,5.999999744320064,-5.999999787485024,1.4290312546299906,15.466946,1.023904,-2.8702555,-0.2150345,16.407486,-10.884026,2.0842578,-0.2889003,0.37553564,-0.28455848,-0.8333883,-10.724345,-2.1902711,0.5520394,1.7825814,-0.13685831,-0.5242606,0
0.01,9.605485910715531,5.999999744320064,-5.999999787485024,1.4290312546299906,15.208999,2.487012,-4.5638475,-0.4784283,16.300028,-10.905594,2.0895581,-0.30247682,0.33949727,-0.30330718,-0.8374092,-10.765947,-2.123043,0.50844574,5.9999995,-6.0,1.4290313,0
0.02,9.605485910715531,5.999999744320064,-5.999999787485024,1.4290312546299906,15.208999,2.487012,-4.5638475,-0.4784283,16.192192,-10.92648,2.0944362,-0.3154935,0.30283058,-0.32149452,-0.8398802,-10.800102,-2.0538485,0.46750236,5.9999995,-6.0,1.4290313,0
0.03,9.605485910715531,5.999999744320064,-5.999999787485024,1.4290312546299906,15.208999,2.487012,-4.5638475,-0.4784283,16.084051,-10.946667,2.0989156,-0.32792625,0.26560342,-0.33908686,-0.84079677,-10.826555,-1.9831085,0.42871094,5.9999995,-6.0,1.4290313,0
0.04,9.605485910715531,5.999999744320064,-5.999999787485024,1.4290312546299906,13.664234,-0.7886066,-2.8104436,-0.33860743,15.975686,-10.966139,2.103016,-0.33975214,0.2278847,-0.35605162,-0.8401572,-10.845107,-1.9112562,0.39155725,5.9999995,-6.0,1.4290313,0
0.05,9.605485910715531,5.999999744320064,-5.999999787485024,1.4290312546299906,13.664234,-0.7886066,-2.8104436,-0.33860743,15.867177,-10.98489,2.1067507,-0.35094923,0.18974419,-0.37235743,-0.8379628,-10.855617,-1.8387322,0.35551497,5.9999995,-6.0,1.4290313,0
0.060000000000000005,9.605485910715531,5.999999744320064,-5.999999787485024,1.4290312546299906,13.664234,-0.7886066,-2.8104436,-0.33860743,15.758602,-11.002913,2.1101282,-0.3614968,0.1512525,-0.3879741,-0.8342175,-10.858004,-1.7659824,0.3200496,5.9999995,-6.0,1.4290313,0
0.07,9.605485910715531,5.999999744320064,-5.999999787485024,1.4290312546299906,13.664234,-0.7886066,-2.8104436,-0.33860743,15.650044,-11.02021,2.1131518,-0.3713753,0.11248089,-0.40287268,-0.82892823,-10.852248,-1.693454,0.28462234,5.9999995,-6.0,1.4290313,0
0.08,15.993912313736482,5.999999460760253,-5.999999616106198,1.100467295622644,14.005223,-2.0634565,1.88311,-0.43551424,15.541585,-11.036784,2.115819,-0.38056648,0.0735011,-0.4170257,-0.82210475,-10.83839,-1.6215932,0.24869409,5.9999995,-6.0,1.4290313,0
0.09,15.993912313736482,5.999999460760253,-5.999999616106198,1.100467295622644,14.005223,-2.0634565,1.88311,-0.43551424,15.433373,-11.052408,2.1183262,-0.39040747,0.0350708,-0.43029052,-0.8131433,-10.8019905,-1.5037879,0.25239313,5.9999995,-5.9999995,1.1004673,0
0.09999999999999999,15.993912313736482,5.999999460760253,-5.999999616106198,1.100467295622644,14.005223,-2.0634565,1.88311,-0.43551424,15.325591,-11.066867,2.1208577,-0.399534,-0.0034236796,-0.44276792,-0.80269384,-10.752529,-1.3885742,0.25351718,5.9999995,-5.9999995,1.1004673,0
0.10999999999999999,15.993912313736482,5.999999460760253,-5.999999616106198,1.100467295622644,14.005223,-2.0634565,1.88311,-0.43551424,15.218367,-11.080191,2.1233845,-0.40792942,-0.041911893,-0.45443508,-0.79077536,-10.690365,-1.2766831,0.25123996,5.9999995,-5.9999995,1.1004673,0
0.11999999999999998,15.993912313736482,5.999999460760253,-5.999999616106198,1.100467295622644,14.005223,-2.0634565,1.88311,-0.43551424,15.111826,-11.092415,2.1258678,-0.41557834,-0.080323406,-0.4652706,-0.7774098,-10.61595,-1.1688206,0.24476,5.9999995,-5.9999995,1.1004673,0
0.12999999999999998,19.494947619542707,3.7517174318175166,-5.9999983365791625,0.18208510939128547,15.476773,-3.4667056,0.9898125,0.23864904,15.006088,-11.103584,2.1282625,-0.42246675,-0.118587926,-0.4752547,-0.7626215,-10.529826,-1.065664,0.23330674,5.9999995,-5.9999995,1.1004673,0
0.13999999999999999,19.494947619542707,3.7517174318175166,-5.9999983365791625,0.18208510939128547,15.476773,-3.4667056,0.9898125,0.23864904,14.901369,-11.113641,2.130608,-0.4335386,-0.14974333,-0.4764805,-0.75005835,-10.412189,-0.9467434,0.23525536,3.7517173,-5.9999986,0.18208511,0
0.15,19.494947619542707,3.7517174318175166,-5.9999983365791625,0.18208510939128547,15.476773,-3.4667056,0.9898125,0.23864904,14.79788,-11.122546,2.1329541,-0.4440674,-0.18071118,-0.4771095,-0.7365556,-10.283989,-0.8357825,0.23329695,3.7517173,-5.9999986,0.18208511,0
0.16,18.41275391845723,0.5442436077795547,-2.661576368470658,-0.019273232324594422,15.831611,-3.106222,2.1577263,-0.31929868,14.695724,-11.130385,2.135259,-0.45403993,-0.21145268,-0.4771408,-0.72213024,-10.145868,-0.73332244,0.22692983,3.7517173,-5.9999986,0.18208511,0
0.17,18.41275391845723,0.5442436077795547,-2.661576368470658,-0.019273232324594422,15.831611,-3.106222,2.1577263,-0.31929868,14.594948,-11.137265,2.1374567,-0.45984176,-0.22223242,-0.47304004,-0.7179076,-10.008783,-0.6433262,0.21255091,0.54424363,-2.6615763,-0.019273233,0
0.18000000000000002,18.41275391845723,0.5442436077795547,-2.661576368470658,-0.019273232324594422,15.831611,-3.106222,2.1577263,-0.31929868,14.495557,-11.143267,2.139509,-0.46555874,-0.23297115,-0.468852,-0.71355253,-9.868891,-0.55745786,0.19786249,0.54424363,-2.6615763,-0.019273233,0
0.19000000000000003,18.41275391845723,0.5442436077795547,-2.661576368470658,-0.019273232324594422,15.831611,-3.106222,2.1577263,-0.31929868,14.397579,-11.148429,2.1414127,-0.47118986,-0.2436669,-0.4645775,-0.7090658,-9.726293,-0.475781,0.18280382,0.54424363,-2.6615763,-0.019273233,0
0.20000000000000004,16.61553239376213,-0.45862105393104546,0.01957820461571212,-0.18714757199864315,14.832297,-3.0914547,3.4286535,-0.6323003,14.30104,-11.152796,2.1431637,-0.476734,-0.2543177,-0.46021724,-0.7044482,-9.581096,-0.3983562,0.16731451,0.54424363,-2.6615763,-0.019273233,0
0.21000000000000005,16.61553239376213,-0.45862105393104546,0.01957820461571212,-0.18714757199864315,14.832297,-3.0914547,3.4286535,-0.6323003,14.205891,-11.156443,2.1447184,-0.47792986,-0.2527241,-0.45888507,-0.70508015,-9.448782,-0.3309351,0.14374685,-0.45862105,0.019578205,-0.18714757,0
0.22000000000000006,16.61553239376213,-0.45862105393104546,0.01957820461571212,-0.18714757199864315,14.832297,-3.0914547,3.4286535,-0.6323003,14.112062,-11.159414,2.146041,-0.4791228,-0.25112897,-0.4575501,-0.7057078,-9.316818,-0.26357752,0.12085393,-0.45862105,0.019578205,-0.18714757,0
0.23000000000000007,16.61553239376213,-0.45862105393104546,0.01957820461571212,-0.18714757199864315,14.832297,-3.0914547,3.4286535,-0.6323003,14.019552,-11.161715,2.1471379,-0.48031273,-0.24953231,-0.45621234,-0.7063311,-9.185207,-0.19628355,0.09863398,-0.45862105,0.019578205,-0.18714757,0
0.24000000000000007,16.61553239376213,-0.45862105393104546,0.01957820461571212,-0.18714757199864315,15.335329,-2.52145,3.728721,-0.15937619,13.928358,-11.163341,2.148016,-0.48149973,-0.2479341,-0.45487174,-0.70695,-9.053953,-0.12905331,0.07708522,-0.45862105,0.019578205,-0.18714757,0
0.25000000000000006,16.61553239376213,-0.45862105393104546,0.01957820461571212,-0.18714757199864315,15.335329,-2.52145,3.728721,-0.15937619,13.838473,-11.164294,2.1486819,-0.48268378,-0.24633436,-0.45352837,-0.70756465,-8.923059,-0.06188692,0.056205872,-0.45862105,0.019578205,-0.18714757,0
0.26000000000000006,16.61553239376213,-0.45862105393104546,0.01957820461571212,-0.18714757199864315,15.335329,-2.52145,3.728721,-0.15937619,13.749896,-11.164577,2.1491425,-0.48386487,-0.24473311,-0.45218223,-0.7081749,-8.792528,0.0052154996,0.035994135,-0.45862105,0.019578205,-0.18714757,0
0.2700000000000001,16.61553239376213,-0.45862105393104546,0.01957820461571212,-0.18714757199864315,15.335329,-2.52145,3.728721,-0.15937619,13.662622,-11.164188,2.1494043,-0.485043,-0.24313036,-0.4508333,-0.7087808,-8.662364,0.072253846,0.01644817,-0.45862105,0.019578205,-0.18714757,0
0.2800000000000001,14.835504218866769,-1.3822394374269804,2.094861136465128,-0.3404976095785764,16.53716,-3.05121,4.0445304,-0.57938695,13.576649,-11.163132,2.1494737,-0.48621812,-0.24152611,-0.44948158,-0.70938236,-8.53257,0.13922802,-0.0024338523,-0.45862105,0.019578205,-0.18714757,0
0.2900000000000001,14.835504218866769,-1.3822394374269804,2.094861136465128,-0.3404976095785764,16.53716,-3.05121,4.0445304,-0.57938695,13.491899,-11.161437,2.1493158,-0.48434815,-0.22995119,-0.45004684,-0.71413386,-8.417738,0.19995035,-0.028877838,-1.3822395,2.094861,-0.3404976,0
0.3000000000000001,14.835504218866769,-1.3822394374269804,2.094861136465128,-0.3404976095785764,16.53716,-3.05121,4.0445304,-0.57938695,13.408286,-11.159122,2.148901,-0.48240048,-0.21833938,-0.45053992,-0.7187708,-8.305213,0.26321185,-0.053874232,-1.3822395,2.094861,-0.3404976,0
0.3100000000000001,14.835504218866769,-1.3822394374269804,2.094861136465128,-0.3404976095785764,16.53716,-3.05121,4.0445304,-0.57938695,13.325787,-11.156163,2.1482432,-0.48037547,-0.20669255,-0.45096076,-0.72329247,-8.195062,0.32898027,-0.077479005,-1.3822395,2.094861,-0.3404976,0
0.3200000000000001,13.447877506673313,-2.316633554456844,4.596271537714485,-0.5044997587740209,15.835736,-3.8779712,5.969699,-0.29411927,13.244377,-11.152534,2.1473563,-0.4782734,-0.19501257,-0.45130926,-0.7276982,-8.087354,0.3972217,-0.099749,-1.3822395,2.094861,-0.3404976,0
0.3300000000000001,13.447877506673313,-2.316633554456844,4.596271537714485,-0.5044997587740209,15.835736,-3.8779712,5.969699,-0.29411927,13.1639805,-11.148239,2.1462176,-0.47183695,-0.17154814,-0.45421225,-0.7359567,-7.9928465,0.46231326,-0.12776078,-2.3166335,4.5962715,-0.50449973,0
0.34000000000000014,13.447877506673313,-2.316633554456844,4.596271537714485,-0.5044997587740209,15.835736,-3.8779712,5.969699,-0.29411927,13.084505,-11.1432705,2.1448066,-0.46508506,-0.14796902,-0.45681158,-0.74372315,-7.9030523,0.53223723,-0.15424727,-2.3166335,4.5962715,-0.50449973,0
0.35000000000000014,13.447877506673313,-2.316633554456844,4.596271537714485,-0.5044997587740209,15.835736,-3.8779712,5.969699,-0.29411927,13.005902,-11.137579,2.1431372,-0.45802218,-0.124290965,-0.45910546,-0.7509924,-7.8182,0.6068261,-0.17942683,-2.3166335,4.5962715,-0.50449973,0
0.36000000000000015,12.795223482745563,-2.632380022092814,4.801178812462104,-0.6896655694160366,16.504278,-3.7916927,6.420073,-0.7863062,12.928123,-11.131119,2.141222,-0.45065305,-0.10052979,-0.46109235,-0.75775945,-7.738505,0.6859001,-0.2035213,-2.3166335,4.5962715,-0.50449973,0
0.37000000000000016,12.795223482745563,-2.632380022092814,4.801178812462104,-0.6896655694160366,16.504278,-3.7916927,6.420073,-0.7863062,12.851096,-11.123865,2.1390522,-0.44334963,-0.07478265,-0.4621081,-0.7643983,-7.667925,0.7652698,-0.23029916,-2.63238,4.801179,-0.68966556,0
0.38000000000000017,12.795223482745563,-2.632380022092814,4.801178812462104,-0.6896655694160366,16.504278,-3.7916927,6.420073,-0.7863062,12.774746,-11.115798,2.1366189,-0.43570864,-0.048978563,-0.46277204,-0.77045506,-7.6030293,0.84864885,-0.25625736,-2.63238,4.801179,-0.68966556,0
0.3900000000000002,12.795223482745563,-2.632380022092814,4.801178812462104,-0.6896655694160366,16.504278,-3.7916927,6.420073,-0.7863062,12.699016,-11.106879,2.133929,-0.42773595,-0.02313719,-0.46308362,-0.7759253,-7.544,0.9358122,-0.28165168,-2.63238,4.801179,-0.68966556,0
0.4000000000000002,12.646970038455715,-2.4662814752846622,3.4215677656135286,-0.8510111803029707,14.676399,-3.069955,3.8150833,-0.22549516,12.623845,-11.097071,2.130987,-0.4194376,0.0027218005,-0.46304262,-0.78080475,-7.4910035,1.0265232,-0.30673972,-2.63238,4.801179,-0.68966556,0
0.4100000000000002,12.646970038455715,-2.4662814752846622,3.4215677656135286,-0.8510111803029707,14.676399,-3.069955,3.8150833,-0.22549516,12.549173,-11.086345,2.127791,-0.41470802,0.023219999,-0.4604713,-0.78450245,-7.4442453,1.1190481,-0.33241645,-2.4662814,3.4215677,-0.85101116,0
0.4200000000000002,12.646970038455715,-2.4662814752846622,3.4215677656135286,-0.8510111803029707,14.676399,-3.069955,3.8150833,-0.22549516,12.474944,-11.074683,2.12434,-0.40978652,0.04370745,-0.45768687,-0.787837,-7.402408,1.21359,-0.35768938,-2.4662814,3.4215677,-0.85101116,0
0.4300000000000002,12.646970038455715,-2.4662814752846622,3.4215677656135286,-0.8510111803029707,14.676399,-3.069955,3.8150833,-0.22549516,12.401109,-11.062066,2.120638,-0.40467536,0.06417467,-0.45469064,-0.790807,-7.365558,1.310006,-0.38272503,-2.4662814,3.4215677,-0.85101116,0
0.4400000000000002,12.646970038455715,-2.4662814752846622,3.4215677656135286,-0.8510111803029707,14.318774,-2.3143587,1.7378335,-0.19004627,12.327616,-11.048477,2.1166859,-0.39937693,0.08461219,-0.45148394,-0.79341096,-7.3337536,1.4081495,-0.4076904,-2.4662814,3.4215677,-0.85101116,0
0.45000000000000023,12.646970038455715,-2.4662814752846622,3.4215677656135286,-0.8510111803029707,14.318774,-2.3143587,1.7378335,-0.19004627,12.2544155,-11.033898,2.1124837,-0.39389366,0.10501055,-0.4480683,-0.79564774,-7.3070426,1.5078709,-0.43275258,-2.4662814,3.4215677,-0.85101116,0
0.46000000000000024,12.646970038455715,-2.4662814752846622,3.4215677656135286,-0.8510111803029707,14.318774,-2.3143587,1.7378335,-0.19004627,12.1814575,-11.018314,2.1080298,-0.3882281,0.12536031,-0.44444525,-0.7975162,-7.285465,1.6090177,-0.45807847,-2.4662814,3.4215677,-0.85101116,0
0.47000000000000025,12.646970038455715,-2.4662814752846622,3.4215677656135286,-0.8510111803029707,14.318774,-2.3143587,1.7378335,-0.19004627,12.108689,-11.001714,2.1033206,-0.38238278,0.14565204,-0.44061652,-0.79901564,-7.2690487,1.7114347,-0.48383456,-2.4662814,3.4215677,-0.85101116,0
0.48000000000000026,12.67323850899212,-2.06741282669929,1.9892909021840044,-0.8808384780520464,16.293297,-2.1332545,1.9948038,-0.29437003,12.036059,-10.984082,2.098351,-0.37636054,0.16587637,-0.43658385,-0.80014527,-7.2578144,1.8149643,-0.51018643,-2.4662814,3.4215677,-0.85101116,0
0.49000000000000027,12.67323850899212,-2.06741282669929,1.9892909021840044,-0.8808384780520464,16.293297,-2.1332545,1.9948038,-0.29437003,11.963518,-10.965411,2.0931158,-0.3737851,0.17962906,-0.43127665,-0.8012607,-7.2511683,1.9194263,-0.53684705,-2.0674129,1.989291,-0.88083845,0
0.5000000000000002,12.67323850899212,-2.06741282669929,1.9892909021840044,-0.8808384780520464,16.293297,-2.1332545,1.9948038,-0.29437003,11.891025,-10.945693,2.087614,-0.37112555,0.1933413,-0.42587233,-0.8021957,-7.248151,2.0241032,-0.5635766,-2.0674129,1.989291,-0.88083845,0
0.5100000000000002,12.67323850899212,-2.06741282669929,1.9892909021840044,-0.8808384780520464,16.293297,-2.1332545,1.9948038,-0.29437003,11.8185425,-10.924929,2.081844,-0.3683824,0.20701,-0.4203721,-0.8029501,-7.2487626,2.1289265,-0.59046024,-2.0674129,1.989291,-0.88083845,0
0.5200000000000002,12.837845265652756,-1.544046111173987,0.29744370681305693,-0.8371666584472613,15.494657,-1.7300539,1.2346565,-0.13284385,11.7460375,-10.903115,2.075804,-0.36555627,0.22063208,-0.41477722,-0.8035236,-7.2530017,2.233828,-0.617583,-2.0674129,1.989291,-0.88083845,0
0.5300000000000002,12.837845265652756,-1.544046111173987,0.29744370681305693,-0.8371666584472613,15.494657,-1.7300539,1.2346565,-0.13284385,11.673472,-10.880246,2.069497,-0.366585,0.22637664,-0.40817758,-0.80483556,-7.260254,2.3398762,-0.64369756,-1.5440462,0.29744372,-0.83716667,0
0.5400000000000003,12.837845265652756,-1.544046111173987,0.29744370681305693,-0.8371666584472613,15.494657,-1.7300539,1.2346565,-0.13284385,11.600825,-10.856319,2.0629327,-0.36758462,0.23210324,-0.40154558,-0.8060838,-7.2692823,2.4452922,-0.6690883,-1.5440462,0.29744372,-0.83716667,0
0.5500000000000003,12.837845265652756,-1.544046111173987,0.29744370681305693,-0.8371666584472613,15.494657,-1.7300539,1.2346565,-0.13284385,11.52808,-10.831342,2.0561175,-0.36855507,0.23781143,-0.3948817,-0.80726796,-7.2800913,2.5500586,-0.6937859,-1.5440462,0.29744372,-0.83716667,0
0.5600000000000003,12.960989553851055,-1.0065957180034775,-0.8790804925938875,-0.7200169867465832,14.910306,-1.7989699,0.76042366,-0.0040584337,11.455218,-10.80532,2.049059,-0.3694963,0.24350075,-0.3881865,-0.8083881,-7.292686,2.654157,-0.71782106,-1.5440462,0.29744372,-0.83716667,0
0.5700000000000003,12.960989553851055,-1.0065957180034775,-0.8790804925938875,-0.7200169867465832,14.910306,-1.7989699,0.76042366,-0.0040584337,11.382222,-10.778255,2.0417676,-0.37287658,0.24319772,-0.3816061,-0.8100586,-7.306657,2.7584395,-0.74023443,-1.0065957,-0.8790805,-0.720017,0
0.5800000000000003,12.960989553851055,-1.0065957180034775,-0.8790804925938875,-0.7200169867465832,14.910306,-1.7989699,0.76042366,-0.0040584337,11.309084,-10.750154,2.0342588,-0.3762354,0.24288069,-0.3750037,-0.81168234,-7.320969,2.8616858,-0.7613027,-1.0065957,-0.8790805,-0.720017,0
0.5900000000000003,12.960989553851055,-1.0065957180034775,-0.8790804925938875,-0.7200169867465832,14.910306,-1.7989699,0.76042366,-0.0040584337,11.235802,-10.721025,2.026546,-0.3795725,0.24254964,-0.36837965,-0.81325936,-7.3356323,2.9638774,-0.7810424,-1.0065957,-0.8790805,-0.720017,0
0.6000000000000003,13.126578266283788,-0.6991947013682368,-0.7164274896044232,-0.5812397087691361,15.488435,-1.8275363,1.1091306,0.12867928,11.162371,-10.69088,2.0186422,-0.38288778,0.24220464,-0.36173445,-0.8147896,-7.3506556,3.064997,-0.7994703,-1.0065957,-0.8790805,-0.720017,0
0.6100000000000003,13.126578266283788,-0.6991947013682368,-0.7164274896044232,-0.5812397087691361,15.488435,-1.8275363,1.1091306,0.12867928,11.088786,-10.659722,2.0105658,-0.38569832,0.24167171,-0.3568045,-0.8157954,-7.3661714,3.166409,-0.8156833,-0.6991947,-0.7164275,-0.5812397,0
0.6200000000000003,13.126578266283788,-0.6991947013682368,-0.7164274896044232,-0.5812397087691361,15.488435,-1.8275363,1.1091306,0.12867928,11.015046,-10.627554,2.0023322,-0.38849595,0.24113071,-0.3518626,-0.8167739,-7.3818717,3.2669814,-0.8309022,-0.6991947,-0.7164275,-0.5812397,0
0.6300000000000003,13.126578266283788,-0.6991947013682368,-0.7164274896044232,-0.5812397087691361,15.488435,-1.8275363,1.1091306,0.12867928,10.941148,-10.594385,1.9939513,-0.39128056,0.24058163,-0.34690893,-0.817725,-7.397762,3.3667042,-0.84513676,-0.6991947,-0.7164275,-0.5812397,0
0.6400000000000003,13.126578266283788,-0.6991947013682368,-0.7164274896044232,-0.5812397087691361,15.101103,-1.7779646,1.3965647,0.09506123,10.867089,-10.560224,1.9854329,-0.39405206,0.24002449,-0.34194362,-0.81864876,-7.4138484,3.4655678,-0.8583968,-0.6991947,-0.7164275,-0.5812397,0
0.6500000000000004,13.126578266283788,-0.6991947013682368,-0.7164274896044232,-0.5812397087691361,15.101103,-1.7779646,1.3965647,0.09506123,10.79287,-10.525077,1.9767867,-0.39681038,0.2394593,-0.33696687,-0.8195451,-7.4301367,3.563562,-0.87069243,-0.6991947,-0.7164275,-0.5812397,0
0.6600000000000004,13.126578266283788,-0.6991947013682368,-0.7164274896044232,-0.5812397087691361,15.101103,-1.7779646,1.3965647,0.09506123,10.718486,-10.488955,1.9680223,-0.39955541,0.2388861,-0.3319788,-0.82041395,-7.4466333,3.6606772,-0.8820337,-0.6991947,-0.7164275,-0.5812397,0
0.6700000000000004,13.126578266283788,-0.6991947013682368,-0.7164274896044232,-0.5812397087691361,15.101103,-1.7779646,1.3965647,0.09506123,10.643937,-10.451866,1.9591492,-0.40228707,0.2383049,-0.3269796,-0.8212553,-7.4633436,3.7569036,-0.89243084,-0.6991947,-0.7164275,-0.5812397,0
0.6800000000000004,13.099501646370882,-0.45883166263005987,-0.933309831529902,-0.47160644718778955,14.871387,-1.7627633,1.0823642,0.08961512,10.56922,-10.41382,1.950177,-0.40500522,0.2377157,-0.32196945,-0.82206917,-7.4802732,3.8522322,-0.9018942,-0.6991947,-0.7164275,-0.5812397,0
0.6900000000000004,13.099501646370882,-0.45883166263005987,-0.933309831529902,-0.47160644718778955,14.871387,-1.7627633,1.0823642,0.08961512,10.494331,-10.374826,1.9411137,-0.4078942,0.23556398,-0.31762773,-0.8229487,-7.4972363,3.9464583,-0.91058934,-0.45883167,-0.93330985,-0.47160643,0
0.7000000000000004,13.099501646370882,-0.45883166263005987,-0.933309831529902,-0.47160644718778955,14.871387,-1.7627633,1.0823642,0.08961512,10.419275,-10.334894,1.9319685,-0.41076988,0.23340456,-0.3132757,-0.8238014,-7.5140123,4.0397687,-0.9182937,-0.45883167,-0.93330985,-0.47160643,0
0.7100000000000004,13.099501646370882,-0.45883166263005987,-0.933309831529902,-0.47160644718778955,14.871387,-1.7627633,1.0823642,0.08961512,10.344051,-10.294034,1.9227512,-0.41363218,0.23123755,-0.30891344,-0.8246273,-7.5306053,4.1321507,-0.9250171,-0.45883167,-0.93330985,-0.47160643,0
0.7200000000000004,13.222766401022303,-0.20514450370724144,-0.6802488123507675,-0.36830126067943814,14.5816345,-1.6675582,1.0106806,0.088413924,10.268663,-10.252255,1.9134715,-0.416481,0.22906299,-0.30454114,-0.8254262,-7.547021,4.223594,-0.9307694,-0.45883167,-0.93330985,-0.47160643,0
0.7300000000000004,13.222766401022303,-0.20514450370724144,-0.6802488123507675,-0.36830126067943814,14.5816345,-1.6675582,1.0106806,0.088413924,10.193111,-10.209561,1.9041431,-0.41879854,0.2272417,-0.3018537,-0.8257441,-7.5633793,4.3150682,-0.9348003,-0.20514451,-0.6802488,-0.36830127,0
0.7400000000000004,13.222766401022303,-0.20514450370724144,-0.6802488123507675,-0.36830126067943814,14.5816345,-1.6675582,1.0106806,0.088413924,10.117397,-10.165956,1.8947777,-0.4211094,0.22541675,-0.29916137,-0.8260488,-7.5794716,4.405917,-0.93818206,-0.20514451,-0.6802488,-0.36830127,0
0.7500000000000004,13.222766401022303,-0.20514450370724144,-0.6802488123507675,-0.36830126067943814,14.5816345,-1.6675582,1.0106806,0.088413924,10.041524,-10.121445,1.8853817,-0.4234135,0.22358823,-0.29646426,-0.82634026,-7.5952997,4.4961357,-0.9409191,-0.20514451,-0.6802488,-0.36830127,0
0.7600000000000005,13.187802408982071,-0.033517583806101134,-0.7335648943522182,-0.2895996666035614,14.17451,-1.3448176,1.0501657,0.0025001392,9.965493,-10.076035,1.8759615,-0.4257108,0.22175613,-0.29376242,-0.8266185,-7.6108665,4.585719,-0.9430158,-0.20514451,-0.6802488,-0.36830127,0
0.7700000000000005,13.187802408982071,-0.033517583806101134,-0.7335648943522182,-0.2895996666035614,14.17451,-1.3448176,1.0501657,0.0025001392,9.88931,-10.029733,1.8665223,-0.42794475,0.21921922,-0.29173908,-0.8268582,-7.626049,4.6744504,-0.9447412,-0.033517584,-0.7335649,-0.28959966,0
0.7800000000000005,13.187802408982071,-0.033517583806101134,-0.7335648943522182,-0.2895996666035614,14.17451,-1.3448176,1.0501657,0.0025001392,9.812976,-9.982547,1.8570688,-0.43017206,0.2166789,-0.2897112,-0.8270851,-7.640748,4.7626004,-0.9458608,-0.033517584,-0.7335649,-0.28959966,0
0.7900000000000005,13.187802408982071,-0.033517583806101134,-0.7335648943522182,-0.2895996666035614,14.17451,-1.3448176,1.0501657,0.0025001392,9.736498,-9.934482,1.8476071,-0.4323926,0.21413521,-0.2876788,-0.82729906,-7.6549644,4.850164,-0.946379,-0.033517584,-0.7335649,-0.28959966,0
0.8000000000000005,13.296850562729418,0.015236185086802445,-0.5840899906826778,-0.22818138447136332,14.076577,-0.91518277,1.0284061,-0.09814608,9.659878,-9.885545,1.8381433,-0.43460643,0.21158819,-0.2856419,-0.82750016,-7.6687016,4.937135,-0.9463003,-0.033517584,-0.7335649,-0.28959966,0
0.8100000000000005,13.296850562729418,0.015236185086802445,-0.5840899906826778,-0.22818138447136332,14.076577,-0.91518277,1.0284061,-0.09814608,9.583124,-9.835738,1.8286872,-0.43639868,0.20946327,-0.28419292,-0.8275964,-7.682089,5.024278,-0.94486403,0.015236185,-0.58409,-0.22818138,0
0.8200000000000005,13.296850562729418,0.015236185086802445,-0.5840899906826778,-0.22818138447136332,14.076577,-0.91518277,1.0284061,-0.09814608,9.506239,-9.785062,1.8192477,-0.43818665,0.20733628,-0.2827411,-0.8276845,-7.6950464,5.1109624,-0.94297135,0.015236185,-0.58409,-0.22818138,0
0.8300000000000005,13.296850562729418,0.015236185086802445,-0.5840899906826778,-0.22818138447136332,14.076577,-0.91518277,1.0284061,-0.09814608,9.429225,-9.733521,1.8098294,-0.4399703,0.20520726,-0.2812865,-0.8277645,-7.7075753,5.197184,-0.94062513,0.015236185,-0.58409,-0.22818138,0
0.8400000000000005,13.296850562729418,0.015236185086802445,-0.5840899906826778,-0.22818138447136332,13.82206,-0.6926997,0.84108824,-0.10598448,9.352088,-9.68112,1.8004369,-0.4417497,0.20307621,-0.27982917,-0.82783633,-7.7196755,5.282939,-0.93782824,0.015236185,-0.58409,-0.22818138,0
0.8500000000000005,13.296850562729418,0.015236185086802445,-0.5840899906826778,-0.22818138447136332,13.82206,-0.6926997,0.84108824,-0.10598448,9.274833,-9.627863,1.7910744,-0.4435247,0.20094317,-0.27836907,-0.8279,-7.73135,5.368224,-0.9345835,0.015236185,-0.58409,-0.22818138,0
0.8600000000000005,13.296850562729418,0.015236185086802445,-0.5840899906826778,-0.22818138447136332,13.82206,-0.6926997,0.84108824,-0.10598448,9.197463,-9.573756,1.7817467,-0.44529533,0.19880815,-0.27690622,-0.82795554,-7.7425985,5.4530354,-0.93089396,0.015236185,-0.58409,-0.22818138,0
0.8700000000000006,13.296850562729418,0.015236185086802445,-0.5840899906826778,-0.22818138447136332,13.82206,-0.6926997,0.84108824,-0.10598448,9.119982,-9.518805,1.7724581,-0.4470616,0.19667117,-0.27544063,-0.828003,-7.7534227,5.5373693,-0.9267625,0.015236185,-0.58409,-0.22818138,0
0.8800000000000006,13.31663132063569,0.029387425095452113,-0.6398657938632019,-0.17476717363188743,13.539809,-0.20892528,1.1055517,-0.0013424158,9.042396,-9.463013,1.7632129,-0.44882345,0.19453226,-0.27397236,-0.8280422,-7.7638235,5.6212215,-0.9221922,0.015236185,-0.58409,-0.22818138,0
0.8900000000000006,13.31663132063569,0.029387425095452113,-0.6398657938632019,-0.17476717363188743,13.539809,-0.20892528,1.1055517,-0.0013424158,8.964707,-9.406383,1.7540165,-0.45044965,0.19205548,-0.2724866,-0.8282276,-7.773796,5.7046976,-0.91701883,0.029387426,-0.6398658,-0.17476717,0
0.9000000000000006,13.31663132063569,0.029387425095452113,-0.6398657938632019,-0.17476717363188743,13.539809,-0.20892528,1.1055517,-0.0013424158,8.886922,-9.34892,1.7448742,-0.4520709,0.18957657,-0.27099782,-0.82840383,-7.783292,5.787646,-0.9113756,0.029387426,-0.6398658,-0.17476717,0
0.9100000000000006,13.31663132063569,0.029387425095452113,-0.6398657938632019,-0.17476717363188743,13.539809,-0.20892528,1.1055517,-0.0013424158,8.809045,-9.290631,1.7357907,-0.45368713,0.18709557,-0.26950607,-0.8285709,-7.792311,5.8700604,-0.9052663,0.029387426,-0.6398658,-0.17476717,0
0.9200000000000006,13.474150528427025,-0.022606214668621213,-0.4627286647404177,-0.12310415176769925,13.259788,0.1752918,0.73242456,0.054944772,8.731078,-9.231521,1.7267705,-0.4552984,0.1846125,-0.26801133,-0.82872885,-7.8008556,5.951939,-0.8986949,0.029387426,-0.6398658,-0.17476717,0
0.9300000000000006,13.474150528427025,-0.022606214668621213,-0.4627286647404177,-0.12310415176769925,13.259788,0.1752918,0.73242456,0.054944772,8.6530285,-9.171588,1.7178245,-0.45640638,0.18291102,-0.26674986,-0.82890373,-7.80909,6.034286,-0.8904633,-0.022606215,-0.46272868,-0.123104155,0
0.9400000000000006,13.474150528427025,-0.022606214668621213,-0.4627286647404177,-0.12310415176769925,13.259788,0.1752918,0.73242456,0.054944772,8.574898,-9.110836,1.7089624,-0.45751175,0.18120849,-0.26548687,-0.82907385,-7.8170285,6.116209,-0.8818822,-0.022606215,-0.46272868,-0.123104155,0
0.9500000000000006,13.474150528427025,-0.022606214668621213,-0.4627286647404177,-0.12310415176769925,13.259788,0.1752918,0.73242456,0.054944772,8.496691,-9.049266,1.700188,-0.4586145,0.17950492,-0.26422235,-0.8292392,-7.8246713,6.197706,-0.87295365,-0.022606215,-0.46272868,-0.123104155,0
0.9600000000000006,13.59244666619321,-0.0758818208351734,-0.509186116794681,-0.0736462710011364,13.39569,0.42682132,0.77334094,0.034324728,8.418407,-8.986882,1.6915047,-0.45971462,0.17780031,-0.2629563,-0.82939976,-7.832019,6.2787747,-0.86367977,-0.022606215,-0.46272868,-0.123104155,0
0.9700000000000006,13.59244666619321,-0.0758818208351734,-0.509186116794681,-0.0736462710011364,13.39569,0.42682132,0.77334094,0.034324728,8.340051,-8.923687,1.6829206,-0.4606205,0.1759594,-0.26140484,-0.82978004,-7.8391457,6.360093,-0.85309696,-0.075881824,-0.5091861,-0.07364627,0
0.9800000000000006,13.59244666619321,-0.0758818208351734,-0.509186116794681,-0.0736462710011364,13.39569,0.42682132,0.77334094,0.034324728,8.261624,-8.859682,1.6744442,-0.46152326,0.17411728,-0.25985163,-0.83015484,-7.8460054,6.440901,-0.8421171,-0.075881824,-0.5091861,-0.07364627,0
0.9900000000000007,13.59244666619321,-0.0758818208351734,-0.509186116794681,-0.0736462710011364,13.39569,0.42682132,0.77334094,0.034324728,8.183131,-8.79487,1.6660796,-0.46242288,0.17227398,-0.25829667,-0.8305239,-7.852598,6.5211964,-0.8307427,-0.075881824,-0.5091861,-0.07364627,0
1.0000000000000007,13.830879289770046,-0.17634983275874133,-0.24758807439045977,-0.03210753585283793,13.7349615,0.42678225,0.45304045,0.042548705,8.104573,-8.7292595,1.6578308,-0.4633194,0.1704295,-0.25673997,-0.8308875,-7.858924,6.6009765,-0.81897694,-0.075881824,-0.5091861,-0.07364627,1
1.0100000000000007,13.830879289770046,-0.17634983275874133,-0.24758807439045977,-0.03210753585283793,13.7349615,0.42678225,0.45304045,0.042548705,8.025952,-8.6628475,1.6497064,-0.46292248,0.17126751,-0.25959754,-0.83004814,-7.865079,6.6815224,-0.80599433,0.42678225,0.45304045,0.042548705,1
1.0200000000000007,13.830879289770046,-0.17634983275874133,-0.24758807439045977,-0.03210753585283793,13.7349615,0.42678225,0.45304045,0.042548705,7.9472713,-8.595627,1.6417092,-0.46252108,0.17210385,-0.26245257,-0.8292007,-7.87105,6.762748,-0.7934974,0.42678225,0.45304045,0.042548705,1
1.0300000000000007,13.830879289770046,-0.17634983275874133,-0.24758807439045977,-0.03210753585283793,13.7349615,0.42678225,0.45304045,0.042548705,7.8685317,-8.527591,1.6338347,-0.46211517,0.17293853,-0.26530504,-0.8283451,-7.876837,6.844649,-0.78149027,0.42678225,0.45304045,0.042548705,1
1.0400000000000007,13.830879289770046,-0.17634983275874133,-0.24758807439045977,-0.03210753585283793,14.310481,0.28558668,0.301393,0.046983037,7.7897353,-8.458732,1.6260779,-0.46170476,0.17377149,-0.26815492,-0.8274815,-7.8824406,6.9272237,-0.7699775,0.42678225,0.45304045,0.042548705,1
1.0500000000000007,13.830879289770046,-0.17634983275874133,-0.24758807439045977,-0.03210753585283793,14.310481,0.28558668,0.301393,0.046983037,7.7108827,-8.389027,1.6184566,-0.4613534,0.17429581,-0.27007252,-0.8269434,-7.888112,7.013869,-0.75432587,0.28558668,0.301393,0.046983037,1
1.0600000000000007,13.830879289770046,-0.17634983275874133,-0.24758807439045977,-0.03210753585283793,14.310481,0.28558668,0.301393,0.046983037,7.6319737,-8.318453,1.6109902,-0.46100003,0.17481938,-0.27198893,-0.8264017,-7.8936543,7.100978,-0.73902273,0.28558668,0.301393,0.046983037,1
1.0700000000000007,13.830879289770046,-0.17634983275874133,-0.24758807439045977,-0.03210753585283793,14.310481,0.28558668,0.301393,0.046983037,7.5530105,-8.247005,1.6036749,-0.46064463,0.17534219,-0.27390414,-0.8258564,-7.8990684,7.188549,-0.7240699,0.28558668,0.301393,0.046983037,1
1.0800000000000007,13.945609940087266,-0.5911739142435308,-1.0676456851284362,-0.001012461173203998,15.207622,-0.35611913,0.0945064,-0.0009823535,7.473994,-8.174681,1.5965074,-0.46028724,0.17586423,-0.27581817,-0.8253074,-7.9043536,7.2765813,-0.70946944,0.28558668,0.301393,0.046983037,0
1.0900000000000007,13.945609940087266,-0.5911739142435308,-1.0676456851284362,-0.001012461173203998,15.207622,-0.35611913,0.0945064,-0.0009823535,7.3949246,-8.101485,1.5894716,-0.46123543,0.17281725,-0.27091557,-0.82704383,-7.909404,7.3621464,-0.6975653,-0.5911739,-1.0676457,-0.0010124611,0
1.1000000000000008,13.945609940087266,-0.5911739142435308,-1.0676456851284362,-0.001012461173203998,15.207622,-0.35611913,0.0945064,-0.0009823535,7.315806,-8.027441,1.5825597,-0.46216646,0.16976382,-0.2660029,-0.8287494,-7.9143934,7.446364,-0.6846234,-0.5911739,-1.0676457,-0.0010124611,0
1.1100000000000008,13.945609940087266,-0.5911739142435308,-1.0676456851284362,-0.001012461173203998,15.207622,-0.35611913,0.0945064,-0.0009823535,7.2366376,-7.9525614,1.5757825,-0.4630802,0.16670407,-0.26108027,-0.8304242,-7.919322,7.5292215,-0.67066026,-0.5911739,-1.0676457,-0.0010124611,0
1.1200000000000008,14.085349865431107,-0.9019432919525501,-1.3758951292771604,0.038915313977707526,15.61516,-0.801072,-0.3624649,-0.041901797,7.15742,-7.87686,1.56915,-0.46397674,0.16363813,-0.25614792,-0.83206797,-7.9241896,7.610706,-0.6556926,-0.5911739,-1.0676457,-0.0010124611,0
1.1300000000000008,14.085349865431107,-0.9019432919525501,-1.3758951292771604,0.038915313977707526,15.61516,-0.801072,-0.3624649,-0.041901797,7.0781536,-7.800348,1.5626782,-0.46482337,0.159951,-0.24922687,-0.83441097,-7.929099,7.6914234,-0.6384678,-0.90194327,-1.3758951,0.038915314,0
1.1400000000000008,14.085349865431107,-0.9019432919525501,-1.3758951292771604,0.038915313977707526,15.61516,-0.801072,-0.3624649,-0.041901797,6.9988375,-7.723038,1.5563852,-0.46563852,0.15625304,-0.24228893,-0.83669746,-7.9340935,7.7702312,-0.6199333,-0.90194327,-1.3758951,0.038915314,0
1.1500000000000008,14.085349865431107,-0.9019432919525501,-1.3758951292771604,0.038915313977707526,15.61516,-0.801072,-0.3624649,-0.041901797,6.9194713,-7.64495,1.5502839,-0.46642208,0.1525445,-0.23533459,-0.83892727,-7.939172,7.8471084,-0.6001206,-0.90194327,-1.3758951,0.038915314,0
1.1600000000000008,14.079317633565259,-0.8696362551421445,-1.0832751429470662,0.10711438623026588,15.591691,-1.3237607,0.2955081,-0.057315428,6.840054,-7.5661025,1.5443871,-0.46717408,0.14882563,-0.22836432,-0.84110034,-7.944331,7.9220333,-0.57906157,-0.90194327,-1.3758951,0.038915314,0
1.1700000000000008,14.079317633565259,-0.8696362551421445,-1.0832751429470662,0.10711438623026588,15.591691,-1.3237607,0.2955081,-0.057315428,6.760585,-7.486515,1.5387064,-0.46730205,0.14617537,-0.2222509,-0.84312916,-7.9496326,7.9950747,-0.5569148,-0.86963624,-1.0832752,0.10711439,0
1.1800000000000008,14.079317633565259,-0.8696362551421445,-1.0832751429470662,0.10711438623026588,15.591691,-1.3237607,0.2955081,-0.057315428,6.681061,-7.406206,1.5332521,-0.46740738,0.14351802,-0.21612668,-0.8451171,-7.9551854,8.066447,-0.53378093,-0.86963624,-1.0832752,0.10711439,0
1.1900000000000008,14.079317633565259,-0.8696362551421445,-1.0832751429470662,0.10711438623026588,15.591691,-1.3237607,0.2955081,-0.057315428,6.60148,-7.3251915,1.528034,-0.46749,0.14085372,-0.20999198,-0.84706396,-7.9609857,8.136135,-0.50968295,-0.86963624,-1.0832752,0.10711439,0
1.2000000000000008,14.055540067293983,-0.791717246277088,-0.7155613416905737,0.16132135131594239,15.369672,-1.421935,0.3077472,-0.050424114,6.5218406,-7.243489,1.5230616,-0.46754992,0.13818257,-0.2038471,-0.84896976,-7.96703,8.204126,-0.48464432,-0.86963624,-1.0832752,0.10711439,0
1.2100000000000009,14.055540067293983,-0.791717246277088,-0.7155613416905737,0.16132135131594239,15.369672,-1.421935,0.3077472,-0.050424114,6.442139,-7.161115,1.518343,-0.46704066,0.13682953,-0.19892208,-0.8506358,-7.9733725,8.270458,-0.45898834,-0.79171723,-0.71556133,0.16132136,0
1.2200000000000009,14.055540067293983,-0.791717246277088,-0.7155613416905737,0.16132135131594239,15.369672,-1.421935,0.3077472,-0.050424114,6.3623724,-7.078084,1.5138843,-0.4665178,0.1354725,-0.19399129,-0.8522771,-7.9801307,8.335507,-0.43267527,-0.79171723,-0.71556133,0.16132136,0
1.2300000000000009,14.055540067293983,-0.791717246277088,-0.7155613416905737,0.16132135131594239,15.369672,-1.421935,0.3077472,-0.050424114,6.2825356,-6.994409,1.5096918,-0.46598136,0.13411152,-0.18905483,-0.8538936,-7.987302,8.399266,-0.4057189,-0.79171723,-0.71556133,0.16132136,0
1.2400000000000009,14.055540067293983,-0.791717246277088,-0.7155613416905737,0.16132135131594239,15.551178,-1.2534156,0.30118412,-0.03162714,6.2026253,-6.910103,1.5057721,-0.46543133,0.13274665,-0.18411288,-0.85548526,-7.994882,8.461725,-0.37813303,-0.79171723,-0.71556133,0.16132136,0
1.2500000000000009,14.055540067293983,-0.791717246277088,-0.7155613416905737,0.16132135131594239,15.551178,-1.2534156,0.30118412,-0.03162714,6.122637,-6.8251786,1.5021312,-0.46486777,0.1313779,-0.17916557,-0.85705197,-8.002869,8.522879,-0.34993157,-0.79171723,-0.71556133,0.16132136,0
1.260000000000001,14.055540067293983,-0.791717246277088,-0.7155613416905737,0.16132135131594239,15.551178,-1.2534156,0.30118412,-0.03162714,6.0425673,-6.73965,1.4987755,-0.46429065,0.13000533,-0.17421304,-0.85859376,-8.011259,8.582719,-0.32112852,-0.79171723,-0.71556133,0.16132136,0
1.270000000000001,14.055540067293983,-0.791717246277088,-0.7155613416905737,0.16132135131594239,15.551178,-1.2534156,0.30118412,-0.03162714,5.962411,-6.6535287,1.4957106,-0.46370003,0.12862897,-0.16925545,-0.8601105,-8.020048,8.641238,-0.2917379,-0.79171723,-0.71556133,0.16132136,0
1.280000000000001,13.86823415555868,-0.7244573431107741,-0.7248729745924068,0.20405721566123236,15.543069,-1.0718595,-0.014203027,-0.008371323,5.882165,-6.566829,1.4929426,-0.4630959,0.12724887,-0.16429292,-0.86160225,-8.029234,8.698429,-0.2617739,-0.79171723,-0.71556133,0.16132136,0
1.290000000000001,13.86823415555868,-0.7244573431107741,-0.7248729745924068,0.20405721566123236,15.543069,-1.0718595,-0.014203027,-0.008371323,5.801826,-6.4795685,1.4904685,-0.462345,0.12563421,-0.15962113,-0.8631193,-8.038654,8.753555,-0.23296852,-0.7244573,-0.72487295,0.20405722,0
1.300000000000001,13.86823415555868,-0.7244573431107741,-0.7248729745924068,0.20405721566123236,15.543069,-1.0718595,-0.014203027,-0.008371323,5.721391,-6.391763,1.4882852,-0.46158153,0.124016136,-0.15494497,-0.86461276,-8.048372,8.807396,-0.20363502,-0.7244573,-0.72487295,0.20405722,0
1.310000000000001,13.86823415555868,-0.7244573431107741,-0.7248729745924068,0.20405721566123236,15.543069,-1.0718595,-0.014203027,-0.008371323,5.6408577,-6.3034253,1.4863977,-0.46080542,0.12239467,-0.1502646,-0.8660826,-8.058386,8.859945,-0.17378636,-0.7244573,-0.72487295,0.20405722,0
1.320000000000001,13.652481585793051,-0.676885526332689,-0.5297200455781967,0.23248617307346447,15.368214,-0.98902136,-0.09435762,0.053790625,5.5602226,-6.2145686,1.4848113,-0.46001676,0.120769866,-0.14558013,-0.86752886,-8.068691,8.911198,-0.14343557,-0.7244573,-0.72487295,0.20405722,0
1.330000000000001,13.652481585793051,-0.676885526332689,-0.5297200455781967,0.23248617307346447,15.368214,-0.98902136,-0.09435762,0.053790625,5.4794836,-6.1252093,1.4835207,-0.45898062,0.1198586,-0.1415646,-0.8688676,-8.079153,8.96046,-0.11463897,-0.67688555,-0.52972007,0.23248617,0
1.340000000000001,13.652481585793051,-0.676885526332689,-0.5297200455781967,0.23248617307346447,15.368214,-0.98902136,-0.09435762,0.053790625,5.3986382,-6.035363,1.4825199,-0.45793533,0.11894496,-0.13754626,-0.87018913,-8.089986,9.008672,-0.08547099,-0.67688555,-0.52972007,0.23248617,0
1.350000000000001,13.652481585793051,-0.676885526332689,-0.5297200455781967,0.23248617307346447,15.368214,-0.98902136,-0.09435762,0.053790625,5.3176827,-5.9450393,1.4818126,-0.456881,0.11802896,-0.1335252,-0.87149334,-8.101186,9.055831,-0.055940546,-0.67688555,-0.52972007,0.23248617,0
1.360000000000001,13.308395531340077,-0.6097908521795407,-0.849788601574718,0.26693496942076417,15.05124,-0.93045026,-0.32358536,0.07466161,5.2366133,-5.85425,1.4814024,-0.45581758,0.11711062,-0.12950149,-0.8727803,-8.112751,9.101932,-0.026056556,-0.67688555,-0.52972007,0.23248617,0
1.370000000000001,13.308395531340077,-0.6097908521795407,-0.849788601574718,0.26693496942076417,15.05124,-0.93045026,-0.32358536,0.07466161,5.155428,-5.7630105,1.4812766,-0.45483923,0.11461745,-0.12505811,-0.8742684,-8.12426,9.145732,0.0009847321,-0.60979086,-0.8497886,0.26693496,0
1.380000000000001,13.308395531340077,-0.6097908521795407,-0.849788601574718,0.26693496942076417,15.05124,-0.93045026,-0.32358536,0.07466161,5.074128,-5.67134,1.4814236,-0.45384765,0.11212095,-0.1206111,-0.87573105,-8.135804,9.188214,0.028475842,-0.60979086,-0.8497886,0.26693496,0
1.390000000000001,13.308395531340077,-0.6097908521795407,-0.849788601574718,0.26693496942076417,15.05124,-0.93045026,-0.32358536,0.07466161,4.992712,-5.5792513,1.4818476,-0.45284286,0.109621175,-0.11616057,-0.8771682,-8.14738,9.229376,0.05640337,-0.60979086,-0.8497886,0.26693496,0
1.400000000000001,13.034086644028228,-0.560661858380853,-0.5675908662261576,0.2779226469066863,14.480267,-1.0060914,-0.5846584,0.07986133,4.91118,-5.486757,1.4825532,-0.45182487,0.10711821,-0.11170665,-0.87857974,-8.158982,9.269211,0.084753856,-0.60979086,-0.8497886,0.26693496,0
1.410000000000001,13.034086644028228,-0.560661858380853,-0.5675908662261576,0.2779226469066863,14.480267,-1.0060914,-0.5846584,0.07986133,4.829533,-5.393875,1.4835311,-0.4506167,0.105735265,-0.10810933,-0.8798169,-8.170424,9.307042,0.110857345,-0.56066185,-0.5675909,0.27792266,0
1.420000000000001,13.034086644028228,-0.560661858380853,-0.5675908662261576,0.2779226469066863,14.480267,-1.0060914,-0.5846584,0.07986133,4.747771,-5.3006196,1.4847715,-0.44940045,0.10435043,-0.10451008,-0.8810383,-8.18204,9.343887,0.13724089,-0.56066185,-0.5675909,0.27792266,0
1.430000000000001,13.034086644028228,-0.560661858380853,-0.5675908662261576,0.2779226469066863,14.480267,-1.0060914,-0.5846584,0.07986133,4.6658916,-5.2070003,1.486277,-0.44817623,0.10296374,-0.100908965,-0.8822441,-8.193826,9.379744,0.16389695,-0.56066185,-0.5675909,0.27792266,0
1.440000000000001,13.034086644028228,-0.560661858380853,-0.5675908662261576,0.2779226469066863,14.197247,-0.79376775,-0.59185296,0.19656567,4.583894,-5.1130276,1.4880502,-0.446944,0.10157521,-0.09730605,-0.88343406,-8.205778,9.414608,0.19081792,-0.56066185,-0.5675909,0.27792266,0
1.450000000000001,13.034086644028228,-0.560661858380853,-0.5675908662261576,0.2779226469066863,14.197247,-0.79376775,-0.59185296,0.19656567,4.5017753,-5.0187116,1.4900941,-0.44570377,0.10018486,-0.0937014,-0.88460827,-8.217894,9.448479,0.21799625,-0.56066185,-0.5675909,0.27792266,0
1.460000000000001,13.034086644028228,-0.560661858380853,-0.5675908662261576,0.2779226469066863,14.197247,-0.79376775,-0.59185296,0.19656567,4.419535,-4.924062,1.492411,-0.44445562,0.098792724,-0.09009508,-0.88576674,-8.230168,9.481352,0.24542435,-0.56066185,-0.5675909,0.27792266,0
1.470000000000001,13.034086644028228,-0.560661858380853,-0.5675908662261576,0.2779226469066863,14.197247,-0.79376775,-0.59185296,0.19656567,4.3371716,-4.8290877,1.4950033,-0.44319952,0.09739883,-0.086487144,-0.88690937,-8.2426,9.513226,0.27309456,-0.56066185,-0.5675909,0.27792266,0
1.480000000000001,12.620720195015753,-0.46431827275767446,-0.9656649037011292,0.2861370849373881,13.405675,-0.5047304,-0.9681755,0.15637809,4.2546825,-4.7338004,1.4978735,-0.4419355,0.096003205,-0.082877666,-0.8880362,-8.255184,9.544099,0.3009993,-0.56066185,-0.5675909,0.27792266,1
1.490000000000001,12.620720195015753,-0.46431827275767446,-0.9656649037011292,0.2861370849373881,13.405675,-0.5047304,-0.9681755,0.15637809,4.1720657,-4.6382055,1.5010421,-0.44139335,0.09275338,-0.078571044,-0.88904214,-8.268137,9.574681,0.33277613,-0.5047304,-0.9681755,0.15637809,1
1.500000000000001,12.620720195015753,-0.46431827275767446,-0.9656649037011292,0.2861370849373881,13.405675,-0.5047304,-0.9681755,0.15637809,4.0893207,-4.542312,1.5045303,-0.44083777,0.089500725,-0.07426203,-0.890021,-8.280861,9.60386,0.3648981,-0.5047304,-0.9681755,0.15637809,1
1.5100000000000011,12.620720195015753,-0.46431827275767446,-0.9656649037011292,0.2861370849373881,13.405675,-0.5047304,-0.9681755,0.15637809,4.006449,-4.4461336,1.5083413,-0.44026878,0.08624536,-0.06995075,-0.89097285,-8.293353,9.631632,0.39734975,-0.5047304,-0.9681755,0.15637809,1
1.5200000000000011,12.109282649243156,-0.312986197842147,-1.0530522386910828,0.29559177543666737,13.0759945,-0.488776,-0.7504085,0.13494518,3.923454,-4.3496842,1.5124785,-0.43968645,0.08298737,-0.06563735,-0.89189756,-8.305609,9.657993,0.43011573,-0.5047304,-0.9681755,0.15637809,1
1.5300000000000011,12.109282649243156,-0.312986197842147,-1.0530522386910828,0.29559177543666737,13.0759945,-0.488776,-0.7504085,0.13494518,3.840339,-4.2529817,1.5169284,-0.4391236,0.080670334,-0.061863262,-0.89265686,-8.317388,9.682417,0.45993307,-0.488776,-0.7504085,0.13494518,1
1.5400000000000011,12.109282649243156,-0.312986197842147,-1.0530522386910828,0.29559177543666737,13.0759945,-0.488776,-0.7504085,0.13494518,3.7571068,-4.15604,1.5216777,-0.43855178,0.07835166,-0.058087915,-0.89339787,-8.329084,9.705692,0.48997164,-0.488776,-0.7504085,0.13494518,1
1.5500000000000012,12.109282649243156,-0.312986197842147,-1.0530522386910828,0.29559177543666737,13.0759945,-0.488776,-0.7504085,0.13494518,3.6737578,-4.0588713,1.5267285,-0.43797094,0.07603137,-0.054311376,-0.8941206,-8.340696,9.7278185,0.52022123,-0.488776,-0.7504085,0.13494518,1
1.5600000000000012,11.35534782794975,-0.07959850030730847,-1.4000301235692694,0.3087710772322759,13.663297,-0.2705501,-1.4629191,0.36380336,3.5902932,-3.961487,1.5320828,-0.43738115,0.07370952,-0.050533723,-0.8948249,-8.352221,9.7487955,0.5506717,-0.488776,-0.7504085,0.13494518,0
1.5700000000000012,11.35534782794975,-0.07959850030730847,-1.4000301235692694,0.3087710772322759,13.663297,-0.2705501,-1.4629191,0.36380336,3.5067225,-3.8639126,1.537658,-0.43631282,0.06753982,-0.04722838,-0.8960132,-8.361845,9.765903,0.5644148,-0.0795985,-1.4000301,0.30877107,0
1.5800000000000012,11.35534782794975,-0.07959850030730847,-1.4000301235692694,0.3087710772322759,13.663297,-0.2705501,-1.4629191,0.36380336,3.4230595,-3.7661734,1.5433719,-0.435222,0.06136664,-0.043920603,-0.8971553,-8.370571,9.781723,0.57842094,-0.0795985,-1.4000301,0.30877107,0
1.5900000000000012,11.35534782794975,-0.07959850030730847,-1.4000301235692694,0.3087710772322759,13.663297,-0.2705501,-1.4629191,0.36380336,3.3393137,-3.6682825,1.5492272,-0.43410876,0.0551903,-0.04061056,-0.8982512,-8.378393,9.796254,0.592668,-0.0795985,-1.4000301,0.30877107,0
1.6000000000000012,10.916468650810579,0.08146609728016295,-1.3610560186341207,0.29613342724745156,13.673973,-0.21472399,-1.1879697,0.65354776,3.2554946,-3.570253,1.555226,-0.43297312,0.049011115,-0.037298422,-0.8993007,-8.385306,9.809497,0.6071337,-0.0795985,-1.4000301,0.30877107,0
1.6100000000000012,10.916468650810579,0.08146609728016295,-1.3610560186341207,0.29613342724745156,13.673973,-0.21472399,-1.1879697,0.65354776,3.1716123,-3.4720993,1.5613486,-0.4319048,0.042658392,-0.034789912,-0.90023816,-8.39103,9.821042,0.61743426,0.08146609,-1.361056,0.29613343,0
1.6200000000000012,10.916468650810579,0.08146609728016295,-1.3610560186341207,0.29613342724745156,13.673973,-0.21472399,-1.1879697,0.65354776,3.0876777,-3.373836,1.567575,-0.43081546,0.036303595,-0.03227971,-0.9011319,-8.395761,9.831491,0.6278938,0.08146609,-1.361056,0.29613343,0
1.6300000000000012,10.916468650810579,0.08146609728016295,-1.3610560186341207,0.29613342724745156,13.673973,-0.21472399,-1.1879697,0.65354776,3.0037005,-3.2754736,1.5739069,-0.42970514,0.029947028,-0.029767938,-0.9019819,-8.399491,9.840847,0.6384921,0.08146609,-1.361056,0.29613343,0
1.6400000000000012,10.916468650810579,0.08146609728016295,-1.3610560186341207,0.29613342724745156,13.520746,-0.45615885,-1.0391761,0.6923104,2.919691,-3.177023,1.5803453,-0.42857394,0.023589002,-0.027254716,-0.9027878,-8.402219,9.849109,0.6492087,0.08146609,-1.361056,0.29613343,0
1.6500000000000012,10.916468650810579,0.08146609728016295,-1.3610560186341207,0.29613342724745156,13.520746,-0.45615885,-1.0391761,0.6923104,2.8356595,-3.078495,1.5868913,-0.42742187,0.01722983,-0.024740167,-0.9035498,-8.403939,9.856278,0.6600233,0.08146609,-1.361056,0.29613343,0
1.6600000000000013,10.916468650810579,0.08146609728016295,-1.3610560186341207,0.29613342724745156,13.520746,-0.45615885,-1.0391761,0.6923104,2.7516155,-2.9799008,1.5935458,-0.426249,0.010869819,-0.022224415,-0.9042679,-8.404651,9.862358,0.67091537,0.08146609,-1.361056,0.29613343,0
1.6700000000000013,10.916468650810579,0.08146609728016295,-1.3610560186341207,0.29613342724745156,13.520746,-0.45615885,-1.0391761,0.6923104,2.6675699,-2.8812516,1.6003097,-0.42505538,0.004509279,-0.019707581,-0.9049419,-8.404347,9.86735,0.6818647,0.08146609,-1.361056,0.29613343,0
1.6800000000000013,10.584551229103853,0.17709667790197975,-1.1814094826917294,0.2739680282347855,14.813478,-0.5878466,-1.8520613,0.85496265,2.5835323,-2.782558,1.6071833,-0.4238411,-0.0018514806,-0.017189788,-0.90557194,-8.403028,9.871254,0.6928507,0.08146609,-1.361056,0.29613343,0
1.6900000000000013,10.584551229103853,0.17709667790197975,-1.1814094826917294,0.2739680282347855,14.813478,-0.5878466,-1.8520613,0.85496265,2.4995127,-2.6838305,1.6141503,-0.42269254,-0.0075995177,-0.01548516,-0.9061094,-8.400777,9.874067,0.7005342,0.17709668,-1.1814095,0.27396804,0
1.7000000000000013,10.584551229103853,0.17709667790197975,-1.1814094826917294,0.2739680282347855,14.813478,-0.5878466,-1.8520613,0.85496265,2.41552,-2.5850792,1.621194,-0.42152813,-0.01334727,-0.013779949,-0.9066128,-8.397578,9.876043,0.7082123,0.17709668,-1.1814095,0.27396804,0
1.7100000000000013,10.584551229103853,0.17709667790197975,-1.1814094826917294,0.2739680282347855,14.813478,-0.5878466,-1.8520613,0.85496265,2.3315642,-2.4863124,1.6283145,-0.4203479,-0.019094521,-0.012074222,-0.90708214,-8.393431,9.877184,0.7158698,0.17709668,-1.1814095,0.27396804,0
1.7200000000000013,10.217368325427488,0.26501261139158333,-0.447770177830371,0.27132553038853197,14.33941,-0.5965102,-1.6729782,0.9655643,2.2476547,-2.3875382,1.6355114,-0.41915187,-0.024841053,-0.010368041,-0.90751743,-8.388333,9.877491,0.72349143,0.17709668,-1.1814095,0.27396804,0
1.7300000000000013,10.217368325427488,0.26501261139158333,-0.447770177830371,0.27132553038853197,14.33941,-0.5965102,-1.6729782,0.9655643,2.1637995,-2.2887645,1.642766,-0.4179092,-0.027442208,-0.010598394,-0.9080128,-8.382651,9.877221,0.72740644,0.26501262,-0.44777018,0.27132553,0
1.7400000000000013,10.217368325427488,0.26501261139158333,-0.447770177830371,0.27132553038853197,14.33941,-0.5965102,-1.6729782,0.9655643,2.0800033,-2.1899943,1.6500595,-0.41666293,-0.030043125,-0.010828657,-0.9085004,-8.376466,9.8767805,0.7312917,0.26501262,-0.44777018,0.27132553,0
1.7500000000000013,10.217368325427488,0.26501261139158333,-0.447770177830371,0.27132553038853197,14.33941,-0.5965102,-1.6729782,0.9655643,1.9962717,-2.0912294,1.6573917,-0.41541308,-0.032643784,-0.011058827,-0.9089801,-8.369777,9.876168,0.7351443,0.26501262,-0.44777018,0.27132553,0
1.7600000000000013,9.877278699591793,0.2968996360583928,-0.21478326938967046,0.28555674166978284,14.403313,-0.59217125,-1.4045978,0.64744866,1.9126095,-1.9924717,1.6647621,-0.41415966,-0.035244163,-0.011288901,-0.90945196,-8.362584,9.875388,0.7389615,0.26501262,-0.44777018,0.27132553,0
1.7700000000000014,9.877278699591793,0.2968996360583928,-0.21478326938967046,0.28555674166978284,14.403313,-0.59217125,-1.4045978,0.64744866,1.8290203,-1.893722,1.6721536,-0.41281983,-0.036851678,-0.012143856,-0.9099862,-8.355193,9.874545,0.7393537,0.29689965,-0.21478327,0.28555673,0
1.7800000000000014,9.877278699591793,0.2968996360583928,-0.21478326938967046,0.28555674166978284,14.403313,-0.59217125,-1.4045978,0.64744866,1.7455069,-1.7949806,1.6795489,-0.41147777,-0.038458996,-0.012998745,-0.9105156,-8.347444,9.873735,0.73971856,0.29689965,-0.21478327,0.28555673,0
1.7900000000000014,9.877278699591793,0.2968996360583928,-0.21478326938967046,0.28555674166978284,14.403313,-0.59217125,-1.4045978,0.64744866,1.6620727,-1.6962472,1.6869477,-0.4101335,-0.040066108,-0.013853563,-0.91104,-8.339335,9.87296,0.7400548,0.29689965,-0.21478327,0.28555673,0
1.8000000000000014,9.595437826092727,0.22318479674712974,0.11498016783939755,0.3296953375751686,13.864873,-0.60185695,-1.314709,0.5208604,1.5787213,-1.5975214,1.6943499,-0.40878704,-0.041673,-0.014708307,-0.9115595,-8.330868,9.872221,0.7403611,0.29689965,-0.21478327,0.28555673,0
1.8100000000000014,9.595437826092727,0.22318479674712974,0.11498016783939755,0.3296953375751686,13.864873,-0.60185695,-1.314709,0.5208604,1.4954549,-1.4988024,1.7017409,-0.40722853,-0.041629273,-0.01589182,-0.912239,-8.3223915,9.871609,0.7378384,0.2231848,0.11498017,0.32969534,0
1.8200000000000014,9.595437826092727,0.22318479674712974,0.11498016783939755,0.3296953375751686,13.864873,-0.60185695,-1.314709,0.5208604,1.4122738,-1.4000885,1.7091066,-0.40566826,-0.041585367,-0.017075267,-0.9129146,-8.313829,9.871222,0.7353091,0.2231848,0.11498017,0.32969534,0
1.8300000000000014,9.595437826092727,0.22318479674712974,0.11498016783939755,0.3296953375751686,13.864873,-0.60185695,-1.314709,0.5208604,1.3291787,-1.3013773,1.716447,-0.40410623,-0.041541282,-0.018258639,-0.9135862,-8.305183,9.87106,0.73277295,0.2231848,0.11498017,0.32969534,0
1.8400000000000014,9.595437826092727,0.22318479674712974,0.11498016783939755,0.3296953375751686,13.566896,-0.6483492,-1.7242495,0.5011541,1.2461704,-1.2026666,1.723762,-0.4025425,-0.04149702,-0.019441932,-0.91425395,-8.296453,9.871124,0.73022926,0.2231848,0.11498017,0.32969534,0
1.8500000000000014,9.595437826092727,0.22318479674712974,0.11498016783939755,0.3296953375751686,13.566896,-0.6483492,-1.7242495,0.5011541,1.1632499,-1.1039541,1.7310516,-0.40097702,-0.041452575,-0.02062514,-0.9149177,-8.28764,9.871414,0.7276775,0.2231848,0.11498017,0.32969534,0
1.8600000000000014,9.595437826092727,0.22318479674712974,0.11498016783939755,0.3296953375751686,13.566896,-0.6483492,-1.7242495,0.5011541,1.0804179,-1.0052375,1.7383156,-0.39940983,-0.041407954,-0.02180826,-0.9155776,-8.278744,9.871931,0.7251172,0.2231848,0.11498017,0.32969534,0
1.8700000000000014,9.595437826092727,0.22318479674712974,0.11498016783939755,0.3296953375751686,13.566896,-0.6483492,-1.7242495,0.5011541,0.9976754,-0.90651464,1.745554,-0.39784092,-0.041363154,-0.022991288,-0.9162335,-8.269767,9.872673,0.72254777,0.2231848,0.11498017,0.32969534,0
1.8800000000000014,9.353882073775878,0.1206744442591354,-0.993608612435697,0.3988139294586428,14.417502,-0.3969117,-3.481118,0.60638416,0.91502297,-0.80778325,1.7527666,-0.39627028,-0.041318186,-0.024174217,-0.9168855,-8.260708,9.873643,0.7199687,0.2231848,0.11498017,0.32969534,0
1.8900000000000015,9.353882073775878,0.1206744442591354,-0.993608612435697,0.3988139294586428,14.417502,-0.3969117,-3.481118,0.60638416,0.832461,-0.7090421,1.7599413,-0.39453137,-0.046159994,-0.022676015,-0.91744244,-8.251558,9.874501,0.71495473,0.120674446,-0.9936086,0.39881393,0
1.9000000000000015,9.353882073775878,0.1206744442591354,-0.993608612435697,0.3988139294586428,14.417502,-0.3969117,-3.481118,0.60638416,0.74999416,-0.61029536,1.7670654,-0.39278102,-0.051000457,-0.021177158,-0.9179729,-8.241692,9.874763,0.7098711,0.120674446,-0.9936086,0.39881393,0
1.9100000000000015,9.353882073775878,0.1206744442591354,-0.993608612435697,0.3988139294586428,14.417502,-0.3969117,-3.481118,0.60638416,0.6676296,-0.51154894,1.7741385,-0.39101925,-0.055839445,-0.019677686,-0.9184767,-8.231108,9.874429,0.7047082,0.120674446,-0.9936086,0.39881393,0
1.9200000000000015,9.082980775403161,-0.08299715032716858,-1.642829007728705,0.49750120029644707,13.096226,-0.6443025,-2.4478593,0.8249202,0.5853745,-0.41280878,1.7811594,-0.38924617,-0.06067681,-0.018177642,-0.9189538,-8.219803,9.873505,0.6994565,0.120674446,-0.9936086,0.39881393,0
1.9300000000000015,9.082980775403161,-0.08299715032716858,-1.642829007728705,0.49750120029644707,13.096226,-0.6443025,-2.4478593,0.8249202,0.50323457,-0.31408125,1.7881138,-0.38712043,-0.06810658,-0.014447405,-0.91939723,-8.208023,9.871828,0.69140255,-0.08299715,-1.6428291,0.4975012,0
1.9400000000000015,9.082980775403161,-0.08299715032716858,-1.642829007728705,0.49750120029644707,13.096226,-0.6443025,-2.4478593,0.8249202,0.42121735,-0.21537608,1.7949868,-0.3849661,-0.07553132,-0.010716102,-0.9197728,-8.195266,9.869034,0.6831875,-0.08299715,-1.6428291,0.4975012,0
1.9500000000000015,9.082980775403161,-0.08299715032716858,-1.642829007728705,0.49750120029644707,13.096226,-0.6443025,-2.4478593,0.8249202,0.33933258,-0.116704404,1.801777,-0.38278335,-0.08295049,-0.0069840075,-0.9200805,-8.181529,9.865126,0.67478645,-0.08299715,-1.6428291,0.4975012,0
1.9600000000000015,8.951731140273626,-0.25951448472389976,-2.7141567392335384,0.6389183341877814,11.694839,-0.64745116,-0.7878628,0.85840565,0.25759012,-0.018077359,1.8084819,-0.38057232,-0.090363525,-0.0032513975,-0.9203202,-8.166811,9.860111,0.6661745,-0.08299715,-1.6428291,0.4975012,0
1.9700000000000015,8.951731140273626,-0.25951448472389976,-2.7141567392335384,0.6389183341877814,11.694839,-0.64745116,-0.7878628,0.85840565,0.17599922,0.08049361,1.8150929,-0.37775645,-0.1023603,0.0033962252,-0.9202237,-8.151129,9.85379,0.65597785,-0.25951448,-2.7141566,0.63891834,0
1.9800000000000015,8.951731140273626,-0.25951448472389976,-2.7141567392335384,0.6389183341877814,11.694839,-0.64745116,-0.7878628,0.85840565,0.09457277,0.17899206,1.8215998,-0.37486652,-0.11433701,0.0100431815,-0.9199468,-8.133924,9.845614,0.6453422,-0.25951448,-2.7141566,0.63891834,0
1.9900000000000015,8.951731140273626,-0.25951448472389976,-2.7141567392335384,0.6389183341877814,11.694839,-0.64745116,-0.7878628,0.85840565,0.013325989,0.27739957,1.8279979,-0.37190306,-0.1262913,0.016688168,-0.91948944,-8.115195,9.835601,0.63420105,-0.25951448,-2.7141566,0.63891834,0
2.0000000000000013,,,,,11.837662,-1.1090499,-2.4702024,0.8289312,-0.06772591,0.3756978,1.8342818,-0.3688667,-0.13822083,0.023329884,-0.9188518,-8.094947,9.823764,0.6224884,-0.25951448,-2.7141566,0.63891834,0
2.010000000000001,,,,,11.837662,-1.1090499,-2.4702024,0.8289312,-0.14856921,0.47386944,1.8404412,-0.3651862,-0.14798401,0.030063834,-0.91860574,-8.073528,9.810314,0.6093091,-0.41665253,-2.3150039,0.7988281,0
2.020000000000001,,,,,11.837662,-1.1090499,-2.4702024,0.8289312,-0.2291925,0.57189846,1.846466,-0.3614494,-0.15772437,0.036793143,-0.91821796,-8.050947,9.795235,0.5955526,-0.41665253,-2.3150039,0.7988281,0
2.0300000000000007,,,,,11.837662,-1.1090499,-2.4702024,0.8289312,-0.30958414,0.6697687,1.8523501,-0.3576568,-0.16744038,0.043516777,-0.91768855,-8.027202,9.778543,0.5811707,-0.41665253,-2.3150039,0.7988281,0
2.0400000000000005,,,,,11.837662,-1.1090499,-2.4702024,0.8289312,-0.38973254,0.767464,1.858087,-0.35380906,-0.17713058,0.050233703,-0.9170175,-8.002293,9.760261,0.5661152,-0.41665253,-2.3150039,0.7988281,0
2.0500000000000003,,,,,10.826742,-1.1961647,-2.0107267,0.8946614,-0.469626,0.86496854,1.8636699,-0.34990674,-0.18679346,0.056942876,-0.91620505,-7.9762206,9.740406,0.5503387,-0.41665253,-2.3150039,0.7988281,1
2.06,,,,,10.826742,-1.1961647,-2.0107267,0.8946614,-0.5492238,0.96224284,1.8691819,-0.3463256,-0.19364238,0.06677123,-0.91547996,-7.943239,9.714089,0.551943,-1.1961647,-2.0107267,0.8946614,1
2.07,,,,,10.826742,-1.1961647,-2.0107267,0.8946614,-0.6284886,1.0592424,1.8747058,-0.34269017,-0.20046091,0.07658911,-0.9146113,-7.9096212,9.6854725,0.5526976,-1.1961647,-2.0107267,0.8946614,1
2.0799999999999996,,,,,10.826742,-1.1961647,-2.0107267,0.8946614,-0.70741403,1.1559442,1.8802327,-0.339001,-0.207248,0.08639498,-0.9135991,-7.8753643,9.654579,0.5525436,-1.1961647,-2.0107267,0.8946614,1
2.0899999999999994,,,,,9.68113,-1.0690899,-1.4115129,0.84088,-0.7859937,1.2523261,1.8857533,-0.33525863,-0.21400258,0.09618729,-0.9124436,-7.840467,9.621434,0.55142254,-1.1961647,-2.0107267,0.8946614,1
2.099999999999999,,,,,9.68113,-1.0690899,-1.4115129,0.84088,-0.8642403,1.3483843,1.8912071,-0.3318714,-0.21823534,0.10432582,-0.9117848,-7.8088055,9.589964,0.5392261,-1.0690899,-1.4115129,0.84088,1
2.109999999999999,,,,,9.68113,-1.0690899,-1.4115129,0.84088,-0.9421689,1.44412,1.8965355,-0.3284523,-0.22244714,0.11245434,-0.9110385,-7.776883,9.556943,0.5263481,-1.0690899,-1.4115129,0.84088,1
2.1199999999999988,,,,,9.68113,-1.0690899,-1.4115129,0.84088,-1.019777,1.5395179,1.9017316,-0.32500166,-0.22663757,0.120572045,-0.91020465,-7.7446957,9.522386,0.51275826,-1.0690899,-1.4115129,0.84088,1
2.1299999999999986,,,,,9.008271,-0.7225085,0.013794543,0.8852323,-1.0970619,1.6345625,1.906788,-0.32151976,-0.23080625,0.12867819,-0.90928334,-7.71224,9.486306,0.4984266,-1.0690899,-1.4115129,0.84088,1
2.1399999999999983,,,,,9.008271,-0.7225085,0.013794543,0.8852323,-1.174033,1.7292527,1.9116693,-0.31833258,-0.22900872,0.1329603,-0.9102426,-7.682043,9.451673,0.47780907,-0.7225085,0.013794543,0.8852323,1
