time-since-start [s],throttle_mpc,roll_mpc,pitch_mpc,yaw_mpc,throttle_nw,roll_nw,pitch_nw,yaw_nw,position_x [m],position_y [m],position_z [m],rotation_w [quaternion],rotation_x [quaternion],rotation_y [quaternion],rotation_z [quaternion],velocity_x [m/s],velocity_y [m/s],velocity_z [m/s],omega_x [rad/s],omega_y [rad/s],omega_z [rad/s],network_used
0.0,9.605485910715526,5.999999744320064,-5.999999787485024,1.429031254629992,15.47645,1.0259507,-2.8695192,-0.22204413,16.407486,-10.884026,2.0842578,-0.2889003,0.37553564,-0.28455848,-0.8333883,-10.724345,-2.1902711,0.5520394,1.7825814,-0.13685831,-0.5242606,0
0.01,9.605485910715526,5.999999744320064,-5.999999787485024,1.429031254629992,15.219872,2.484156,-4.5543737,-0.48465234,16.300028,-10.905594,2.0895581,-0.30247682,0.33949727,-0.30330718,-0.8374092,-10.765947,-2.123043,0.50844574,5.9999995,-6.0,1.4290313,0
0.02,9.605485910715526,5.999999744320064,-5.999999787485024,1.429031254629992,15.219872,2.484156,-4.5543737,-0.48465234,16.192192,-10.92648,2.0944362,-0.3154935,0.30283058,-0.32149452,-0.8398802,-10.800102,-2.0538485,0.46750236,5.9999995,-6.0,1.4290313,0
0.03,9.605485910715526,5.999999744320064,-5.999999787485024,1.429031254629992,15.219872,2.484156,-4.5543737,-0.48465234,16.084051,-10.946667,2.0989156,-0.32792625,0.26560342,-0.33908686,-0.84079677,-10.826555,-1.9831085,0.42871094,5.9999995,-6.0,1.4290313,0
0.04,9.605485910715526,5.999999744320064,-5.999999787485024,1.429031254629992,13.668469,-0.7841308,-2.8195126,-0.3439028,15.975686,-10.966139,2.103016,-0.33975214,0.2278847,-0.35605162,-0.8401572,-10.845107,-1.9112562,0.39155725,5.9999995,-6.0,1.4290313,0
0.05,9.605485910715526,5.999999744320064,-5.999999787485024,1.429031254629992,13.668469,-0.7841308,-2.8195126,-0.3439028,15.867177,-10.98489,2.1067507,-0.35094923,0.18974419,-0.37235743,-0.8379628,-10.855617,-1.8387322,0.35551497,5.9999995,-6.0,1.4290313,0
0.060000000000000005,9.605485910715526,5.999999744320064,-5.999999787485024,1.429031254629992,13.668469,-0.7841308,-2.8195126,-0.3439028,15.758602,-11.002913,2.1101282,-0.3614968,0.1512525,-0.3879741,-0.8342175,-10.858004,-1.7659824,0.3200496,5.9999995,-6.0,1.4290313,0
0.07,9.605485910715526,5.999999744320064,-5.999999787485024,1.429031254629992,13.668469,-0.7841308,-2.8195126,-0.3439028,15.650044,-11.02021,2.1131518,-0.3713753,0.11248089,-0.40287268,-0.82892823,-10.852248,-1.693454,0.28462234,5.9999995,-6.0,1.4290313,0
0.08,15.993912313736487,5.999999460760253,-5.999999616106198,1.1004672956226478,14.004985,-2.0579464,1.8868731,-0.43586302,15.541585,-11.036784,2.115819,-0.38056648,0.0735011,-0.4170257,-0.82210475,-10.83839,-1.6215932,0.24869409,5.9999995,-6.0,1.4290313,0
0.09,15.993912313736487,5.999999460760253,-5.999999616106198,1.1004672956226478,14.004985,-2.0579464,1.8868731,-0.43586302,15.433373,-11.052408,2.1183262,-0.39040747,0.0350708,-0.43029052,-0.8131433,-10.8019905,-1.5037879,0.25239313,5.9999995,-5.9999995,1.1004673,0
0.09999999999999999,15.993912313736487,5.999999460760253,-5.999999616106198,1.1004672956226478,14.004985,-2.0579464,1.8868731,-0.43586302,15.325591,-11.066867,2.1208577,-0.399534,-0.0034236796,-0.44276792,-0.80269384,-10.752529,-1.3885742,0.25351718,5.9999995,-5.9999995,1.1004673,0
0.10999999999999999,15.993912313736487,5.999999460760253,-5.999999616106198,1.1004672956226478,14.004985,-2.0579464,1.8868731,-0.43586302,15.218367,-11.080191,2.1233845,-0.40792942,-0.041911893,-0.45443508,-0.79077536,-10.690365,-1.2766831,0.25123996,5.9999995,-5.9999995,1.1004673,0
0.11999999999999998,15.993912313736487,5.999999460760253,-5.999999616106198,1.1004672956226478,14.004985,-2.0579464,1.8868731,-0.43586302,15.111826,-11.092415,2.1258678,-0.41557834,-0.080323406,-0.4652706,-0.7774098,-10.61595,-1.1688206,0.24476,5.9999995,-5.9999995,1.1004673,0
0.12999999999999998,19.4949476195427,3.7517174318175166,-5.9999983365791625,0.18208510939128345,15.4717,-3.4637117,0.9929013,0.2365703,15.006088,-11.103584,2.1282625,-0.42246675,-0.118587926,-0.4752547,-0.7626215,-10.529826,-1.065664,0.23330674,5.9999995,-5.9999995,1.1004673,0
0.13999999999999999,19.4949476195427,3.7517174318175166,-5.9999983365791625,0.18208510939128345,15.4717,-3.4637117,0.9929013,0.2365703,14.901369,-11.113641,2.130608,-0.4335386,-0.14974333,-0.4764805,-0.75005835,-10.412189,-0.9467434,0.23525536,3.7517173,-5.9999986,0.18208511,0
0.15,19.4949476195427,3.7517174318175166,-5.9999983365791625,0.18208510939128345,15.4717,-3.4637117,0.9929013,0.2365703,14.79788,-11.122546,2.1329541,-0.4440674,-0.18071118,-0.4771095,-0.7365556,-10.283989,-0.8357825,0.23329695,3.7517173,-5.9999986,0.18208511,0
0.16,18.41275391845723,0.5442436077795576,-2.661576368470664,-0.019273232324606752,15.850965,-3.105405,2.1742454,-0.32382822,14.695724,-11.130385,2.135259,-0.45403993,-0.21145268,-0.4771408,-0.72213024,-10.145868,-0.73332244,0.22692983,3.7517173,-5.9999986,0.18208511,0
0.17,18.41275391845723,0.5442436077795576,-2.661576368470664,-0.019273232324606752,15.850965,-3.105405,2.1742454,-0.32382822,14.594948,-11.137265,2.1374567,-0.45984176,-0.22223242,-0.47304004,-0.7179076,-10.008783,-0.6433262,0.21255091,0.54424363,-2.6615763,-0.019273233,0
0.18000000000000002,18.41275391845723,0.5442436077795576,-2.661576368470664,-0.019273232324606752,15.850965,-3.105405,2.1742454,-0.32382822,14.495557,-11.143267,2.139509,-0.46555874,-0.23297115,-0.468852,-0.71355253,-9.868891,-0.55745786,0.19786249,0.54424363,-2.6615763,-0.019273233,0
0.19000000000000003,18.41275391845723,0.5442436077795576,-2.661576368470664,-0.019273232324606752,15.850965,-3.105405,2.1742454,-0.32382822,14.397579,-11.148429,2.1414127,-0.47118986,-0.2436669,-0.4645775,-0.7090658,-9.726293,-0.475781,0.18280382,0.54424363,-2.6615763,-0.019273233,0
0.20000000000000004,16.61553239376213,-0.4586210539310411,0.019578204615701072,-0.18714757199864135,14.831191,-3.090775,3.4217496,-0.6324184,14.30104,-11.152796,2.1431637,-0.476734,-0.2543177,-0.46021724,-0.7044482,-9.581096,-0.3983562,0.16731451,0.54424363,-2.6615763,-0.019273233,0
0.21000000000000005,16.61553239376213,-0.4586210539310411,0.019578204615701072,-0.18714757199864135,14.831191,-3.090775,3.4217496,-0.6324184,14.205891,-11.156443,2.1447184,-0.47792986,-0.2527241,-0.45888507,-0.70508015,-9.448782,-0.3309351,0.14374685,-0.45862105,0.019578205,-0.18714757,0
0.22000000000000006,16.61553239376213,-0.4586210539310411,0.019578204615701072,-0.18714757199864135,14.831191,-3.090775,3.4217496,-0.6324184,14.112062,-11.159414,2.146041,-0.4791228,-0.25112897,-0.4575501,-0.7057078,-9.316818,-0.26357752,0.12085393,-0.45862105,0.019578205,-0.18714757,0
0.23000000000000007,16.61553239376213,-0.4586210539310411,0.019578204615701072,-0.18714757199864135,14.831191,-3.090775,3.4217496,-0.6324184,14.019552,-11.161715,2.1471379,-0.48031273,-0.24953231,-0.45621234,-0.7063311,-9.185207,-0.19628355,0.09863398,-0.45862105,0.019578205,-0.18714757,0
0.24000000000000007,16.61553239376213,-0.4586210539310411,0.019578204615701072,-0.18714757199864135,15.336107,-2.5188746,3.7176528,-0.15726966,13.928358,-11.163341,2.148016,-0.48149973,-0.2479341,-0.45487174,-0.70695,-9.053953,-0.12905331,0.07708522,-0.45862105,0.019578205,-0.18714757,0
0.25000000000000006,16.61553239376213,-0.4586210539310411,0.019578204615701072,-0.18714757199864135,15.336107,-2.5188746,3.7176528,-0.15726966,13.838473,-11.164294,2.1486819,-0.48268378,-0.24633436,-0.45352837,-0.70756465,-8.923059,-0.06188692,0.056205872,-0.45862105,0.019578205,-0.18714757,0
0.26000000000000006,16.61553239376213,-0.4586210539310411,0.019578204615701072,-0.18714757199864135,15.336107,-2.5188746,3.7176528,-0.15726966,13.749896,-11.164577,2.1491425,-0.48386487,-0.24473311,-0.45218223,-0.7081749,-8.792528,0.0052154996,0.035994135,-0.45862105,0.019578205,-0.18714757,0
0.2700000000000001,16.61553239376213,-0.4586210539310411,0.019578204615701072,-0.18714757199864135,15.336107,-2.5188746,3.7176528,-0.15726966,13.662622,-11.164188,2.1494043,-0.485043,-0.24313036,-0.4508333,-0.7087808,-8.662364,0.072253846,0.01644817,-0.45862105,0.019578205,-0.18714757,0
0.2800000000000001,14.835504218866767,-1.3822394374269789,2.094861136465149,-0.3404976095785761,16.524914,-3.0555847,4.050075,-0.58682734,13.576649,-11.163132,2.1494737,-0.48621812,-0.24152611,-0.44948158,-0.70938236,-8.53257,0.13922802,-0.0024338523,-0.45862105,0.019578205,-0.18714757,0
0.2900000000000001,14.835504218866767,-1.3822394374269789,2.094861136465149,-0.3404976095785761,16.524914,-3.0555847,4.050075,-0.58682734,13.491899,-11.161437,2.1493158,-0.48434815,-0.22995119,-0.45004684,-0.71413386,-8.417738,0.19995035,-0.028877838,-1.3822395,2.094861,-0.3404976,0
0.3000000000000001,14.835504218866767,-1.3822394374269789,2.094861136465149,-0.3404976095785761,16.524914,-3.0555847,4.050075,-0.58682734,13.408286,-11.159122,2.148901,-0.48240048,-0.21833938,-0.45053992,-0.7187708,-8.305213,0.26321185,-0.053874232,-1.3822395,2.094861,-0.3404976,0
0.3100000000000001,14.835504218866767,-1.3822394374269789,2.094861136465149,-0.3404976095785761,16.524914,-3.0555847,4.050075,-0.58682734,13.325787,-11.156163,2.1482432,-0.48037547,-0.20669255,-0.45096076,-0.72329247,-8.195062,0.32898027,-0.077479005,-1.3822395,2.094861,-0.3404976,0
0.3200000000000001,13.447877506673315,-2.3166335544568417,4.596271537714488,-0.5044997587740226,15.799147,-3.8742905,5.9553,-0.2869771,13.244377,-11.152534,2.1473563,-0.4782734,-0.19501257,-0.45130926,-0.7276982,-8.087354,0.3972217,-0.099749,-1.3822395,2.094861,-0.3404976,0
0.3300000000000001,13.447877506673315,-2.3166335544568417,4.596271537714488,-0.5044997587740226,15.799147,-3.8742905,5.9553,-0.2869771,13.1639805,-11.148239,2.1462176,-0.47183695,-0.17154814,-0.45421225,-0.7359567,-7.9928465,0.46231326,-0.12776078,-2.3166335,4.5962715,-0.50449973,0
0.34000000000000014,13.447877506673315,-2.3166335544568417,4.596271537714488,-0.5044997587740226,15.799147,-3.8742905,5.9553,-0.2869771,13.084505,-11.1432705,2.1448066,-0.46508506,-0.14796902,-0.45681158,-0.74372315,-7.9030523,0.53223723,-0.15424727,-2.3166335,4.5962715,-0.50449973,0
0.35000000000000014,13.447877506673315,-2.3166335544568417,4.596271537714488,-0.5044997587740226,15.799147,-3.8742905,5.9553,-0.2869771,13.005902,-11.137579,2.1431372,-0.45802218,-0.124290965,-0.45910546,-0.7509924,-7.8182,0.6068261,-0.17942683,-2.3166335,4.5962715,-0.50449973,0
0.36000000000000015,12.795223482745564,-2.6323800220928106,4.801178812462092,-0.6896655694160372,16.527113,-3.7844574,6.4011297,-0.796858,12.928123,-11.131119,2.141222,-0.45065305,-0.10052979,-0.46109235,-0.75775945,-7.738505,0.6859001,-0.2035213,-2.3166335,4.5962715,-0.50449973,0
0.37000000000000016,12.795223482745564,-2.6323800220928106,4.801178812462092,-0.6896655694160372,16.527113,-3.7844574,6.4011297,-0.796858,12.851096,-11.123865,2.1390522,-0.44334963,-0.07478265,-0.4621081,-0.7643983,-7.667925,0.7652698,-0.23029916,-2.63238,4.801179,-0.68966556,0
0.38000000000000017,12.795223482745564,-2.6323800220928106,4.801178812462092,-0.6896655694160372,16.527113,-3.7844574,6.4011297,-0.796858,12.774746,-11.115798,2.1366189,-0.43570864,-0.048978563,-0.46277204,-0.77045506,-7.6030293,0.84864885,-0.25625736,-2.63238,4.801179,-0.68966556,0
0.3900000000000002,12.795223482745564,-2.6323800220928106,4.801178812462092,-0.6896655694160372,16.527113,-3.7844574,6.4011297,-0.796858,12.699016,-11.106879,2.133929,-0.42773595,-0.02313719,-0.46308362,-0.7759253,-7.544,0.9358122,-0.28165168,-2.63238,4.801179,-0.68966556,0
0.4000000000000002,12.64697003845569,-2.4662814752846653,3.4215677656135273,-0.8510111803029713,14.650707,-3.0592258,3.8030503,-0.2156331,12.623845,-11.097071,2.130987,-0.4194376,0.0027218005,-0.46304262,-0.78080475,-7.4910035,1.0265232,-0.30673972,-2.63238,4.801179,-0.68966556,0
0.4100000000000002,12.64697003845569,-2.4662814752846653,3.4215677656135273,-0.8510111803029713,14.650707,-3.0592258,3.8030503,-0.2156331,12.549173,-11.086345,2.127791,-0.41470802,0.023219999,-0.4604713,-0.78450245,-7.4442453,1.1190481,-0.33241645,-2.4662814,3.4215677,-0.85101116,0
0.4200000000000002,12.64697003845569,-2.4662814752846653,3.4215677656135273,-0.8510111803029713,14.650707,-3.0592258,3.8030503,-0.2156331,12.474944,-11.074683,2.12434,-0.40978652,0.04370745,-0.45768687,-0.787837,-7.402408,1.21359,-0.35768938,-2.4662814,3.4215677,-0.85101116,0
0.4300000000000002,12.64697003845569,-2.4662814752846653,3.4215677656135273,-0.8510111803029713,14.650707,-3.0592258,3.8030503,-0.2156331,12.401109,-11.062066,2.120638,-0.40467536,0.06417467,-0.45469064,-0.790807,-7.365558,1.310006,-0.38272503,-2.4662814,3.4215677,-0.85101116,0
0.4400000000000002,12.64697003845569,-2.4662814752846653,3.4215677656135273,-0.8510111803029713,14.291692,-2.3013492,1.7203875,-0.18785289,12.327616,-11.048477,2.1166859,-0.39937693,0.08461219,-0.45148394,-0.79341096,-7.3337536,1.4081495,-0.4076904,-2.4662814,3.4215677,-0.85101116,0
0.45000000000000023,12.64697003845569,-2.4662814752846653,3.4215677656135273,-0.8510111803029713,14.291692,-2.3013492,1.7203875,-0.18785289,12.2544155,-11.033898,2.1124837,-0.39389366,0.10501055,-0.4480683,-0.79564774,-7.3070426,1.5078709,-0.43275258,-2.4662814,3.4215677,-0.85101116,0
0.46000000000000024,12.64697003845569,-2.4662814752846653,3.4215677656135273,-0.8510111803029713,14.291692,-2.3013492,1.7203875,-0.18785289,12.1814575,-11.018314,2.1080298,-0.3882281,0.12536031,-0.44444525,-0.7975162,-7.285465,1.6090177,-0.45807847,-2.4662814,3.4215677,-0.85101116,0
0.47000000000000025,12.64697003845569,-2.4662814752846653,3.4215677656135273,-0.8510111803029713,14.291692,-2.3013492,1.7203875,-0.18785289,12.108689,-11.001714,2.1033206,-0.38238278,0.14565204,-0.44061652,-0.79901564,-7.2690487,1.7114347,-0.48383456,-2.4662814,3.4215677,-0.85101116,0
0.48000000000000026,12.673238508992116,-2.067412826699289,1.9892909021840013,-0.8808384780520476,16.26642,-2.1482658,1.9938067,-0.287954,12.036059,-10.984082,2.098351,-0.37636054,0.16587637,-0.43658385,-0.80014527,-7.2578144,1.8149643,-0.51018643,-2.4662814,3.4215677,-0.85101116,0
0.49000000000000027,12.673238508992116,-2.067412826699289,1.9892909021840013,-0.8808384780520476,16.26642,-2.1482658,1.9938067,-0.287954,11.963518,-10.965411,2.0931158,-0.3737851,0.17962906,-0.43127665,-0.8012607,-7.2511683,1.9194263,-0.53684705,-2.0674129,1.989291,-0.88083845,0
0.5000000000000002,12.673238508992116,-2.067412826699289,1.9892909021840013,-0.8808384780520476,16.26642,-2.1482658,1.9938067,-0.287954,11.891025,-10.945693,2.087614,-0.37112555,0.1933413,-0.42587233,-0.8021957,-7.248151,2.0241032,-0.5635766,-2.0674129,1.989291,-0.88083845,0
0.5100000000000002,12.673238508992116,-2.067412826699289,1.9892909021840013,-0.8808384780520476,16.26642,-2.1482658,1.9938067,-0.287954,11.8185425,-10.924929,2.081844,-0.3683824,0.20701,-0.4203721,-0.8029501,-7.2487626,2.1289265,-0.59046024,-2.0674129,1.989291,-0.88083845,0
0.5200000000000002,12.837845265652762,-1.544046111173987,0.29744370681305815,-0.8371666584472605,15.497404,-1.7354984,1.228038,-0.13283809,11.7460375,-10.903115,2.075804,-0.36555627,0.22063208,-0.41477722,-0.8035236,-7.2530017,2.233828,-0.617583,-2.0674129,1.989291,-0.88083845,0
0.5300000000000002,12.837845265652762,-1.544046111173987,0.29744370681305815,-0.8371666584472605,15.497404,-1.7354984,1.228038,-0.13283809,11.673472,-10.880246,2.069497,-0.366585,0.22637664,-0.40817758,-0.80483556,-7.260254,2.3398762,-0.64369756,-1.5440462,0.29744372,-0.83716667,0
0.5400000000000003,12.837845265652762,-1.544046111173987,0.29744370681305815,-0.8371666584472605,15.497404,-1.7354984,1.228038,-0.13283809,11.600825,-10.856319,2.0629327,-0.36758462,0.23210324,-0.40154558,-0.8060838,-7.2692823,2.4452922,-0.6690883,-1.5440462,0.29744372,-0.83716667,0
0.5500000000000003,12.837845265652762,-1.544046111173987,0.29744370681305815,-0.8371666584472605,15.497404,-1.7354984,1.228038,-0.13283809,11.52808,-10.831342,2.0561175,-0.36855507,0.23781143,-0.3948817,-0.80726796,-7.2800913,2.5500586,-0.6937859,-1.5440462,0.29744372,-0.83716667,0
0.5600000000000003,12.960989553851052,-1.0065957180034764,-0.8790804925938909,-0.7200169867465875,14.915309,-1.8021839,0.7573373,-0.0014316086,11.455218,-10.80532,2.049059,-0.3694963,0.24350075,-0.3881865,-0.8083881,-7.292686,2.654157,-0.71782106,-1.5440462,0.29744372,-0.83716667,0
0.5700000000000003,12.960989553851052,-1.0065957180034764,-0.8790804925938909,-0.7200169867465875,14.915309,-1.8021839,0.7573373,-0.0014316086,11.382222,-10.778255,2.0417676,-0.37287658,0.24319772,-0.3816061,-0.8100586,-7.306657,2.7584395,-0.74023443,-1.0065957,-0.8790805,-0.720017,0
0.5800000000000003,12.960989553851052,-1.0065957180034764,-0.8790804925938909,-0.7200169867465875,14.915309,-1.8021839,0.7573373,-0.0014316086,11.309084,-10.750154,2.0342588,-0.3762354,0.24288069,-0.3750037,-0.81168234,-7.320969,2.8616858,-0.7613027,-1.0065957,-0.8790805,-0.720017,0
0.5900000000000003,12.960989553851052,-1.0065957180034764,-0.8790804925938909,-0.7200169867465875,14.915309,-1.8021839,0.7573373,-0.0014316086,11.235802,-10.721025,2.026546,-0.3795725,0.24254964,-0.36837965,-0.81325936,-7.3356323,2.9638774,-0.7810424,-1.0065957,-0.8790805,-0.720017,0
0.6000000000000003,13.126578266283792,-0.6991947013682409,-0.7164274896044202,-0.5812397087691352,15.475629,-1.8303192,1.1098642,0.1306952,11.162371,-10.69088,2.0186422,-0.38288778,0.24220464,-0.36173445,-0.8147896,-7.3506556,3.064997,-0.7994703,-1.0065957,-0.8790805,-0.720017,0
0.6100000000000003,13.126578266283792,-0.6991947013682409,-0.7164274896044202,-0.5812397087691352,15.475629,-1.8303192,1.1098642,0.1306952,11.088786,-10.659722,2.0105658,-0.38569832,0.24167171,-0.3568045,-0.8157954,-7.3661714,3.166409,-0.8156833,-0.6991947,-0.7164275,-0.5812397,0
0.6200000000000003,13.126578266283792,-0.6991947013682409,-0.7164274896044202,-0.5812397087691352,15.475629,-1.8303192,1.1098642,0.1306952,11.015046,-10.627554,2.0023322,-0.38849595,0.24113071,-0.3518626,-0.8167739,-7.3818717,3.2669814,-0.8309022,-0.6991947,-0.7164275,-0.5812397,0
0.6300000000000003,13.126578266283792,-0.6991947013682409,-0.7164274896044202,-0.5812397087691352,15.475629,-1.8303192,1.1098642,0.1306952,10.941148,-10.594385,1.9939513,-0.39128056,0.24058163,-0.34690893,-0.817725,-7.397762,3.3667042,-0.84513676,-0.6991947,-0.7164275,-0.5812397,0
0.6400000000000003,13.126578266283792,-0.6991947013682409,-0.7164274896044202,-0.5812397087691352,15.095356,-1.783428,1.3903135,0.09731579,10.867089,-10.560224,1.9854329,-0.39405206,0.24002449,-0.34194362,-0.81864876,-7.4138484,3.4655678,-0.8583968,-0.6991947,-0.7164275,-0.5812397,0
0.6500000000000004,13.126578266283792,-0.6991947013682409,-0.7164274896044202,-0.5812397087691352,15.095356,-1.783428,1.3903135,0.09731579,10.79287,-10.525077,1.9767867,-0.39681038,0.2394593,-0.33696687,-0.8195451,-7.4301367,3.563562,-0.87069243,-0.6991947,-0.7164275,-0.5812397,0
0.6600000000000004,13.126578266283792,-0.6991947013682409,-0.7164274896044202,-0.5812397087691352,15.095356,-1.783428,1.3903135,0.09731579,10.718486,-10.488955,1.9680223,-0.39955541,0.2388861,-0.3319788,-0.82041395,-7.4466333,3.6606772,-0.8820337,-0.6991947,-0.7164275,-0.5812397,0
0.6700000000000004,13.126578266283792,-0.6991947013682409,-0.7164274896044202,-0.5812397087691352,15.095356,-1.783428,1.3903135,0.09731579,10.643937,-10.451866,1.9591492,-0.40228707,0.2383049,-0.3269796,-0.8212553,-7.4633436,3.7569036,-0.89243084,-0.6991947,-0.7164275,-0.5812397,0
0.6800000000000004,13.099501646370879,-0.45883166263005837,-0.9333098315299018,-0.47160644718778744,14.857377,-1.7597522,1.075844,0.087924376,10.56922,-10.41382,1.950177,-0.40500522,0.2377157,-0.32196945,-0.82206917,-7.4802732,3.8522322,-0.9018942,-0.6991947,-0.7164275,-0.5812397,0
0.6900000000000004,13.099501646370879,-0.45883166263005837,-0.9333098315299018,-0.47160644718778744,14.857377,-1.7597522,1.075844,0.087924376,10.494331,-10.374826,1.9411137,-0.4078942,0.23556398,-0.31762773,-0.8229487,-7.4972363,3.9464583,-0.91058934,-0.45883167,-0.93330985,-0.47160643,0
0.7000000000000004,13.099501646370879,-0.45883166263005837,-0.9333098315299018,-0.47160644718778744,14.857377,-1.7597522,1.075844,0.087924376,10.419275,-10.334894,1.9319685,-0.41076988,0.23340456,-0.3132757,-0.8238014,-7.5140123,4.0397687,-0.9182937,-0.45883167,-0.93330985,-0.47160643,0
0.7100000000000004,13.099501646370879,-0.45883166263005837,-0.9333098315299018,-0.47160644718778744,14.857377,-1.7597522,1.075844,0.087924376,10.344051,-10.294034,1.9227512,-0.41363218,0.23123755,-0.30891344,-0.8246273,-7.5306053,4.1321507,-0.9250171,-0.45883167,-0.93330985,-0.47160643,0
0.7200000000000004,13.2227664010223,-0.20514450370723847,-0.6802488123507564,-0.3683012606794393,14.567287,-1.6645054,1.0027233,0.08694233,10.268663,-10.252255,1.9134715,-0.416481,0.22906299,-0.30454114,-0.8254262,-7.547021,4.223594,-0.9307694,-0.45883167,-0.93330985,-0.47160643,0
0.7300000000000004,13.2227664010223,-0.20514450370723847,-0.6802488123507564,-0.3683012606794393,14.567287,-1.6645054,1.0027233,0.08694233,10.193111,-10.209561,1.9041431,-0.41879854,0.2272417,-0.3018537,-0.8257441,-7.5633793,4.3150682,-0.9348003,-0.20514451,-0.6802488,-0.36830127,0
0.7400000000000004,13.2227664010223,-0.20514450370723847,-0.6802488123507564,-0.3683012606794393,14.567287,-1.6645054,1.0027233,0.08694233,10.117397,-10.165956,1.8947777,-0.4211094,0.22541675,-0.29916137,-0.8260488,-7.5794716,4.405917,-0.93818206,-0.20514451,-0.6802488,-0.36830127,0
0.7500000000000004,13.2227664010223,-0.20514450370723847,-0.6802488123507564,-0.3683012606794393,14.567287,-1.6645054,1.0027233,0.08694233,10.041524,-10.121445,1.8853817,-0.4234135,0.22358823,-0.29646426,-0.82634026,-7.5952997,4.4961357,-0.9409191,-0.20514451,-0.6802488,-0.36830127,0
0.7600000000000005,13.187802408982074,-0.033517583806098684,-0.7335648943522218,-0.2895996666035621,14.174902,-1.3479196,1.0387076,0.0032885745,9.965493,-10.076035,1.8759615,-0.4257108,0.22175613,-0.29376242,-0.8266185,-7.6108665,4.585719,-0.9430158,-0.20514451,-0.6802488,-0.36830127,0
0.7700000000000005,13.187802408982074,-0.033517583806098684,-0.7335648943522218,-0.2895996666035621,14.174902,-1.3479196,1.0387076,0.0032885745,9.88931,-10.029733,1.8665223,-0.42794475,0.21921922,-0.29173908,-0.8268582,-7.626049,4.6744504,-0.9447412,-0.033517584,-0.7335649,-0.28959966,0
0.7800000000000005,13.187802408982074,-0.033517583806098684,-0.7335648943522218,-0.2895996666035621,14.174902,-1.3479196,1.0387076,0.0032885745,9.812976,-9.982547,1.8570688,-0.43017206,0.2166789,-0.2897112,-0.8270851,-7.640748,4.7626004,-0.9458608,-0.033517584,-0.7335649,-0.28959966,0
0.7900000000000005,13.187802408982074,-0.033517583806098684,-0.7335648943522218,-0.2895996666035621,14.174902,-1.3479196,1.0387076,0.0032885745,9.736498,-9.934482,1.8476071,-0.4323926,0.21413521,-0.2876788,-0.82729906,-7.6549644,4.850164,-0.946379,-0.033517584,-0.7335649,-0.28959966,0
0.8000000000000005,13.296850562729409,0.01523618508679285,-0.5840899906826922,-0.22818138447136505,14.086487,-0.91538966,1.0195487,-0.09655519,9.659878,-9.885545,1.8381433,-0.43460643,0.21158819,-0.2856419,-0.82750016,-7.6687016,4.937135,-0.9463003,-0.033517584,-0.7335649,-0.28959966,0
0.8100000000000005,13.296850562729409,0.01523618508679285,-0.5840899906826922,-0.22818138447136505,14.086487,-0.91538966,1.0195487,-0.09655519,9.583124,-9.835738,1.8286872,-0.43639868,0.20946327,-0.28419292,-0.8275964,-7.682089,5.024278,-0.94486403,0.015236185,-0.58409,-0.22818138,0
0.8200000000000005,13.296850562729409,0.01523618508679285,-0.5840899906826922,-0.22818138447136505,14.086487,-0.91538966,1.0195487,-0.09655519,9.506239,-9.785062,1.8192477,-0.43818665,0.20733628,-0.2827411,-0.8276845,-7.6950464,5.1109624,-0.94297135,0.015236185,-0.58409,-0.22818138,0
0.8300000000000005,13.296850562729409,0.01523618508679285,-0.5840899906826922,-0.22818138447136505,14.086487,-0.91538966,1.0195487,-0.09655519,9.429225,-9.733521,1.8098294,-0.4399703,0.20520726,-0.2812865,-0.8277645,-7.7075753,5.197184,-0.94062513,0.015236185,-0.58409,-0.22818138,0
0.8400000000000005,13.296850562729409,0.01523618508679285,-0.5840899906826922,-0.22818138447136505,13.8288355,-0.6949464,0.8409818,-0.10345976,9.352088,-9.68112,1.8004369,-0.4417497,0.20307621,-0.27982917,-0.82783633,-7.7196755,5.282939,-0.93782824,0.015236185,-0.58409,-0.22818138,0
0.8500000000000005,13.296850562729409,0.01523618508679285,-0.5840899906826922,-0.22818138447136505,13.8288355,-0.6949464,0.8409818,-0.10345976,9.274833,-9.627863,1.7910744,-0.4435247,0.20094317,-0.27836907,-0.8279,-7.73135,5.368224,-0.9345835,0.015236185,-0.58409,-0.22818138,0
0.8600000000000005,13.296850562729409,0.01523618508679285,-0.5840899906826922,-0.22818138447136505,13.8288355,-0.6949464,0.8409818,-0.10345976,9.197463,-9.573756,1.7817467,-0.44529533,0.19880815,-0.27690622,-0.82795554,-7.7425985,5.4530354,-0.93089396,0.015236185,-0.58409,-0.22818138,0
0.8700000000000006,13.296850562729409,0.01523618508679285,-0.5840899906826922,-0.22818138447136505,13.8288355,-0.6949464,0.8409818,-0.10345976,9.119982,-9.518805,1.7724581,-0.4470616,0.19667117,-0.27544063,-0.828003,-7.7534227,5.5373693,-0.9267625,0.015236185,-0.58409,-0.22818138,0
0.8800000000000006,13.31663132063569,0.0293874250954431,-0.6398657938632013,-0.17476717363188307,13.538345,-0.2115244,1.1007476,-0.0005262662,9.042396,-9.463013,1.7632129,-0.44882345,0.19453226,-0.27397236,-0.8280422,-7.7638235,5.6212215,-0.9221922,0.015236185,-0.58409,-0.22818138,0
0.8900000000000006,13.31663132063569,0.0293874250954431,-0.6398657938632013,-0.17476717363188307,13.538345,-0.2115244,1.1007476,-0.0005262662,8.964707,-9.406383,1.7540165,-0.45044965,0.19205548,-0.2724866,-0.8282276,-7.773796,5.7046976,-0.91701883,0.029387426,-0.6398658,-0.17476717,0
0.9000000000000006,13.31663132063569,0.0293874250954431,-0.6398657938632013,-0.17476717363188307,13.538345,-0.2115244,1.1007476,-0.0005262662,8.886922,-9.34892,1.7448742,-0.4520709,0.18957657,-0.27099782,-0.82840383,-7.783292,5.787646,-0.9113756,0.029387426,-0.6398658,-0.17476717,0
0.9100000000000006,13.31663132063569,0.0293874250954431,-0.6398657938632013,-0.17476717363188307,13.538345,-0.2115244,1.1007476,-0.0005262662,8.809045,-9.290631,1.7357907,-0.45368713,0.18709557,-0.26950607,-0.8285709,-7.792311,5.8700604,-0.9052663,0.029387426,-0.6398658,-0.17476717,0
0.9200000000000006,13.474150528427023,-0.022606214668622327,-0.462728664740414,-0.1231041517676995,13.257176,0.175559,0.7287752,0.055472787,8.731078,-9.231521,1.7267705,-0.4552984,0.1846125,-0.26801133,-0.82872885,-7.8008556,5.951939,-0.8986949,0.029387426,-0.6398658,-0.17476717,0
0.9300000000000006,13.474150528427023,-0.022606214668622327,-0.462728664740414,-0.1231041517676995,13.257176,0.175559,0.7287752,0.055472787,8.6530285,-9.171588,1.7178245,-0.45640638,0.18291102,-0.26674986,-0.82890373,-7.80909,6.034286,-0.8904633,-0.022606215,-0.46272868,-0.123104155,0
0.9400000000000006,13.474150528427023,-0.022606214668622327,-0.462728664740414,-0.1231041517676995,13.257176,0.175559,0.7287752,0.055472787,8.574898,-9.110836,1.7089624,-0.45751175,0.18120849,-0.26548687,-0.82907385,-7.8170285,6.116209,-0.8818822,-0.022606215,-0.46272868,-0.123104155,0
0.9500000000000006,13.474150528427023,-0.022606214668622327,-0.462728664740414,-0.1231041517676995,13.257176,0.175559,0.7287752,0.055472787,8.496691,-9.049266,1.700188,-0.4586145,0.17950492,-0.26422235,-0.8292392,-7.8246713,6.197706,-0.87295365,-0.022606215,-0.46272868,-0.123104155,0
0.9600000000000006,13.592446666193212,-0.07588182083517256,-0.5091861167946732,-0.07364627100113742,13.395709,0.43056187,0.7655275,0.033197083,8.418407,-8.986882,1.6915047,-0.45971462,0.17780031,-0.2629563,-0.82939976,-7.832019,6.2787747,-0.86367977,-0.022606215,-0.46272868,-0.123104155,0
0.9700000000000006,13.592446666193212,-0.07588182083517256,-0.5091861167946732,-0.07364627100113742,13.395709,0.43056187,0.7655275,0.033197083,8.340051,-8.923687,1.6829206,-0.4606205,0.1759594,-0.26140484,-0.82978004,-7.8391457,6.360093,-0.85309696,-0.075881824,-0.5091861,-0.07364627,0
0.9800000000000006,13.592446666193212,-0.07588182083517256,-0.5091861167946732,-0.07364627100113742,13.395709,0.43056187,0.7655275,0.033197083,8.261624,-8.859682,1.6744442,-0.46152326,0.17411728,-0.25985163,-0.83015484,-7.8460054,6.440901,-0.8421171,-0.075881824,-0.5091861,-0.07364627,0
0.9900000000000007,13.592446666193212,-0.07588182083517256,-0.5091861167946732,-0.07364627100113742,13.395709,0.43056187,0.7655275,0.033197083,8.183131,-8.79487,1.6660796,-0.46242288,0.17227398,-0.25829667,-0.8305239,-7.852598,6.5211964,-0.8307427,-0.075881824,-0.5091861,-0.07364627,0
1.0000000000000007,13.830879289770044,-0.17634983275874155,-0.2475880743904599,-0.032107535852838515,13.741762,0.42815492,0.45641762,0.042692933,8.104573,-8.7292595,1.6578308,-0.4633194,0.1704295,-0.25673997,-0.8308875,-7.858924,6.6009765,-0.81897694,-0.075881824,-0.5091861,-0.07364627,1
1.0100000000000007,13.830879289770044,-0.17634983275874155,-0.2475880743904599,-0.032107535852838515,13.741762,0.42815492,0.45641762,0.042692933,8.025952,-8.6628475,1.6497066,-0.4629187,0.17127815,-0.25961116,-0.83004373,-7.8650813,6.681564,-0.80594045,0.42815492,0.45641762,0.042692933,1
1.0200000000000007,13.830879289770044,-0.17634983275874155,-0.2475880743904599,-0.032107535852838515,13.741762,0.42815492,0.45641762,0.042692933,7.9472713,-8.595626,1.6417104,-0.46251345,0.1721251,-0.2624798,-0.82919186,-7.871057,6.7628345,-0.7933928,0.42815492,0.45641762,0.042692933,1
1.0300000000000007,13.830879289770044,-0.17634983275874155,-0.2475880743904599,-0.032107535852838515,13.741762,0.42815492,0.45641762,0.042692933,7.868531,-8.527589,1.633837,-0.46210366,0.17297038,-0.26534587,-0.82833177,-7.8768497,6.8447857,-0.78133833,0.42815492,0.45641762,0.042692933,1
1.0400000000000007,13.830879289770044,-0.17634983275874155,-0.2475880743904599,-0.032107535852838515,14.313947,0.2876052,0.30019578,0.047621813,7.7897344,-8.458729,1.6260818,-0.46168932,0.17381395,-0.26820934,-0.82746357,-7.882459,6.927414,-0.76978135,0.42815492,0.45641762,0.042692933,1
1.0500000000000007,13.830879289770044,-0.17634983275874155,-0.2475880743904599,-0.032107535852838515,14.313947,0.2876052,0.30019578,0.047621813,7.710881,-8.389021,1.6184627,-0.46133867,0.17432779,-0.27013302,-0.8269251,-7.8881335,7.0140963,-0.7541148,0.2876052,0.30019578,0.047621813,1
1.0600000000000007,13.830879289770044,-0.17634983275874155,-0.2475880743904599,-0.032107535852838515,14.313947,0.2876052,0.30019578,0.047621813,7.631972,-8.318443,1.6109984,-0.460986,0.17484087,-0.2720555,-0.826383,-7.893676,7.1012425,-0.7387967,0.2876052,0.30019578,0.047621813,1
1.0700000000000007,13.830879289770044,-0.17634983275874155,-0.2475880743904599,-0.032107535852838515,14.313947,0.2876052,0.30019578,0.047621813,7.5530086,-8.246994,1.6036855,-0.46063128,0.17535318,-0.2739768,-0.82583725,-7.8990865,7.1888514,-0.7238291,0.2876052,0.30019578,0.047621813,1
1.0800000000000007,13.943859319414575,-0.5920349095709723,-1.069704442907017,-0.0010677271015488512,15.213518,-0.35206532,0.092636764,0.0011257362,7.473992,-8.174665,1.5965207,-0.46027458,0.17586473,-0.2758969,-0.82528794,-7.904365,7.276921,-0.70921385,0.2876052,0.30019578,0.047621813,0
1.0900000000000007,13.943859319414575,-0.5920349095709723,-1.069704442907017,-0.0010677271015488512,15.213518,-0.35206532,0.092636764,0.0011257362,7.3949227,-8.101467,1.5894872,-0.4612254,0.17281136,-0.27098605,-0.8270274,-7.9094043,7.36249,-0.6973348,-0.59203494,-1.0697044,-0.0010677271,0
1.1000000000000008,13.943859319414575,-0.5920349095709723,-1.069704442907017,-0.0010677271015488512,15.213518,-0.35206532,0.092636764,0.0011257362,7.315804,-8.027419,1.5825777,-0.462159,0.16975152,-0.26606503,-0.8287359,-7.9143825,7.44671,-0.6844162,-0.59203494,-1.0697044,-0.0010677271,0
1.1100000000000008,13.943859319414575,-0.5920349095709723,-1.069704442907017,-0.0010677271015488512,15.213518,-0.35206532,0.092636764,0.0011257362,7.2366357,-7.952537,1.5758024,-0.46307534,0.16668536,-0.26113412,-0.8304134,-7.9192996,7.5295677,-0.6704744,-0.59203494,-1.0697044,-0.0010677271,0
1.1200000000000008,14.083104455431048,-0.9036083629673594,-1.377316727332056,0.038818052170839314,15.623335,-0.7979406,-0.37695566,-0.040022604,7.1574183,-7.876833,1.5691715,-0.4639744,0.16361298,-0.25619343,-0.8320599,-7.9241548,7.6110506,-0.65552634,-0.59203494,-1.0697044,-0.0010677271,0
1.1300000000000008,14.083104455431048,-0.9036083629673594,-1.377316727332056,0.038818052170839314,15.623335,-0.7979406,-0.37695566,-0.040022604,7.078152,-7.8003173,1.5627012,-0.4648222,0.15992394,-0.24926212,-0.83440596,-7.929052,7.691762,-0.6383235,-0.9036084,-1.3773167,0.038818054,0
1.1400000000000008,14.083104455431048,-0.9036083629673594,-1.377316727332056,0.038818052170839314,15.623335,-0.7979406,-0.37695566,-0.040022604,6.998837,-7.7230043,1.5564096,-0.4656385,0.15622407,-0.24231386,-0.8366954,-7.9340353,7.770561,-0.61980945,-0.9036084,-1.3773167,0.038818054,0
1.1500000000000008,14.083104455431048,-0.9036083629673594,-1.377316727332056,0.038818052170839314,15.623335,-0.7979406,-0.37695566,-0.040022604,6.9194717,-7.644913,1.5503094,-0.46642318,0.15251358,-0.23534915,-0.838928,-7.939103,7.8474274,-0.6000158,-0.9036084,-1.3773167,0.038818054,0
1.1600000000000008,14.077555227080202,-0.870926392274039,-1.0836445439140112,0.10709681611487545,15.588545,-1.3211786,0.2921799,-0.054590676,6.840055,-7.5660625,1.5444136,-0.4671762,0.14879273,-0.22836846,-0.8411036,-7.944253,7.9223394,-0.5789746,-0.9036084,-1.3773167,0.038818054,0
1.1700000000000008,14.077555227080202,-0.870926392274039,-1.0836445439140112,0.10709681611487545,15.588545,-1.3211786,0.2921799,-0.054590676,6.7605863,-7.486473,1.5387337,-0.46730384,0.14614396,-0.22224867,-0.8431339,-7.9495463,7.995368,-0.5568404,-0.8709264,-1.0836445,0.10709681,0
1.1800000000000008,14.077555227080202,-0.870926392274039,-1.0836445439140112,0.10709681611487545,15.588545,-1.3211786,0.2921799,-0.054590676,6.681063,-7.406161,1.5332803,-0.4674088,0.14348806,-0.21611808,-0.8451234,-7.9550915,8.066726,-0.5337186,-0.8709264,-1.0836445,0.10709681,0
1.1900000000000008,14.077555227080202,-0.870926392274039,-1.0836445439140112,0.10709681611487545,15.588545,-1.3211786,0.2921799,-0.054590676,6.601484,-7.325144,1.5280627,-0.46749103,0.1408252,-0.209977,-0.84707165,-7.9608855,8.136399,-0.50963223,-0.8709264,-1.0836445,0.10709681,0
1.2000000000000008,14.05423574382675,-0.7924389261561455,-0.7154111737893031,0.16134960494852546,15.366927,-1.426988,0.32996175,-0.043843776,6.5218444,-7.2434387,1.5230908,-0.46755055,0.13815548,-0.2038257,-0.84897876,-7.966926,8.204374,-0.48460478,-0.8709264,-1.0836445,0.10709681,0
1.2100000000000009,14.05423574382675,-0.7924389261561455,-0.7154111737893031,0.16134960494852546,15.366927,-1.426988,0.32996175,-0.043843776,6.4421434,-7.1610622,1.5183725,-0.4670405,0.13680471,-0.19889793,-0.8506453,-7.9732647,8.270692,-0.4589557,-0.7924389,-0.7154112,0.16134961,0
1.2200000000000009,14.05423574382675,-0.7924389261561455,-0.7154111737893031,0.16134960494852546,15.366927,-1.426988,0.32996175,-0.043843776,6.362377,-7.078029,1.5139139,-0.46651688,0.13544996,-0.19396439,-0.85228705,-7.98002,8.335727,-0.43264955,-0.7924389,-0.7154112,0.16134961,0
1.2300000000000009,14.05423574382675,-0.7924389261561455,-0.7154111737893031,0.16134960494852546,15.366927,-1.426988,0.32996175,-0.043843776,6.2825413,-6.9943523,1.5097216,-0.46597967,0.13409127,-0.18902518,-0.853904,-7.98719,8.39947,-0.40570012,-0.7924389,-0.7154112,0.16134961,0
1.2400000000000009,14.05423574382675,-0.7924389261561455,-0.7154111737893031,0.16134960494852546,15.550806,-1.2527251,0.31521165,-0.024108896,6.2026315,-6.910044,1.505802,-0.46542886,0.13272867,-0.18408047,-0.8554961,-7.994769,8.461914,-0.37812123,-0.7924389,-0.7154112,0.16134961,0
1.2500000000000009,14.05423574382675,-0.7924389261561455,-0.7154111737893031,0.16134960494852546,15.550806,-1.2527251,0.31521165,-0.024108896,6.122644,-6.825118,1.5021614,-0.46486446,0.13136218,-0.17913038,-0.85706323,-8.002757,8.523052,-0.34992677,-0.7924389,-0.7154112,0.16134961,0
1.260000000000001,14.05423574382675,-0.7924389261561455,-0.7154111737893031,0.16134960494852546,15.550806,-1.2527251,0.31521165,-0.024108896,6.0425744,-6.7395873,1.4988056,-0.46428654,0.12999187,-0.17417505,-0.8586054,-8.0111475,8.582877,-0.3211308,-0.7924389,-0.7154112,0.16134961,0
1.270000000000001,14.05423574382675,-0.7924389261561455,-0.7154111737893031,0.16134960494852546,15.550806,-1.2527251,0.31521165,-0.024108896,5.962419,-6.653465,1.4957408,-0.46369508,0.12861778,-0.16921467,-0.86012256,-8.019939,8.64138,-0.29174733,-0.7924389,-0.7154112,0.16134961,0
1.280000000000001,13.867277821908433,-0.7248163024329006,-0.7247017994599912,0.20408173532631305,15.535856,-1.0655124,-0.018827498,-0.004066594,5.882174,-6.566764,1.4929727,-0.46309012,0.12723994,-0.16424935,-0.86161464,-8.029129,8.698556,-0.26179048,-0.7924389,-0.7154112,0.16134961,0
1.290000000000001,13.867277821908433,-0.7248163024329006,-0.7247017994599912,0.20408173532631305,15.535856,-1.0655124,-0.018827498,-0.004066594,5.801836,-6.4795012,1.4904984,-0.46233863,0.12562682,-0.15957639,-0.8631317,-8.038552,8.753667,-0.23298931,-0.7248163,-0.7247018,0.20408173,0
1.300000000000001,13.867277821908433,-0.7248163024329006,-0.7247017994599912,0.20408173532631305,15.535856,-1.0655124,-0.018827498,-0.004066594,5.721402,-6.391694,1.4883147,-0.4615745,0.124010265,-0.15489909,-0.8646252,-8.048276,8.807493,-0.20366016,-0.7248163,-0.7247018,0.20408173,0
1.310000000000001,13.867277821908433,-0.7248163024329006,-0.7247017994599912,0.20408173532631305,15.535856,-1.0655124,-0.018827498,-0.004066594,5.640869,-6.303355,1.486427,-0.4607978,0.12239033,-0.15021755,-0.8660951,-8.058294,8.860027,-0.17381601,-0.7248163,-0.7247018,0.20408173,0
1.320000000000001,13.651849857655463,-0.676864733076402,-0.5295440252562884,0.23250756810264564,15.359976,-0.9846032,-0.09618869,0.057836246,5.560235,-6.2144976,1.48484,-0.46000847,0.12076706,-0.1455319,-0.8675414,-8.0686035,8.911264,-0.14346988,-0.7248163,-0.7247018,0.20408173,0
1.330000000000001,13.651849857655463,-0.676864733076402,-0.5295440252562884,0.23250756810264564,15.359976,-0.9846032,-0.09618869,0.057836246,5.479497,-6.125138,1.483549,-0.458972,0.11985648,-0.14151686,-0.86887985,-8.079071,8.960512,-0.11467522,-0.67686474,-0.529544,0.23250757,0
1.340000000000001,13.651849857655463,-0.676864733076402,-0.5295440252562884,0.23250756810264564,15.359976,-0.9846032,-0.09618869,0.057836246,5.398652,-6.035291,1.4825479,-0.45792642,0.118943535,-0.137499,-0.8702012,-8.08991,9.008712,-0.085509375,-0.67686474,-0.529544,0.23250757,0
1.350000000000001,13.651849857655463,-0.676864733076402,-0.5295440252562884,0.23250756810264564,15.359976,-0.9846032,-0.09618869,0.057836246,5.317697,-5.9449673,1.4818401,-0.45687172,0.11802823,-0.13347843,-0.87150514,-8.101117,9.055857,-0.05598127,-0.67686474,-0.529544,0.23250757,0
1.360000000000001,13.308019172868534,-0.6095538922139876,-0.8496057201939291,0.26693591862178456,15.037494,-0.9302499,-0.32882944,0.07381958,5.236628,-5.854178,1.4814295,-0.45580795,0.11711059,-0.12945521,-0.8727919,-8.112688,9.101944,-0.02609982,-0.67686474,-0.529544,0.23250757,0
1.370000000000001,13.308019172868534,-0.6095538922139876,-0.8496057201939291,0.26693591862178456,15.037494,-0.9302499,-0.32882944,0.07381958,5.1554437,-5.7629385,1.4813032,-0.45482942,0.11461767,-0.12501329,-0.87427956,-8.124203,9.145732,0.0009410428,-0.6095539,-0.84960574,0.2669359,0
1.380000000000001,13.308019172868534,-0.6095538922139876,-0.8496057201939291,0.26693591862178456,15.037494,-0.9302499,-0.32882944,0.07381958,5.074144,-5.671268,1.4814497,-0.45383766,0.11212141,-0.12056774,-0.8757418,-8.135754,9.188203,0.028431496,-0.6095539,-0.84960574,0.2669359,0
1.390000000000001,13.308019172868534,-0.6095538922139876,-0.8496057201939291,0.26693591862178456,15.037494,-0.9302499,-0.32882944,0.07381958,4.992728,-5.5791793,1.4818733,-0.45283267,0.10962188,-0.116118684,-0.8771785,-8.147335,9.229353,0.056358136,-0.6095539,-0.84960574,0.2669359,0
1.400000000000001,13.033878825001848,-0.5603473519398124,-0.5673730729923233,0.277910328360042,14.491952,-1.0028082,-0.5823211,0.08191344,4.9111967,-5.4866858,1.4825784,-0.4518145,0.10711917,-0.11166625,-0.8785897,-8.158942,9.2691765,0.08470753,-0.6095539,-0.84960574,0.2669359,0
1.410000000000001,13.033878825001848,-0.5603473519398124,-0.5673730729923233,0.277910328360042,14.491952,-1.0028082,-0.5823211,0.08191344,4.82955,-5.393804,1.4835558,-0.4506063,0.10573648,-0.10807079,-0.8798264,-8.17039,9.306999,0.11081128,-0.5603474,-0.5673731,0.27791032,0
1.420000000000001,13.033878825001848,-0.5603473519398124,-0.5673730729923233,0.277910328360042,14.491952,-1.0028082,-0.5823211,0.08191344,4.747788,-5.300549,1.4847957,-0.44939005,0.1043519,-0.10447341,-0.8810475,-8.182011,9.343835,0.13719487,-0.5603474,-0.5673731,0.27791032,0
1.430000000000001,13.033878825001848,-0.5603473519398124,-0.5673730729923233,0.277910328360042,14.491952,-1.0028082,-0.5823211,0.08191344,4.6659093,-5.2069306,1.4863007,-0.4481658,0.10296547,-0.10087418,-0.8822528,-8.1938,9.3796835,0.16385078,-0.5603474,-0.5673731,0.27791032,0
1.440000000000001,13.033878825001848,-0.5603473519398124,-0.5673730729923233,0.277910328360042,14.207778,-0.7901131,-0.5897136,0.1983394,4.5839114,-5.1129584,1.4880736,-0.44693357,0.10157719,-0.09727314,-0.8834424,-8.205757,9.41454,0.19077146,-0.5603474,-0.5673731,0.27791032,0
1.450000000000001,13.033878825001848,-0.5603473519398124,-0.5673730729923233,0.277910328360042,14.207778,-0.7901131,-0.5897136,0.1983394,4.5017934,-5.018643,1.490117,-0.44569334,0.10018711,-0.09367037,-0.88461626,-8.217877,9.448403,0.2179493,-0.5603474,-0.5673731,0.27791032,0
1.460000000000001,13.033878825001848,-0.5603473519398124,-0.5673730729923233,0.277910328360042,14.207778,-0.7901131,-0.5897136,0.1983394,4.4195538,-4.9239936,1.4924334,-0.4444452,0.098795235,-0.09006593,-0.8857744,-8.230156,9.48127,0.24537674,-0.5603474,-0.5673731,0.27791032,0
1.470000000000001,13.033878825001848,-0.5603473519398124,-0.5673730729923233,0.277910328360042,14.207778,-0.7901131,-0.5897136,0.1983394,4.33719,-4.829021,1.4950253,-0.4431891,0.097401604,-0.086459875,-0.88691664,-8.242592,9.513138,0.27304617,-0.5603474,-0.5673731,0.27791032,0
1.480000000000001,12.620610176912052,-0.4640220960349738,-0.965487687797556,0.2861072300673244,13.431465,-0.5032276,-0.97863364,0.15419479,4.254701,-4.733734,1.497895,-0.44192514,0.09600624,-0.08285228,-0.8880431,-8.255179,9.544004,0.30094993,-0.5603474,-0.5673731,0.27791032,1
1.490000000000001,12.620610176912052,-0.4640220960349738,-0.965487687797556,0.2861072300673244,13.431465,-0.5032276,-0.97863364,0.15419479,4.172084,-4.63814,1.5010643,-0.44139752,0.09270749,-0.07852819,-0.88904834,-8.268157,9.574636,0.3329788,-0.5032276,-0.97863364,0.15419479,1
1.500000000000001,12.620610176912052,-0.4640220960349738,-0.965487687797556,0.2861072300673244,13.431465,-0.5032276,-0.97863364,0.15419479,4.089339,-4.542247,1.5045558,-0.44085625,0.08940589,-0.07420167,-0.89002615,-8.280896,9.603851,0.36535648,-0.5032276,-0.97863364,0.15419479,1
1.5100000000000011,12.620610176912052,-0.4640220960349738,-0.965487687797556,0.2861072300673244,13.431465,-0.5032276,-0.97863364,0.15419479,4.0064673,-4.4460683,1.5083728,-0.4403014,0.086101525,-0.06987288,-0.8909765,-8.293393,9.631647,0.39806727,-0.5032276,-0.97863364,0.15419479,1
1.5200000000000011,12.106092245281236,-0.31292218821115125,-1.049531272583672,0.29570688195091255,13.102352,-0.48059377,-0.76609594,0.12429686,3.923472,-4.349619,1.5125183,-0.43973294,0.08279451,-0.065541916,-0.8918993,-8.305644,9.658021,0.4310955,-0.5032276,-0.97863364,0.15419479,1
1.5300000000000011,12.106092245281236,-0.31292218821115125,-1.049531272583672,0.29570688195091255,13.102352,-0.48059377,-0.76609594,0.12429686,3.8403568,-4.2529154,1.5169796,-0.43922615,0.08039319,-0.06176511,-0.8926379,-8.317405,9.6824465,0.4611836,-0.48059377,-0.76609594,0.12429686,1
1.5400000000000011,12.106092245281236,-0.31292218821115125,-1.049531272583672,0.29570688195091255,13.102352,-0.48059377,-0.76609594,0.12429686,3.7571244,-4.155974,1.5217429,-0.43871024,0.0779902,-0.057987016,-0.89335793,-8.3290615,9.705712,0.49149647,-0.48059377,-0.76609594,0.12429686,1
1.5500000000000012,12.106092245281236,-0.31292218821115125,-1.049531272583672,0.29570688195091255,13.102352,-0.48059377,-0.76609594,0.12429686,3.673776,-4.058805,1.5268103,-0.4381852,0.07558557,-0.054207712,-0.89405936,-8.340614,9.7278185,0.52202374,-0.48059377,-0.76609594,0.12429686,1
1.5600000000000012,11.343283292155926,-0.08171739056411476,-1.38447120203803,0.3099793936618608,13.59698,-0.2603588,-1.447933,0.32892463,3.5903122,-3.961421,1.532184,-0.43765098,0.07317937,-0.050427277,-0.8947422,-8.352057,9.748761,0.55275494,-0.48059377,-0.76609594,0.12429686,0
1.5700000000000012,11.343283292155926,-0.08171739056411476,-1.38447120203803,0.3099793936618608,13.59698,-0.2603588,-1.447933,0.32892463,3.5067434,-3.8638473,1.5377796,-0.43657234,0.067084506,-0.047144294,-0.8959251,-8.361574,9.765784,0.5663976,-0.08171739,-1.3844712,0.30997938,0
1.5800000000000012,11.343283292155926,-0.08171739056411476,-1.38447120203803,0.3099793936618608,13.59698,-0.2603588,-1.447933,0.32892463,3.423084,-3.7661097,1.5435128,-0.43547168,0.06098626,-0.043858934,-0.8970627,-8.370207,9.781533,0.58029884,-0.08171739,-1.3844712,0.30997938,0
1.5900000000000012,11.343283292155926,-0.08171739056411476,-1.38447120203803,0.3099793936618608,13.59698,-0.2603588,-1.447933,0.32892463,3.3393426,-3.6682212,1.5493864,-0.43434903,0.054884937,-0.040571358,-0.8981551,-8.377951,9.796005,0.59443694,-0.08171739,-1.3844712,0.30997938,0
1.6000000000000012,10.903874377424156,0.07915985865117027,-1.3489574853443351,0.2975905373037706,13.752407,-0.23559551,-1.2892872,0.68665254,3.2555282,-3.5701942,1.5554024,-0.43320447,0.048780844,-0.037281733,-0.8992021,-8.3848,9.809202,0.6087903,-0.08171739,-1.3844712,0.30997938,0
1.6100000000000012,10.903874377424156,0.07915985865117027,-1.3489574853443351,0.2975905373037706,13.752407,-0.23559551,-1.2892872,0.68665254,3.1716511,-3.4720438,1.5615411,-0.4321269,0.042487863,-0.034787476,-0.90013945,-8.390475,9.820714,0.6189703,0.079159856,-1.3489575,0.29759052,0
1.6200000000000012,10.903874377424156,0.07915985865117027,-1.3489574853443351,0.2975905373037706,13.752407,-0.23559551,-1.2892872,0.68665254,3.0877223,-3.3737836,1.5677824,-0.43102866,0.03619285,-0.032291554,-0.90103364,-8.395168,9.83114,0.6293072,0.079159856,-1.3489575,0.29759052,0
1.6300000000000012,10.903874377424156,0.07915985865117027,-1.3489574853443351,0.2975905373037706,13.752407,-0.23559551,-1.2892872,0.68665254,3.0037515,-3.2754247,1.5741279,-0.4299098,0.029896105,-0.029794084,-0.90188473,-8.398874,9.84048,0.6397811,0.079159856,-1.3489575,0.29759052,0
1.6400000000000012,10.903874377424156,0.07915985865117027,-1.3489574853443351,0.2975905373037706,13.577491,-0.4674049,-1.121452,0.7200652,2.9197483,-3.1769779,1.5805786,-0.42877033,0.023597928,-0.02729519,-0.9026927,-8.401588,9.848737,0.65037215,0.079159856,-1.3489575,0.29759052,0
1.6500000000000012,10.903874377424156,0.07915985865117027,-1.3489574853443351,0.2975905373037706,13.577491,-0.4674049,-1.121452,0.7200652,2.8357232,-3.0784538,1.5871356,-0.42761037,0.017298622,-0.02479499,-0.90345746,-8.403308,9.85591,0.6610603,0.079159856,-1.3489575,0.29759052,0
1.6600000000000013,10.903874377424156,0.07915985865117027,-1.3489574853443351,0.2975905373037706,13.577491,-0.4674049,-1.121452,0.7200652,2.7516856,-2.9798634,1.5938,-0.4264299,0.010998488,-0.022293603,-0.904179,-8.404029,9.862003,0.6718254,0.079159856,-1.3489575,0.29759052,0
1.6700000000000013,10.903874377424156,0.07915985865117027,-1.3489574853443351,0.2975905373037706,13.577491,-0.4674049,-1.121452,0.7200652,2.6676457,-2.8812172,1.6005723,-0.42522904,0.0046978276,-0.019791149,-0.9048572,-8.4037485,9.867018,0.68264765,0.079159856,-1.3489575,0.29759052,0
1.6800000000000013,10.574373575565302,0.1756575511263161,-1.1771057727943013,0.2752773499182249,14.721659,-0.57664365,-1.8192625,0.8405825,2.5836139,-2.7825265,1.607453,-0.42400783,-0.001603058,-0.017287748,-0.9054921,-8.402463,9.8709545,0.69350696,0.079159856,-1.3489575,0.29759052,0
1.6900000000000013,10.574373575565302,0.1756575511263161,-1.1771057727943013,0.2752773499182249,14.721659,-0.57664365,-1.8192625,0.8405825,2.4995995,-2.683802,1.614426,-0.42285395,-0.007328488,-0.015585001,-0.90603423,-8.400253,9.873808,0.70108855,0.17565756,-1.1771058,0.27527735,0
1.7000000000000013,10.574373575565302,0.1756575511263161,-1.1771057727943013,0.2752773499182249,14.721659,-0.57664365,-1.8192625,0.8405825,2.415612,-2.5850532,1.6214749,-0.42168432,-0.013053645,-0.013881673,-0.90654254,-8.397102,9.875826,0.70866543,0.17565756,-1.1771058,0.27527735,0
1.7100000000000013,10.574373575565302,0.1756575511263161,-1.1771057727943013,0.2752773499182249,14.721659,-0.57664365,-1.8192625,0.8405825,2.3316607,-2.4862883,1.6285993,-0.42049897,-0.018778313,-0.012177828,-0.907017,-8.393008,9.877011,0.7162226,0.17565756,-1.1771058,0.27527735,0
1.7200000000000013,10.20995515067949,0.2643129735265544,-0.45095884938496444,0.272509545909859,14.2592,-0.5785337,-1.6368744,0.95231074,2.2477553,-2.3875158,1.6357992,-0.41929787,-0.024502283,-0.010473529,-0.9074576,-8.387969,9.877367,0.723745,0.17565756,-1.1771058,0.27527735,0
1.7300000000000013,10.20995515067949,0.2643129735265544,-0.45095884938496444,0.272509545909859,14.2592,-0.5785337,-1.6368744,0.95231074,2.1639032,-2.2887433,1.6430558,-0.41805086,-0.027116703,-0.010693932,-0.9079559,-8.382344,9.877144,0.7275891,0.26431298,-0.45095885,0.27250955,0
1.7400000000000013,10.20995515067949,0.2643129735265544,-0.45095884938496444,0.272509545909859,14.2592,-0.5785337,-1.6368744,0.95231074,2.08011,-2.1899736,1.6503509,-0.41680017,-0.029730886,-0.010914241,-0.90844625,-8.376216,9.876747,0.7314036,0.26431298,-0.45095885,0.27250955,0
1.7500000000000013,10.20995515067949,0.2643129735265544,-0.45095884938496444,0.272509545909859,14.2592,-0.5785337,-1.6368744,0.95231074,1.9963807,-2.0912087,1.6576838,-0.41554588,-0.032344814,-0.011134456,-0.90892875,-8.369584,9.876177,0.73518574,0.26431298,-0.45095885,0.27250955,0
1.7600000000000013,9.87217703362635,0.2967495100918455,-0.22076284181070452,0.286576728091627,14.340891,-0.56253797,-1.3721977,0.6307441,1.9127201,-1.9924504,1.6650546,-0.41428798,-0.034958456,-0.011354574,-0.9094034,-8.362448,9.875435,0.73893267,0.26431298,-0.45095885,0.27250955,0
1.7700000000000014,9.87217703362635,0.2967495100918455,-0.22076284181070452,0.286576728091627,14.340891,-0.56253797,-1.3721977,0.6307441,1.8291321,-1.8937001,1.6724455,-0.41294444,-0.03659314,-0.012196479,-0.9099391,-8.355105,9.874625,0.73927766,0.2967495,-0.22076285,0.28657672,0
1.7800000000000014,9.87217703362635,0.2967495100918455,-0.22076284181070452,0.286576728091627,14.340891,-0.56253797,-1.3721977,0.6307441,1.7456193,-1.7949576,1.67984,-0.41159865,-0.03822762,-0.013038318,-0.91046983,-8.347401,9.873843,0.7395952,0.2967495,-0.22076285,0.28657672,0
1.7900000000000014,9.87217703362635,0.2967495100918455,-0.22076284181070452,0.286576728091627,14.340891,-0.56253797,-1.3721977,0.6307441,1.6621853,-1.6962228,1.6872374,-0.4102506,-0.0398619,-0.013880085,-0.91099554,-8.339333,9.873092,0.7398838,0.2967495,-0.22076285,0.28657672,0
1.8000000000000014,9.592153275261378,0.22332471567515808,0.11019613499932912,0.33053951399856063,13.889393,-0.61694795,-1.3412619,0.5474967,1.5788338,-1.5974956,1.6946375,-0.40890032,-0.041495956,-0.014721775,-0.9115163,-8.330902,9.872371,0.74014217,0.2967495,-0.22076285,0.28657672,0
1.8100000000000014,9.592153275261378,0.22332471567515808,0.11019613499932912,0.33053951399856063,13.889393,-0.61694795,-1.3412619,0.5474967,1.495567,-1.4987751,1.7020261,-0.40733853,-0.041474555,-0.01589628,-0.9121965,-8.322457,9.871774,0.7375893,0.22332472,0.110196136,0.33053952,0
1.8200000000000014,9.592153275261378,0.22332471567515808,0.11019613499932912,0.33053951399856063,13.889393,-0.61694795,-1.3412619,0.5474967,1.412385,-1.4000593,1.7093892,-0.405775,-0.041452985,-0.017070716,-0.9128729,-8.313924,9.871398,0.7350297,0.22332472,0.110196136,0.33053952,0
1.8300000000000014,9.592153275261378,0.22332471567515808,0.11019613499932912,0.33053951399856063,13.889393,-0.61694795,-1.3412619,0.5474967,1.3292887,-1.3013462,1.7167268,-0.40420973,-0.041431237,-0.018245079,-0.9135453,-8.305303,9.8712435,0.7324629,0.22332472,0.110196136,0.33053952,0
1.8400000000000014,9.592153275261378,0.22332471567515808,0.11019613499932912,0.33053951399856063,13.602825,-0.653283,-1.7475057,0.5303726,1.2462791,-1.2026336,1.7240386,-0.40264276,-0.04140931,-0.019419365,-0.91421384,-8.296595,9.871312,0.7298882,0.22332472,0.110196136,0.33053952,0
1.8500000000000014,9.592153275261378,0.22332471567515808,0.11019613499932912,0.33053951399856063,13.602825,-0.653283,-1.7475057,0.5303726,1.1633571,-1.1039191,1.7313246,-0.40107402,-0.041387204,-0.020593565,-0.9148785,-8.2878,9.871603,0.7273053,0.22332472,0.110196136,0.33053952,0
1.8600000000000014,9.592153275261378,0.22332471567515808,0.11019613499932912,0.33053951399856063,13.602825,-0.653283,-1.7475057,0.5303726,1.0805234,-1.0052006,1.7385846,-0.3995036,-0.04136492,-0.021767676,-0.91553915,-8.278919,9.872117,0.72471344,0.22332472,0.110196136,0.33053952,0
1.8700000000000014,9.592153275261378,0.22332471567515808,0.11019613499932912,0.33053951399856063,13.602825,-0.653283,-1.7475057,0.5303726,0.997779,-0.90647596,1.7458189,-0.39793146,-0.041342456,-0.022941697,-0.916196,-8.269955,9.872853,0.72211224,0.22332472,0.110196136,0.33053952,0
1.8800000000000014,9.351965919129997,0.12104418760568975,-0.9969315232675426,0.39948043151491497,14.342698,-0.36767942,-3.420371,0.59683573,0.91512465,-0.8077428,1.753027,-0.3963576,-0.041319814,-0.024115618,-0.9168488,-8.260905,9.873814,0.71950114,0.22332472,0.110196136,0.33053952,0
1.8900000000000015,9.351965919129997,0.12104418760568975,-0.9969315232675426,0.39948043151491497,14.342698,-0.36767942,-3.420371,0.59683573,0.8325608,-0.70899993,1.7601969,-0.3946157,-0.046177417,-0.022611931,-0.91740644,-8.251763,9.8746605,0.71446854,0.12104419,-0.99693155,0.39948043,0
1.9000000000000015,9.351965919129997,0.12104418760568975,-0.9969315232675426,0.39948043151491497,14.342698,-0.36767942,-3.420371,0.59683573,0.7500919,-0.61025155,1.7673162,-0.39286226,-0.051033672,-0.021107582,-0.9179374,-8.2419,9.8749075,0.70936596,0.12104419,-0.99693155,0.39948043,0
1.9100000000000015,9.351965919129997,0.12104418760568975,-0.9969315232675426,0.39948043151491497,14.342698,-0.36767942,-3.420371,0.59683573,0.6677253,-0.51150376,1.774384,-0.39109737,-0.055888437,-0.019602617,-0.91844153,-8.2313175,9.874558,0.70418376,0.12104419,-0.99693155,0.39948043,0
1.9200000000000015,9.082336226414965,-0.0823999306664471,-1.6438090525271212,0.49802026497925855,12.996754,-0.6298179,-2.3849902,0.8014446,0.5854681,-0.41276243,1.7813996,-0.38932103,-0.06074157,-0.01809708,-0.91891885,-8.220012,9.873615,0.6989124,0.12104419,-0.99693155,0.39948043,0
1.9300000000000015,9.082336226414965,-0.0823999306664471,-1.6438090525271212,0.49802026497925855,12.996754,-0.6298179,-2.3849902,0.8014446,0.5033262,-0.3140339,1.7883484,-0.38719222,-0.06817654,-0.014366763,-0.91936255,-8.208228,9.87192,0.6908509,-0.08239993,-1.6438091,0.49802026,0
1.9400000000000015,9.082336226414965,-0.0823999306664471,-1.6438090525271212,0.49802026497925855,12.996754,-0.6298179,-2.3849902,0.8014446,0.42130694,-0.21532792,1.795216,-0.38503477,-0.07560646,-0.010635383,-0.9197383,-8.195464,9.869106,0.68262804,-0.08239993,-1.6438091,0.49802026,0
1.9500000000000015,9.082336226414965,-0.0823999306664471,-1.6438090525271212,0.49802026497925855,12.996754,-0.6298179,-2.3849902,0.8014446,0.33942026,-0.11665561,1.8020004,-0.3828489,-0.08303079,-0.0069032176,-0.92004603,-8.181722,9.865179,0.67421865,-0.08239993,-1.6438091,0.49802026,0
1.9600000000000015,8.951922032518215,-0.2587839839254107,-2.7127537811105586,0.6392501260485751,11.660747,-0.6295821,-0.8035448,0.857488,0.2576759,-0.018028129,1.8086996,-0.3806347,-0.09044898,-0.003170543,-0.9202858,-8.166997,9.860145,0.665598,-0.08239993,-1.6438091,0.49802026,0
1.9700000000000015,8.951922032518215,-0.2587839839254107,-2.7127537811105586,0.6392501260485751,11.660747,-0.6295821,-0.8035448,0.857488,0.17608315,0.08054307,1.8153049,-0.3778161,-0.1024399,0.003472266,-0.9201896,-8.151307,9.853805,0.65540045,-0.258784,-2.7127538,0.6392501,0
1.9800000000000015,8.951922032518215,-0.2587839839254107,-2.7127537811105586,0.6392501260485751,11.660747,-0.6295821,-0.8035448,0.857488,0.09465496,0.17904161,1.821806,-0.3749235,-0.114410765,0.010114395,-0.9199132,-8.134094,9.845611,0.64476347,-0.258784,-2.7127538,0.6392501,0
1.9900000000000015,8.951922032518215,-0.2587839839254107,-2.7127537811105586,0.6392501260485751,11.660747,-0.6295821,-0.8035448,0.857488,0.013406508,0.27744895,1.8281983,-0.37195745,-0.12635922,0.016754543,-0.9194565,-8.115359,9.835578,0.63362074,-0.258784,-2.7127538,0.6392501,0
2.0000000000000013,,,,,11.814745,-1.1330779,-2.497436,0.8496378,-0.067647,0.37574688,1.8344765,-0.36891857,-0.13828291,0.023391413,-0.9188197,-8.095105,9.823725,0.6219064,-0.258784,-2.7127538,0.6392501,0
2.010000000000001,,,,,11.814745,-1.1330779,-2.497436,0.8496378,-0.14849184,0.47391808,1.84063,-0.36523676,-0.1480355,0.030118542,-0.9185752,-8.073682,9.810259,0.6087286,-0.41594982,-2.3125746,0.7989851,0
2.020000000000001,,,,,11.814745,-1.1330779,-2.497436,0.8496378,-0.22911663,0.57194644,1.8466489,-0.3614987,-0.15776528,0.036841035,-0.9181893,-8.051095,9.795165,0.5949739,-0.41594982,-2.3125746,0.7989851,0
2.0300000000000007,,,,,11.814745,-1.1330779,-2.497436,0.8496378,-0.30950972,0.66981584,1.8525273,-0.357705,-0.1674708,0.043557853,-0.9176619,-8.027347,9.778462,0.5805941,-0.41594982,-2.3125746,0.7989851,0
2.0400000000000005,,,,,11.814745,-1.1330779,-2.497436,0.8496378,-0.38965955,0.76751024,1.8582584,-0.3538562,-0.17715052,0.05026797,-0.9169932,-8.002436,9.760168,0.5655413,-0.41594982,-2.3125746,0.7989851,0
2.0500000000000003,,,,,10.796655,-1.2031783,-2.0349383,0.9050671,-0.46955445,0.86501384,1.8638356,-0.34995297,-0.18680297,0.05697034,-0.9161833,-7.9763627,9.740303,0.549768,-0.41594982,-2.3125746,0.7989851,1
2.06,,,,,10.796655,-1.2031783,-2.0349383,0.9050671,-0.5491541,0.9622874,1.8693407,-0.3463231,-0.19374663,0.06688318,-0.91545016,-7.943469,9.714044,0.55108994,-1.2031783,-2.0349383,0.9050671,1
2.07,,,,,10.796655,-1.2031783,-2.0349383,0.9050671,-0.62842166,1.0592867,1.8748546,-0.34263778,-0.20065925,0.0767853,-0.91457045,-7.9099293,9.68547,0.5515536,-1.2031783,-2.0349383,0.9050671,1
2.0799999999999996,,,,,10.796655,-1.2031783,-2.0349383,0.9050671,-0.70735055,1.1559889,1.8803687,-0.33889756,-0.2075397,0.08667513,-0.9135442,-7.8757386,9.654604,0.551099,-1.2031783,-2.0349383,0.9050671,1
2.0899999999999994,,,,,9.664503,-1.0516295,-1.4036391,0.8351327,-0.7859342,1.2523711,1.8858733,-0.33510306,-0.21438693,0.096551076,-0.9123716,-7.8408966,9.621473,0.54966664,-1.2031783,-2.0349383,0.9050671,1
2.099999999999999,,,,,9.664503,-1.0516295,-1.4036391,0.8351327,-0.8641851,1.3484297,1.8913085,-0.33172718,-0.21861477,0.1045908,-0.9117155,-7.8092437,9.589983,0.5372783,-1.0516295,-1.4036391,0.8351327,1
2.109999999999999,,,,,9.664503,-1.0516295,-1.4036391,0.8351327,-0.94211817,1.4441655,1.8966165,-0.32832003,-0.22282198,0.11262067,-0.9109735,-7.777324,9.556963,0.5242123,-1.0516295,-1.4036391,0.8351327,1
2.1199999999999988,,,,,9.664503,-1.0516295,-1.4036391,0.8351327,-1.0197307,1.5395637,1.9017904,-0.3248819,-0.22700816,0.12063991,-0.91014546,-7.745135,9.522427,0.5104392,-1.0516295,-1.4036391,0.8351327,1
2.1299999999999986,,,,,9.020369,-0.7067043,0.025600562,0.87752575,-1.0970199,1.634609,1.9068227,-0.32141316,-0.23117293,0.12864776,-0.9092316,-7.7126718,9.486387,0.49592963,-1.0516295,-1.4036391,0.8351327,1
2.1399999999999983,,,,,9.020369,-0.7067043,0.025600562,0.87752575,-1.1739948,1.7292998,1.9116794,-0.31825203,-0.22935271,0.13283165,-0.9102024,-7.682371,9.451702,0.47538963,-0.7067043,0.025600562,0.87752575,1
