time-since-start [s],throttle_mpc,roll_mpc,pitch_mpc,yaw_mpc,throttle_nw,roll_nw,pitch_nw,yaw_nw,position_x [m],position_y [m],position_z [m],rotation_w [quaternion],rotation_x [quaternion],rotation_y [quaternion],rotation_z [quaternion],velocity_x [m/s],velocity_y [m/s],velocity_z [m/s],omega_x [rad/s],omega_y [rad/s],omega_z [rad/s],network_used
0.0,9.605485910715526,5.999999744320064,-5.999999787485024,1.429031254629993,15.464633,1.024764,-2.869383,-0.21636367,16.407486,-10.884026,2.0842578,-0.2889003,0.37553564,-0.28455848,-0.8333883,-10.724345,-2.1902711,0.5520394,1.7825814,-0.13685831,-0.5242606,0
0.01,9.605485910715526,5.999999744320064,-5.999999787485024,1.429031254629993,15.202836,2.4859073,-4.5630007,-0.47881043,16.300028,-10.905594,2.0895581,-0.30247682,0.33949727,-0.30330718,-0.8374092,-10.765947,-2.123043,0.50844574,5.9999995,-6.0,1.4290313,0
0.02,9.605485910715526,5.999999744320064,-5.999999787485024,1.429031254629993,15.202836,2.4859073,-4.5630007,-0.47881043,16.192192,-10.92648,2.0944362,-0.3154935,0.30283058,-0.32149452,-0.8398802,-10.800102,-2.0538485,0.46750236,5.9999995,-6.0,1.4290313,0
0.03,9.605485910715526,5.999999744320064,-5.999999787485024,1.429031254629993,15.202836,2.4859073,-4.5630007,-0.47881043,16.084051,-10.946667,2.0989156,-0.32792625,0.26560342,-0.33908686,-0.84079677,-10.826555,-1.9831085,0.42871094,5.9999995,-6.0,1.4290313,0
0.04,9.605485910715526,5.999999744320064,-5.999999787485024,1.429031254629993,13.657449,-0.7892262,-2.8082156,-0.3400012,15.975686,-10.966139,2.103016,-0.33975214,0.2278847,-0.35605162,-0.8401572,-10.845107,-1.9112562,0.39155725,5.9999995,-6.0,1.4290313,0
0.05,9.605485910715526,5.999999744320064,-5.999999787485024,1.429031254629993,13.657449,-0.7892262,-2.8082156,-0.3400012,15.867177,-10.98489,2.1067507,-0.35094923,0.18974419,-0.37235743,-0.8379628,-10.855617,-1.8387322,0.35551497,5.9999995,-6.0,1.4290313,0
0.060000000000000005,9.605485910715526,5.999999744320064,-5.999999787485024,1.429031254629993,13.657449,-0.7892262,-2.8082156,-0.3400012,15.758602,-11.002913,2.1101282,-0.3614968,0.1512525,-0.3879741,-0.8342175,-10.858004,-1.7659824,0.3200496,5.9999995,-6.0,1.4290313,0
0.07,9.605485910715526,5.999999744320064,-5.999999787485024,1.429031254629993,13.657449,-0.7892262,-2.8082156,-0.3400012,15.650044,-11.02021,2.1131518,-0.3713753,0.11248089,-0.40287268,-0.82892823,-10.852248,-1.693454,0.28462234,5.9999995,-6.0,1.4290313,0
0.08,15.993912313736484,5.999999460760253,-5.999999616106198,1.10046729562265,14.004105,-2.0639846,1.8877393,-0.4357389,15.541585,-11.036784,2.115819,-0.38056648,0.0735011,-0.4170257,-0.82210475,-10.83839,-1.6215932,0.24869409,5.9999995,-6.0,1.4290313,0
0.09,15.993912313736484,5.999999460760253,-5.999999616106198,1.10046729562265,14.004105,-2.0639846,1.8877393,-0.4357389,15.433373,-11.052408,2.1183262,-0.39040747,0.0350708,-0.43029052,-0.8131433,-10.8019905,-1.5037879,0.25239313,5.9999995,-5.9999995,1.1004673,0
0.09999999999999999,15.993912313736484,5.999999460760253,-5.999999616106198,1.10046729562265,14.004105,-2.0639846,1.8877393,-0.4357389,15.325591,-11.066867,2.1208577,-0.399534,-0.0034236796,-0.44276792,-0.80269384,-10.752529,-1.3885742,0.25351718,5.9999995,-5.9999995,1.1004673,0
0.10999999999999999,15.993912313736484,5.999999460760253,-5.999999616106198,1.10046729562265,14.004105,-2.0639846,1.8877393,-0.4357389,15.218367,-11.080191,2.1233845,-0.40792942,-0.041911893,-0.45443508,-0.79077536,-10.690365,-1.2766831,0.25123996,5.9999995,-5.9999995,1.1004673,0
0.11999999999999998,15.993912313736484,5.999999460760253,-5.999999616106198,1.10046729562265,14.004105,-2.0639846,1.8877393,-0.4357389,15.111826,-11.092415,2.1258678,-0.41557834,-0.080323406,-0.4652706,-0.7774098,-10.61595,-1.1688206,0.24476,5.9999995,-5.9999995,1.1004673,0
0.12999999999999998,19.494947619542707,3.7517174318175197,-5.9999983365791625,0.1820851093912895,15.47533,-3.4680018,0.9959636,0.23788261,15.006088,-11.103584,2.1282625,-0.42246675,-0.118587926,-0.4752547,-0.7626215,-10.529826,-1.065664,0.23330674,5.9999995,-5.9999995,1.1004673,0
0.13999999999999999,19.494947619542707,3.7517174318175197,-5.9999983365791625,0.1820851093912895,15.47533,-3.4680018,0.9959636,0.23788261,14.901369,-11.113641,2.130608,-0.4335386,-0.14974333,-0.4764805,-0.75005835,-10.412189,-0.9467434,0.23525536,3.7517173,-5.9999986,0.18208511,0
0.15,19.494947619542707,3.7517174318175197,-5.9999983365791625,0.1820851093912895,15.47533,-3.4680018,0.9959636,0.23788261,14.79788,-11.122546,2.1329541,-0.4440674,-0.18071118,-0.4771095,-0.7365556,-10.283989,-0.8357825,0.23329695,3.7517173,-5.9999986,0.18208511,0
0.16,18.41275391845723,0.544243607779552,-2.661576368470652,-0.01927323232459517,15.83315,-3.1065907,2.15993,-0.3198701,14.695724,-11.130385,2.135259,-0.45403993,-0.21145268,-0.4771408,-0.72213024,-10.145868,-0.73332244,0.22692983,3.7517173,-5.9999986,0.18208511,0
0.17,18.41275391845723,0.544243607779552,-2.661576368470652,-0.01927323232459517,15.83315,-3.1065907,2.15993,-0.3198701,14.594948,-11.137265,2.1374567,-0.45984176,-0.22223242,-0.47304004,-0.7179076,-10.008783,-0.6433262,0.21255091,0.54424363,-2.6615763,-0.019273233,0
0.18000000000000002,18.41275391845723,0.544243607779552,-2.661576368470652,-0.01927323232459517,15.83315,-3.1065907,2.15993,-0.3198701,14.495557,-11.143267,2.139509,-0.46555874,-0.23297115,-0.468852,-0.71355253,-9.868891,-0.55745786,0.19786249,0.54424363,-2.6615763,-0.019273233,0
0.19000000000000003,18.41275391845723,0.544243607779552,-2.661576368470652,-0.01927323232459517,15.83315,-3.1065907,2.15993,-0.3198701,14.397579,-11.148429,2.1414127,-0.47118986,-0.2436669,-0.4645775,-0.7090658,-9.726293,-0.475781,0.18280382,0.54424363,-2.6615763,-0.019273233,0
0.20000000000000004,16.61553239376213,-0.45862105393104435,0.019578204615696575,-0.18714757199864043,14.8336115,-3.0918818,3.4283445,-0.6324352,14.30104,-11.152796,2.1431637,-0.476734,-0.2543177,-0.46021724,-0.7044482,-9.581096,-0.3983562,0.16731451,0.54424363,-2.6615763,-0.019273233,0
0.21000000000000005,16.61553239376213,-0.45862105393104435,0.019578204615696575,-0.18714757199864043,14.8336115,-3.0918818,3.4283445,-0.6324352,14.205891,-11.156443,2.1447184,-0.47792986,-0.2527241,-0.45888507,-0.70508015,-9.448782,-0.3309351,0.14374685,-0.45862105,0.019578205,-0.18714757,0
0.22000000000000006,16.61553239376213,-0.45862105393104435,0.019578204615696575,-0.18714757199864043,14.8336115,-3.0918818,3.4283445,-0.6324352,14.112062,-11.159414,2.146041,-0.4791228,-0.25112897,-0.4575501,-0.7057078,-9.316818,-0.26357752,0.12085393,-0.45862105,0.019578205,-0.18714757,0
0.23000000000000007,16.61553239376213,-0.45862105393104435,0.019578204615696575,-0.18714757199864043,14.8336115,-3.0918818,3.4283445,-0.6324352,14.019552,-11.161715,2.1471379,-0.48031273,-0.24953231,-0.45621234,-0.7063311,-9.185207,-0.19628355,0.09863398,-0.45862105,0.019578205,-0.18714757,0
0.24000000000000007,16.61553239376213,-0.45862105393104435,0.019578204615696575,-0.18714757199864043,15.335699,-2.521981,3.728597,-0.15789665,13.928358,-11.163341,2.148016,-0.48149973,-0.2479341,-0.45487174,-0.70695,-9.053953,-0.12905331,0.07708522,-0.45862105,0.019578205,-0.18714757,0
0.25000000000000006,16.61553239376213,-0.45862105393104435,0.019578204615696575,-0.18714757199864043,15.335699,-2.521981,3.728597,-0.15789665,13.838473,-11.164294,2.1486819,-0.48268378,-0.24633436,-0.45352837,-0.70756465,-8.923059,-0.06188692,0.056205872,-0.45862105,0.019578205,-0.18714757,0
0.26000000000000006,16.61553239376213,-0.45862105393104435,0.019578204615696575,-0.18714757199864043,15.335699,-2.521981,3.728597,-0.15789665,13.749896,-11.164577,2.1491425,-0.48386487,-0.24473311,-0.45218223,-0.7081749,-8.792528,0.0052154996,0.035994135,-0.45862105,0.019578205,-0.18714757,0
0.2700000000000001,16.61553239376213,-0.45862105393104435,0.019578204615696575,-0.18714757199864043,15.335699,-2.521981,3.728597,-0.15789665,13.662622,-11.164188,2.1494043,-0.485043,-0.24313036,-0.4508333,-0.7087808,-8.662364,0.072253846,0.01644817,-0.45862105,0.019578205,-0.18714757,0
0.2800000000000001,14.835504218866767,-1.3822394374269793,2.0948611364651453,-0.3404976095785747,16.532148,-3.052793,4.0470233,-0.58206534,13.576649,-11.163132,2.1494737,-0.48621812,-0.24152611,-0.44948158,-0.70938236,-8.53257,0.13922802,-0.0024338523,-0.45862105,0.019578205,-0.18714757,0
0.2900000000000001,14.835504218866767,-1.3822394374269793,2.0948611364651453,-0.3404976095785747,16.532148,-3.052793,4.0470233,-0.58206534,13.491899,-11.161437,2.1493158,-0.48434815,-0.22995119,-0.45004684,-0.71413386,-8.417738,0.19995035,-0.028877838,-1.3822395,2.094861,-0.3404976,0
0.3000000000000001,14.835504218866767,-1.3822394374269793,2.0948611364651453,-0.3404976095785747,16.532148,-3.052793,4.0470233,-0.58206534,13.408286,-11.159122,2.148901,-0.48240048,-0.21833938,-0.45053992,-0.7187708,-8.305213,0.26321185,-0.053874232,-1.3822395,2.094861,-0.3404976,0
0.3100000000000001,14.835504218866767,-1.3822394374269793,2.0948611364651453,-0.3404976095785747,16.532148,-3.052793,4.0470233,-0.58206534,13.325787,-11.156163,2.1482432,-0.48037547,-0.20669255,-0.45096076,-0.72329247,-8.195062,0.32898027,-0.077479005,-1.3822395,2.094861,-0.3404976,0
0.3200000000000001,13.447877506673313,-2.3166335544568475,4.596271537714486,-0.5044997587740173,15.833991,-3.877877,5.9672937,-0.29368755,13.244377,-11.152534,2.1473563,-0.4782734,-0.19501257,-0.45130926,-0.7276982,-8.087354,0.3972217,-0.099749,-1.3822395,2.094861,-0.3404976,0
0.3300000000000001,13.447877506673313,-2.3166335544568475,4.596271537714486,-0.5044997587740173,15.833991,-3.877877,5.9672937,-0.29368755,13.1639805,-11.148239,2.1462176,-0.47183695,-0.17154814,-0.45421225,-0.7359567,-7.9928465,0.46231326,-0.12776078,-2.3166335,4.5962715,-0.50449973,0
0.34000000000000014,13.447877506673313,-2.3166335544568475,4.596271537714486,-0.5044997587740173,15.833991,-3.877877,5.9672937,-0.29368755,13.084505,-11.1432705,2.1448066,-0.46508506,-0.14796902,-0.45681158,-0.74372315,-7.9030523,0.53223723,-0.15424727,-2.3166335,4.5962715,-0.50449973,0
0.35000000000000014,13.447877506673313,-2.3166335544568475,4.596271537714486,-0.5044997587740173,15.833991,-3.877877,5.9672937,-0.29368755,13.005902,-11.137579,2.1431372,-0.45802218,-0.124290965,-0.45910546,-0.7509924,-7.8182,0.6068261,-0.17942683,-2.3166335,4.5962715,-0.50449973,0
0.36000000000000015,12.795223482745586,-2.632380022092809,4.801178812462112,-0.6896655694160286,16.512833,-3.788985,6.4143124,-0.7895412,12.928123,-11.131119,2.141222,-0.45065305,-0.10052979,-0.46109235,-0.75775945,-7.738505,0.6859001,-0.2035213,-2.3166335,4.5962715,-0.50449973,0
0.37000000000000016,12.795223482745586,-2.632380022092809,4.801178812462112,-0.6896655694160286,16.512833,-3.788985,6.4143124,-0.7895412,12.851096,-11.123865,2.1390522,-0.44334963,-0.07478265,-0.4621081,-0.7643983,-7.667925,0.7652698,-0.23029916,-2.63238,4.801179,-0.68966556,0
0.38000000000000017,12.795223482745586,-2.632380022092809,4.801178812462112,-0.6896655694160286,16.512833,-3.788985,6.4143124,-0.7895412,12.774746,-11.115798,2.1366189,-0.43570864,-0.048978563,-0.46277204,-0.77045506,-7.6030293,0.84864885,-0.25625736,-2.63238,4.801179,-0.68966556,0
0.3900000000000002,12.795223482745586,-2.632380022092809,4.801178812462112,-0.6896655694160286,16.512833,-3.788985,6.4143124,-0.7895412,12.699016,-11.106879,2.133929,-0.42773595,-0.02313719,-0.46308362,-0.7759253,-7.544,0.9358122,-0.28165168,-2.63238,4.801179,-0.68966556,0
0.4000000000000002,12.646970038455686,-2.466281475284656,3.4215677656135184,-0.8510111803029712,14.669731,-3.065577,3.8134983,-0.22292015,12.623845,-11.097071,2.130987,-0.4194376,0.0027218005,-0.46304262,-0.78080475,-7.4910035,1.0265232,-0.30673972,-2.63238,4.801179,-0.68966556,0
0.4100000000000002,12.646970038455686,-2.466281475284656,3.4215677656135184,-0.8510111803029712,14.669731,-3.065577,3.8134983,-0.22292015,12.549173,-11.086345,2.127791,-0.41470802,0.023219999,-0.4604713,-0.78450245,-7.4442453,1.1190481,-0.33241645,-2.4662814,3.4215677,-0.85101116,0
0.4200000000000002,12.646970038455686,-2.466281475284656,3.4215677656135184,-0.8510111803029712,14.669731,-3.065577,3.8134983,-0.22292015,12.474944,-11.074683,2.12434,-0.40978652,0.04370745,-0.45768687,-0.787837,-7.402408,1.21359,-0.35768938,-2.4662814,3.4215677,-0.85101116,0
0.4300000000000002,12.646970038455686,-2.466281475284656,3.4215677656135184,-0.8510111803029712,14.669731,-3.065577,3.8134983,-0.22292015,12.401109,-11.062066,2.120638,-0.40467536,0.06417467,-0.45469064,-0.790807,-7.365558,1.310006,-0.38272503,-2.4662814,3.4215677,-0.85101116,0
0.4400000000000002,12.646970038455686,-2.466281475284656,3.4215677656135184,-0.8510111803029712,14.311192,-2.308747,1.7306657,-0.19060373,12.327616,-11.048477,2.1166859,-0.39937693,0.08461219,-0.45148394,-0.79341096,-7.3337536,1.4081495,-0.4076904,-2.4662814,3.4215677,-0.85101116,0
0.45000000000000023,12.646970038455686,-2.466281475284656,3.4215677656135184,-0.8510111803029712,14.311192,-2.308747,1.7306657,-0.19060373,12.2544155,-11.033898,2.1124837,-0.39389366,0.10501055,-0.4480683,-0.79564774,-7.3070426,1.5078709,-0.43275258,-2.4662814,3.4215677,-0.85101116,0
0.46000000000000024,12.646970038455686,-2.466281475284656,3.4215677656135184,-0.8510111803029712,14.311192,-2.308747,1.7306657,-0.19060373,12.1814575,-11.018314,2.1080298,-0.3882281,0.12536031,-0.44444525,-0.7975162,-7.285465,1.6090177,-0.45807847,-2.4662814,3.4215677,-0.85101116,0
0.47000000000000025,12.646970038455686,-2.466281475284656,3.4215677656135184,-0.8510111803029712,14.311192,-2.308747,1.7306657,-0.19060373,12.108689,-11.001714,2.1033206,-0.38238278,0.14565204,-0.44061652,-0.79901564,-7.2690487,1.7114347,-0.48383456,-2.4662814,3.4215677,-0.85101116,0
0.48000000000000026,12.673238508992123,-2.0674128266992917,1.9892909021840066,-0.880838478052047,16.27141,-2.145001,1.9945544,-0.28913638,12.036059,-10.984082,2.098351,-0.37636054,0.16587637,-0.43658385,-0.80014527,-7.2578144,1.8149643,-0.51018643,-2.4662814,3.4215677,-0.85101116,0
0.49000000000000027,12.673238508992123,-2.0674128266992917,1.9892909021840066,-0.880838478052047,16.27141,-2.145001,1.9945544,-0.28913638,11.963518,-10.965411,2.0931158,-0.3737851,0.17962906,-0.43127665,-0.8012607,-7.2511683,1.9194263,-0.53684705,-2.0674129,1.989291,-0.88083845,0
0.5000000000000002,12.673238508992123,-2.0674128266992917,1.9892909021840066,-0.880838478052047,16.27141,-2.145001,1.9945544,-0.28913638,11.891025,-10.945693,2.087614,-0.37112555,0.1933413,-0.42587233,-0.8021957,-7.248151,2.0241032,-0.5635766,-2.0674129,1.989291,-0.88083845,0
0.5100000000000002,12.673238508992123,-2.0674128266992917,1.9892909021840066,-0.880838478052047,16.27141,-2.145001,1.9945544,-0.28913638,11.8185425,-10.924929,2.081844,-0.3683824,0.20701,-0.4203721,-0.8029501,-7.2487626,2.1289265,-0.59046024,-2.0674129,1.989291,-0.88083845,0
0.5200000000000002,12.837845265652762,-1.5440461111739854,0.2974437068130601,-0.8371666584472606,15.49531,-1.7339711,1.2266074,-0.13224399,11.7460375,-10.903115,2.075804,-0.36555627,0.22063208,-0.41477722,-0.8035236,-7.2530017,2.233828,-0.617583,-2.0674129,1.989291,-0.88083845,0
0.5300000000000002,12.837845265652762,-1.5440461111739854,0.2974437068130601,-0.8371666584472606,15.49531,-1.7339711,1.2266074,-0.13224399,11.673472,-10.880246,2.069497,-0.366585,0.22637664,-0.40817758,-0.80483556,-7.260254,2.3398762,-0.64369756,-1.5440462,0.29744372,-0.83716667,0
0.5400000000000003,12.837845265652762,-1.5440461111739854,0.2974437068130601,-0.8371666584472606,15.49531,-1.7339711,1.2266074,-0.13224399,11.600825,-10.856319,2.0629327,-0.36758462,0.23210324,-0.40154558,-0.8060838,-7.2692823,2.4452922,-0.6690883,-1.5440462,0.29744372,-0.83716667,0
0.5500000000000003,12.837845265652762,-1.5440461111739854,0.2974437068130601,-0.8371666584472606,15.49531,-1.7339711,1.2266074,-0.13224399,11.52808,-10.831342,2.0561175,-0.36855507,0.23781143,-0.3948817,-0.80726796,-7.2800913,2.5500586,-0.6937859,-1.5440462,0.29744372,-0.83716667,0
0.5600000000000003,12.960989553851041,-1.006595718003474,-0.8790804925939103,-0.7200169867465904,14.914563,-1.7972392,0.76172733,-0.0038973857,11.455218,-10.80532,2.049059,-0.3694963,0.24350075,-0.3881865,-0.8083881,-7.292686,2.654157,-0.71782106,-1.5440462,0.29744372,-0.83716667,0
0.5700000000000003,12.960989553851041,-1.006595718003474,-0.8790804925939103,-0.7200169867465904,14.914563,-1.7972392,0.76172733,-0.0038973857,11.382222,-10.778255,2.0417676,-0.37287658,0.24319772,-0.3816061,-0.8100586,-7.306657,2.7584395,-0.74023443,-1.0065957,-0.8790805,-0.720017,0
0.5800000000000003,12.960989553851041,-1.006595718003474,-0.8790804925939103,-0.7200169867465904,14.914563,-1.7972392,0.76172733,-0.0038973857,11.309084,-10.750154,2.0342588,-0.3762354,0.24288069,-0.3750037,-0.81168234,-7.320969,2.8616858,-0.7613027,-1.0065957,-0.8790805,-0.720017,0
0.5900000000000003,12.960989553851041,-1.006595718003474,-0.8790804925939103,-0.7200169867465904,14.914563,-1.7972392,0.76172733,-0.0038973857,11.235802,-10.721025,2.026546,-0.3795725,0.24254964,-0.36837965,-0.81325936,-7.3356323,2.9638774,-0.7810424,-1.0065957,-0.8790805,-0.720017,0
0.6000000000000003,13.126578266283795,-0.6991947013682401,-0.7164274896044067,-0.5812397087691329,15.4838085,-1.8249558,1.1164023,0.12829083,11.162371,-10.69088,2.0186422,-0.38288778,0.24220464,-0.36173445,-0.8147896,-7.3506556,3.064997,-0.7994703,-1.0065957,-0.8790805,-0.720017,0
0.6100000000000003,13.126578266283795,-0.6991947013682401,-0.7164274896044067,-0.5812397087691329,15.4838085,-1.8249558,1.1164023,0.12829083,11.088786,-10.659722,2.0105658,-0.38569832,0.24167171,-0.3568045,-0.8157954,-7.3661714,3.166409,-0.8156833,-0.6991947,-0.7164275,-0.5812397,0
0.6200000000000003,13.126578266283795,-0.6991947013682401,-0.7164274896044067,-0.5812397087691329,15.4838085,-1.8249558,1.1164023,0.12829083,11.015046,-10.627554,2.0023322,-0.38849595,0.24113071,-0.3518626,-0.8167739,-7.3818717,3.2669814,-0.8309022,-0.6991947,-0.7164275,-0.5812397,0
0.6300000000000003,13.126578266283795,-0.6991947013682401,-0.7164274896044067,-0.5812397087691329,15.4838085,-1.8249558,1.1164023,0.12829083,10.941148,-10.594385,1.9939513,-0.39128056,0.24058163,-0.34690893,-0.817725,-7.397762,3.3667042,-0.84513676,-0.6991947,-0.7164275,-0.5812397,0
0.6400000000000003,13.126578266283795,-0.6991947013682401,-0.7164274896044067,-0.5812397087691329,15.102409,-1.7780312,1.3969749,0.09517449,10.867089,-10.560224,1.9854329,-0.39405206,0.24002449,-0.34194362,-0.81864876,-7.4138484,3.4655678,-0.8583968,-0.6991947,-0.7164275,-0.5812397,0
0.6500000000000004,13.126578266283795,-0.6991947013682401,-0.7164274896044067,-0.5812397087691329,15.102409,-1.7780312,1.3969749,0.09517449,10.79287,-10.525077,1.9767867,-0.39681038,0.2394593,-0.33696687,-0.8195451,-7.4301367,3.563562,-0.87069243,-0.6991947,-0.7164275,-0.5812397,0
0.6600000000000004,13.126578266283795,-0.6991947013682401,-0.7164274896044067,-0.5812397087691329,15.102409,-1.7780312,1.3969749,0.09517449,10.718486,-10.488955,1.9680223,-0.39955541,0.2388861,-0.3319788,-0.82041395,-7.4466333,3.6606772,-0.8820337,-0.6991947,-0.7164275,-0.5812397,0
0.6700000000000004,13.126578266283795,-0.6991947013682401,-0.7164274896044067,-0.5812397087691329,15.102409,-1.7780312,1.3969749,0.09517449,10.643937,-10.451866,1.9591492,-0.40228707,0.2383049,-0.3269796,-0.8212553,-7.4633436,3.7569036,-0.89243084,-0.6991947,-0.7164275,-0.5812397,0
0.6800000000000004,13.099501646370879,-0.4588316626300606,-0.9333098315299041,-0.4716064471877899,14.864201,-1.76376,1.0814422,0.08914262,10.56922,-10.41382,1.950177,-0.40500522,0.2377157,-0.32196945,-0.82206917,-7.4802732,3.8522322,-0.9018942,-0.6991947,-0.7164275,-0.5812397,0
0.6900000000000004,13.099501646370879,-0.4588316626300606,-0.9333098315299041,-0.4716064471877899,14.864201,-1.76376,1.0814422,0.08914262,10.494331,-10.374826,1.9411137,-0.4078942,0.23556398,-0.31762773,-0.8229487,-7.4972363,3.9464583,-0.91058934,-0.45883167,-0.93330985,-0.47160643,0
0.7000000000000004,13.099501646370879,-0.4588316626300606,-0.9333098315299041,-0.4716064471877899,14.864201,-1.76376,1.0814422,0.08914262,10.419275,-10.334894,1.9319685,-0.41076988,0.23340456,-0.3132757,-0.8238014,-7.5140123,4.0397687,-0.9182937,-0.45883167,-0.93330985,-0.47160643,0
0.7100000000000004,13.099501646370879,-0.4588316626300606,-0.9333098315299041,-0.4716064471877899,14.864201,-1.76376,1.0814422,0.08914262,10.344051,-10.294034,1.9227512,-0.41363218,0.23123755,-0.30891344,-0.8246273,-7.5306053,4.1321507,-0.9250171,-0.45883167,-0.93330985,-0.47160643,0
0.7200000000000004,13.222766401022303,-0.20514450370724246,-0.680248812350766,-0.3683012606794381,14.574408,-1.6685493,1.0095788,0.08796924,10.268663,-10.252255,1.9134715,-0.416481,0.22906299,-0.30454114,-0.8254262,-7.547021,4.223594,-0.9307694,-0.45883167,-0.93330985,-0.47160643,0
0.7300000000000004,13.222766401022303,-0.20514450370724246,-0.680248812350766,-0.3683012606794381,14.574408,-1.6685493,1.0095788,0.08796924,10.193111,-10.209561,1.9041431,-0.41879854,0.2272417,-0.3018537,-0.8257441,-7.5633793,4.3150682,-0.9348003,-0.20514451,-0.6802488,-0.36830127,0
0.7400000000000004,13.222766401022303,-0.20514450370724246,-0.680248812350766,-0.3683012606794381,14.574408,-1.6685493,1.0095788,0.08796924,10.117397,-10.165956,1.8947777,-0.4211094,0.22541675,-0.29916137,-0.8260488,-7.5794716,4.405917,-0.93818206,-0.20514451,-0.6802488,-0.36830127,0
0.7500000000000004,13.222766401022303,-0.20514450370724246,-0.680248812350766,-0.3683012606794381,14.574408,-1.6685493,1.0095788,0.08796924,10.041524,-10.121445,1.8853817,-0.4234135,0.22358823,-0.29646426,-0.82634026,-7.5952997,4.4961357,-0.9409191,-0.20514451,-0.6802488,-0.36830127,0
0.7600000000000005,13.187802408982076,-0.03351758380609861,-0.7335648943522128,-0.2895996666035624,14.174667,-1.3449247,1.0491118,0.0018431805,9.965493,-10.076035,1.8759615,-0.4257108,0.22175613,-0.29376242,-0.8266185,-7.6108665,4.585719,-0.9430158,-0.20514451,-0.6802488,-0.36830127,0
0.7700000000000005,13.187802408982076,-0.03351758380609861,-0.7335648943522128,-0.2895996666035624,14.174667,-1.3449247,1.0491118,0.0018431805,9.88931,-10.029733,1.8665223,-0.42794475,0.21921922,-0.29173908,-0.8268582,-7.626049,4.6744504,-0.9447412,-0.033517584,-0.7335649,-0.28959966,0
0.7800000000000005,13.187802408982076,-0.03351758380609861,-0.7335648943522128,-0.2895996666035624,14.174667,-1.3449247,1.0491118,0.0018431805,9.812976,-9.982547,1.8570688,-0.43017206,0.2166789,-0.2897112,-0.8270851,-7.640748,4.7626004,-0.9458608,-0.033517584,-0.7335649,-0.28959966,0
0.7900000000000005,13.187802408982076,-0.03351758380609861,-0.7335648943522128,-0.2895996666035624,14.174667,-1.3449247,1.0491118,0.0018431805,9.736498,-9.934482,1.8476071,-0.4323926,0.21413521,-0.2876788,-0.82729906,-7.6549644,4.850164,-0.946379,-0.033517584,-0.7335649,-0.28959966,0
0.8000000000000005,13.296850562729407,0.015236185086790095,-0.5840899906826865,-0.22818138447136485,14.074843,-0.9175253,1.0236531,-0.097025156,9.659878,-9.885545,1.8381433,-0.43460643,0.21158819,-0.2856419,-0.82750016,-7.6687016,4.937135,-0.9463003,-0.033517584,-0.7335649,-0.28959966,0
0.8100000000000005,13.296850562729407,0.015236185086790095,-0.5840899906826865,-0.22818138447136485,14.074843,-0.9175253,1.0236531,-0.097025156,9.583124,-9.835738,1.8286872,-0.43639868,0.20946327,-0.28419292,-0.8275964,-7.682089,5.024278,-0.94486403,0.015236185,-0.58409,-0.22818138,0
0.8200000000000005,13.296850562729407,0.015236185086790095,-0.5840899906826865,-0.22818138447136485,14.074843,-0.9175253,1.0236531,-0.097025156,9.506239,-9.785062,1.8192477,-0.43818665,0.20733628,-0.2827411,-0.8276845,-7.6950464,5.1109624,-0.94297135,0.015236185,-0.58409,-0.22818138,0
0.8300000000000005,13.296850562729407,0.015236185086790095,-0.5840899906826865,-0.22818138447136485,14.074843,-0.9175253,1.0236531,-0.097025156,9.429225,-9.733521,1.8098294,-0.4399703,0.20520726,-0.2812865,-0.8277645,-7.7075753,5.197184,-0.94062513,0.015236185,-0.58409,-0.22818138,0
0.8400000000000005,13.296850562729407,0.015236185086790095,-0.5840899906826865,-0.22818138447136485,13.818899,-0.69533426,0.84165055,-0.10505591,9.352088,-9.68112,1.8004369,-0.4417497,0.20307621,-0.27982917,-0.82783633,-7.7196755,5.282939,-0.93782824,0.015236185,-0.58409,-0.22818138,0
0.8500000000000005,13.296850562729407,0.015236185086790095,-0.5840899906826865,-0.22818138447136485,13.818899,-0.69533426,0.84165055,-0.10505591,9.274833,-9.627863,1.7910744,-0.4435247,0.20094317,-0.27836907,-0.8279,-7.73135,5.368224,-0.9345835,0.015236185,-0.58409,-0.22818138,0
0.8600000000000005,13.296850562729407,0.015236185086790095,-0.5840899906826865,-0.22818138447136485,13.818899,-0.69533426,0.84165055,-0.10505591,9.197463,-9.573756,1.7817467,-0.44529533,0.19880815,-0.27690622,-0.82795554,-7.7425985,5.4530354,-0.93089396,0.015236185,-0.58409,-0.22818138,0
0.8700000000000006,13.296850562729407,0.015236185086790095,-0.5840899906826865,-0.22818138447136485,13.818899,-0.69533426,0.84165055,-0.10505591,9.119982,-9.518805,1.7724581,-0.4470616,0.19667117,-0.27544063,-0.828003,-7.7534227,5.5373693,-0.9267625,0.015236185,-0.58409,-0.22818138,0
0.8800000000000006,13.316631320635691,0.029387425095453484,-0.6398657938632099,-0.17476717363188782,13.537412,-0.20845696,1.105994,-0.0017711129,9.042396,-9.463013,1.7632129,-0.44882345,0.19453226,-0.27397236,-0.8280422,-7.7638235,5.6212215,-0.9221922,0.015236185,-0.58409,-0.22818138,0
0.8900000000000006,13.316631320635691,0.029387425095453484,-0.6398657938632099,-0.17476717363188782,13.537412,-0.20845696,1.105994,-0.0017711129,8.964707,-9.406383,1.7540165,-0.45044965,0.19205548,-0.2724866,-0.8282276,-7.773796,5.7046976,-0.91701883,0.029387426,-0.6398658,-0.17476717,0
0.9000000000000006,13.316631320635691,0.029387425095453484,-0.6398657938632099,-0.17476717363188782,13.537412,-0.20845696,1.105994,-0.0017711129,8.886922,-9.34892,1.7448742,-0.4520709,0.18957657,-0.27099782,-0.82840383,-7.783292,5.787646,-0.9113756,0.029387426,-0.6398658,-0.17476717,0
0.9100000000000006,13.316631320635691,0.029387425095453484,-0.6398657938632099,-0.17476717363188782,13.537412,-0.20845696,1.105994,-0.0017711129,8.809045,-9.290631,1.7357907,-0.45368713,0.18709557,-0.26950607,-0.8285709,-7.792311,5.8700604,-0.9052663,0.029387426,-0.6398658,-0.17476717,0
0.9200000000000006,13.474150528427021,-0.022606214668623396,-0.4627286647404205,-0.12310415176769922,13.256416,0.17521119,0.7335633,0.054496463,8.731078,-9.231521,1.7267705,-0.4552984,0.1846125,-0.26801133,-0.82872885,-7.8008556,5.951939,-0.8986949,0.029387426,-0.6398658,-0.17476717,0
0.9300000000000006,13.474150528427021,-0.022606214668623396,-0.4627286647404205,-0.12310415176769922,13.256416,0.17521119,0.7335633,0.054496463,8.6530285,-9.171588,1.7178245,-0.45640638,0.18291102,-0.26674986,-0.82890373,-7.80909,6.034286,-0.8904633,-0.022606215,-0.46272868,-0.123104155,0
0.9400000000000006,13.474150528427021,-0.022606214668623396,-0.4627286647404205,-0.12310415176769922,13.256416,0.17521119,0.7335633,0.054496463,8.574898,-9.110836,1.7089624,-0.45751175,0.18120849,-0.26548687,-0.82907385,-7.8170285,6.116209,-0.8818822,-0.022606215,-0.46272868,-0.123104155,0
0.9500000000000006,13.474150528427021,-0.022606214668623396,-0.4627286647404205,-0.12310415176769922,13.256416,0.17521119,0.7335633,0.054496463,8.496691,-9.049266,1.700188,-0.4586145,0.17950492,-0.26422235,-0.8292392,-7.8246713,6.197706,-0.87295365,-0.022606215,-0.46272868,-0.123104155,0
0.9600000000000006,13.592446666193206,-0.07588182083517925,-0.5091861167946803,-0.07364627100113491,13.397884,0.42750844,0.77175665,0.033989817,8.418407,-8.986882,1.6915047,-0.45971462,0.17780031,-0.2629563,-0.82939976,-7.832019,6.2787747,-0.86367977,-0.022606215,-0.46272868,-0.123104155,0
0.9700000000000006,13.592446666193206,-0.07588182083517925,-0.5091861167946803,-0.07364627100113491,13.397884,0.42750844,0.77175665,0.033989817,8.340051,-8.923687,1.6829206,-0.4606205,0.1759594,-0.26140484,-0.82978004,-7.8391457,6.360093,-0.85309696,-0.075881824,-0.5091861,-0.07364627,0
0.9800000000000006,13.592446666193206,-0.07588182083517925,-0.5091861167946803,-0.07364627100113491,13.397884,0.42750844,0.77175665,0.033989817,8.261624,-8.859682,1.6744442,-0.46152326,0.17411728,-0.25985163,-0.83015484,-7.8460054,6.440901,-0.8421171,-0.075881824,-0.5091861,-0.07364627,0
0.9900000000000007,13.592446666193206,-0.07588182083517925,-0.5091861167946803,-0.07364627100113491,13.397884,0.42750844,0.77175665,0.033989817,8.183131,-8.79487,1.6660796,-0.46242288,0.17227398,-0.25829667,-0.8305239,-7.852598,6.5211964,-0.8307427,-0.075881824,-0.5091861,-0.07364627,0
1.0000000000000007,13.830879289770047,-0.17634983275874064,-0.24758807439045535,-0.032107535852836676,13.737392,0.42621756,0.45368174,0.042570557,8.104573,-8.7292595,1.6578308,-0.4633194,0.1704295,-0.25673997,-0.8308875,-7.858924,6.6009765,-0.81897694,-0.075881824,-0.5091861,-0.07364627,1
1.0100000000000007,13.830879289770047,-0.17634983275874064,-0.24758807439045535,-0.032107535852836676,13.737392,0.42621756,0.45368174,0.042570557,8.025952,-8.6628475,1.6497064,-0.4629211,0.17127144,-0.25959668,-0.8300484,-7.86508,6.6815367,-0.80597484,0.42621756,0.45368174,0.042570557,1
1.0200000000000007,13.830879289770047,-0.17634983275874064,-0.24758807439045535,-0.032107535852836676,13.737392,0.42621756,0.45368174,0.042570557,7.9472713,-8.595626,1.6417097,-0.4625183,0.17211172,-0.26245087,-0.82920116,-7.8710537,6.762777,-0.7934587,0.42621756,0.45368174,0.042570557,1
1.0300000000000007,13.830879289770047,-0.17634983275874064,-0.24758807439045535,-0.032107535852836676,13.737392,0.42621756,0.45368174,0.042570557,7.8685317,-8.527589,1.6338357,-0.462111,0.17295033,-0.2653025,-0.82834584,-7.8768444,6.844693,-0.7814328,0.42621756,0.45368174,0.042570557,1
1.0400000000000007,13.830879289770047,-0.17634983275874064,-0.24758807439045535,-0.032107535852836676,14.313578,0.28543726,0.30268142,0.047016907,7.7897353,-8.45873,1.6260793,-0.4616992,0.17378725,-0.26815155,-0.82748246,-7.882454,6.9272833,-0.76990145,0.42621756,0.45368174,0.042570557,1
1.0500000000000007,13.830879289770047,-0.17634983275874064,-0.24758807439045535,-0.032107535852836676,14.313578,0.28543726,0.30268142,0.047016907,7.710882,-8.389024,1.6184589,-0.46134585,0.17431723,-0.27007154,-0.82694346,-7.8881316,7.0139484,-0.7542266,0.28543726,0.30268142,0.047016907,1
1.0600000000000007,13.830879289770047,-0.17634983275874064,-0.24758807439045535,-0.032107535852836676,14.313578,0.28543726,0.30268142,0.047016907,7.631973,-8.31845,1.6109934,-0.4609905,0.17484643,-0.27199033,-0.8264008,-7.8936815,7.101079,-0.73890126,0.28543726,0.30268142,0.047016907,1
1.0700000000000007,13.830879289770047,-0.17634983275874064,-0.24758807439045535,-0.032107535852836676,14.313578,0.28543726,0.30268142,0.047016907,7.553009,-8.247002,1.6036795,-0.4606331,0.17537487,-0.27390793,-0.8258546,-7.899104,7.1886725,-0.7239273,0.28543726,0.30268142,0.047016907,1
1.0800000000000007,13.944841973064978,-0.5908999524014031,-1.0682410494747048,-0.0010153810493073036,15.205168,-0.3551133,0.097604536,-0.0010359958,7.4739914,-8.174675,1.5965137,-0.4602737,0.17590253,-0.27582434,-0.82530475,-7.904399,7.276728,-0.7093068,0.28543726,0.30268142,0.047016907,0
1.0900000000000007,13.944841973064978,-0.5908999524014031,-1.0682410494747048,-0.0010153810493073036,15.205168,-0.3551133,0.097604536,-0.0010359958,7.3949223,-8.101479,1.5894793,-0.46122286,0.17285243,-0.2709216,-0.8270415,-7.909457,7.3622937,-0.6974132,-0.59089994,-1.068241,-0.0010153811,0
1.1000000000000008,13.944841973064978,-0.5908999524014031,-1.0682410494747048,-0.0010153810493073036,15.205168,-0.3551133,0.097604536,-0.0010359958,7.3158026,-8.027433,1.582569,-0.46215484,0.16979589,-0.26600868,-0.82874745,-7.9144545,7.4465113,-0.68448156,-0.59089994,-1.068241,-0.0010153811,0
1.1100000000000008,13.944841973064978,-0.5908999524014031,-1.0682410494747048,-0.0010153810493073036,15.205168,-0.3551133,0.097604536,-0.0010359958,7.2366333,-7.952553,1.5757931,-0.46306956,0.16673301,-0.2610859,-0.83042246,-7.9193907,7.529369,-0.67052835,-0.59089994,-1.068241,-0.0010153811,0
1.1200000000000008,14.08407150914288,-0.9016272378080857,-1.3771699235915997,0.03890381524849483,15.614138,-0.80049163,-0.3634428,-0.04173144,7.157415,-7.8768506,1.5691619,-0.46396706,0.16366392,-0.25615337,-0.8320666,-7.924264,7.610853,-0.65557027,-0.59089994,-1.068241,-0.0010153811,0
1.1300000000000008,14.08407150914288,-0.9016272378080857,-1.3771699235915997,0.03890381524849483,15.614138,-0.80049163,-0.3634428,-0.04173144,7.078148,-7.800337,1.5626912,-0.46481547,0.15997073,-0.24923074,-0.83441037,-7.929178,7.6915674,-0.63835883,-0.90162724,-1.37717,0.038903814,0
1.1400000000000008,14.08407150914288,-0.9016272378080857,-1.3771699235915997,0.03890381524849483,15.614138,-0.80049163,-0.3634428,-0.04173144,6.998831,-7.723026,1.5563991,-0.4656324,0.15626669,-0.24229121,-0.8366976,-7.9341764,7.770371,-0.6198369,-0.90162724,-1.37717,0.038903814,0
1.1500000000000008,14.08407150914288,-0.9016272378080857,-1.3771699235915997,0.03890381524849483,15.614138,-0.80049163,-0.3634428,-0.04173144,6.9194636,-7.6449366,1.5502988,-0.46641776,0.15255207,-0.23533525,-0.8389281,-7.9392576,7.8472433,-0.60003614,-0.90162724,-1.37717,0.038903814,0
1.1600000000000008,14.07826439299312,-0.8694442970616578,-1.0841150714037662,0.10711500923254828,15.585003,-1.3238789,0.29103866,-0.057552613,6.8400455,-7.5660877,1.5444026,-0.4671715,0.1488271,-0.22836335,-0.8411017,-7.9444184,7.9221625,-0.5789885,-0.90162724,-1.37717,0.038903814,0
1.1700000000000008,14.07826439299312,-0.8694442970616578,-1.0841150714037662,0.10711500923254828,15.585003,-1.3238789,0.29103866,-0.057552613,6.760575,-7.4865003,1.5387228,-0.46730053,0.14617285,-0.22224876,-0.843131,-7.94972,7.995198,-0.55685055,-0.8694443,-1.084115,0.10711501,0
1.1800000000000008,14.07826439299312,-0.8694442970616578,-1.0841150714037662,0.10711500923254828,15.585003,-1.3238789,0.29103866,-0.057552613,6.6810503,-7.40619,1.5332692,-0.4674069,0.1435115,-0.21612337,-0.8451193,-7.9552712,8.066563,-0.533725,-0.8694443,-1.084115,0.10711501,0
1.1900000000000008,14.07826439299312,-0.8694442970616578,-1.0841150714037662,0.10711500923254828,15.585003,-1.3238789,0.29103866,-0.057552613,6.601469,-7.325175,1.5280516,-0.46749055,0.14084317,-0.20998749,-0.8470666,-7.9610696,8.136244,-0.5096351,-0.8694443,-1.084115,0.10711501,0
1.2000000000000008,14.054738522903243,-0.7916229217047829,-0.7157866869164322,0.16133223477580103,15.368034,-1.4267925,0.31725097,-0.04668898,6.5218277,-7.243471,1.5230798,-0.46755153,0.138168,-0.20384142,-0.8489727,-7.9671116,8.204227,-0.48460412,-0.8694443,-1.084115,0.10711501,0
1.2100000000000009,14.054738522903243,-0.7916229217047829,-0.7157866869164322,0.16133223477580103,15.368034,-1.4267925,0.31725097,-0.04668898,6.442125,-7.161096,1.5183614,-0.46704254,0.13681377,-0.19891627,-0.85063875,-7.97345,8.270553,-0.45895338,-0.79162294,-0.7157867,0.16133223,0
1.2200000000000009,14.054738522903243,-0.7916229217047829,-0.7157866869164322,0.16133223477580103,15.368034,-1.4267925,0.31725097,-0.04668898,6.3623567,-7.078065,1.5139028,-0.46651992,0.13545556,-0.1939853,-0.85228,-7.9802046,8.335595,-0.43264553,-0.79162294,-0.7157867,0.16133223,0
1.2300000000000009,14.054738522903243,-0.7916229217047829,-0.7157866869164322,0.16133223477580103,15.368034,-1.4267925,0.31725097,-0.04668898,6.282519,-6.994389,1.5097107,-0.46598372,0.13409339,-0.18904871,-0.8538965,-7.987372,8.399346,-0.40569428,-0.79162294,-0.7157867,0.16133223,0
1.2400000000000009,14.054738522903243,-0.7916229217047829,-0.7157866869164322,0.16133223477580103,15.5506935,-1.2555689,0.3101166,-0.027341312,6.202608,-6.9100823,1.5057911,-0.46543398,0.13272732,-0.1841066,-0.8554882,-7.994948,8.4618,-0.3781135,-0.79162294,-0.7157867,0.16133223,0
1.2500000000000009,14.054738522903243,-0.7916229217047829,-0.7157866869164322,0.16133223477580103,15.5506935,-1.2555689,0.3101166,-0.027341312,6.122619,-6.8251576,1.5021505,-0.46487066,0.13135739,-0.17915913,-0.8570549,-8.00293,8.522945,-0.34991714,-0.79162294,-0.7157867,0.16133223,0
1.260000000000001,14.054738522903243,-0.7916229217047829,-0.7157866869164322,0.16133223477580103,15.5506935,-1.2555689,0.3101166,-0.027341312,6.0425477,-6.739628,1.498795,-0.4642938,0.12998362,-0.17420644,-0.8585966,-8.011315,8.582778,-0.32111916,-0.79162294,-0.7157867,0.16133223,0
1.270000000000001,14.054738522903243,-0.7916229217047829,-0.7157866869164322,0.16133223477580103,15.5506935,-1.2555689,0.3101166,-0.027341312,5.962391,-6.6535068,1.4957302,-0.46370342,0.12860608,-0.16924867,-0.8601134,-8.020101,8.64129,-0.29173356,-0.79162294,-0.7157867,0.16133223,0
1.280000000000001,13.867633079323287,-0.7244212607544224,-0.7248888739020959,0.2040697746927638,15.521346,-1.0743264,0.005299745,-0.0068317205,5.882145,-6.5668073,1.4929621,-0.46309954,0.12722479,-0.16428599,-0.86160505,-8.029282,8.698473,-0.2617745,-0.79162294,-0.7157867,0.16133223,0
1.290000000000001,13.867633079323287,-0.7244212607544224,-0.7248888739020959,0.2040697746927638,15.521346,-1.0743264,0.005299745,-0.0068317205,5.801805,-6.4795465,1.4904878,-0.4623487,0.12560998,-0.15961428,-0.863122,-8.038695,8.753592,-0.23297234,-0.72442126,-0.72488886,0.20406978,0
1.300000000000001,13.867633079323287,-0.7244212607544224,-0.7248888739020959,0.2040697746927638,15.521346,-1.0743264,0.005299745,-0.0068317205,5.7213697,-6.3917403,1.4883044,-0.46158522,0.12399174,-0.15493824,-0.8646154,-8.0484085,8.807426,-0.20364207,-0.72442126,-0.72488886,0.20406978,0
1.310000000000001,13.867633079323287,-0.7244212607544224,-0.7248888739020959,0.2040697746927638,15.521346,-1.0743264,0.005299745,-0.0068317205,5.6408362,-6.3034024,1.4864167,-0.46080917,0.122370124,-0.15025795,-0.8660852,-8.058416,8.85997,-0.17379673,-0.72442126,-0.72488886,0.20406978,0
1.320000000000001,13.652076373935017,-0.6768914181425304,-0.5295204649188595,0.2324980257385852,15.345657,-0.993543,-0.072648875,0.055125568,5.560201,-6.2145457,1.4848301,-0.46002054,0.12074517,-0.14557353,-0.8675313,-8.068714,8.911216,-0.14344928,-0.72442126,-0.72488886,0.20406978,0
1.330000000000001,13.652076373935017,-0.6768914181425304,-0.5295204649188595,0.2324980257385852,15.345657,-0.993543,-0.072648875,0.055125568,5.479462,-6.1251864,1.4835393,-0.45898426,0.119834796,-0.14155838,-0.8688698,-8.07917,8.960471,-0.114654325,-0.67689145,-0.52952045,0.23249802,0
1.340000000000001,13.652076373935017,-0.6768914181425304,-0.5295204649188595,0.2324980257385852,15.345657,-0.993543,-0.072648875,0.055125568,5.398617,-6.03534,1.4825383,-0.45793885,0.11892204,-0.13754044,-0.8701911,-8.089998,9.008678,-0.08548813,-0.67689145,-0.52952045,0.23249802,0
1.350000000000001,13.652076373935017,-0.6768914181425304,-0.5295204649188595,0.2324980257385852,15.345657,-0.993543,-0.072648875,0.055125568,5.3176613,-5.945016,1.4818308,-0.45688438,0.11800693,-0.13351978,-0.87149525,-8.101194,9.055832,-0.055959586,-0.67689145,-0.52952045,0.23249802,0
1.360000000000001,13.308143465447507,-0.6098315917514874,-0.8495199242891804,0.2669456598630539,15.060288,-0.92325306,-0.3202804,0.07550129,5.236592,-5.8542266,1.4814203,-0.45582086,0.11708948,-0.12949646,-0.872782,-8.112755,9.101927,-0.026077623,-0.67689145,-0.52952045,0.23249802,0
1.370000000000001,13.308143465447507,-0.6098315917514874,-0.8495199242891804,0.2669456598630539,15.060288,-0.92325306,-0.3202804,0.07550129,5.1554065,-5.762987,1.4812944,-0.45484233,0.11459759,-0.12505348,-0.8742699,-8.124258,9.145722,0.0009629079,-0.6098316,-0.8495199,0.26694566,0
1.380000000000001,13.308143465447507,-0.6098315917514874,-0.8495199242891804,0.2669456598630539,15.060288,-0.92325306,-0.3202804,0.07550129,5.0741067,-5.6713166,1.481441,-0.45385054,0.11210236,-0.120606855,-0.87573236,-8.1357975,9.188201,0.028453108,-0.6098316,-0.8495199,0.26694566,0
1.390000000000001,13.308143465447507,-0.6098315917514874,-0.8495199242891804,0.2669456598630539,15.060288,-0.92325306,-0.3202804,0.07550129,4.9926906,-5.579228,1.4818648,-0.45284554,0.10960387,-0.11615673,-0.8771693,-8.147369,9.229359,0.05637958,-0.6098316,-0.8495199,0.26694566,0
1.400000000000001,13.03393850738149,-0.5607079723987719,-0.5673498384038915,0.27792961520738285,14.491246,-1.0070101,-0.5789876,0.078994706,4.911159,-5.4867344,1.4825699,-0.45182735,0.10710218,-0.11170322,-0.8785807,-8.158968,9.26919,0.08472888,-0.6098316,-0.8495199,0.26694566,0
1.410000000000001,13.03393850738149,-0.5607079723987719,-0.5673498384038915,0.27792961520738285,14.491246,-1.0070101,-0.5789876,0.078994706,4.829512,-5.3938527,1.4835476,-0.45061898,0.10572039,-0.10810621,-0.8798177,-8.170406,9.307018,0.11083203,-0.560708,-0.56734985,0.2779296,0
1.420000000000001,13.03393850738149,-0.5607079723987719,-0.5673498384038915,0.27792961520738285,14.491246,-1.0070101,-0.5789876,0.078994706,4.7477503,-5.300597,1.4847875,-0.44940263,0.10433673,-0.10450728,-0.881039,-8.182019,9.343861,0.13721511,-0.560708,-0.56734985,0.2779296,0
1.430000000000001,13.03393850738149,-0.5607079723987719,-0.5673498384038915,0.27792961520738285,14.491246,-1.0070101,-0.5789876,0.078994706,4.6658716,-5.206979,1.4862926,-0.44817823,0.102951206,-0.10090648,-0.8822446,-8.193801,9.379714,0.16387059,-0.560708,-0.56734985,0.2779296,0
1.440000000000001,13.03393850738149,-0.5607079723987719,-0.5673498384038915,0.27792961520738285,14.212917,-0.7949742,-0.586267,0.19606584,4.5838737,-5.113006,1.4880657,-0.44694585,0.10156385,-0.097303875,-0.8834344,-8.20575,9.414577,0.19079094,-0.560708,-0.56734985,0.2779296,0
1.450000000000001,13.03393850738149,-0.5607079723987719,-0.5673498384038915,0.27792961520738285,14.212917,-0.7949742,-0.586267,0.19606584,4.501756,-5.01869,1.4901093,-0.44570547,0.10017469,-0.09369954,-0.8846085,-8.217864,9.448445,0.21796854,-0.560708,-0.56734985,0.2779296,0
1.460000000000001,13.03393850738149,-0.5607079723987719,-0.5673498384038915,0.27792961520738285,14.212917,-0.7949742,-0.586267,0.19606584,4.4195166,-4.924041,1.4924259,-0.44445714,0.09878374,-0.09009353,-0.88576686,-8.230137,9.481317,0.2453958,-0.560708,-0.56734985,0.2779296,0
1.470000000000001,13.03393850738149,-0.5607079723987719,-0.5673498384038915,0.27792961520738285,14.212917,-0.7949742,-0.586267,0.19606584,4.337153,-4.829067,1.495018,-0.44320092,0.09739102,-0.086485915,-0.88690937,-8.242565,9.51319,0.2730651,-0.560708,-0.56734985,0.2779296,0
1.480000000000001,12.620640863290152,-0.4643657264874152,-0.9654870573118217,0.2861417853523798,13.402054,-0.50252825,-0.9698012,0.15274473,4.254665,-4.7337804,1.4978881,-0.44193676,0.09599656,-0.08287676,-0.88803613,-8.255146,9.544062,0.30096883,-0.560708,-0.56734985,0.2779296,1
1.490000000000001,12.620640863290152,-0.4643657264874152,-0.9654870573118217,0.2861417853523798,13.402054,-0.50252825,-0.9698012,0.15274473,4.172049,-4.638186,1.5010563,-0.44141248,0.092736155,-0.07857456,-0.88903385,-8.268091,9.5746355,0.3327111,-0.50252825,-0.9698012,0.15274473,1
1.500000000000001,12.620640863290152,-0.4643657264874152,-0.9654870573118217,0.2861417853523798,13.402054,-0.50252825,-0.9698012,0.15274473,4.0893044,-4.5422926,1.5045435,-0.4408748,0.089472935,-0.07426998,-0.8900046,-8.280806,9.603806,0.36479867,-0.50252825,-0.9698012,0.15274473,1
1.5100000000000011,12.620640863290152,-0.4643657264874152,-0.9654870573118217,0.2861417853523798,13.402054,-0.50252825,-0.9698012,0.15274473,4.0064335,-4.446115,1.5083535,-0.44032368,0.086206995,-0.069963135,-0.8909482,-8.293284,9.631568,0.3972162,-0.50252825,-0.9698012,0.15274473,1
1.5200000000000011,12.109685557831488,-0.31341187037013807,-1.0524286212169736,0.2958042829797192,13.078017,-0.49185333,-0.74417657,0.1341415,3.923439,-4.3496666,1.5124892,-0.43975922,0.08293843,-0.065654166,-0.8918647,-8.305524,9.657922,0.42994824,-0.50252825,-0.9698012,0.15274473,1
1.5300000000000011,12.109685557831488,-0.31341187037013807,-1.0524286212169736,0.2958042829797192,13.078017,-0.49185333,-0.74417657,0.1341415,3.8403249,-4.252964,1.5169377,-0.43919688,0.08065653,-0.061879512,-0.8926206,-8.317292,9.682349,0.45978636,-0.49185333,-0.74417657,0.1341415,1
1.5400000000000011,12.109685557831488,-0.31341187037013807,-1.0524286212169736,0.2958042829797192,13.078017,-0.49185333,-0.74417657,0.1341415,3.7570937,-4.1560235,1.5216857,-0.43862563,0.07837298,-0.0581036,-0.8933584,-8.328986,9.705632,0.48984426,-0.49185333,-0.74417657,0.1341415,1
1.5500000000000012,12.109685557831488,-0.31341187037013807,-1.0524286212169736,0.2958042829797192,13.078017,-0.49185333,-0.74417657,0.1341415,3.6737456,-4.0588555,1.5267353,-0.43804544,0.07608784,-0.054326504,-0.8940781,-8.340604,9.727771,0.52011186,-0.49185333,-0.74417657,0.1341415,1
1.5600000000000012,11.355917416747692,-0.07955647963383736,-1.4014883467583312,0.3092745542791248,13.6740265,-0.2698863,-1.473001,0.35685408,3.590282,-3.961472,1.5320885,-0.43745634,0.07380115,-0.050548304,-0.8947795,-8.352143,9.748763,0.550579,-0.49185333,-0.74417657,0.1341415,0
1.5700000000000012,11.355917416747692,-0.07955647963383736,-1.4014883467583312,0.3092745542791248,13.6740265,-0.2698863,-1.473001,0.35685408,3.5067115,-3.8638978,1.5376627,-0.43638623,0.06762503,-0.047239773,-0.89597017,-8.361783,9.765884,0.56432456,-0.07955648,-1.4014883,0.30927455,0
1.5800000000000012,11.355917416747692,-0.07955647963383736,-1.4014883467583312,0.3092745542791248,13.6740265,-0.2698863,-1.473001,0.35685408,3.4230492,-3.7661588,1.5433758,-0.4352936,0.061445415,-0.043928802,-0.8971145,-8.370524,9.781715,0.5783336,-0.07955648,-1.4014883,0.30927455,0
1.5900000000000012,11.355917416747692,-0.07955647963383736,-1.4014883467583312,0.3092745542791248,13.6740265,-0.2698863,-1.473001,0.35685408,3.339304,-3.668268,1.5492303,-0.43417847,0.05526263,-0.040615566,-0.8982125,-8.378361,9.796257,0.5925841,-0.07955648,-1.4014883,0.30927455,0
1.6000000000000012,10.916898067461883,0.08189445331939428,-1.3631861935119283,0.29659396029246177,13.703783,-0.22017339,-1.2054036,0.66567916,3.255485,-3.570238,1.5552285,-0.43304092,0.04907698,-0.037300225,-0.8992641,-8.385287,9.809508,0.6070537,-0.07955648,-1.4014883,0.30927455,0
1.6100000000000012,10.916898067461883,0.08189445331939428,-1.3631861935119283,0.29659396029246177,13.703783,-0.22017339,-1.2054036,0.66567916,3.1716027,-3.4720843,1.5613505,-0.4319711,0.04271388,-0.034788758,-0.90020347,-8.391023,9.821059,0.61735725,0.08189445,-1.3631862,0.29659396,0
1.6200000000000012,10.916898067461883,0.08189445331939428,-1.3631861935119283,0.29659396029246177,13.703783,-0.22017339,-1.2054036,0.66567916,3.0876682,-3.3738203,1.5675763,-0.43088022,0.036348697,-0.0322756,-0.90109897,-8.395762,9.831515,0.62782025,0.08189445,-1.3631862,0.29659396,0
1.6300000000000012,10.916898067461883,0.08189445331939428,-1.3631861935119283,0.29659396029246177,13.703783,-0.22017339,-1.2054036,0.66567916,3.003691,-3.2754574,1.5739074,-0.42976823,0.029981734,-0.02976086,-0.9019505,-8.399502,9.840874,0.63842225,0.08189445,-1.3631862,0.29659396,0
1.6400000000000012,10.916898067461883,0.08189445331939428,-1.3631861935119283,0.29659396029246177,13.557498,-0.46704236,-1.0765997,0.69992447,2.9196815,-3.1770067,1.5803452,-0.42863527,0.02361331,-0.027244668,-0.90275794,-8.402237,9.849137,0.6491428,0.08189445,-1.3631862,0.29659396,0
1.6500000000000012,10.916898067461883,0.08189445331939428,-1.3631861935119283,0.29659396029246177,13.557498,-0.46704236,-1.0765997,0.69992447,2.8356497,-3.0784786,1.5868906,-0.42748144,0.017243732,-0.024727147,-0.90352136,-8.403963,9.856307,0.6599616,0.08189445,-1.3631862,0.29659396,0
1.6600000000000013,10.916898067461883,0.08189445331939428,-1.3631861935119283,0.29659396029246177,13.557498,-0.46704236,-1.0765997,0.69992447,2.7516057,-2.9798844,1.5935446,-0.42630672,0.010873313,-0.022208419,-0.9042406,-8.404676,9.862386,0.6708581,0.08189445,-1.3631862,0.29659396,0
1.6700000000000013,10.916898067461883,0.08189445331939428,-1.3631861935119283,0.29659396029246177,13.557498,-0.46704236,-1.0765997,0.69992447,2.6675596,-2.8812346,1.600308,-0.4251112,0.0045023626,-0.019688606,-0.90491575,-8.404375,9.867374,0.68181187,0.08189445,-1.3631862,0.29659396,0
1.6800000000000013,10.584946534421361,0.17746535365235974,-1.182360477242448,0.274343209373892,14.7080765,-0.578493,-1.790107,0.8530776,2.5835216,-2.7825403,1.607181,-0.4238949,-0.001868808,-0.017167833,-0.9055467,-8.403054,9.871275,0.6928023,0.08189445,-1.3631862,0.29659396,0
1.6900000000000013,10.584946534421361,0.17746535365235974,-1.182360477242448,0.274343209373892,14.7080765,-0.578493,-1.790107,0.8530776,2.4995015,-2.6838129,1.6141474,-0.42274463,-0.007621833,-0.01546249,-0.9060849,-8.4008,9.874084,0.7004899,0.17746535,-1.1823605,0.27434322,0
1.7000000000000013,10.584946534421361,0.17746535365235974,-1.182360477242448,0.274343209373892,14.7080765,-0.578493,-1.790107,0.8530776,2.4155087,-2.5850616,1.6211907,-0.42157844,-0.013374572,-0.013756565,-0.906589,-8.397598,9.876055,0.70817196,0.17746535,-1.1823605,0.27434322,0
1.7100000000000013,10.584946534421361,0.17746535365235974,-1.182360477242448,0.274343209373892,14.7080765,-0.578493,-1.790107,0.8530776,2.3315527,-2.4862947,1.6283108,-0.4203964,-0.019126808,-0.012050123,-0.9070589,-8.393447,9.877188,0.71583337,0.17746535,-1.1823605,0.27434322,0
1.7200000000000013,10.21770101760815,0.2652646842437647,-0.44746571589455153,0.2716245080640268,14.222105,-0.58234185,-1.5866321,0.95287275,2.2476432,-2.3875206,1.6355072,-0.4191985,-0.024878323,-0.010343228,-0.9074947,-8.388345,9.877487,0.72345877,0.17746535,-1.1823605,0.27434322,0
1.7300000000000013,10.21770101760815,0.2652646842437647,-0.44746571589455153,0.2716245080640268,14.222105,-0.58234185,-1.5866321,0.95287275,2.163788,-2.2887468,1.6427613,-0.4179544,-0.027478617,-0.010575142,-0.90799075,-8.382656,9.87721,0.7273768,0.2652647,-0.44746572,0.2716245,0
1.7400000000000013,10.21770101760815,0.2652646842437647,-0.44746571589455153,0.2716245080640268,14.222105,-0.58234185,-1.5866321,0.95287275,2.0799918,-2.189977,1.6500546,-0.41670662,-0.030078674,-0.010806965,-0.908479,-8.376467,9.876761,0.731265,0.2652647,-0.44746572,0.2716245,0
1.7500000000000013,10.21770101760815,0.2652646842437647,-0.44746571589455153,0.2716245080640268,14.222105,-0.58234185,-1.5866321,0.95287275,1.9962603,-2.0912123,1.6573865,-0.41545528,-0.03267847,-0.0110386945,-0.9089594,-8.369774,9.876142,0.73512065,0.2652647,-0.44746572,0.2716245,0
1.7600000000000013,9.877536773781847,0.2970909831912392,-0.21393599455816567,0.2857984309305275,14.468225,-0.58060503,-1.4440705,0.65058064,1.9125981,-1.9924546,1.664757,-0.41420037,-0.035277985,-0.011270329,-0.90943193,-8.362577,9.875354,0.73894083,0.2652647,-0.44746572,0.2716245,0
1.7700000000000014,9.877536773781847,0.2970909831912392,-0.21393599455816567,0.2857984309305275,14.468225,-0.58060503,-1.4440705,0.65058064,1.8290089,-1.8937054,1.6721485,-0.41285935,-0.03688207,-0.012127745,-0.9099668,-8.355183,9.874504,0.7393353,0.29709098,-0.213936,0.28579843,0
1.7800000000000014,9.877536773781847,0.2970909831912392,-0.21393599455816567,0.2857984309305275,14.468225,-0.58060503,-1.4440705,0.65058064,1.7454956,-1.7949644,1.6795437,-0.4115161,-0.038485955,-0.012985094,-0.9104969,-8.347429,9.873689,0.73970246,0.29709098,-0.213936,0.28579843,0
1.7900000000000014,9.877536773781847,0.2970909831912392,-0.21393599455816567,0.2857984309305275,14.468225,-0.58060503,-1.4440705,0.65058064,1.6620616,-1.6962315,1.6869425,-0.4101706,-0.040089633,-0.013842374,-0.911022,-8.339317,9.872909,0.740041,0.29709098,-0.213936,0.28579843,0
1.8000000000000014,9.595601003826582,0.22332722906112076,0.11570384612898384,0.32990386902565116,13.836221,-0.5979064,-1.2981032,0.5089289,1.5787106,-1.5975062,1.6943444,-0.40882292,-0.041693095,-0.014699579,-0.91154224,-8.330847,9.872166,0.7403496,0.29709098,-0.213936,0.28579843,0
1.8100000000000014,9.595601003826582,0.22332722906112076,0.11570384612898384,0.32990386902565116,13.836221,-0.5979064,-1.2981032,0.5089289,1.4954444,-1.4987878,1.7017353,-0.40726337,-0.041646417,-0.015885146,-0.9122224,-8.322368,9.871551,0.73782825,0.22332723,0.11570384,0.32990387,0
1.8200000000000014,9.595601003826582,0.22332722906112076,0.11570384612898384,0.32990386902565116,13.836221,-0.5979064,-1.2981032,0.5089289,1.4122634,-1.4000744,1.709101,-0.40570205,-0.04159956,-0.017070644,-0.91289854,-8.313804,9.871161,0.7353004,0.22332723,0.11570384,0.32990387,0
1.8300000000000014,9.595601003826582,0.22332722906112076,0.11570384612898384,0.32990386902565116,13.836221,-0.5979064,-1.2981032,0.5089289,1.3291686,-1.3013637,1.7164413,-0.404139,-0.041552525,-0.018256068,-0.9135708,-8.305156,9.870998,0.7327657,0.22332723,0.11570384,0.32990387,0
1.8400000000000014,9.595601003826582,0.22332722906112076,0.11570384612898384,0.32990386902565116,13.531469,-0.6470062,-1.7049396,0.48631412,1.2461606,-1.2026535,1.7237563,-0.4025742,-0.04150531,-0.019441415,-0.9142391,-8.296424,9.871061,0.7302234,0.22332723,0.11570384,0.32990387,0
1.8500000000000014,9.595601003826582,0.22332722906112076,0.11570384612898384,0.32990386902565116,13.531469,-0.6470062,-1.7049396,0.48631412,1.1632404,-1.1039417,1.7310457,-0.4010077,-0.041457918,-0.020626679,-0.9149035,-8.287608,9.87135,0.7276732,0.22332723,0.11570384,0.32990387,0
1.8600000000000014,9.595601003826582,0.22332722906112076,0.11570384612898384,0.32990386902565116,13.531469,-0.6470062,-1.7049396,0.48631412,1.0804088,-1.0052259,1.7383096,-0.39943945,-0.041410346,-0.021811854,-0.91556394,-8.278711,9.871867,0.72511435,0.22332723,0.11570384,0.32990387,0
1.8700000000000014,9.595601003826582,0.22332722906112076,0.11570384612898384,0.32990386902565116,13.531469,-0.6470062,-1.7049396,0.48631412,0.9976664,-0.9065036,1.745548,-0.3978695,-0.041362595,-0.022996934,-0.9162205,-8.269732,9.87261,0.72254646,0.22332723,0.11570384,0.32990387,0
1.8800000000000014,9.353975178520113,0.1207820115454157,-0.9931168715861842,0.3989941903665315,14.445788,-0.3980881,-3.4980009,0.62245333,0.9150143,-0.8077729,1.7527606,-0.39629784,-0.041314665,-0.024181915,-0.91687304,-8.2606735,9.873581,0.7199689,0.22332723,0.11570384,0.32990387,0
1.8900000000000015,9.353975178520113,0.1207820115454157,-0.9931168715861842,0.3989941903665315,14.445788,-0.3980881,-3.4980009,0.62245333,0.83245283,-0.7090323,1.7599354,-0.3945581,-0.04615442,-0.02268501,-0.9174306,-8.251524,9.874441,0.7149559,0.12078201,-0.99311686,0.39899418,0
1.9000000000000015,9.353975178520113,0.1207820115454157,-0.9931168715861842,0.3989941903665315,14.445788,-0.3980881,-3.4980009,0.62245333,0.74998635,-0.61028606,1.7670596,-0.39280692,-0.05099284,-0.021187445,-0.91796154,-8.241657,9.874703,0.70987326,0.12078201,-0.99311686,0.39899418,0
1.9100000000000015,9.353975178520113,0.1207820115454157,-0.9931168715861842,0.3989941903665315,14.445788,-0.3980881,-3.4980009,0.62245333,0.66762215,-0.5115402,1.7741326,-0.39104432,-0.05582978,-0.019689268,-0.9184658,-8.231073,9.874373,0.7047114,0.12078201,-0.99311686,0.39899418,0
1.9200000000000015,9.083010129850367,-0.08294995807262238,-1.6426468471543352,0.49765272161755625,13.119025,-0.6449022,-2.4487648,0.8325668,0.5853674,-0.4128006,1.7811536,-0.3892704,-0.060665097,-0.018190518,-0.9189435,-8.2197695,9.87345,0.6994607,0.12078201,-0.99311686,0.39899418,0
1.9300000000000015,9.083010129850367,-0.08294995807262238,-1.6426468471543352,0.49765272161755625,13.119025,-0.6449022,-2.4487648,0.8325668,0.50322783,-0.3140736,1.7881081,-0.38714406,-0.06809408,-0.01446064,-0.9193875,-8.20799,9.871776,0.6914072,-0.08294996,-1.6426468,0.4976527,0
1.9400000000000015,9.083010129850367,-0.08294995807262238,-1.6426468471543352,0.49765272161755625,13.119025,-0.6449022,-2.4487648,0.8325668,0.42121094,-0.21536891,1.7949812,-0.38498914,-0.075518034,-0.010729696,-0.9197636,-8.195233,9.868983,0.68319273,-0.08294996,-1.6426468,0.4976527,0
1.9500000000000015,9.083010129850367,-0.08294995807262238,-1.6426468471543352,0.49765272161755625,13.119025,-0.6449022,-2.4487648,0.8325668,0.3393265,-0.11669776,1.8017714,-0.3828058,-0.08293642,-0.0069979588,-0.92007184,-8.181498,9.865078,0.6747923,-0.08294996,-1.6426468,0.4976527,0
1.9600000000000015,8.951706713970466,-0.2594983979742054,-2.7141952742761326,0.6390442335795394,11.649577,-0.64588606,-0.76344764,0.8488555,0.25758436,-0.01807117,1.8084764,-0.38059416,-0.090348676,-0.0032657061,-0.9203121,-8.166781,9.860066,0.666181,-0.08294996,-1.6426468,0.4976527,0
1.9700000000000015,8.951706713970466,-0.2594983979742054,-2.7141952742761326,0.6390442335795394,11.649577,-0.64588606,-0.76344764,0.8488555,0.17599376,0.080499366,1.8150876,-0.37777787,-0.10234557,0.0033822127,-0.9202161,-8.151101,9.853749,0.65598476,-0.2594984,-2.7141953,0.6390442,0
1.9800000000000015,8.951706713970466,-0.2594983979742054,-2.7141952742761326,0.6390442335795394,11.649577,-0.64588606,-0.76344764,0.8488555,0.09456757,0.17899746,1.8215946,-0.37488753,-0.1143224,0.010029469,-0.91993964,-8.133897,9.845576,0.64534944,-0.2594984,-2.7141953,0.6390442,0
1.9900000000000015,8.951706713970466,-0.2594983979742054,-2.7141952742761326,0.6390442335795394,11.649577,-0.64588606,-0.76344764,0.8488555,0.013321035,0.27740458,1.8279928,-0.37192369,-0.12627682,0.016674757,-0.9194828,-8.1151705,9.835565,0.63420874,-0.2594984,-2.7141953,0.6390442,0
2.0000000000000013,,,,,11.822368,-1.1267977,-2.5132737,0.8383822,-0.06773063,0.37570244,1.8342768,-0.3688869,-0.13820647,0.023316778,-0.91884565,-8.094924,9.82373,0.62249666,-0.2594984,-2.7141953,0.6390442,0
2.010000000000001,,,,,11.822368,-1.1267977,-2.5132737,0.8383822,-0.1485737,0.4738738,1.8404362,-0.36520603,-0.14797042,0.030051306,-0.9185999,-8.073507,9.810284,0.6093178,-0.4166518,-2.3151898,0.7989369,0
2.020000000000001,,,,,11.822368,-1.1267977,-2.5132737,0.8383822,-0.22919677,0.5719025,1.846461,-0.36146885,-0.15771155,0.036781196,-0.9182124,-8.050927,9.795206,0.5955618,-0.4166518,-2.3151898,0.7989369,0
2.0300000000000007,,,,,11.822368,-1.1267977,-2.5132737,0.8383822,-0.30958825,0.6697724,1.8523453,-0.35767588,-0.16742834,0.04350541,-0.91768324,-8.027184,9.778517,0.5811804,-0.4166518,-2.3151898,0.7989369,0
2.0400000000000005,,,,,11.822368,-1.1267977,-2.5132737,0.8383822,-0.38973644,0.7674674,1.8580824,-0.35382771,-0.1771193,0.05022292,-0.91701245,-8.002276,9.760234,0.5661255,-0.4166518,-2.3151898,0.7989369,0
2.0500000000000003,,,,,10.834036,-1.2132406,-2.0357032,0.9022055,-0.46962976,0.8649717,1.8636653,-0.34992495,-0.18678296,0.056932677,-0.9162002,-7.976206,9.740379,0.5503495,-0.4166518,-2.3151898,0.7989369,1
2.06,,,,,10.834036,-1.2132406,-2.0357032,0.9022055,-0.5492273,0.96224564,1.8691778,-0.34631753,-0.19371378,0.06688999,-0.9154586,-7.943201,9.714036,0.5520182,-1.2132406,-2.0357032,0.9022055,1
2.07,,,,,10.834036,-1.2132406,-2.0357032,0.9022055,-0.6284916,1.0592444,1.8747027,-0.34265438,-0.20061345,0.07683654,-0.9145698,-7.9095535,9.685361,0.5528256,-1.2132406,-2.0357032,0.9022055,1
2.0799999999999996,,,,,10.834036,-1.2132406,-2.0357032,0.9022055,-0.7074161,1.1559448,1.880231,-0.33893618,-0.20748088,0.08677076,-0.913534,-7.8752604,9.654379,0.5527112,-1.2132406,-2.0357032,0.9022055,1
2.0899999999999994,,,,,9.605192,-1.0402819,-1.378539,0.8160496,-0.78599447,1.2523241,1.8857534,-0.33516347,-0.21431495,0.09669103,-0.9123513,-7.8403206,9.621114,0.5516149,-1.2132406,-2.0357032,0.9022055,1
2.099999999999999,,,,,9.605192,-1.0402819,-1.378539,0.8160496,-0.86424077,1.3483799,1.8912054,-0.3318739,-0.21845582,0.10461664,-0.91169715,-7.808889,9.589803,0.53870547,-1.0402819,-1.378539,0.8160496,1
2.109999999999999,,,,,9.605192,-1.0402819,-1.378539,0.8160496,-0.9421714,1.4441149,1.8965251,-0.32855403,-0.22257675,0.11253272,-0.91095984,-7.7772017,9.556993,0.5251346,-1.0402819,-1.378539,0.8160496,1
2.1199999999999988,,,,,9.605192,-1.0402819,-1.378539,0.8160496,-1.019784,1.5395145,1.9017057,-0.32520422,-0.2266774,0.12043853,-0.9101393,-7.7452555,9.5226965,0.5108737,-1.0402819,-1.378539,0.8160496,1
2.1299999999999986,,,,,8.993343,-0.7064346,0.06676013,0.85844994,-1.0970757,1.6345637,1.9067402,-0.32182476,-0.23075739,0.12833335,-0.90923584,-7.713049,9.486928,0.49589446,-1.0402819,-1.378539,0.8160496,1
2.1399999999999983,,,,,8.993343,-0.7064346,0.06676013,0.85844994,-1.1740551,1.7292607,1.9115956,-0.31877503,-0.22876273,0.13242595,-0.9102268,-7.682908,9.452414,0.4751782,-0.7064346,0.06676013,0.85844994,1
