time-since-start [s],throttle_mpc,roll_mpc,pitch_mpc,yaw_mpc,throttle_nw,roll_nw,pitch_nw,yaw_nw,position_x [m],position_y [m],position_z [m],rotation_w [quaternion],rotation_x [quaternion],rotation_y [quaternion],rotation_z [quaternion],velocity_x [m/s],velocity_y [m/s],velocity_z [m/s],omega_x [rad/s],omega_y [rad/s],omega_z [rad/s],network_used
0.0,9.605485910715526,5.999999744320064,-5.999999787485024,1.429031254629993,15.476534,1.0240644,-2.8697932,-0.21970588,16.407486,-10.884026,2.0842578,-0.2889003,0.37553564,-0.28455848,-0.8333883,-10.724345,-2.1902711,0.5520394,1.7825814,-0.13685831,-0.5242606,0
0.01,9.605485910715526,5.999999744320064,-5.999999787485024,1.429031254629993,15.22442,2.4862974,-4.5586586,-0.4829206,16.300028,-10.905594,2.0895581,-0.30247682,0.33949727,-0.30330718,-0.8374092,-10.765947,-2.123043,0.50844574,5.9999995,-6.0,1.4290313,0
0.02,9.605485910715526,5.999999744320064,-5.999999787485024,1.429031254629993,15.22442,2.4862974,-4.5586586,-0.4829206,16.192192,-10.92648,2.0944362,-0.3154935,0.30283058,-0.32149452,-0.8398802,-10.800102,-2.0538485,0.46750236,5.9999995,-6.0,1.4290313,0
0.03,9.605485910715526,5.999999744320064,-5.999999787485024,1.429031254629993,15.22442,2.4862974,-4.5586586,-0.4829206,16.084051,-10.946667,2.0989156,-0.32792625,0.26560342,-0.33908686,-0.84079677,-10.826555,-1.9831085,0.42871094,5.9999995,-6.0,1.4290313,0
0.04,9.605485910715526,5.999999744320064,-5.999999787485024,1.429031254629993,13.675339,-0.7841345,-2.8163128,-0.3419565,15.975686,-10.966139,2.103016,-0.33975214,0.2278847,-0.35605162,-0.8401572,-10.845107,-1.9112562,0.39155725,5.9999995,-6.0,1.4290313,0
0.05,9.605485910715526,5.999999744320064,-5.999999787485024,1.429031254629993,13.675339,-0.7841345,-2.8163128,-0.3419565,15.867177,-10.98489,2.1067507,-0.35094923,0.18974419,-0.37235743,-0.8379628,-10.855617,-1.8387322,0.35551497,5.9999995,-6.0,1.4290313,0
0.060000000000000005,9.605485910715526,5.999999744320064,-5.999999787485024,1.429031254629993,13.675339,-0.7841345,-2.8163128,-0.3419565,15.758602,-11.002913,2.1101282,-0.3614968,0.1512525,-0.3879741,-0.8342175,-10.858004,-1.7659824,0.3200496,5.9999995,-6.0,1.4290313,0
0.07,9.605485910715526,5.999999744320064,-5.999999787485024,1.429031254629993,13.675339,-0.7841345,-2.8163128,-0.3419565,15.650044,-11.02021,2.1131518,-0.3713753,0.11248089,-0.40287268,-0.82892823,-10.852248,-1.693454,0.28462234,5.9999995,-6.0,1.4290313,0
0.08,15.993912313736482,5.999999460760253,-5.999999616106198,1.100467295622648,14.007902,-2.0576577,1.879034,-0.43546152,15.541585,-11.036784,2.115819,-0.38056648,0.0735011,-0.4170257,-0.82210475,-10.83839,-1.6215932,0.24869409,5.9999995,-6.0,1.4290313,0
0.09,15.993912313736482,5.999999460760253,-5.999999616106198,1.100467295622648,14.007902,-2.0576577,1.879034,-0.43546152,15.433373,-11.052408,2.1183262,-0.39040747,0.0350708,-0.43029052,-0.8131433,-10.8019905,-1.5037879,0.25239313,5.9999995,-5.9999995,1.1004673,0
0.09999999999999999,15.993912313736482,5.999999460760253,-5.999999616106198,1.100467295622648,14.007902,-2.0576577,1.879034,-0.43546152,15.325591,-11.066867,2.1208577,-0.399534,-0.0034236796,-0.44276792,-0.80269384,-10.752529,-1.3885742,0.25351718,5.9999995,-5.9999995,1.1004673,0
0.10999999999999999,15.993912313736482,5.999999460760253,-5.999999616106198,1.100467295622648,14.007902,-2.0576577,1.879034,-0.43546152,15.218367,-11.080191,2.1233845,-0.40792942,-0.041911893,-0.45443508,-0.79077536,-10.690365,-1.2766831,0.25123996,5.9999995,-5.9999995,1.1004673,0
0.11999999999999998,15.993912313736482,5.999999460760253,-5.999999616106198,1.100467295622648,14.007902,-2.0576577,1.879034,-0.43546152,15.111826,-11.092415,2.1258678,-0.41557834,-0.080323406,-0.4652706,-0.7774098,-10.61595,-1.1688206,0.24476,5.9999995,-5.9999995,1.1004673,0
0.12999999999999998,19.494947619542707,3.751717431817514,-5.9999983365791625,0.18208510939128555,15.476715,-3.463923,0.9885433,0.23763031,15.006088,-11.103584,2.1282625,-0.42246675,-0.118587926,-0.4752547,-0.7626215,-10.529826,-1.065664,0.23330674,5.9999995,-5.9999995,1.1004673,0
0.13999999999999999,19.494947619542707,3.751717431817514,-5.9999983365791625,0.18208510939128555,15.476715,-3.463923,0.9885433,0.23763031,14.901369,-11.113641,2.130608,-0.4335386,-0.14974333,-0.4764805,-0.75005835,-10.412189,-0.9467434,0.23525536,3.7517173,-5.9999986,0.18208511,0
0.15,19.494947619542707,3.751717431817514,-5.9999983365791625,0.18208510939128555,15.476715,-3.463923,0.9885433,0.23763031,14.79788,-11.122546,2.1329541,-0.4440674,-0.18071118,-0.4771095,-0.7365556,-10.283989,-0.8357825,0.23329695,3.7517173,-5.9999986,0.18208511,0
0.16,18.412753918457238,0.5442436077795582,-2.661576368470663,-0.019273232324607086,15.843572,-3.105126,2.1709614,-0.32318303,14.695724,-11.130385,2.135259,-0.45403993,-0.21145268,-0.4771408,-0.72213024,-10.145868,-0.73332244,0.22692983,3.7517173,-5.9999986,0.18208511,0
0.17,18.412753918457238,0.5442436077795582,-2.661576368470663,-0.019273232324607086,15.843572,-3.105126,2.1709614,-0.32318303,14.594948,-11.137265,2.1374567,-0.45984176,-0.22223242,-0.47304004,-0.7179076,-10.008783,-0.6433262,0.21255091,0.54424363,-2.6615763,-0.019273233,0
0.18000000000000002,18.412753918457238,0.5442436077795582,-2.661576368470663,-0.019273232324607086,15.843572,-3.105126,2.1709614,-0.32318303,14.495557,-11.143267,2.139509,-0.46555874,-0.23297115,-0.468852,-0.71355253,-9.868891,-0.55745786,0.19786249,0.54424363,-2.6615763,-0.019273233,0
0.19000000000000003,18.412753918457238,0.5442436077795582,-2.661576368470663,-0.019273232324607086,15.843572,-3.105126,2.1709614,-0.32318303,14.397579,-11.148429,2.1414127,-0.47118986,-0.2436669,-0.4645775,-0.7090658,-9.726293,-0.475781,0.18280382,0.54424363,-2.6615763,-0.019273233,0
0.20000000000000004,16.61553239376213,-0.4586210539310479,0.01957820461570433,-0.1871475719986457,14.833317,-3.088275,3.424385,-0.6338136,14.30104,-11.152796,2.1431637,-0.476734,-0.2543177,-0.46021724,-0.7044482,-9.581096,-0.3983562,0.16731451,0.54424363,-2.6615763,-0.019273233,0
0.21000000000000005,16.61553239376213,-0.4586210539310479,0.01957820461570433,-0.1871475719986457,14.833317,-3.088275,3.424385,-0.6338136,14.205891,-11.156443,2.1447184,-0.47792986,-0.2527241,-0.45888507,-0.70508015,-9.448782,-0.3309351,0.14374685,-0.45862105,0.019578205,-0.18714757,0
0.22000000000000006,16.61553239376213,-0.4586210539310479,0.01957820461570433,-0.1871475719986457,14.833317,-3.088275,3.424385,-0.6338136,14.112062,-11.159414,2.146041,-0.4791228,-0.25112897,-0.4575501,-0.7057078,-9.316818,-0.26357752,0.12085393,-0.45862105,0.019578205,-0.18714757,0
0.23000000000000007,16.61553239376213,-0.4586210539310479,0.01957820461570433,-0.1871475719986457,14.833317,-3.088275,3.424385,-0.6338136,14.019552,-11.161715,2.1471379,-0.48031273,-0.24953231,-0.45621234,-0.7063311,-9.185207,-0.19628355,0.09863398,-0.45862105,0.019578205,-0.18714757,0
0.24000000000000007,16.61553239376213,-0.4586210539310479,0.01957820461570433,-0.1871475719986457,15.336521,-2.5175266,3.7218354,-0.15922727,13.928358,-11.163341,2.148016,-0.48149973,-0.2479341,-0.45487174,-0.70695,-9.053953,-0.12905331,0.07708522,-0.45862105,0.019578205,-0.18714757,0
0.25000000000000006,16.61553239376213,-0.4586210539310479,0.01957820461570433,-0.1871475719986457,15.336521,-2.5175266,3.7218354,-0.15922727,13.838473,-11.164294,2.1486819,-0.48268378,-0.24633436,-0.45352837,-0.70756465,-8.923059,-0.06188692,0.056205872,-0.45862105,0.019578205,-0.18714757,0
0.26000000000000006,16.61553239376213,-0.4586210539310479,0.01957820461570433,-0.1871475719986457,15.336521,-2.5175266,3.7218354,-0.15922727,13.749896,-11.164577,2.1491425,-0.48386487,-0.24473311,-0.45218223,-0.7081749,-8.792528,0.0052154996,0.035994135,-0.45862105,0.019578205,-0.18714757,0
0.2700000000000001,16.61553239376213,-0.4586210539310479,0.01957820461570433,-0.1871475719986457,15.336521,-2.5175266,3.7218354,-0.15922727,13.662622,-11.164188,2.1494043,-0.485043,-0.24313036,-0.4508333,-0.7087808,-8.662364,0.072253846,0.01644817,-0.45862105,0.019578205,-0.18714757,0
0.2800000000000001,14.835504218866763,-1.3822394374269822,2.09486113646514,-0.34049760957856845,16.528997,-3.0517151,4.047742,-0.5849808,13.576649,-11.163132,2.1494737,-0.48621812,-0.24152611,-0.44948158,-0.70938236,-8.53257,0.13922802,-0.0024338523,-0.45862105,0.019578205,-0.18714757,0
0.2900000000000001,14.835504218866763,-1.3822394374269822,2.09486113646514,-0.34049760957856845,16.528997,-3.0517151,4.047742,-0.5849808,13.491899,-11.161437,2.1493158,-0.48434815,-0.22995119,-0.45004684,-0.71413386,-8.417738,0.19995035,-0.028877838,-1.3822395,2.094861,-0.3404976,0
0.3000000000000001,14.835504218866763,-1.3822394374269822,2.09486113646514,-0.34049760957856845,16.528997,-3.0517151,4.047742,-0.5849808,13.408286,-11.159122,2.148901,-0.48240048,-0.21833938,-0.45053992,-0.7187708,-8.305213,0.26321185,-0.053874232,-1.3822395,2.094861,-0.3404976,0
0.3100000000000001,14.835504218866763,-1.3822394374269822,2.09486113646514,-0.34049760957856845,16.528997,-3.0517151,4.047742,-0.5849808,13.325787,-11.156163,2.1482432,-0.48037547,-0.20669255,-0.45096076,-0.72329247,-8.195062,0.32898027,-0.077479005,-1.3822395,2.094861,-0.3404976,0
0.3200000000000001,13.447877506673311,-2.316633554456853,4.596271537714492,-0.504499758774019,15.802151,-3.8717556,5.95697,-0.2870373,13.244377,-11.152534,2.1473563,-0.4782734,-0.19501257,-0.45130926,-0.7276982,-8.087354,0.3972217,-0.099749,-1.3822395,2.094861,-0.3404976,0
0.3300000000000001,13.447877506673311,-2.316633554456853,4.596271537714492,-0.504499758774019,15.802151,-3.8717556,5.95697,-0.2870373,13.1639805,-11.148239,2.1462176,-0.47183695,-0.17154814,-0.45421225,-0.7359567,-7.9928465,0.46231326,-0.12776078,-2.3166335,4.5962715,-0.50449973,0
0.34000000000000014,13.447877506673311,-2.316633554456853,4.596271537714492,-0.504499758774019,15.802151,-3.8717556,5.95697,-0.2870373,13.084505,-11.1432705,2.1448066,-0.46508506,-0.14796902,-0.45681158,-0.74372315,-7.9030523,0.53223723,-0.15424727,-2.3166335,4.5962715,-0.50449973,0
0.35000000000000014,13.447877506673311,-2.316633554456853,4.596271537714492,-0.504499758774019,15.802151,-3.8717556,5.95697,-0.2870373,13.005902,-11.137579,2.1431372,-0.45802218,-0.124290965,-0.45910546,-0.7509924,-7.8182,0.6068261,-0.17942683,-2.3166335,4.5962715,-0.50449973,0
0.36000000000000015,12.79522348274556,-2.63238002209281,4.801178812462096,-0.6896655694160335,16.51437,-3.7839434,6.4019184,-0.7933343,12.928123,-11.131119,2.141222,-0.45065305,-0.10052979,-0.46109235,-0.75775945,-7.738505,0.6859001,-0.2035213,-2.3166335,4.5962715,-0.50449973,0
0.37000000000000016,12.79522348274556,-2.63238002209281,4.801178812462096,-0.6896655694160335,16.51437,-3.7839434,6.4019184,-0.7933343,12.851096,-11.123865,2.1390522,-0.44334963,-0.07478265,-0.4621081,-0.7643983,-7.667925,0.7652698,-0.23029916,-2.63238,4.801179,-0.68966556,0
0.38000000000000017,12.79522348274556,-2.63238002209281,4.801178812462096,-0.6896655694160335,16.51437,-3.7839434,6.4019184,-0.7933343,12.774746,-11.115798,2.1366189,-0.43570864,-0.048978563,-0.46277204,-0.77045506,-7.6030293,0.84864885,-0.25625736,-2.63238,4.801179,-0.68966556,0
0.3900000000000002,12.79522348274556,-2.63238002209281,4.801178812462096,-0.6896655694160335,16.51437,-3.7839434,6.4019184,-0.7933343,12.699016,-11.106879,2.133929,-0.42773595,-0.02313719,-0.46308362,-0.7759253,-7.544,0.9358122,-0.28165168,-2.63238,4.801179,-0.68966556,0
0.4000000000000002,12.646970038455692,-2.4662814752846636,3.4215677656135215,-0.8510111803029718,14.663185,-3.0646334,3.8114328,-0.22073509,12.623845,-11.097071,2.130987,-0.4194376,0.0027218005,-0.46304262,-0.78080475,-7.4910035,1.0265232,-0.30673972,-2.63238,4.801179,-0.68966556,0
0.4100000000000002,12.646970038455692,-2.4662814752846636,3.4215677656135215,-0.8510111803029718,14.663185,-3.0646334,3.8114328,-0.22073509,12.549173,-11.086345,2.127791,-0.41470802,0.023219999,-0.4604713,-0.78450245,-7.4442453,1.1190481,-0.33241645,-2.4662814,3.4215677,-0.85101116,0
0.4200000000000002,12.646970038455692,-2.4662814752846636,3.4215677656135215,-0.8510111803029718,14.663185,-3.0646334,3.8114328,-0.22073509,12.474944,-11.074683,2.12434,-0.40978652,0.04370745,-0.45768687,-0.787837,-7.402408,1.21359,-0.35768938,-2.4662814,3.4215677,-0.85101116,0
0.4300000000000002,12.646970038455692,-2.4662814752846636,3.4215677656135215,-0.8510111803029718,14.663185,-3.0646334,3.8114328,-0.22073509,12.401109,-11.062066,2.120638,-0.40467536,0.06417467,-0.45469064,-0.790807,-7.365558,1.310006,-0.38272503,-2.4662814,3.4215677,-0.85101116,0
0.4400000000000002,12.646970038455692,-2.4662814752846636,3.4215677656135215,-0.8510111803029718,14.308443,-2.3098593,1.7324916,-0.18867658,12.327616,-11.048477,2.1166859,-0.39937693,0.08461219,-0.45148394,-0.79341096,-7.3337536,1.4081495,-0.4076904,-2.4662814,3.4215677,-0.85101116,0
0.45000000000000023,12.646970038455692,-2.4662814752846636,3.4215677656135215,-0.8510111803029718,14.308443,-2.3098593,1.7324916,-0.18867658,12.2544155,-11.033898,2.1124837,-0.39389366,0.10501055,-0.4480683,-0.79564774,-7.3070426,1.5078709,-0.43275258,-2.4662814,3.4215677,-0.85101116,0
0.46000000000000024,12.646970038455692,-2.4662814752846636,3.4215677656135215,-0.8510111803029718,14.308443,-2.3098593,1.7324916,-0.18867658,12.1814575,-11.018314,2.1080298,-0.3882281,0.12536031,-0.44444525,-0.7975162,-7.285465,1.6090177,-0.45807847,-2.4662814,3.4215677,-0.85101116,0
0.47000000000000025,12.646970038455692,-2.4662814752846636,3.4215677656135215,-0.8510111803029718,14.308443,-2.3098593,1.7324916,-0.18867658,12.108689,-11.001714,2.1033206,-0.38238278,0.14565204,-0.44061652,-0.79901564,-7.2690487,1.7114347,-0.48383456,-2.4662814,3.4215677,-0.85101116,0
0.48000000000000026,12.673238508992112,-2.06741282669929,1.9892909021840077,-0.880838478052046,16.259817,-2.1474295,1.9972717,-0.28812945,12.036059,-10.984082,2.098351,-0.37636054,0.16587637,-0.43658385,-0.80014527,-7.2578144,1.8149643,-0.51018643,-2.4662814,3.4215677,-0.85101116,0
0.49000000000000027,12.673238508992112,-2.06741282669929,1.9892909021840077,-0.880838478052046,16.259817,-2.1474295,1.9972717,-0.28812945,11.963518,-10.965411,2.0931158,-0.3737851,0.17962906,-0.43127665,-0.8012607,-7.2511683,1.9194263,-0.53684705,-2.0674129,1.989291,-0.88083845,0
0.5000000000000002,12.673238508992112,-2.06741282669929,1.9892909021840077,-0.880838478052046,16.259817,-2.1474295,1.9972717,-0.28812945,11.891025,-10.945693,2.087614,-0.37112555,0.1933413,-0.42587233,-0.8021957,-7.248151,2.0241032,-0.5635766,-2.0674129,1.989291,-0.88083845,0
0.5100000000000002,12.673238508992112,-2.06741282669929,1.9892909021840077,-0.880838478052046,16.259817,-2.1474295,1.9972717,-0.28812945,11.8185425,-10.924929,2.081844,-0.3683824,0.20701,-0.4203721,-0.8029501,-7.2487626,2.1289265,-0.59046024,-2.0674129,1.989291,-0.88083845,0
0.5200000000000002,12.837845265652756,-1.5440461111739827,0.297443706813051,-0.8371666584472564,15.494225,-1.7343167,1.229925,-0.13343857,11.7460375,-10.903115,2.075804,-0.36555627,0.22063208,-0.41477722,-0.8035236,-7.2530017,2.233828,-0.617583,-2.0674129,1.989291,-0.88083845,0
0.5300000000000002,12.837845265652756,-1.5440461111739827,0.297443706813051,-0.8371666584472564,15.494225,-1.7343167,1.229925,-0.13343857,11.673472,-10.880246,2.069497,-0.366585,0.22637664,-0.40817758,-0.80483556,-7.260254,2.3398762,-0.64369756,-1.5440462,0.29744372,-0.83716667,0
0.5400000000000003,12.837845265652756,-1.5440461111739827,0.297443706813051,-0.8371666584472564,15.494225,-1.7343167,1.229925,-0.13343857,11.600825,-10.856319,2.0629327,-0.36758462,0.23210324,-0.40154558,-0.8060838,-7.2692823,2.4452922,-0.6690883,-1.5440462,0.29744372,-0.83716667,0
0.5500000000000003,12.837845265652756,-1.5440461111739827,0.297443706813051,-0.8371666584472564,15.494225,-1.7343167,1.229925,-0.13343857,11.52808,-10.831342,2.0561175,-0.36855507,0.23781143,-0.3948817,-0.80726796,-7.2800913,2.5500586,-0.6937859,-1.5440462,0.29744372,-0.83716667,0
0.5600000000000003,12.96098955385105,-1.0065957180034832,-0.8790804925938999,-0.7200169867465904,14.916152,-1.8020327,0.75400895,-0.0019560307,11.455218,-10.80532,2.049059,-0.3694963,0.24350075,-0.3881865,-0.8083881,-7.292686,2.654157,-0.71782106,-1.5440462,0.29744372,-0.83716667,0
0.5700000000000003,12.96098955385105,-1.0065957180034832,-0.8790804925938999,-0.7200169867465904,14.916152,-1.8020327,0.75400895,-0.0019560307,11.382222,-10.778255,2.0417676,-0.37287658,0.24319772,-0.3816061,-0.8100586,-7.306657,2.7584395,-0.74023443,-1.0065957,-0.8790805,-0.720017,0
0.5800000000000003,12.96098955385105,-1.0065957180034832,-0.8790804925938999,-0.7200169867465904,14.916152,-1.8020327,0.75400895,-0.0019560307,11.309084,-10.750154,2.0342588,-0.3762354,0.24288069,-0.3750037,-0.81168234,-7.320969,2.8616858,-0.7613027,-1.0065957,-0.8790805,-0.720017,0
0.5900000000000003,12.96098955385105,-1.0065957180034832,-0.8790804925938999,-0.7200169867465904,14.916152,-1.8020327,0.75400895,-0.0019560307,11.235802,-10.721025,2.026546,-0.3795725,0.24254964,-0.36837965,-0.81325936,-7.3356323,2.9638774,-0.7810424,-1.0065957,-0.8790805,-0.720017,0
0.6000000000000003,13.126578266283794,-0.6991947013682388,-0.7164274896044129,-0.5812397087691351,15.473742,-1.8294529,1.111135,0.13051951,11.162371,-10.69088,2.0186422,-0.38288778,0.24220464,-0.36173445,-0.8147896,-7.3506556,3.064997,-0.7994703,-1.0065957,-0.8790805,-0.720017,0
0.6100000000000003,13.126578266283794,-0.6991947013682388,-0.7164274896044129,-0.5812397087691351,15.473742,-1.8294529,1.111135,0.13051951,11.088786,-10.659722,2.0105658,-0.38569832,0.24167171,-0.3568045,-0.8157954,-7.3661714,3.166409,-0.8156833,-0.6991947,-0.7164275,-0.5812397,0
0.6200000000000003,13.126578266283794,-0.6991947013682388,-0.7164274896044129,-0.5812397087691351,15.473742,-1.8294529,1.111135,0.13051951,11.015046,-10.627554,2.0023322,-0.38849595,0.24113071,-0.3518626,-0.8167739,-7.3818717,3.2669814,-0.8309022,-0.6991947,-0.7164275,-0.5812397,0
0.6300000000000003,13.126578266283794,-0.6991947013682388,-0.7164274896044129,-0.5812397087691351,15.473742,-1.8294529,1.111135,0.13051951,10.941148,-10.594385,1.9939513,-0.39128056,0.24058163,-0.34690893,-0.817725,-7.397762,3.3667042,-0.84513676,-0.6991947,-0.7164275,-0.5812397,0
0.6400000000000003,13.126578266283794,-0.6991947013682388,-0.7164274896044129,-0.5812397087691351,15.092805,-1.7823347,1.3923831,0.097274005,10.867089,-10.560224,1.9854329,-0.39405206,0.24002449,-0.34194362,-0.81864876,-7.4138484,3.4655678,-0.8583968,-0.6991947,-0.7164275,-0.5812397,0
0.6500000000000004,13.126578266283794,-0.6991947013682388,-0.7164274896044129,-0.5812397087691351,15.092805,-1.7823347,1.3923831,0.097274005,10.79287,-10.525077,1.9767867,-0.39681038,0.2394593,-0.33696687,-0.8195451,-7.4301367,3.563562,-0.87069243,-0.6991947,-0.7164275,-0.5812397,0
0.6600000000000004,13.126578266283794,-0.6991947013682388,-0.7164274896044129,-0.5812397087691351,15.092805,-1.7823347,1.3923831,0.097274005,10.718486,-10.488955,1.9680223,-0.39955541,0.2388861,-0.3319788,-0.82041395,-7.4466333,3.6606772,-0.8820337,-0.6991947,-0.7164275,-0.5812397,0
0.6700000000000004,13.126578266283794,-0.6991947013682388,-0.7164274896044129,-0.5812397087691351,15.092805,-1.7823347,1.3923831,0.097274005,10.643937,-10.451866,1.9591492,-0.40228707,0.2383049,-0.3269796,-0.8212553,-7.4633436,3.7569036,-0.89243084,-0.6991947,-0.7164275,-0.5812397,0
0.6800000000000004,13.099501646370882,-0.4588316626300585,-0.9333098315298957,-0.4716064471877889,14.857816,-1.7581307,1.0770838,0.088206574,10.56922,-10.41382,1.950177,-0.40500522,0.2377157,-0.32196945,-0.82206917,-7.4802732,3.8522322,-0.9018942,-0.6991947,-0.7164275,-0.5812397,0
0.6900000000000004,13.099501646370882,-0.4588316626300585,-0.9333098315298957,-0.4716064471877889,14.857816,-1.7581307,1.0770838,0.088206574,10.494331,-10.374826,1.9411137,-0.4078942,0.23556398,-0.31762773,-0.8229487,-7.4972363,3.9464583,-0.91058934,-0.45883167,-0.93330985,-0.47160643,0
0.7000000000000004,13.099501646370882,-0.4588316626300585,-0.9333098315298957,-0.4716064471877889,14.857816,-1.7581307,1.0770838,0.088206574,10.419275,-10.334894,1.9319685,-0.41076988,0.23340456,-0.3132757,-0.8238014,-7.5140123,4.0397687,-0.9182937,-0.45883167,-0.93330985,-0.47160643,0
0.7100000000000004,13.099501646370882,-0.4588316626300585,-0.9333098315298957,-0.4716064471877889,14.857816,-1.7581307,1.0770838,0.088206574,10.344051,-10.294034,1.9227512,-0.41363218,0.23123755,-0.30891344,-0.8246273,-7.5306053,4.1321507,-0.9250171,-0.45883167,-0.93330985,-0.47160643,0
0.7200000000000004,13.222766401022307,-0.2051445037072367,-0.6802488123507562,-0.36830126067943997,14.567761,-1.6628866,1.0041126,0.08720295,10.268663,-10.252255,1.9134715,-0.416481,0.22906299,-0.30454114,-0.8254262,-7.547021,4.223594,-0.9307694,-0.45883167,-0.93330985,-0.47160643,0
0.7300000000000004,13.222766401022307,-0.2051445037072367,-0.6802488123507562,-0.36830126067943997,14.567761,-1.6628866,1.0041126,0.08720295,10.193111,-10.209561,1.9041431,-0.41879854,0.2272417,-0.3018537,-0.8257441,-7.5633793,4.3150682,-0.9348003,-0.20514451,-0.6802488,-0.36830127,0
0.7400000000000004,13.222766401022307,-0.2051445037072367,-0.6802488123507562,-0.36830126067943997,14.567761,-1.6628866,1.0041126,0.08720295,10.117397,-10.165956,1.8947777,-0.4211094,0.22541675,-0.29916137,-0.8260488,-7.5794716,4.405917,-0.93818206,-0.20514451,-0.6802488,-0.36830127,0
0.7500000000000004,13.222766401022307,-0.2051445037072367,-0.6802488123507562,-0.36830126067943997,14.567761,-1.6628866,1.0041126,0.08720295,10.041524,-10.121445,1.8853817,-0.4234135,0.22358823,-0.29646426,-0.82634026,-7.5952997,4.4961357,-0.9409191,-0.20514451,-0.6802488,-0.36830127,0
0.7600000000000005,13.187802408982073,-0.03351758380610161,-0.7335648943522172,-0.2895996666035634,14.176438,-1.3474741,1.0444362,0.002150923,9.965493,-10.076035,1.8759615,-0.4257108,0.22175613,-0.29376242,-0.8266185,-7.6108665,4.585719,-0.9430158,-0.20514451,-0.6802488,-0.36830127,0
0.7700000000000005,13.187802408982073,-0.03351758380610161,-0.7335648943522172,-0.2895996666035634,14.176438,-1.3474741,1.0444362,0.002150923,9.88931,-10.029733,1.8665223,-0.42794475,0.21921922,-0.29173908,-0.8268582,-7.626049,4.6744504,-0.9447412,-0.033517584,-0.7335649,-0.28959966,0
0.7800000000000005,13.187802408982073,-0.03351758380610161,-0.7335648943522172,-0.2895996666035634,14.176438,-1.3474741,1.0444362,0.002150923,9.812976,-9.982547,1.8570688,-0.43017206,0.2166789,-0.2897112,-0.8270851,-7.640748,4.7626004,-0.9458608,-0.033517584,-0.7335649,-0.28959966,0
0.7900000000000005,13.187802408982073,-0.03351758380610161,-0.7335648943522172,-0.2895996666035634,14.176438,-1.3474741,1.0444362,0.002150923,9.736498,-9.934482,1.8476071,-0.4323926,0.21413521,-0.2876788,-0.82729906,-7.6549644,4.850164,-0.946379,-0.033517584,-0.7335649,-0.28959966,0
0.8000000000000005,13.29685056272942,0.015236185086797967,-0.5840899906826765,-0.22818138447136332,14.088405,-0.91506696,1.0197225,-0.096690476,9.659878,-9.885545,1.8381433,-0.43460643,0.21158819,-0.2856419,-0.82750016,-7.6687016,4.937135,-0.9463003,-0.033517584,-0.7335649,-0.28959966,0
0.8100000000000005,13.29685056272942,0.015236185086797967,-0.5840899906826765,-0.22818138447136332,14.088405,-0.91506696,1.0197225,-0.096690476,9.583124,-9.835738,1.8286872,-0.43639868,0.20946327,-0.28419292,-0.8275964,-7.682089,5.024278,-0.94486403,0.015236185,-0.58409,-0.22818138,0
0.8200000000000005,13.29685056272942,0.015236185086797967,-0.5840899906826765,-0.22818138447136332,14.088405,-0.91506696,1.0197225,-0.096690476,9.506239,-9.785062,1.8192477,-0.43818665,0.20733628,-0.2827411,-0.8276845,-7.6950464,5.1109624,-0.94297135,0.015236185,-0.58409,-0.22818138,0
0.8300000000000005,13.29685056272942,0.015236185086797967,-0.5840899906826765,-0.22818138447136332,14.088405,-0.91506696,1.0197225,-0.096690476,9.429225,-9.733521,1.8098294,-0.4399703,0.20520726,-0.2812865,-0.8277645,-7.7075753,5.197184,-0.94062513,0.015236185,-0.58409,-0.22818138,0
0.8400000000000005,13.29685056272942,0.015236185086797967,-0.5840899906826765,-0.22818138447136332,13.831636,-0.69450843,0.8432745,-0.10373168,9.352088,-9.68112,1.8004369,-0.4417497,0.20307621,-0.27982917,-0.82783633,-7.7196755,5.282939,-0.93782824,0.015236185,-0.58409,-0.22818138,0
0.8500000000000005,13.29685056272942,0.015236185086797967,-0.5840899906826765,-0.22818138447136332,13.831636,-0.69450843,0.8432745,-0.10373168,9.274833,-9.627863,1.7910744,-0.4435247,0.20094317,-0.27836907,-0.8279,-7.73135,5.368224,-0.9345835,0.015236185,-0.58409,-0.22818138,0
0.8600000000000005,13.29685056272942,0.015236185086797967,-0.5840899906826765,-0.22818138447136332,13.831636,-0.69450843,0.8432745,-0.10373168,9.197463,-9.573756,1.7817467,-0.44529533,0.19880815,-0.27690622,-0.82795554,-7.7425985,5.4530354,-0.93089396,0.015236185,-0.58409,-0.22818138,0
0.8700000000000006,13.29685056272942,0.015236185086797967,-0.5840899906826765,-0.22818138447136332,13.831636,-0.69450843,0.8432745,-0.10373168,9.119982,-9.518805,1.7724581,-0.4470616,0.19667117,-0.27544063,-0.828003,-7.7534227,5.5373693,-0.9267625,0.015236185,-0.58409,-0.22818138,0
0.8800000000000006,13.316631320635691,0.02938742509545077,-0.6398657938632065,-0.17476717363188513,13.536822,-0.21424806,1.1043535,-0.00030594133,9.042396,-9.463013,1.7632129,-0.44882345,0.19453226,-0.27397236,-0.8280422,-7.7638235,5.6212215,-0.9221922,0.015236185,-0.58409,-0.22818138,0
0.8900000000000006,13.316631320635691,0.02938742509545077,-0.6398657938632065,-0.17476717363188513,13.536822,-0.21424806,1.1043535,-0.00030594133,8.964707,-9.406383,1.7540165,-0.45044965,0.19205548,-0.2724866,-0.8282276,-7.773796,5.7046976,-0.91701883,0.029387426,-0.6398658,-0.17476717,0
0.9000000000000006,13.316631320635691,0.02938742509545077,-0.6398657938632065,-0.17476717363188513,13.536822,-0.21424806,1.1043535,-0.00030594133,8.886922,-9.34892,1.7448742,-0.4520709,0.18957657,-0.27099782,-0.82840383,-7.783292,5.787646,-0.9113756,0.029387426,-0.6398658,-0.17476717,0
0.9100000000000006,13.316631320635691,0.02938742509545077,-0.6398657938632065,-0.17476717363188513,13.536822,-0.21424806,1.1043535,-0.00030594133,8.809045,-9.290631,1.7357907,-0.45368713,0.18709557,-0.26950607,-0.8285709,-7.792311,5.8700604,-0.9052663,0.029387426,-0.6398658,-0.17476717,0
0.9200000000000006,13.474150528427025,-0.022606214668621668,-0.46272866474041,-0.12310415176769976,13.256147,0.17237346,0.7329045,0.055491712,8.731078,-9.231521,1.7267705,-0.4552984,0.1846125,-0.26801133,-0.82872885,-7.8008556,5.951939,-0.8986949,0.029387426,-0.6398658,-0.17476717,0
0.9300000000000006,13.474150528427025,-0.022606214668621668,-0.46272866474041,-0.12310415176769976,13.256147,0.17237346,0.7329045,0.055491712,8.6530285,-9.171588,1.7178245,-0.45640638,0.18291102,-0.26674986,-0.82890373,-7.80909,6.034286,-0.8904633,-0.022606215,-0.46272868,-0.123104155,0
0.9400000000000006,13.474150528427025,-0.022606214668621668,-0.46272866474041,-0.12310415176769976,13.256147,0.17237346,0.7329045,0.055491712,8.574898,-9.110836,1.7089624,-0.45751175,0.18120849,-0.26548687,-0.82907385,-7.8170285,6.116209,-0.8818822,-0.022606215,-0.46272868,-0.123104155,0
0.9500000000000006,13.474150528427025,-0.022606214668621668,-0.46272866474041,-0.12310415176769976,13.256147,0.17237346,0.7329045,0.055491712,8.496691,-9.049266,1.700188,-0.4586145,0.17950492,-0.26422235,-0.8292392,-7.8246713,6.197706,-0.87295365,-0.022606215,-0.46272868,-0.123104155,0
0.9600000000000006,13.5924466661932,-0.07588182083517898,-0.5091861167946914,-0.07364627100113696,13.394323,0.43109745,0.7651724,0.033796716,8.418407,-8.986882,1.6915047,-0.45971462,0.17780031,-0.2629563,-0.82939976,-7.832019,6.2787747,-0.86367977,-0.022606215,-0.46272868,-0.123104155,0
0.9700000000000006,13.5924466661932,-0.07588182083517898,-0.5091861167946914,-0.07364627100113696,13.394323,0.43109745,0.7651724,0.033796716,8.340051,-8.923687,1.6829206,-0.4606205,0.1759594,-0.26140484,-0.82978004,-7.8391457,6.360093,-0.85309696,-0.075881824,-0.5091861,-0.07364627,0
0.9800000000000006,13.5924466661932,-0.07588182083517898,-0.5091861167946914,-0.07364627100113696,13.394323,0.43109745,0.7651724,0.033796716,8.261624,-8.859682,1.6744442,-0.46152326,0.17411728,-0.25985163,-0.83015484,-7.8460054,6.440901,-0.8421171,-0.075881824,-0.5091861,-0.07364627,0
0.9900000000000007,13.5924466661932,-0.07588182083517898,-0.5091861167946914,-0.07364627100113696,13.394323,0.43109745,0.7651724,0.033796716,8.183131,-8.79487,1.6660796,-0.46242288,0.17227398,-0.25829667,-0.8305239,-7.852598,6.5211964,-0.8307427,-0.075881824,-0.5091861,-0.07364627,0
1.0000000000000007,13.830879289770044,-0.1763498327587435,-0.2475880743904588,-0.03210753585283777,13.742034,0.42856765,0.45689538,0.04274902,8.104573,-8.7292595,1.6578308,-0.4633194,0.1704295,-0.25673997,-0.8308875,-7.858924,6.6009765,-0.81897694,-0.075881824,-0.5091861,-0.07364627,1
1.0100000000000007,13.830879289770044,-0.1763498327587435,-0.2475880743904588,-0.03210753585283777,13.742034,0.42856765,0.45689538,0.04274902,8.025952,-8.6628475,1.6497066,-0.4629182,0.17127912,-0.25961402,-0.83004296,-7.8650827,6.6815658,-0.8059384,0.42856765,0.45689538,0.04274902,1
1.0200000000000007,13.830879289770044,-0.1763498327587435,-0.2475880743904588,-0.03210753585283777,13.742034,0.42856765,0.45689538,0.04274902,7.9472713,-8.595626,1.6417104,-0.46251243,0.17212702,-0.26248553,-0.82919025,-7.8710585,6.762839,-0.79338926,0.42856765,0.45689538,0.04274902,1
1.0300000000000007,13.830879289770044,-0.1763498327587435,-0.2475880743904588,-0.03210753585283777,13.742034,0.42856765,0.45689538,0.04274902,7.868531,-8.527589,1.6338372,-0.46210212,0.17297326,-0.26535442,-0.8283293,-7.876851,6.844793,-0.78133374,0.42856765,0.45689538,0.04274902,1
1.0400000000000007,13.830879289770044,-0.1763498327587435,-0.2475880743904588,-0.03210753585283777,14.315636,0.2889369,0.30281377,0.04814389,7.7897344,-8.458729,1.6260821,-0.46168724,0.17381777,-0.26822072,-0.8274603,-7.8824606,6.9274254,-0.7697764,0.42856765,0.45689538,0.04274902,1
1.0500000000000007,13.830879289770044,-0.1763498327587435,-0.2475880743904588,-0.03210753585283777,14.315636,0.2889369,0.30281377,0.04814389,7.710881,-8.389021,1.618463,-0.46133202,0.17433865,-0.2701564,-0.8269189,-7.8881354,7.014122,-0.75409955,0.2889369,0.30281377,0.04814389,1
1.0600000000000007,13.830879289770044,-0.1763498327587435,-0.2475880743904588,-0.03210753585283777,14.315636,0.2889369,0.30281377,0.04814389,7.631972,-8.318443,1.610999,-0.46097478,0.17485876,-0.27209088,-0.8263739,-7.893678,7.1012864,-0.7387737,0.2889369,0.30281377,0.04814389,1
1.0700000000000007,13.830879289770044,-0.1763498327587435,-0.2475880743904588,-0.03210753585283777,14.315636,0.2889369,0.30281377,0.04814389,7.5530086,-8.246992,1.6036863,-0.4606155,0.1753781,-0.27402416,-0.8258252,-7.8990893,7.1889167,-0.72380096,0.2889369,0.30281377,0.04814389,1
1.0800000000000007,13.943723506038989,-0.5923639895722025,-1.0704262200666943,-0.0010997677479869293,15.21334,-0.3510662,0.09129074,0.0005288143,7.473992,-8.174663,1.5965216,-0.46025413,0.17589666,-0.27595624,-0.8252728,-7.904369,7.277011,-0.70918334,0.2889369,0.30281377,0.04814389,0
1.0900000000000007,13.943723506038989,-0.5923639895722025,-1.0704262200666943,-0.0010997677479869293,15.21334,-0.3510662,0.09129074,0.0005288143,7.3949227,-8.101463,1.5894881,-0.46120602,0.17284113,-0.2710425,-0.8270136,-7.909408,7.362595,-0.69731736,-0.592364,-1.0704262,-0.0010997677,0
1.1000000000000008,13.943723506038989,-0.5923639895722025,-1.0704262200666943,-0.0010997677479869293,15.21334,-0.3510662,0.09129074,0.0005288143,7.315804,-8.027415,1.5825787,-0.46214065,0.16977915,-0.26611862,-0.82872343,-7.9143863,7.446829,-0.68441087,-0.592364,-1.0704262,-0.0010997677,0
1.1100000000000008,13.943723506038989,-0.5923639895722025,-1.0704262200666943,-0.0010997677479869293,15.21334,-0.3510662,0.09129074,0.0005288143,7.2366357,-7.9525313,1.5758033,-0.463058,0.1667108,-0.26118475,-0.83040226,-7.9193034,7.5297,-0.6704805,-0.592364,-1.0704262,-0.0010997677,0
1.1200000000000008,14.082778869930166,-0.9044702491642806,-1.3794342944021978,0.038722919424516986,15.62568,-0.7969822,-0.38268024,-0.040226787,7.1574183,-7.876826,1.5691724,-0.46395802,0.16363621,-0.2562411,-0.83204997,-7.9241586,7.611195,-0.65554297,-0.592364,-1.0704262,-0.0010997677,0
1.1300000000000008,14.082778869930166,-0.9044702491642806,-1.3794342944021978,0.038722919424516986,15.62568,-0.7969822,-0.38268024,-0.040226787,7.078152,-7.800309,1.5627018,-0.46480843,0.15994045,-0.24930134,-0.83439887,-7.9290547,7.691916,-0.6383511,-0.90447026,-1.3794343,0.03872292,0
1.1400000000000008,14.082778869930166,-0.9044702491642806,-1.3794342944021978,0.038722919424516986,15.62568,-0.7969822,-0.38268024,-0.040226787,6.998837,-7.7229943,1.5564097,-0.46562722,0.1562338,-0.2423446,-0.83669096,-7.9340377,7.770723,-0.61984605,-0.90447026,-1.3794343,0.03872292,0
1.1500000000000008,14.082778869930166,-0.9044702491642806,-1.3794342944021978,0.038722919424516986,15.62568,-0.7969822,-0.38268024,-0.040226787,6.9194713,-7.6449013,1.5503093,-0.4664143,0.15251653,-0.23537135,-0.83892614,-7.939104,7.847594,-0.60005957,-0.90447026,-1.3794343,0.03872292,0
1.1600000000000008,14.07737185468672,-0.8716259954973574,-1.0850533537121578,0.10706096428986077,15.59288,-1.3214604,0.28131765,-0.05545898,6.8400545,-7.566049,1.544413,-0.46716964,0.14878888,-0.2283821,-0.8411043,-7.944252,7.9225082,-0.5790236,-0.90447026,-1.3794343,0.03872292,0
1.1700000000000008,14.07737185468672,-0.8716259954973574,-1.0850533537121578,0.10706096428986077,15.59288,-1.3214604,0.28131765,-0.05545898,6.760586,-7.486458,1.5387326,-0.4672986,0.14613579,-0.22225606,-0.8431365,-7.949543,7.995538,-0.55689204,-0.871626,-1.0850533,0.10706096,0
1.1800000000000008,14.07737185468672,-0.8716259954973574,-1.0850533537121578,0.10706096428986077,15.59288,-1.3214604,0.28131765,-0.05545898,6.6810627,-7.4061446,1.5332786,-0.4674048,0.14347559,-0.21611921,-0.8451275,-7.9550858,8.0668955,-0.5337716,-0.871626,-1.0850533,0.10706096,0
1.1900000000000008,14.07737185468672,-0.8716259954973574,-1.0850533537121578,0.10706096428986077,15.59288,-1.3214604,0.28131765,-0.05545898,6.6014833,-7.3251257,1.5280606,-0.46748826,0.14080839,-0.20997183,-0.8470774,-7.9608774,8.136565,-0.5096856,-0.871626,-1.0850533,0.10706096,0
1.2000000000000008,14.054139967177079,-0.7928359186397536,-0.7157403392947868,0.1613600256779457,15.372922,-1.425924,0.3199924,-0.046735223,6.521844,-7.2434187,1.5230881,-0.4675489,0.13813435,-0.20381421,-0.848986,-7.966914,8.2045355,-0.48465744,-0.871626,-1.0850533,0.10706096,0
1.2100000000000009,14.054139967177079,-0.7928359186397536,-0.7157403392947868,0.1613600256779457,15.372922,-1.425924,0.3199924,-0.046735223,6.442143,-7.161041,1.5183693,-0.46703893,0.13678308,-0.19888395,-0.85065305,-7.9732494,8.270846,-0.45900613,-0.7928359,-0.7157403,0.16136003,0
1.2200000000000009,14.054139967177079,-0.7928359186397536,-0.7157403392947868,0.1613600256779457,15.372922,-1.425924,0.3199924,-0.046735223,6.3623767,-7.078006,1.5139102,-0.46651533,0.13542783,-0.19394791,-0.8522953,-7.9800014,8.335875,-0.43269753,-0.7928359,-0.7157403,0.16136003,0
1.2300000000000009,14.054139967177079,-0.7928359186397536,-0.7157403392947868,0.1613600256779457,15.372922,-1.425924,0.3199924,-0.046735223,6.2825413,-6.994327,1.5097175,-0.46597812,0.13406864,-0.1890062,-0.8539127,-7.9871674,8.399611,-0.4057454,-0.7928359,-0.7157403,0.16136003,0
1.2400000000000009,14.054139967177079,-0.7928359186397536,-0.7157403392947868,0.1613600256779457,15.5561285,-1.2525318,0.3127806,-0.027604613,6.2026324,-6.910018,1.5057974,-0.4654273,0.13270552,-0.18405898,-0.8555053,-7.9947443,8.462049,-0.37816352,-0.7928359,-0.7157403,0.16136003,0
1.2500000000000009,14.054139967177079,-0.7928359186397536,-0.7157403392947868,0.1613600256779457,15.5561285,-1.2525318,0.3127806,-0.027604613,6.1226454,-6.825091,1.5021564,-0.4648629,0.13133855,-0.17910638,-0.8570729,-8.002728,8.523179,-0.3499659,-0.7928359,-0.7157403,0.16136003,0
1.260000000000001,14.054139967177079,-0.7928359186397536,-0.7157403392947868,0.1613600256779457,15.5561285,-1.2525318,0.3127806,-0.027604613,6.042576,-6.7395587,1.4988004,-0.46428496,0.1299677,-0.17414856,-0.85861546,-8.011117,8.582995,-0.32116652,-0.7928359,-0.7157403,0.16136003,0
1.270000000000001,14.054139967177079,-0.7928359186397536,-0.7157403392947868,0.1613600256779457,15.5561285,-1.2525318,0.3127806,-0.027604613,5.962421,-6.6534357,1.4957352,-0.46369347,0.1285931,-0.16918567,-0.860133,-8.019906,8.641488,-0.2917795,-0.7928359,-0.7157403,0.16136003,0
1.280000000000001,13.86723146703563,-0.7250383171375888,-0.7246322935394504,0.20409555732898307,15.5066395,-1.0750785,0.021305418,-0.006520532,5.882177,-6.5667343,1.4929667,-0.46308845,0.12721473,-0.16421783,-0.86162543,-8.029092,8.698652,-0.26181892,-0.7928359,-0.7157403,0.16136003,0
1.290000000000001,13.86723146703563,-0.7250383171375888,-0.7246322935394504,0.20409555732898307,15.5066395,-1.0750785,0.021305418,-0.006520532,5.801839,-6.4794717,1.4904921,-0.46233666,0.1256024,-0.15954402,-0.8631425,-8.038514,8.753752,-0.23301354,-0.7250383,-0.7246323,0.20409556,0
1.300000000000001,13.86723146703563,-0.7250383171375888,-0.7246322935394504,0.20409555732898307,15.5066395,-1.0750785,0.021305418,-0.006520532,5.7214055,-6.3916645,1.4883083,-0.46157223,0.123986624,-0.15486586,-0.86463594,-8.048236,8.807568,-0.20368028,-0.7250383,-0.7246323,0.20409556,0
1.310000000000001,13.86723146703563,-0.7250383171375888,-0.7246322935394504,0.20409555732898307,15.5066395,-1.0750785,0.021305418,-0.006520532,5.6408734,-6.303325,1.4864204,-0.46079522,0.12236747,-0.15018347,-0.8661058,-8.058253,8.860091,-0.1738321,-0.7250383,-0.7246323,0.20409556,0
1.320000000000001,13.651840305037172,-0.6768733026978753,-0.5290506715653946,0.23251986595399413,15.333671,-0.9929211,-0.06284815,0.055198666,5.5602393,-6.214467,1.4848335,-0.46000564,0.12074497,-0.14549696,-0.867552,-8.0685625,8.911318,-0.14348206,-0.7250383,-0.7246323,0.20409556,0
1.330000000000001,13.651840305037172,-0.6768733026978753,-0.5290506715653946,0.23251986595399413,15.333671,-0.9929211,-0.06284815,0.055198666,5.4795017,-6.1251073,1.4835424,-0.4589687,0.11983657,-0.14148296,-0.86889,-8.07903,8.960555,-0.11468335,-0.6768733,-0.52905065,0.23251987,0
1.340000000000001,13.651840305037172,-0.6768733026978753,-0.5290506715653946,0.23251986595399413,15.333671,-0.9929211,-0.06284815,0.055198666,5.398658,-6.03526,1.4825411,-0.4579227,0.11892578,-0.13746616,-0.8702108,-8.089869,9.008744,-0.08551379,-0.6768733,-0.52905065,0.23251987,0
1.350000000000001,13.651840305037172,-0.6768733026978753,-0.5290506715653946,0.23251986595399413,15.333671,-0.9929211,-0.06284815,0.055198666,5.3177032,-5.9449363,1.4818333,-0.45686764,0.118012644,-0.13344665,-0.8715145,-8.101076,9.055881,-0.05598227,-0.6768733,-0.52905065,0.23251987,0
1.360000000000001,13.308013039544502,-0.6094446731456588,-0.84906888428626,0.2669348101462658,15.048481,-0.9216272,-0.32435057,0.07354571,5.2366347,-5.8541465,1.4814227,-0.4558035,0.11709716,-0.1294245,-0.87280077,-8.112648,9.101958,-0.026097693,-0.6768733,-0.52905065,0.23251987,0
1.370000000000001,13.308013039544502,-0.6094446731456588,-0.84906888428626,0.2669348101462658,15.048481,-0.9216272,-0.32435057,0.07354571,5.1554513,-5.762907,1.4812964,-0.45482463,0.11460632,-0.124984264,-0.87428796,-8.124163,9.145739,0.000945935,-0.6094447,-0.8490689,0.2669348,0
1.380000000000001,13.308013039544502,-0.6094446731456588,-0.84906888428626,0.2669348101462658,15.048481,-0.9216272,-0.32435057,0.07354571,5.0741515,-5.6712365,1.4814429,-0.4538325,0.11211215,-0.12054039,-0.8757497,-8.135714,9.188202,0.028438833,-0.6094447,-0.8490689,0.2669348,0
1.390000000000001,13.308013039544502,-0.6094446731456588,-0.84906888428626,0.2669348101462658,15.048481,-0.9216272,-0.32435057,0.07354571,4.9927363,-5.579148,1.4818665,-0.45282716,0.10961473,-0.11609301,-0.87718594,-8.147295,9.229344,0.05636761,-0.6094447,-0.8490689,0.2669348,0
1.400000000000001,13.033865105185384,-0.5602196157638032,-0.5670161845241531,0.2778995316360257,14.482105,-1.004503,-0.5899368,0.07926078,4.9112053,-5.4866543,1.4825716,-0.45180866,0.107114114,-0.11164225,-0.87859666,-8.158904,9.269164,0.08471883,-0.6094447,-0.8490689,0.2669348,0
1.410000000000001,13.033865105185384,-0.5602196157638032,-0.5670161845241531,0.2778995316360257,14.482105,-1.004503,-0.5899368,0.07926078,4.8295584,-5.3937726,1.483549,-0.4506003,0.10573271,-0.108048156,-0.879833,-8.170354,9.30698,0.11082404,-0.56021965,-0.5670162,0.27789953,0
1.420000000000001,13.033865105185384,-0.5602196157638032,-0.5670161845241531,0.2778995316360257,14.482105,-1.004503,-0.5899368,0.07926078,4.747797,-5.3005176,1.4847889,-0.44938394,0.10434942,-0.104452126,-0.8810537,-8.181977,9.343811,0.13720891,-0.56021965,-0.5670162,0.27789953,0
1.430000000000001,13.033865105185384,-0.5602196157638032,-0.5670161845241531,0.2778995316360257,14.482105,-1.004503,-0.5899368,0.07926078,4.6659184,-5.2068996,1.486294,-0.44815955,0.10296427,-0.10085424,-0.88225865,-8.19377,9.379654,0.16386591,-0.56021965,-0.5670162,0.27789953,0
1.440000000000001,13.033865105185384,-0.5602196157638032,-0.5670161845241531,0.2778995316360257,14.194686,-0.7941531,-0.59539235,0.19715926,4.583921,-5.1129284,1.4880672,-0.4469272,0.10157728,-0.09725456,-0.8834479,-8.20573,9.414507,0.19078748,-0.56021965,-0.5670162,0.27789953,0
1.450000000000001,13.033865105185384,-0.5602196157638032,-0.5670161845241531,0.2778995316360257,14.194686,-0.7941531,-0.59539235,0.19715926,4.5018034,-5.018613,1.4901108,-0.44568685,0.10018848,-0.09365314,-0.8846214,-8.217854,9.448365,0.21796606,-0.56021965,-0.5670162,0.27789953,0
1.460000000000001,13.033865105185384,-0.5602196157638032,-0.5670161845241531,0.2778995316360257,14.194686,-0.7941531,-0.59539235,0.19715926,4.419564,-4.923964,1.4924273,-0.44443858,0.098797895,-0.09005006,-0.88577914,-8.230136,9.481228,0.24539407,-0.56021965,-0.5670162,0.27789953,0
1.470000000000001,13.033865105185384,-0.5602196157638032,-0.5670161845241531,0.2778995316360257,14.194686,-0.7941531,-0.59539235,0.19715926,4.3372,-4.828992,1.4950194,-0.44318238,0.09740555,-0.08644537,-0.88692117,-8.242574,9.513092,0.2730639,-0.56021965,-0.5670162,0.27789953,0
1.480000000000001,12.62059392774434,-0.4638735433428429,-0.9652747489023649,0.2860863567941412,13.419007,-0.5034208,-0.9713421,0.15579416,4.2547116,-4.733706,1.4978893,-0.44191828,0.096011475,-0.08283914,-0.88804734,-8.255163,9.543956,0.30096793,-0.56021965,-0.5670162,0.27789953,1
1.490000000000001,12.62059392774434,-0.4638735433428429,-0.9652747489023649,0.2860863567941412,13.419007,-0.5034208,-0.9713421,0.15579416,4.172096,-4.638112,1.5010582,-0.44138044,0.092744865,-0.078531116,-0.88905287,-8.268135,9.574559,0.33287555,-0.5034208,-0.9713421,0.15579416,1
1.500000000000001,12.62059392774434,-0.4638735433428429,-0.9652747489023649,0.2860863567941412,13.419007,-0.5034208,-0.9713421,0.15579416,4.0893507,-4.542219,1.504548,-0.44082913,0.08947542,-0.074220695,-0.8900312,-8.280873,9.603755,0.3651294,-0.5034208,-0.9713421,0.15579416,1
1.5100000000000011,12.62059392774434,-0.4638735433428429,-0.9652747489023649,0.2860863567941412,13.419007,-0.5034208,-0.9713421,0.15579416,4.0064793,-4.4460416,1.5083619,-0.44026434,0.08620325,-0.069908,-0.8909824,-8.293376,9.63154,0.39771408,-0.5034208,-0.9713421,0.15579416,1
1.5200000000000011,12.10759772040091,-0.31274376683338706,-1.051689693112635,0.29556148033167323,13.051408,-0.48800942,-0.73777187,0.13883826,3.9234838,-4.349593,1.5125034,-0.43968612,0.082928434,-0.06559318,-0.8919064,-8.305638,9.657912,0.430614,-0.5034208,-0.9713421,0.15579416,1
1.5300000000000011,12.10759772040091,-0.31274376683338706,-1.051689693112635,0.29556148033167323,13.051408,-0.48800942,-0.73777187,0.13883826,3.8403687,-4.252891,1.5169573,-0.43910217,0.08066481,-0.061851878,-0.8926686,-8.31739,9.682277,0.46019354,-0.48800942,-0.73777187,0.13883826,1
1.5400000000000011,12.10759772040091,-0.31274376683338706,-1.051689693112635,0.29556148033167323,13.051408,-0.48800942,-0.73777187,0.13883826,3.7571363,-4.155951,1.5217081,-0.4385094,0.078399576,-0.05810933,-0.89341295,-8.329069,9.70551,0.48999053,-0.48800942,-0.73777187,0.13883826,1
1.5500000000000012,12.10759772040091,-0.31274376683338706,-1.051689693112635,0.29556148033167323,13.051408,-0.48800942,-0.73777187,0.13883826,3.6737876,-4.0587845,1.5267578,-0.43790787,0.07613277,-0.054365613,-0.8941394,-8.340672,9.727611,0.51999503,-0.48800942,-0.73777187,0.13883826,1
1.5600000000000012,11.356277496928632,-0.07990950433953475,-1.4030940963710865,0.308382378046375,13.649903,-0.27168915,-1.5127449,0.35599697,3.5903232,-3.9614024,1.5321087,-0.43729758,0.07386443,-0.050620805,-0.8948479,-8.352197,9.748576,0.5501972,-0.48800942,-0.73777187,0.13883826,0
1.5700000000000012,11.356277496928632,-0.07990950433953475,-1.4030940963710865,0.308382378046375,13.649903,-0.27168915,-1.5127449,0.35599697,3.5067525,-3.86383,1.5376791,-0.4362321,0.067681454,-0.047308035,-0.89603746,-8.361845,9.765717,0.5639427,-0.0799095,-1.403094,0.3083824,0
1.5800000000000012,11.356277496928632,-0.07990950433953475,-1.4030940963710865,0.308382378046375,13.649903,-0.27168915,-1.5127449,0.35599697,3.4230895,-3.7660928,1.5433884,-0.43514404,0.06149498,-0.043992814,-0.8971806,-8.370594,9.781567,0.5779523,-0.0799095,-1.403094,0.3083824,0
1.5900000000000012,11.356277496928632,-0.07990950433953475,-1.4030940963710865,0.308382378046375,13.649903,-0.27168915,-1.5127449,0.35599697,3.3393438,-3.6682034,1.549239,-0.43403345,0.055305324,-0.04067532,-0.89827734,-8.378436,9.796124,0.5922038,-0.0799095,-1.403094,0.3083824,0
1.6000000000000012,10.919085980389188,0.08106814062011287,-1.3652482791571368,0.29567904658171773,13.636867,-0.22191307,-1.1524156,0.66717774,3.255524,-3.570175,1.5552334,-0.43290043,0.049112808,-0.037355717,-0.8993276,-8.385367,9.809391,0.60667497,-0.0799095,-1.403094,0.3083824,0
1.6100000000000012,10.919085980389188,0.08106814062011287,-1.3652482791571368,0.29567904658171773,13.636867,-0.22191307,-1.1524156,0.66717774,3.1716406,-3.472022,1.5613517,-0.4318352,0.042741932,-0.034836885,-0.9002657,-8.3911085,9.820957,0.6169988,0.08106814,-1.3652483,0.29567903,0
1.6200000000000012,10.919085980389188,0.08106814062011287,-1.3652482791571368,0.29567904658171773,13.636867,-0.22191307,-1.1524156,0.66717774,3.0877051,-3.3737593,1.567574,-0.43074882,0.036368962,-0.032316342,-0.9011597,-8.395852,9.831425,0.6274824,0.08106814,-1.3652483,0.29567903,0
1.6300000000000012,10.919085980389188,0.08106814062011287,-1.3652482791571368,0.29567904658171773,13.636867,-0.22191307,-1.1524156,0.66717774,3.003727,-3.2753973,1.5739019,-0.42964137,0.029994214,-0.029794224,-0.9020096,-8.399593,9.840794,0.63810545,0.08106814,-1.3652483,0.29567903,0
1.6400000000000012,10.919085980389188,0.08106814062011287,-1.3652482791571368,0.29567904658171773,13.466541,-0.46246862,-1.0080627,0.70917624,2.9197166,-3.1769469,1.5803366,-0.42851287,0.023617996,-0.027270645,-0.90281534,-8.4023285,9.849065,0.6488474,0.08106814,-1.3652483,0.29567903,0
1.6500000000000012,10.919085980389188,0.08106814062011287,-1.3652482791571368,0.29567904658171773,13.466541,-0.46246862,-1.0080627,0.70917624,2.8356838,-3.0784197,1.5868791,-0.42736343,0.017240623,-0.02474573,-0.9035769,-8.404054,9.856241,0.65968776,0.08106814,-1.3652483,0.29567903,0
1.6600000000000013,10.919085980389188,0.08106814062011287,-1.3652482791571368,0.29567904658171773,13.466541,-0.46246862,-1.0080627,0.70917624,2.751639,-2.979826,1.5935305,-0.42619303,0.010862406,-0.022219604,-0.90429425,-8.404765,9.862324,0.67060596,0.08106814,-1.3652483,0.29567903,0
1.6700000000000013,10.919085980389188,0.08106814062011287,-1.3652482791571368,0.29567904658171773,13.466541,-0.46246862,-1.0080627,0.70917624,2.667592,-2.881177,1.6002914,-0.4250018,0.004483659,-0.01969239,-0.9049673,-8.404461,9.867313,0.6815815,0.08106814,-1.3652483,0.29567903,0
1.6800000000000013,10.586770063853049,0.17687275762680957,-1.183164260142357,0.2735857362111236,14.7613125,-0.5854631,-1.8089355,0.8596862,2.583553,-2.7824833,1.6071622,-0.42378974,-0.0018953083,-0.017164212,-0.90559614,-8.403135,9.871213,0.6925939,0.08106814,-1.3652483,0.29567903,0
1.6900000000000013,10.586770063853049,0.17687275762680957,-1.183164260142357,0.2735857362111236,14.7613125,-0.5854631,-1.8089355,0.8596862,2.4995322,-2.6837566,1.6141267,-0.42264283,-0.0076508448,-0.015455119,-0.9061324,-8.400877,9.874019,0.7002997,0.17687276,-1.1831642,0.27358574,0
1.7000000000000013,10.586770063853049,0.17687275762680957,-1.183164260142357,0.2735857362111236,14.7613125,-0.5854631,-1.8089355,0.8596862,2.4155385,-2.585006,1.6211683,-0.42148003,-0.013406093,-0.013745446,-0.90663457,-8.39767,9.875985,0.70799994,0.17687276,-1.1831642,0.27358574,0
1.7100000000000013,10.586770063853049,0.17687275762680957,-1.183164260142357,0.2735857362111236,14.7613125,-0.5854631,-1.8089355,0.8596862,2.3315818,-2.4862397,1.6282867,-0.42030135,-0.019160837,-0.0120352525,-0.9071026,-8.393514,9.877113,0.7156794,0.17687276,-1.1831642,0.27358574,0
1.7200000000000013,10.21909938031414,0.26498984169988304,-0.447072646663312,0.27099826707754693,14.261233,-0.58728826,-1.5999461,0.95917076,2.2476716,-2.3874664,1.6354817,-0.41910684,-0.02491486,-0.010324607,-0.9075365,-8.388406,9.877407,0.7233228,0.17687276,-1.1831642,0.27358574,0
1.7300000000000013,10.21909938031414,0.26498984169988304,-0.447072646663312,0.27099826707754693,14.261233,-0.58728826,-1.5999461,0.95917076,2.1638155,-2.2886937,1.6427346,-0.4178654,-0.027512709,-0.010556387,-0.9080311,-8.382712,9.877124,0.7272545,0.26498985,-0.44707265,0.27099827,0
1.7400000000000013,10.21909938031414,0.26498984169988304,-0.447072646663312,0.27099826707754693,14.261233,-0.58728826,-1.5999461,0.95917076,2.080019,-2.1899245,1.6500267,-0.41662037,-0.03011032,-0.010788076,-0.90851796,-8.376515,9.876669,0.73115635,0.26498985,-0.44707265,0.27099827,0
1.7500000000000013,10.21909938031414,0.26498984169988304,-0.447072646663312,0.27099826707754693,14.261233,-0.58728826,-1.5999461,0.95917076,1.9962869,-2.0911608,1.6573576,-0.41537178,-0.032707673,-0.011019672,-0.90899694,-8.369819,9.876045,0.7350256,0.26498985,-0.44707265,0.27099827,0
1.7600000000000013,9.878564669350807,0.29699690164277903,-0.2131482729605754,0.2852647465825477,14.530269,-0.58741367,-1.5607189,0.66153485,1.9126244,-1.9924041,1.6647271,-0.4141196,-0.035304744,-0.011251174,-0.9094681,-8.362618,9.875254,0.7388594,0.26498985,-0.44707265,0.27099827,0
1.7700000000000014,9.878564669350807,0.29699690164277903,-0.2131482729605754,0.2852647465825477,14.530269,-0.58741367,-1.5607189,0.66153485,1.8290349,-1.8936559,1.6721176,-0.41278085,-0.036904912,-0.012109988,-0.91000205,-8.35522,9.874399,0.73926383,0.2969969,-0.21314827,0.28526476,0
1.7800000000000014,9.878564669350807,0.29699690164277903,-0.2131482729605754,0.2852647465825477,14.530269,-0.58741367,-1.5607189,0.66153485,1.7455212,-1.794916,1.6795121,-0.4114399,-0.038504884,-0.012968739,-0.910531,-8.347463,9.87358,0.739641,0.2969969,-0.21314827,0.28526476,0
1.7900000000000014,9.878564669350807,0.29699690164277903,-0.2131482729605754,0.2852647465825477,14.530269,-0.58741367,-1.5607189,0.66153485,1.662087,-1.696184,1.6869103,-0.41009673,-0.04010465,-0.013827419,-0.91105515,-8.339347,9.872796,0.73998964,0.2969969,-0.21314827,0.28526476,0
1.8000000000000014,9.596332634255402,0.22332936475248666,0.11628069874936064,0.32945090172140334,13.879656,-0.5997512,-1.3161268,0.52294135,1.5787355,-1.5974597,1.6943119,-0.40875134,-0.041704196,-0.014686025,-0.9115743,-8.3308735,9.87205,0.7403084,0.2969969,-0.21314827,0.28526476,0
1.8100000000000014,9.596332634255402,0.22332936475248666,0.11628069874936064,0.32945090172140334,13.879656,-0.5997512,-1.3161268,0.52294135,1.495469,-1.4987425,1.7017024,-0.40719378,-0.041654732,-0.015872851,-0.91225356,-8.322393,9.871433,0.7377942,0.22332937,0.1162807,0.3294509,0
1.8200000000000014,9.596332634255402,0.22332936475248666,0.11628069874936064,0.32945090172140334,13.879656,-0.5997512,-1.3161268,0.52294135,1.4122878,-1.4000303,1.7090677,-0.40563446,-0.04160509,-0.01705961,-0.9129288,-8.3138275,9.871042,0.7352738,0.22332937,0.1162807,0.3294509,0
1.8300000000000014,9.596332634255402,0.22332936475248666,0.11628069874936064,0.32945090172140334,13.879656,-0.5997512,-1.3161268,0.52294135,1.3291928,-1.3013208,1.7164078,-0.4040734,-0.041555267,-0.018246293,-0.9136002,-8.305178,9.870876,0.7327463,0.22332937,0.1162807,0.3294509,0
1.8400000000000014,9.596332634255402,0.22332936475248666,0.11628069874936064,0.32945090172140334,13.577554,-0.65180784,-1.7214392,0.50549483,1.2461846,-1.2026119,1.7237226,-0.40251058,-0.041505266,-0.019432899,-0.9142676,-8.296446,9.870938,0.73021144,0.22332937,0.1162807,0.3294509,0
1.8500000000000014,9.596332634255402,0.22332936475248666,0.11628069874936064,0.32945090172140334,13.577554,-0.65180784,-1.7214392,0.50549483,1.1632642,-1.1039013,1.731012,-0.40094602,-0.041455086,-0.020619422,-0.9149311,-8.28763,9.871226,0.7276685,0.22332937,0.1162807,0.3294509,0
1.8600000000000014,9.596332634255402,0.22332936475248666,0.11628069874936064,0.32945090172140334,13.577554,-0.65180784,-1.7214392,0.50549483,1.0804323,-1.0051866,1.738276,-0.39937976,-0.041404728,-0.021805856,-0.9155907,-8.278733,9.871743,0.7251171,0.22332937,0.1162807,0.3294509,0
1.8700000000000014,9.596332634255402,0.22332936475248666,0.11628069874936064,0.32945090172140334,13.577554,-0.65180784,-1.7214392,0.50549483,0.99768984,-0.9064656,1.7455144,-0.39781177,-0.04135419,-0.022992197,-0.91624635,-8.269756,9.872486,0.72255665,0.22332937,0.1162807,0.3294509,0
1.8800000000000014,9.354469934317166,0.12078893524836909,-0.9926510288383864,0.39859758077333823,14.384765,-0.39844313,-3.4382648,0.60682833,0.9150375,-0.8077361,1.752727,-0.39624208,-0.041303486,-0.02417844,-0.916898,-8.260698,9.873457,0.7199866,0.22332937,0.1162807,0.3294509,0
1.8900000000000015,9.354469934317166,0.12078893524836909,-0.9926510288383864,0.39859758077333823,14.384765,-0.39844313,-3.4382648,0.60682833,0.8324757,-0.7089967,1.7599019,-0.394504,-0.04614116,-0.022682883,-0.91745484,-8.251553,9.874318,0.71497875,0.12078893,-0.99265105,0.39859757,0
1.9000000000000015,9.354469934317166,0.12078893524836909,-0.9926510288383864,0.39859758077333823,14.384765,-0.39844313,-3.4382648,0.60682833,0.75000894,-0.6102517,1.7670263,-0.39275452,-0.050977495,-0.02118667,-0.9179851,-8.24169,9.874583,0.7099013,0.12078893,-0.99265105,0.39859757,0
1.9100000000000015,9.354469934317166,0.12078893524836909,-0.9926510288383864,0.39859758077333823,14.384765,-0.39844313,-3.4382648,0.60682833,0.66764444,-0.5115071,1.7740995,-0.39099368,-0.055812355,-0.019689843,-0.9184887,-8.231109,9.874253,0.70474464,0.12078893,-0.99265105,0.39859757,0
1.9200000000000015,9.083285799268339,-0.0829092250254799,-1.6424762335403236,0.49731660772192965,13.0848255,-0.6502207,-2.4062545,0.8233535,0.5853893,-0.4127687,1.7811208,-0.3892215,-0.060645603,-0.018192446,-0.91896576,-8.219808,9.873333,0.69949925,0.12078893,-0.99265105,0.39859757,0
1.9300000000000015,9.083285799268339,-0.0829092250254799,-1.6424762335403236,0.49731660772192965,13.0848255,-0.6502207,-2.4062545,0.8233535,0.50324935,-0.31404284,1.7880757,-0.38709658,-0.068074055,-0.014463631,-0.91940916,-8.208032,9.871662,0.691449,-0.08290923,-1.6424762,0.4973166,0
1.9400000000000015,9.083285799268339,-0.0829092250254799,-1.6424762335403236,0.49731660772192965,13.0848255,-0.6502207,-2.4062545,0.8233535,0.42123204,-0.21533932,1.7949493,-0.38494313,-0.075497486,-0.010733749,-0.9197847,-8.195278,9.868872,0.68323773,-0.08290923,-1.6424762,0.4973166,0
1.9500000000000015,9.083285799268339,-0.0829092250254799,-1.6424762335403236,0.49731660772192965,13.0848255,-0.6502207,-2.4062545,0.8233535,0.33934712,-0.11666924,1.8017399,-0.38276127,-0.08291534,-0.007003076,-0.9200924,-8.181545,9.864969,0.67484057,-0.08290923,-1.6424762,0.4973166,0
1.9600000000000015,8.9518230034307,-0.2594702050440726,-2.714335535149171,0.638756444652127,11.67931,-0.63912576,-0.7957643,0.8546404,0.25760448,-0.018043725,1.8084455,-0.3805512,-0.090327084,-0.003271885,-0.9203322,-8.166831,9.859961,0.66623265,-0.08290923,-1.6424762,0.4973166,0
1.9700000000000015,8.9518230034307,-0.2594702050440726,-2.714335535149171,0.638756444652127,11.67931,-0.63912576,-0.7957643,0.8546404,0.17601338,0.08052577,1.8150572,-0.3777362,-0.10232502,0.0033754152,-0.92023575,-8.151153,9.853647,0.6560382,-0.2594702,-2.7143354,0.63875645,0
1.9800000000000015,8.9518230034307,-0.2594702050440726,-2.714335535149171,0.638756444652127,11.67931,-0.63912576,-0.7957643,0.8546404,0.09458667,0.17902285,1.8215648,-0.37484717,-0.1143029,0.0100220535,-0.91995883,-8.133951,9.845478,0.6454048,-0.2594702,-2.7143354,0.63875645,0
1.9900000000000015,8.9518230034307,-0.2594702050440726,-2.714335535149171,0.638756444652127,11.67931,-0.63912576,-0.7957643,0.8546404,0.013339588,0.277429,1.8279635,-0.37188464,-0.12625837,0.016666727,-0.91950154,-8.115227,9.835468,0.6342661,-0.2594702,-2.7143354,0.63875645,0
2.0000000000000013,,,,,11.882172,-1.1151328,-2.476622,0.8395024,-0.06771264,0.37572595,1.834248,-0.36884922,-0.13818909,0.023308134,-0.9188639,-8.094981,9.823638,0.622556,-0.2594702,-2.7143354,0.63875645,0
2.010000000000001,,,,,11.882172,-1.1151328,-2.476622,0.8395024,-0.14855629,0.4738964,1.8404081,-0.36516944,-0.14795494,0.03004259,-0.91861755,-8.0735655,9.810194,0.6093783,-0.4166434,-2.3155158,0.7986948,0
2.020000000000001,,,,,11.882172,-1.1151328,-2.476622,0.8395024,-0.22917996,0.57192427,1.8464336,-0.36143327,-0.15769795,0.036772415,-0.9182294,-8.050987,9.795119,0.5956235,-0.4166434,-2.3155158,0.7986948,0
2.0300000000000007,,,,,11.882172,-1.1151328,-2.476622,0.8395024,-0.30957204,0.6697933,1.8523185,-0.35764137,-0.16741659,0.04349656,-0.9176996,-8.027245,9.778432,0.5812432,-0.4166434,-2.3155158,0.7986948,0
2.0400000000000005,,,,,11.882172,-1.1151328,-2.476622,0.8395024,-0.38972086,0.7674874,1.8580563,-0.35379422,-0.17710942,0.050213993,-0.91702807,-8.002337,9.760153,0.5661893,-0.4166434,-2.3155158,0.7986948,0
2.0500000000000003,,,,,10.8622055,-1.2027231,-2.0287204,0.9050949,-0.4696148,0.8649909,1.8636398,-0.3498925,-0.18677492,0.056923676,-0.9162151,-7.976267,9.740302,0.5504143,-0.4166434,-2.3155158,0.7986948,1
2.06,,,,,10.8622055,-1.2027231,-2.0287204,0.9050949,-0.5492125,0.96226364,1.8691542,-0.34626415,-0.19369183,0.06682305,-0.9154886,-7.943176,9.713899,0.55234444,-1.2027231,-2.0287204,0.9050949,1
2.07,,,,,10.8622055,-1.2027231,-2.0287204,0.9050949,-0.628476,1.0592607,1.8746837,-0.34258056,-0.20057786,0.076711774,-0.9146161,-7.9094377,9.685171,0.55341405,-1.2027231,-2.0287204,0.9050949,1
2.0799999999999996,,,,,10.8622055,-1.2027231,-2.0287204,0.9050949,-0.70739895,1.1559591,1.8802193,-0.33884233,-0.20743187,0.086588256,-0.9135977,-7.8750486,9.654142,0.553563,-1.2027231,-2.0287204,0.9050949,1
2.0899999999999994,,,,,9.606923,-1.0480952,-1.3661572,0.8061134,-0.78597474,1.2523358,1.8857516,-0.33505002,-0.21425278,0.096450925,-0.91243345,-7.840008,9.620837,0.5527318,-1.2027231,-2.0287204,0.9050949,1
2.099999999999999,,,,,9.606923,-1.0480952,-1.3661572,0.8061134,-0.86421776,1.3483889,1.891215,-0.33182123,-0.21833111,0.10438025,-0.91177374,-7.808565,9.589571,0.53985405,-1.0480952,-1.3661572,0.8061134,1
2.109999999999999,,,,,9.606923,-1.0480952,-1.3661572,0.8061134,-0.94214517,1.444122,1.8965465,-0.3285625,-0.2223897,0.11230014,-0.9110316,-7.7768803,9.556805,0.52632064,-1.0480952,-1.3661572,0.8061134,1
2.1199999999999988,,,,,9.606923,-1.0480952,-1.3661572,0.8061134,-1.0197545,1.5395199,1.9017392,-0.32527408,-0.22642818,0.12020989,-0.91020715,-7.744949,9.5225525,0.51210314,-1.0480952,-1.3661572,0.8061134,1
2.1299999999999986,,,,,8.986576,-0.72152394,0.06667524,0.8462246,-1.0970433,1.634568,1.9067862,-0.32195625,-0.2304462,0.12810877,-0.90930045,-7.712769,9.486828,0.49717355,-1.0480952,-1.3661572,0.8061134,1
2.1399999999999983,,,,,8.986576,-0.72152394,0.06667524,0.8462246,-1.1740202,1.7292644,1.9116542,-0.31897798,-0.22843598,0.1322549,-0.91026324,-7.682692,9.452383,0.4764348,-0.72152394,0.06667524,0.8462246,1
