time-since-start [s],throttle_mpc,roll_mpc,pitch_mpc,yaw_mpc,throttle_nw,roll_nw,pitch_nw,yaw_nw,position_x [m],position_y [m],position_z [m],rotation_w [quaternion],rotation_x [quaternion],rotation_y [quaternion],rotation_z [quaternion],velocity_x [m/s],velocity_y [m/s],velocity_z [m/s],omega_x [rad/s],omega_y [rad/s],omega_z [rad/s],network_used
0.0,9.605485910715528,5.999999744320064,-5.999999787485024,1.42903125462999,15.468225,1.0235325,-2.869765,-0.21716645,16.407486,-10.884026,2.0842578,-0.2889003,0.37553564,-0.28455848,-0.8333883,-10.724345,-2.1902711,0.5520394,1.7825814,-0.13685831,-0.5242606,0
0.01,9.605485910715528,5.999999744320064,-5.999999787485024,1.42903125462999,15.214074,2.4884946,-4.563985,-0.48008862,16.300028,-10.905594,2.0895581,-0.30247682,0.33949727,-0.30330718,-0.8374092,-10.765947,-2.123043,0.50844574,5.9999995,-6.0,1.4290313,0
0.02,9.605485910715528,5.999999744320064,-5.999999787485024,1.42903125462999,15.214074,2.4884946,-4.563985,-0.48008862,16.192192,-10.92648,2.0944362,-0.3154935,0.30283058,-0.32149452,-0.8398802,-10.800102,-2.0538485,0.46750236,5.9999995,-6.0,1.4290313,0
0.03,9.605485910715528,5.999999744320064,-5.999999787485024,1.42903125462999,15.214074,2.4884946,-4.563985,-0.48008862,16.084051,-10.946667,2.0989156,-0.32792625,0.26560342,-0.33908686,-0.84079677,-10.826555,-1.9831085,0.42871094,5.9999995,-6.0,1.4290313,0
0.04,9.605485910715528,5.999999744320064,-5.999999787485024,1.42903125462999,13.6660595,-0.7863554,-2.8114614,-0.34071383,15.975686,-10.966139,2.103016,-0.33975214,0.2278847,-0.35605162,-0.8401572,-10.845107,-1.9112562,0.39155725,5.9999995,-6.0,1.4290313,0
0.05,9.605485910715528,5.999999744320064,-5.999999787485024,1.42903125462999,13.6660595,-0.7863554,-2.8114614,-0.34071383,15.867177,-10.98489,2.1067507,-0.35094923,0.18974419,-0.37235743,-0.8379628,-10.855617,-1.8387322,0.35551497,5.9999995,-6.0,1.4290313,0
0.060000000000000005,9.605485910715528,5.999999744320064,-5.999999787485024,1.42903125462999,13.6660595,-0.7863554,-2.8114614,-0.34071383,15.758602,-11.002913,2.1101282,-0.3614968,0.1512525,-0.3879741,-0.8342175,-10.858004,-1.7659824,0.3200496,5.9999995,-6.0,1.4290313,0
0.07,9.605485910715528,5.999999744320064,-5.999999787485024,1.42903125462999,13.6660595,-0.7863554,-2.8114614,-0.34071383,15.650044,-11.02021,2.1131518,-0.3713753,0.11248089,-0.40287268,-0.82892823,-10.852248,-1.693454,0.28462234,5.9999995,-6.0,1.4290313,0
0.08,15.993912313736477,5.999999460760253,-5.999999616106198,1.100467295622637,14.004363,-2.063206,1.8761178,-0.43540803,15.541585,-11.036784,2.115819,-0.38056648,0.0735011,-0.4170257,-0.82210475,-10.83839,-1.6215932,0.24869409,5.9999995,-6.0,1.4290313,0
0.09,15.993912313736477,5.999999460760253,-5.999999616106198,1.100467295622637,14.004363,-2.063206,1.8761178,-0.43540803,15.433373,-11.052408,2.1183262,-0.39040747,0.0350708,-0.43029052,-0.8131433,-10.8019905,-1.5037879,0.25239313,5.9999995,-5.9999995,1.1004673,0
0.09999999999999999,15.993912313736477,5.999999460760253,-5.999999616106198,1.100467295622637,14.004363,-2.063206,1.8761178,-0.43540803,15.325591,-11.066867,2.1208577,-0.399534,-0.0034236796,-0.44276792,-0.80269384,-10.752529,-1.3885742,0.25351718,5.9999995,-5.9999995,1.1004673,0
0.10999999999999999,15.993912313736477,5.999999460760253,-5.999999616106198,1.100467295622637,14.004363,-2.063206,1.8761178,-0.43540803,15.218367,-11.080191,2.1233845,-0.40792942,-0.041911893,-0.45443508,-0.79077536,-10.690365,-1.2766831,0.25123996,5.9999995,-5.9999995,1.1004673,0
0.11999999999999998,15.993912313736477,5.999999460760253,-5.999999616106198,1.100467295622637,14.004363,-2.063206,1.8761178,-0.43540803,15.111826,-11.092415,2.1258678,-0.41557834,-0.080323406,-0.4652706,-0.7774098,-10.61595,-1.1688206,0.24476,5.9999995,-5.9999995,1.1004673,0
0.12999999999999998,19.494947619542703,3.751717431817513,-5.9999983365791625,0.18208510939129383,15.476731,-3.4649658,0.978497,0.23972386,15.006088,-11.103584,2.1282625,-0.42246675,-0.118587926,-0.4752547,-0.7626215,-10.529826,-1.065664,0.23330674,5.9999995,-5.9999995,1.1004673,0
0.13999999999999999,19.494947619542703,3.751717431817513,-5.9999983365791625,0.18208510939129383,15.476731,-3.4649658,0.978497,0.23972386,14.901369,-11.113641,2.130608,-0.4335386,-0.14974333,-0.4764805,-0.75005835,-10.412189,-0.9467434,0.23525536,3.7517173,-5.9999986,0.18208511,0
0.15,19.494947619542703,3.751717431817513,-5.9999983365791625,0.18208510939129383,15.476731,-3.4649658,0.978497,0.23972386,14.79788,-11.122546,2.1329541,-0.4440674,-0.18071118,-0.4771095,-0.7365556,-10.283989,-0.8357825,0.23329695,3.7517173,-5.9999986,0.18208511,0
0.16,18.412753918457224,0.54424360777955,-2.6615763684706564,-0.019273232324593763,15.829374,-3.1044312,2.1600895,-0.32017982,14.695724,-11.130385,2.135259,-0.45403993,-0.21145268,-0.4771408,-0.72213024,-10.145868,-0.73332244,0.22692983,3.7517173,-5.9999986,0.18208511,0
0.17,18.412753918457224,0.54424360777955,-2.6615763684706564,-0.019273232324593763,15.829374,-3.1044312,2.1600895,-0.32017982,14.594948,-11.137265,2.1374567,-0.45984176,-0.22223242,-0.47304004,-0.7179076,-10.008783,-0.6433262,0.21255091,0.54424363,-2.6615763,-0.019273233,0
0.18000000000000002,18.412753918457224,0.54424360777955,-2.6615763684706564,-0.019273232324593763,15.829374,-3.1044312,2.1600895,-0.32017982,14.495557,-11.143267,2.139509,-0.46555874,-0.23297115,-0.468852,-0.71355253,-9.868891,-0.55745786,0.19786249,0.54424363,-2.6615763,-0.019273233,0
0.19000000000000003,18.412753918457224,0.54424360777955,-2.6615763684706564,-0.019273232324593763,15.829374,-3.1044312,2.1600895,-0.32017982,14.397579,-11.148429,2.1414127,-0.47118986,-0.2436669,-0.4645775,-0.7090658,-9.726293,-0.475781,0.18280382,0.54424363,-2.6615763,-0.019273233,0
0.20000000000000004,16.61553239376213,-0.4586210539310405,0.019578204615703806,-0.18714757199864593,14.830214,-3.0897737,3.4313104,-0.63226694,14.30104,-11.152796,2.1431637,-0.476734,-0.2543177,-0.46021724,-0.7044482,-9.581096,-0.3983562,0.16731451,0.54424363,-2.6615763,-0.019273233,0
0.21000000000000005,16.61553239376213,-0.4586210539310405,0.019578204615703806,-0.18714757199864593,14.830214,-3.0897737,3.4313104,-0.63226694,14.205891,-11.156443,2.1447184,-0.47792986,-0.2527241,-0.45888507,-0.70508015,-9.448782,-0.3309351,0.14374685,-0.45862105,0.019578205,-0.18714757,0
0.22000000000000006,16.61553239376213,-0.4586210539310405,0.019578204615703806,-0.18714757199864593,14.830214,-3.0897737,3.4313104,-0.63226694,14.112062,-11.159414,2.146041,-0.4791228,-0.25112897,-0.4575501,-0.7057078,-9.316818,-0.26357752,0.12085393,-0.45862105,0.019578205,-0.18714757,0
0.23000000000000007,16.61553239376213,-0.4586210539310405,0.019578204615703806,-0.18714757199864593,14.830214,-3.0897737,3.4313104,-0.63226694,14.019552,-11.161715,2.1471379,-0.48031273,-0.24953231,-0.45621234,-0.7063311,-9.185207,-0.19628355,0.09863398,-0.45862105,0.019578205,-0.18714757,0
0.24000000000000007,16.61553239376213,-0.4586210539310405,0.019578204615703806,-0.18714757199864593,15.332455,-2.5195673,3.7312999,-0.15825705,13.928358,-11.163341,2.148016,-0.48149973,-0.2479341,-0.45487174,-0.70695,-9.053953,-0.12905331,0.07708522,-0.45862105,0.019578205,-0.18714757,0
0.25000000000000006,16.61553239376213,-0.4586210539310405,0.019578204615703806,-0.18714757199864593,15.332455,-2.5195673,3.7312999,-0.15825705,13.838473,-11.164294,2.1486819,-0.48268378,-0.24633436,-0.45352837,-0.70756465,-8.923059,-0.06188692,0.056205872,-0.45862105,0.019578205,-0.18714757,0
0.26000000000000006,16.61553239376213,-0.4586210539310405,0.019578204615703806,-0.18714757199864593,15.332455,-2.5195673,3.7312999,-0.15825705,13.749896,-11.164577,2.1491425,-0.48386487,-0.24473311,-0.45218223,-0.7081749,-8.792528,0.0052154996,0.035994135,-0.45862105,0.019578205,-0.18714757,0
0.2700000000000001,16.61553239376213,-0.4586210539310405,0.019578204615703806,-0.18714757199864593,15.332455,-2.5195673,3.7312999,-0.15825705,13.662622,-11.164188,2.1494043,-0.485043,-0.24313036,-0.4508333,-0.7087808,-8.662364,0.072253846,0.01644817,-0.45862105,0.019578205,-0.18714757,0
0.2800000000000001,14.835504218866763,-1.3822394374269795,2.0948611364651275,-0.34049760957856895,16.530334,-3.0511367,4.0483303,-0.5813171,13.576649,-11.163132,2.1494737,-0.48621812,-0.24152611,-0.44948158,-0.70938236,-8.53257,0.13922802,-0.0024338523,-0.45862105,0.019578205,-0.18714757,0
0.2900000000000001,14.835504218866763,-1.3822394374269795,2.0948611364651275,-0.34049760957856895,16.530334,-3.0511367,4.0483303,-0.5813171,13.491899,-11.161437,2.1493158,-0.48434815,-0.22995119,-0.45004684,-0.71413386,-8.417738,0.19995035,-0.028877838,-1.3822395,2.094861,-0.3404976,0
0.3000000000000001,14.835504218866763,-1.3822394374269795,2.0948611364651275,-0.34049760957856895,16.530334,-3.0511367,4.0483303,-0.5813171,13.408286,-11.159122,2.148901,-0.48240048,-0.21833938,-0.45053992,-0.7187708,-8.305213,0.26321185,-0.053874232,-1.3822395,2.094861,-0.3404976,0
0.3100000000000001,14.835504218866763,-1.3822394374269795,2.0948611364651275,-0.34049760957856895,16.530334,-3.0511367,4.0483303,-0.5813171,13.325787,-11.156163,2.1482432,-0.48037547,-0.20669255,-0.45096076,-0.72329247,-8.195062,0.32898027,-0.077479005,-1.3822395,2.094861,-0.3404976,0
0.3200000000000001,13.44787750667332,-2.3166335544568457,4.596271537714485,-0.5044997587740196,15.831298,-3.8757029,5.9663887,-0.29467636,13.244377,-11.152534,2.1473563,-0.4782734,-0.19501257,-0.45130926,-0.7276982,-8.087354,0.3972217,-0.099749,-1.3822395,2.094861,-0.3404976,0
0.3300000000000001,13.44787750667332,-2.3166335544568457,4.596271537714485,-0.5044997587740196,15.831298,-3.8757029,5.9663887,-0.29467636,13.1639805,-11.148239,2.1462176,-0.47183695,-0.17154814,-0.45421225,-0.7359567,-7.9928465,0.46231326,-0.12776078,-2.3166335,4.5962715,-0.50449973,0
0.34000000000000014,13.44787750667332,-2.3166335544568457,4.596271537714485,-0.5044997587740196,15.831298,-3.8757029,5.9663887,-0.29467636,13.084505,-11.1432705,2.1448066,-0.46508506,-0.14796902,-0.45681158,-0.74372315,-7.9030523,0.53223723,-0.15424727,-2.3166335,4.5962715,-0.50449973,0
0.35000000000000014,13.44787750667332,-2.3166335544568457,4.596271537714485,-0.5044997587740196,15.831298,-3.8757029,5.9663887,-0.29467636,13.005902,-11.137579,2.1431372,-0.45802218,-0.124290965,-0.45910546,-0.7509924,-7.8182,0.6068261,-0.17942683,-2.3166335,4.5962715,-0.50449973,0
0.36000000000000015,12.795223482745564,-2.6323800220928137,4.801178812462089,-0.6896655694160325,16.50739,-3.789178,6.4128795,-0.7869073,12.928123,-11.131119,2.141222,-0.45065305,-0.10052979,-0.46109235,-0.75775945,-7.738505,0.6859001,-0.2035213,-2.3166335,4.5962715,-0.50449973,0
0.37000000000000016,12.795223482745564,-2.6323800220928137,4.801178812462089,-0.6896655694160325,16.50739,-3.789178,6.4128795,-0.7869073,12.851096,-11.123865,2.1390522,-0.44334963,-0.07478265,-0.4621081,-0.7643983,-7.667925,0.7652698,-0.23029916,-2.63238,4.801179,-0.68966556,0
0.38000000000000017,12.795223482745564,-2.6323800220928137,4.801178812462089,-0.6896655694160325,16.50739,-3.789178,6.4128795,-0.7869073,12.774746,-11.115798,2.1366189,-0.43570864,-0.048978563,-0.46277204,-0.77045506,-7.6030293,0.84864885,-0.25625736,-2.63238,4.801179,-0.68966556,0
0.3900000000000002,12.795223482745564,-2.6323800220928137,4.801178812462089,-0.6896655694160325,16.50739,-3.789178,6.4128795,-0.7869073,12.699016,-11.106879,2.133929,-0.42773595,-0.02313719,-0.46308362,-0.7759253,-7.544,0.9358122,-0.28165168,-2.63238,4.801179,-0.68966556,0
0.4000000000000002,12.64697003845571,-2.4662814752846542,3.4215677656135344,-0.8510111803029742,14.669773,-3.0643194,3.812847,-0.22335918,12.623845,-11.097071,2.130987,-0.4194376,0.0027218005,-0.46304262,-0.78080475,-7.4910035,1.0265232,-0.30673972,-2.63238,4.801179,-0.68966556,0
0.4100000000000002,12.64697003845571,-2.4662814752846542,3.4215677656135344,-0.8510111803029742,14.669773,-3.0643194,3.812847,-0.22335918,12.549173,-11.086345,2.127791,-0.41470802,0.023219999,-0.4604713,-0.78450245,-7.4442453,1.1190481,-0.33241645,-2.4662814,3.4215677,-0.85101116,0
0.4200000000000002,12.64697003845571,-2.4662814752846542,3.4215677656135344,-0.8510111803029742,14.669773,-3.0643194,3.812847,-0.22335918,12.474944,-11.074683,2.12434,-0.40978652,0.04370745,-0.45768687,-0.787837,-7.402408,1.21359,-0.35768938,-2.4662814,3.4215677,-0.85101116,0
0.4300000000000002,12.64697003845571,-2.4662814752846542,3.4215677656135344,-0.8510111803029742,14.669773,-3.0643194,3.812847,-0.22335918,12.401109,-11.062066,2.120638,-0.40467536,0.06417467,-0.45469064,-0.790807,-7.365558,1.310006,-0.38272503,-2.4662814,3.4215677,-0.85101116,0
0.4400000000000002,12.64697003845571,-2.4662814752846542,3.4215677656135344,-0.8510111803029742,14.315345,-2.3092933,1.7314439,-0.18887904,12.327616,-11.048477,2.1166859,-0.39937693,0.08461219,-0.45148394,-0.79341096,-7.3337536,1.4081495,-0.4076904,-2.4662814,3.4215677,-0.85101116,0
0.45000000000000023,12.64697003845571,-2.4662814752846542,3.4215677656135344,-0.8510111803029742,14.315345,-2.3092933,1.7314439,-0.18887904,12.2544155,-11.033898,2.1124837,-0.39389366,0.10501055,-0.4480683,-0.79564774,-7.3070426,1.5078709,-0.43275258,-2.4662814,3.4215677,-0.85101116,0
0.46000000000000024,12.64697003845571,-2.4662814752846542,3.4215677656135344,-0.8510111803029742,14.315345,-2.3092933,1.7314439,-0.18887904,12.1814575,-11.018314,2.1080298,-0.3882281,0.12536031,-0.44444525,-0.7975162,-7.285465,1.6090177,-0.45807847,-2.4662814,3.4215677,-0.85101116,0
0.47000000000000025,12.64697003845571,-2.4662814752846542,3.4215677656135344,-0.8510111803029742,14.315345,-2.3092933,1.7314439,-0.18887904,12.108689,-11.001714,2.1033206,-0.38238278,0.14565204,-0.44061652,-0.79901564,-7.2690487,1.7114347,-0.48383456,-2.4662814,3.4215677,-0.85101116,0
0.48000000000000026,12.673238508992121,-2.0674128266992904,1.9892909021840055,-0.8808384780520472,16.277706,-2.1420221,1.9983305,-0.2908101,12.036059,-10.984082,2.098351,-0.37636054,0.16587637,-0.43658385,-0.80014527,-7.2578144,1.8149643,-0.51018643,-2.4662814,3.4215677,-0.85101116,0
0.49000000000000027,12.673238508992121,-2.0674128266992904,1.9892909021840055,-0.8808384780520472,16.277706,-2.1420221,1.9983305,-0.2908101,11.963518,-10.965411,2.0931158,-0.3737851,0.17962906,-0.43127665,-0.8012607,-7.2511683,1.9194263,-0.53684705,-2.0674129,1.989291,-0.88083845,0
0.5000000000000002,12.673238508992121,-2.0674128266992904,1.9892909021840055,-0.8808384780520472,16.277706,-2.1420221,1.9983305,-0.2908101,11.891025,-10.945693,2.087614,-0.37112555,0.1933413,-0.42587233,-0.8021957,-7.248151,2.0241032,-0.5635766,-2.0674129,1.989291,-0.88083845,0
0.5100000000000002,12.673238508992121,-2.0674128266992904,1.9892909021840055,-0.8808384780520472,16.277706,-2.1420221,1.9983305,-0.2908101,11.8185425,-10.924929,2.081844,-0.3683824,0.20701,-0.4203721,-0.8029501,-7.2487626,2.1289265,-0.59046024,-2.0674129,1.989291,-0.88083845,0
0.5200000000000002,12.837845265652764,-1.5440461111739863,0.2974437068130582,-0.837166658447264,15.49408,-1.7333086,1.2313668,-0.13251017,11.7460375,-10.903115,2.075804,-0.36555627,0.22063208,-0.41477722,-0.8035236,-7.2530017,2.233828,-0.617583,-2.0674129,1.989291,-0.88083845,0
0.5300000000000002,12.837845265652764,-1.5440461111739863,0.2974437068130582,-0.837166658447264,15.49408,-1.7333086,1.2313668,-0.13251017,11.673472,-10.880246,2.069497,-0.366585,0.22637664,-0.40817758,-0.80483556,-7.260254,2.3398762,-0.64369756,-1.5440462,0.29744372,-0.83716667,0
0.5400000000000003,12.837845265652764,-1.5440461111739863,0.2974437068130582,-0.837166658447264,15.49408,-1.7333086,1.2313668,-0.13251017,11.600825,-10.856319,2.0629327,-0.36758462,0.23210324,-0.40154558,-0.8060838,-7.2692823,2.4452922,-0.6690883,-1.5440462,0.29744372,-0.83716667,0
0.5500000000000003,12.837845265652764,-1.5440461111739863,0.2974437068130582,-0.837166658447264,15.49408,-1.7333086,1.2313668,-0.13251017,11.52808,-10.831342,2.0561175,-0.36855507,0.23781143,-0.3948817,-0.80726796,-7.2800913,2.5500586,-0.6937859,-1.5440462,0.29744372,-0.83716667,0
0.5600000000000003,12.960989553851055,-1.0065957180034828,-0.8790804925938807,-0.7200169867465888,14.9153805,-1.7981683,0.760271,-0.0038899742,11.455218,-10.80532,2.049059,-0.3694963,0.24350075,-0.3881865,-0.8083881,-7.292686,2.654157,-0.71782106,-1.5440462,0.29744372,-0.83716667,0
0.5700000000000003,12.960989553851055,-1.0065957180034828,-0.8790804925938807,-0.7200169867465888,14.9153805,-1.7981683,0.760271,-0.0038899742,11.382222,-10.778255,2.0417676,-0.37287658,0.24319772,-0.3816061,-0.8100586,-7.306657,2.7584395,-0.74023443,-1.0065957,-0.8790805,-0.720017,0
0.5800000000000003,12.960989553851055,-1.0065957180034828,-0.8790804925938807,-0.7200169867465888,14.9153805,-1.7981683,0.760271,-0.0038899742,11.309084,-10.750154,2.0342588,-0.3762354,0.24288069,-0.3750037,-0.81168234,-7.320969,2.8616858,-0.7613027,-1.0065957,-0.8790805,-0.720017,0
0.5900000000000003,12.960989553851055,-1.0065957180034828,-0.8790804925938807,-0.7200169867465888,14.9153805,-1.7981683,0.760271,-0.0038899742,11.235802,-10.721025,2.026546,-0.3795725,0.24254964,-0.36837965,-0.81325936,-7.3356323,2.9638774,-0.7810424,-1.0065957,-0.8790805,-0.720017,0
0.6000000000000003,13.126578266283794,-0.6991947013682404,-0.7164274896044129,-0.5812397087691361,15.482594,-1.8252957,1.1148386,0.12802869,11.162371,-10.69088,2.0186422,-0.38288778,0.24220464,-0.36173445,-0.8147896,-7.3506556,3.064997,-0.7994703,-1.0065957,-0.8790805,-0.720017,0
0.6100000000000003,13.126578266283794,-0.6991947013682404,-0.7164274896044129,-0.5812397087691361,15.482594,-1.8252957,1.1148386,0.12802869,11.088786,-10.659722,2.0105658,-0.38569832,0.24167171,-0.3568045,-0.8157954,-7.3661714,3.166409,-0.8156833,-0.6991947,-0.7164275,-0.5812397,0
0.6200000000000003,13.126578266283794,-0.6991947013682404,-0.7164274896044129,-0.5812397087691361,15.482594,-1.8252957,1.1148386,0.12802869,11.015046,-10.627554,2.0023322,-0.38849595,0.24113071,-0.3518626,-0.8167739,-7.3818717,3.2669814,-0.8309022,-0.6991947,-0.7164275,-0.5812397,0
0.6300000000000003,13.126578266283794,-0.6991947013682404,-0.7164274896044129,-0.5812397087691361,15.482594,-1.8252957,1.1148386,0.12802869,10.941148,-10.594385,1.9939513,-0.39128056,0.24058163,-0.34690893,-0.817725,-7.397762,3.3667042,-0.84513676,-0.6991947,-0.7164275,-0.5812397,0
0.6400000000000003,13.126578266283794,-0.6991947013682404,-0.7164274896044129,-0.5812397087691361,15.099187,-1.7775372,1.3975099,0.09473607,10.867089,-10.560224,1.9854329,-0.39405206,0.24002449,-0.34194362,-0.81864876,-7.4138484,3.4655678,-0.8583968,-0.6991947,-0.7164275,-0.5812397,0
0.6500000000000004,13.126578266283794,-0.6991947013682404,-0.7164274896044129,-0.5812397087691361,15.099187,-1.7775372,1.3975099,0.09473607,10.79287,-10.525077,1.9767867,-0.39681038,0.2394593,-0.33696687,-0.8195451,-7.4301367,3.563562,-0.87069243,-0.6991947,-0.7164275,-0.5812397,0
0.6600000000000004,13.126578266283794,-0.6991947013682404,-0.7164274896044129,-0.5812397087691361,15.099187,-1.7775372,1.3975099,0.09473607,10.718486,-10.488955,1.9680223,-0.39955541,0.2388861,-0.3319788,-0.82041395,-7.4466333,3.6606772,-0.8820337,-0.6991947,-0.7164275,-0.5812397,0
0.6700000000000004,13.126578266283794,-0.6991947013682404,-0.7164274896044129,-0.5812397087691361,15.099187,-1.7775372,1.3975099,0.09473607,10.643937,-10.451866,1.9591492,-0.40228707,0.2383049,-0.3269796,-0.8212553,-7.4633436,3.7569036,-0.89243084,-0.6991947,-0.7164275,-0.5812397,0
0.6800000000000004,13.099501646370879,-0.45883166263006037,-0.9333098315299029,-0.47160644718778716,14.860704,-1.7644407,1.0804516,0.088287234,10.56922,-10.41382,1.950177,-0.40500522,0.2377157,-0.32196945,-0.82206917,-7.4802732,3.8522322,-0.9018942,-0.6991947,-0.7164275,-0.5812397,0
0.6900000000000004,13.099501646370879,-0.45883166263006037,-0.9333098315299029,-0.47160644718778716,14.860704,-1.7644407,1.0804516,0.088287234,10.494331,-10.374826,1.9411137,-0.4078942,0.23556398,-0.31762773,-0.8229487,-7.4972363,3.9464583,-0.91058934,-0.45883167,-0.93330985,-0.47160643,0
0.7000000000000004,13.099501646370879,-0.45883166263006037,-0.9333098315299029,-0.47160644718778716,14.860704,-1.7644407,1.0804516,0.088287234,10.419275,-10.334894,1.9319685,-0.41076988,0.23340456,-0.3132757,-0.8238014,-7.5140123,4.0397687,-0.9182937,-0.45883167,-0.93330985,-0.47160643,0
0.7100000000000004,13.099501646370879,-0.45883166263006037,-0.9333098315299029,-0.47160644718778716,14.860704,-1.7644407,1.0804516,0.088287234,10.344051,-10.294034,1.9227512,-0.41363218,0.23123755,-0.30891344,-0.8246273,-7.5306053,4.1321507,-0.9250171,-0.45883167,-0.93330985,-0.47160643,0
0.7200000000000004,13.222766401022303,-0.20514450370724047,-0.6802488123507672,-0.3683012606794475,14.571016,-1.6692437,1.0090367,0.08704503,10.268663,-10.252255,1.9134715,-0.416481,0.22906299,-0.30454114,-0.8254262,-7.547021,4.223594,-0.9307694,-0.45883167,-0.93330985,-0.47160643,0
0.7300000000000004,13.222766401022303,-0.20514450370724047,-0.6802488123507672,-0.3683012606794475,14.571016,-1.6692437,1.0090367,0.08704503,10.193111,-10.209561,1.9041431,-0.41879854,0.2272417,-0.3018537,-0.8257441,-7.5633793,4.3150682,-0.9348003,-0.20514451,-0.6802488,-0.36830127,0
0.7400000000000004,13.222766401022303,-0.20514450370724047,-0.6802488123507672,-0.3683012606794475,14.571016,-1.6692437,1.0090367,0.08704503,10.117397,-10.165956,1.8947777,-0.4211094,0.22541675,-0.29916137,-0.8260488,-7.5794716,4.405917,-0.93818206,-0.20514451,-0.6802488,-0.36830127,0
0.7500000000000004,13.222766401022303,-0.20514450370724047,-0.6802488123507672,-0.3683012606794475,14.571016,-1.6692437,1.0090367,0.08704503,10.041524,-10.121445,1.8853817,-0.4234135,0.22358823,-0.29646426,-0.82634026,-7.5952997,4.4961357,-0.9409191,-0.20514451,-0.6802488,-0.36830127,0
0.7600000000000005,13.187802408982074,-0.033517583806100114,-0.7335648943522207,-0.2895996666035621,14.177885,-1.344226,1.0515804,0.0010527,9.965493,-10.076035,1.8759615,-0.4257108,0.22175613,-0.29376242,-0.8266185,-7.6108665,4.585719,-0.9430158,-0.20514451,-0.6802488,-0.36830127,0
0.7700000000000005,13.187802408982074,-0.033517583806100114,-0.7335648943522207,-0.2895996666035621,14.177885,-1.344226,1.0515804,0.0010527,9.88931,-10.029733,1.8665223,-0.42794475,0.21921922,-0.29173908,-0.8268582,-7.626049,4.6744504,-0.9447412,-0.033517584,-0.7335649,-0.28959966,0
0.7800000000000005,13.187802408982074,-0.033517583806100114,-0.7335648943522207,-0.2895996666035621,14.177885,-1.344226,1.0515804,0.0010527,9.812976,-9.982547,1.8570688,-0.43017206,0.2166789,-0.2897112,-0.8270851,-7.640748,4.7626004,-0.9458608,-0.033517584,-0.7335649,-0.28959966,0
0.7900000000000005,13.187802408982074,-0.033517583806100114,-0.7335648943522207,-0.2895996666035621,14.177885,-1.344226,1.0515804,0.0010527,9.736498,-9.934482,1.8476071,-0.4323926,0.21413521,-0.2876788,-0.82729906,-7.6549644,4.850164,-0.946379,-0.033517584,-0.7335649,-0.28959966,0
0.8000000000000005,13.296850562729407,0.015236185086791485,-0.5840899906826923,-0.2281813844713669,14.07537,-0.9181587,1.0213232,-0.09715679,9.659878,-9.885545,1.8381433,-0.43460643,0.21158819,-0.2856419,-0.82750016,-7.6687016,4.937135,-0.9463003,-0.033517584,-0.7335649,-0.28959966,0
0.8100000000000005,13.296850562729407,0.015236185086791485,-0.5840899906826923,-0.2281813844713669,14.07537,-0.9181587,1.0213232,-0.09715679,9.583124,-9.835738,1.8286872,-0.43639868,0.20946327,-0.28419292,-0.8275964,-7.682089,5.024278,-0.94486403,0.015236185,-0.58409,-0.22818138,0
0.8200000000000005,13.296850562729407,0.015236185086791485,-0.5840899906826923,-0.2281813844713669,14.07537,-0.9181587,1.0213232,-0.09715679,9.506239,-9.785062,1.8192477,-0.43818665,0.20733628,-0.2827411,-0.8276845,-7.6950464,5.1109624,-0.94297135,0.015236185,-0.58409,-0.22818138,0
0.8300000000000005,13.296850562729407,0.015236185086791485,-0.5840899906826923,-0.2281813844713669,14.07537,-0.9181587,1.0213232,-0.09715679,9.429225,-9.733521,1.8098294,-0.4399703,0.20520726,-0.2812865,-0.8277645,-7.7075753,5.197184,-0.94062513,0.015236185,-0.58409,-0.22818138,0
0.8400000000000005,13.296850562729407,0.015236185086791485,-0.5840899906826923,-0.2281813844713669,13.81803,-0.6960837,0.8430087,-0.1052905,9.352088,-9.68112,1.8004369,-0.4417497,0.20307621,-0.27982917,-0.82783633,-7.7196755,5.282939,-0.93782824,0.015236185,-0.58409,-0.22818138,0
0.8500000000000005,13.296850562729407,0.015236185086791485,-0.5840899906826923,-0.2281813844713669,13.81803,-0.6960837,0.8430087,-0.1052905,9.274833,-9.627863,1.7910744,-0.4435247,0.20094317,-0.27836907,-0.8279,-7.73135,5.368224,-0.9345835,0.015236185,-0.58409,-0.22818138,0
0.8600000000000005,13.296850562729407,0.015236185086791485,-0.5840899906826923,-0.2281813844713669,13.81803,-0.6960837,0.8430087,-0.1052905,9.197463,-9.573756,1.7817467,-0.44529533,0.19880815,-0.27690622,-0.82795554,-7.7425985,5.4530354,-0.93089396,0.015236185,-0.58409,-0.22818138,0
0.8700000000000006,13.296850562729407,0.015236185086791485,-0.5840899906826923,-0.2281813844713669,13.81803,-0.6960837,0.8430087,-0.1052905,9.119982,-9.518805,1.7724581,-0.4470616,0.19667117,-0.27544063,-0.828003,-7.7534227,5.5373693,-0.9267625,0.015236185,-0.58409,-0.22818138,0
0.8800000000000006,13.316631320635691,0.029387425095452398,-0.6398657938632084,-0.17476717363188393,13.537214,-0.21070148,1.1027614,-0.0024012849,9.042396,-9.463013,1.7632129,-0.44882345,0.19453226,-0.27397236,-0.8280422,-7.7638235,5.6212215,-0.9221922,0.015236185,-0.58409,-0.22818138,0
0.8900000000000006,13.316631320635691,0.029387425095452398,-0.6398657938632084,-0.17476717363188393,13.537214,-0.21070148,1.1027614,-0.0024012849,8.964707,-9.406383,1.7540165,-0.45044965,0.19205548,-0.2724866,-0.8282276,-7.773796,5.7046976,-0.91701883,0.029387426,-0.6398658,-0.17476717,0
0.9000000000000006,13.316631320635691,0.029387425095452398,-0.6398657938632084,-0.17476717363188393,13.537214,-0.21070148,1.1027614,-0.0024012849,8.886922,-9.34892,1.7448742,-0.4520709,0.18957657,-0.27099782,-0.82840383,-7.783292,5.787646,-0.9113756,0.029387426,-0.6398658,-0.17476717,0
0.9100000000000006,13.316631320635691,0.029387425095452398,-0.6398657938632084,-0.17476717363188393,13.537214,-0.21070148,1.1027614,-0.0024012849,8.809045,-9.290631,1.7357907,-0.45368713,0.18709557,-0.26950607,-0.8285709,-7.792311,5.8700604,-0.9052663,0.029387426,-0.6398658,-0.17476717,0
0.9200000000000006,13.474150528427021,-0.02260621466862124,-0.46272866474042085,-0.12310415176769918,13.256513,0.17322582,0.7307584,0.05405589,8.731078,-9.231521,1.7267705,-0.4552984,0.1846125,-0.26801133,-0.82872885,-7.8008556,5.951939,-0.8986949,0.029387426,-0.6398658,-0.17476717,0
0.9300000000000006,13.474150528427021,-0.02260621466862124,-0.46272866474042085,-0.12310415176769918,13.256513,0.17322582,0.7307584,0.05405589,8.6530285,-9.171588,1.7178245,-0.45640638,0.18291102,-0.26674986,-0.82890373,-7.80909,6.034286,-0.8904633,-0.022606215,-0.46272868,-0.123104155,0
0.9400000000000006,13.474150528427021,-0.02260621466862124,-0.46272866474042085,-0.12310415176769918,13.256513,0.17322582,0.7307584,0.05405589,8.574898,-9.110836,1.7089624,-0.45751175,0.18120849,-0.26548687,-0.82907385,-7.8170285,6.116209,-0.8818822,-0.022606215,-0.46272868,-0.123104155,0
0.9500000000000006,13.474150528427021,-0.02260621466862124,-0.46272866474042085,-0.12310415176769918,13.256513,0.17322582,0.7307584,0.05405589,8.496691,-9.049266,1.700188,-0.4586145,0.17950492,-0.26422235,-0.8292392,-7.8246713,6.197706,-0.87295365,-0.022606215,-0.46272868,-0.123104155,0
0.9600000000000006,13.592446666193206,-0.07588182083517578,-0.5091861167946838,-0.07364627100113802,13.393564,0.42673123,0.77258223,0.034156825,8.418407,-8.986882,1.6915047,-0.45971462,0.17780031,-0.2629563,-0.82939976,-7.832019,6.2787747,-0.86367977,-0.022606215,-0.46272868,-0.123104155,0
0.9700000000000006,13.592446666193206,-0.07588182083517578,-0.5091861167946838,-0.07364627100113802,13.393564,0.42673123,0.77258223,0.034156825,8.340051,-8.923687,1.6829206,-0.4606205,0.1759594,-0.26140484,-0.82978004,-7.8391457,6.360093,-0.85309696,-0.075881824,-0.5091861,-0.07364627,0
0.9800000000000006,13.592446666193206,-0.07588182083517578,-0.5091861167946838,-0.07364627100113802,13.393564,0.42673123,0.77258223,0.034156825,8.261624,-8.859682,1.6744442,-0.46152326,0.17411728,-0.25985163,-0.83015484,-7.8460054,6.440901,-0.8421171,-0.075881824,-0.5091861,-0.07364627,0
0.9900000000000007,13.592446666193206,-0.07588182083517578,-0.5091861167946838,-0.07364627100113802,13.393564,0.42673123,0.77258223,0.034156825,8.183131,-8.79487,1.6660796,-0.46242288,0.17227398,-0.25829667,-0.8305239,-7.852598,6.5211964,-0.8307427,-0.075881824,-0.5091861,-0.07364627,0
1.0000000000000007,13.83087928977005,-0.17634983275874191,-0.24758807439045044,-0.0321075358528359,13.732932,0.426022,0.45433214,0.04244214,8.104573,-8.7292595,1.6578308,-0.4633194,0.1704295,-0.25673997,-0.8308875,-7.858924,6.6009765,-0.81897694,-0.075881824,-0.5091861,-0.07364627,1
1.0100000000000007,13.83087928977005,-0.17634983275874191,-0.24758807439045044,-0.0321075358528359,13.732932,0.426022,0.45433214,0.04244214,8.025952,-8.6628475,1.6497062,-0.46292064,0.17127478,-0.25959727,-0.8300477,-7.8650784,6.681511,-0.806011,0.426022,0.45433214,0.04244214,1
1.0200000000000007,13.83087928977005,-0.17634983275874191,-0.24758807439045044,-0.0321075358528359,13.732932,0.426022,0.45433214,0.04244214,7.9472713,-8.595627,1.6417089,-0.46251735,0.1721184,-0.26245207,-0.8291999,-7.871051,6.762725,-0.79353136,0.426022,0.45433214,0.04244214,1
1.0300000000000007,13.83087928977005,-0.17634983275874191,-0.24758807439045044,-0.0321075358528359,13.732932,0.426022,0.45433214,0.04244214,7.8685317,-8.527591,1.6338339,-0.46210954,0.1729603,-0.26530427,-0.828344,-7.8768415,6.844616,-0.7815421,0.426022,0.45433214,0.04244214,1
1.0400000000000007,13.83087928977005,-0.17634983275874191,-0.24758807439045044,-0.0321075358528359,14.308076,0.2845734,0.30163583,0.046667535,7.7897353,-8.458732,1.6260762,-0.46169725,0.17380051,-0.2681539,-0.82747996,-7.882451,6.927181,-0.7700477,0.426022,0.45433214,0.04244214,1
1.0500000000000007,13.83087928977005,-0.17634983275874191,-0.24758807439045044,-0.0321075358528359,14.308076,0.2845734,0.30163583,0.046667535,7.710882,-8.389027,1.6184542,-0.46134603,0.17432863,-0.27006757,-0.8269422,-7.888129,7.0138144,-0.75441796,0.2845734,0.30163583,0.046667535,1
1.0600000000000007,13.83087928977005,-0.17634983275874191,-0.24758807439045044,-0.0321075358528359,14.308076,0.2845734,0.30163583,0.046667535,7.631973,-8.318453,1.6109867,-0.4609928,0.17485598,-0.2719801,-0.8264009,-7.89368,7.1009116,-0.7391363,0.2845734,0.30163583,0.046667535,1
1.0700000000000007,13.83087928977005,-0.17634983275874191,-0.24758807439045044,-0.0321075358528359,14.308076,0.2845734,0.30163583,0.046667535,7.553009,-8.247006,1.6036704,-0.46063757,0.17538255,-0.27389145,-0.8258559,-7.899104,7.1884704,-0.72420466,0.2845734,0.30163583,0.046667535,1
1.0800000000000007,13.946242509321902,-0.5907144081057419,-1.0686231317764312,-0.0009845837341350098,15.20024,-0.3537109,0.09877067,-0.0023653042,7.4739914,-8.174682,1.5965015,-0.46028033,0.17590837,-0.2758016,-0.82530737,-7.904401,7.2764893,-0.7096252,0.2845734,0.30163583,0.046667535,0
1.0900000000000007,13.946242509321902,-0.5907144081057419,-1.0686231317764312,-0.0009845837341350098,15.20024,-0.3537109,0.09877067,-0.0023653042,7.3949223,-8.101489,1.589464,-0.4612299,0.17285623,-0.2708987,-0.8270442,-7.909463,7.3620596,-0.6977176,-0.5907144,-1.0686232,-0.0009845837,0
1.1000000000000008,13.946242509321902,-0.5907144081057419,-1.0686231317764312,-0.0009845837341350098,15.20024,-0.3537109,0.09877067,-0.0023653042,7.3158026,-8.027446,1.5825506,-0.46216223,0.16979764,-0.26598567,-0.8287502,-7.914464,7.446282,-0.68477166,-0.5907144,-1.0686232,-0.0009845837,0
1.1100000000000008,13.946242509321902,-0.5907144081057419,-1.0686231317764312,-0.0009845837341350098,15.20024,-0.3537109,0.09877067,-0.0023653042,7.2366333,-7.952568,1.575772,-0.4630774,0.16673273,-0.26106274,-0.8304253,-7.919403,7.5291433,-0.67080384,-0.5907144,-1.0686232,-0.0009845837,0
1.1200000000000008,14.086441635970269,-0.9010802658139561,-1.3769548560400509,0.03897847047139228,15.607214,-0.800053,-0.35988805,-0.043443415,7.157415,-7.8768682,1.569138,-0.46397528,0.1636616,-0.2561301,-0.83206946,-7.924279,7.6106315,-0.655831,-0.5907144,-1.0686232,-0.0009845837,0
1.1300000000000008,14.086441635970269,-0.9010802658139561,-1.3769548560400509,0.03897847047139228,15.607214,-0.800053,-0.35988805,-0.043443415,7.0781474,-7.8003573,1.5626649,-0.46482345,0.15996796,-0.24921024,-0.83441246,-7.9291964,7.6913543,-0.6385967,-0.90108025,-1.3769549,0.03897847,0
1.1400000000000008,14.086441635970269,-0.9010802658139561,-1.3769548560400509,0.03897847047139228,15.607214,-0.800053,-0.35988805,-0.043443415,6.9988303,-7.723048,1.5563707,-0.46564016,0.1562635,-0.24227348,-0.8366989,-7.9341974,7.770167,-0.6200522,-0.90108025,-1.3769549,0.03897847,0
1.1500000000000008,14.086441635970269,-0.9010802658139561,-1.3769548560400509,0.03897847047139228,15.607214,-0.800053,-0.35988805,-0.043443415,6.919463,-7.644961,1.5502683,-0.46642527,0.15254846,-0.23532031,-0.8389287,-7.93928,7.847048,-0.6002291,-0.90108025,-1.3769549,0.03897847,0
1.1600000000000008,14.080250071351415,-0.8689587728926766,-1.0836514815331306,0.10716530051082616,15.585822,-1.322579,0.28854975,-0.057522822,6.8400445,-7.566114,1.5443704,-0.46717882,0.14882308,-0.22835122,-0.8411016,-7.944442,7.9219766,-0.57915914,-0.90108025,-1.3769549,0.03897847,0
1.1700000000000008,14.080250071351415,-0.8689587728926766,-1.0836514815331306,0.10716530051082616,15.585822,-1.322579,0.28854975,-0.057522822,6.760574,-7.486528,1.5386888,-0.46730745,0.14616962,-0.22223978,-0.84312993,-7.9497447,7.9950194,-0.55700254,-0.8689588,-1.0836514,0.1071653,0
1.1800000000000008,14.080250071351415,-0.8689587728926766,-1.0836514815331306,0.10716530051082616,15.585822,-1.322579,0.28854975,-0.057522822,6.681049,-7.4062195,1.5332339,-0.46741343,0.14350908,-0.21611753,-0.8451175,-7.955297,8.066392,-0.53385866,-0.8689588,-1.0836514,0.1071653,0
1.1900000000000008,14.080250071351415,-0.8689587728926766,-1.0836514815331306,0.10716530051082616,15.585822,-1.322579,0.28854975,-0.057522822,6.601467,-7.3252063,1.5280151,-0.4674967,0.14084156,-0.2099848,-0.8470641,-7.9610953,8.136081,-0.5097507,-0.8689588,-1.0836514,0.1071653,0
1.2000000000000008,14.056245846194331,-0.7913065714454338,-0.7154451663638822,0.16135294398046074,15.365893,-1.4256318,0.31640205,-0.047068216,6.521826,-7.2435045,1.5230422,-0.4675573,0.13816722,-0.20384188,-0.8489694,-7.9671373,8.204073,-0.48470214,-0.8689588,-1.0836514,0.1071653,0
1.2100000000000009,14.056245846194331,-0.7913065714454338,-0.7154451663638822,0.16135294398046074,15.365893,-1.4256318,0.31640205,-0.047068216,6.442123,-7.161131,1.518323,-0.4670481,0.13681372,-0.19891888,-0.850635,-7.973476,8.270406,-0.45903823,-0.79130656,-0.71544516,0.16135295,0
1.2200000000000009,14.056245846194331,-0.7913065714454338,-0.7154451663638822,0.16135294398046074,15.365893,-1.4256318,0.31640205,-0.047068216,6.3623548,-7.0781007,1.5138638,-0.46652532,0.13545622,-0.19399008,-0.8522758,-7.9802303,8.335456,-0.43271744,-0.79130656,-0.71544516,0.16135295,0
1.2300000000000009,14.056245846194331,-0.7913065714454338,-0.7154451663638822,0.16135294398046074,15.365893,-1.4256318,0.31640205,-0.047068216,6.282517,-6.9944263,1.5096709,-0.46598893,0.13409479,-0.18905564,-0.8538918,-7.987397,8.399216,-0.4057535,-0.79130656,-0.71544516,0.16135295,0
1.2400000000000009,14.056245846194331,-0.7913065714454338,-0.7154451663638822,0.16135294398046074,15.547911,-1.255396,0.30755344,-0.027808506,6.202605,-6.9101205,1.5057507,-0.46543902,0.13272946,-0.1841157,-0.855483,-7.994973,8.461678,-0.37816018,-0.79130656,-0.71544516,0.16135295,0
1.2500000000000009,14.056245846194331,-0.7913065714454338,-0.7154451663638822,0.16135294398046074,15.547911,-1.255396,0.30755344,-0.027808506,6.1226153,-6.8251967,1.5021096,-0.46487555,0.13136028,-0.17917039,-0.85704935,-8.0029545,8.522834,-0.34995145,-0.79130656,-0.71544516,0.16135295,0
1.260000000000001,14.056245846194331,-0.7913065714454338,-0.7154451663638822,0.16135294398046074,15.547911,-1.255396,0.30755344,-0.027808506,6.042544,-6.739668,1.4987537,-0.46429855,0.12998728,-0.17421988,-0.8585907,-8.011339,8.582677,-0.32114124,-0.79130656,-0.71544516,0.16135295,0
1.270000000000001,14.056245846194331,-0.7913065714454338,-0.7154451663638822,0.16135294398046074,15.547911,-1.255396,0.30755344,-0.027808506,5.9623866,-6.6535473,1.4956888,-0.46370804,0.12861048,-0.1692643,-0.86010706,-8.020124,8.641199,-0.29174367,-0.79130656,-0.71544516,0.16135295,0
1.280000000000001,13.868751159240269,-0.724242483907172,-0.7247350181930309,0.2040806004624004,15.540665,-1.070211,-0.0021383204,-0.004549658,5.88214,-6.5668483,1.4929208,-0.46310404,0.12722994,-0.1643038,-0.86159843,-8.029305,8.698394,-0.26177275,-0.79130656,-0.71544516,0.16135295,0
1.290000000000001,13.868751159240269,-0.724242483907172,-0.7247350181930309,0.2040806004624004,15.540665,-1.070211,-0.0021383204,-0.004549658,5.8018003,-6.4795876,1.4904467,-0.4623532,0.1256154,-0.15963323,-0.86311525,-8.038719,8.753524,-0.23296236,-0.7242425,-0.724735,0.2040806,0
1.300000000000001,13.868751159240269,-0.724242483907172,-0.7247350181930309,0.2040806004624004,15.540665,-1.070211,-0.0021383204,-0.004549658,5.7213645,-6.3917823,1.4882634,-0.46158972,0.12399743,-0.15495832,-0.8646085,-8.048431,8.807367,-0.2036239,-0.7242425,-0.724735,0.2040806,0
1.310000000000001,13.868751159240269,-0.724242483907172,-0.7247350181930309,0.2040806004624004,15.540665,-1.070211,-0.0021383204,-0.004549658,5.6408305,-6.303445,1.4863759,-0.46081367,0.12237608,-0.15027918,-0.8660782,-8.058439,8.8599205,-0.17377035,-0.7242425,-0.724735,0.2040806,0
1.320000000000001,13.65279880460922,-0.6768797128222406,-0.5296075946774269,0.23250186905076914,15.365074,-0.9893706,-0.08027092,0.057526518,5.5601945,-6.2145886,1.4847896,-0.46002504,0.12075139,-0.14559595,-0.86752427,-8.068737,8.911177,-0.14341474,-0.7242425,-0.724735,0.2040806,0
1.330000000000001,13.65279880460922,-0.6768797128222406,-0.5296075946774269,0.23250186905076914,15.365074,-0.9893706,-0.08027092,0.057526518,5.4794555,-6.12523,1.4834992,-0.45898882,0.1198406,-0.14158069,-0.868863,-8.079192,8.960441,-0.11461525,-0.6768797,-0.5296076,0.23250186,0
1.340000000000001,13.65279880460922,-0.6768797128222406,-0.5296075946774269,0.23250186905076914,15.365074,-0.9893706,-0.08027092,0.057526518,5.39861,-6.0353837,1.4824985,-0.45794353,0.11892745,-0.13756262,-0.87018454,-8.090018,9.0086565,-0.08544439,-0.6768797,-0.5296076,0.23250186,0
1.350000000000001,13.65279880460922,-0.6768797128222406,-0.5296075946774269,0.23250186905076914,15.365074,-0.9893706,-0.08027092,0.057526518,5.3176546,-5.9450607,1.4817915,-0.45688918,0.11801194,-0.13354182,-0.8714887,-8.1012125,9.055819,-0.05591108,-0.6768797,-0.5296076,0.23250186,0
1.360000000000001,13.30858427826228,-0.609910976787187,-0.8496600840794428,0.2669530112151339,15.05339,-0.9252297,-0.32113552,0.07647574,5.236585,-5.8542714,1.4813815,-0.45582578,0.117094085,-0.12951836,-0.8727757,-8.112771,9.101923,-0.02602425,-0.6768797,-0.5296076,0.23250186,0
1.370000000000001,13.30858427826228,-0.609910976787187,-0.8496600840794428,0.2669530112151339,15.05339,-0.9252297,-0.32113552,0.07647574,5.1554,-5.763032,1.4812562,-0.45484734,0.11460176,-0.12507473,-0.8742638,-8.124273,9.145725,0.0010186723,-0.60991096,-0.8496601,0.26695302,0
1.380000000000001,13.30858427826228,-0.609910976787187,-0.8496600840794428,0.2669530112151339,15.05339,-0.9252297,-0.32113552,0.07647574,5.0740995,-5.6713614,1.4814036,-0.45385566,0.1121061,-0.12062745,-0.87572646,-8.135812,9.188211,0.028511412,-0.60991096,-0.8496601,0.26695302,0
1.390000000000001,13.30858427826228,-0.609910976787187,-0.8496600840794428,0.2669530112151339,15.05339,-0.9252297,-0.32113552,0.07647574,4.9926834,-5.5792727,1.4818281,-0.45285076,0.10960718,-0.116176665,-0.8771636,-8.147382,9.229376,0.056440562,-0.60991096,-0.8496601,0.26695302,0
1.400000000000001,13.034177785533133,-0.5608378148454087,-0.5674939223442247,0.2779416869899558,14.49252,-1.0049428,-0.5792837,0.081966445,4.9111514,-5.4867783,1.4825339,-0.45183265,0.10710507,-0.11172249,-0.87857515,-8.158978,9.269215,0.084792666,-0.60991096,-0.8496601,0.26695302,0
1.410000000000001,13.034177785533133,-0.5608378148454087,-0.5674939223442247,0.2779416869899558,14.49252,-1.0049428,-0.5792837,0.081966445,4.8295045,-5.3938966,1.4835122,-0.45062432,0.10572296,-0.10812459,-0.8798124,-8.170415,9.307049,0.11089684,-0.5608378,-0.5674939,0.27794167,0
1.420000000000001,13.034177785533133,-0.5608378148454087,-0.5674939223442247,0.2779416869899558,14.49252,-1.0049428,-0.5792837,0.081966445,4.7477427,-5.300641,1.484753,-0.44940796,0.10433895,-0.10452477,-0.88103396,-8.182026,9.343896,0.13728108,-0.5608378,-0.5674939,0.27794167,0
1.430000000000001,13.034177785533133,-0.5608378148454087,-0.5674939223442247,0.2779416869899558,14.49252,-1.0049428,-0.5792837,0.081966445,4.665864,-5.2070217,1.486259,-0.44818357,0.102953084,-0.10092308,-0.88223976,-8.193808,9.379755,0.1639378,-0.5608378,-0.5674939,0.27794167,0
1.440000000000001,13.034177785533133,-0.5608378148454087,-0.5674939223442247,0.2779416869899558,14.203394,-0.7920909,-0.5854966,0.19823733,4.583866,-5.113049,1.4880327,-0.44695118,0.101565376,-0.09731959,-0.8834298,-8.205756,9.414623,0.1908595,-0.5608378,-0.5674939,0.27794167,0
1.450000000000001,13.034177785533133,-0.5608378148454087,-0.5674939223442247,0.2779416869899558,14.203394,-0.7920909,-0.5854966,0.19823733,4.501748,-5.018733,1.490077,-0.4457108,0.10017586,-0.09371436,-0.88460416,-8.217868,9.448496,0.21803853,-0.5608378,-0.5674939,0.27794167,0
1.460000000000001,13.034177785533133,-0.5608378148454087,-0.5674939223442247,0.2779416869899558,14.203394,-0.7920909,-0.5854966,0.19823733,4.4195085,-4.9240828,1.4923944,-0.44446248,0.09878455,-0.090107456,-0.8857627,-8.230139,9.481372,0.24546735,-0.5608378,-0.5674939,0.27794167,0
1.470000000000001,13.034177785533133,-0.5608378148454087,-0.5674939223442247,0.2779416869899558,14.203394,-0.7920909,-0.5854966,0.19823733,4.337145,-4.8291087,1.4949872,-0.44320625,0.09739148,-0.08649895,-0.88690543,-8.242567,9.513249,0.2731383,-0.5608378,-0.5674939,0.27794167,0
1.480000000000001,12.620747939189409,-0.4644927645244133,-0.9655897320964563,0.2861611501672514,13.435642,-0.5046805,-0.9608365,0.15677577,4.254657,-4.733821,1.4978579,-0.4419421,0.09599667,-0.0828889,-0.8880324,-8.255148,9.544125,0.30104378,-0.5608378,-0.5674939,0.27794167,1
1.490000000000001,12.620747939189409,-0.4644927645244133,-0.9655897320964563,0.2861611501672514,13.435642,-0.5046805,-0.9608365,0.15677577,4.172041,-4.638225,1.5010284,-0.4413953,0.09277919,-0.078598894,-0.8890359,-8.268129,9.57478,0.3331099,-0.5046805,-0.9608365,0.15677577,1
1.500000000000001,12.620747939189409,-0.4644927645244133,-0.9655897320964563,0.2861611501672514,13.435642,-0.5046805,-0.9608365,0.15677577,4.089296,-4.54233,1.5045213,-0.44083527,0.089558914,-0.07430652,-0.8900127,-8.280887,9.604036,0.36551967,-0.5046805,-0.9608365,0.15677577,1
1.5100000000000011,12.620747939189409,-0.4644927645244133,-0.9655897320964563,0.2861611501672514,13.435642,-0.5046805,-0.9608365,0.15677577,4.0064244,-4.4461493,1.5083399,-0.440262,0.08633596,-0.070011914,-0.89096254,-8.293416,9.631891,0.39825788,-0.5046805,-0.9608365,0.15677577,1
1.5200000000000011,12.10563320567015,-0.31329345424018656,-1.0551363677016452,0.29556392508708257,13.1118,-0.48226738,-0.7515388,0.12827149,3.9234285,-4.3496966,1.5124874,-0.43967545,0.083110414,-0.06571521,-0.8918857,-8.3057165,9.6583395,0.43130925,-0.5046805,-0.9608365,0.15677577,0
1.5300000000000011,12.10563320567015,-0.31329345424018656,-1.0551363677016452,0.29556392508708257,13.1118,-0.48226738,-0.7515388,0.12827149,3.840317,-4.2529993,1.516902,-0.4385668,0.0789954,-0.062120292,-0.8930624,-8.316493,9.680921,0.45165104,-0.31329346,-1.0551363,0.29556394,0
1.5400000000000011,12.10563320567015,-0.31329345424018656,-1.0551363677016452,0.29556392508708257,13.1118,-0.48226738,-0.7515388,0.12827149,3.7571,-4.156082,1.5215213,-0.43744388,0.07487782,-0.058523353,-0.8942101,-8.326801,9.702283,0.47226027,-0.31329346,-1.0551363,0.29556394,0
1.5500000000000012,12.10563320567015,-0.31329345424018656,-1.0551363677016452,0.29556392508708257,13.1118,-0.48226738,-0.7515388,0.12827149,3.6737826,-4.0589576,1.5263481,-0.43630677,0.07075781,-0.054924514,-0.89532876,-8.336636,9.7224245,0.49312258,-0.31329346,-1.0551363,0.29556394,0
1.5600000000000012,11.525854022276727,-0.13581114615815668,-1.2589798379197001,0.2944751678868594,13.5634,-0.28634265,-1.312771,0.43562278,3.5903692,-3.9616382,1.5313848,-0.43515548,0.066635504,-0.05132389,-0.89641833,-8.345991,9.741345,0.51422364,-0.31329346,-1.0551363,0.29556394,0
1.5700000000000012,11.525854022276727,-0.13581114615815668,-1.2589798379197001,0.2944751678868594,13.5634,-0.28634265,-1.312771,0.43562278,3.506867,-3.8641398,1.5366049,-0.43410423,0.061211206,-0.04807296,-0.89749444,-8.354325,9.758179,0.5298407,-0.13581115,-1.2589798,0.29447517,0
1.5800000000000012,11.525854022276727,-0.13581114615815668,-1.2589798379197001,0.2944751678868594,13.5634,-0.28634265,-1.312771,0.43562278,3.4232852,-3.7664788,1.5419824,-0.43303466,0.055784315,-0.044820003,-0.89853257,-8.36189,9.773792,0.5456853,-0.13581115,-1.2589798,0.29447517,0
1.5900000000000012,11.525854022276727,-0.13581114615815668,-1.2589798379197001,0.2944751678868594,13.5634,-0.28634265,-1.312771,0.43562278,3.339632,-3.668668,1.5475194,-0.4319468,0.050355066,-0.041565154,-0.89953274,-8.368678,9.788187,0.56173897,-0.13581115,-1.2589798,0.29447517,0
1.6000000000000012,11.124697553298029,0.012533227146837718,-1.1843846480874471,0.2812983378119606,13.815922,-0.35286292,-1.5652059,0.7418701,3.255915,-3.5707195,1.5532179,-0.4308407,0.04492369,-0.038308546,-0.90049493,-8.374688,9.801363,0.5779834,-0.13581115,-1.2589798,0.29447517,0
1.6100000000000012,11.124697553298029,0.012533227146837718,-1.1843846480874471,0.2812983378119606,13.815922,-0.35286292,-1.5652059,0.7418701,3.1721423,-3.472647,1.5590599,-0.42979586,0.03950935,-0.035876058,-0.9013479,-8.3797035,9.812967,0.5904092,0.012533227,-1.1843847,0.28129834,0
1.6200000000000012,11.124697553298029,0.012533227146837718,-1.1843846480874471,0.2812983378119606,13.815922,-0.35286292,-1.5652059,0.7418701,3.0883238,-3.3744636,1.5650266,-0.4287351,0.034093544,-0.033442244,-0.90216744,-8.3838825,9.823561,0.6029711,0.012533227,-1.1843847,0.28129834,0
1.6300000000000012,11.124697553298029,0.012533227146837718,-1.1843846480874471,0.2812983378119606,13.815922,-0.35286292,-1.5652059,0.7418701,3.004468,-3.2761793,1.5711197,-0.42765847,0.028676474,-0.031007191,-0.9029536,-8.38722,9.833147,0.6156533,0.012533227,-1.1843847,0.28129834,0
1.6400000000000012,11.124697553298029,0.012533227146837718,-1.1843846480874471,0.2812983378119606,13.737758,-0.43688297,-1.3080552,0.7394822,2.9205825,-3.1778042,1.5773402,-0.42656597,0.023258343,-0.02857099,-0.9037062,-8.389714,9.841726,0.62844014,0.012533227,-1.1843847,0.28129834,0
1.6500000000000012,11.124697553298029,0.012533227146837718,-1.1843846480874471,0.2812983378119606,13.737758,-0.43688297,-1.3080552,0.7394822,2.8366766,-3.0793483,1.583689,-0.42545766,0.01783935,-0.02613373,-0.9044254,-8.391361,9.849302,0.64131606,0.012533227,-1.1843847,0.28129834,0
1.6600000000000013,11.124697553298029,0.012533227146837718,-1.1843846480874471,0.2812983378119606,13.737758,-0.43688297,-1.3080552,0.7394822,2.7527583,-2.9808216,1.5901668,-0.42433357,0.012419697,-0.0236955,-0.905111,-8.3921585,9.855873,0.65426534,0.012533227,-1.1843847,0.28129834,0
1.6700000000000013,11.124697553298029,0.012533227146837718,-1.1843846480874471,0.2812983378119606,13.737758,-0.43688297,-1.3080552,0.7394822,2.668836,-2.8822343,1.5967745,-0.42319375,0.0069995825,-0.021256393,-0.90576315,-8.392101,9.861442,0.6672722,0.012533227,-1.1843847,0.28129834,0
1.6800000000000013,10.743409633575,0.12729616963228807,-1.0885164919091703,0.26362878709336995,14.1967945,-0.57107085,-1.4634814,0.80984646,2.5849187,-2.7835963,1.6035124,-0.42203832,0.0015792097,-0.018816499,-0.9063817,-8.39119,9.86601,0.68032104,0.012533227,-1.1843847,0.28129834,0
1.6900000000000013,10.743409633575,0.12729616963228807,-1.0885164919091703,0.26362878709336995,14.1967945,-0.57107085,-1.4634814,0.80984646,2.5010147,-2.6849182,1.6103619,-0.42094028,-0.0036472674,-0.017098207,-0.90692025,-8.389469,9.869515,0.6895836,0.12729616,-1.0885165,0.26362878,0
1.7000000000000013,10.743409633575,0.12729616963228807,-1.0885164919091703,0.26362878709336995,14.1967945,-0.57107085,-1.4634814,0.80984646,2.4171321,-2.5862088,1.6173042,-0.4198289,-0.008873628,-0.015379371,-0.90743,-8.386889,9.872216,0.69885224,0.12729616,-1.0885165,0.26362878,0
1.7100000000000013,10.743409633575,0.12729616963228807,-1.0885164919091703,0.26362878709336995,14.1967945,-0.57107085,-1.4634814,0.80984646,2.3332798,-2.4874766,1.624339,-0.41870415,-0.014099708,-0.013660049,-0.9079109,-8.383449,9.874114,0.70811397,0.12729616,-1.0885165,0.26362878,0
1.7200000000000013,10.327480518144492,0.23727191809701534,-0.4607807807293331,0.2646174245030384,14.237386,-0.63241625,-1.7224526,0.9613389,2.249466,-2.3887293,1.6314663,-0.41756612,-0.01932534,-0.011940292,-0.9083629,-8.379146,9.875211,0.7173557,0.12729616,-1.0885165,0.26362878,0
1.7300000000000013,10.327480518144492,0.23727191809701534,-0.4607807807293331,0.2646174245030384,14.237386,-0.63241625,-1.7224526,0.9613389,2.165698,-2.2899745,1.6386651,-0.4163671,-0.021929218,-0.012030286,-0.9088529,-8.374305,9.875709,0.72241575,0.23727192,-0.46078077,0.2646174,0
1.7400000000000013,10.327480518144492,0.23727191809701534,-0.4607807807293331,0.2646174245030384,14.237386,-0.63241625,-1.7224526,0.9613389,2.0819812,-2.1912158,1.6459144,-0.41516456,-0.024532909,-0.012120177,-0.9093352,-8.368968,9.876006,0.72745204,0.23727192,-0.46078077,0.2646174,0
1.7500000000000013,10.327480518144492,0.23727191809701534,-0.4607807807293331,0.2646174245030384,14.237386,-0.63241625,-1.7224526,0.9613389,1.9983202,-2.0924551,1.6532141,-0.4139585,-0.027136393,-0.012209966,-0.9098097,-8.363135,9.876103,0.73246175,0.23727192,-0.46078077,0.2646174,0
1.7600000000000013,9.950059176550592,0.2839729299840337,-0.2750888849015326,0.2805561622555115,13.982878,-0.5689547,-0.966682,0.565099,1.91472,-1.9936947,1.6605636,-0.4127489,-0.029739648,-0.01229965,-0.91027653,-8.356806,9.876002,0.73744226,0.23727192,-0.46078077,0.2646174,0
1.7700000000000014,9.950059176550592,0.2839729299840337,-0.2750888849015326,0.2805561622555115,13.982878,-0.5689547,-0.966682,0.565099,1.8311845,-1.8949357,1.667944,-0.41144547,-0.031594895,-0.012982651,-0.9107945,-8.350262,9.87578,0.7386271,0.28397292,-0.27508888,0.28055617,0
1.7800000000000014,9.950059176550592,0.2839729299840337,-0.2750888849015326,0.2805561622555115,13.982878,-0.5689547,-0.966682,0.565099,1.7477162,-1.796179,1.6753359,-0.4101396,-0.033449955,-0.0136655755,-0.9113071,-8.343325,9.875539,0.7397852,0.28397292,-0.27508888,0.28055617,0
1.7900000000000014,9.950059176550592,0.2839729299840337,-0.2750888849015326,0.2805561622555115,13.982878,-0.5689547,-0.966682,0.565099,1.6643194,-1.697425,1.6827393,-0.40883133,-0.035304822,-0.01434842,-0.91181433,-8.335996,9.875281,0.7409151,0.28397292,-0.27508888,0.28055617,0
1.8000000000000014,9.645127512402334,0.2192903177995955,0.055864909863385465,0.3251477631277586,13.825388,-0.5752742,-1.329232,0.46941727,1.5809977,-1.5986735,1.690154,-0.40752068,-0.03715948,-0.01503118,-0.91231626,-8.328276,9.875006,0.7420153,0.28397292,-0.27508888,0.28055617,0
1.8100000000000014,9.645127512402334,0.2192903177995955,0.055864909863385465,0.3251477631277586,13.825388,-0.5752742,-1.329232,0.46941727,1.4977537,-1.4999245,1.6975642,-0.40599173,-0.037375838,-0.01608488,-0.9129709,-8.320509,9.874798,0.7400531,0.21929032,0.05586491,0.32514778,0
1.8200000000000014,9.645127512402334,0.2192903177995955,0.055864909863385465,0.3251477631277586,13.825388,-0.5752742,-1.329232,0.46941727,1.414588,-1.4011768,1.704955,-0.4044612,-0.037592046,-0.017138517,-0.91362196,-8.312621,9.874771,0.73808134,0.21929032,0.05586491,0.32514778,0
1.8300000000000014,9.645127512402334,0.2192903177995955,0.055864909863385465,0.3251477631277586,13.825388,-0.5752742,-1.329232,0.46941727,1.3315017,-1.3024284,1.7123259,-0.4029291,-0.037808113,-0.018192086,-0.91426945,-8.304614,9.8749275,0.7360995,0.21929032,0.05586491,0.32514778,0
1.8400000000000014,9.645127512402334,0.2192903177995955,0.055864909863385465,0.3251477631277586,13.465183,-0.6024672,-1.7758908,0.39226478,1.2484962,-1.2036777,1.719677,-0.4013954,-0.03802403,-0.019245584,-0.9149133,-8.296488,9.875267,0.73410714,0.21929032,0.05586491,0.32514778,0
1.8500000000000014,9.645127512402334,0.2192903177995955,0.055864909863385465,0.3251477631277586,13.465183,-0.6024672,-1.7758908,0.39226478,1.1655725,-1.1049224,1.7270081,-0.39986014,-0.0382398,-0.020299006,-0.91555357,-8.288242,9.87579,0.7321039,0.21929032,0.05586491,0.32514778,0
1.8600000000000014,9.645127512402334,0.2192903177995955,0.055864909863385465,0.3251477631277586,13.465183,-0.6024672,-1.7758908,0.39226478,1.0827317,-1.0061612,1.7343191,-0.3983233,-0.03845542,-0.021352349,-0.91619027,-8.279879,9.876495,0.73008925,0.21929032,0.05586491,0.32514778,0
1.8700000000000014,9.645127512402334,0.2192903177995955,0.055864909863385465,0.3251477631277586,13.465183,-0.6024672,-1.7758908,0.39226478,0.9999752,-0.90739197,1.7416099,-0.3967849,-0.038670883,-0.022405608,-0.9168234,-8.271398,9.877384,0.72806275,0.21929032,0.05586491,0.32514778,0
1.8800000000000014,9.386094621588871,0.12098832462568335,-1.0346452460814475,0.3939331053261551,14.313696,-0.41856587,-3.4569433,0.738693,0.9173041,-0.8086128,1.7488804,-0.39524496,-0.038886197,-0.02345878,-0.9174529,-8.2628,9.878456,0.7260241,0.21929032,0.05586491,0.32514778,0
1.8900000000000015,9.386094621588871,0.12098832462568335,-1.0346452460814475,0.3939331053261551,14.313696,-0.41856587,-3.4569433,0.738693,0.8347191,-0.70982313,1.7561175,-0.3935296,-0.043917064,-0.021892145,-0.9180018,-8.254082,9.879376,0.72137433,0.120988324,-1.0346452,0.39393312,0
1.9000000000000015,9.386094621588871,0.12098832462568335,-1.0346452460814475,0.3939331053261551,14.313696,-0.41856587,-3.4569433,0.738693,0.75222504,-0.61102736,1.7633077,-0.391802,-0.04894657,-0.020324834,-0.91852224,-8.244616,9.879671,0.71665585,0.120988324,-1.0346452,0.39393312,0
1.9100000000000015,9.386094621588871,0.12098832462568335,-1.0346452460814475,0.3939331053261551,14.313696,-0.41856587,-3.4569433,0.738693,0.66982937,-0.51223177,1.7704504,-0.3900623,-0.053974558,-0.01875689,-0.9190142,-8.2344,9.879343,0.7118582,0.120988324,-1.0346452,0.39393312,0
1.9200000000000015,9.099811904918926,-0.07786668709391704,-1.6704827247998413,0.4927086400258568,13.059865,-0.62255865,-2.4214656,0.8406155,0.58753955,-0.4134426,1.7775446,-0.3883105,-0.059000872,-0.017188365,-0.9194777,-8.223433,9.878395,0.706971,0.120988324,-1.0346452,0.39393312,0
1.9300000000000015,9.099811904918926,-0.07786668709391704,-1.6704827247998413,0.4927086400258568,13.059865,-0.62255865,-2.4214656,0.8406155,0.50536174,-0.3146664,1.7845752,-0.38619712,-0.06656955,-0.013441095,-0.9199133,-8.211968,9.876676,0.6991267,-0.07786669,-1.6704828,0.49270865,0
1.9400000000000015,9.099811904918926,-0.07786668709391704,-1.6704827247998413,0.4927086400258568,13.059865,-0.62255865,-2.4214656,0.8406155,0.42330357,-0.21591303,1.7915266,-0.38405442,-0.07413317,-0.009692805,-0.92027897,-8.199502,9.873822,0.6911207,-0.07786669,-1.6704828,0.49270865,0
1.9500000000000015,9.099811904918926,-0.07786668709391704,-1.6704827247998413,0.4927086400258568,13.059865,-0.62255865,-2.4214656,0.8406155,0.3413751,-0.11719382,1.7983971,-0.3818825,-0.08169117,-0.0059437775,-0.92057467,-8.186032,9.869842,0.68292713,-0.07786669,-1.6704828,0.49270865,0
1.9600000000000015,8.957971536618288,-0.2517563444846209,-2.743665134555628,0.633980618788084,11.890373,-0.61334103,-1.0027244,0.89356136,0.2595864,-0.018520027,1.8051844,-0.3796816,-0.08924296,-0.0021942984,-0.92080045,-8.1715555,9.86474,0.67452025,-0.07786669,-1.6704828,0.49270865,0
1.9700000000000015,8.957971536618288,-0.2517563444846209,-2.743665134555628,0.633980618788084,11.890373,-0.61334103,-1.0027244,0.89356136,0.17794688,0.08009678,1.8118794,-0.37686732,-0.1013945,0.0044562733,-0.9206904,-8.156101,9.858329,0.66442096,-0.25175634,-2.7436652,0.63398063,0
1.9800000000000015,8.957971536618288,-0.2517563444846209,-2.743665134555628,0.633980618788084,11.890373,-0.61334103,-1.0027244,0.89356136,0.09646969,0.17864013,1.8184713,-0.37397778,-0.11352578,0.011105955,-0.92039657,-8.139095,9.850051,0.6538784,-0.25175634,-2.7436652,0.63398063,0
1.9900000000000015,8.957971536618288,-0.2517563444846209,-2.743665134555628,0.633980618788084,11.890373,-0.61334103,-1.0027244,0.89356136,0.015170321,0.27709144,1.8249552,-0.37101352,-0.12563437,0.017753417,-0.9199187,-8.120538,9.839922,0.64282477,-0.25175634,-2.7436652,0.63398063,0
2.0000000000000013,,,,,11.627144,-1.0928686,-2.2294247,0.8476501,-0.06593573,0.37543228,1.8313258,-0.3679751,-0.13771786,0.024397332,-0.91925704,-8.100431,9.827961,0.6311928,-0.25175634,-2.7436652,0.63398063,0
2.010000000000001,,,,,11.627144,-1.0928686,-2.2294247,0.8476501,-0.1468345,0.47364527,1.8375723,-0.364289,-0.14766796,0.031141493,-0.9189769,-8.079136,9.814384,0.6180377,-0.4074946,-2.3514414,0.7943022,0
2.020000000000001,,,,,11.627144,-1.0928686,-2.2294247,0.8476501,-0.22751434,0.57171434,1.8436846,-0.36054525,-0.15759473,0.037880734,-0.91855145,-8.056646,9.799164,0.6042941,-0.4074946,-2.3514414,0.7943022,0
2.0300000000000007,,,,,11.627144,-1.0928686,-2.2294247,0.8476501,-0.30796334,0.6696231,1.8496561,-0.35674456,-0.16749656,0.044613976,-0.9179807,-8.032962,9.782319,0.5899125,-0.4074946,-2.3514414,0.7943022,0
2.0400000000000005,,,,,11.627144,-1.0928686,-2.2294247,0.8476501,-0.3881695,0.76735526,1.8554804,-0.35288745,-0.17737189,0.05134017,-0.9172647,-8.008082,9.763871,0.57484335,-0.4074946,-2.3514414,0.7943022,0
2.0500000000000003,,,,,10.542413,-1.1401646,-1.8623918,0.90119666,-0.46812087,0.8648951,1.8611505,-0.3489745,-0.18721917,0.058058243,-0.9164038,-7.982009,9.74384,0.559038,-0.4074946,-2.3514414,0.7943022,1
2.06,,,,,10.542413,-1.1401646,-1.8623918,0.90119666,-0.5477809,0.9622062,1.8667362,-0.3453476,-0.19348842,0.06737148,-0.915838,-7.9498987,9.718057,0.5579839,-1.1401646,-1.8623918,0.90119666,1
2.07,,,,,10.542413,-1.1401646,-1.8623918,0.90119666,-0.627117,1.059249,1.8723075,-0.34167254,-0.1997307,0.07667531,-0.91514444,-7.9172325,9.690174,0.55616117,-1.1401646,-1.8623918,0.90119666,1
2.0799999999999996,,,,,10.542413,-1.1401646,-1.8623918,0.90119666,-0.7061236,1.1560026,1.8778566,-0.3379498,-0.20594509,0.08596845,-0.9143232,-7.8840065,9.660214,0.5535195,-1.1401646,-1.8623918,0.90119666,1
2.0899999999999994,,,,,9.721798,-1.1271197,-1.4965008,0.9189611,-0.7847951,1.2524462,1.883375,-0.33417994,-0.21213076,0.09524959,-0.9133744,-7.850218,9.628198,0.55000895,-1.1401646,-1.8623918,0.90119666,1
2.099999999999999,,,,,9.721798,-1.1271197,-1.4965008,0.9189611,-0.8631395,1.3485727,1.8888173,-0.33044785,-0.2166325,0.10386686,-0.9127362,-7.818626,9.596877,0.5383503,-1.1271197,-1.4965008,0.9189611,1
2.109999999999999,,,,,9.721798,-1.1271197,-1.4965008,0.9189611,-0.9411666,1.444378,1.8941394,-0.32667977,-0.22111066,0.11247283,-0.9119985,-7.7867446,9.56391,0.5259698,-1.1271197,-1.4965008,0.9189611,1
2.1199999999999988,,,,,9.721798,-1.1271197,-1.4965008,0.9189611,-1.0188735,1.5398453,1.8993341,-0.32287613,-0.22556475,0.121066555,-0.91116166,-7.754569,9.529311,0.5128334,-1.1271197,-1.4965008,0.9189611,1
2.1299999999999986,,,,,8.900072,-0.7527472,-0.29395258,0.942594,-1.096257,1.6349586,1.9043933,-0.31903732,-0.2299943,0.1296471,-0.91022563,-7.722095,9.4931,0.49890733,-1.1271197,-1.4965008,0.9189611,1
2.1399999999999983,,,,,8.900072,-0.7527472,-0.29395258,0.942594,-1.1733288,1.7297186,1.9092746,-0.3154164,-0.22951588,0.13462327,-0.9108857,-7.6922865,9.458791,0.47732785,-0.7527472,-0.29395258,0.942594,1
