time-since-start [s],throttle_mpc,roll_mpc,pitch_mpc,yaw_mpc,throttle_nw,roll_nw,pitch_nw,yaw_nw,position_x [m],position_y [m],position_z [m],rotation_w [quaternion],rotation_x [quaternion],rotation_y [quaternion],rotation_z [quaternion],velocity_x [m/s],velocity_y [m/s],velocity_z [m/s],omega_x [rad/s],omega_y [rad/s],omega_z [rad/s],network_used
0.0,9.605485910715528,5.999999744320064,-5.999999787485024,1.4290312546299901,15.477767,1.0249053,-2.869594,-0.22064947,16.407486,-10.884026,2.0842578,-0.2889003,0.37553564,-0.28455848,-0.8333883,-10.724345,-2.1902711,0.5520394,1.7825814,-0.13685831,-0.5242606,0
0.01,9.605485910715528,5.999999744320064,-5.999999787485024,1.4290312546299901,15.223258,2.484942,-4.5570164,-0.4835106,16.300028,-10.905594,2.0895581,-0.30247682,0.33949727,-0.30330718,-0.8374092,-10.765947,-2.123043,0.50844574,5.9999995,-6.0,1.4290313,0
0.02,9.605485910715528,5.999999744320064,-5.999999787485024,1.4290312546299901,15.223258,2.484942,-4.5570164,-0.4835106,16.192192,-10.92648,2.0944362,-0.3154935,0.30283058,-0.32149452,-0.8398802,-10.800102,-2.0538485,0.46750236,5.9999995,-6.0,1.4290313,0
0.03,9.605485910715528,5.999999744320064,-5.999999787485024,1.4290312546299901,15.223258,2.484942,-4.5570164,-0.4835106,16.084051,-10.946667,2.0989156,-0.32792625,0.26560342,-0.33908686,-0.84079677,-10.826555,-1.9831085,0.42871094,5.9999995,-6.0,1.4290313,0
0.04,9.605485910715528,5.999999744320064,-5.999999787485024,1.4290312546299901,13.674733,-0.78445065,-2.8153095,-0.3423588,15.975686,-10.966139,2.103016,-0.33975214,0.2278847,-0.35605162,-0.8401572,-10.845107,-1.9112562,0.39155725,5.9999995,-6.0,1.4290313,0
0.05,9.605485910715528,5.999999744320064,-5.999999787485024,1.4290312546299901,13.674733,-0.78445065,-2.8153095,-0.3423588,15.867177,-10.98489,2.1067507,-0.35094923,0.18974419,-0.37235743,-0.8379628,-10.855617,-1.8387322,0.35551497,5.9999995,-6.0,1.4290313,0
0.060000000000000005,9.605485910715528,5.999999744320064,-5.999999787485024,1.4290312546299901,13.674733,-0.78445065,-2.8153095,-0.3423588,15.758602,-11.002913,2.1101282,-0.3614968,0.1512525,-0.3879741,-0.8342175,-10.858004,-1.7659824,0.3200496,5.9999995,-6.0,1.4290313,0
0.07,9.605485910715528,5.999999744320064,-5.999999787485024,1.4290312546299901,13.674733,-0.78445065,-2.8153095,-0.3423588,15.650044,-11.02021,2.1131518,-0.3713753,0.11248089,-0.40287268,-0.82892823,-10.852248,-1.693454,0.28462234,5.9999995,-6.0,1.4290313,0
0.08,15.993912313736473,5.999999460760253,-5.999999616106198,1.100467295622647,14.009947,-2.0549474,1.8749727,-0.43498534,15.541585,-11.036784,2.115819,-0.38056648,0.0735011,-0.4170257,-0.82210475,-10.83839,-1.6215932,0.24869409,5.9999995,-6.0,1.4290313,0
0.09,15.993912313736473,5.999999460760253,-5.999999616106198,1.100467295622647,14.009947,-2.0549474,1.8749727,-0.43498534,15.433373,-11.052408,2.1183262,-0.39040747,0.0350708,-0.43029052,-0.8131433,-10.8019905,-1.5037879,0.25239313,5.9999995,-5.9999995,1.1004673,0
0.09999999999999999,15.993912313736473,5.999999460760253,-5.999999616106198,1.100467295622647,14.009947,-2.0549474,1.8749727,-0.43498534,15.325591,-11.066867,2.1208577,-0.399534,-0.0034236796,-0.44276792,-0.80269384,-10.752529,-1.3885742,0.25351718,5.9999995,-5.9999995,1.1004673,0
0.10999999999999999,15.993912313736473,5.999999460760253,-5.999999616106198,1.100467295622647,14.009947,-2.0549474,1.8749727,-0.43498534,15.218367,-11.080191,2.1233845,-0.40792942,-0.041911893,-0.45443508,-0.79077536,-10.690365,-1.2766831,0.25123996,5.9999995,-5.9999995,1.1004673,0
0.11999999999999998,15.993912313736473,5.999999460760253,-5.999999616106198,1.100467295622647,14.009947,-2.0549474,1.8749727,-0.43498534,15.111826,-11.092415,2.1258678,-0.41557834,-0.080323406,-0.4652706,-0.7774098,-10.61595,-1.1688206,0.24476,5.9999995,-5.9999995,1.1004673,0
0.12999999999999998,19.494947619542714,3.751717431817521,-5.9999983365791625,0.182085109391287,15.474957,-3.4604359,0.98025054,0.23837936,15.006088,-11.103584,2.1282625,-0.42246675,-0.118587926,-0.4752547,-0.7626215,-10.529826,-1.065664,0.23330674,5.9999995,-5.9999995,1.1004673,0
0.13999999999999999,19.494947619542714,3.751717431817521,-5.9999983365791625,0.182085109391287,15.474957,-3.4604359,0.98025054,0.23837936,14.901369,-11.113641,2.130608,-0.4335386,-0.14974333,-0.4764805,-0.75005835,-10.412189,-0.9467434,0.23525536,3.7517173,-5.9999986,0.18208511,0
0.15,19.494947619542714,3.751717431817521,-5.9999983365791625,0.182085109391287,15.474957,-3.4604359,0.98025054,0.23837936,14.79788,-11.122546,2.1329541,-0.4440674,-0.18071118,-0.4771095,-0.7365556,-10.283989,-0.8357825,0.23329695,3.7517173,-5.9999986,0.18208511,0
0.16,18.412753918457234,0.5442436077795565,-2.6615763684706604,-0.019273232324591837,15.850262,-3.1038399,2.1724687,-0.32377017,14.695724,-11.130385,2.135259,-0.45403993,-0.21145268,-0.4771408,-0.72213024,-10.145868,-0.73332244,0.22692983,3.7517173,-5.9999986,0.18208511,0
0.17,18.412753918457234,0.5442436077795565,-2.6615763684706604,-0.019273232324591837,15.850262,-3.1038399,2.1724687,-0.32377017,14.594948,-11.137265,2.1374567,-0.45984176,-0.22223242,-0.47304004,-0.7179076,-10.008783,-0.6433262,0.21255091,0.54424363,-2.6615763,-0.019273233,0
0.18000000000000002,18.412753918457234,0.5442436077795565,-2.6615763684706604,-0.019273232324591837,15.850262,-3.1038399,2.1724687,-0.32377017,14.495557,-11.143267,2.139509,-0.46555874,-0.23297115,-0.468852,-0.71355253,-9.868891,-0.55745786,0.19786249,0.54424363,-2.6615763,-0.019273233,0
0.19000000000000003,18.412753918457234,0.5442436077795565,-2.6615763684706604,-0.019273232324591837,15.850262,-3.1038399,2.1724687,-0.32377017,14.397579,-11.148429,2.1414127,-0.47118986,-0.2436669,-0.4645775,-0.7090658,-9.726293,-0.475781,0.18280382,0.54424363,-2.6615763,-0.019273233,0
0.20000000000000004,16.615532393762138,-0.458621053931043,0.01957820461570633,-0.18714757199864535,14.831778,-3.0886993,3.4241986,-0.63240284,14.30104,-11.152796,2.1431637,-0.476734,-0.2543177,-0.46021724,-0.7044482,-9.581096,-0.3983562,0.16731451,0.54424363,-2.6615763,-0.019273233,0
0.21000000000000005,16.615532393762138,-0.458621053931043,0.01957820461570633,-0.18714757199864535,14.831778,-3.0886993,3.4241986,-0.63240284,14.205891,-11.156443,2.1447184,-0.47792986,-0.2527241,-0.45888507,-0.70508015,-9.448782,-0.3309351,0.14374685,-0.45862105,0.019578205,-0.18714757,0
0.22000000000000006,16.615532393762138,-0.458621053931043,0.01957820461570633,-0.18714757199864535,14.831778,-3.0886993,3.4241986,-0.63240284,14.112062,-11.159414,2.146041,-0.4791228,-0.25112897,-0.4575501,-0.7057078,-9.316818,-0.26357752,0.12085393,-0.45862105,0.019578205,-0.18714757,0
0.23000000000000007,16.615532393762138,-0.458621053931043,0.01957820461570633,-0.18714757199864535,14.831778,-3.0886993,3.4241986,-0.63240284,14.019552,-11.161715,2.1471379,-0.48031273,-0.24953231,-0.45621234,-0.7063311,-9.185207,-0.19628355,0.09863398,-0.45862105,0.019578205,-0.18714757,0
0.24000000000000007,16.615532393762138,-0.458621053931043,0.01957820461570633,-0.18714757199864535,15.336508,-2.5166452,3.7207556,-0.15743357,13.928358,-11.163341,2.148016,-0.48149973,-0.2479341,-0.45487174,-0.70695,-9.053953,-0.12905331,0.07708522,-0.45862105,0.019578205,-0.18714757,0
0.25000000000000006,16.615532393762138,-0.458621053931043,0.01957820461570633,-0.18714757199864535,15.336508,-2.5166452,3.7207556,-0.15743357,13.838473,-11.164294,2.1486819,-0.48268378,-0.24633436,-0.45352837,-0.70756465,-8.923059,-0.06188692,0.056205872,-0.45862105,0.019578205,-0.18714757,0
0.26000000000000006,16.615532393762138,-0.458621053931043,0.01957820461570633,-0.18714757199864535,15.336508,-2.5166452,3.7207556,-0.15743357,13.749896,-11.164577,2.1491425,-0.48386487,-0.24473311,-0.45218223,-0.7081749,-8.792528,0.0052154996,0.035994135,-0.45862105,0.019578205,-0.18714757,0
0.2700000000000001,16.615532393762138,-0.458621053931043,0.01957820461570633,-0.18714757199864535,15.336508,-2.5166452,3.7207556,-0.15743357,13.662622,-11.164188,2.1494043,-0.485043,-0.24313036,-0.4508333,-0.7087808,-8.662364,0.072253846,0.01644817,-0.45862105,0.019578205,-0.18714757,0
0.2800000000000001,14.835504218866769,-1.382239437426981,2.0948611364651493,-0.3404976095785734,16.524033,-3.0535953,4.04845,-0.58455795,13.576649,-11.163132,2.1494737,-0.48621812,-0.24152611,-0.44948158,-0.70938236,-8.53257,0.13922802,-0.0024338523,-0.45862105,0.019578205,-0.18714757,0
0.2900000000000001,14.835504218866769,-1.382239437426981,2.0948611364651493,-0.3404976095785734,16.524033,-3.0535953,4.04845,-0.58455795,13.491899,-11.161437,2.1493158,-0.48434815,-0.22995119,-0.45004684,-0.71413386,-8.417738,0.19995035,-0.028877838,-1.3822395,2.094861,-0.3404976,0
0.3000000000000001,14.835504218866769,-1.382239437426981,2.0948611364651493,-0.3404976095785734,16.524033,-3.0535953,4.04845,-0.58455795,13.408286,-11.159122,2.148901,-0.48240048,-0.21833938,-0.45053992,-0.7187708,-8.305213,0.26321185,-0.053874232,-1.3822395,2.094861,-0.3404976,0
0.3100000000000001,14.835504218866769,-1.382239437426981,2.0948611364651493,-0.3404976095785734,16.524033,-3.0535953,4.04845,-0.58455795,13.325787,-11.156163,2.1482432,-0.48037547,-0.20669255,-0.45096076,-0.72329247,-8.195062,0.32898027,-0.077479005,-1.3822395,2.094861,-0.3404976,0
0.3200000000000001,13.44787750667331,-2.3166335544568497,4.596271537714501,-0.504499758774015,15.799871,-3.8732743,5.959049,-0.28901842,13.244377,-11.152534,2.1473563,-0.4782734,-0.19501257,-0.45130926,-0.7276982,-8.087354,0.3972217,-0.099749,-1.3822395,2.094861,-0.3404976,0
0.3300000000000001,13.44787750667331,-2.3166335544568497,4.596271537714501,-0.504499758774015,15.799871,-3.8732743,5.959049,-0.28901842,13.1639805,-11.148239,2.1462176,-0.47183695,-0.17154814,-0.45421225,-0.7359567,-7.9928465,0.46231326,-0.12776078,-2.3166335,4.5962715,-0.50449973,0
0.34000000000000014,13.44787750667331,-2.3166335544568497,4.596271537714501,-0.504499758774015,15.799871,-3.8732743,5.959049,-0.28901842,13.084505,-11.1432705,2.1448066,-0.46508506,-0.14796902,-0.45681158,-0.74372315,-7.9030523,0.53223723,-0.15424727,-2.3166335,4.5962715,-0.50449973,0
0.35000000000000014,13.44787750667331,-2.3166335544568497,4.596271537714501,-0.504499758774015,15.799871,-3.8732743,5.959049,-0.28901842,13.005902,-11.137579,2.1431372,-0.45802218,-0.124290965,-0.45910546,-0.7509924,-7.8182,0.6068261,-0.17942683,-2.3166335,4.5962715,-0.50449973,0
0.36000000000000015,12.795223482745564,-2.6323800220928115,4.801178812462094,-0.6896655694160361,16.517933,-3.7854,6.4047866,-0.79278904,12.928123,-11.131119,2.141222,-0.45065305,-0.10052979,-0.46109235,-0.75775945,-7.738505,0.6859001,-0.2035213,-2.3166335,4.5962715,-0.50449973,0
0.37000000000000016,12.795223482745564,-2.6323800220928115,4.801178812462094,-0.6896655694160361,16.517933,-3.7854,6.4047866,-0.79278904,12.851096,-11.123865,2.1390522,-0.44334963,-0.07478265,-0.4621081,-0.7643983,-7.667925,0.7652698,-0.23029916,-2.63238,4.801179,-0.68966556,0
0.38000000000000017,12.795223482745564,-2.6323800220928115,4.801178812462094,-0.6896655694160361,16.517933,-3.7854,6.4047866,-0.79278904,12.774746,-11.115798,2.1366189,-0.43570864,-0.048978563,-0.46277204,-0.77045506,-7.6030293,0.84864885,-0.25625736,-2.63238,4.801179,-0.68966556,0
0.3900000000000002,12.795223482745564,-2.6323800220928115,4.801178812462094,-0.6896655694160361,16.517933,-3.7854,6.4047866,-0.79278904,12.699016,-11.106879,2.133929,-0.42773595,-0.02313719,-0.46308362,-0.7759253,-7.544,0.9358122,-0.28165168,-2.63238,4.801179,-0.68966556,0
0.4000000000000002,12.646970038455706,-2.4662814752846565,3.421567765613524,-0.8510111803029761,14.6609125,-3.0639107,3.8063126,-0.2197063,12.623845,-11.097071,2.130987,-0.4194376,0.0027218005,-0.46304262,-0.78080475,-7.4910035,1.0265232,-0.30673972,-2.63238,4.801179,-0.68966556,0
0.4100000000000002,12.646970038455706,-2.4662814752846565,3.421567765613524,-0.8510111803029761,14.6609125,-3.0639107,3.8063126,-0.2197063,12.549173,-11.086345,2.127791,-0.41470802,0.023219999,-0.4604713,-0.78450245,-7.4442453,1.1190481,-0.33241645,-2.4662814,3.4215677,-0.85101116,0
0.4200000000000002,12.646970038455706,-2.4662814752846565,3.421567765613524,-0.8510111803029761,14.6609125,-3.0639107,3.8063126,-0.2197063,12.474944,-11.074683,2.12434,-0.40978652,0.04370745,-0.45768687,-0.787837,-7.402408,1.21359,-0.35768938,-2.4662814,3.4215677,-0.85101116,0
0.4300000000000002,12.646970038455706,-2.4662814752846565,3.421567765613524,-0.8510111803029761,14.6609125,-3.0639107,3.8063126,-0.2197063,12.401109,-11.062066,2.120638,-0.40467536,0.06417467,-0.45469064,-0.790807,-7.365558,1.310006,-0.38272503,-2.4662814,3.4215677,-0.85101116,0
0.4400000000000002,12.646970038455706,-2.4662814752846565,3.421567765613524,-0.8510111803029761,14.308633,-2.3092942,1.7308412,-0.18834488,12.327616,-11.048477,2.1166859,-0.39937693,0.08461219,-0.45148394,-0.79341096,-7.3337536,1.4081495,-0.4076904,-2.4662814,3.4215677,-0.85101116,0
0.45000000000000023,12.646970038455706,-2.4662814752846565,3.421567765613524,-0.8510111803029761,14.308633,-2.3092942,1.7308412,-0.18834488,12.2544155,-11.033898,2.1124837,-0.39389366,0.10501055,-0.4480683,-0.79564774,-7.3070426,1.5078709,-0.43275258,-2.4662814,3.4215677,-0.85101116,0
0.46000000000000024,12.646970038455706,-2.4662814752846565,3.421567765613524,-0.8510111803029761,14.308633,-2.3092942,1.7308412,-0.18834488,12.1814575,-11.018314,2.1080298,-0.3882281,0.12536031,-0.44444525,-0.7975162,-7.285465,1.6090177,-0.45807847,-2.4662814,3.4215677,-0.85101116,0
0.47000000000000025,12.646970038455706,-2.4662814752846565,3.421567765613524,-0.8510111803029761,14.308633,-2.3092942,1.7308412,-0.18834488,12.108689,-11.001714,2.1033206,-0.38238278,0.14565204,-0.44061652,-0.79901564,-7.2690487,1.7114347,-0.48383456,-2.4662814,3.4215677,-0.85101116,0
0.48000000000000026,12.673238508992121,-2.0674128266992904,1.989290902184004,-0.8808384780520443,16.251375,-2.1498666,1.9998072,-0.2869912,12.036059,-10.984082,2.098351,-0.37636054,0.16587637,-0.43658385,-0.80014527,-7.2578144,1.8149643,-0.51018643,-2.4662814,3.4215677,-0.85101116,0
0.49000000000000027,12.673238508992121,-2.0674128266992904,1.989290902184004,-0.8808384780520443,16.251375,-2.1498666,1.9998072,-0.2869912,11.963518,-10.965411,2.0931158,-0.3737851,0.17962906,-0.43127665,-0.8012607,-7.2511683,1.9194263,-0.53684705,-2.0674129,1.989291,-0.88083845,0
0.5000000000000002,12.673238508992121,-2.0674128266992904,1.989290902184004,-0.8808384780520443,16.251375,-2.1498666,1.9998072,-0.2869912,11.891025,-10.945693,2.087614,-0.37112555,0.1933413,-0.42587233,-0.8021957,-7.248151,2.0241032,-0.5635766,-2.0674129,1.989291,-0.88083845,0
0.5100000000000002,12.673238508992121,-2.0674128266992904,1.989290902184004,-0.8808384780520443,16.251375,-2.1498666,1.9998072,-0.2869912,11.8185425,-10.924929,2.081844,-0.3683824,0.20701,-0.4203721,-0.8029501,-7.2487626,2.1289265,-0.59046024,-2.0674129,1.989291,-0.88083845,0
0.5200000000000002,12.837845265652765,-1.544046111173988,0.29744370681307175,-0.8371666584472622,15.490568,-1.7357452,1.2313067,-0.1332297,11.7460375,-10.903115,2.075804,-0.36555627,0.22063208,-0.41477722,-0.8035236,-7.2530017,2.233828,-0.617583,-2.0674129,1.989291,-0.88083845,0
0.5300000000000002,12.837845265652765,-1.544046111173988,0.29744370681307175,-0.8371666584472622,15.490568,-1.7357452,1.2313067,-0.1332297,11.673472,-10.880246,2.069497,-0.366585,0.22637664,-0.40817758,-0.80483556,-7.260254,2.3398762,-0.64369756,-1.5440462,0.29744372,-0.83716667,0
0.5400000000000003,12.837845265652765,-1.544046111173988,0.29744370681307175,-0.8371666584472622,15.490568,-1.7357452,1.2313067,-0.1332297,11.600825,-10.856319,2.0629327,-0.36758462,0.23210324,-0.40154558,-0.8060838,-7.2692823,2.4452922,-0.6690883,-1.5440462,0.29744372,-0.83716667,0
0.5500000000000003,12.837845265652765,-1.544046111173988,0.29744370681307175,-0.8371666584472622,15.490568,-1.7357452,1.2313067,-0.1332297,11.52808,-10.831342,2.0561175,-0.36855507,0.23781143,-0.3948817,-0.80726796,-7.2800913,2.5500586,-0.6937859,-1.5440462,0.29744372,-0.83716667,0
0.5600000000000003,12.960989553851059,-1.0065957180034761,-0.8790804925938902,-0.7200169867465812,14.913806,-1.8062257,0.7524811,-0.0012967419,11.455218,-10.80532,2.049059,-0.3694963,0.24350075,-0.3881865,-0.8083881,-7.292686,2.654157,-0.71782106,-1.5440462,0.29744372,-0.83716667,0
0.5700000000000003,12.960989553851059,-1.0065957180034761,-0.8790804925938902,-0.7200169867465812,14.913806,-1.8062257,0.7524811,-0.0012967419,11.382222,-10.778255,2.0417676,-0.37287658,0.24319772,-0.3816061,-0.8100586,-7.306657,2.7584395,-0.74023443,-1.0065957,-0.8790805,-0.720017,0
0.5800000000000003,12.960989553851059,-1.0065957180034761,-0.8790804925938902,-0.7200169867465812,14.913806,-1.8062257,0.7524811,-0.0012967419,11.309084,-10.750154,2.0342588,-0.3762354,0.24288069,-0.3750037,-0.81168234,-7.320969,2.8616858,-0.7613027,-1.0065957,-0.8790805,-0.720017,0
0.5900000000000003,12.960989553851059,-1.0065957180034761,-0.8790804925938902,-0.7200169867465812,14.913806,-1.8062257,0.7524811,-0.0012967419,11.235802,-10.721025,2.026546,-0.3795725,0.24254964,-0.36837965,-0.81325936,-7.3356323,2.9638774,-0.7810424,-1.0065957,-0.8790805,-0.720017,0
0.6000000000000003,13.126578266283794,-0.6991947013682405,-0.7164274896044144,-0.5812397087691344,15.482547,-1.8290757,1.1100527,0.13006693,11.162371,-10.69088,2.0186422,-0.38288778,0.24220464,-0.36173445,-0.8147896,-7.3506556,3.064997,-0.7994703,-1.0065957,-0.8790805,-0.720017,0
0.6100000000000003,13.126578266283794,-0.6991947013682405,-0.7164274896044144,-0.5812397087691344,15.482547,-1.8290757,1.1100527,0.13006693,11.088786,-10.659722,2.0105658,-0.38569832,0.24167171,-0.3568045,-0.8157954,-7.3661714,3.166409,-0.8156833,-0.6991947,-0.7164275,-0.5812397,0
0.6200000000000003,13.126578266283794,-0.6991947013682405,-0.7164274896044144,-0.5812397087691344,15.482547,-1.8290757,1.1100527,0.13006693,11.015046,-10.627554,2.0023322,-0.38849595,0.24113071,-0.3518626,-0.8167739,-7.3818717,3.2669814,-0.8309022,-0.6991947,-0.7164275,-0.5812397,0
0.6300000000000003,13.126578266283794,-0.6991947013682405,-0.7164274896044144,-0.5812397087691344,15.482547,-1.8290757,1.1100527,0.13006693,10.941148,-10.594385,1.9939513,-0.39128056,0.24058163,-0.34690893,-0.817725,-7.397762,3.3667042,-0.84513676,-0.6991947,-0.7164275,-0.5812397,0
0.6400000000000003,13.126578266283794,-0.6991947013682405,-0.7164274896044144,-0.5812397087691344,15.101286,-1.7820667,1.3904277,0.09643862,10.867089,-10.560224,1.9854329,-0.39405206,0.24002449,-0.34194362,-0.81864876,-7.4138484,3.4655678,-0.8583968,-0.6991947,-0.7164275,-0.5812397,0
0.6500000000000004,13.126578266283794,-0.6991947013682405,-0.7164274896044144,-0.5812397087691344,15.101286,-1.7820667,1.3904277,0.09643862,10.79287,-10.525077,1.9767867,-0.39681038,0.2394593,-0.33696687,-0.8195451,-7.4301367,3.563562,-0.87069243,-0.6991947,-0.7164275,-0.5812397,0
0.6600000000000004,13.126578266283794,-0.6991947013682405,-0.7164274896044144,-0.5812397087691344,15.101286,-1.7820667,1.3904277,0.09643862,10.718486,-10.488955,1.9680223,-0.39955541,0.2388861,-0.3319788,-0.82041395,-7.4466333,3.6606772,-0.8820337,-0.6991947,-0.7164275,-0.5812397,0
0.6700000000000004,13.126578266283794,-0.6991947013682405,-0.7164274896044144,-0.5812397087691344,15.101286,-1.7820667,1.3904277,0.09643862,10.643937,-10.451866,1.9591492,-0.40228707,0.2383049,-0.3269796,-0.8212553,-7.4633436,3.7569036,-0.89243084,-0.6991947,-0.7164275,-0.5812397,0
0.6800000000000004,13.099501646370884,-0.4588316626300573,-0.9333098315298981,-0.4716064471877907,14.8594,-1.7632095,1.0775348,0.08891232,10.56922,-10.41382,1.950177,-0.40500522,0.2377157,-0.32196945,-0.82206917,-7.4802732,3.8522322,-0.9018942,-0.6991947,-0.7164275,-0.5812397,0
0.6900000000000004,13.099501646370884,-0.4588316626300573,-0.9333098315298981,-0.4716064471877907,14.8594,-1.7632095,1.0775348,0.08891232,10.494331,-10.374826,1.9411137,-0.4078942,0.23556398,-0.31762773,-0.8229487,-7.4972363,3.9464583,-0.91058934,-0.45883167,-0.93330985,-0.47160643,0
0.7000000000000004,13.099501646370884,-0.4588316626300573,-0.9333098315298981,-0.4716064471877907,14.8594,-1.7632095,1.0775348,0.08891232,10.419275,-10.334894,1.9319685,-0.41076988,0.23340456,-0.3132757,-0.8238014,-7.5140123,4.0397687,-0.9182937,-0.45883167,-0.93330985,-0.47160643,0
0.7100000000000004,13.099501646370884,-0.4588316626300573,-0.9333098315298981,-0.4716064471877907,14.8594,-1.7632095,1.0775348,0.08891232,10.344051,-10.294034,1.9227512,-0.41363218,0.23123755,-0.30891344,-0.8246273,-7.5306053,4.1321507,-0.9250171,-0.45883167,-0.93330985,-0.47160643,0
0.7200000000000004,13.222766401022305,-0.20514450370724063,-0.6802488123507648,-0.36830126067944313,14.569241,-1.6679527,1.0041234,0.08797528,10.268663,-10.252255,1.9134715,-0.416481,0.22906299,-0.30454114,-0.8254262,-7.547021,4.223594,-0.9307694,-0.45883167,-0.93330985,-0.47160643,0
0.7300000000000004,13.222766401022305,-0.20514450370724063,-0.6802488123507648,-0.36830126067944313,14.569241,-1.6679527,1.0041234,0.08797528,10.193111,-10.209561,1.9041431,-0.41879854,0.2272417,-0.3018537,-0.8257441,-7.5633793,4.3150682,-0.9348003,-0.20514451,-0.6802488,-0.36830127,0
0.7400000000000004,13.222766401022305,-0.20514450370724063,-0.6802488123507648,-0.36830126067944313,14.569241,-1.6679527,1.0041234,0.08797528,10.117397,-10.165956,1.8947777,-0.4211094,0.22541675,-0.29916137,-0.8260488,-7.5794716,4.405917,-0.93818206,-0.20514451,-0.6802488,-0.36830127,0
0.7500000000000004,13.222766401022305,-0.20514450370724063,-0.6802488123507648,-0.36830126067944313,14.569241,-1.6679527,1.0041234,0.08797528,10.041524,-10.121445,1.8853817,-0.4234135,0.22358823,-0.29646426,-0.82634026,-7.5952997,4.4961357,-0.9409191,-0.20514451,-0.6802488,-0.36830127,0
0.7600000000000005,13.187802408982071,-0.033517583806099725,-0.73356489435222,-0.28959966660356035,14.173683,-1.3470869,1.0404216,0.0025885087,9.965493,-10.076035,1.8759615,-0.4257108,0.22175613,-0.29376242,-0.8266185,-7.6108665,4.585719,-0.9430158,-0.20514451,-0.6802488,-0.36830127,0
0.7700000000000005,13.187802408982071,-0.033517583806099725,-0.73356489435222,-0.28959966660356035,14.173683,-1.3470869,1.0404216,0.0025885087,9.88931,-10.029733,1.8665223,-0.42794475,0.21921922,-0.29173908,-0.8268582,-7.626049,4.6744504,-0.9447412,-0.033517584,-0.7335649,-0.28959966,0
0.7800000000000005,13.187802408982071,-0.033517583806099725,-0.73356489435222,-0.28959966660356035,14.173683,-1.3470869,1.0404216,0.0025885087,9.812976,-9.982547,1.8570688,-0.43017206,0.2166789,-0.2897112,-0.8270851,-7.640748,4.7626004,-0.9458608,-0.033517584,-0.7335649,-0.28959966,0
0.7900000000000005,13.187802408982071,-0.033517583806099725,-0.73356489435222,-0.28959966660356035,14.173683,-1.3470869,1.0404216,0.0025885087,9.736498,-9.934482,1.8476071,-0.4323926,0.21413521,-0.2876788,-0.82729906,-7.6549644,4.850164,-0.946379,-0.033517584,-0.7335649,-0.28959966,0
0.8000000000000005,13.296850562729414,0.015236185086795119,-0.5840899906826816,-0.2281813844713631,14.083473,-0.91605705,1.0235379,-0.09664367,9.659878,-9.885545,1.8381433,-0.43460643,0.21158819,-0.2856419,-0.82750016,-7.6687016,4.937135,-0.9463003,-0.033517584,-0.7335649,-0.28959966,0
0.8100000000000005,13.296850562729414,0.015236185086795119,-0.5840899906826816,-0.2281813844713631,14.083473,-0.91605705,1.0235379,-0.09664367,9.583124,-9.835738,1.8286872,-0.43639868,0.20946327,-0.28419292,-0.8275964,-7.682089,5.024278,-0.94486403,0.015236185,-0.58409,-0.22818138,0
0.8200000000000005,13.296850562729414,0.015236185086795119,-0.5840899906826816,-0.2281813844713631,14.083473,-0.91605705,1.0235379,-0.09664367,9.506239,-9.785062,1.8192477,-0.43818665,0.20733628,-0.2827411,-0.8276845,-7.6950464,5.1109624,-0.94297135,0.015236185,-0.58409,-0.22818138,0
0.8300000000000005,13.296850562729414,0.015236185086795119,-0.5840899906826816,-0.2281813844713631,14.083473,-0.91605705,1.0235379,-0.09664367,9.429225,-9.733521,1.8098294,-0.4399703,0.20520726,-0.2812865,-0.8277645,-7.7075753,5.197184,-0.94062513,0.015236185,-0.58409,-0.22818138,0
0.8400000000000005,13.296850562729414,0.015236185086795119,-0.5840899906826816,-0.2281813844713631,13.829115,-0.69457525,0.839753,-0.10366167,9.352088,-9.68112,1.8004369,-0.4417497,0.20307621,-0.27982917,-0.82783633,-7.7196755,5.282939,-0.93782824,0.015236185,-0.58409,-0.22818138,0
0.8500000000000005,13.296850562729414,0.015236185086795119,-0.5840899906826816,-0.2281813844713631,13.829115,-0.69457525,0.839753,-0.10366167,9.274833,-9.627863,1.7910744,-0.4435247,0.20094317,-0.27836907,-0.8279,-7.73135,5.368224,-0.9345835,0.015236185,-0.58409,-0.22818138,0
0.8600000000000005,13.296850562729414,0.015236185086795119,-0.5840899906826816,-0.2281813844713631,13.829115,-0.69457525,0.839753,-0.10366167,9.197463,-9.573756,1.7817467,-0.44529533,0.19880815,-0.27690622,-0.82795554,-7.7425985,5.4530354,-0.93089396,0.015236185,-0.58409,-0.22818138,0
0.8700000000000006,13.296850562729414,0.015236185086795119,-0.5840899906826816,-0.2281813844713631,13.829115,-0.69457525,0.839753,-0.10366167,9.119982,-9.518805,1.7724581,-0.4470616,0.19667117,-0.27544063,-0.828003,-7.7534227,5.5373693,-0.9267625,0.015236185,-0.58409,-0.22818138,0
0.8800000000000006,13.316631320635688,0.02938742509545183,-0.6398657938632147,-0.17476717363188646,13.537938,-0.21252099,1.104886,-0.0003641136,9.042396,-9.463013,1.7632129,-0.44882345,0.19453226,-0.27397236,-0.8280422,-7.7638235,5.6212215,-0.9221922,0.015236185,-0.58409,-0.22818138,0
0.8900000000000006,13.316631320635688,0.02938742509545183,-0.6398657938632147,-0.17476717363188646,13.537938,-0.21252099,1.104886,-0.0003641136,8.964707,-9.406383,1.7540165,-0.45044965,0.19205548,-0.2724866,-0.8282276,-7.773796,5.7046976,-0.91701883,0.029387426,-0.6398658,-0.17476717,0
0.9000000000000006,13.316631320635688,0.02938742509545183,-0.6398657938632147,-0.17476717363188646,13.537938,-0.21252099,1.104886,-0.0003641136,8.886922,-9.34892,1.7448742,-0.4520709,0.18957657,-0.27099782,-0.82840383,-7.783292,5.787646,-0.9113756,0.029387426,-0.6398658,-0.17476717,0
0.9100000000000006,13.316631320635688,0.02938742509545183,-0.6398657938632147,-0.17476717363188646,13.537938,-0.21252099,1.104886,-0.0003641136,8.809045,-9.290631,1.7357907,-0.45368713,0.18709557,-0.26950607,-0.8285709,-7.792311,5.8700604,-0.9052663,0.029387426,-0.6398658,-0.17476717,0
0.9200000000000006,13.474150528427025,-0.02260621466862231,-0.4627286647404184,-0.12310415176770158,13.256893,0.17444974,0.7326593,0.055314925,8.731078,-9.231521,1.7267705,-0.4552984,0.1846125,-0.26801133,-0.82872885,-7.8008556,5.951939,-0.8986949,0.029387426,-0.6398658,-0.17476717,0
0.9300000000000006,13.474150528427025,-0.02260621466862231,-0.4627286647404184,-0.12310415176770158,13.256893,0.17444974,0.7326593,0.055314925,8.6530285,-9.171588,1.7178245,-0.45640638,0.18291102,-0.26674986,-0.82890373,-7.80909,6.034286,-0.8904633,-0.022606215,-0.46272868,-0.123104155,0
0.9400000000000006,13.474150528427025,-0.02260621466862231,-0.4627286647404184,-0.12310415176770158,13.256893,0.17444974,0.7326593,0.055314925,8.574898,-9.110836,1.7089624,-0.45751175,0.18120849,-0.26548687,-0.82907385,-7.8170285,6.116209,-0.8818822,-0.022606215,-0.46272868,-0.123104155,0
0.9500000000000006,13.474150528427025,-0.02260621466862231,-0.4627286647404184,-0.12310415176770158,13.256893,0.17444974,0.7326593,0.055314925,8.496691,-9.049266,1.700188,-0.4586145,0.17950492,-0.26422235,-0.8292392,-7.8246713,6.197706,-0.87295365,-0.022606215,-0.46272868,-0.123104155,0
0.9600000000000006,13.592446666193203,-0.07588182083517608,-0.5091861167946814,-0.0736462710011367,13.394364,0.42931023,0.76611143,0.033256292,8.418407,-8.986882,1.6915047,-0.45971462,0.17780031,-0.2629563,-0.82939976,-7.832019,6.2787747,-0.86367977,-0.022606215,-0.46272868,-0.123104155,0
0.9700000000000006,13.592446666193203,-0.07588182083517608,-0.5091861167946814,-0.0736462710011367,13.394364,0.42931023,0.76611143,0.033256292,8.340051,-8.923687,1.6829206,-0.4606205,0.1759594,-0.26140484,-0.82978004,-7.8391457,6.360093,-0.85309696,-0.075881824,-0.5091861,-0.07364627,0
0.9800000000000006,13.592446666193203,-0.07588182083517608,-0.5091861167946814,-0.0736462710011367,13.394364,0.42931023,0.76611143,0.033256292,8.261624,-8.859682,1.6744442,-0.46152326,0.17411728,-0.25985163,-0.83015484,-7.8460054,6.440901,-0.8421171,-0.075881824,-0.5091861,-0.07364627,0
0.9900000000000007,13.592446666193203,-0.07588182083517608,-0.5091861167946814,-0.0736462710011367,13.394364,0.42931023,0.76611143,0.033256292,8.183131,-8.79487,1.6660796,-0.46242288,0.17227398,-0.25829667,-0.8305239,-7.852598,6.5211964,-0.8307427,-0.075881824,-0.5091861,-0.07364627,0
1.0000000000000007,13.830879289770051,-0.17634983275874053,-0.24758807439045263,-0.032107535852839375,13.73886,0.42977867,0.4531482,0.04226258,8.104573,-8.7292595,1.6578308,-0.4633194,0.1704295,-0.25673997,-0.8308875,-7.858924,6.6009765,-0.81897694,-0.075881824,-0.5091861,-0.07364627,1
1.0100000000000007,13.830879289770051,-0.17634983275874053,-0.24758807439045263,-0.032107535852839375,13.73886,0.42977867,0.4531482,0.04226258,8.025952,-8.6628475,1.6497064,-0.46292606,0.17126137,-0.25960997,-0.8300435,-7.865079,6.6815457,-0.8059633,0.42977867,0.4531482,0.04226258,1
1.0200000000000007,13.830879289770051,-0.17634983275874053,-0.24758807439045263,-0.032107535852839375,13.73886,0.42977867,0.4531482,0.04226258,7.9472713,-8.595626,1.6417097,-0.4625282,0.17209157,-0.26247743,-0.8291914,-7.871047,6.762796,-0.7934365,0.42977867,0.4531482,0.04226258,1
1.0300000000000007,13.830879289770051,-0.17634983275874053,-0.24758807439045263,-0.032107535852839375,13.73886,0.42977867,0.4531482,0.04226258,7.8685317,-8.527589,1.6338358,-0.4621258,0.17292006,-0.26534232,-0.8283311,-7.876828,6.8447247,-0.78140116,0.42977867,0.4531482,0.04226258,1
1.0400000000000007,13.830879289770051,-0.17634983275874053,-0.24758807439045263,-0.032107535852839375,14.312635,0.28831232,0.297799,0.047182422,7.7897353,-8.45873,1.6260799,-0.4617189,0.17374687,-0.2682046,-0.8274627,-7.8824224,6.9273286,-0.7698614,0.42977867,0.4531482,0.04226258,1
1.0500000000000007,13.830879289770051,-0.17634983275874053,-0.24758807439045263,-0.032107535852839375,14.312635,0.28831232,0.297799,0.047182422,7.7108827,-8.389024,1.6184599,-0.46137378,0.17424971,-0.27012536,-0.82692444,-7.888078,7.013994,-0.75419724,0.28831232,0.297799,0.047182422,1
1.0600000000000007,13.830879289770051,-0.17634983275874053,-0.24758807439045263,-0.032107535852839375,14.312635,0.28831232,0.297799,0.047182422,7.631974,-8.318449,1.6109949,-0.46102667,0.17475179,-0.27204493,-0.82638264,-7.893599,7.1011214,-0.73888,0.28831232,0.297799,0.047182422,1
1.0700000000000007,13.830879289770051,-0.17634983275874053,-0.24758807439045263,-0.032107535852839375,14.312635,0.28831232,0.297799,0.047182422,7.553011,-8.247,1.6036813,-0.46067756,0.17525311,-0.2739633,-0.82583725,-7.898985,7.1887093,-0.7239115,0.28831232,0.297799,0.047182422,1
1.0800000000000007,13.944615158596847,-0.5928409521245931,-1.0671580311171338,-0.0010074443366961312,15.209994,-0.3523034,0.10169938,0.00013703853,7.4739943,-8.174672,1.5965155,-0.46032646,0.17575367,-0.2758805,-0.82528824,-7.9042363,7.2767563,-0.70929384,0.28831232,0.297799,0.047182422,0
1.0900000000000007,13.944615158596847,-0.5928409521245931,-1.0671580311171338,-0.0010074443366961312,15.209994,-0.3523034,0.10169938,0.00013703853,7.394927,-8.101476,1.5894812,-0.4612731,0.17271274,-0.27097195,-0.82702607,-7.90925,7.3623157,-0.69739616,-0.59284097,-1.067158,-0.0010074443,0
1.1000000000000008,13.944615158596847,-0.5928409521245931,-1.0671580311171338,-0.0010074443366961312,15.209994,-0.3523034,0.10169938,0.00013703853,7.3158092,-8.027431,1.5825711,-0.46220258,0.16966538,-0.26605332,-0.8287331,-7.914205,7.4465265,-0.6844605,-0.59284097,-1.067158,-0.0010074443,0
1.1100000000000008,13.944615158596847,-0.5928409521245931,-1.0671580311171338,-0.0010074443366961312,15.209994,-0.3523034,0.10169938,0.00013703853,7.236643,-7.9525495,1.5757954,-0.46311483,0.16661169,-0.2611248,-0.8304093,-7.9191017,7.529377,-0.6705034,-0.59284097,-1.067158,-0.0010074443,0
1.1200000000000008,14.083978282267811,-0.9046247357472226,-1.37354831538293,0.038910852502998,15.617527,-0.80143344,-0.36785167,-0.040928118,7.157428,-7.8768473,1.5691644,-0.46400982,0.16355179,-0.25618654,-0.8320545,-7.9239388,7.610855,-0.6555416,-0.59284097,-1.067158,-0.0010074443,0
1.1300000000000008,14.083978282267811,-0.9046247357472226,-1.37354831538293,0.038910852502998,15.617527,-0.80143344,-0.36785167,-0.040928118,7.078164,-7.8003335,1.5626941,-0.46485192,0.1598809,-0.24925956,-0.8343985,-7.9288216,7.6915636,-0.6383259,-0.90462476,-1.3735483,0.03891085,0
1.1400000000000008,14.083978282267811,-0.9046247357472226,-1.37354831538293,0.038910852502998,15.617527,-0.80143344,-0.36785167,-0.040928118,6.998851,-7.7230225,1.5564024,-0.46566254,0.1561992,-0.24231575,-0.83668613,-7.9337945,7.7703633,-0.6198013,-0.90462476,-1.3735483,0.03891085,0
1.1500000000000008,14.083978282267811,-0.9046247357472226,-1.37354831538293,0.038910852502998,15.617527,-0.80143344,-0.36785167,-0.040928118,6.919488,-7.644933,1.5503024,-0.46644166,0.15250693,-0.23535556,-0.83891714,-7.9388556,7.847233,-0.5999993,-0.90462476,-1.3735483,0.03891085,0
1.1600000000000008,14.078193114488979,-0.8716064120923985,-1.0816449089930444,0.10714564353325333,15.601339,-1.3222048,0.28593713,-0.05509758,6.8400736,-7.5660844,1.5444067,-0.46718922,0.14880434,-0.22837941,-0.8410914,-7.9440026,7.9221516,-0.57895166,-0.90462476,-1.3735483,0.03891085,0
1.1700000000000008,14.078193114488979,-0.8716064120923985,-1.0816449089930444,0.10714564353325333,15.601339,-1.3222048,0.28593713,-0.05509758,6.760607,-7.486497,1.538727,-0.46731392,0.14616562,-0.22226147,-0.84312135,-7.949297,7.9951878,-0.55681485,-0.8716064,-1.0816449,0.107145645,0
1.1800000000000008,14.078193114488979,-0.8716064120923985,-1.0816449089930444,0.10714564353325333,15.601339,-1.3222048,0.28593713,-0.05509758,6.681086,-7.4061866,1.5332737,-0.46741593,0.1435198,-0.21613275,-0.84511036,-7.954846,8.066556,-0.5336912,-0.8716064,-1.0816449,0.107145645,0
1.1900000000000008,14.078193114488979,-0.8716064120923985,-1.0816449089930444,0.10714564353325333,15.601339,-1.3222048,0.28593713,-0.05509758,6.6015086,-7.3251715,1.5280565,-0.46749526,0.14086701,-0.20999353,-0.84705836,-7.960646,8.13624,-0.50960404,-0.8716064,-1.0816449,0.107145645,0
1.2000000000000008,14.054712749163887,-0.7927874657745552,-0.7151516672481096,0.16137005736768043,15.367272,-1.431879,0.34353027,-0.04209693,6.5218725,-7.243468,1.523085,-0.46755192,0.13820739,-0.20384412,-0.8489652,-7.966694,8.204227,-0.4845766,-0.8716064,-1.0816449,0.107145645,0
1.2100000000000009,14.054712749163887,-0.7927874657745552,-0.7151516672481096,0.16137005736768043,15.367272,-1.431879,0.34353027,-0.04209693,6.4421744,-7.1610928,1.5183669,-0.46704116,0.13685857,-0.19891559,-0.85063225,-7.9730425,8.270557,-0.45892948,-0.7927875,-0.71515167,0.16137005,0
1.2200000000000009,14.054712749163887,-0.7927874657745552,-0.7151516672481096,0.16137005736768043,15.367272,-1.431879,0.34353027,-0.04209693,6.36241,-7.0780616,1.5139087,-0.46651682,0.13550577,-0.19398127,-0.8522745,-7.9798083,8.335605,-0.43262523,-0.7927875,-0.71515167,0.16137005,0
1.2300000000000009,14.054712749163887,-0.7927874657745552,-0.7151516672481096,0.16137005736768043,15.367272,-1.431879,0.34353027,-0.04209693,6.2825766,-6.9943857,1.5097167,-0.4659789,0.134149,-0.18904129,-0.8538919,-7.9869885,8.399362,-0.40567765,-0.7927875,-0.71515167,0.16137005,0
1.2400000000000009,14.054712749163887,-0.7927874657745552,-0.7151516672481096,0.16137005736768043,15.551173,-1.2595813,0.32467365,-0.022568863,6.2026687,-6.910079,1.5057974,-0.46542737,0.13278832,-0.1840958,-0.8554845,-7.9945793,8.46182,-0.37810057,-0.7927875,-0.71515167,0.16137005,0
1.2500000000000009,14.054712749163887,-0.7927874657745552,-0.7151516672481096,0.16137005736768043,15.551173,-1.2595813,0.32467365,-0.022568863,6.122683,-6.8251543,1.5021569,-0.46486226,0.13142377,-0.17914493,-0.8570521,-8.002579,8.522971,-0.3499079,-0.7927875,-0.71515167,0.16137005,0
1.260000000000001,14.054712749163887,-0.7927874657745552,-0.7151516672481096,0.16137005736768043,15.551173,-1.2595813,0.32467365,-0.022568863,6.0426154,-6.7396245,1.4988014,-0.4642836,0.13005537,-0.17418884,-0.8585947,-8.0109825,8.5828085,-0.32111362,-0.7927875,-0.71515167,0.16137005,0
1.270000000000001,14.054712749163887,-0.7927874657745552,-0.7151516672481096,0.16137005736768043,15.551173,-1.2595813,0.32467365,-0.022568863,5.962462,-6.6535034,1.4957366,-0.46369138,0.12868321,-0.16922767,-0.8601123,-8.019788,8.641324,-0.29173177,-0.7927875,-0.71515167,0.16137005,0
1.280000000000001,13.867638390082899,-0.7249833180820557,-0.7249159409695789,0.20409655767948592,15.555288,-1.0639117,-0.030492749,-0.004391033,5.882218,-6.566803,1.4929686,-0.46308565,0.12730728,-0.16426156,-0.86160487,-8.028993,8.698512,-0.2617766,-0.7927875,-0.71515167,0.16137005,0
1.290000000000001,13.867638390082899,-0.7249833180820557,-0.7249159409695789,0.20409655767948592,15.555288,-1.0639117,-0.030492749,-0.004391033,5.8018813,-6.4795413,1.4904943,-0.46233398,0.1256936,-0.15958752,-0.8631225,-8.03843,8.753634,-0.23297788,-0.72498333,-0.7249159,0.20409656,0
1.300000000000001,13.867638390082899,-0.7249833180820557,-0.7249159409695789,0.20409655767948592,15.555288,-1.0639117,-0.030492749,-0.004391033,5.721449,-6.3917346,1.4883107,-0.46156967,0.1240765,-0.1549091,-0.86461663,-8.048167,8.807473,-0.20365098,-0.72498333,-0.7249159,0.20409656,0
1.310000000000001,13.867638390082899,-0.7249833180820557,-0.7249159409695789,0.20409655767948592,15.555288,-1.0639117,-0.030492749,-0.004391033,5.6409173,-6.303396,1.486423,-0.46079275,0.12245601,-0.15022647,-0.8660871,-8.058201,8.860019,-0.17380884,-0.72498333,-0.7249159,0.20409656,0
1.320000000000001,13.652130180628156,-0.6768400067398724,-0.5302023037275607,0.2325211064752763,15.378205,-0.98442346,-0.10629428,0.057217557,5.560284,-6.2145386,1.4848362,-0.46000326,0.12083217,-0.14553973,-0.8675339,-8.068525,8.911267,-0.1434645,-0.72498333,-0.7249159,0.20409656,0
1.330000000000001,13.652130180628156,-0.6768400067398724,-0.5302023037275607,0.2325211064752763,15.378205,-0.98442346,-0.10629428,0.057217557,5.479547,-6.125179,1.4835452,-0.45896703,0.11991867,-0.14152339,-0.8688729,-8.079007,8.9605255,-0.11467201,-0.67684,-0.5302023,0.2325211,0
1.340000000000001,13.652130180628156,-0.6768400067398724,-0.5302023037275607,0.2325211064752763,15.378205,-0.98442346,-0.10629428,0.057217557,5.398703,-6.0353317,1.4825441,-0.45792165,0.11900278,-0.13750425,-0.8701947,-8.08986,9.008734,-0.085508004,-0.67684,-0.5302023,0.2325211,0
1.350000000000001,13.652130180628156,-0.6768400067398724,-0.5302023037275607,0.2325211064752763,15.378205,-0.98442346,-0.10629428,0.057217557,5.3177485,-5.945008,1.4818363,-0.4568672,0.11808454,-0.13348238,-0.8714993,-8.101079,9.055888,-0.05598139,-0.67684,-0.5302023,0.2325211,0
1.360000000000001,13.30821908968619,-0.6094393113833938,-0.8503266029043947,0.26694826008319855,15.018489,-0.93196917,-0.32817993,0.070498526,5.23668,-5.8542175,1.4814256,-0.45580366,0.11716396,-0.12945786,-0.8727865,-8.112663,9.101984,-0.02610111,-0.67684,-0.5302023,0.2325211,0
1.370000000000001,13.30821908968619,-0.6094393113833938,-0.8503266029043947,0.26694826008319855,15.018489,-0.93196917,-0.32817993,0.070498526,5.155496,-5.7629776,1.4812994,-0.45482546,0.11466764,-0.12501492,-0.8742748,-8.124189,9.14578,0.00093824975,-0.6094393,-0.8503266,0.26694825,0
1.380000000000001,13.30821908968619,-0.6094393113833938,-0.8503266029043947,0.26694826008319855,15.018489,-0.93196917,-0.32817993,0.070498526,5.0741963,-5.671307,1.4814459,-0.453834,0.11216797,-0.12056832,-0.8757376,-8.135752,9.188258,0.028427556,-0.6094393,-0.8503266,0.26694825,0
1.390000000000001,13.30821908968619,-0.6094393113833938,-0.8503266029043947,0.26694826008319855,15.018489,-0.93196917,-0.32817993,0.070498526,4.9927807,-5.5792174,1.4818695,-0.45282933,0.109665036,-0.11611822,-0.8771749,-8.147344,9.229415,0.056353398,-0.6094393,-0.8503266,0.26694825,0
1.400000000000001,13.034024560557782,-0.5602209537364194,-0.5679825830166159,0.2779270168869435,14.465206,-1.006575,-0.6088893,0.08094686,4.911249,-5.486723,1.4825745,-0.45181146,0.1071589,-0.11166474,-0.87858665,-8.158961,9.269246,0.08470231,-0.6094393,-0.8503266,0.26694825,0
1.410000000000001,13.034024560557782,-0.5602209537364194,-0.5679825830166159,0.2779270168869435,14.465206,-1.006575,-0.6088893,0.08094686,4.8296022,-5.393841,1.4835517,-0.45060346,0.10577324,-0.108068556,-0.8798238,-8.170418,9.307073,0.1108054,-0.56022096,-0.56798255,0.277927,0
1.420000000000001,13.034024560557782,-0.5602209537364194,-0.5679825830166159,0.2779270168869435,14.465206,-1.006575,-0.6088893,0.08094686,4.74784,-5.3005853,1.4847916,-0.44938743,0.10438569,-0.10447043,-0.8810452,-8.182047,9.343912,0.13718857,-0.56022096,-0.56798255,0.277927,0
1.430000000000001,13.034024560557782,-0.5602209537364194,-0.5679825830166159,0.2779270168869435,14.465206,-1.006575,-0.6088893,0.08094686,4.6659603,-5.206966,1.4862967,-0.4481634,0.102996275,-0.10087045,-0.8822509,-8.193847,9.379764,0.16384427,-0.56022096,-0.56798255,0.277927,0
1.440000000000001,13.034024560557782,-0.5602209537364194,-0.5679825830166159,0.2779270168869435,14.143692,-0.7884309,-0.6138663,0.19294302,4.5839624,-5.1129932,1.4880694,-0.44693136,0.10160502,-0.09726867,-0.88344085,-8.2058115,9.414623,0.19076495,-0.56022096,-0.56798255,0.277927,0
1.450000000000001,13.034024560557782,-0.5602209537364194,-0.5679825830166159,0.2779270168869435,14.143692,-0.7884309,-0.6138663,0.19294302,4.5018435,-5.018677,1.4901128,-0.44569135,0.100211956,-0.09366515,-0.88461506,-8.217938,9.448488,0.21794301,-0.56022096,-0.56798255,0.277927,0
1.460000000000001,13.034024560557782,-0.5602209537364194,-0.5679825830166159,0.2779270168869435,14.143692,-0.7884309,-0.6138663,0.19294302,4.4196024,-4.9240274,1.4924293,-0.44444337,0.0988171,-0.090059966,-0.8857735,-8.230225,9.481356,0.24537088,-0.56022096,-0.56798255,0.277927,0
1.470000000000001,13.034024560557782,-0.5602209537364194,-0.5679825830166159,0.2779270168869435,14.143692,-0.7884309,-0.6138663,0.19294302,4.3372383,-4.8290534,1.4950211,-0.44318748,0.097420484,-0.08645316,-0.8869161,-8.242664,9.513225,0.27304092,-0.56022096,-0.56798255,0.277927,0
1.480000000000001,12.620717871804748,-0.46387539938926864,-0.965916020922741,0.28612164413102553,13.445886,-0.50129706,-0.97414184,0.1548375,4.254749,-4.733766,1.4978908,-0.44192368,0.09602213,-0.082844816,-0.88804287,-8.255257,9.544092,0.3009455,-0.56022096,-0.56798255,0.277927,1
1.490000000000001,12.620717871804748,-0.46387539938926864,-0.965916020922741,0.28612164413102553,13.445886,-0.50129706,-0.97414184,0.1548375,4.172131,-4.6381702,1.5010607,-0.44139224,0.092738815,-0.078539565,-0.8890467,-8.268254,9.5747595,0.33311298,-0.50129706,-0.97414184,0.1548375,1
1.500000000000001,12.620717871804748,-0.46387539938926864,-0.965916020922741,0.28612164413102553,13.445886,-0.50129706,-0.97414184,0.1548375,4.0893846,-4.542275,1.5045542,-0.4408473,0.08945266,-0.074231915,-0.8900234,-8.2810135,9.604014,0.36562818,-0.50129706,-0.97414184,0.1548375,1
1.5100000000000011,12.620717871804748,-0.46387539938926864,-0.965916020922741,0.28612164413102553,13.445886,-0.50129706,-0.97414184,0.1548375,4.006511,-4.4460945,1.5083745,-0.44028887,0.08616377,-0.069921985,-0.89097285,-8.293533,9.631855,0.39847547,-0.50129706,-0.97414184,0.1548375,1
1.5200000000000011,12.104440679641677,-0.3131900658505511,-1.0512182801690317,0.2956536373638026,13.117039,-0.47259852,-0.77570987,0.11929333,3.9235141,-4.349643,1.5125248,-0.43971696,0.082872234,-0.06560991,-0.89189506,-8.305807,9.6582775,0.4316393,-0.50129706,-0.97414184,0.1548375,0
1.5300000000000011,12.104440679641677,-0.3131900658505511,-1.0512182801690317,0.2956536373638026,13.117039,-0.47259852,-0.77570987,0.11929333,3.8404021,-4.252947,1.5169426,-0.4386065,0.07877462,-0.06202352,-0.893069,-8.316544,9.680811,0.45198178,-0.31319007,-1.0512183,0.29565364,0
1.5400000000000011,12.104440679641677,-0.3131900658505511,-1.0512182801690317,0.2956536373638026,13.117039,-0.47259852,-0.77570987,0.11929333,3.757185,-4.156031,1.5215653,-0.43748188,0.07467447,-0.05843513,-0.89421415,-8.326814,9.702129,0.47259006,-0.31319007,-1.0512183,0.29565364,0
1.5500000000000012,12.104440679641677,-0.3131900658505511,-1.0512182801690317,0.2956536373638026,13.117039,-0.47259852,-0.77570987,0.11929333,3.6738675,-4.058908,1.5263952,-0.43634313,0.070571914,-0.054844856,-0.8953304,-8.336612,9.722232,0.49345,-0.31319007,-1.0512183,0.29565364,0
1.5600000000000012,11.523248738114047,-0.13621660593573623,-1.2509441427432295,0.294696596555837,13.543239,-0.28304046,-1.309946,0.42645004,3.5904546,-3.9615905,1.5314349,-0.43519032,0.06646708,-0.05125281,-0.8964178,-8.345936,9.7411175,0.5145473,-0.31319007,-1.0512183,0.29565364,0
1.5700000000000012,11.523248738114047,-0.13621660593573623,-1.2509441427432295,0.294696596555837,13.543239,-0.28304046,-1.309946,0.42645004,3.506953,-3.8640943,1.5366582,-0.43413568,0.06107977,-0.048017167,-0.897491,-8.35424,9.757917,0.53014475,-0.13621661,-1.2509441,0.2946966,0
1.5800000000000012,11.523248738114047,-0.13621660593573623,-1.2509441427432295,0.294696596555837,13.543239,-0.28304046,-1.309946,0.42645004,3.4233723,-3.766436,1.5420386,-0.4330629,0.0556899,-0.04477952,-0.89852667,-8.361782,9.773506,0.5459679,-0.13621661,-1.2509441,0.2946966,0
1.5900000000000012,11.523248738114047,-0.13621660593573623,-1.2509441427432295,0.294696596555837,13.543239,-0.28304046,-1.309946,0.42645004,3.33972,-3.6686282,1.5475782,-0.43197206,0.05029771,-0.04154001,-0.89952487,-8.368557,9.787883,0.5619985,-0.13621661,-1.2509441,0.2946966,0
1.6000000000000012,11.122406605366251,0.012290849289533785,-1.1802048109371004,0.2814872342698393,13.921385,-0.35468218,-1.6930349,0.7784654,3.2560039,-3.5706825,1.553279,-0.43086317,0.044903424,-0.038298763,-0.90048546,-8.374558,9.801047,0.57821834,-0.13621661,-1.2509441,0.2946966,0
1.6100000000000012,11.122406605366251,0.012290849289533785,-1.1802048109371004,0.2814872342698393,13.921385,-0.35468218,-1.6930349,0.7784654,3.1722326,-3.4726133,1.559123,-0.42981663,0.039508466,-0.035874076,-0.9013379,-8.379571,9.812646,0.5906218,0.012290849,-1.1802049,0.28148723,0
1.6200000000000012,11.122406605366251,0.012290849289533785,-1.1802048109371004,0.2814872342698393,13.921385,-0.35468218,-1.6930349,0.7784654,3.0884151,-3.374433,1.5650918,-0.4287543,0.03411205,-0.03344807,-0.90215725,-8.383749,9.823239,0.60316074,0.012290849,-1.1802049,0.28148723,0
1.6300000000000012,11.122406605366251,0.012290849289533785,-1.1802048109371004,0.2814872342698393,13.921385,-0.35468218,-1.6930349,0.7784654,3.0045602,-3.276152,1.5711865,-0.42767614,0.028714381,-0.031020835,-0.9029433,-8.387089,9.832829,0.6158197,0.012290849,-1.1802049,0.28148723,0
1.6400000000000012,11.122406605366251,0.012290849289533785,-1.1802048109371004,0.2814872342698393,13.866138,-0.44249153,-1.4325154,0.75042087,2.9206762,-3.17778,1.5774086,-0.42658222,0.023315653,-0.028592456,-0.9036961,-8.389589,9.841415,0.628583,0.012290849,-1.1802049,0.28148723,0
1.6500000000000012,11.122406605366251,0.012290849289533785,-1.1802048109371004,0.2814872342698393,13.866138,-0.44249153,-1.4325154,0.75042087,2.8367712,-3.0793269,1.5837586,-0.42547268,0.017916067,-0.026163025,-0.9044157,-8.391246,9.849,0.6414351,0.012290849,-1.1802049,0.28148723,0
1.6600000000000013,11.122406605366251,0.012290849289533785,-1.1802048109371004,0.2814872342698393,13.866138,-0.44249153,-1.4325154,0.75042087,2.752854,-2.9808033,1.5902375,-0.42434743,0.012515821,-0.023732629,-0.905102,-8.392056,9.855584,0.65436053,0.012290849,-1.1802049,0.28148723,0
1.6700000000000013,11.122406605366251,0.012290849289533785,-1.1802048109371004,0.2814872342698393,13.866138,-0.44249153,-1.4325154,0.75042087,2.6689332,-2.8822188,1.596846,-0.42320657,0.0071151135,-0.021301359,-0.9057549,-8.392017,9.861169,0.6673437,0.012290849,-1.1802049,0.28148723,0
1.6800000000000013,10.741549052737476,0.12720035455247322,-1.0872124327335573,0.26379069429410046,14.204383,-0.5803742,-1.3981435,0.80237526,2.5850167,-2.7835836,1.6035845,-0.42205012,0.0017141459,-0.018869307,-0.9063745,-8.391125,9.865757,0.68036896,0.012290849,-1.1802049,0.28148723,0
1.6900000000000013,10.741549052737476,0.12720035455247322,-1.0872124327335573,0.26379069429410046,14.204383,-0.5803742,-1.3981435,0.80237526,2.5011132,-2.6849077,1.6104345,-0.4209516,-0.0035062744,-0.017153444,-0.9069141,-8.389426,9.869285,0.68961257,0.12720035,-1.0872124,0.2637907,0
1.7000000000000013,10.741549052737476,0.12720035455247322,-1.0872124327335573,0.26379069429410046,14.204383,-0.5803742,-1.3981435,0.80237526,2.417231,-2.5862005,1.6173768,-0.41983974,-0.008726584,-0.015437037,-0.90742505,-8.386869,9.872008,0.6988626,0.12720035,-1.0872124,0.2637907,0
1.7100000000000013,10.741549052737476,0.12720035455247322,-1.0872124327335573,0.26379069429410046,14.204383,-0.5803742,-1.3981435,0.80237526,2.3333788,-2.4874701,1.6244116,-0.41871464,-0.013946616,-0.01372014,-0.9079071,-8.383453,9.873931,0.7081061,0.12720035,-1.0872124,0.2637907,0
1.7200000000000013,10.326162555289741,0.237291070723194,-0.4623600302348261,0.2647662885074944,14.2202215,-0.62636,-1.6340675,0.9393282,2.249565,-2.3887246,1.6315387,-0.41757622,-0.019166205,-0.012002809,-0.9083605,-8.379175,9.875053,0.71733,0.12720035,-1.0872124,0.2637907,0
1.7300000000000013,10.326162555289741,0.237291070723194,-0.4623600302348261,0.2647662885074944,14.2202215,-0.62636,-1.6340675,0.9393282,2.1657968,-2.2899714,1.6387373,-0.41637695,-0.021777393,-0.012089762,-0.9088509,-8.374358,9.875576,0.7223778,0.23729107,-0.46236002,0.26476628,0
1.7400000000000013,10.326162555289741,0.237291070723194,-0.4623600302348261,0.2647662885074944,14.2202215,-0.62636,-1.6340675,0.9393282,2.0820794,-2.191214,1.6459863,-0.41517413,-0.024388397,-0.012176611,-0.9093335,-8.369044,9.875897,0.727402,0.23729107,-0.46236002,0.26476628,0
1.7500000000000013,10.326162555289741,0.237291070723194,-0.4623600302348261,0.2647662885074944,14.2202215,-0.62636,-1.6340675,0.9393282,1.9984177,-2.0924544,1.6532853,-0.41396776,-0.026999192,-0.012263357,-0.90980846,-8.363234,9.876018,0.73239976,0.23729107,-0.46236002,0.26476628,0
1.7600000000000013,9.949209732039492,0.2840483041002408,-0.27771171120703325,0.2806878812560207,13.828843,-0.5948045,-0.8663257,0.5579134,1.9148166,-1.9936945,1.6606343,-0.4127579,-0.029609757,-0.012349998,-0.91027564,-8.356925,9.875939,0.73736835,0.23729107,-0.46236002,0.26476628,0
1.7700000000000014,9.949209732039492,0.2840483041002408,-0.27771171120703325,0.2806878812560207,13.828843,-0.5948045,-0.8663257,0.5579134,1.8312796,-1.8949361,1.6680138,-0.4114543,-0.031477187,-0.013028077,-0.9107936,-8.3504,9.875736,0.73854595,0.28404832,-0.27771172,0.28068787,0
1.7800000000000014,9.949209732039492,0.2840483041002408,-0.27771171120703325,0.2806878812560207,13.828843,-0.5948045,-0.8663257,0.5579134,1.7478099,-1.7961799,1.6754051,-0.4101482,-0.03334443,-0.01370608,-0.91130614,-8.343481,9.875512,0.73969686,0.28404832,-0.27771172,0.28068787,0
1.7900000000000014,9.949209732039492,0.2840483041002408,-0.27771171120703325,0.2806878812560207,13.828843,-0.5948045,-0.8663257,0.5579134,1.6644112,-1.697426,1.6828077,-0.4088397,-0.035211474,-0.014384002,-0.9118133,-8.336168,9.875269,0.7408195,0.28404832,-0.27771172,0.28068787,0
1.8000000000000014,9.644676405411337,0.21940492525685518,0.05363004200087511,0.3252517933315623,13.904515,-0.5570066,-1.4692698,0.4785325,1.5810878,-1.5986745,1.6902214,-0.40752882,-0.037078314,-0.0150618395,-0.9123151,-8.328463,9.875008,0.7419123,0.28404832,-0.27771172,0.28068787,0
1.8100000000000014,9.644676405411337,0.21940492525685518,0.05363004200087511,0.3252517933315623,13.904515,-0.5570066,-1.4692698,0.4785325,1.497842,-1.4999256,1.6976308,-0.40599963,-0.03730517,-0.016111622,-0.91296947,-8.320707,9.874811,0.73994654,0.21940492,0.053630043,0.3252518,0
1.8200000000000014,9.644676405411337,0.21940492525685518,0.05363004200087511,0.3252517933315623,13.904515,-0.5570066,-1.4692698,0.4785325,1.4146743,-1.4011778,1.7050204,-0.40446886,-0.037531875,-0.017161341,-0.9136203,-8.31283,9.874795,0.7379711,0.21940492,0.053630043,0.3252518,0
1.8300000000000014,9.644676405411337,0.21940492525685518,0.05363004200087511,0.3252517933315623,13.904515,-0.5570066,-1.4692698,0.4785325,1.3315859,-1.3024292,1.7123902,-0.40293652,-0.037758432,-0.018210992,-0.91426754,-8.304831,9.874959,0.73598546,0.21940492,0.053630043,0.3252518,0
1.8400000000000014,9.644676405411337,0.21940492525685518,0.05363004200087511,0.3252517933315623,13.531508,-0.5839927,-1.9368085,0.38782617,1.2485781,-1.203678,1.7197402,-0.4014026,-0.037984844,-0.019260574,-0.91491115,-8.296711,9.875303,0.7339892,0.21940492,0.053630043,0.3252518,0
1.8500000000000014,9.644676405411337,0.21940492525685518,0.05363004200087511,0.3252517933315623,13.531508,-0.5839927,-1.9368085,0.38782617,1.165652,-1.1049224,1.7270701,-0.3998671,-0.038211107,-0.020310078,-0.9155512,-8.288471,9.87583,0.7319819,0.21940492,0.053630043,0.3252518,0
1.8600000000000014,9.644676405411337,0.21940492525685518,0.05363004200087511,0.3252517933315623,13.531508,-0.5839927,-1.9368085,0.38782617,1.082809,-1.0061607,1.7343798,-0.39833,-0.038437217,-0.021359503,-0.91618764,-8.280111,9.876537,0.72996306,0.21940492,0.053630043,0.3252518,0
1.8700000000000014,9.644676405411337,0.21940492525685518,0.05363004200087511,0.3252517933315623,13.531508,-0.5839927,-1.9368085,0.38782617,1.0000502,-0.90739113,1.7416692,-0.39679137,-0.03866318,-0.022408845,-0.9168205,-8.271632,9.877426,0.7279323,0.21940492,0.053630043,0.3252518,0
1.8800000000000014,9.385941229293422,0.12113452257419564,-1.0361468616343157,0.39401004225023323,14.180307,-0.42919874,-3.3418236,0.74239427,0.9173767,-0.80861163,1.7489383,-0.39525118,-0.03888899,-0.023458099,-0.9174498,-8.263035,9.878498,0.7258891,0.21940492,0.053630043,0.3252518,0
1.8900000000000015,9.385941229293422,0.12113452257419564,-1.0361468616343157,0.39401004225023323,14.180307,-0.42919874,-3.3418236,0.74239427,0.83478934,-0.7098216,1.7561741,-0.3935356,-0.04392703,-0.021889113,-0.9179985,-8.254316,9.879416,0.7212378,0.12113452,-1.0361469,0.39401004,0
1.9000000000000015,9.385941229293422,0.12113452257419564,-1.0361468616343157,0.39401004225023323,14.180307,-0.42919874,-3.3418236,0.74239427,0.75229293,-0.61102545,1.763363,-0.3918078,-0.048963707,-0.020319447,-0.9185187,-8.244848,9.879708,0.71651757,0.12113452,-1.0361469,0.39401004,0
1.9100000000000015,9.385941229293422,0.12113452257419564,-1.0361468616343157,0.39401004225023323,14.180307,-0.42919874,-3.3418236,0.74239427,0.66989493,-0.51222956,1.7705042,-0.39006782,-0.053998858,-0.01874915,-0.91901034,-8.23463,9.879377,0.711718,0.12113452,-1.0361469,0.39401004,0
1.9200000000000015,9.099923560260747,-0.07767315799112927,-1.6709465125653586,0.49276675858128166,12.993786,-0.60695857,-2.3177314,0.83416533,0.587603,-0.41344005,1.7775971,-0.38831568,-0.059032332,-0.017178267,-0.91947335,-8.223659,9.878426,0.70682883,0.12113452,-1.0361469,0.39401004,0
1.9300000000000015,9.099923560260747,-0.07767315799112927,-1.6709465125653586,0.49276675858128166,12.993786,-0.60695857,-2.3177314,0.83416533,0.505423,-0.31466353,1.7846262,-0.38620198,-0.06660347,-0.013430851,-0.91990864,-8.21219,9.876702,0.69898504,-0.07767316,-1.6709465,0.49276677,0
1.9400000000000015,9.099923560260747,-0.07767315799112927,-1.6709465125653586,0.49276675858128166,12.993786,-0.60695857,-2.3177314,0.83416533,0.42336267,-0.21590993,1.7915761,-0.38405892,-0.07416953,-0.009682411,-0.92027396,-8.199718,9.873845,0.6909793,-0.07767316,-1.6709465,0.49276677,0
1.9500000000000015,9.099923560260747,-0.07767315799112927,-1.6709465125653586,0.49276675858128166,12.993786,-0.60695857,-2.3177314,0.83416533,0.34143206,-0.117190525,1.7984452,-0.38188663,-0.08172996,-0.0059332373,-0.92056936,-8.186241,9.869861,0.6827858,-0.07767316,-1.6709465,0.49276677,0
1.9600000000000015,8.9582406377992,-0.2515705420123207,-2.743278306460097,0.6340123072829698,11.938671,-0.621682,-1.0687588,0.9127299,0.2596413,-0.018516582,1.8052311,-0.3796853,-0.08928418,-0.002183612,-0.9207947,-8.171757,9.864755,0.6743788,-0.07767316,-1.6709465,0.49276677,0
1.9700000000000015,8.9582406377992,-0.2515705420123207,-2.743278306460097,0.6340123072829698,11.938671,-0.621682,-1.0687588,0.9127299,0.17799981,0.08010035,1.8119247,-0.37687075,-0.10143418,0.0044655576,-0.92068446,-8.156297,9.858337,0.6642808,-0.25157055,-2.7432783,0.6340123,0
1.9800000000000015,8.9582406377992,-0.2515705420123207,-2.743278306460097,0.6340123072829698,11.938671,-0.621682,-1.0687588,0.9127299,0.09652069,0.17864375,1.8185152,-0.3739809,-0.11356391,0.0111138355,-0.9203903,-8.139284,9.850054,0.65373933,-0.25157055,-2.7432783,0.6340123,0
1.9900000000000015,8.9582406377992,-0.2515705420123207,-2.743278306460097,0.6340123072829698,11.938671,-0.621682,-1.0687588,0.9127299,0.015219461,0.27709508,1.8249977,-0.37101635,-0.12567095,0.017759891,-0.9199123,-8.12072,9.839921,0.6426867,-0.25157055,-2.7432783,0.6340123,0
2.0000000000000013,,,,,11.62616,-1.103284,-2.2175238,0.8631659,-0.06588838,0.3754359,1.8313668,-0.36797768,-0.13775289,0.0244024,-0.9192504,-8.100608,9.827956,0.63105553,-0.25157055,-2.7432783,0.6340123,0
2.010000000000001,,,,,11.62616,-1.103284,-2.2175238,0.8631659,-0.1467889,0.47364885,1.8376119,-0.36429158,-0.14770007,0.031144772,-0.9189704,-8.079307,9.814376,0.6179015,-0.40733993,-2.3507676,0.79430896,0
2.020000000000001,,,,,11.62616,-1.103284,-2.2175238,0.8631659,-0.22747041,0.57171774,1.8437228,-0.36054793,-0.15762393,0.037882224,-0.9185451,-8.056811,9.799153,0.60415906,-0.40733993,-2.3507676,0.79430896,0
2.0300000000000007,,,,,11.62616,-1.103284,-2.2175238,0.8631659,-0.307921,0.6696263,1.8496931,-0.35674724,-0.16752285,0.044613685,-0.9179746,-8.033121,9.782307,0.5897786,-0.40733993,-2.3507676,0.79430896,0
2.0400000000000005,,,,,11.62616,-1.103284,-2.2175238,0.8631659,-0.3881287,0.76735836,1.8555162,-0.35289016,-0.1773953,0.05133809,-0.917259,-8.008237,9.763856,0.5747108,-0.40733993,-2.3507676,0.79430896,0
2.0500000000000003,,,,,10.54102,-1.1499861,-1.8618956,0.9125156,-0.4680816,0.864898,1.8611848,-0.3489773,-0.1872397,0.058054384,-0.9163983,-7.982159,9.743823,0.5589068,-0.40733993,-2.3507676,0.79430896,1
2.06,,,,,10.54102,-1.1499861,-1.8618956,0.9125156,-0.5477431,0.962209,1.8667691,-0.34530786,-0.19348612,0.0674224,-0.9158493,-7.950052,9.718039,0.55783844,-1.1499861,-1.8618956,0.9125156,1
2.07,,,,,10.54102,-1.1499861,-1.8618956,0.9125156,-0.62708074,1.0592515,1.8723389,-0.34158993,-0.19970536,0.07678095,-0.9151716,-7.9173956,9.690148,0.5560017,-1.1499861,-1.8618956,0.9125156,1
2.0799999999999996,,,,,10.54102,-1.1499861,-1.8618956,0.9125156,-0.70608914,1.1560048,1.8778862,-0.337824,-0.20589653,0.086128704,-0.91436523,-7.8841867,9.660174,0.5533461,-1.1499861,-1.8618956,0.9125156,1
2.0899999999999994,,,,,9.754933,-1.1282971,-1.560388,0.9524101,-0.7847626,1.252448,1.8834027,-0.33401054,-0.21205875,0.09546435,-0.91343033,-7.850422,9.628138,0.54982126,-1.1499861,-1.8618956,0.9125156,1
2.099999999999999,,,,,9.754933,-1.1282971,-1.560388,0.9524101,-0.86310863,1.3485733,1.8888446,-0.33009306,-0.21683402,0.10422754,-0.91277516,-7.818728,9.596669,0.5384442,-1.1282971,-1.560388,0.9524101,1
2.109999999999999,,,,,9.754933,-1.1282971,-1.560388,0.9524101,-0.941136,1.4443755,1.894169,-0.3261375,-0.22158429,0.11297871,-0.9120147,-7.7867,9.563514,0.5263126,-1.1282971,-1.560388,0.9524101,1
2.1199999999999988,,,,,9.754933,-1.1282971,-1.560388,0.9524101,-1.0188414,1.5398378,1.899368,-0.3221443,-0.22630899,0.12171684,-0.9111491,-7.754334,9.528688,0.51339036,-1.1282971,-1.560388,0.9524101,1
2.1299999999999986,,,,,8.933305,-0.73764074,-0.40452927,0.97600085,-1.0962214,1.6349436,1.9044337,-0.31811395,-0.23100758,0.13044094,-0.91017824,-7.7216253,9.492211,0.49964172,-1.1282971,-1.560388,0.9524101,1
2.1399999999999983,,,,,8.933305,-0.73764074,-0.40452927,0.97600085,-1.173287,1.7296933,1.9093231,-0.31425387,-0.23103392,0.13556588,-0.91076344,-7.691537,9.457611,0.47820887,-0.73764074,-0.40452927,0.97600085,1
