time-since-start [s],throttle_mpc,roll_mpc,pitch_mpc,yaw_mpc,throttle_nw,roll_nw,pitch_nw,yaw_nw,position_x [m],position_y [m],position_z [m],rotation_w [quaternion],rotation_x [quaternion],rotation_y [quaternion],rotation_z [quaternion],velocity_x [m/s],velocity_y [m/s],velocity_z [m/s],omega_x [rad/s],omega_y [rad/s],omega_z [rad/s],network_used
0.0,10.1513675580385,-0.12148644421874534,-3.522823608484908,0.14265411608151055,11.192799,0.28902978,-0.95051736,-0.34324098,13.379829,-12.318168,1.0022167,0.3482836,-0.2474378,0.09690111,0.8989345,-0.21687509,0.23625554,0.23112573,-0.1356641,-1.2976099,-1.4091462,0
0.01,10.1513675580385,-0.12148644421874534,-3.522823608484908,0.14265411608151055,9.854699,0.83601433,-1.5108038,-0.12291221,13.377471,-12.315632,1.0044752,0.3491447,-0.23170863,0.090382114,0.90346014,-0.2543567,0.27062348,0.22087786,-0.12148645,-3.5228236,0.14265412,0
0.02,10.1513675580385,-0.12148644421874534,-3.522823608484908,0.14265411608151055,9.854699,0.83601433,-1.5108038,-0.12291221,13.374749,-12.312763,1.0066401,0.34989715,-0.21590735,0.08383499,0.90770465,-0.28960732,0.30279878,0.21236674,-0.12148645,-3.5228236,0.14265412,0
0.03,10.1513675580385,-0.12148644421874534,-3.522823608484908,0.14265411608151055,9.854699,0.83601433,-1.5108038,-0.12291221,13.371687,-12.309584,1.0087281,0.35054076,-0.2000389,0.0772618,0.91166675,-0.32257956,0.3327451,0.20548119,-0.12148645,-3.5228236,0.14265412,0
0.04,10.1513675580385,-0.12148644421874534,-3.522823608484908,0.14265411608151055,10.42903,0.22730868,-0.82586586,-0.048030045,13.368306,-12.306116,1.010755,0.35107535,-0.18410821,0.07066456,0.9153452,-0.353229,0.36042896,0.20010789,-0.12148645,-3.5228236,0.14265412,0
0.05,10.1513675580385,-0.12148644421874534,-3.522823608484908,0.14265411608151055,10.42903,0.22730868,-0.82586586,-0.048030045,13.364631,-12.302384,1.012735,0.3515007,-0.16812025,0.06404534,0.9187389,-0.38151395,0.3858196,0.19613175,-0.12148645,-3.5228236,0.14265412,0
0.060000000000000005,10.1513675580385,-0.12148644421874534,-3.522823608484908,0.14265411608151055,10.42903,0.22730868,-0.82586586,-0.048030045,13.360684,-12.2984085,1.0146819,0.35181665,-0.15207998,0.057406187,0.9218467,-0.4073958,0.40888923,0.19343589,-0.12148645,-3.5228236,0.14265412,0
0.07,10.1513675580385,-0.12148644421874534,-3.522823608484908,0.14265411608151055,10.42903,0.22730868,-0.82586586,-0.048030045,13.356491,-12.294213,1.0166078,0.35202318,-0.13599242,0.050749175,0.9246677,-0.43083885,0.42961282,0.19190185,-0.12148645,-3.5228236,0.14265412,0
0.08,10.93320851691904,-0.06474846232359464,0.5444240451017999,0.17612369593389934,10.32828,0.41066232,2.3292005,-0.47194117,13.352076,-12.289823,1.0185235,0.35212016,-0.11986252,0.044076376,0.9272011,-0.45181042,0.4479683,0.19140969,-0.12148645,-3.5228236,0.14265412,0
0.09,10.93320851691904,-0.06474846232359464,0.5444240451017999,0.17612369593389934,10.32828,0.41066232,2.3292005,-0.47194117,13.347452,-12.285253,1.0204756,0.3511434,-0.12246115,0.044840086,0.92719537,-0.47289738,0.46625692,0.19901845,-0.064748466,0.54442406,0.1761237,0
0.09999999999999999,10.93320851691904,-0.06474846232359464,0.5444240451017999,0.17612369593389934,10.32828,0.41066232,2.3292005,-0.47194117,13.342615,-12.280498,1.0225033,0.35016373,-0.12505877,0.045603424,0.92718196,-0.4944618,0.4848737,0.20647348,-0.064748466,0.54442406,0.1761237,0
0.10999999999999999,10.93320851691904,-0.06474846232359464,0.5444240451017999,0.17612369593389934,10.32828,0.41066232,2.3292005,-0.47194117,13.337561,-12.275555,1.0246046,0.3491812,-0.12765536,0.046366386,0.92716074,-0.5165037,0.50381726,0.21377166,-0.064748466,0.54442406,0.1761237,0
0.11999999999999998,10.93320851691904,-0.06474846232359464,0.5444240451017999,0.17612369593389934,10.32828,0.41066232,2.3292005,-0.47194117,13.332283,-12.27042,1.0267781,0.3481957,-0.13025087,0.04712896,0.9271319,-0.5390229,0.52308613,0.2209098,-0.064748466,0.54442406,0.1761237,0
0.12999999999999998,11.951816108224081,0.03033867761481893,4.37225432206932,0.1819852828553781,11.0231085,0.049360026,2.34346,-0.34201053,13.326778,-12.265092,1.0290222,0.34720734,-0.13284531,0.047891144,0.9270954,-0.56201947,0.54267883,0.22788484,-0.064748466,0.54442406,0.1761237,0
0.13999999999999999,11.951816108224081,0.03033867761481893,4.37225432206932,0.1819852828553781,11.0231085,0.049360026,2.34346,-0.34201053,13.321027,-12.259553,1.0313827,0.345254,-0.15298313,0.05573096,0.9242782,-0.5888887,0.5655589,0.24396454,0.030338679,4.3722544,0.18198529,0
0.15,11.951816108224081,0.03033867761481893,4.37225432206932,0.1819852828553781,11.0231085,0.049360026,2.34346,-0.34201053,13.314988,-12.253769,1.0338959,0.34313533,-0.17304772,0.0635441,0.9210185,-0.619475,0.5917187,0.25839275,0.030338679,4.3722544,0.18198529,0
0.16,12.902745308428676,0.08348958126123202,4.638274493675233,0.1900159896302055,11.984538,-0.19259112,2.371246,-0.31533867,13.308624,-12.247708,1.0365441,0.3408524,-0.19302946,0.071326815,0.9173178,-0.65372616,0.621101,0.27095437,0.030338679,4.3722544,0.18198529,0
0.17,12.902745308428676,0.08348958126123202,4.638274493675233,0.1900159896302055,11.984538,-0.19259112,2.371246,-0.31533867,13.301885,-12.241323,1.039351,0.33831567,-0.21403939,0.07977799,0.91288847,-0.69466645,0.6563271,0.29002222,0.08348958,4.6382747,0.19001599,0
0.18000000000000002,12.902745308428676,0.08348958126123202,4.638274493675233,0.1900159896302055,11.984538,-0.19259112,2.371246,-0.31533867,13.294716,-12.234569,1.0423356,0.33559662,-0.23493394,0.08818619,0.90796715,-0.7396129,0.6951376,0.30645975,0.08348958,4.6382747,0.19001599,0
0.19000000000000003,12.902745308428676,0.08348958126123202,4.638274493675233,0.1900159896302055,11.984538,-0.19259112,2.371246,-0.31533867,13.287079,-12.227407,1.0454704,0.33269674,-0.2557019,0.09654685,0.90255654,-0.78847617,0.7374405,0.3200205,0.08348958,4.6382747,0.19001599,0
0.20000000000000004,13.523983493782456,0.09384146419781986,3.2304787287239565,0.17787472002518856,10.678507,0.42102003,0.7312077,0.05464011,13.278934,-12.219807,1.0487254,0.32961756,-0.27633205,0.10485549,0.89665955,-0.84115875,0.7831364,0.3304641,0.08348958,4.6382747,0.19001599,0
0.21000000000000005,13.523983493782456,0.09384146419781986,3.2304787287239565,0.17787472002518856,10.678507,0.42102003,0.7312077,0.05464011,13.270231,-12.211722,1.0520949,0.32721302,-0.29053053,0.110832095,0.89232284,-0.8998238,0.83410645,0.34303832,0.09384146,3.2304788,0.17787471,0
0.22000000000000006,13.523983493782456,0.09384146419781986,3.2304787287239565,0.17787472002518856,10.678507,0.42102003,0.7312077,0.05464011,13.260928,-12.203116,1.0555774,0.3247228,-0.3046529,0.11677967,0.8877524,-0.9611094,0.88745034,0.35304394,0.09384146,3.2304788,0.17787471,0
0.23000000000000007,13.523983493782456,0.09384146419781986,3.2304787287239565,0.17787472002518856,10.678507,0.42102003,0.7312077,0.05464011,13.250999,-12.193966,1.0591466,0.32214755,-0.3186955,0.12269665,0.88294953,-1.0249567,0.94310665,0.36036798,0.09384146,3.2304788,0.17787471,0
0.24000000000000007,13.523983493782456,0.09384146419781986,3.2304787287239565,0.17787472002518856,9.893365,0.16377947,-0.20676734,0.23673308,13.24042,-12.184246,1.0627751,0.3194879,-0.3326546,0.12858151,0.8779154,-1.0913042,1.0010114,0.36490026,0.09384146,3.2304788,0.17787471,0
0.25000000000000006,13.523983493782456,0.09384146419781986,3.2304787287239565,0.17787472002518856,9.893365,0.16377947,-0.20676734,0.23673308,13.229165,-12.173936,1.0664346,0.31674457,-0.3465266,0.13443269,0.8726513,-1.1600877,1.0610982,0.36653355,0.09384146,3.2304788,0.17787471,0
0.26000000000000006,13.523983493782456,0.09384146419781986,3.2304787287239565,0.17787472002518856,9.893365,0.16377947,-0.20676734,0.23673308,13.217211,-12.163015,1.0700955,0.3139183,-0.3603078,0.14024866,0.86715865,-1.2312405,1.1232985,0.36516365,0.09384146,3.2304788,0.17787471,0
0.2700000000000001,13.523983493782456,0.09384146419781986,3.2304787287239565,0.17787472002518856,9.893365,0.16377947,-0.20676734,0.23673308,13.204534,-12.1514635,1.0737273,0.31100976,-0.37399468,0.14602791,0.86143893,-1.3046936,1.1875416,0.36068952,0.09384146,3.2304788,0.17787471,0
0.2800000000000001,14.594218118424205,0.10063123581692543,2.055839952912871,0.16687556096520123,10.336931,-1.189906,0.17843029,-0.16113831,13.191109,-12.139257,1.0772983,0.30801982,-0.38758364,0.1517689,0.85549355,-1.3803751,1.2537546,0.3530133,0.09384146,3.2304788,0.17787471,0
0.2900000000000001,14.594218118424205,0.10063123581692543,2.055839952912871,0.16687556096520123,10.336931,-1.189906,0.17843029,-0.16113831,13.176888,-12.126356,1.0808122,0.3059246,-0.396075,0.15568076,0.85164464,-1.4640464,1.326997,0.3494282,0.10063124,2.05584,0.16687556,0
0.3000000000000001,14.594218118424205,0.10063123581692543,2.055839952912871,0.16687556096520123,10.336931,-1.189906,0.17843029,-0.16113831,13.161823,-12.112715,1.0842788,0.30379674,-0.40452415,0.15957603,0.8477049,-1.5491244,1.4015495,0.34353486,0.10063124,2.05584,0.16687556,0
0.3100000000000001,14.594218118424205,0.10063123581692543,2.055839952912871,0.16687556096520123,10.336931,-1.189906,0.17843029,-0.16113831,13.145901,-12.098321,1.0876749,0.3016365,-0.41293016,0.16345431,0.8436748,-1.6355764,1.4773766,0.33529416,0.10063124,2.05584,0.16687556,0
0.3200000000000001,15.342310691399312,0.09098421301927379,0.23479295857524543,0.14575460983751834,10.544694,-1.4974183,-0.5183534,-0.13941246,13.129107,-12.083163,1.0909766,0.29944408,-0.42129213,0.16731514,0.83955467,-1.7233692,1.5544428,0.32466796,0.10063124,2.05584,0.16687556,0
0.3300000000000001,15.342310691399312,0.09098421301927379,0.23479295857524543,0.14575460983751834,10.544694,-1.4974183,-0.5183534,-0.13941246,13.111409,-12.067209,1.0941844,0.29882714,-0.42201912,0.16835545,0.83920133,-1.8165559,1.6363441,0.31682917,0.09098421,0.23479296,0.1457546,0
0.34000000000000014,15.342310691399312,0.09098421301927379,0.23479295857524543,0.14575460983751834,10.544694,-1.4974183,-0.5183534,-0.13941246,13.092776,-12.050436,1.0973121,0.2982096,-0.42274523,0.1693954,0.8388462,-1.9098201,1.7184817,0.30869484,0.09098421,0.23479296,0.1457546,0
0.35000000000000014,15.342310691399312,0.09098421301927379,0.23479295857524543,0.14575460983751834,10.544694,-1.4974183,-0.5183534,-0.13941246,13.073212,-12.032839,1.100357,0.29759142,-0.42347044,0.170435,0.8384893,-2.003162,1.8008548,0.30026424,0.09098421,0.23479296,0.1457546,0
0.36000000000000015,16.43919831608599,0.08821310872699621,-0.453709328300737,0.1220437364773226,11.679198,-1.3197783,-0.71710956,-0.04884269,13.052713,-12.014418,1.1033162,0.2969726,-0.42419475,0.17147423,0.8381306,-2.0965812,1.8834625,0.29153666,0.09098421,0.23479296,0.1457546,0
0.37000000000000016,16.43919831608599,0.08821310872699621,-0.453709328300737,0.1220437364773226,11.679198,-1.3197783,-0.71710956,-0.04884269,13.031248,-11.995139,1.1062194,0.2970364,-0.42205656,0.17142858,0.83919615,-2.1965663,1.9720759,0.2892247,0.08821311,-0.45370933,0.12204374,0
0.38000000000000017,16.43919831608599,0.08821310872699621,-0.453709328300737,0.1220437364773226,11.679198,-1.3197783,-0.71710956,-0.04884269,13.008784,-11.974975,1.1091026,0.29709852,-0.41991597,0.17138194,0.84025675,-2.29611,2.0605364,0.28751194,0.08821311,-0.45370933,0.12204374,0
0.3900000000000002,16.43919831608599,0.08821310872699621,-0.453709328300737,0.1220437364773226,11.679198,-1.3197783,-0.71710956,-0.04884269,12.985327,-11.953928,1.1119717,0.29715893,-0.417773,0.17133431,0.8413126,-2.3952093,2.1488428,0.28639618,0.08821311,-0.45370933,0.12204374,0
0.4000000000000002,16.835574796952503,0.08478261470060754,-0.5378489968682312,0.09815539074689617,11.286658,-1.0522958,-1.2335389,-0.0045798905,12.960881,-11.931998,1.1148326,0.29721764,-0.41562766,0.17128572,0.84236366,-2.4938622,2.2369943,0.2858751,0.08821311,-0.45370933,0.12204374,0
0.4100000000000002,16.835574796952503,0.08478261470060754,-0.5378489968682312,0.09815539074689617,11.286658,-1.0522958,-1.2335389,-0.0045798905,12.935439,-11.909177,1.1177032,0.2974399,-0.4131507,0.17104685,0.8435514,-2.5944095,2.32709,0.28835624,0.084782615,-0.537849,0.098155394,0
0.4200000000000002,16.835574796952503,0.08478261470060754,-0.5378489968682312,0.09815539074689617,11.286658,-1.0522958,-1.2335389,-0.0045798905,12.908994,-11.885455,1.1206023,0.2976599,-0.41067055,0.17080668,0.8447327,-2.6944292,2.416969,0.29155493,0.084782615,-0.537849,0.098155394,0
0.4300000000000002,16.835574796952503,0.08478261470060754,-0.5378489968682312,0.09815539074689617,11.286658,-1.0522958,-1.2335389,-0.0045798905,12.881552,-11.860837,1.1235367,0.2978776,-0.4081873,0.17056519,0.8459075,-2.793918,2.5066292,0.29546803,0.084782615,-0.537849,0.098155394,0
0.4400000000000002,16.835574796952503,0.08478261470060754,-0.5378489968682312,0.09815539074689617,12.097267,-0.8817694,-0.8774607,0.027872216,12.853117,-11.835323,1.126514,0.29809305,-0.4057009,0.17032239,0.8470759,-2.892872,2.5960684,0.30009243,0.084782615,-0.537849,0.098155394,0
0.45000000000000023,16.835574796952503,0.08478261470060754,-0.5378489968682312,0.09815539074689617,12.097267,-0.8817694,-0.8774607,0.027872216,12.823696,-11.808916,1.1295412,0.2983062,-0.40321139,0.17007828,0.84823775,-2.9912884,2.6852846,0.30542487,0.084782615,-0.537849,0.098155394,0
0.46000000000000024,16.835574796952503,0.08478261470060754,-0.5378489968682312,0.09815539074689617,12.097267,-0.8817694,-0.8774607,0.027872216,12.793293,-11.781618,1.132625,0.29851708,-0.40071878,0.16983289,0.8493931,-3.0891635,2.7742763,0.31146213,0.084782615,-0.537849,0.098155394,0
0.47000000000000025,16.835574796952503,0.08478261470060754,-0.5378489968682312,0.09815539074689617,12.097267,-0.8817694,-0.8774607,0.027872216,12.761914,-11.753431,1.1357728,0.29872566,-0.39822313,0.16958618,0.850542,-3.1864939,2.8630412,0.318201,0.084782615,-0.537849,0.098155394,0
0.48000000000000026,17.551268812810953,0.09511826054638024,-0.15747228798859905,0.07933523871398415,12.90723,-0.8177407,-0.58918744,-0.16135871,12.729565,-11.7243595,1.1389915,0.29893196,-0.39572445,0.16933818,0.8516844,-3.2832763,2.9515774,0.32563818,0.084782615,-0.537849,0.098155394,0
0.49000000000000027,17.551268812810953,0.09511826054638024,-0.15747228798859905,0.07933523871398415,12.90723,-0.8177407,-0.58918744,-0.16135871,12.696229,-11.694383,1.14231,0.2989155,-0.39484432,0.16966476,0.85203356,-3.3837214,3.0437367,0.3380923,0.09511826,-0.15747228,0.079335235,0
0.5000000000000002,17.551268812810953,0.09511826054638024,-0.15747228798859905,0.07933523871398415,12.90723,-0.8177407,-0.58918744,-0.16135871,12.661891,-11.663485,1.145754,0.29889873,-0.39396378,0.16999117,0.8523819,-3.4839177,3.1359198,0.3507516,0.09511826,-0.15747228,0.079335235,0
0.5100000000000002,17.551268812810953,0.09511826054638024,-0.15747228798859905,0.07933523871398415,12.90723,-0.8177407,-0.58918744,-0.16135871,12.626552,-11.631664,1.1493256,0.29888168,-0.3930829,0.1703174,0.8527294,-3.583866,3.2281265,0.36361563,0.09511826,-0.15747228,0.079335235,0
0.5200000000000002,17.651774229001333,0.09582366568610982,-0.09658500704456575,0.05934091205689709,13.142457,-0.7250982,-0.4472414,-0.18618342,12.590214,-11.598922,1.1530269,0.2988643,-0.39220157,0.17064346,0.853076,-3.683565,3.3203566,0.3766839,0.09511826,-0.15747228,0.079335235,0
0.5300000000000002,17.651774229001333,0.09582366568610982,-0.09658500704456575,0.05934091205689709,13.142457,-0.7250982,-0.4472414,-0.18618342,12.552877,-11.565254,1.1568631,0.2988814,-0.3915957,0.17102419,0.8532721,-3.7836044,3.4131544,0.39056253,0.09582367,-0.096585006,0.059340913,0
0.5400000000000003,17.651774229001333,0.09582366568610982,-0.09658500704456575,0.05934091205689709,13.142457,-0.7250982,-0.4472414,-0.18618342,12.514542,-11.530658,1.1608386,0.29889837,-0.39098957,0.17140481,0.8534677,-3.8834474,3.506017,0.4045628,0.09582367,-0.096585006,0.059340913,0
0.5500000000000003,17.651774229001333,0.09582366568610982,-0.09658500704456575,0.05934091205689709,13.142457,-0.7250982,-0.4472414,-0.18618342,12.475208,-11.495133,1.1649547,0.29891515,-0.3903832,0.17178534,0.85366285,-3.9830935,3.5989444,0.41868442,0.09582367,-0.096585006,0.059340913,0
0.5600000000000003,17.956313055622037,0.09856917995353878,0.0005011297624719986,0.04411305557333109,13.185769,-0.5932994,-0.4855711,-0.17995392,12.43488,-11.458678,1.1692127,0.29893178,-0.38977668,0.17216577,0.8538575,-4.0825424,3.6919367,0.43292707,0.09582367,-0.096585006,0.059340913,0
0.5700000000000003,17.956313055622037,0.09856917995353878,0.0005011297624719986,0.04411305557333109,13.185769,-0.5932994,-0.4855711,-0.17995392,12.39355,-11.421287,1.1736232,0.2989351,-0.38959345,0.17267329,0.8538375,-4.1835394,3.7866251,0.44918042,0.09856918,0.0005011298,0.044113055,0
0.5800000000000003,17.956313055622037,0.09856917995353878,0.0005011297624719986,0.04411305557333109,13.185769,-0.5932994,-0.4855711,-0.17995392,12.351211,-11.382946,1.1781963,0.2989383,-0.3894101,0.17318076,0.8538172,-4.284422,3.8814485,0.46542215,0.09856918,0.0005011298,0.044113055,0
0.5900000000000003,17.956313055622037,0.09856917995353878,0.0005011297624719986,0.04411305557333109,13.185769,-0.5932994,-0.4855711,-0.17995392,12.307863,-11.343657,1.1829315,0.2989414,-0.38922668,0.17368817,0.8537967,-4.385192,3.9764068,0.48165208,0.09856918,0.0005011298,0.044113055,0
0.6000000000000003,17.66674849534938,0.08787685132478135,-0.23046434376494088,0.029833824836786954,13.255845,-0.63788295,-0.8149062,-0.11898127,12.263509,-11.303417,1.1878294,0.29894444,-0.38904312,0.17419553,0.853776,-4.4858475,4.0715003,0.49787003,0.09856918,0.0005011298,0.044113055,0
0.6100000000000003,17.66674849534938,0.08787685132478135,-0.23046434376494088,0.029833824836786954,13.255845,-0.63788295,-0.8149062,-0.11898127,12.218156,-11.262234,1.1928803,0.29918852,-0.38790166,0.17428407,0.85419166,-4.584693,4.16513,0.5123505,0.08787685,-0.23046434,0.029833825,0
0.6200000000000003,17.66674849534938,0.08787685132478135,-0.23046434376494088,0.029833824836786954,13.255845,-0.63788295,-0.8149062,-0.11898127,12.171816,-11.220115,1.1980774,0.29943213,-0.3867596,0.17437236,0.85460603,-4.683226,4.258725,0.52713317,0.08787685,-0.23046434,0.029833825,0
0.6300000000000003,17.66674849534938,0.08787685132478135,-0.23046434376494088,0.029833824836786954,13.255845,-0.63788295,-0.8149062,-0.11898127,12.124493,-11.177059,1.203424,0.29967526,-0.38561696,0.17446037,0.8550191,-4.7814474,4.352285,0.5422173,0.08787685,-0.23046434,0.029833825,0
0.6400000000000003,17.66674849534938,0.08787685132478135,-0.23046434376494088,0.029833824836786954,13.081088,-0.5282905,-0.82184047,-0.012952991,12.076188,-11.133069,1.2089227,0.2999179,-0.3844737,0.17454812,0.85543084,-4.8793545,4.4458084,0.5576021,0.08787685,-0.23046434,0.029833825,0
0.6500000000000004,17.66674849534938,0.08787685132478135,-0.23046434376494088,0.029833824836786954,13.081088,-0.5282905,-0.82184047,-0.012952991,12.026906,-11.088143,1.214577,0.30016014,-0.38332987,0.17463559,0.8558413,-4.9769483,4.5392957,0.5732869,0.08787685,-0.23046434,0.029833825,0
0.6600000000000004,17.66674849534938,0.08787685132478135,-0.23046434376494088,0.029833824836786954,13.081088,-0.5282905,-0.82184047,-0.012952991,11.97665,-11.042283,1.2203896,0.30040196,-0.38218543,0.1747228,0.8562504,-5.0742273,4.632746,0.58927095,0.08787685,-0.23046434,0.029833825,0
0.6700000000000004,17.66674849534938,0.08787685132478135,-0.23046434376494088,0.029833824836786954,13.081088,-0.5282905,-0.82184047,-0.012952991,11.925423,-10.995488,1.2263634,0.3006433,-0.3810404,0.17480974,0.85665816,-5.171191,4.7261596,0.6055535,0.08787685,-0.23046434,0.029833825,0
0.6800000000000004,17.559643113129,0.07606283848379539,-0.20297780087424686,0.018485419350306464,12.635418,-0.46933508,-1.5514154,0.09568435,11.873227,-10.94776,1.2325016,0.30088416,-0.3798948,0.1748964,0.85706466,-5.267839,4.819535,0.62213385,0.08787685,-0.23046434,0.029833825,0
0.6900000000000004,17.559643113129,0.07606283848379539,-0.20297780087424686,0.018485419350306464,12.635418,-0.46933508,-1.5514154,0.09568435,11.820069,-10.8991,1.2388036,0.30112675,-0.37889415,0.17495199,0.85741097,-5.363601,4.9123073,0.638301,0.076062836,-0.2029778,0.01848542,0
0.7000000000000004,17.559643113129,0.07606283848379539,-0.20297780087424686,0.018485419350306464,12.635418,-0.46933508,-1.5514154,0.09568435,11.765956,-10.849514,1.2452686,0.30136898,-0.3778931,0.17500739,0.8577563,-5.459087,5.0050445,0.6547278,0.076062836,-0.2029778,0.01848542,0
0.7100000000000004,17.559643113129,0.07606283848379539,-0.20297780087424686,0.018485419350306464,12.635418,-0.46933508,-1.5514154,0.09568435,11.710889,-10.799,1.2518991,0.30161086,-0.37689155,0.17506257,0.8581007,-5.5542965,5.0977454,0.6714136,0.076062836,-0.2029778,0.01848542,0
0.7200000000000004,17.12881023738188,0.054474284700515706,-0.3279953975016091,0.005652472779751185,12.516382,-0.453496,-1.682614,0.15926781,11.654871,-10.747559,1.2586977,0.30185238,-0.37588954,0.17511755,0.8584439,-5.6492286,5.19041,0.6883579,0.076062836,-0.2029778,0.01848542,0
0.7300000000000004,17.12881023738188,0.054474284700515706,-0.3279953975016091,0.005652472779751185,12.516382,-0.453496,-1.682614,0.15926781,11.597918,-10.695203,1.265653,0.30221727,-0.37439403,0.17486674,0.85902005,-5.741527,5.2807236,0.7027924,0.054474283,-0.3279954,0.005652473,0
0.7400000000000004,17.12881023738188,0.054474284700515706,-0.3279953975016091,0.005652472779751185,12.516382,-0.453496,-1.682614,0.15926781,11.540042,-10.641944,1.2727548,0.30258134,-0.37289748,0.17461544,0.8595938,-5.833463,5.3708897,0.71764094,0.054474283,-0.3279954,0.005652473,0
0.7500000000000004,17.12881023738188,0.054474284700515706,-0.3279953975016091,0.005652472779751185,12.516382,-0.453496,-1.682614,0.15926781,11.48125,-10.587785,1.2800072,0.30294457,-0.37139988,0.17436364,0.8601652,-5.925036,5.460908,0.73290217,0.054474283,-0.3279954,0.005652473,0
0.7600000000000005,16.605799970873438,0.02479871172954133,-0.42691798207047166,-0.004182816535463104,12.537388,-0.63171625,-1.7146627,0.2208197,11.421543,-10.532725,1.2874143,0.30330697,-0.3699013,0.17411134,0.86073416,-6.016245,5.550776,0.7485749,0.054474283,-0.3279954,0.005652473,0
0.7700000000000005,16.605799970873438,0.02479871172954133,-0.42691798207047166,-0.004182816535463104,12.537388,-0.63171625,-1.7146627,0.2208197,11.36094,-10.476782,1.2949628,0.30374178,-0.36802918,0.1735625,0.8614938,-6.104294,5.637717,0.7612184,0.024798712,-0.42691797,-0.0041828165,0
0.7800000000000005,16.605799970873438,0.02479871172954133,-0.42691798207047166,-0.004182816535463104,12.537388,-0.63171625,-1.7146627,0.2208197,11.2994585,-10.419971,1.3026403,0.30417523,-0.3661554,0.17301287,0.8622496,-6.191929,5.724408,0.77438337,0.024798712,-0.42691797,-0.0041828165,0
0.7900000000000005,16.605799970873438,0.02479871172954133,-0.42691798207047166,-0.004182816535463104,12.537388,-0.63171625,-1.7146627,0.2208197,11.2371025,-10.362295,1.3104521,0.3046073,-0.36427993,0.17246243,0.8630014,-6.27915,5.810848,0.7880677,0.024798712,-0.42691797,-0.0041828165,0
0.8000000000000005,16.115078917903784,0.006426191968141345,-0.4609340108102197,-0.014911022768441518,11.983807,-0.663328,-2.013244,0.2616435,11.173876,-10.303755,1.3184034,0.30503795,-0.3624028,0.17191121,0.8637493,-6.3659554,5.8970366,0.8022694,0.024798712,-0.42691797,-0.0041828165,0
0.8100000000000005,16.115078917903784,0.006426191968141345,-0.4609340108102197,-0.014911022768441518,11.983807,-0.663328,-2.013244,0.2616435,11.109798,-10.244368,1.3264825,0.3055094,-0.36041415,0.17120847,0.864554,-6.449786,5.9804144,0.8136684,0.006426192,-0.460934,-0.014911023,0
0.8200000000000005,16.115078917903784,0.006426191968141345,-0.4609340108102197,-0.014911022768441518,11.983807,-0.663328,-2.013244,0.2616435,11.044883,-10.184147,1.3346785,0.3059792,-0.3584236,0.17050484,0.865354,-6.5331993,6.0634995,0.8256075,0.006426192,-0.460934,-0.014911023,0
0.8300000000000005,16.115078917903784,0.006426191968141345,-0.4609340108102197,-0.014911022768441518,11.983807,-0.663328,-2.013244,0.2616435,10.9791355,-10.123097,1.3429966,0.30644736,-0.35643113,0.16980028,0.8661495,-6.616193,6.1462903,0.83808446,0.006426192,-0.460934,-0.014911023,0
0.8400000000000005,16.115078917903784,0.006426191968141345,-0.4609340108102197,-0.014911022768441518,11.893509,-0.6557086,-2.0287275,0.24775031,10.912561,-10.061223,1.351442,0.3069139,-0.35443676,0.16909483,0.8669403,-6.6987658,6.228784,0.8510968,0.006426192,-0.460934,-0.014911023,0
0.8500000000000005,16.115078917903784,0.006426191968141345,-0.4609340108102197,-0.014911022768441518,11.893509,-0.6557086,-2.0287275,0.24775031,10.845163,-9.998525,1.3600203,0.30737883,-0.3524406,0.16838847,0.8677265,-6.7809153,6.3109803,0.86464226,0.006426192,-0.460934,-0.014911023,0
0.8600000000000005,16.115078917903784,0.006426191968141345,-0.4609340108102197,-0.014911022768441518,11.893509,-0.6557086,-2.0287275,0.24775031,10.776945,-9.935005,1.3687366,0.3078421,-0.35044253,0.16768122,0.86850816,-6.862641,6.392876,0.87871844,0.006426192,-0.460934,-0.014911023,0
0.8700000000000006,16.115078917903784,0.006426191968141345,-0.4609340108102197,-0.014911022768441518,11.893509,-0.6557086,-2.0287275,0.24775031,10.7079115,-9.870668,1.3775965,0.30830374,-0.34844255,0.16697307,0.86928517,-6.9439397,6.47447,0.893323,0.006426192,-0.460934,-0.014911023,0
0.8800000000000006,15.367079960524851,-0.026263810123858915,-0.6055296587024761,-0.02246098054001067,12.426797,-0.72596306,-2.1686342,0.36410376,10.638066,-9.805517,1.3866048,0.30876377,-0.3464408,0.16626404,0.8700575,-7.0248113,6.5557613,0.90845346,0.006426192,-0.460934,-0.014911023,0
0.8900000000000006,15.367079960524851,-0.026263810123858915,-0.6055296587024761,-0.02246098054001067,12.426797,-0.72596306,-2.1686342,0.36410376,10.567434,-9.739573,1.3957409,0.30931798,-0.3438642,0.16517529,0.8710896,-7.101485,6.632938,0.9188875,-0.02626381,-0.60552967,-0.02246098,0
0.9000000000000006,15.367079960524851,-0.026263810123858915,-0.6055296587024761,-0.02246098054001067,12.426797,-0.72596306,-2.1686342,0.36410376,10.496038,-9.672859,1.4049846,0.30986932,-0.34128442,0.16408502,0.87211365,-7.177652,6.7096887,0.92997766,-0.02626381,-0.60552967,-0.02246098,0
0.9100000000000006,15.367079960524851,-0.026263810123858915,-0.6055296587024761,-0.02246098054001067,12.426797,-0.72596306,-2.1686342,0.36410376,10.423883,-9.605381,1.4143425,0.3104178,-0.33870152,0.16299322,0.87312967,-7.253311,6.7860107,0.94171983,-0.02626381,-0.60552967,-0.02246098,0
0.9200000000000006,14.806284851647192,-0.04757676104266922,-0.5530954304971112,-0.03457285515127338,12.283416,-0.70932794,-2.185577,0.37390605,10.350974,-9.537141,1.4238211,0.31096342,-0.3361155,0.16189994,0.87413764,-7.3284593,6.861901,0.9541101,-0.02626381,-0.60552967,-0.02246098,0
0.9300000000000006,14.806284851647192,-0.04757676104266922,-0.5530954304971112,-0.03457285515127338,12.283416,-0.70932794,-2.185577,0.37390605,10.277329,-9.468158,1.4334065,0.3114811,-0.33379877,0.1607733,0.8750485,-7.4003944,6.9346066,0.9630696,-0.047576763,-0.55309546,-0.034572855,0
0.9400000000000006,14.806284851647192,-0.04757676104266922,-0.5530954304971112,-0.03457285515127338,12.283416,-0.70932794,-2.185577,0.37390605,10.202968,-9.39845,1.4430844,0.31199637,-0.33147943,0.15964544,0.8759527,-7.4718986,7.006901,0.9725951,-0.047576763,-0.55309546,-0.034572855,0
0.9500000000000006,14.806284851647192,-0.04757676104266922,-0.5530954304971112,-0.03457285515127338,12.283416,-0.70932794,-2.185577,0.37390605,10.127893,-9.328021,1.4528604,0.31250927,-0.32915756,0.15851632,0.87685,-7.542969,7.0787816,0.9826833,-0.047576763,-0.55309546,-0.034572855,0
0.9600000000000006,13.804082057815073,-0.09123429460196389,-0.8463762398900246,-0.04193072422757878,11.964194,-0.7455613,-2.2223961,0.40450308,10.05211,-9.256875,1.4627401,0.31301966,-0.32683313,0.15738599,0.8777406,-7.6136045,7.150246,0.99333084,-0.047576763,-0.55309546,-0.034572855,0
0.9700000000000006,13.804082057815073,-0.09123429460196389,-0.8463762398900246,-0.04193072422757878,11.964194,-0.7455613,-2.2223961,0.40450308,9.975646,-9.185041,1.4726924,0.31371775,-0.32329148,0.155591,0.87912196,-7.678976,7.216398,0.9972391,-0.0912343,-0.84637624,-0.041930724,0
0.9800000000000006,13.804082057815073,-0.09123429460196389,-0.8463762398900246,-0.04193072422757878,11.964194,-0.7455613,-2.2223961,0.40450308,9.898532,-9.112549,1.4826876,0.31441018,-0.31974396,0.15379316,0.8804873,-7.743736,7.281928,1.0019354,-0.0912343,-0.84637624,-0.041930724,0
0.9900000000000007,13.804082057815073,-0.09123429460196389,-0.8463762398900246,-0.04193072422757878,11.964194,-0.7455613,-2.2223961,0.40450308,9.820773,-9.039405,1.4927337,0.31509694,-0.3161906,0.15199253,0.88183665,-7.80788,7.3468323,1.0074122,-0.0912343,-0.84637624,-0.041930724,0
1.0000000000000007,13.435162616068887,-0.08808485231891781,-0.538859217327063,-0.05446068134942775,11.329234,-0.76317817,-2.4062524,0.46268743,9.742375,-8.965614,1.5028385,0.315778,-0.3126315,0.15018913,0.88317,-7.8714037,7.411105,1.0136621,-0.0912343,-0.84637624,-0.041930724,0
1.0100000000000007,13.435162616068887,-0.08808485231891781,-0.538859217327063,-0.05446068134942775,11.329234,-0.76317817,-2.4062524,0.46268743,9.663354,-8.891193,1.5129952,0.3162842,-0.31043077,0.14886367,0.8839891,-7.9327154,7.473114,1.0177683,-0.088084854,-0.5388592,-0.054460682,0
1.0200000000000007,13.435162616068887,-0.08808485231891781,-0.538859217327063,-0.05446068134942775,11.329234,-0.76317817,-2.4062524,0.46268743,9.583722,-8.816154,1.5231955,0.31678805,-0.30822772,0.1475371,0.8848015,-7.9936647,7.534696,1.0223482,-0.088084854,-0.5388592,-0.054460682,0
1.0300000000000007,13.435162616068887,-0.08808485231891781,-0.538859217327063,-0.05446068134942775,11.329234,-0.76317817,-2.4062524,0.46268743,9.503482,-8.7405,1.5334438,0.3172895,-0.30602235,0.1462094,0.88560724,-8.05425,7.5958486,1.0273988,-0.088084854,-0.5388592,-0.054460682,0
1.0400000000000007,13.435162616068887,-0.08808485231891781,-0.538859217327063,-0.05446068134942775,11.134744,-0.653192,-2.549788,0.4499322,9.422638,-8.664238,1.5437449,0.31778857,-0.30381465,0.14488061,0.8864063,-8.114469,7.6565695,1.0329171,-0.088084854,-0.5388592,-0.054460682,0
1.0500000000000007,13.435162616068887,-0.08808485231891781,-0.538859217327063,-0.05446068134942775,11.134744,-0.653192,-2.549788,0.4499322,9.341193,-8.58737,1.5541036,0.31828526,-0.3016047,0.14355072,0.88719887,-8.174321,7.716858,1.0389001,-0.088084854,-0.5388592,-0.054460682,0
1.0600000000000007,13.435162616068887,-0.08808485231891781,-0.538859217327063,-0.05446068134942775,11.134744,-0.653192,-2.549788,0.4499322,9.259152,-8.509902,1.5645245,0.31877956,-0.29939246,0.14221975,0.8879846,-8.233807,7.7767105,1.0453445,-0.088084854,-0.5388592,-0.054460682,0
1.0700000000000007,13.435162616068887,-0.08808485231891781,-0.538859217327063,-0.05446068134942775,11.134744,-0.653192,-2.549788,0.4499322,9.176518,-8.431836,1.5750122,0.31927148,-0.29717797,0.14088771,0.8887636,-8.292922,7.8361254,1.052247,-0.088084854,-0.5388592,-0.054460682,0
1.0800000000000007,12.397243199854291,-0.11987198417874363,-1.3555038329481859,-0.06051960156291089,10.8612585,-0.40250337,-2.2902362,0.6115634,9.093295,-8.35318,1.5855712,0.319761,-0.29496124,0.13955462,0.88953596,-8.351666,7.8951006,1.0596048,-0.088084854,-0.5388592,-0.054460682,0
1.0900000000000007,12.397243199854291,-0.11987198417874363,-1.3555038329481859,-0.06051960156291089,10.8612585,-0.40250337,-2.2902362,0.6115634,9.009509,-8.273959,1.5961657,0.3207918,-0.28915948,0.13676181,0.8915013,-8.4053,7.948916,1.0594649,-0.11987198,-1.3555038,-0.060519602,0
1.1000000000000008,12.397243199854291,-0.11987198417874363,-1.3555038329481859,-0.06051960156291089,10.8612585,-0.40250337,-2.2902362,0.6115634,8.925192,-8.194204,1.606764,0.3218077,-0.28334433,0.13396268,0.89342535,-8.457979,8.001792,1.0603498,-0.11987198,-1.3555038,-0.060519602,0
1.1100000000000008,12.397243199854291,-0.11987198417874363,-1.3555038329481859,-0.06051960156291089,10.8612585,-0.40250337,-2.2902362,0.6115634,8.840353,-8.113926,1.6173762,0.3228087,-0.27751604,0.13115732,0.8953079,-8.509693,8.053718,1.0622411,-0.11987198,-1.3555038,-0.060519602,0
1.1200000000000008,12.035312251475833,-0.09463358349525156,-1.011247973984155,-0.07157120710424184,11.123424,-0.2551906,-2.3922613,0.5417629,8.755002,-8.0331335,1.6280122,0.32379472,-0.27167487,0.12834588,0.8971489,-8.560433,8.104683,1.0651203,-0.11987198,-1.3555038,-0.060519602,0
1.1300000000000008,12.035312251475833,-0.09463358349525156,-1.011247973984155,-0.07157120710424184,11.123424,-0.2551906,-2.3922613,0.5417629,8.669155,-7.951843,1.6386669,0.324632,-0.2673343,0.12618533,0.8984558,-8.608832,8.153307,1.0659041,-0.09463359,-1.011248,-0.07157121,0
1.1400000000000008,12.035312251475833,-0.09463358349525156,-1.011247973984155,-0.07157120710424184,11.123424,-0.2551906,-2.3922613,0.5417629,8.582828,-7.87007,1.6493328,0.32546082,-0.2629868,0.12402149,0.8997394,-8.656519,8.201218,1.0673797,-0.09463359,-1.011248,-0.07157121,0
1.1500000000000008,12.035312251475833,-0.09463358349525156,-1.011247973984155,-0.07157120710424184,11.123424,-0.2551906,-2.3922613,0.5417629,8.496027,-7.7878213,1.6600168,0.32628122,-0.25863248,0.12185445,0.90099967,-8.70349,8.248409,1.0695367,-0.09463359,-1.011248,-0.07157121,0
1.1600000000000008,10.979582213319052,-0.10051970948404829,-2.2507484052606443,-0.07474508781242271,10.663238,0.16344757,-2.9180322,0.6410618,8.40876,-7.7051044,1.6707258,0.32709315,-0.25427145,0.11968424,0.9022366,-8.749741,8.294877,1.0723647,-0.09463359,-1.011248,-0.07157121,1
1.1700000000000008,10.979582213319052,-0.10051970948404829,-2.2507484052606443,-0.07474508781242271,10.663238,0.16344757,-2.9180322,0.6410618,8.321062,-7.621953,1.6814097,0.32611865,-0.24042878,0.11645098,0.906796,-8.789503,8.3350725,1.0646687,0.16344757,-2.9180322,0.6410618,1
1.1800000000000008,10.979582213319052,-0.10051970948404829,-2.2507484052606443,-0.07474508781242271,10.663238,0.16344757,-2.9180322,0.6410618,8.232977,-7.5384073,1.6920246,0.32507116,-0.22653231,0.113191664,0.9111524,-8.827068,8.373736,1.0585662,0.16344757,-2.9180322,0.6410618,1
1.1900000000000008,10.979582213319052,-0.10051970948404829,-2.2507484052606443,-0.07474508781242271,10.663238,0.16344757,-2.9180322,0.6410618,8.144528,-7.4544835,1.702586,0.3239509,-0.21258515,0.10990701,0.9153049,-8.862392,8.410853,1.0539769,0.16344757,-2.9180322,0.6410618,1
1.2000000000000008,10.915919022390257,-0.1821633590724335,-0.38449004918071894,-0.1609726577120577,10.462342,-0.40973985,-3.4289308,0.5472102,8.055738,-7.370196,1.7131089,0.32275814,-0.1985904,0.10659777,0.91925246,-8.895433,8.446404,1.0508193,0.16344757,-2.9180322,0.6410618,0
1.2100000000000009,10.915919022390257,-0.1821633590724335,-0.38449004918071894,-0.1609726577120577,10.462342,-0.40973985,-3.4289308,0.5472102,7.9666224,-7.2855554,1.7236171,0.3235212,-0.19720243,0.104979895,0.91946906,-8.927712,8.481647,1.0508608,-0.18216336,-0.38449004,-0.16097265,0
1.2200000000000009,10.915919022390257,-0.1821633590724335,-0.38449004918071894,-0.1609726577120577,10.462342,-0.40973985,-3.4289308,0.5472102,7.877185,-7.2005644,1.7341268,0.3242826,-0.19581345,0.10336148,0.91968113,-8.959819,8.516504,1.0510961,-0.18216336,-0.38449004,-0.16097265,0
1.2300000000000009,10.915919022390257,-0.1821633590724335,-0.38449004918071894,-0.1609726577120577,10.462342,-0.40973985,-3.4289308,0.5472102,7.787427,-7.1152267,1.7446398,0.3250423,-0.19442345,0.10174253,0.91988844,-8.991753,8.550975,1.0515237,-0.18216336,-0.38449004,-0.16097265,0
1.2400000000000009,10.915919022390257,-0.1821633590724335,-0.38449004918071894,-0.1609726577120577,9.189421,0.05832639,-4.514084,0.015680745,7.6973505,-7.0295463,1.7551578,0.32580036,-0.19303246,0.100123055,0.920091,-9.023514,8.585059,1.0521414,-0.18216336,-0.38449004,-0.16097265,0
1.2500000000000009,10.915919022390257,-0.1821633590724335,-0.38449004918071894,-0.1609726577120577,9.189421,0.05832639,-4.514084,0.015680745,7.6069574,-6.9435267,1.7656832,0.32655674,-0.19164045,0.09850307,0.92028874,-9.055102,8.618755,1.0529475,-0.18216336,-0.38449004,-0.16097265,0
1.260000000000001,10.915919022390257,-0.1821633590724335,-0.38449004918071894,-0.1609726577120577,9.189421,0.05832639,-4.514084,0.015680745,7.516249,-6.8571725,1.7762173,0.3273114,-0.19024746,0.09688257,0.92048174,-9.086519,8.652063,1.0539399,-0.18216336,-0.38449004,-0.16097265,0
1.270000000000001,10.915919022390257,-0.1821633590724335,-0.38449004918071894,-0.1609726577120577,9.189421,0.05832639,-4.514084,0.015680745,7.4252276,-6.770487,1.7867626,0.32806438,-0.18885349,0.09526156,0.92067,-9.1177635,8.684981,1.0551171,-0.18216336,-0.38449004,-0.16097265,0
1.280000000000001,10.222022903125138,-0.14210652355861014,-2.116712124863602,-0.15354706013781624,9.7238655,-0.25432453,-4.9585752,0.22403662,7.3338943,-6.683474,1.7973205,0.32881567,-0.18745854,0.093640074,0.92085344,-9.148835,8.717508,1.0564768,-0.18216336,-0.38449004,-0.16097265,0
1.290000000000001,10.222022903125138,-0.14210652355861014,-2.116712124863602,-0.15354706013781624,9.7238655,-0.25432453,-4.9585752,0.22403662,7.242263,-6.596149,1.8078619,0.33036187,-0.17800774,0.0893566,0.9225994,-9.177286,8.747232,1.0519483,-0.14210652,-2.116712,-0.15354706,0
1.300000000000001,10.222022903125138,-0.14210652355861014,-2.116712124863602,-0.15354706013781624,9.7238655,-0.25432453,-4.9585752,0.22403662,7.150354,-6.508534,1.8183624,0.3318707,-0.1685368,0.085063025,0.924241,-9.204277,8.775598,1.0482703,-0.14210652,-2.116712,-0.15354706,0
1.310000000000001,10.222022903125138,-0.14210652355861014,-2.116712124863602,-0.15354706013781624,9.7238655,-0.25432453,-4.9585752,0.22403662,7.0581827,-6.420642,1.82883,0.33334202,-0.15904678,0.08075982,0.92577803,-9.229798,8.8025875,1.0454006,-0.14210652,-2.116712,-0.15354706,0
1.320000000000001,10.228615630842983,-0.019979413022151723,-0.7827261393374663,-0.1412456816009873,10.279625,-0.0813908,-4.491412,-0.3099981,6.9657636,-6.3324866,1.8392727,0.33477563,-0.14953879,0.07644749,0.92721045,-9.25384,8.828188,1.0432963,-0.14210652,-2.116712,-0.15354706,0
1.330000000000001,10.228615630842983,-0.019979413022151723,-0.7827261393374663,-0.1412456816009873,10.279625,-0.0813908,-4.491412,-0.3099981,6.8731103,-6.2440815,1.849698,0.33571208,-0.14599629,0.074938476,0.92755955,-9.276755,8.852745,1.0418106,-0.019979414,-0.78272617,-0.14124568,0
1.340000000000001,10.228615630842983,-0.019979413022151723,-0.7827261393374663,-0.1412456816009873,10.279625,-0.0813908,-4.491412,-0.3099981,6.7802305,-6.1554337,1.8601098,0.33664316,-0.14245148,0.07342827,0.927894,-9.299097,8.876804,1.0405835,-0.019979414,-0.78272617,-0.14124568,0
1.350000000000001,10.228615630842983,-0.019979413022151723,-0.7827261393374663,-0.1412456816009873,10.279625,-0.0813908,-4.491412,-0.3099981,6.6871305,-6.066547,1.8705105,0.33756894,-0.13890441,0.0719169,0.9282137,-9.320866,8.900366,1.0396093,-0.019979414,-0.78272617,-0.14124568,0
1.360000000000001,9.921855209411037,0.057898632570761194,-1.2256795647136545,-0.14217776683176664,9.731666,-0.2498162,-4.7506995,0.04925367,6.5938153,-5.977428,1.8809028,0.33848938,-0.13535516,0.07040439,0.9285188,-9.34206,8.923427,1.0388819,-0.019979414,-0.78272617,-0.14124568,0
1.370000000000001,9.921855209411037,0.057898632570761194,-1.2256795647136545,-0.14217776683176664,9.731666,-0.2498162,-4.7506995,0.04925367,6.500294,-5.888084,1.8912746,0.33961365,-0.12961434,0.06850124,0.9290696,-9.361921,8.945228,1.0355153,0.057898633,-1.2256795,-0.14217776,0
1.380000000000001,9.921855209411037,0.057898632570761194,-1.2256795647136545,-0.14217776683176664,9.731666,-0.2498162,-4.7506995,0.04925367,6.4065795,-5.7985253,1.9016144,0.34072495,-0.123868585,0.06659548,0.9295849,-9.380852,8.966327,1.0324976,0.057898633,-1.2256795,-0.14217776,0
1.390000000000001,9.921855209411037,0.057898632570761194,-1.2256795647136545,-0.14217776683176664,9.731666,-0.2498162,-4.7506995,0.04925367,6.3126802,-5.7087593,1.9119257,0.34182325,-0.1181181,0.06468718,0.9300648,-9.398848,8.986721,1.0298147,0.057898633,-1.2256795,-0.14217776,0
1.400000000000001,10.181774689397317,0.13620095987758274,0.7579193222315826,-0.11706505524108389,9.015978,-0.27848357,-1.2568289,-0.11098041,6.218606,-5.6187935,1.9222116,0.34290853,-0.11236311,0.06277641,0.9305092,-9.415908,9.006405,1.0274522,0.057898633,-1.2256795,-0.14217776,0
1.410000000000001,10.181774689397317,0.13620095987758274,0.7579193222315826,-0.11706505524108389,9.015978,-0.27848357,-1.2568289,-0.11098041,6.1243615,-5.5286303,1.9324876,0.34328923,-0.11569173,0.064643316,0.9298329,-9.432996,9.026365,1.0277209,0.13620096,0.7579193,-0.11706506,0
1.420000000000001,10.181774689397317,0.13620095987758274,0.7579193222315826,-0.11706505524108389,9.015978,-0.27848357,-1.2568289,-0.11098041,6.0299444,-5.438265,1.9427652,0.34366468,-0.119018584,0.066509254,0.9291425,-9.4505625,9.046913,1.0277843,0.13620096,0.7579193,-0.11706506,0
1.430000000000001,10.181774689397317,0.13620095987758274,0.7579193222315826,-0.11706505524108389,9.015978,-0.27848357,-1.2568289,-0.11098041,5.935349,-5.34769,1.9530426,0.34403488,-0.12234364,0.06837418,0.92843795,-9.468606,9.068046,1.0276368,0.13620096,0.7579193,-0.11706506,0
1.440000000000001,10.181774689397317,0.13620095987758274,0.7579193222315826,-0.11706505524108389,8.228955,-0.033423625,-0.94305015,-0.033165008,5.8405704,-5.2569013,1.9633174,0.34439996,-0.12566684,0.07023807,0.92771935,-9.487124,9.089763,1.0272722,0.13620096,0.7579193,-0.11706506,0
1.450000000000001,10.181774689397317,0.13620095987758274,0.7579193222315826,-0.11706505524108389,8.228955,-0.033423625,-0.94305015,-0.033165008,5.7456045,-5.1658926,1.9735873,0.3447598,-0.12898813,0.0721009,0.9269867,-9.506116,9.112064,1.0266851,0.13620096,0.7579193,-0.11706506,0
1.460000000000001,10.181774689397317,0.13620095987758274,0.7579193222315826,-0.11706505524108389,8.228955,-0.033423625,-0.94305015,-0.033165008,5.6504464,-5.0746584,1.9838501,0.34511438,-0.13230747,0.07396263,0.92623997,-9.525579,9.134949,1.0258697,0.13620096,0.7579193,-0.11706506,0
1.470000000000001,10.181774689397317,0.13620095987758274,0.7579193222315826,-0.11706505524108389,8.228955,-0.033423625,-0.94305015,-0.033165008,5.5550914,-4.983192,1.9941038,0.34546372,-0.1356248,0.07582323,0.9254792,-9.545512,9.158417,1.0248201,0.13620096,0.7579193,-0.11706506,0
1.480000000000001,10.061580835534354,0.19876209742463638,-0.6066927058164298,-0.11353460056591076,9.242718,-0.04198476,-0.9922424,0.14170942,5.4595346,-4.891488,2.0043457,0.34580782,-0.13894007,0.07768269,0.9247044,-9.565913,9.182465,1.0235305,0.13620096,0.7579193,-0.11706506,1
1.490000000000001,10.061580835534354,0.19876209742463638,-0.6066927058164298,-0.11353460056591076,9.242718,-0.04198476,-0.9922424,0.14170942,5.3637824,-4.7995534,2.0145295,0.34550452,-0.13436824,0.07587042,0.9256434,-9.584458,9.204401,1.0132803,-0.04198476,-0.9922424,0.14170942,1
1.500000000000001,10.061580835534354,0.19876209742463638,-0.6066927058164298,-0.11353460056591076,9.242718,-0.04198476,-0.9922424,0.14170942,5.267848,-4.7074018,2.024612,0.34519252,-0.12979305,0.07405624,0.9265591,-9.602365,9.225741,1.0033092,-0.04198476,-0.9922424,0.14170942,1
1.5100000000000011,10.061580835534354,0.19876209742463638,-0.6066927058164298,-0.11353460056591076,9.242718,-0.04198476,-0.9922424,0.14170942,5.1717377,-4.61504,2.0345964,0.34487185,-0.12521458,0.072240196,0.9274515,-9.619629,9.246484,0.99360853,-0.04198476,-0.9922424,0.14170942,1
1.5200000000000011,10.387745687706994,0.30174376579988804,0.14095338879687264,-0.08927439603184174,9.7730055,0.45464557,-1.4110786,-0.12423663,5.0754576,-4.5224733,2.044485,0.34454247,-0.12063295,0.07042233,0.9283205,-9.636249,9.266626,0.9841695,-0.04198476,-0.9922424,0.14170942,0
1.5300000000000011,10.387745687706994,0.30174376579988804,0.14095338879687264,-0.08927439603184174,9.7730055,0.45464557,-1.4110786,-0.12423663,4.979004,-4.4296956,2.0543354,0.3450887,-0.12079863,0.072011776,0.92797405,-9.654437,9.288965,0.9858727,0.30174378,0.14095339,-0.0892744,0
1.5400000000000011,10.387745687706994,0.30174376579988804,0.14095338879687264,-0.08927439603184174,9.7730055,0.45464557,-1.4110786,-0.12423663,4.882369,-4.336693,2.0642023,0.3456339,-0.12096396,0.07360101,0.9276249,-9.672526,9.311632,0.98752004,0.30174378,0.14095339,-0.0892744,0
1.5500000000000012,10.387745687706994,0.30174376579988804,0.14095338879687264,-0.08927439603184174,9.7730055,0.45464557,-1.4110786,-0.12423663,4.785554,-4.2434616,2.0740855,0.34617808,-0.12112893,0.075190015,0.92727286,-9.690516,9.334624,0.9891107,0.30174378,0.14095339,-0.0892744,0
1.5600000000000012,10.437437567256424,0.41640196188920503,-0.5161498757085984,-0.09607792141344194,9.607815,0.24681282,-1.6039118,-0.20209478,4.6885595,-4.1499987,2.0839846,0.34672123,-0.121293545,0.07677881,0.9269182,-9.708406,9.357944,0.99064356,0.30174378,0.14095339,-0.0892744,0
1.5700000000000012,10.437437567256424,0.41640196188920503,-0.5161498757085984,-0.09607792141344194,9.607815,0.24681282,-1.6039118,-0.20209478,4.591387,-4.056301,2.093901,0.34761524,-0.11821573,0.07775516,0.9268996,-9.726064,9.381574,0.9926625,0.41640195,-0.5161499,-0.09607792,0
1.5800000000000012,10.437437567256424,0.41640196188920503,-0.5161498757085984,-0.09607792141344194,9.607815,0.24681282,-1.6039118,-0.20209478,4.4940405,-3.962367,2.1038382,0.34850538,-0.1151366,0.07873064,0.92687064,-9.743039,9.405192,0.9948022,0.41640195,-0.5161499,-0.09607792,0
1.5900000000000012,10.437437567256424,0.41640196188920503,-0.5161498757085984,-0.09607792141344194,9.607815,0.24681282,-1.6039118,-0.20209478,4.3965282,-3.8681972,2.1137974,0.34939158,-0.112056166,0.07970524,0.9268312,-9.759333,9.428796,0.99705845,0.41640195,-0.5161499,-0.09607792,0
1.6000000000000012,10.480295109875387,0.4122097594434181,0.22989225736842644,-0.05052747290756712,10.252251,0.28748387,-0.8195619,-0.21642002,4.2988563,-3.773791,2.1237798,0.35027385,-0.10897447,0.08067894,0.9267814,-9.774943,9.452384,0.9994269,0.41640195,-0.5161499,-0.09607792,0
1.6100000000000012,10.480295109875387,0.4122097594434181,0.22989225736842644,-0.05052747290756712,10.252251,0.28748387,-0.8195619,-0.21642002,4.2010303,-3.6791484,2.133788,0.35063887,-0.10933792,0.08296394,0.92639875,-9.790148,9.476235,1.0022409,0.41220975,0.22989225,-0.050527472,0
1.6200000000000012,10.480295109875387,0.4122097594434181,0.22989225736842644,-0.05052747290756712,10.252251,0.28748387,-0.8195619,-0.21642002,4.1030536,-3.584265,2.143824,0.3510019,-0.10970075,0.08524847,0.92601085,-9.805239,9.500559,1.004959,0.41220975,0.22989225,-0.050527472,0
1.6300000000000012,10.480295109875387,0.4122097594434181,0.22989225736842644,-0.05052747290756712,10.252251,0.28748387,-0.8195619,-0.21642002,4.004926,-3.4891355,2.1538868,0.35136297,-0.11006296,0.08753252,0.92561775,-9.820217,9.5253525,1.0075792,0.41220975,0.22989225,-0.050527472,0
1.6400000000000012,10.480295109875387,0.4122097594434181,0.22989225736842644,-0.05052747290756712,10.465016,0.06486104,-0.41527146,-0.063381135,3.9066496,-3.3937562,2.1639752,0.35172203,-0.11042455,0.089816086,0.9252195,-9.835081,9.550617,1.010099,0.41220975,0.22989225,-0.050527472,1
1.6500000000000012,10.480295109875387,0.4122097594434181,0.22989225736842644,-0.05052747290756712,10.465016,0.06486104,-0.41527146,-0.063381135,3.8082252,-3.2981226,2.174088,0.35223675,-0.10841761,0.08935064,0.9253061,-9.849717,9.576055,1.0124499,0.06486104,-0.41527146,-0.063381135,1
1.6600000000000013,10.480295109875387,0.4122097594434181,0.22989225736842644,-0.05052747290756712,10.465016,0.06486104,-0.41527146,-0.063381135,3.7096562,-3.2022357,2.1842246,0.35274985,-0.10641018,0.08888479,0.9253885,-9.863991,9.601267,1.0149094,0.06486104,-0.41527146,-0.063381135,1
1.6700000000000013,10.480295109875387,0.4122097594434181,0.22989225736842644,-0.05052747290756712,10.465016,0.06486104,-0.41527146,-0.063381135,3.6109464,-3.106098,2.1943865,0.35326138,-0.10440228,0.08841854,0.9254668,-9.877902,9.626254,1.017476,0.06486104,-0.41527146,-0.063381135,1
1.6800000000000013,10.392580843988572,0.4749268671469865,-0.35782986652593635,-0.024106115451041164,10.018493,-0.059886817,-1.2770344,-0.089644566,3.5120993,-3.0097115,2.204574,0.35377133,-0.1023939,0.0879519,0.9255408,-9.891452,9.651015,1.0201478,0.06486104,-0.41527146,-0.063381135,1
1.6900000000000013,10.392580843988572,0.4749268671469865,-0.35782986652593635,-0.024106115451041164,10.018493,-0.059886817,-1.2770344,-0.089644566,3.413122,-2.9130843,2.2147682,0.35470986,-0.09662746,0.085368186,0.9260434,-9.9038725,9.674261,1.0187031,-0.059886817,-1.2770344,-0.089644566,1
1.7000000000000013,10.392580843988572,0.4749268671469865,-0.35782986652593635,-0.024106115451041164,10.018493,-0.059886817,-1.2770344,-0.089644566,3.314025,-2.8162289,2.2249491,0.3556338,-0.09085705,0.08278097,0.9265079,-9.9154,9.696645,1.0175722,-0.059886817,-1.2770344,-0.089644566,1
1.7100000000000013,10.392580843988572,0.4749268671469865,-0.35782986652593635,-0.024106115451041164,10.018493,-0.059886817,-1.2770344,-0.089644566,3.214817,-2.7191541,2.2351203,0.35654312,-0.08508291,0.08019035,0.9269344,-9.926032,9.718162,1.0167391,-0.059886817,-1.2770344,-0.089644566,1
1.7200000000000013,10.27791754775318,0.6628974560944297,0.25354013404679754,0.017178052991937476,10.487256,0.19772226,-1.3717966,-0.36932716,3.1155074,-2.6218686,2.2452846,0.35743782,-0.07930527,0.07759644,0.9273228,-9.93577,9.738807,1.0161884,-0.059886817,-1.2770344,-0.089644566,0
1.7300000000000013,10.27791754775318,0.6628974560944297,0.25354013404679754,0.017178052991937476,10.487256,0.19772226,-1.3717966,-0.36932716,3.016103,-2.5243766,2.255457,0.35752043,-0.07928895,0.08112948,0.9269899,-9.945085,9.759676,1.0182945,0.66289747,0.25354013,0.017178053,0
1.7400000000000013,10.27791754775318,0.6628974560944297,0.25354013404679754,0.017178052991937476,10.487256,0.19772226,-1.3717966,-0.36932716,2.9166067,-2.4266725,2.26565,0.3575985,-0.07927163,0.08466149,0.92664534,-9.95413,9.781213,1.0202838,0.66289747,0.25354013,0.017178053,0
1.7500000000000013,10.27791754775318,0.6628974560944297,0.25354013404679754,0.017178052991937476,10.487256,0.19772226,-1.3717966,-0.36932716,2.8170216,-2.32875,2.2758625,0.35767207,-0.079253316,0.08819244,0.92628914,-9.962905,9.803416,1.0221516,0.66289747,0.25354013,0.017178053,0
1.7600000000000013,10.280231128195265,0.7522019895201942,0.734669605653839,0.05844269769253158,12.096338,-0.076506265,-3.4161494,0.14030842,2.7173498,-2.230602,2.2860928,0.35774115,-0.079234,0.09172228,0.92592126,-9.97141,9.826285,1.0238924,0.66289747,0.25354013,0.017178053,0
1.7700000000000014,10.280231128195265,0.7522019895201942,0.734669605653839,0.05844269769253158,12.096338,-0.076506265,-3.4161494,0.14030842,2.6175938,-2.1322215,2.2963398,0.3574267,-0.08126184,0.09654065,0.92537695,-9.979758,9.849969,1.02548,0.752202,0.7346696,0.058442697,0
1.7800000000000014,10.280231128195265,0.7522019895201942,0.734669605653839,0.05844269769253158,12.096338,-0.076506265,-3.4161494,0.14030842,2.5177546,-2.0335991,2.3066013,0.35710233,-0.08328744,0.101356335,0.924807,-9.988135,9.874702,1.02681,0.752202,0.7346696,0.058442697,0
1.7900000000000014,10.280231128195265,0.7522019895201942,0.734669605653839,0.05844269769253158,12.096338,-0.076506265,-3.4161494,0.14030842,2.4178314,-1.934724,2.3168747,0.35676807,-0.085310735,0.106169224,0.9242114,-9.996541,9.900482,1.0278716,0.752202,0.7346696,0.058442697,0
1.8000000000000014,9.942281715880949,0.600114845541573,-0.16027679869524966,0.1098438966433604,10.262337,-0.06140568,-1.6392206,-0.5580049,2.317824,-1.835586,2.3271573,0.3564239,-0.08733166,0.110979155,0.9235902,-10.004975,9.927305,1.0286535,0.752202,0.7346696,0.058442697,0
1.8100000000000014,9.942281715880949,0.600114845541573,-0.16027679869524966,0.1098438966433604,10.262337,-0.06140568,-1.6392206,-0.5580049,2.2177339,-1.7361797,2.3374307,0.35626587,-0.085460655,0.11351223,0.9235183,-10.012953,9.953999,1.0259929,0.6001148,-0.1602768,0.109843895,0
1.8200000000000014,9.942281715880949,0.600114845541573,-0.16027679869524966,0.1098438966433604,10.262337,-0.06140568,-1.6392206,-0.5580049,2.1175668,-1.6365049,2.3476772,0.35610428,-0.08358879,0.11604418,0.9234373,-10.020411,9.98102,1.0232817,0.6001148,-0.1602768,0.109843895,0
1.8300000000000014,9.942281715880949,0.600114845541573,-0.16027679869524966,0.1098438966433604,10.262337,-0.06140568,-1.6392206,-0.5580049,2.0173273,-1.5365582,2.3578963,0.35593915,-0.08171609,0.11857497,0.92334706,-10.027347,10.008369,1.0205166,0.6001148,-0.1602768,0.109843895,0
1.8400000000000014,9.942281715880949,0.600114845541573,-0.16027679869524966,0.1098438966433604,11.442812,-0.05773011,-2.219775,-0.3962041,1.9170214,-1.4363363,2.3680873,0.35577047,-0.07984259,0.12110459,0.92324764,-10.033763,10.036046,1.0176935,0.6001148,-0.1602768,0.109843895,0
1.8500000000000014,9.942281715880949,0.600114845541573,-0.16027679869524966,0.1098438966433604,11.442812,-0.05773011,-2.219775,-0.3962041,1.8166538,-1.335836,2.37825,0.35559827,-0.07796829,0.123633,0.92313904,-10.039658,10.06405,1.0148087,0.6001148,-0.1602768,0.109843895,0
1.8600000000000014,9.942281715880949,0.600114845541573,-0.16027679869524966,0.1098438966433604,11.442812,-0.05773011,-2.219775,-0.3962041,1.71623,-1.2350543,2.3883834,0.35542253,-0.07609322,0.12616017,0.92302126,-10.0450325,10.092379,1.0118581,0.6001148,-0.1602768,0.109843895,0
1.8700000000000014,9.942281715880949,0.600114845541573,-0.16027679869524966,0.1098438966433604,11.442812,-0.05773011,-2.219775,-0.3962041,1.6157551,-1.1339875,2.3984866,0.35524324,-0.07421739,0.1286861,0.9228943,-10.049889,10.121034,1.0088379,0.6001148,-0.1602768,0.109843895,0
1.8800000000000014,9.945356802502868,0.42572508039187373,0.7497872819773631,0.1825136377203196,12.780904,-0.3581831,-3.0306087,0.48683798,1.5152342,-1.0326325,2.4085593,0.35506043,-0.07234082,0.13121074,0.92275816,-10.054222,10.150014,1.0057443,0.6001148,-0.1602768,0.109843895,0
1.8900000000000015,9.945356802502868,0.42572508039187373,0.7497872819773631,0.1825136377203196,12.780904,-0.3581831,-3.0306087,0.48683798,1.4146717,-0.93098545,2.418601,0.35387698,-0.07492394,0.13457079,0.9225227,-10.058332,10.179496,1.0025381,0.42572507,0.7497873,0.18251364,0
1.9000000000000015,9.945356802502868,0.42572508039187373,0.7497872819773631,0.1825136377203196,12.780904,-0.3581831,-3.0306087,0.48683798,1.3140666,-0.8290398,2.4286094,0.35268667,-0.07750561,0.13792823,0.9222694,-10.062708,10.209753,0.999076,0.42572507,0.7497873,0.18251364,0
1.9100000000000015,9.945356802502868,0.42572508039187373,0.7497872819773631,0.1825136377203196,12.780904,-0.3581831,-3.0306087,0.48683798,1.2134166,-0.72678775,2.4385817,0.3514895,-0.08008577,0.14128298,0.92199814,-10.06735,10.240782,0.99535096,0.42572507,0.7497873,0.18251364,0
1.9200000000000015,9.48872273968605,0.1552989669688152,-0.9340342798853344,0.26046959706092754,12.259024,-0.46381932,-2.7280486,0.36085922,1.1127188,-0.6242215,2.4485154,0.35028553,-0.08266438,0.14463498,0.921709,-10.072261,10.272579,0.9913562,0.42572507,0.7497873,0.18251364,0
1.9300000000000015,9.48872273968605,0.1552989669688152,-0.9340342798853344,0.26046959706092754,12.259024,-0.46381932,-2.7280486,0.36085922,1.0119729,-0.5213422,2.458387,0.34982058,-0.077898495,0.1438207,0.92242783,-10.076822,10.303206,0.98294854,0.15529896,-0.9340343,0.2604696,0
1.9400000000000015,9.48872273968605,0.1552989669688152,-0.9340342798853344,0.26046959706092754,12.259024,-0.46381932,-2.7280486,0.36085922,0.911185,-0.4181589,2.468175,0.3493472,-0.07313074,0.14300296,0.92312443,-10.080627,10.333386,0.97472745,0.15529896,-0.9340343,0.2604696,0
1.9500000000000015,9.48872273968605,0.1552989669688152,-0.9340342798853344,0.26046959706092754,12.259024,-0.46381932,-2.7280486,0.36085922,0.81036294,-0.31467602,2.477882,0.34886542,-0.06836122,0.14218177,0.92379874,-10.0836735,10.363118,0.9666842,0.15529896,-0.9340343,0.2604696,0
1.9600000000000015,9.384486991803957,-0.16128735672314307,0.008980876381082296,0.3471185310829247,13.220877,-1.067868,-4.2862277,0.953847,0.70951426,-0.21089806,2.4875093,0.3483752,-0.06359005,0.14135715,0.9244508,-10.085959,10.392403,0.9588103,0.15529896,-0.9340343,0.2604696,0
1.9700000000000015,9.384486991803957,-0.16128735672314307,0.008980876381082296,0.3471185310829247,13.220877,-1.067868,-4.2862277,0.953847,0.6086456,-0.106830716,2.4970534,0.34671247,-0.06366706,0.14073738,0.9251649,-10.087789,10.421049,0.9500575,-0.16128735,0.008980877,0.34711853,0
1.9800000000000015,9.384486991803957,-0.16128735672314307,0.008980876381082296,0.3471185310829247,13.220877,-1.067868,-4.2862277,0.953847,0.50775814,-0.0024774317,2.5065105,0.34504846,-0.06374383,0.14011711,0.9258756,-10.089725,10.449592,0.94133556,-0.16128735,0.008980877,0.34711853,0
1.9900000000000015,9.384486991803957,-0.16128735672314307,0.008980876381082296,0.3471185310829247,13.220877,-1.067868,-4.2862277,0.953847,0.40685076,0.10216076,2.5158803,0.3433832,-0.06382036,0.13949633,0.9265829,-10.091767,10.47803,0.9326444,-0.16128735,0.008980877,0.34711853,0
2.0000000000000013,,,,,12.67557,-0.8108716,-3.34367,0.7102809,0.30592245,0.20708281,2.5251634,0.34171665,-0.063896656,0.13887502,0.9272868,-10.093916,10.506364,0.92398405,-0.16128735,0.008980877,0.34711853,0
2.010000000000001,,,,,12.67557,-0.8108716,-3.34367,0.7102809,0.20497477,0.31228018,2.5343442,0.34117302,-0.049204428,0.13113998,0.9295065,-10.095316,10.532775,0.91228014,-0.49902886,-3.2668421,0.56176984,0
2.020000000000001,,,,,12.67557,-0.8108716,-3.34367,0.7102809,0.104022846,0.41773087,2.5434113,0.34053358,-0.03449837,0.12336808,0.9314651,-10.09476,10.557024,0.9012174,-0.49902886,-3.2668421,0.56176984,0
2.0300000000000007,,,,,12.67557,-0.8108716,-3.34367,0.7102809,0.0030863304,0.5234131,2.5523703,0.33979848,-0.019782627,0.11556153,0.933162,-10.092236,10.579094,0.89069766,-0.49902886,-3.2668421,0.56176984,0
2.0400000000000005,,,,,12.67557,-0.8108716,-3.34367,0.7102809,-0.09781506,0.6293052,2.5612266,0.33896795,-0.0050613247,0.10772252,0.93459666,-10.087731,10.598972,0.8806223,-0.49902886,-3.2668421,0.56176984,0
2.0500000000000003,,,,,12.893105,-0.9441458,-3.7566607,0.9968414,-0.19866148,0.735385,2.569984,0.33804217,0.009661398,0.09985324,0.93576884,-10.081242,10.61665,0.87089205,-0.49902886,-3.2668421,0.56176984,1
2.06,,,,,12.893105,-0.9441458,-3.7566607,0.9968414,-0.29941547,0.8416634,2.5788345,0.33523184,0.026137082,0.089018784,0.9375564,-10.06909,10.638406,0.89928436,-0.9441458,-3.7566607,0.9968414,1
2.07,,,,,12.893105,-0.9441458,-3.7566607,0.9968414,-0.40003303,0.9481394,2.5879707,0.3322875,0.04260231,0.078148715,0.93896896,-10.053952,10.656171,0.9279776,-0.9441458,-3.7566607,0.9968414,1
2.0799999999999996,,,,,12.893105,-0.9441458,-3.7566607,0.9968414,-0.5004842,1.0547732,2.5973945,0.32921025,0.059050504,0.0672474,0.9400061,-10.035813,10.669948,0.956773,-0.9441458,-3.7566607,0.9968414,1
2.0899999999999994,,,,,12.349957,-0.91817313,-2.735251,1.2626935,-0.600739,1.1615249,2.607106,0.32600135,0.07547508,0.056319192,0.94066715,-10.01466,10.679745,0.9854712,-0.9441458,-3.7566607,0.9968414,1
2.099999999999999,,,,,12.349957,-0.91817313,-2.735251,1.2626935,-0.7007731,1.2683542,2.6170766,0.32113895,0.08718899,0.047059126,0.941835,-9.99186,10.685635,1.008601,-0.91817313,-2.735251,1.2626935,1
2.109999999999999,,,,,12.349957,-0.91817313,-2.735251,1.2626935,-0.80056953,1.3752276,2.6272771,0.31619692,0.098881274,0.037787396,0.9427692,-9.96711,10.688557,1.0314558,-0.91817313,-2.735251,1.2626935,1
2.1199999999999988,,,,,12.349957,-0.91817313,-2.735251,1.2626935,-0.90010864,1.4821154,2.6377041,0.3111765,0.11054903,0.028506294,0.94346976,-9.9403925,10.688532,1.0539266,-0.91817313,-2.735251,1.2626935,1
2.1299999999999986,,,,,12.549881,-1.8228691,-3.5181186,1.3584915,-0.99937063,1.5889883,2.6483536,0.30607894,0.12218937,0.019218123,0.94393635,-9.911695,10.685588,1.0759053,-0.91817313,-2.735251,1.2626935,1
2.1399999999999983,,,,,12.549881,-1.8228691,-3.5181186,1.3584915,-1.0983331,1.6958151,2.6592298,0.30105227,0.13610679,0.0043975534,0.9438341,-9.880462,10.679098,1.0991744,-1.8228691,-3.5181186,1.3584915,1
2.149999999999998,,,,,12.549881,-1.8228691,-3.5181186,1.3584915,-1.1969726,1.8025551,2.6703339,0.29589355,0.1499645,-0.0104249455,0.94331795,-9.847076,10.668216,1.1215527,-1.8228691,-3.5181186,1.3584915,1
