time-since-start [s],throttle_mpc,roll_mpc,pitch_mpc,yaw_mpc,throttle_nw,roll_nw,pitch_nw,yaw_nw,position_x [m],position_y [m],position_z [m],rotation_w [quaternion],rotation_x [quaternion],rotation_y [quaternion],rotation_z [quaternion],velocity_x [m/s],velocity_y [m/s],velocity_z [m/s],omega_x [rad/s],omega_y [rad/s],omega_z [rad/s],network_used
0.0,6.068986465645115,-2.22143583079284,-5.999999701118602,1.4741796908857014,9.089394,-1.9283437,4.288716,0.54867923,12.912894,-11.834263,1.0952393,-0.28953838,0.46283114,-0.235157,-0.80414927,-3.2239192,3.3651,0.09970869,0.13888502,0.9221162,0.8751289,0
0.01,6.068986465645115,-2.22143583079284,-5.999999701118602,1.4741796908857014,12.310217,-3.1288936,3.148841,0.15970623,12.880389,-11.80033,1.0959464,-0.28562206,0.46371028,-0.23829708,-0.804119,-3.2767549,3.4212508,0.04140948,0.042526856,0.11383341,0.8802469,0
0.02,6.068986465645115,-2.22143583079284,-5.999999701118602,1.4741796908857014,12.310217,-3.1288936,3.148841,0.15970623,12.847365,-11.765845,1.0960617,-0.28233284,0.46166155,-0.2399312,-0.8059714,-3.3276312,3.4753509,-0.018565461,-0.073091246,-0.60265046,0.88817626,0
0.03,6.068986465645115,-2.22143583079284,-5.999999701118602,1.4741796908857014,12.310217,-3.1288936,3.148841,0.15970623,12.813843,-11.73083,1.0955718,-0.27952442,0.4570378,-0.24012916,-0.8095187,-3.3764966,3.5273297,-0.079578176,-0.20270832,-1.2394011,0.8985781,0
0.04,6.068986465645115,-2.22143583079284,-5.999999701118602,1.4741796908857014,12.096298,-2.6343925,2.4032342,-0.0641704,12.779841,-11.695307,1.0944685,-0.27706623,0.45012686,-0.23895244,-0.8145685,-3.4233303,3.5771356,-0.14111416,-0.34207508,-1.8067923,0.91114676,0
0.05,6.068986465645115,-2.22143583079284,-5.999999701118602,1.4741796908857014,12.096298,-2.6343925,2.4032342,-0.0641704,12.745382,-11.659295,1.092749,-0.2748432,0.44116467,-0.23645581,-0.8209286,-3.4681277,3.624727,-0.20276347,-0.48777926,-2.3137531,0.92560726,0
0.060000000000000005,6.068986465645115,-2.22143583079284,-5.999999701118602,1.4741796908857014,12.096298,-2.6343925,2.4032342,-0.0641704,12.710485,-11.62282,1.0904139,-0.27275464,0.43034586,-0.23268859,-0.82841027,-3.5108917,3.6700673,-0.26420468,-0.6370994,-2.7679782,0.9417121,0
0.07,6.068986465645115,-2.22143583079284,-5.999999701118602,1.4741796908857014,12.096298,-2.6343925,2.4032342,-0.0641704,12.675172,-11.585902,1.0874666,-0.27071318,0.41783217,-0.22769581,-0.8368306,-3.5516262,3.713122,-0.32519153,-0.78788364,-3.1761065,0.95923877,0
0.08,9.42334239343103,-2.938720453534881,-5.9999997725904395,2.1439361239688215,13.643421,-3.5728278,2.1604028,-0.13182217,12.6394615,-11.548567,1.0839124,-0.26864332,0.40375924,-0.22151919,-0.84601337,-3.5903325,3.753857,-0.38554168,-0.93844676,-3.5438712,0.9779875,0
0.09,9.42334239343103,-2.938720453534881,-5.9999997725904395,2.1439361239688215,13.643421,-3.5728278,2.1604028,-0.13182217,12.603271,-11.510728,1.0798647,-0.26631558,0.38834864,-0.21407376,-0.85582346,-3.6473908,3.8135552,-0.42373058,-1.1691937,-3.8462107,1.0279489,0
0.09999999999999999,9.42334239343103,-2.938720453534881,-5.9999997725904395,2.1439361239688215,13.643421,-3.5728278,2.1604028,-0.13182217,12.566523,-11.472309,1.0754433,-0.26353288,0.37176916,-0.2052765,-0.8661407,-3.7016144,3.869783,-0.46029872,-1.3908756,-4.1283345,1.0778661,0
0.10999999999999999,9.42334239343103,-2.938720453534881,-5.9999997725904395,2.1439361239688215,13.643421,-3.5728278,2.1604028,-0.13182217,12.529246,-11.433345,1.0706646,-0.26027775,0.35405615,-0.19516823,-0.87681764,-3.7529857,3.922385,-0.4951932,-1.6037962,-4.392284,1.1276424,0
0.11999999999999998,9.42334239343103,-2.938720453534881,-5.9999997725904395,2.1439361239688215,13.643421,-3.5728278,2.1604028,-0.13182217,12.491472,-11.393874,1.0655454,-0.25653458,0.33524176,-0.18378867,-0.8877076,-3.8015347,3.971283,-0.52831995,-1.8068519,-4.638418,1.177069,0
0.12999999999999998,13.255325539909013,-1.7237352919698592,-5.831932265428709,0.5575206014082075,14.881748,-4.3701787,2.3672202,0.20674819,12.453223,-11.35393,1.0601087,-0.2523002,0.31538638,-0.17122851,-0.8986417,-3.8480287,4.0171523,-0.55850464,-1.9830536,-4.8509526,1.2245134,0
0.13999999999999999,13.255325539909013,-1.7237352919698592,-5.831932265428709,0.5575206014082075,14.881748,-4.3701787,2.3672202,0.20674819,12.414428,-11.313455,1.0545301,-0.24790397,0.29456365,-0.1580382,-0.9092854,-3.9105954,4.077389,-0.55648744,-1.9425977,-5.003862,1.1917839,0
0.15,13.255325539909013,-1.7237352919698592,-5.831932265428709,0.5575206014082075,14.881748,-4.3701787,2.3672202,0.20674819,12.375022,-11.272399,1.0489941,-0.2436319,0.27285832,-0.14467618,-0.91938066,-3.9699483,4.133141,-0.55001557,-1.9084702,-5.1329336,1.1606605,0
0.16,15.026409992562346,-0.523573950690244,-4.179188170647639,-0.6153435541946641,15.433748,-3.6798081,2.441402,-0.5081387,12.335041,-11.230808,1.0435442,-0.2394376,0.2503775,-0.13115902,-0.9288586,-4.0256996,4.184275,-0.53928906,-1.8796794,-5.2418838,1.1310642,0
0.17,15.026409992562346,-0.523573950690244,-4.179188170647639,-0.6153435541946641,15.433748,-3.6798081,2.441402,-0.5081387,12.294487,-11.188698,1.0382969,-0.23545453,0.2277412,-0.11807372,-0.9374187,-4.0844264,4.2369146,-0.50950515,-1.6686016,-5.075907,1.0453675,0
0.18000000000000002,15.026409992562346,-0.523573950690244,-4.179188170647639,-0.6153435541946641,15.433748,-3.6798081,2.441402,-0.5081387,12.253368,-11.146088,1.0333681,-0.23181967,0.20547162,-0.10589513,-0.9448954,-4.138431,4.2844024,-0.4756853,-1.490393,-4.935863,0.963876,0
0.19000000000000003,15.026409992562346,-0.523573950690244,-4.179188170647639,-0.6153435541946641,15.433748,-3.6798081,2.441402,-0.5081387,12.211735,-11.103026,1.0287955,-0.22850108,0.18352075,-0.09448554,-0.9514094,-4.187542,4.326984,-0.43832445,-1.3399361,-4.8176975,0.8863833,0
0.20000000000000004,15.239924217068406,-0.029623041005402036,-2.816203894330008,-1.0948444721196948,14.142246,-2.5399866,3.1067648,-0.8965551,12.169636,-11.059565,1.0246122,-0.22547033,0.1618457,-0.08372804,-0.95705736,-4.23162,4.364874,-0.3978733,-1.2129095,-4.717991,0.8126931,0
0.21000000000000005,15.239924217068406,-0.029623041005402036,-2.816203894330008,-1.0948444721196948,14.142246,-2.5399866,3.1067648,-0.8965551,12.127118,-11.015742,1.0208572,-0.22274783,0.14089377,-0.07382685,-0.96181184,-4.27113,4.398762,-0.35275334,-1.0288044,-4.4212475,0.7190897,0
0.22000000000000006,15.239924217068406,-0.029623041005402036,-2.816203894330008,-1.0948444721196948,14.142246,-2.5399866,3.1067648,-0.8965551,12.084231,-10.971603,1.0175648,-0.22036496,0.121024445,-0.06494064,-0.96569926,-4.305525,4.4284563,-0.30539832,-0.87334293,-4.170818,0.63007945,0
0.23000000000000007,15.239924217068406,-0.029623041005402036,-2.816203894330008,-1.0948444721196948,14.142246,-2.5399866,3.1067648,-0.8965551,12.041025,-10.927187,1.0147554,-0.21831053,0.10208134,-0.056915987,-0.9688552,-4.3349376,4.4543104,-0.25622705,-0.74207103,-3.9594712,0.5454369,0
0.24000000000000007,15.239924217068406,-0.029623041005402036,-2.816203894330008,-1.0948444721196948,12.546793,-1.3235649,4.623866,-1.2514352,11.99755,-10.88253,1.0124452,-0.21657196,0.083929144,-0.049622804,-0.9713856,-4.3594923,4.476628,-0.20559348,-0.63122743,-3.7811065,0.46494782,0
0.25000000000000006,15.239924217068406,-0.029623041005402036,-2.816203894330008,-1.0948444721196948,12.546793,-1.3235649,4.623866,-1.2514352,11.953853,-10.8376665,1.0106474,-0.21513589,0.06645135,-0.042951033,-0.97337353,-4.3793044,4.4956684,-0.15380068,-0.53763473,-3.630575,0.38840836,0
0.26000000000000006,15.239924217068406,-0.029623041005402036,-2.816203894330008,-1.0948444721196948,12.546793,-1.3235649,4.623866,-1.2514352,11.909981,-10.792627,1.0093722,-0.21398863,0.049548093,-0.036807764,-0.97488415,-4.3944798,4.511655,-0.10111177,-0.45860907,-3.5035322,0.3156247,0
0.2700000000000001,15.239924217068406,-0.029623041005402036,-2.816203894330008,-1.0948444721196948,12.546793,-1.3235649,4.623866,-1.2514352,11.865978,-10.747443,1.0086275,-0.21311651,0.033134054,-0.031114692,-0.9759689,-4.4051127,4.5247765,-0.047758523,-0.39188448,-3.396312,0.24641258,0
0.2800000000000001,16.059331832455406,0.47723894462148986,-0.3673010714236016,-1.318654710469407,11.823458,-0.3456376,5.1724586,-1.5608412,11.821894,-10.702142,1.0084188,-0.21250597,0.0171366,-0.025805898,-0.9766686,-4.41129,4.5351934,0.0060519017,-0.33554664,-3.3058207,0.18059672,0
0.2900000000000001,16.059331832455406,0.47723894462148986,-0.3673010714236016,-1.318654710469407,11.823458,-0.3456376,5.1724586,-1.5608412,11.777768,-10.656746,1.0087905,-0.21215177,0.0024091108,-0.021231992,-0.97700304,-4.4132447,4.5435057,0.068311825,-0.20898487,-2.847535,0.10702804,0
0.3000000000000001,16.059331832455406,0.47723894462148986,-0.3673010714236016,-1.318654710469407,11.823458,-0.3456376,5.1724586,-1.5608412,11.733643,-10.611279,1.0097854,-0.21206093,-0.010375487,-0.017668843,-0.9770416,-4.4111023,4.5495543,0.13067225,-0.10210906,-2.4607315,0.037069388,0
0.3100000000000001,16.059331832455406,0.47723894462148986,-0.3673010714236016,-1.318654710469407,11.823458,-0.3456376,5.1724586,-1.5608412,11.689557,-10.565761,1.0114039,-0.21223438,-0.021518508,-0.01496416,-0.97686726,-4.405368,4.553762,0.19300455,-0.011861235,-2.1342592,-0.029456383,0
0.3200000000000001,16.5867626627046,0.8482111337562475,2.009860253021762,-1.395193545128163,12.8042755,-0.21235825,5.717109,-1.2238866,11.645545,-10.520209,1.0136452,-0.21266893,-0.031275425,-0.012988972,-0.97653735,-4.396471,4.5564837,0.25522554,0.06434171,-1.858707,-0.09271771,0
0.3300000000000001,16.5867626627046,0.8482111337562475,2.009860253021762,-1.395193545128163,12.8042755,-0.21235825,5.717109,-1.2238866,11.601639,-10.474637,1.0165341,-0.21335207,-0.03896525,-0.011982031,-0.9761246,-4.3844523,4.558109,0.3225474,0.18656832,-1.2554209,-0.15663058,0
0.34000000000000014,16.5867626627046,0.8482111337562475,2.009860253021762,-1.395193545128163,12.8042755,-0.21235825,5.717109,-1.2238866,11.557864,-10.429051,1.0200956,-0.21427508,-0.044060905,-0.012127569,-0.97570384,-4.370311,4.559068,0.38970754,0.28977236,-0.74622387,-0.21740726,0
0.35000000000000014,16.5867626627046,0.8482111337562475,2.009860253021762,-1.395193545128163,12.8042755,-0.21235825,5.717109,-1.2238866,11.514237,-10.383456,1.024328,-0.21543397,-0.046968553,-0.013250984,-0.97529835,-4.354759,4.55988,0.4567422,0.37690842,-0.31644046,-0.27520156,0
0.36000000000000015,17.416968937650168,1.0915553987861861,3.9606465771971076,-1.3693694425661633,11.918743,-0.041772388,5.759716,-1.3885945,11.470772,-10.3378525,1.0292301,-0.21682085,-0.048030294,-0.015204292,-0.97491074,-4.3383956,4.5609813,0.5236969,0.45047373,0.046315603,-0.3301599,0
0.37000000000000016,17.416968937650168,1.0915553987861861,3.9606465771971076,-1.3693694425661633,11.918743,-0.041772388,5.759716,-1.3885945,11.427475,-10.292233,1.034843,-0.21840513,-0.04679436,-0.018126553,-0.9745672,-4.3209405,4.5628653,0.59887916,0.55060196,0.6567137,-0.38115418,0
0.38000000000000017,17.416968937650168,1.0915553987861861,3.9606465771971076,-1.3693694425661633,11.918743,-0.041772388,5.759716,-1.3885945,11.384352,-10.246591,1.0412079,-0.22015435,-0.04291709,-0.022121986,-0.9742695,-4.303994,4.566027,0.6740928,0.6351272,1.1719191,-0.42964622,0
0.3900000000000002,17.416968937650168,1.0915553987861861,3.9606465771971076,-1.3693694425661633,11.918743,-0.041772388,5.759716,-1.3885945,11.341392,-10.200907,1.0483252,-0.22205405,-0.03680919,-0.027026864,-0.9739646,-4.2883153,4.570998,0.74938256,0.7064761,1.6067785,-0.4757587,0
0.4000000000000002,17.649083166166648,1.0961229729049002,4.789480693249384,-1.269264726858505,10.654198,0.20371239,4.8462048,-1.4288136,11.298579,-10.155162,1.0561957,-0.22408837,-0.028816875,-0.032701448,-0.9735939,-4.274541,4.5782356,0.82475334,0.76669854,1.9738226,-0.5196085,0
0.4100000000000002,17.649083166166648,1.0961229729049002,4.789480693249384,-1.269264726858505,10.654198,0.20371239,4.8462048,-1.4288136,11.255894,-10.109331,1.064832,-0.22621705,-0.018910427,-0.03910221,-0.9731083,-4.2630777,4.5882716,0.9024817,0.8182778,2.4128857,-0.55639434,0
0.4200000000000002,17.649083166166648,1.0961229729049002,4.789480693249384,-1.269264726858505,10.654198,0.20371239,4.8462048,-1.4288136,11.213307,-10.063385,1.0742453,-0.22839859,-0.007082225,-0.046187256,-0.97244596,-4.2547164,4.601424,0.980178,0.8618049,2.7834792,-0.5913751,0
0.4300000000000002,17.649083166166648,1.0961229729049002,4.789480693249384,-1.269264726858505,10.654198,0.20371239,4.8462048,-1.4288136,11.170787,-10.01729,1.084435,-0.23061565,0.0063672625,-0.053847153,-0.97153324,-4.25001,4.618071,1.0577126,0.89853394,3.0962806,-0.6246394,0
0.4400000000000002,17.649083166166648,1.0961229729049002,4.789480693249384,-1.269264726858505,11.180815,0.12443868,5.070059,-1.0783583,11.128294,-9.971011,1.0953985,-0.232852,0.021182556,-0.06198729,-0.9703037,-4.249417,4.63853,1.1349049,0.9295242,3.3603027,-0.65627134,0
0.45000000000000023,17.649083166166648,1.0961229729049002,4.789480693249384,-1.269264726858505,11.180815,0.12443868,5.070059,-1.0783583,11.085784,-9.924506,1.1071312,-0.23509274,0.03714583,-0.07052561,-0.9686992,-4.253312,4.6630692,1.211529,0.9556704,3.5831523,-0.68635106,0
0.46000000000000024,17.649083166166648,1.0961229729049002,4.789480693249384,-1.269264726858505,11.180815,0.12443868,5.070059,-1.0783583,11.043211,-9.877734,1.1196262,-0.23732442,0.054070845,-0.07939079,-0.9666701,-4.261999,4.6919107,1.2873204,0.9777281,3.7712505,-0.71495485,0
0.47000000000000025,17.649083166166648,1.0961229729049002,4.789480693249384,-1.269264726858505,11.180815,0.12443868,5.070059,-1.0783583,11.000526,-9.830652,1.1328737,-0.23953484,0.071797945,-0.088520594,-0.9641746,-4.275717,4.725236,1.3619816,0.9963351,3.9300165,-0.74215496,0
0.48000000000000026,15.940386866432354,0.8696552276968715,4.480021742442958,-1.1301908752487662,9.556871,1.1171887,5.487944,-0.71435213,10.957679,-9.783214,1.1468607,-0.24171314,0.090189874,-0.09786066,-0.9611786,-4.294645,4.763188,1.4351892,1.01203,4.0640244,-0.7680204,0
0.49000000000000027,15.940386866432354,0.8696552276968715,4.480021742442958,-1.1301908752487662,9.556871,1.1171887,5.487944,-0.71435213,10.914626,-9.735393,1.161489,-0.24383724,0.109029874,-0.10724807,-0.9576817,-4.3165593,4.801733,1.4901909,0.9899069,4.1288986,-0.78579223,0
0.5000000000000002,15.940386866432354,0.8696552276968715,4.480021742442958,-1.1301908752487662,9.556871,1.1171887,5.487944,-0.71435213,10.87133,-9.687165,1.176658,-0.24588774,0.12813891,-0.11655132,-0.95369595,-4.343338,4.844553,1.5432706,0.97122794,4.183655,-0.802692,0
0.5100000000000002,15.940386866432354,0.8696552276968715,4.480021742442958,-1.1301908752487662,9.556871,1.1171887,5.487944,-0.71435213,10.827742,-9.638487,1.1923468,-0.24785925,0.14745772,-0.12576835,-0.94921273,-4.374986,4.8916245,1.594129,0.95545626,4.2298717,-0.8187625,0
0.5200000000000002,12.521151575701142,0.4899077979909366,3.2018387863776234,-0.9618355179096252,9.424345,1.0322844,5.0881577,-0.72003585,10.783813,-9.589318,1.208532,-0.24974717,0.16693434,-0.1348964,-0.94422597,-4.4114847,4.9429097,1.6424649,0.94213885,4.26888,-0.8340444,0
0.5300000000000002,12.521151575701142,0.4899077979909366,3.2018387863776234,-0.9618355179096252,9.424345,1.0322844,5.0881577,-0.72003585,10.739539,-9.539675,1.225032,-0.25157392,0.18607771,-0.14366531,-0.93885374,-4.4439106,4.9864497,1.6571854,0.87154007,4.10251,-0.84031516,0
0.5400000000000003,12.521151575701142,0.4899077979909366,3.2018387863776234,-0.9618355179096252,9.424345,1.0322844,5.0881577,-0.72003585,10.694922,-9.489579,1.2416675,-0.25336364,0.20450348,-0.15186545,-0.93323225,-4.479921,5.033077,1.6695617,0.8119634,3.96208,-0.84627825,0
0.5500000000000003,12.521151575701142,0.4899077979909366,3.2018387863776234,-0.9618355179096252,9.424345,1.0322844,5.0881577,-0.72003585,10.649929,-9.439003,1.2584147,-0.25511426,0.22231285,-0.15957542,-0.92737794,-4.519321,5.0826044,1.6794925,0.76168793,3.8435457,-0.8519487,0
0.5600000000000003,9.791756800353237,0.08566158964914104,1.507692256662291,-0.7716405899507878,6.066995,1.2642629,3.8809032,-1.1045966,10.604526,-9.3879175,1.2752486,-0.25682348,0.23959053,-0.16686153,-0.9213012,-4.561935,5.1348696,1.6868845,0.7192617,3.7434926,-0.8573409,0
0.5700000000000003,9.791756800353237,0.08566158964914104,1.507692256662291,-0.7716405899507878,6.066995,1.2642629,3.8809032,-1.1045966,10.55873,-9.336356,1.2920308,-0.25854442,0.25582388,-0.17346333,-0.9152158,-4.597629,5.1777525,1.6692448,0.6202482,3.3948777,-0.8531355,0
0.5800000000000003,9.791756800353237,0.08566158964914104,1.507692256662291,-0.7716405899507878,6.066995,1.2642629,3.8809032,-1.1045966,10.512566,-9.284356,1.3086267,-0.2603261,0.2706225,-0.17918405,-0.9093335,-4.6354613,5.2224345,1.6496255,0.5367081,3.1006203,-0.84913653,0
0.5900000000000003,9.791756800353237,0.08566158964914104,1.507692256662291,-0.7716405899507878,6.066995,1.2642629,3.8809032,-1.1045966,10.466014,-9.231902,1.3250167,-0.26215914,0.28421456,-0.1841606,-0.90364826,-4.675202,5.2687073,1.6281197,0.46622324,2.8522441,-0.8453338,0
0.6000000000000003,7.78233896446645,-0.32190905105254036,-0.5053508029326075,-0.5621783955158195,5.794467,1.3656156,2.479543,-1.0990396,10.419056,-9.178978,1.3411828,-0.264034,0.296791,-0.18850814,-0.8981461,-4.716661,5.3163953,1.6048145,0.4067532,2.6425955,-0.84171766,0
0.6100000000000003,7.78233896446645,-0.32190905105254036,-0.5053508029326075,-0.5621783955158195,5.794467,1.3656156,2.479543,-1.0990396,10.371718,-9.12562,1.3570321,-0.2660239,0.30783,-0.19197282,-0.8930952,-4.750835,5.355292,1.5648127,0.29283032,2.15174,-0.82800055,0
0.6200000000000003,7.78233896446645,-0.32190905105254036,-0.5053508029326075,-0.5621783955158195,5.794467,1.3656156,2.479543,-1.0990396,10.324036,-9.07187,1.3724751,-0.26818976,0.31693667,-0.19436333,-0.8887344,-4.786024,5.394994,1.523649,0.19672374,1.7374216,-0.81495655,0
0.6300000000000003,7.78233896446645,-0.32190905105254036,-0.5053508029326075,-0.5621783955158195,5.794467,1.3656156,2.479543,-1.0990396,10.275996,-9.017718,1.3875017,-0.2705041,0.32442558,-0.1958518,-0.8849962,-4.822032,5.4353166,1.4815297,0.115646295,1.3877064,-0.8025527,0
0.6400000000000003,7.78233896446645,-0.32190905105254036,-0.5053508029326075,-0.5621783955158195,5.6230493,0.84509873,1.9575105,-0.77020156,10.2275915,-8.963161,1.4021031,-0.27294123,0.33055848,-0.19658202,-0.8818108,-4.8587,5.4761086,1.4386371,0.04724712,1.0925213,-0.7907575,0
0.6500000000000004,7.78233896446645,-0.32190905105254036,-0.5053508029326075,-0.5621783955158195,5.6230493,0.84509873,1.9575105,-0.77020156,10.178819,-8.908194,1.4162724,-0.275478,0.33555317,-0.19667426,-0.87911075,-4.8958993,5.517243,1.3951313,-0.010457081,0.8433637,-0.7795411,0
0.6600000000000004,7.78233896446645,-0.32190905105254036,-0.5053508029326075,-0.5621783955158195,5.6230493,0.84509873,1.9575105,-0.77020156,10.129671,-8.852814,1.430004,-0.27809387,0.33959135,-0.19622931,-0.876833,-4.9335265,5.5586157,1.351151,-0.0591389,0.6330567,-0.768875,0
0.6700000000000004,7.78233896446645,-0.32190905105254036,-0.5053508029326075,-0.5621783955158195,5.6230493,0.84509873,1.9575105,-0.77020156,10.080147,-8.79702,1.443294,-0.280771,0.34282473,-0.19533181,-0.87492,-4.971496,5.600139,1.3068154,-0.10020979,0.4555425,-0.7587324,0
0.6800000000000004,6.674854703737035,-0.6083484947330922,-1.826543327948957,-0.3589260366441305,5.706112,1.7612379,0.14211674,-0.8807696,10.030241,-8.74081,1.4561394,-0.28349397,0.34538013,-0.19405289,-0.87332004,-5.009738,5.6417394,1.2622268,-0.1348597,0.30570793,-0.74908745,0
0.6900000000000004,6.674854703737035,-0.6083484947330922,-1.826543327948957,-0.3589260366441305,5.706112,1.7612379,0.14211674,-0.8807696,9.979979,-8.684215,1.4685001,-0.28629053,0.3469302,-0.19221054,-0.8722001,-5.042716,5.6774225,1.2098929,-0.20886208,-0.026782066,-0.7299421,0
0.7000000000000004,6.674854703737035,-0.6083484947330922,-1.826543327948957,-0.3589260366441305,5.706112,1.7612379,0.14211674,-0.8807696,9.929386,-8.627262,1.4803374,-0.28917736,0.34722054,-0.18966311,-0.87168974,-5.0757847,5.7130084,1.1575693,-0.27129158,-0.30742747,-0.7117362,0
0.7100000000000004,6.674854703737035,-0.6083484947330922,-1.826543327948957,-0.3589260366441305,5.706112,1.7612379,0.14211674,-0.8807696,9.878463,-8.569955,1.491652,-0.29212704,0.34644577,-0.18651979,-0.8716927,-5.1088576,5.7483926,1.105398,-0.3239593,-0.54431194,-0.6944237,0
0.7200000000000004,5.866919784001329,-0.7843671108171749,-2.8577248339060226,-0.1689156073823248,5.7849207,1.3010378,-0.11934321,-0.67003644,9.827209,-8.512294,1.5024463,-0.29511607,0.34476843,-0.18287219,-0.87212366,-5.1418633,5.7834864,1.0534974,-0.36839208,-0.744259,-0.67796075,0
0.7300000000000004,5.866919784001329,-0.7843671108171749,-2.8577248339060226,-0.1689156073823248,5.7849207,1.3010378,-0.11934321,-0.67003644,9.775644,-8.454304,1.5126989,-0.29816106,0.3419979,-0.1786542,-0.8730526,-5.171154,5.8144217,0.99689555,-0.42525545,-1.0657012,-0.65372413,0
0.7400000000000004,5.866919784001329,-0.7843671108171749,-2.8577248339060226,-0.1689156073823248,5.7849207,1.3010378,-0.11934321,-0.67003644,9.723789,-8.3960085,1.5223838,-0.30125773,0.3379614,-0.17376702,-0.8745465,-5.1998525,5.844513,0.94018334,-0.48135698,-1.3451498,-0.62993443,0
0.7500000000000004,5.866919784001329,-0.7843671108171749,-2.8577248339060226,-0.1689156073823248,5.7849207,1.3010378,-0.11934321,-0.67003644,9.671649,-8.337415,1.5315044,-0.30437088,0.33283776,-0.16829568,-0.87650144,-5.2282767,5.8740797,0.8840341,-0.5286848,-1.5810235,-0.6073121,0
0.7600000000000005,5.142107548733788,-0.8842493068781221,-3.4287103281860833,0.026228740945378255,4.5692134,-0.14315115,-0.09474583,-0.25558665,9.6192255,-8.278529,1.5400667,-0.30747363,0.32678464,-0.16232696,-0.8788188,-5.2563596,5.903032,0.82853824,-0.56861216,-1.7801164,-0.5857999,0
0.7700000000000005,5.142107548733788,-0.8842493068781221,-3.4287103281860833,0.026228740945378255,4.5692134,-0.14315115,-0.09474583,-0.25558665,9.566535,-8.219369,1.5480589,-0.31055954,0.31977576,-0.15590295,-0.8814711,-5.2815375,5.928733,0.7698502,-0.5978175,-2.0171418,-0.5575736,0
0.7800000000000005,5.142107548733788,-0.8842493068781221,-3.4287103281860833,0.026228740945378255,4.5692134,-0.14315115,-0.09474583,-0.25558665,9.513598,-8.159959,1.5554627,-0.31360573,0.31176692,-0.14900504,-0.8844496,-5.3056536,5.953085,0.71086764,-0.6365868,-2.2313359,-0.5294685,0
0.7900000000000005,5.142107548733788,-0.8842493068781221,-3.4287103281860833,0.026228740945378255,4.5692134,-0.14315115,-0.09474583,-0.25558665,9.460424,-8.100311,1.5622774,-0.31657258,0.30286586,-0.14163749,-0.88769,-5.329017,5.9763927,0.65219986,-0.6752312,-2.4180646,-0.5022003,0
0.8000000000000005,4.979409059101315,-0.9718321514808919,-3.7998390924901826,0.21554566333460065,4.8626657,-1.0577903,0.11432354,-0.3748346,9.407021,-8.040435,1.5685095,-0.3194375,0.29319027,-0.13385747,-0.8911128,-5.351846,5.998855,0.59432757,-0.7078355,-2.5756755,-0.47627014,0
0.8100000000000005,4.979409059101315,-0.9718321514808919,-3.7998390924901826,0.21554566333460065,4.8626657,-1.0577903,0.11432354,-0.3748346,9.35339,-7.980337,1.5741678,-0.3221842,0.2827502,-0.1257116,-0.89467704,-5.3741136,6.020422,0.5373178,-0.73166054,-2.74925,-0.44388276,0
0.8200000000000005,4.979409059101315,-0.9718321514808919,-3.7998390924901826,0.21554566333460065,4.8626657,-1.0577903,0.11432354,-0.3748346,9.299541,-7.920031,1.5792556,-0.32478508,0.27153468,-0.11719222,-0.8983598,-5.395253,6.0405364,0.48021254,-0.7637676,-2.907762,-0.412011,0
0.8300000000000005,4.979409059101315,-0.9718321514808919,-3.7998390924901826,0.21554566333460065,4.8626657,-1.0577903,0.11432354,-0.3748346,9.245487,-7.8595304,1.5837735,-0.32721272,0.2596206,-0.10829627,-0.90210956,-5.415494,6.0594053,0.42350745,-0.79619145,-3.0468884,-0.38121662,0
0.8400000000000005,4.979409059101315,-0.9718321514808919,-3.7998390924901826,0.21554566333460065,6.2993736,-1.1134412,0.46740103,-0.21417749,9.191234,-7.7988462,1.5877284,-0.32945335,0.24709658,-0.09906827,-0.9058642,-5.43501,6.0771704,0.3676305,-0.82355136,-3.1643195,-0.35193333,0
0.8500000000000005,4.979409059101315,-0.9718321514808919,-3.7998390924901826,0.21554566333460065,6.2993736,-1.1134412,0.46740103,-0.21417749,9.136789,-7.737991,1.5911288,-0.33149812,0.23404391,-0.08955694,-0.90956736,-5.4537554,6.093767,0.31256998,-0.8466393,-3.2634385,-0.32408696,0
0.8600000000000005,4.979409059101315,-0.9718321514808919,-3.7998390924901826,0.21554566333460065,6.2993736,-1.1134412,0.46740103,-0.21417749,9.082161,-7.6769753,1.5939827,-0.33334047,0.22053258,-0.07980407,-0.9131712,-5.4716883,6.109137,0.25830376,-0.866123,-3.3471007,-0.29760706,0
0.8700000000000006,4.979409059101315,-0.9718321514808919,-3.7998390924901826,0.21554566333460065,6.2993736,-1.1134412,0.46740103,-0.21417749,9.027358,-7.615813,1.5962977,-0.33497557,0.20662312,-0.069845624,-0.91663545,-5.4887695,6.123228,0.2048008,-0.8825659,-3.4177165,-0.27242652,0
0.8800000000000006,5.242308856693882,-1.0452668194186785,-3.251472006440075,0.38439857886580353,7.905509,-1.0899818,0.9958602,0.27000466,8.972388,-7.554516,1.5980814,-0.33640036,0.19236803,-0.059712615,-0.9199264,-5.504963,6.1359925,0.15202235,-0.89644325,-3.4773197,-0.24848162,0
0.8900000000000006,5.242308856693882,-1.0452668194186785,-3.251472006440075,0.38439857886580353,7.905509,-1.0899818,0.9958602,0.27000466,8.917257,-7.493095,1.5993527,-0.33757672,0.17802425,-0.049482808,-0.9229852,-5.5210457,6.1479926,0.10234995,-0.91957676,-3.4421139,-0.21742602,0
0.9000000000000006,5.242308856693882,-1.0452668194186785,-3.251472006440075,0.38439857886580353,7.905509,-1.0899818,0.9958602,0.27000466,8.861971,-7.431561,1.6001304,-0.33847868,0.16380158,-0.039220646,-0.9257775,-5.5361586,6.158532,0.05332572,-0.93910825,-3.4123988,-0.18789431,0
0.9100000000000006,5.242308856693882,-1.0452668194186785,-3.251472006440075,0.38439857886580353,7.905509,-1.0899818,0.9958602,0.27000466,8.806539,-7.3699293,1.6004211,-0.3391209,0.14967872,-0.028932847,-0.9283088,-5.5503025,6.1675973,0.0048812423,-0.95559853,-3.3873177,-0.15981175,0
0.9200000000000006,5.241543491351449,-0.9725928001351235,-2.186689722045353,0.540503483777332,9.19199,-1.2103908,1.6315641,0.54609084,8.750969,-7.308214,1.6002297,-0.33951595,0.13563825,-0.018625284,-0.9305833,-5.5634794,6.175176,-0.043050483,-0.9695214,-3.3661482,-0.1331072,0
0.9300000000000006,5.241543491351449,-0.9725928001351235,-2.186689722045353,0.540503483777332,9.19199,-1.2103908,1.6315641,0.54609084,8.695272,-7.2464304,1.5995619,-0.33965588,0.122051805,-0.008474486,-0.9325591,-5.5757046,6.181272,-0.09049474,-0.97042704,-3.1827443,-0.10010077,0
0.9400000000000006,5.241543491351449,-0.9725928001351235,-2.186689722045353,0.540503483777332,9.19199,-1.2103908,1.6315641,0.54609084,8.639459,-7.184593,1.5984211,-0.3395436,0.109219536,0.0013733441,-0.93422717,-5.586999,6.1859097,-0.13762346,-0.97069246,-3.0274298,-0.06866614,0
0.9500000000000006,5.241543491351449,-0.9725928001351235,-2.186689722045353,0.540503483777332,9.19199,-1.2103908,1.6315641,0.54609084,8.583536,-7.1227174,1.5968105,-0.33920276,0.097027555,0.010962697,-0.9356324,-5.597427,6.189143,-0.18445967,-0.9709264,-2.8963356,-0.03877401,0
0.9600000000000006,5.256432959906585,-0.8704687031989601,-0.8185490302947429,0.6665589576301361,9.083046,-0.8195677,2.4239998,0.24411583,8.5275135,-7.060816,1.5947326,-0.33865267,0.085378975,0.020331841,-0.9368097,-5.607031,6.1910124,-0.23106742,-0.9711318,-2.7856846,-0.010348697,0
0.9700000000000006,5.256432959906585,-0.8704687031989601,-0.8185490302947429,0.6665589576301361,9.083046,-0.8195677,2.4239998,0.24411583,8.4713955,-6.998902,1.5922062,-0.3379099,0.07464019,0.029398315,-0.937754,-5.6163864,6.191595,-0.27441055,-0.9863555,-2.5099044,0.020086654,0
0.9800000000000006,5.256432959906585,-0.8704687031989601,-0.8185490302947429,0.6665589576301361,9.083046,-0.8195677,2.4239998,0.24411583,8.415189,-6.9369884,1.5892404,-0.33699885,0.065127365,0.03803843,-0.93847984,-5.6248,6.190872,-0.31898135,-0.985024,-2.2629402,0.050297514,0
0.9900000000000007,5.256432959906585,-0.8704687031989601,-0.8185490302947429,0.6665589576301361,9.083046,-0.8195677,2.4239998,0.24411583,8.358901,-6.875088,1.5858227,-0.3359421,0.05669534,0.046229735,-0.9390381,-5.6324153,6.188991,-0.36474591,-0.9706958,-2.041276,0.08020917,0
1.0000000000000007,5.458787958762272,-0.7009035705738282,-0.12225398017138672,0.7723075559808767,8.947821,-0.24969788,2.9781299,0.34187752,8.302542,-6.8132124,1.5819448,-0.33475614,0.049206503,0.053984556,-0.93947005,-5.639463,6.186034,-0.41084123,-0.95504045,-1.8506095,0.10898153,0
1.0100000000000007,5.458787958762272,-0.7009035705738282,-0.12225398017138672,0.7723075559808767,8.947821,-0.24969788,2.9781299,0.34187752,8.246111,-6.751373,1.5776268,-0.33345836,0.042724058,0.061282303,-0.939801,-5.646571,6.1817694,-0.4530032,-0.9356419,-1.6013391,0.13970889,0
1.0200000000000007,5.458787958762272,-0.7009035705738282,-0.12225398017138672,0.7723075559808767,8.947821,-0.24969788,2.9781299,0.34187752,8.189612,-6.68958,1.57288,-0.3320655,0.037317738,0.06805441,-0.9400584,-5.653129,6.176641,-0.4965754,-0.9048047,-1.3764693,0.17022246,0
1.0300000000000007,5.458787958762272,-0.7009035705738282,-0.12225398017138672,0.7723075559808767,8.947821,-0.24969788,2.9781299,0.34187752,8.133049,-6.627843,1.5676934,-0.33058578,0.032857,0.07431284,-0.9402725,-5.6593304,6.170698,-0.54076797,-0.8730052,-1.1808885,0.19976695,0
1.0400000000000007,5.458787958762272,-0.7009035705738282,-0.12225398017138672,0.7723075559808767,10.15918,-0.12986927,3.4220936,0.46652126,8.076426,-6.566169,1.5620643,-0.32902384,0.029202668,0.08012747,-0.9404634,-5.665314,6.1639743,-0.58502775,-0.84616864,-1.015807,0.22786167,0
1.0500000000000007,5.458787958762272,-0.7009035705738282,-0.12225398017138672,0.7723075559808767,10.15918,-0.12986927,3.4220936,0.46652126,8.019743,-6.5045657,1.5559925,-0.3273825,0.026231488,0.08556852,-0.9406445,-5.67114,6.1565404,-0.62936366,-0.82351995,-0.87646896,0.2545778,0
1.0600000000000007,5.458787958762272,-0.7009035705738282,-0.12225398017138672,0.7723075559808767,10.15918,-0.12986927,3.4220936,0.46652126,7.9630036,-6.4430404,1.5494767,-0.32566366,0.023839222,0.09069505,-0.94082445,-5.6768594,6.1484547,-0.67378205,-0.8044048,-0.7588597,0.27998295,0
1.0700000000000007,5.458787958762272,-0.7009035705738282,-0.12225398017138672,0.7723075559808767,10.15918,-0.12986927,3.4220936,0.46652126,7.9062066,-6.381599,1.5425165,-0.32386872,0.021937732,0.09555675,-0.941009,-5.682514,6.139768,-0.7182875,-0.78827155,-0.65959084,0.3041415,0
1.0800000000000007,6.55662000578673,-0.513046986499066,0.7904054738171133,0.8119533440658164,10.174385,0.05135501,3.8133917,0.57852423,7.8493533,-6.320247,1.5351107,-0.32199878,0.0204525,0.10019537,-0.9412017,-5.688141,6.1305237,-0.76288354,-0.7746545,-0.5758023,0.32711452,0
1.0900000000000007,6.55662000578673,-0.513046986499066,0.7904054738171133,0.8119533440658164,10.174385,0.05135501,3.8133917,0.57852423,7.792438,-6.259,1.527312,-0.32008913,0.019640706,0.104457915,-0.9414069,-5.694909,6.118799,-0.79683036,-0.7338966,-0.36274588,0.3509057,0
1.1000000000000008,6.55662000578673,-0.513046986499066,0.7904054738171133,0.8119533440658164,10.174385,0.05135501,3.8133917,0.57852423,7.735455,-6.197873,1.5191735,-0.31816977,0.0197032,0.10822583,-0.9416306,-5.701764,6.1065445,-0.8308855,-0.6994934,-0.18291514,0.3735294,0
1.1100000000000008,6.55662000578673,-0.513046986499066,0.7904054738171133,0.8119533440658164,10.174385,0.05135501,3.8133917,0.57852423,7.6784024,-6.1368704,1.510694,-0.31623375,0.020505838,0.11157751,-0.9418744,-5.7087865,6.0938516,-0.8650443,-0.67045367,-0.031128675,0.39504302,0
1.1200000000000008,8.67702457914234,-0.25334633347660246,1.7700727789364614,0.775585058876387,11.0803585,0.3139066,4.1359897,0.40800017,7.6212783,-6.0759964,1.5018724,-0.31427464,0.02193521,0.114578694,-0.9421376,-5.716044,6.0807953,-0.89930236,-0.6459403,0.096986584,0.41550094,0
1.1300000000000008,8.67702457914234,-0.25334633347660246,1.7700727789364614,0.775585058876387,11.0803585,0.3139066,4.1359897,0.40800017,7.5640683,-6.015277,1.4928107,-0.31233862,0.024231786,0.11706379,-0.94241965,-5.726045,6.0631337,-0.9130395,-0.58479005,0.35791326,0.43317035,0
1.1400000000000008,8.67702457914234,-0.25334633347660246,1.7700727789364614,0.775585058876387,11.0803585,0.3139066,4.1359897,0.40800017,7.506756,-5.954735,1.4836111,-0.31046334,0.02758125,0.1189048,-0.94271666,-5.7365723,6.04524,-0.9268898,-0.5331699,0.5781476,0.44997275,0
1.1500000000000008,8.67702457914234,-0.25334633347660246,1.7700727789364614,0.775585058876387,11.0803585,0.3139066,4.1359897,0.40800017,7.449335,-5.894372,1.4742725,-0.3086313,0.03182114,0.120202675,-0.94302,-5.747755,6.027263,-0.94084215,-0.48959392,0.7640354,0.46595064,0
1.1600000000000008,11.391990292581397,0.01718016513477268,2.65695246316308,0.6634703671360596,12.780319,-0.46312636,4.475759,0.5051948,7.391799,-5.8341894,1.4647938,-0.30682686,0.036813993,0.12104197,-0.9433197,-5.759703,6.0093303,-0.9548906,-0.45280796,0.92093307,0.48114452,0
1.1700000000000008,11.391990292581397,0.01718016513477268,2.65695246316308,0.6634703671360596,12.780319,-0.46312636,4.475759,0.5051948,7.334119,-5.774213,1.4553056,-0.30509615,0.0427435,0.12128318,-0.94359994,-5.776529,5.9859967,-0.9427633,-0.37960523,1.1916851,0.4900913,0
1.1800000000000008,11.391990292581397,0.01718016513477268,2.65695246316308,0.6634703671360596,12.780319,-0.46312636,4.475759,0.5051948,7.2762637,-5.7144675,1.445938,-0.30347583,0.049748734,0.12081928,-0.94383866,-5.7946725,5.963088,-0.93075633,-0.31780753,1.4202106,0.49859905,0
1.1900000000000008,11.391990292581397,0.01718016513477268,2.65695246316308,0.6634703671360596,12.780319,-0.46312636,4.475759,0.5051948,7.2182207,-5.6549487,1.43669,-0.30193946,0.05766185,0.11975879,-0.9440162,-5.8143096,5.940814,-0.91887546,-0.26563752,1.6130953,0.50668937,0
1.2000000000000008,12.879245935254286,0.2791291792009388,2.756907506693335,0.5167545538497113,13.609493,-0.21736361,4.0481772,0.35893098,7.1599727,-5.595649,1.42756,-0.30046383,0.06634051,0.118192784,-0.9441144,-5.835586,5.919352,-0.9071386,-0.22159481,1.7758976,0.5143826,0
1.2100000000000009,12.879245935254286,0.2791291792009388,2.756907506693335,0.5167545538497113,13.609493,-0.21736361,4.0481772,0.35893098,7.1014886,-5.536572,1.4186182,-0.2990577,0.07566816,0.116087995,-0.94412047,-5.861633,5.8961806,-0.8812559,-0.14355855,1.9289116,0.51449895,0
1.2200000000000009,12.879245935254286,0.2791291792009388,2.756907506693335,0.5167545538497113,13.609493,-0.21736361,4.0481772,0.35893098,7.042733,-5.477721,1.4099342,-0.29772994,0.0855454,0.11342213,-0.9440208,-5.889779,5.874284,-0.8556009,-0.07768403,2.0580592,0.51460963,0
1.2300000000000009,12.879245935254286,0.2791291792009388,2.756907506693335,0.5167545538497113,13.609493,-0.21736361,4.0481772,0.35893098,6.983685,-5.419082,1.4015054,-0.2964614,0.09588359,0.11028053,-0.94379884,-5.920111,5.853828,-0.8302162,-0.022075973,2.1670628,0.5147149,0
1.2400000000000009,12.879245935254286,0.2791291792009388,2.756907506693335,0.5167545538497113,14.35186,-0.08403554,3.8748453,0.21992609,6.924323,-5.3606396,1.3933287,-0.29523543,0.10660731,0.106735125,-0.9434403,-5.9526978,5.834953,-0.80515516,0.024865827,2.2590647,0.514815,0
1.2500000000000009,12.879245935254286,0.2791291792009388,2.756907506693335,0.5167545538497113,14.35186,-0.08403554,3.8748453,0.21992609,6.864623,-5.302377,1.3854009,-0.29403755,0.117652245,0.10284669,-0.94293344,-5.9875965,5.8177752,-0.7804797,0.06449197,2.3367164,0.5149102,0
1.260000000000001,12.879245935254286,0.2791291792009388,2.756907506693335,0.5167545538497113,14.35186,-0.08403554,3.8748453,0.21992609,6.8045626,-5.244278,1.3777176,-0.29285532,0.12896356,0.09866657,-0.9422686,-6.0248513,5.802394,-0.7562595,0.09794247,2.4022565,0.5150007,0
1.270000000000001,12.879245935254286,0.2791291792009388,2.756907506693335,0.5167545538497113,14.35186,-0.08403554,3.8748453,0.21992609,6.7441177,-5.1863227,1.370274,-0.29167798,0.14049442,0.09423821,-0.94143796,-6.0644956,5.788891,-0.73257,0.12617975,2.4575734,0.51508677,0
1.280000000000001,14.182841277263892,0.5380962662591969,2.6244889737361428,0.3431533023515008,14.841814,0.3424898,3.4725966,-0.024279274,6.6832643,-5.1284933,1.3630642,-0.29049644,0.15220477,0.089598395,-0.94043535,-6.106554,5.777333,-0.7094916,0.15001631,2.5042624,0.5151686,1
1.290000000000001,14.182841277263892,0.5380962662591969,2.6244889737361428,0.3431533023515008,14.841814,0.3424898,3.4725966,-0.024279274,6.621945,-5.070777,1.3561736,-0.2893942,0.16431592,0.08468162,-0.9391919,-6.157835,5.7663317,-0.66875327,0.18002746,2.6552806,0.4886977,1
1.300000000000001,14.182841277263892,0.5380962662591969,2.6244889737361428,0.3431533023515008,14.841814,0.3424898,3.4725966,-0.024279274,6.560097,-5.0131583,1.349686,-0.2884418,0.17699851,0.07943986,-0.93763703,-6.212029,5.75778,-0.6289526,0.20536841,2.7827454,0.46352577,1
1.310000000000001,14.182841277263892,0.5380962662591969,2.6244889737361428,0.3431533023515008,14.841814,0.3424898,3.4725966,-0.024279274,6.4976926,-4.9556127,1.343591,-0.2876141,0.19015206,0.07392552,-0.9357652,-6.2692375,5.7518115,-0.5902384,0.22676502,2.89033,0.43958905,1
1.320000000000001,15.319941417241216,0.772300465532352,1.9835070486287136,0.17199046996516149,15.532368,0.45701203,3.4199166,0.02719871,6.4347005,-4.8981133,1.337877,-0.2868892,0.20369089,0.068183035,-0.9335721,-6.329535,5.748536,-0.55276567,0.24483053,2.9811356,0.4168269,0
1.330000000000001,15.319941417241216,0.772300465532352,1.9835070486287136,0.17199046996516149,15.532368,0.45701203,3.4199166,0.02719871,6.3710804,-4.8406324,1.3325527,-0.2862233,0.21693943,0.06225579,-0.9312029,-6.3949776,5.748014,-0.5123541,0.32715362,2.8255758,0.40481272,0
1.340000000000001,15.319941417241216,0.772300465532352,1.9835070486287136,0.17199046996516149,15.532368,0.45701203,3.4199166,0.02719871,6.306791,-4.783143,1.327625,-0.28559008,0.22936478,0.05618056,-0.9288029,-6.4634156,5.750337,-0.473416,0.39662886,2.694271,0.39338806,0
1.350000000000001,15.319941417241216,0.772300465532352,1.9835070486287136,0.17199046996516149,15.532368,0.45701203,3.4199166,0.02719871,6.2418027,-4.725616,1.3230793,-0.28499362,0.24109127,0.049983114,-0.9263673,-6.534599,5.7554655,-0.43596014,0.45526144,2.5834398,0.382524,0
1.360000000000001,15.572017882867671,1.0053347875726144,0.9389674772981936,0.0559084419953185,15.362658,0.52204573,1.9691029,0.21779609,6.17609,-4.6680236,1.3189008,-0.28443545,0.25222355,0.04368509,-0.9238898,-6.608313,5.763364,-0.39999768,0.50474364,2.4898896,0.37219307,0
1.370000000000001,15.572017882867671,1.0053347875726144,0.9389674772981936,0.0559084419953185,15.362658,0.52204573,1.9691029,0.21779609,6.1096215,-4.610338,1.3150852,-0.28393596,0.26243752,0.037341096,-0.92147356,-6.6856008,5.774165,-0.36334744,0.5828918,2.2480373,0.35667288,0
1.380000000000001,15.572017882867671,1.0053347875726144,0.9389674772981936,0.0559084419953185,15.362658,0.52204573,1.9691029,0.21779609,6.0423703,-4.5525317,1.3116289,-0.28351933,0.2714851,0.03099641,-0.9192132,-6.7649326,5.787642,-0.32813302,0.6488387,2.0438976,0.34191427,0
1.390000000000001,15.572017882867671,1.0053347875726144,0.9389674772981936,0.0559084419953185,15.362658,0.52204573,1.9691029,0.21779609,5.9743176,-4.494577,1.3085182,-0.28318828,0.27954912,0.024654977,-0.91708773,-6.8459954,5.8036904,-0.29425126,0.7044895,1.8715904,0.32787988,0
1.400000000000001,15.570401735698782,1.160337190683896,-0.36689070546188723,-0.060109786427528566,14.8623085,-0.16429652,0.44603032,0.38644516,5.9054465,-4.4364495,1.3057399,-0.28294265,0.2867833,0.018319821,-0.91507614,-6.928528,5.8222227,-0.26161143,0.75145227,1.7261521,0.31453416,0
1.410000000000001,15.570401735698782,1.160337190683896,-0.36689070546188723,-0.060109786427528566,14.8623085,-0.16429652,0.44603032,0.38644516,5.835744,-4.3781247,1.303282,-0.28280357,0.29282185,0.012088449,-0.9133086,-7.0122747,5.843149,-0.23012905,0.8153014,1.3997465,0.29615027,0
1.420000000000001,15.570401735698782,1.160337190683896,-0.36689070546188723,-0.060109786427528566,14.8623085,-0.16429652,0.44603032,0.38644516,5.7651987,-4.3195786,1.3011341,-0.28279445,0.29738486,0.006038871,-0.9118961,-7.096886,5.866308,-0.19959036,0.8691758,1.124241,0.2786685,0
1.430000000000001,15.570401735698782,1.160337190683896,-0.36689070546188723,-0.060109786427528566,14.8623085,-0.16429652,0.44603032,0.38644516,5.6938043,-4.260791,1.2992877,-0.28291386,0.30070585,0.00014672882,-0.9107893,-7.182009,5.8915343,-0.16977994,0.9146343,0.89169836,0.26204452,0
1.440000000000001,15.570401735698782,1.160337190683896,-0.36689070546188723,-0.060109786427528566,14.700878,-0.35662225,-0.6071339,0.27127063,5.6215577,-4.2017407,1.2977366,-0.2831575,0.3029805,-0.005608866,-0.90994215,-7.2673507,5.9186897,-0.14051099,0.95299226,0.69541883,0.24623634,0
1.450000000000001,15.570401735698782,1.160337190683896,-0.36689070546188723,-0.060109786427528566,14.700878,-0.35662225,-0.6071339,0.27127063,5.5484576,-4.1424103,1.2964762,-0.28351927,0.30437306,-0.011245799,-0.90931237,-7.352664,5.9476595,-0.111623384,0.98535943,0.5297477,0.23120384,0
1.460000000000001,15.570401735698782,1.160337190683896,-0.36689070546188723,-0.060109786427528566,14.700878,-0.35662225,-0.6071339,0.27127063,5.474505,-4.082782,1.2955034,-0.28399214,0.30502126,-0.016779372,-0.9088622,-7.4377418,5.9783483,-0.08298146,1.0126717,0.38991213,0.216909,0
1.470000000000001,15.570401735698782,1.160337190683896,-0.36689070546188723,-0.060109786427528566,14.700878,-0.35662225,-0.6071339,0.27127063,5.3997035,-4.0228376,1.2948163,-0.28456864,0.30504096,-0.022222681,-0.90855837,-7.5224075,6.010676,-0.054471295,1.035719,0.27188316,0.20331563,0
1.480000000000001,15.897539456386639,1.183395715302375,-1.1281547940867787,-0.15216832151799453,15.0868435,-0.66533506,-1.0504968,0.22415298,5.3240585,-3.9625626,1.2944139,-0.28524122,0.3045296,-0.027586933,-0.908372,-7.606513,6.044575,-0.025998311,1.0551679,0.17226036,0.19038928,0
1.490000000000001,15.897539456386639,1.183395715302375,-1.1281547940867787,-0.15216832151799453,15.0868435,-0.66533506,-1.0504968,0.22415298,5.2475667,-3.9019372,1.2943097,-0.28602454,0.30329022,-0.03279971,-0.9083671,-7.6916685,6.080723,0.0051878183,1.07519,-0.03054794,0.17357987,0
1.500000000000001,15.897539456386639,1.183395715302375,-1.1281547940867787,-0.15216832151799453,15.0868435,-0.66533506,-1.0504968,0.22415298,5.170228,-3.840943,1.2945184,-0.28693217,0.30117068,-0.03780348,-0.90859157,-7.7759,6.11829,0.036574066,1.0920819,-0.20172846,0.1575953,0
1.5100000000000011,15.897539456386639,1.183395715302375,-1.1281547940867787,-0.15216832151799453,15.0868435,-0.66533506,-1.0504968,0.22415298,5.0920525,-3.779567,1.2950425,-0.28795463,0.2983069,-0.042627253,-0.90899926,-7.859003,6.1571574,0.068305194,1.1063336,-0.34621358,0.14239512,0
1.5200000000000011,15.969165877359366,1.144942233068433,-1.7782181005056752,-0.21672135872642542,14.696135,-0.40736368,-1.8228867,0.07450462,5.0130525,-3.7177958,1.295886,-0.28908238,0.29481313,-0.047295686,-0.90955,-7.9408016,6.197224,0.100499205,1.1183584,-0.46816635,0.1279408,0
1.5300000000000011,15.969165877359366,1.144942233068433,-1.7782181005056752,-0.21672135872642542,14.696135,-0.40736368,-1.8228867,0.07450462,4.93324,-3.6556177,1.2970572,-0.2903216,0.29055354,-0.05173807,-0.9102838,-8.021495,6.2385793,0.1338506,1.1225138,-0.67248017,0.11102813,0
1.5400000000000011,15.969165877359366,1.144942233068433,-1.7782181005056752,-0.21672135872642542,14.696135,-0.40736368,-1.8228867,0.07450462,4.852628,-3.593021,1.2985654,-0.29167742,0.28542465,-0.055898823,-0.9112265,-8.100504,6.2809014,0.16791469,1.1260151,-0.844931,0.09494538,0
1.5500000000000012,15.969165877359366,1.144942233068433,-1.7782181005056752,-0.21672135872642542,14.696135,-0.40736368,-1.8228867,0.07450462,4.771236,-3.5299966,1.3004184,-0.293139,0.27955845,-0.059817724,-0.91232663,-8.177628,6.324048,0.202824,1.128966,-0.9904878,0.079651795,0
1.5600000000000012,16.211253695215184,1.0316276622712812,-2.1698439484865935,-0.28241555451568573,14.359959,-0.5644772,-2.5800097,0.21993673,4.6890826,-3.4665375,1.3026252,-0.2946958,0.27306613,-0.06352852,-0.9135397,-8.2526865,6.3678975,0.23868123,1.1314534,-1.1133446,0.065108694,0
1.5700000000000012,16.211253695215184,1.0316276622712812,-2.1698439484865935,-0.28241555451568573,14.359959,-0.5644772,-2.5800097,0.21993673,4.606184,-3.4026334,1.3052058,-0.29634288,0.26591206,-0.06696994,-0.91487056,-8.326623,6.4130077,0.27761546,1.1158786,-1.2781183,0.048055578,0
1.5800000000000012,16.211253695215184,1.0316276622712812,-2.1698439484865935,-0.28241555451568573,14.359959,-0.5644772,-2.5800097,0.21993673,4.522558,-3.338276,1.3081814,-0.29807633,0.25807223,-0.070094295,-0.9163173,-8.398123,6.4585648,0.31768975,1.1027292,-1.4171946,0.031839274,0
1.5900000000000012,16.211253695215184,1.0316276622712812,-2.1698439484865935,-0.28241555451568573,14.359959,-0.5644772,-2.5800097,0.21993673,4.4382305,-3.273461,1.3115637,-0.29988733,0.24964905,-0.072946504,-0.9178361,-8.467019,6.5044208,0.358982,1.0916281,-1.5345811,0.016418708,0
1.6000000000000012,15.584684867520984,0.8214980823033011,-2.62979302578511,-0.32468151479459373,14.732166,-0.6112025,-2.8839254,0.3954808,4.353227,-3.2081869,1.3153653,-0.30176738,0.24072897,-0.0755647,-0.9193897,-8.533166,6.5504475,0.40154445,1.0822564,-1.6336606,0.0017548203,0
1.6100000000000012,15.584684867520984,0.8214980823033011,-2.62979302578511,-0.32468151479459373,14.732166,-0.6112025,-2.8839254,0.3954808,4.267589,-3.1424608,1.3195716,-0.30370688,0.23124157,-0.077846974,-0.92099446,-8.593982,6.5947375,0.43992645,1.0415729,-1.7890177,-0.014263498,0
1.6200000000000012,15.584684867520984,0.8214980823033011,-2.62979302578511,-0.32468151479459373,14.732166,-0.6112025,-2.8839254,0.3954808,4.181357,-3.0762923,1.3241683,-0.30569804,0.2211342,-0.07971351,-0.92265683,-8.6518755,6.6388974,0.47961468,1.0072323,-1.9201456,-0.0294958,0
1.6300000000000012,15.584684867520984,0.8214980823033011,-2.62979302578511,-0.32468151479459373,14.732166,-0.6112025,-2.8839254,0.3954808,4.094562,-3.0096836,1.3291686,-0.30773485,0.2104986,-0.08122416,-0.92433417,-8.706706,6.682753,0.5206464,0.978246,-2.0308235,-0.043980658,0
1.6400000000000012,15.584684867520984,0.8214980823033011,-2.62979302578511,-0.32468151479459373,14.599749,-0.5917976,-3.1175158,0.39972973,4.007234,-2.9426386,1.3345859,-0.3098111,0.19941251,-0.08242974,-0.9259906,-8.7583475,6.7261515,0.5630347,0.95377946,-2.1242402,-0.057754733,0
1.6500000000000012,15.584684867520984,0.8214980823033011,-2.62979302578511,-0.32468151479459373,14.599749,-0.5917976,-3.1175158,0.39972973,3.9194062,-2.8751626,1.340434,-0.31192046,0.18794192,-0.083373435,-0.92759573,-8.806689,6.7689576,0.6067722,0.9331284,-2.203088,-0.07085291,0
1.6600000000000013,15.584684867520984,0.8214980823033011,-2.62979302578511,-0.32468151479459373,14.599749,-0.5917976,-3.1175158,0.39972973,3.831112,-2.8072622,1.3467261,-0.31405675,0.17614299,-0.08409198,-0.92912436,-8.851634,6.8110504,0.651834,0.91569823,-2.269639,-0.08330834,0
1.6700000000000013,15.584684867520984,0.8214980823033011,-2.62979302578511,-0.32468151479459373,14.599749,-0.5917976,-3.1175158,0.39972973,3.7423856,-2.7389445,1.3534752,-0.31621403,0.16406356,-0.08461662,-0.93055546,-8.893095,6.8523226,0.6981802,0.9009867,-2.325811,-0.095152594,0
1.6800000000000013,15.687515976151504,0.616375050044272,-2.0903040226843386,-0.33083599093498894,13.070711,-0.1052207,-1.9697492,-0.015185885,3.6532626,-2.6702187,1.3606939,-0.31838655,0.15174446,-0.08497394,-0.9318716,-8.930995,6.892678,0.74575824,0.8885701,-2.3732228,-0.10641565,0
1.6900000000000013,15.687515976151504,0.616375050044272,-2.0903040226843386,-0.33083599093498894,13.070711,-0.1052207,-1.9697492,-0.015185885,3.5637772,-2.601093,1.3683993,-0.32053974,0.1394484,-0.08517906,-0.9330351,-8.965508,6.9322925,0.79546916,0.8461077,-2.3291051,-0.117428035,0
1.7000000000000013,15.687515976151504,0.616375050044272,-2.0903040226843386,-0.33083599093498894,13.070711,-0.1052207,-1.9697492,-0.015185885,3.4739647,-2.5315766,1.376607,-0.32264912,0.12738737,-0.085246384,-0.934026,-8.996427,6.970849,0.8462521,0.8102683,-2.291867,-0.12790002,0
1.7100000000000013,15.687515976151504,0.616375050044272,-2.0903040226843386,-0.33083599093498894,13.070711,-0.1052207,-1.9697492,-0.015185885,3.3838608,-2.4616802,1.3853275,-0.3247227,0.11552497,-0.08519585,-0.9348542,-9.023812,7.00831,0.8980034,0.7800186,-2.2604358,-0.13785815,0
1.7200000000000013,15.687983725986603,0.41184474376110675,-1.4591412581843077,-0.33350264826619413,12.937038,0.24199532,-1.3613919,-0.10238793,3.2935002,-2.3914144,1.3945699,-0.32676664,0.10383044,-0.08504434,-0.93552756,-9.04772,7.044639,0.9506259,0.754487,-2.2339063,-0.14732763,0
1.7300000000000013,15.687983725986603,0.41184474376110675,-1.4591412581843077,-0.33350264826619413,12.937038,0.24199532,-1.3613919,-0.10238793,3.2029178,-2.3207912,1.4043424,-0.32875687,0.09254124,-0.08481245,-0.936036,-9.068215,7.079813,1.0040283,0.7010511,-2.1130815,-0.15646331,0
1.7400000000000013,15.687983725986603,0.41184474376110675,-1.4591412581843077,-0.33350264826619413,12.937038,0.24199532,-1.3613919,-0.10238793,3.1121469,-2.2498221,1.4146526,-0.33067778,0.081845224,-0.084518455,-0.93638223,-9.08545,7.1138415,1.0580972,0.6559485,-2.0110993,-0.16515067,0
1.7500000000000013,15.687983725986603,0.41184474376110675,-1.4591412581843077,-0.33350264826619413,12.937038,0.24199532,-1.3613919,-0.10238793,3.0212193,-2.1785183,1.4255064,-0.3325444,0.07165139,-0.084172286,-0.9365878,-9.09959,7.146746,1.1127316,0.6178795,-1.925021,-0.17341174,0
1.7600000000000013,15.238743909008793,0.16872735734613264,-0.6611612498195443,-0.3033393895924782,11.796198,0.34896943,-1.4597471,-0.23598397,2.9301653,-2.1068912,1.436909,-0.33436853,0.06188259,-0.083782196,-0.93666977,-9.110776,7.1785455,1.1678445,0.5857472,-1.8523667,-0.18126743,0
1.7700000000000014,15.238743909008793,0.16872735734613264,-0.6611612498195443,-0.3033393895924782,11.796198,0.34896943,-1.4597471,-0.23598397,2.839015,-2.0349557,1.4488428,-0.33612424,0.052805044,-0.0833713,-0.93663377,-9.11891,7.208382,1.218959,0.52072865,-1.6665932,-0.18725751,0
1.7800000000000014,15.238743909008793,0.16872735734613264,-0.6611612498195443,-0.3033393895924782,11.796198,0.34896943,-1.4597471,-0.23598397,2.7477958,-1.9627268,1.4612893,-0.33779413,0.04462669,-0.08295945,-0.9364949,-9.124549,7.237234,1.270382,0.46584755,-1.5097917,-0.19295369,0
1.7900000000000014,15.238743909008793,0.16872735734613264,-0.6611612498195443,-0.3033393895924782,11.796198,0.34896943,-1.4597471,-0.23598397,2.6565318,-1.8902141,1.4742514,-0.33939737,0.037208494,-0.08254826,-0.9362757,-9.127935,7.2651763,1.322046,0.4195236,-1.3774438,-0.19837037,0
1.8000000000000014,14.107879339809054,-0.0930312523063947,-0.05464595337598408,-0.2424482052956903,12.556072,0.24216972,-1.243105,0.20551997,2.5652442,-1.8174261,1.4877311,-0.34094915,0.030432781,-0.08213879,-0.93599266,-9.129276,7.2922726,1.3738979,0.38042232,-1.265736,-0.2035212,0
1.8100000000000014,14.107879339809054,-0.0930312523063947,-0.05464595337598408,-0.2424482052956903,12.556072,0.24216972,-1.243105,0.20551997,2.4739525,-1.744381,1.5016743,-0.3424318,0.024462363,-0.08171686,-0.93566334,-9.1288,7.31663,1.4147563,0.30661112,-1.0768578,-0.20543136,0
1.8200000000000014,14.107879339809054,-0.0930312523063947,-0.05464595337598408,-0.2424482052956903,12.556072,0.24216972,-1.243105,0.20551997,2.3826733,-1.6710956,1.5160266,-0.3438326,0.01942105,-0.081271805,-0.93530655,-9.126849,7.340335,1.4557152,0.2443074,-0.9174365,-0.2072478,0
1.8300000000000014,14.107879339809054,-0.0930312523063947,-0.05464595337598408,-0.2424482052956903,12.556072,0.24216972,-1.243105,0.20551997,2.29142,-1.5975763,1.5307888,-0.3451683,0.015164388,-0.08080869,-0.9349333,-9.123659,7.3634605,1.4967487,0.1917169,-0.78287786,-0.20897509,0
1.8400000000000014,14.107879339809054,-0.0930312523063947,-0.05464595337598408,-0.2424482052956903,13.559187,0.16591655,-1.4164703,0.54724723,2.200204,-1.5238283,1.5459617,-0.3464521,0.011570302,-0.080331475,-0.9345509,-9.119427,7.3860703,1.5378393,0.1473252,-0.66930467,-0.21061763,0
1.8500000000000014,14.107879339809054,-0.0930312523063947,-0.05464595337598408,-0.2424482052956903,13.559187,0.16591655,-1.4164703,0.54724723,2.1090343,-1.4498565,1.5615458,-0.34769455,0.008535668,-0.07984325,-0.9341639,-9.114321,7.408219,1.5789748,0.109854326,-0.57344395,-0.21217957,0
1.8600000000000014,14.107879339809054,-0.0930312523063947,-0.05464595337598408,-0.2424482052956903,13.559187,0.16591655,-1.4164703,0.54724723,2.01792,-1.3756654,1.5775414,-0.348904,0.0059733954,-0.07934646,-0.9337751,-9.108483,7.4299526,1.620147,0.07822499,-0.49253324,-0.21366487,0
1.8700000000000014,14.107879339809054,-0.0930312523063947,-0.05464595337598408,-0.2424482052956903,13.559187,0.16591655,-1.4164703,0.54724723,1.9268671,-1.3012588,1.5939488,-0.35008726,0.0038099387,-0.078843035,-0.93338615,-9.102034,7.451311,1.6613503,0.051526703,-0.42424136,-0.21507727,0
1.8800000000000014,14.393549449538709,-0.1242643847260002,0.4240951059528291,-0.20539860097247656,14.912016,-0.3256494,-1.8073399,1.9236702,1.8358812,-1.2266403,1.6107684,-0.35124964,0.0019831986,-0.07833445,-0.9329979,-9.095071,7.4723287,1.7025808,0.02899059,-0.36660007,-0.21642037,0
1.8900000000000015,14.393549449538709,-0.1242643847260002,0.4240951059528291,-0.20539860097247656,14.912016,-0.3256494,-1.8073399,1.9236702,1.7449678,-1.1518111,1.6280144,-0.3523763,0.000623505,-0.07787764,-0.9326131,-9.087542,7.4934607,1.7466573,0.005107983,-0.24328835,-0.21587953,0
1.9000000000000015,14.393549449538709,-0.1242643847260002,0.4240951059528291,-0.20539860097247656,14.912016,-0.3256494,-1.8073399,1.9236702,1.6541313,-1.0767719,1.6457015,-0.35345533,-0.00016869468,-0.077518016,-0.9322348,-9.079723,7.514356,1.7907531,-0.01505287,-0.13920744,-0.21536522,0
1.9100000000000015,14.393549449538709,-0.1242643847260002,0.4240951059528291,-0.20539860097247656,14.912016,-0.3256494,-1.8073399,1.9236702,1.5633739,-1.0015244,1.6638296,-0.3544943,-0.0004819984,-0.077241,-0.9318631,-9.071753,7.535094,1.8348635,-0.032071993,-0.051358357,-0.21487615,0
1.9200000000000015,13.547497597132505,-0.12425630870646545,0.05034584450803022,-0.15027653126992924,14.790943,-0.08972969,-2.1136184,2.308869,1.4726967,-0.9260702,1.6823988,-0.35549945,-0.00039117638,-0.07703417,-0.93149734,-9.063743,7.555741,1.878985,-0.046438847,0.022790318,-0.21441108,0
1.9300000000000015,13.547497597132505,-0.12425630870646545,0.05034584450803022,-0.15027653126992924,14.790943,-0.08972969,-2.1136184,2.308869,1.3820968,-0.8504158,1.7013675,-0.35648096,-9.9156256e-05,-0.07683368,-0.9311388,-9.05625,7.5751348,1.9147551,-0.05857392,0.027089067,-0.21126397,0
1.9400000000000015,13.547497597132505,-0.12425630870646545,0.05034584450803022,-0.15027653126992924,14.790943,-0.08972969,-2.1136184,2.308869,1.2915714,-0.7745676,1.720694,-0.3574462,0.00022999322,-0.076588176,-0.9307889,-9.048835,7.5944963,1.9505342,-0.068816595,0.03071727,-0.2082713,0
1.9500000000000015,13.547497597132505,-0.12425630870646545,0.05034584450803022,-0.15027653126992924,14.790943,-0.08972969,-2.1136184,2.308869,1.2011197,-0.698526,1.7403781,-0.35839614,0.000590398,-0.07630468,-0.9304467,-9.041512,7.6138177,1.9863242,-0.077461965,0.03377946,-0.20542547,0
1.9600000000000015,12.28754763687295,-0.08240045082377145,-0.3440845506236696,-0.08787662955210654,11.233955,2.1847534,-2.333828,0.6194521,1.1107408,-0.62229145,1.7604203,-0.35933164,0.0009771,-0.07598914,-0.9301113,-9.034291,7.6330943,2.0221262,-0.08475934,0.03636383,-0.2027193,0
1.9700000000000015,12.28754763687295,-0.08240045082377145,-0.3440845506236696,-0.08787662955210654,11.233955,2.1847534,-2.333828,0.6194521,1.0204302,-0.5458732,1.7807584,-0.3602583,0.0012325096,-0.07560538,-0.92978376,-9.027837,7.650527,2.0454874,-0.084399305,-0.022967221,-0.19708394,0
1.9800000000000015,12.28754763687295,-0.08240045082377145,-0.3440845506236696,-0.08787662955210654,11.233955,2.1847534,-2.333828,0.6194521,0.9301839,-0.46928117,1.8013301,-0.36117962,0.0012314911,-0.0751248,-0.92946523,-9.021438,7.6678715,2.068864,-0.08409374,-0.073045656,-0.19172509,0
1.9900000000000015,12.28754763687295,-0.08240045082377145,-0.3440845506236696,-0.08787662955210654,11.233955,2.1847534,-2.333828,0.6194521,0.84000146,-0.39251623,1.8221358,-0.3620935,0.0010138939,-0.074562274,-0.9291552,-9.015048,7.685086,2.0922596,-0.08383455,-0.115314335,-0.18662924,0
2.0000000000000013,,,,,12.062359,1.9108322,-3.2302938,0.0813129,0.74988306,-0.31557998,1.8431755,-0.36299834,0.0006133546,-0.07393038,-0.92885286,-9.008628,7.7021346,2.115677,-0.083614774,-0.15099125,-0.18178342,0
2.010000000000001,,,,,12.062359,1.9108322,-3.2302938,0.0813129,0.65982515,-0.23848467,1.8643744,-0.36390314,-0.00018346887,-0.07318145,-0.9285583,-9.002935,7.7168994,2.1241097,-0.07032324,-0.27714664,-0.17386785,0
2.020000000000001,,,,,12.062359,1.9108322,-3.2302938,0.0813129,0.56982493,-0.16124286,1.8856578,-0.36481354,-0.0015442034,-0.07227793,-0.92827046,-8.997088,7.7314186,2.132568,-0.059101123,-0.38362792,-0.1663407,0
2.0300000000000007,,,,,12.062359,1.9108322,-3.2302938,0.0813129,0.47988427,-0.083857395,1.9070258,-0.36572355,-0.0033810788,-0.071243286,-0.9279874,-8.990993,7.7456203,2.1410546,-0.049626485,-0.47350302,-0.15918289,0
2.0400000000000005,,,,,12.062359,1.9108322,-3.2302938,0.0813129,0.39000618,-0.006331753,1.9284788,-0.3666282,-0.0056199986,-0.070097335,-0.92770684,-8.9845705,7.7594447,2.149572,-0.0416273,-0.54936194,-0.15237632,0
2.0500000000000003,,,,,12.475632,1.9171352,-3.4687672,-0.03417807,0.3001942,0.071330026,1.9500173,-0.36752334,-0.008198401,-0.06885684,-0.9274263,-8.977755,7.7728405,2.1581194,-0.03487397,-0.61339056,-0.14590377,1
2.06,,,,,12.475632,1.9171352,-3.4687672,-0.03417807,0.21045849,0.1491337,1.9717258,-0.3684678,-0.012276357,-0.06787725,-0.92707866,-8.969269,7.787802,2.1835837,0.2695022,-1.058713,-0.14042136,1
2.07,,,,,12.475632,1.9171352,-3.4687672,-0.03417807,0.120812654,0.22708383,1.993689,-0.36949798,-0.01877059,-0.067438506,-0.9265918,-8.959679,7.8021154,2.2090437,0.5264202,-1.4345813,-0.13520798,1
2.0799999999999996,,,,,12.475632,1.9171352,-3.4687672,-0.03417807,0.031270694,0.30517346,2.0159066,-0.3705773,-0.027304016,-0.067451544,-0.9259474,-8.948413,7.8156824,2.234446,0.743279,-1.7518281,-0.13025044,1
2.0899999999999994,,,,,17.054432,0.60813093,-4.581506,2.0816264,-0.058148183,0.38339466,2.0383775,-0.3716719,-0.037557364,-0.06784071,-0.92512083,-8.934993,7.8284163,2.259721,0.92632467,-2.0195966,-0.12553613,1
2.099999999999999,,,,,17.054432,0.60813093,-4.581506,2.0816264,-0.14739184,0.46176055,2.0613265,-0.3725606,-0.04949454,-0.067881174,-0.92419827,-8.913157,7.844528,2.329989,0.87683904,-2.4190586,-0.01723002,1
2.109999999999999,,,,,17.054432,0.60813093,-4.581506,2.0816264,-0.23639783,0.5402793,2.0849762,-0.37303534,-0.063072704,-0.066989526,-0.9232444,-8.887398,7.858908,2.399857,0.83511424,-2.7562344,0.08576146,1
2.1199999999999988,,,,,17.054432,0.60813093,-4.581506,2.0816264,-0.3251251,0.6189312,2.1093218,-0.37308496,-0.078031674,-0.0652967,-0.92220193,-8.857358,7.871086,2.4691865,0.79992515,-3.0408354,0.18369915,1
2.1299999999999986,,,,,19.106237,-1.364366,-5.4731965,3.6764214,-0.4135293,0.6976921,2.1343575,-0.3726998,-0.094149284,-0.062912874,-0.921018,-8.822751,7.8806653,2.5378008,0.7702421,-3.2810588,0.27683097,1
2.1399999999999983,,,,,19.106237,-1.364366,-5.4731965,3.6764214,-0.50152624,0.7765413,2.1602356,-0.37176472,-0.11109657,-0.05948858,-0.91973424,-8.775866,7.888561,2.6371093,0.5623,-3.498345,0.43248528,1
2.149999999999998,,,,,19.106237,-1.364366,-5.4731965,3.6764214,-0.5890301,0.8554491,2.187083,-0.37018716,-0.12866981,-0.05458615,-0.918383,-8.724168,7.892331,2.7316582,0.3498109,-3.7188008,0.58381003,1
2.159999999999998,,,,,19.106237,-1.364366,-5.4731965,3.6764214,-0.6759938,0.93437225,2.2148516,-0.36799023,-0.1468589,-0.048173778,-0.916895,-8.667874,7.8915434,2.8212729,0.13377388,-3.9416404,0.7309917,1
