time-since-start [s],throttle_mpc,roll_mpc,pitch_mpc,yaw_mpc,throttle_nw,roll_nw,pitch_nw,yaw_nw,position_x [m],position_y [m],position_z [m],rotation_w [quaternion],rotation_x [quaternion],rotation_y [quaternion],rotation_z [quaternion],velocity_x [m/s],velocity_y [m/s],velocity_z [m/s],omega_x [rad/s],omega_y [rad/s],omega_z [rad/s],network_used
0.0,6.068986465701374,-2.2214358307731774,-5.999999701118601,1.4741796908759146,9.088543,-1.9296339,4.2887745,0.5495627,12.912894,-11.834263,1.0952393,-0.28953838,0.46283114,-0.235157,-0.80414927,-3.2239192,3.3651,0.09970869,0.13888502,0.9221162,0.8751289,0
0.01,6.068986465701374,-2.2214358307731774,-5.999999701118601,1.4741796908759146,12.310888,-3.1292126,3.1490035,0.16137838,12.880389,-11.80033,1.0959464,-0.28562206,0.46371028,-0.23829708,-0.804119,-3.2767549,3.4212508,0.04140948,0.042526856,0.11383341,0.8802469,0
0.02,6.068986465701374,-2.2214358307731774,-5.999999701118601,1.4741796908759146,12.310888,-3.1292126,3.1490035,0.16137838,12.847365,-11.765845,1.0960617,-0.28233284,0.46166155,-0.2399312,-0.8059714,-3.3276312,3.4753509,-0.018565461,-0.073091246,-0.60265046,0.88817626,0
0.03,6.068986465701374,-2.2214358307731774,-5.999999701118601,1.4741796908759146,12.310888,-3.1292126,3.1490035,0.16137838,12.813843,-11.73083,1.0955718,-0.27952442,0.4570378,-0.24012916,-0.8095187,-3.3764966,3.5273297,-0.079578176,-0.20270832,-1.2394011,0.8985781,0
0.04,6.068986465701374,-2.2214358307731774,-5.999999701118601,1.4741796908759146,12.095673,-2.6353185,2.4045334,-0.062156282,12.779841,-11.695307,1.0944685,-0.27706623,0.45012686,-0.23895244,-0.8145685,-3.4233303,3.5771356,-0.14111416,-0.34207508,-1.8067923,0.91114676,0
0.05,6.068986465701374,-2.2214358307731774,-5.999999701118601,1.4741796908759146,12.095673,-2.6353185,2.4045334,-0.062156282,12.745382,-11.659295,1.092749,-0.2748432,0.44116467,-0.23645581,-0.8209286,-3.4681277,3.624727,-0.20276347,-0.48777926,-2.3137531,0.92560726,0
0.060000000000000005,6.068986465701374,-2.2214358307731774,-5.999999701118601,1.4741796908759146,12.095673,-2.6353185,2.4045334,-0.062156282,12.710485,-11.62282,1.0904139,-0.27275464,0.43034586,-0.23268859,-0.82841027,-3.5108917,3.6700673,-0.26420468,-0.6370994,-2.7679782,0.9417121,0
0.07,6.068986465701374,-2.2214358307731774,-5.999999701118601,1.4741796908759146,12.095673,-2.6353185,2.4045334,-0.062156282,12.675172,-11.585902,1.0874666,-0.27071318,0.41783217,-0.22769581,-0.8368306,-3.5516262,3.713122,-0.32519153,-0.78788364,-3.1761065,0.95923877,0
0.08,9.423342393431025,-2.9387204535348674,-5.9999997725904395,2.143936123968813,13.758884,-3.6087158,2.166817,-0.10891353,12.6394615,-11.548567,1.0839124,-0.26864332,0.40375924,-0.22151919,-0.84601337,-3.5903325,3.753857,-0.38554168,-0.93844676,-3.5438712,0.9779875,0
0.09,9.423342393431025,-2.9387204535348674,-5.9999997725904395,2.143936123968813,13.758884,-3.6087158,2.166817,-0.10891353,12.603271,-11.510728,1.0798647,-0.26631558,0.38834864,-0.21407376,-0.85582346,-3.6473908,3.8135552,-0.42373058,-1.1691937,-3.8462107,1.0279489,0
0.09999999999999999,9.423342393431025,-2.9387204535348674,-5.9999997725904395,2.143936123968813,13.758884,-3.6087158,2.166817,-0.10891353,12.566523,-11.472309,1.0754433,-0.26353288,0.37176916,-0.2052765,-0.8661407,-3.7016144,3.869783,-0.46029872,-1.3908756,-4.1283345,1.0778661,0
0.10999999999999999,9.423342393431025,-2.9387204535348674,-5.9999997725904395,2.143936123968813,13.758884,-3.6087158,2.166817,-0.10891353,12.529246,-11.433345,1.0706646,-0.26027775,0.35405615,-0.19516823,-0.87681764,-3.7529857,3.922385,-0.4951932,-1.6037962,-4.392284,1.1276424,0
0.11999999999999998,9.423342393431025,-2.9387204535348674,-5.9999997725904395,2.143936123968813,13.758884,-3.6087158,2.166817,-0.10891353,12.491472,-11.393874,1.0655454,-0.25653458,0.33524176,-0.18378867,-0.8877076,-3.8015347,3.971283,-0.52831995,-1.8068519,-4.638418,1.177069,0
0.12999999999999998,13.255325539909013,-1.7237352919698645,-5.831932265428709,0.5575206014082158,15.059244,-4.3747,2.3604124,0.2313627,12.453223,-11.35393,1.0601087,-0.2523002,0.31538638,-0.17122851,-0.8986417,-3.8480287,4.0171523,-0.55850464,-1.9830536,-4.8509526,1.2245134,0
0.13999999999999999,13.255325539909013,-1.7237352919698645,-5.831932265428709,0.5575206014082158,15.059244,-4.3747,2.3604124,0.2313627,12.414428,-11.313455,1.0545301,-0.24790397,0.29456365,-0.1580382,-0.9092854,-3.9105954,4.077389,-0.55648744,-1.9425977,-5.003862,1.1917839,0
0.15,13.255325539909013,-1.7237352919698645,-5.831932265428709,0.5575206014082158,15.059244,-4.3747,2.3604124,0.2313627,12.375022,-11.272399,1.0489941,-0.2436319,0.27285832,-0.14467618,-0.91938066,-3.9699483,4.133141,-0.55001557,-1.9084702,-5.1329336,1.1606605,0
0.16,15.026409992562346,-0.5235739506902443,-4.179188170647639,-0.6153435541946615,15.155048,-3.7753446,2.5057151,-0.478477,12.335041,-11.230808,1.0435442,-0.2394376,0.2503775,-0.13115902,-0.9288586,-4.0256996,4.184275,-0.53928906,-1.8796794,-5.2418838,1.1310642,0
0.17,15.026409992562346,-0.5235739506902443,-4.179188170647639,-0.6153435541946615,15.155048,-3.7753446,2.5057151,-0.478477,12.294487,-11.188698,1.0382969,-0.23545453,0.2277412,-0.11807372,-0.9374187,-4.0844264,4.2369146,-0.50950515,-1.6686016,-5.075907,1.0453675,0
0.18000000000000002,15.026409992562346,-0.5235739506902443,-4.179188170647639,-0.6153435541946615,15.155048,-3.7753446,2.5057151,-0.478477,12.253368,-11.146088,1.0333681,-0.23181967,0.20547162,-0.10589513,-0.9448954,-4.138431,4.2844024,-0.4756853,-1.490393,-4.935863,0.963876,0
0.19000000000000003,15.026409992562346,-0.5235739506902443,-4.179188170647639,-0.6153435541946615,15.155048,-3.7753446,2.5057151,-0.478477,12.211735,-11.103026,1.0287955,-0.22850108,0.18352075,-0.09448554,-0.9514094,-4.187542,4.326984,-0.43832445,-1.3399361,-4.8176975,0.8863833,0
0.20000000000000004,15.239924217068406,-0.02962304100539569,-2.8162038943300067,-1.0948444721196946,13.982899,-2.4492326,3.100873,-0.68348956,12.169636,-11.059565,1.0246122,-0.22547033,0.1618457,-0.08372804,-0.95705736,-4.23162,4.364874,-0.3978733,-1.2129095,-4.717991,0.8126931,0
0.21000000000000005,15.239924217068406,-0.02962304100539569,-2.8162038943300067,-1.0948444721196946,13.982899,-2.4492326,3.100873,-0.68348956,12.127118,-11.015742,1.0208572,-0.22274783,0.14089377,-0.07382685,-0.96181184,-4.27113,4.398762,-0.35275334,-1.0288044,-4.4212475,0.7190897,0
0.22000000000000006,15.239924217068406,-0.02962304100539569,-2.8162038943300067,-1.0948444721196946,13.982899,-2.4492326,3.100873,-0.68348956,12.084231,-10.971603,1.0175648,-0.22036496,0.121024445,-0.06494064,-0.96569926,-4.305525,4.4284563,-0.30539832,-0.87334293,-4.170818,0.63007945,0
0.23000000000000007,15.239924217068406,-0.02962304100539569,-2.8162038943300067,-1.0948444721196946,13.982899,-2.4492326,3.100873,-0.68348956,12.041025,-10.927187,1.0147554,-0.21831053,0.10208134,-0.056915987,-0.9688552,-4.3349376,4.4543104,-0.25622705,-0.74207103,-3.9594712,0.5454369,0
0.24000000000000007,15.239924217068406,-0.02962304100539569,-2.8162038943300067,-1.0948444721196946,12.430956,-1.3896673,4.4892964,-0.9096686,11.99755,-10.88253,1.0124452,-0.21657196,0.083929144,-0.049622804,-0.9713856,-4.3594923,4.476628,-0.20559348,-0.63122743,-3.7811065,0.46494782,0
0.25000000000000006,15.239924217068406,-0.02962304100539569,-2.8162038943300067,-1.0948444721196946,12.430956,-1.3896673,4.4892964,-0.9096686,11.953853,-10.8376665,1.0106474,-0.21513589,0.06645135,-0.042951033,-0.97337353,-4.3793044,4.4956684,-0.15380068,-0.53763473,-3.630575,0.38840836,0
0.26000000000000006,15.239924217068406,-0.02962304100539569,-2.8162038943300067,-1.0948444721196946,12.430956,-1.3896673,4.4892964,-0.9096686,11.909981,-10.792627,1.0093722,-0.21398863,0.049548093,-0.036807764,-0.97488415,-4.3944798,4.511655,-0.10111177,-0.45860907,-3.5035322,0.3156247,0
0.2700000000000001,15.239924217068406,-0.02962304100539569,-2.8162038943300067,-1.0948444721196946,12.430956,-1.3896673,4.4892964,-0.9096686,11.865978,-10.747443,1.0086275,-0.21311651,0.033134054,-0.031114692,-0.9759689,-4.4051127,4.5247765,-0.047758523,-0.39188448,-3.396312,0.24641258,0
0.2800000000000001,16.05933183245541,0.47723894462149086,-0.3673010714236037,-1.3186547104694057,12.522991,-0.86332226,5.2350116,-1.2071102,11.821894,-10.702142,1.0084188,-0.21250597,0.0171366,-0.025805898,-0.9766686,-4.41129,4.5351934,0.0060519017,-0.33554664,-3.3058207,0.18059672,0
0.2900000000000001,16.05933183245541,0.47723894462149086,-0.3673010714236037,-1.3186547104694057,12.522991,-0.86332226,5.2350116,-1.2071102,11.777768,-10.656746,1.0087905,-0.21215177,0.0024091108,-0.021231992,-0.97700304,-4.4132447,4.5435057,0.068311825,-0.20898487,-2.847535,0.10702804,0
0.3000000000000001,16.05933183245541,0.47723894462149086,-0.3673010714236037,-1.3186547104694057,12.522991,-0.86332226,5.2350116,-1.2071102,11.733643,-10.611279,1.0097854,-0.21206093,-0.010375487,-0.017668843,-0.9770416,-4.4111023,4.5495543,0.13067225,-0.10210906,-2.4607315,0.037069388,0
0.3100000000000001,16.05933183245541,0.47723894462149086,-0.3673010714236037,-1.3186547104694057,12.522991,-0.86332226,5.2350116,-1.2071102,11.689557,-10.565761,1.0114039,-0.21223438,-0.021518508,-0.01496416,-0.97686726,-4.405368,4.553762,0.19300455,-0.011861235,-2.1342592,-0.029456383,0
0.3200000000000001,16.5867626627046,0.8482111337562457,2.0098602530217593,-1.3951935451281638,13.5592785,-0.7023535,5.6550946,-0.9506411,11.645545,-10.520209,1.0136452,-0.21266893,-0.031275425,-0.012988972,-0.97653735,-4.396471,4.5564837,0.25522554,0.06434171,-1.858707,-0.09271771,0
0.3300000000000001,16.5867626627046,0.8482111337562457,2.0098602530217593,-1.3951935451281638,13.5592785,-0.7023535,5.6550946,-0.9506411,11.601639,-10.474637,1.0165341,-0.21335207,-0.03896525,-0.011982031,-0.9761246,-4.3844523,4.558109,0.3225474,0.18656832,-1.2554209,-0.15663058,0
0.34000000000000014,16.5867626627046,0.8482111337562457,2.0098602530217593,-1.3951935451281638,13.5592785,-0.7023535,5.6550946,-0.9506411,11.557864,-10.429051,1.0200956,-0.21427508,-0.044060905,-0.012127569,-0.97570384,-4.370311,4.559068,0.38970754,0.28977236,-0.74622387,-0.21740726,0
0.35000000000000014,16.5867626627046,0.8482111337562457,2.0098602530217593,-1.3951935451281638,13.5592785,-0.7023535,5.6550946,-0.9506411,11.514237,-10.383456,1.024328,-0.21543397,-0.046968553,-0.013250984,-0.97529835,-4.354759,4.55988,0.4567422,0.37690842,-0.31644046,-0.27520156,0
0.36000000000000015,17.416968937650164,1.091555398786186,3.9606465771971053,-1.369369442566163,12.177116,-0.66469806,5.826674,-0.96160364,11.470772,-10.3378525,1.0292301,-0.21682085,-0.048030294,-0.015204292,-0.97491074,-4.3383956,4.5609813,0.5236969,0.45047373,0.046315603,-0.3301599,0
0.37000000000000016,17.416968937650164,1.091555398786186,3.9606465771971053,-1.369369442566163,12.177116,-0.66469806,5.826674,-0.96160364,11.427475,-10.292233,1.034843,-0.21840513,-0.04679436,-0.018126553,-0.9745672,-4.3209405,4.5628653,0.59887916,0.55060196,0.6567137,-0.38115418,0
0.38000000000000017,17.416968937650164,1.091555398786186,3.9606465771971053,-1.369369442566163,12.177116,-0.66469806,5.826674,-0.96160364,11.384352,-10.246591,1.0412079,-0.22015435,-0.04291709,-0.022121986,-0.9742695,-4.303994,4.566027,0.6740928,0.6351272,1.1719191,-0.42964622,0
0.3900000000000002,17.416968937650164,1.091555398786186,3.9606465771971053,-1.369369442566163,12.177116,-0.66469806,5.826674,-0.96160364,11.341392,-10.200907,1.0483252,-0.22205405,-0.03680919,-0.027026864,-0.9739646,-4.2883153,4.570998,0.74938256,0.7064761,1.6067785,-0.4757587,0
0.4000000000000002,17.649083166166648,1.0961229729048994,4.789480693249383,-1.2692647268585056,10.889042,-0.14828552,5.0964265,-1.2907462,11.298579,-10.155162,1.0561957,-0.22408837,-0.028816875,-0.032701448,-0.9735939,-4.274541,4.5782356,0.82475334,0.76669854,1.9738226,-0.5196085,0
0.4100000000000002,17.649083166166648,1.0961229729048994,4.789480693249383,-1.2692647268585056,10.889042,-0.14828552,5.0964265,-1.2907462,11.255894,-10.109331,1.064832,-0.22621705,-0.018910427,-0.03910221,-0.9731083,-4.2630777,4.5882716,0.9024817,0.8182778,2.4128857,-0.55639434,0
0.4200000000000002,17.649083166166648,1.0961229729048994,4.789480693249383,-1.2692647268585056,10.889042,-0.14828552,5.0964265,-1.2907462,11.213307,-10.063385,1.0742453,-0.22839859,-0.007082225,-0.046187256,-0.97244596,-4.2547164,4.601424,0.980178,0.8618049,2.7834792,-0.5913751,0
0.4300000000000002,17.649083166166648,1.0961229729048994,4.789480693249383,-1.2692647268585056,10.889042,-0.14828552,5.0964265,-1.2907462,11.170787,-10.01729,1.084435,-0.23061565,0.0063672625,-0.053847153,-0.97153324,-4.25001,4.618071,1.0577126,0.89853394,3.0962806,-0.6246394,0
0.4400000000000002,17.649083166166648,1.0961229729048994,4.789480693249383,-1.2692647268585056,10.971231,-0.35185078,5.3318543,-0.93224704,11.128294,-9.971011,1.0953985,-0.232852,0.021182556,-0.06198729,-0.9703037,-4.249417,4.63853,1.1349049,0.9295242,3.3603027,-0.65627134,0
0.45000000000000023,17.649083166166648,1.0961229729048994,4.789480693249383,-1.2692647268585056,10.971231,-0.35185078,5.3318543,-0.93224704,11.085784,-9.924506,1.1071312,-0.23509274,0.03714583,-0.07052561,-0.9686992,-4.253312,4.6630692,1.211529,0.9556704,3.5831523,-0.68635106,0
0.46000000000000024,17.649083166166648,1.0961229729048994,4.789480693249383,-1.2692647268585056,10.971231,-0.35185078,5.3318543,-0.93224704,11.043211,-9.877734,1.1196262,-0.23732442,0.054070845,-0.07939079,-0.9666701,-4.261999,4.6919107,1.2873204,0.9777281,3.7712505,-0.71495485,0
0.47000000000000025,17.649083166166648,1.0961229729048994,4.789480693249383,-1.2692647268585056,10.971231,-0.35185078,5.3318543,-0.93224704,11.000526,-9.830652,1.1328737,-0.23953484,0.071797945,-0.088520594,-0.9641746,-4.275717,4.725236,1.3619816,0.9963351,3.9300165,-0.74215496,0
0.48000000000000026,15.94038686643235,0.8696552276968721,4.480021742442956,-1.130190875248766,10.004713,0.28358108,5.616011,-0.07297664,10.957679,-9.783214,1.1468607,-0.24171314,0.090189874,-0.09786066,-0.9611786,-4.294645,4.763188,1.4351892,1.01203,4.0640244,-0.7680204,0
0.49000000000000027,15.94038686643235,0.8696552276968721,4.480021742442956,-1.130190875248766,10.004713,0.28358108,5.616011,-0.07297664,10.914626,-9.735393,1.161489,-0.24383724,0.109029874,-0.10724807,-0.9576817,-4.3165593,4.801733,1.4901909,0.9899069,4.1288986,-0.78579223,0
0.5000000000000002,15.94038686643235,0.8696552276968721,4.480021742442956,-1.130190875248766,10.004713,0.28358108,5.616011,-0.07297664,10.87133,-9.687165,1.176658,-0.24588774,0.12813891,-0.11655132,-0.95369595,-4.343338,4.844553,1.5432706,0.97122794,4.183655,-0.802692,0
0.5100000000000002,15.94038686643235,0.8696552276968721,4.480021742442956,-1.130190875248766,10.004713,0.28358108,5.616011,-0.07297664,10.827742,-9.638487,1.1923468,-0.24785925,0.14745772,-0.12576835,-0.94921273,-4.374986,4.8916245,1.594129,0.95545626,4.2298717,-0.8187625,0
0.5200000000000002,12.521151575701134,0.48990779799094014,3.201838786377619,-0.9618355179096256,9.451496,0.47308907,4.873577,-0.33560085,10.783813,-9.589318,1.208532,-0.24974717,0.16693434,-0.1348964,-0.94422597,-4.4114847,4.9429097,1.6424649,0.94213885,4.26888,-0.8340444,0
0.5300000000000002,12.521151575701134,0.48990779799094014,3.201838786377619,-0.9618355179096256,9.451496,0.47308907,4.873577,-0.33560085,10.739539,-9.539675,1.225032,-0.25157392,0.18607771,-0.14366531,-0.93885374,-4.4439106,4.9864497,1.6571854,0.87154007,4.10251,-0.84031516,0
0.5400000000000003,12.521151575701134,0.48990779799094014,3.201838786377619,-0.9618355179096256,9.451496,0.47308907,4.873577,-0.33560085,10.694922,-9.489579,1.2416675,-0.25336364,0.20450348,-0.15186545,-0.93323225,-4.479921,5.033077,1.6695617,0.8119634,3.96208,-0.84627825,0
0.5500000000000003,12.521151575701134,0.48990779799094014,3.201838786377619,-0.9618355179096256,9.451496,0.47308907,4.873577,-0.33560085,10.649929,-9.439003,1.2584147,-0.25511426,0.22231285,-0.15957542,-0.92737794,-4.519321,5.0826044,1.6794925,0.76168793,3.8435457,-0.8519487,0
0.5600000000000003,9.791756800353236,0.08566158964913971,1.5076922566622888,-0.7716405899507881,5.5322943,1.7991678,3.1074944,-1.0434796,10.604526,-9.3879175,1.2752486,-0.25682348,0.23959053,-0.16686153,-0.9213012,-4.561935,5.1348696,1.6868845,0.7192617,3.7434926,-0.8573409,0
0.5700000000000003,9.791756800353236,0.08566158964913971,1.5076922566622888,-0.7716405899507881,5.5322943,1.7991678,3.1074944,-1.0434796,10.55873,-9.336356,1.2920308,-0.25854442,0.25582388,-0.17346333,-0.9152158,-4.597629,5.1777525,1.6692448,0.6202482,3.3948777,-0.8531355,0
0.5800000000000003,9.791756800353236,0.08566158964913971,1.5076922566622888,-0.7716405899507881,5.5322943,1.7991678,3.1074944,-1.0434796,10.512566,-9.284356,1.3086267,-0.2603261,0.2706225,-0.17918405,-0.9093335,-4.6354613,5.2224345,1.6496255,0.5367081,3.1006203,-0.84913653,0
0.5900000000000003,9.791756800353236,0.08566158964913971,1.5076922566622888,-0.7716405899507881,5.5322943,1.7991678,3.1074944,-1.0434796,10.466014,-9.231902,1.3250167,-0.26215914,0.28421456,-0.1841606,-0.90364826,-4.675202,5.2687073,1.6281197,0.46622324,2.8522441,-0.8453338,0
0.6000000000000003,7.782338964466449,-0.32190905105253936,-0.505350802932607,-0.5621783955158189,6.819003,1.2321997,2.0667784,-0.57637805,10.419056,-9.178978,1.3411828,-0.264034,0.296791,-0.18850814,-0.8981461,-4.716661,5.3163953,1.6048145,0.4067532,2.6425955,-0.84171766,0
0.6100000000000003,7.782338964466449,-0.32190905105253936,-0.505350802932607,-0.5621783955158189,6.819003,1.2321997,2.0667784,-0.57637805,10.371718,-9.12562,1.3570321,-0.2660239,0.30783,-0.19197282,-0.8930952,-4.750835,5.355292,1.5648127,0.29283032,2.15174,-0.82800055,0
0.6200000000000003,7.782338964466449,-0.32190905105253936,-0.505350802932607,-0.5621783955158189,6.819003,1.2321997,2.0667784,-0.57637805,10.324036,-9.07187,1.3724751,-0.26818976,0.31693667,-0.19436333,-0.8887344,-4.786024,5.394994,1.523649,0.19672374,1.7374216,-0.81495655,0
0.6300000000000003,7.782338964466449,-0.32190905105253936,-0.505350802932607,-0.5621783955158189,6.819003,1.2321997,2.0667784,-0.57637805,10.275996,-9.017718,1.3875017,-0.2705041,0.32442558,-0.1958518,-0.8849962,-4.822032,5.4353166,1.4815297,0.115646295,1.3877064,-0.8025527,0
0.6400000000000003,7.782338964466449,-0.32190905105253936,-0.505350802932607,-0.5621783955158189,6.456804,0.8156248,1.5380504,-0.32319516,10.2275915,-8.963161,1.4021031,-0.27294123,0.33055848,-0.19658202,-0.8818108,-4.8587,5.4761086,1.4386371,0.04724712,1.0925213,-0.7907575,0
0.6500000000000004,7.782338964466449,-0.32190905105253936,-0.505350802932607,-0.5621783955158189,6.456804,0.8156248,1.5380504,-0.32319516,10.178819,-8.908194,1.4162724,-0.275478,0.33555317,-0.19667426,-0.87911075,-4.8958993,5.517243,1.3951313,-0.010457081,0.8433637,-0.7795411,0
0.6600000000000004,7.782338964466449,-0.32190905105253936,-0.505350802932607,-0.5621783955158189,6.456804,0.8156248,1.5380504,-0.32319516,10.129671,-8.852814,1.430004,-0.27809387,0.33959135,-0.19622931,-0.876833,-4.9335265,5.5586157,1.351151,-0.0591389,0.6330567,-0.768875,0
0.6700000000000004,7.782338964466449,-0.32190905105253936,-0.505350802932607,-0.5621783955158189,6.456804,0.8156248,1.5380504,-0.32319516,10.080147,-8.79702,1.443294,-0.280771,0.34282473,-0.19533181,-0.87492,-4.971496,5.600139,1.3068154,-0.10020979,0.4555425,-0.7587324,0
0.6800000000000004,6.674854703737031,-0.6083484947330865,-1.826543327948962,-0.3589260366441307,6.2796245,1.9307601,0.05198033,-0.86809874,10.030241,-8.74081,1.4561394,-0.28349397,0.34538013,-0.19405289,-0.87332004,-5.009738,5.6417394,1.2622268,-0.1348597,0.30570793,-0.74908745,0
0.6900000000000004,6.674854703737031,-0.6083484947330865,-1.826543327948962,-0.3589260366441307,6.2796245,1.9307601,0.05198033,-0.86809874,9.979979,-8.684215,1.4685001,-0.28629053,0.3469302,-0.19221054,-0.8722001,-5.042716,5.6774225,1.2098929,-0.20886208,-0.026782066,-0.7299421,0
0.7000000000000004,6.674854703737031,-0.6083484947330865,-1.826543327948962,-0.3589260366441307,6.2796245,1.9307601,0.05198033,-0.86809874,9.929386,-8.627262,1.4803374,-0.28917736,0.34722054,-0.18966311,-0.87168974,-5.0757847,5.7130084,1.1575693,-0.27129158,-0.30742747,-0.7117362,0
0.7100000000000004,6.674854703737031,-0.6083484947330865,-1.826543327948962,-0.3589260366441307,6.2796245,1.9307601,0.05198033,-0.86809874,9.878463,-8.569955,1.491652,-0.29212704,0.34644577,-0.18651979,-0.8716927,-5.1088576,5.7483926,1.105398,-0.3239593,-0.54431194,-0.6944237,0
0.7200000000000004,5.86691978400133,-0.784367110817178,-2.8577248339060257,-0.16891560738232514,6.378924,1.3612233,-0.32806844,-0.59164214,9.827209,-8.512294,1.5024463,-0.29511607,0.34476843,-0.18287219,-0.87212366,-5.1418633,5.7834864,1.0534974,-0.36839208,-0.744259,-0.67796075,0
0.7300000000000004,5.86691978400133,-0.784367110817178,-2.8577248339060257,-0.16891560738232514,6.378924,1.3612233,-0.32806844,-0.59164214,9.775644,-8.454304,1.5126989,-0.29816106,0.3419979,-0.1786542,-0.8730526,-5.171154,5.8144217,0.99689555,-0.42525545,-1.0657012,-0.65372413,0
0.7400000000000004,5.86691978400133,-0.784367110817178,-2.8577248339060257,-0.16891560738232514,6.378924,1.3612233,-0.32806844,-0.59164214,9.723789,-8.3960085,1.5223838,-0.30125773,0.3379614,-0.17376702,-0.8745465,-5.1998525,5.844513,0.94018334,-0.48135698,-1.3451498,-0.62993443,0
0.7500000000000004,5.86691978400133,-0.784367110817178,-2.8577248339060257,-0.16891560738232514,6.378924,1.3612233,-0.32806844,-0.59164214,9.671649,-8.337415,1.5315044,-0.30437088,0.33283776,-0.16829568,-0.87650144,-5.2282767,5.8740797,0.8840341,-0.5286848,-1.5810235,-0.6073121,0
0.7600000000000005,5.142107548733786,-0.8842493068781277,-3.428710328186089,0.026228740945378096,5.2910867,-0.37906674,-0.24550344,-0.04662054,9.6192255,-8.278529,1.5400667,-0.30747363,0.32678464,-0.16232696,-0.8788188,-5.2563596,5.903032,0.82853824,-0.56861216,-1.7801164,-0.5857999,0
0.7700000000000005,5.142107548733786,-0.8842493068781277,-3.428710328186089,0.026228740945378096,5.2910867,-0.37906674,-0.24550344,-0.04662054,9.566535,-8.219369,1.5480589,-0.31055954,0.31977576,-0.15590295,-0.8814711,-5.2815375,5.928733,0.7698502,-0.5978175,-2.0171418,-0.5575736,0
0.7800000000000005,5.142107548733786,-0.8842493068781277,-3.428710328186089,0.026228740945378096,5.2910867,-0.37906674,-0.24550344,-0.04662054,9.513598,-8.159959,1.5554627,-0.31360573,0.31176692,-0.14900504,-0.8844496,-5.3056536,5.953085,0.71086764,-0.6365868,-2.2313359,-0.5294685,0
0.7900000000000005,5.142107548733786,-0.8842493068781277,-3.428710328186089,0.026228740945378096,5.2910867,-0.37906674,-0.24550344,-0.04662054,9.460424,-8.100311,1.5622774,-0.31657258,0.30286586,-0.14163749,-0.88769,-5.329017,5.9763927,0.65219986,-0.6752312,-2.4180646,-0.5022003,0
0.8000000000000005,4.979409059101315,-0.9718321514808933,-3.799839092490182,0.21554566333460015,5.2359014,-1.0784779,0.4356454,-0.48353338,9.407021,-8.040435,1.5685095,-0.3194375,0.29319027,-0.13385747,-0.8911128,-5.351846,5.998855,0.59432757,-0.7078355,-2.5756755,-0.47627014,0
0.8100000000000005,4.979409059101315,-0.9718321514808933,-3.799839092490182,0.21554566333460015,5.2359014,-1.0784779,0.4356454,-0.48353338,9.35339,-7.980337,1.5741678,-0.3221842,0.2827502,-0.1257116,-0.89467704,-5.3741136,6.020422,0.5373178,-0.73166054,-2.74925,-0.44388276,0
0.8200000000000005,4.979409059101315,-0.9718321514808933,-3.799839092490182,0.21554566333460015,5.2359014,-1.0784779,0.4356454,-0.48353338,9.299541,-7.920031,1.5792556,-0.32478508,0.27153468,-0.11719222,-0.8983598,-5.395253,6.0405364,0.48021254,-0.7637676,-2.907762,-0.412011,0
0.8300000000000005,4.979409059101315,-0.9718321514808933,-3.799839092490182,0.21554566333460015,5.2359014,-1.0784779,0.4356454,-0.48353338,9.245487,-7.8595304,1.5837735,-0.32721272,0.2596206,-0.10829627,-0.90210956,-5.415494,6.0594053,0.42350745,-0.79619145,-3.0468884,-0.38121662,0
0.8400000000000005,4.979409059101315,-0.9718321514808933,-3.799839092490182,0.21554566333460015,6.5291395,-1.1017807,0.71941733,-0.3567417,9.191234,-7.7988462,1.5877284,-0.32945335,0.24709658,-0.09906827,-0.9058642,-5.43501,6.0771704,0.3676305,-0.82355136,-3.1643195,-0.35193333,0
0.8500000000000005,4.979409059101315,-0.9718321514808933,-3.799839092490182,0.21554566333460015,6.5291395,-1.1017807,0.71941733,-0.3567417,9.136789,-7.737991,1.5911288,-0.33149812,0.23404391,-0.08955694,-0.90956736,-5.4537554,6.093767,0.31256998,-0.8466393,-3.2634385,-0.32408696,0
0.8600000000000005,4.979409059101315,-0.9718321514808933,-3.799839092490182,0.21554566333460015,6.5291395,-1.1017807,0.71941733,-0.3567417,9.082161,-7.6769753,1.5939827,-0.33334047,0.22053258,-0.07980407,-0.9131712,-5.4716883,6.109137,0.25830376,-0.866123,-3.3471007,-0.29760706,0
0.8700000000000006,4.979409059101315,-0.9718321514808933,-3.799839092490182,0.21554566333460015,6.5291395,-1.1017807,0.71941733,-0.3567417,9.027358,-7.615813,1.5962977,-0.33497557,0.20662312,-0.069845624,-0.91663545,-5.4887695,6.123228,0.2048008,-0.8825659,-3.4177165,-0.27242652,0
0.8800000000000006,5.242308856693881,-1.0452668194186747,-3.2514720064400784,0.3843985788658036,8.299683,-1.0552319,1.2417395,0.17394093,8.972388,-7.554516,1.5980814,-0.33640036,0.19236803,-0.059712615,-0.9199264,-5.504963,6.1359925,0.15202235,-0.89644325,-3.4773197,-0.24848162,0
0.8900000000000006,5.242308856693881,-1.0452668194186747,-3.2514720064400784,0.3843985788658036,8.299683,-1.0552319,1.2417395,0.17394093,8.917257,-7.493095,1.5993527,-0.33757672,0.17802425,-0.049482808,-0.9229852,-5.5210457,6.1479926,0.10234995,-0.91957676,-3.4421139,-0.21742602,0
0.9000000000000006,5.242308856693881,-1.0452668194186747,-3.2514720064400784,0.3843985788658036,8.299683,-1.0552319,1.2417395,0.17394093,8.861971,-7.431561,1.6001304,-0.33847868,0.16380158,-0.039220646,-0.9257775,-5.5361586,6.158532,0.05332572,-0.93910825,-3.4123988,-0.18789431,0
0.9100000000000006,5.242308856693881,-1.0452668194186747,-3.2514720064400784,0.3843985788658036,8.299683,-1.0552319,1.2417395,0.17394093,8.806539,-7.3699293,1.6004211,-0.3391209,0.14967872,-0.028932847,-0.9283088,-5.5503025,6.1675973,0.0048812423,-0.95559853,-3.3873177,-0.15981175,0
0.9200000000000006,5.241543491351449,-0.9725928001351238,-2.1866897220453496,0.5405034837773318,9.675556,-1.2311734,1.8162882,0.5442478,8.750969,-7.308214,1.6002297,-0.33951595,0.13563825,-0.018625284,-0.9305833,-5.5634794,6.175176,-0.043050483,-0.9695214,-3.3661482,-0.1331072,0
0.9300000000000006,5.241543491351449,-0.9725928001351238,-2.1866897220453496,0.5405034837773318,9.675556,-1.2311734,1.8162882,0.5442478,8.695272,-7.2464304,1.5995619,-0.33965588,0.122051805,-0.008474486,-0.9325591,-5.5757046,6.181272,-0.09049474,-0.97042704,-3.1827443,-0.10010077,0
0.9400000000000006,5.241543491351449,-0.9725928001351238,-2.1866897220453496,0.5405034837773318,9.675556,-1.2311734,1.8162882,0.5442478,8.639459,-7.184593,1.5984211,-0.3395436,0.109219536,0.0013733441,-0.93422717,-5.586999,6.1859097,-0.13762346,-0.97069246,-3.0274298,-0.06866614,0
0.9500000000000006,5.241543491351449,-0.9725928001351238,-2.1866897220453496,0.5405034837773318,9.675556,-1.2311734,1.8162882,0.5442478,8.583536,-7.1227174,1.5968105,-0.33920276,0.097027555,0.010962697,-0.9356324,-5.597427,6.189143,-0.18445967,-0.9709264,-2.8963356,-0.03877401,0
0.9600000000000006,5.256432959906584,-0.8704687031989605,-0.818549030294743,0.6665589576301366,9.3582115,-0.53357637,2.7013485,0.31945467,8.5275135,-7.060816,1.5947326,-0.33865267,0.085378975,0.020331841,-0.9368097,-5.607031,6.1910124,-0.23106742,-0.9711318,-2.7856846,-0.010348697,0
0.9700000000000006,5.256432959906584,-0.8704687031989605,-0.818549030294743,0.6665589576301366,9.3582115,-0.53357637,2.7013485,0.31945467,8.4713955,-6.998902,1.5922062,-0.3379099,0.07464019,0.029398315,-0.937754,-5.6163864,6.191595,-0.27441055,-0.9863555,-2.5099044,0.020086654,0
0.9800000000000006,5.256432959906584,-0.8704687031989605,-0.818549030294743,0.6665589576301366,9.3582115,-0.53357637,2.7013485,0.31945467,8.415189,-6.9369884,1.5892404,-0.33699885,0.065127365,0.03803843,-0.93847984,-5.6248,6.190872,-0.31898135,-0.985024,-2.2629402,0.050297514,0
0.9900000000000007,5.256432959906584,-0.8704687031989605,-0.818549030294743,0.6665589576301366,9.3582115,-0.53357637,2.7013485,0.31945467,8.358901,-6.875088,1.5858227,-0.3359421,0.05669534,0.046229735,-0.9390381,-5.6324153,6.188991,-0.36474591,-0.9706958,-2.041276,0.08020917,0
1.0000000000000007,5.458787958762274,-0.7009035705738234,-0.12225398017138989,0.7723075559808757,9.464804,-0.6531734,3.2903028,0.6040571,8.302542,-6.8132124,1.5819448,-0.33475614,0.049206503,0.053984556,-0.93947005,-5.639463,6.186034,-0.41084123,-0.95504045,-1.8506095,0.10898153,0
1.0100000000000007,5.458787958762274,-0.7009035705738234,-0.12225398017138989,0.7723075559808757,9.464804,-0.6531734,3.2903028,0.6040571,8.246111,-6.751373,1.5776268,-0.33345836,0.042724058,0.061282303,-0.939801,-5.646571,6.1817694,-0.4530032,-0.9356419,-1.6013391,0.13970889,0
1.0200000000000007,5.458787958762274,-0.7009035705738234,-0.12225398017138989,0.7723075559808757,9.464804,-0.6531734,3.2903028,0.6040571,8.189612,-6.68958,1.57288,-0.3320655,0.037317738,0.06805441,-0.9400584,-5.653129,6.176641,-0.4965754,-0.9048047,-1.3764693,0.17022246,0
1.0300000000000007,5.458787958762274,-0.7009035705738234,-0.12225398017138989,0.7723075559808757,9.464804,-0.6531734,3.2903028,0.6040571,8.133049,-6.627843,1.5676934,-0.33058578,0.032857,0.07431284,-0.9402725,-5.6593304,6.170698,-0.54076797,-0.8730052,-1.1808885,0.19976695,0
1.0400000000000007,5.458787958762274,-0.7009035705738234,-0.12225398017138989,0.7723075559808757,10.6344185,-0.61703265,3.7466068,0.73003346,8.076426,-6.566169,1.5620643,-0.32902384,0.029202668,0.08012747,-0.9404634,-5.665314,6.1639743,-0.58502775,-0.84616864,-1.015807,0.22786167,0
1.0500000000000007,5.458787958762274,-0.7009035705738234,-0.12225398017138989,0.7723075559808757,10.6344185,-0.61703265,3.7466068,0.73003346,8.019743,-6.5045657,1.5559925,-0.3273825,0.026231488,0.08556852,-0.9406445,-5.67114,6.1565404,-0.62936366,-0.82351995,-0.87646896,0.2545778,0
1.0600000000000007,5.458787958762274,-0.7009035705738234,-0.12225398017138989,0.7723075559808757,10.6344185,-0.61703265,3.7466068,0.73003346,7.9630036,-6.4430404,1.5494767,-0.32566366,0.023839222,0.09069505,-0.94082445,-5.6768594,6.1484547,-0.67378205,-0.8044048,-0.7588597,0.27998295,0
1.0700000000000007,5.458787958762274,-0.7009035705738234,-0.12225398017138989,0.7723075559808757,10.6344185,-0.61703265,3.7466068,0.73003346,7.9062066,-6.381599,1.5425165,-0.32386872,0.021937732,0.09555675,-0.941009,-5.682514,6.139768,-0.7182875,-0.78827155,-0.65959084,0.3041415,0
1.0800000000000007,6.556620005786728,-0.5130469864990679,0.7904054738171106,0.8119533440658164,10.687038,-0.115953885,3.9522867,0.49205846,7.8493533,-6.320247,1.5351107,-0.32199878,0.0204525,0.10019537,-0.9412017,-5.688141,6.1305237,-0.76288354,-0.7746545,-0.5758023,0.32711452,0
1.0900000000000007,6.556620005786728,-0.5130469864990679,0.7904054738171106,0.8119533440658164,10.687038,-0.115953885,3.9522867,0.49205846,7.792438,-6.259,1.527312,-0.32008913,0.019640706,0.104457915,-0.9414069,-5.694909,6.118799,-0.79683036,-0.7338966,-0.36274588,0.3509057,0
1.1000000000000008,6.556620005786728,-0.5130469864990679,0.7904054738171106,0.8119533440658164,10.687038,-0.115953885,3.9522867,0.49205846,7.735455,-6.197873,1.5191735,-0.31816977,0.0197032,0.10822583,-0.9416306,-5.701764,6.1065445,-0.8308855,-0.6994934,-0.18291514,0.3735294,0
1.1100000000000008,6.556620005786728,-0.5130469864990679,0.7904054738171106,0.8119533440658164,10.687038,-0.115953885,3.9522867,0.49205846,7.6784024,-6.1368704,1.510694,-0.31623375,0.020505838,0.11157751,-0.9418744,-5.7087865,6.0938516,-0.8650443,-0.67045367,-0.031128675,0.39504302,0
1.1200000000000008,8.677024579142339,-0.25334633347660135,1.7700727789364616,0.7755850588763872,11.651182,0.028247006,4.212827,0.42994618,7.6212783,-6.0759964,1.5018724,-0.31427464,0.02193521,0.114578694,-0.9421376,-5.716044,6.0807953,-0.89930236,-0.6459403,0.096986584,0.41550094,0
1.1300000000000008,8.677024579142339,-0.25334633347660135,1.7700727789364616,0.7755850588763872,11.651182,0.028247006,4.212827,0.42994618,7.5640683,-6.015277,1.4928107,-0.31233862,0.024231786,0.11706379,-0.94241965,-5.726045,6.0631337,-0.9130395,-0.58479005,0.35791326,0.43317035,0
1.1400000000000008,8.677024579142339,-0.25334633347660135,1.7700727789364616,0.7755850588763872,11.651182,0.028247006,4.212827,0.42994618,7.506756,-5.954735,1.4836111,-0.31046334,0.02758125,0.1189048,-0.94271666,-5.7365723,6.04524,-0.9268898,-0.5331699,0.5781476,0.44997275,0
1.1500000000000008,8.677024579142339,-0.25334633347660135,1.7700727789364616,0.7755850588763872,11.651182,0.028247006,4.212827,0.42994618,7.449335,-5.894372,1.4742725,-0.3086313,0.03182114,0.120202675,-0.94302,-5.747755,6.027263,-0.94084215,-0.48959392,0.7640354,0.46595064,0
1.1600000000000008,11.3919902925814,0.0171801651347723,2.6569524631630803,0.6634703671360603,12.995918,-0.064854704,4.4860516,0.32500845,7.391799,-5.8341894,1.4647938,-0.30682686,0.036813993,0.12104197,-0.9433197,-5.759703,6.0093303,-0.9548906,-0.45280796,0.92093307,0.48114452,0
1.1700000000000008,11.3919902925814,0.0171801651347723,2.6569524631630803,0.6634703671360603,12.995918,-0.064854704,4.4860516,0.32500845,7.334119,-5.774213,1.4553056,-0.30509615,0.0427435,0.12128318,-0.94359994,-5.776529,5.9859967,-0.9427633,-0.37960523,1.1916851,0.4900913,0
1.1800000000000008,11.3919902925814,0.0171801651347723,2.6569524631630803,0.6634703671360603,12.995918,-0.064854704,4.4860516,0.32500845,7.2762637,-5.7144675,1.445938,-0.30347583,0.049748734,0.12081928,-0.94383866,-5.7946725,5.963088,-0.93075633,-0.31780753,1.4202106,0.49859905,0
1.1900000000000008,11.3919902925814,0.0171801651347723,2.6569524631630803,0.6634703671360603,12.995918,-0.064854704,4.4860516,0.32500845,7.2182207,-5.6549487,1.43669,-0.30193946,0.05766185,0.11975879,-0.9440162,-5.8143096,5.940814,-0.91887546,-0.26563752,1.6130953,0.50668937,0
1.2000000000000008,12.879245935254287,0.27912917920093777,2.756907506693336,0.5167545538497105,13.575525,0.10834137,3.7533684,0.1546754,7.1599727,-5.595649,1.42756,-0.30046383,0.06634051,0.118192784,-0.9441144,-5.835586,5.919352,-0.9071386,-0.22159481,1.7758976,0.5143826,1
1.2100000000000009,12.879245935254287,0.27912917920093777,2.756907506693336,0.5167545538497105,13.575525,0.10834137,3.7533684,0.1546754,7.101481,-5.536578,1.4186518,-0.29914138,0.076059714,0.11603577,-0.9440689,-5.8630624,5.894939,-0.8745559,-0.17022103,2.0843022,0.49673167,1
1.2200000000000009,12.879245935254287,0.27912917920093777,2.756907506693336,0.5167545538497105,13.575525,0.10834137,3.7533684,0.1546754,7.0427027,-5.477745,1.4100682,-0.29804817,0.0870286,0.11322435,-0.94380856,-5.8929176,5.871951,-0.8422372,-0.12683813,2.3446076,0.47994682,1
1.2300000000000009,12.879245935254287,0.27912917920093777,2.756907506693336,0.5167545538497105,13.575525,0.10834137,3.7533684,0.1546754,6.9836135,-5.419133,1.4018059,-0.29714248,0.09904624,0.10985855,-0.9433071,-5.925403,5.8506474,-0.8102623,-0.09020418,2.5643156,0.46398565,1
1.2400000000000009,12.879245935254287,0.27912917920093777,2.756907506693336,0.5167545538497105,14.519854,0.22029673,3.8487124,0.059114613,6.924185,-5.360725,1.3938614,-0.29638746,0.11194166,0.10602251,-0.9425412,-5.9607267,5.831246,-0.7787309,-0.05927025,2.7497573,0.44880772,0
1.2500000000000009,12.879245935254287,0.27912917920093777,2.756907506693336,0.5167545538497105,14.519854,0.22029673,3.8487124,0.059114613,6.8643985,-5.3024964,1.3861963,-0.29567626,0.12517841,0.101836085,-0.9415606,-5.99707,5.8148084,-0.7543746,-0.006503286,2.7508879,0.4521419,0
1.260000000000001,12.879245935254287,0.27912917920093777,2.756907506693336,0.5167545538497105,14.519854,0.22029673,3.8487124,0.059114613,6.804234,-5.244422,1.3787717,-0.29492313,0.13832562,0.09739776,-0.94042605,-6.036237,5.8004203,-0.7306326,0.038034923,2.75184,0.45531246,0
1.270000000000001,12.879245935254287,0.27912917920093777,2.756907506693336,0.5167545538497105,14.519854,0.22029673,3.8487124,0.059114613,6.7436643,-5.186481,1.3715811,-0.29412675,0.15139112,0.09274439,-0.9391324,-6.078176,5.7881274,-0.707586,0.07562777,2.7526417,0.4583274,0
1.280000000000001,14.002515094850862,0.5548458173842236,2.510158543471089,0.3572888335349044,15.084032,0.40737066,3.6892269,-0.023052506,6.6826615,-5.1286526,1.3646172,-0.29328573,0.16438109,0.087907255,-0.93767565,-6.1228395,5.7779665,-0.685318,0.10735841,2.7533166,0.46119446,0
1.290000000000001,14.002515094850862,0.5548458173842236,2.510158543471089,0.3572888335349044,15.084032,0.40737066,3.6892269,-0.023052506,6.621178,-5.070918,1.3579239,-0.29242742,0.1771739,0.08284177,-0.9360736,-6.1743016,5.7692714,-0.6534875,0.17716427,2.715417,0.4560958,0
1.300000000000001,14.002515094850862,0.5548458173842236,2.510158543471089,0.3572888335349044,15.084032,0.40737066,3.6892269,-0.023052506,6.5591664,-5.0132585,1.3515439,-0.29157898,0.18967383,0.07751532,-0.9343435,-6.2285643,5.762966,-0.62266207,0.2360814,2.6834238,0.4512473,0
1.310000000000001,14.002515094850862,0.5548458173842236,2.510158543471089,0.3572888335349044,15.084032,0.40737066,3.6892269,-0.023052506,6.4965982,-4.9556503,1.3454669,-0.2907381,0.20192,0.071968585,-0.93248117,-6.285518,5.759085,-0.5929061,0.28580835,2.656417,0.4466367,0
1.320000000000001,15.19858658437414,0.797523810184201,1.732186185088123,0.20329514335276783,15.384069,0.5188731,3.2854154,0.033090897,6.433447,-4.8980684,1.3396819,-0.289902,0.21394517,0.066236004,-0.9304827,-6.3450665,5.757654,-0.56428623,0.32777867,2.6336193,0.4422524,0
1.330000000000001,15.19858658437414,0.797523810184201,1.732186185088123,0.20329514335276783,15.384069,0.5188731,3.2854154,0.033090897,6.3696613,-4.8404884,1.3342307,-0.28908718,0.22545837,0.06035085,-0.9284158,-6.412403,5.7587743,-0.52614015,0.40109465,2.4930596,0.4305267,0
1.340000000000001,15.19858658437414,0.797523810184201,1.732186185088123,0.20329514335276783,15.384069,0.5188731,3.2854154,0.033090897,6.30519,-4.7828846,1.3291545,-0.2883147,0.2362333,0.05434247,-0.92634565,-6.4822316,5.7625403,-0.4893018,0.46296808,2.3744159,0.41937637,0
1.350000000000001,15.19858658437414,0.797523810184201,1.732186185088123,0.20329514335276783,15.384069,0.5188731,3.2854154,0.033090897,6.240009,-4.7252293,1.3244401,-0.28758645,0.246382,0.048232432,-0.92426425,-6.554336,5.768914,-0.45376417,0.51518506,2.2742715,0.4087732,0
1.360000000000001,15.571014195439805,0.9985048576240471,0.763272912539021,0.08014675261949464,14.959923,0.3881962,1.6177397,0.27839255,6.174096,-4.667497,1.3200747,-0.2869025,0.25599882,0.042038843,-0.9221633,-6.6285315,5.777862,-0.41952458,0.55925256,2.189742,0.39869037,1
1.370000000000001,15.571014195439805,0.9985048576240471,0.763272912539021,0.08014675261949464,14.959923,0.3881962,1.6177397,0.27839255,6.1074376,-4.6096644,1.3160349,-0.2862088,0.26516834,0.035938635,-0.92004323,-6.7034674,5.789162,-0.38864386,0.5326076,2.1005297,0.39278734,1
1.380000000000001,15.571014195439805,0.9985048576240471,0.763272912539021,0.08014675261949464,14.959923,0.3881962,1.6177397,0.27839255,6.040021,-4.551707,1.3122973,-0.28545955,0.27396214,0.030071914,-0.9179075,-6.780198,5.8028564,-0.3590563,0.5101133,2.0252311,0.38717392,1
1.390000000000001,15.571014195439805,0.9985048576240471,0.763272912539021,0.08014675261949464,14.959923,0.3881962,1.6177397,0.27839255,5.971828,-4.4936,1.3088491,-0.28466436,0.28243577,0.02440315,-0.91575193,-6.858633,5.8188396,-0.33077714,0.49112323,1.9616764,0.381836,1
1.400000000000001,15.741752520834023,1.1823089727246758,-0.5265731416929093,-0.04814968848503962,14.82626,-0.58775103,0.23952241,0.6858475,5.902843,-4.4353223,1.305677,-0.28383103,0.29063603,0.018902369,-0.9135722,-6.938696,5.8370194,-0.30382237,0.4750914,1.908034,0.37676004,0
1.410000000000001,15.741752520834023,1.1823089727246758,-0.5265731416929093,-0.04814968848503962,14.82626,-0.58775103,0.23952241,0.6858475,5.833028,-4.376847,1.3028004,-0.28308243,0.2977293,0.013509203,-0.91161394,-7.0245333,5.8583646,-0.27170712,0.5854958,1.5283775,0.3559096,0
1.420000000000001,15.741752520834023,1.1823089727246758,-0.5265731416929093,-0.04814968848503962,14.82626,-0.58775103,0.23952241,0.6858475,5.762348,-4.318147,1.300239,-0.28253356,0.30306423,0.008176788,-0.91008836,-7.111562,5.8817677,-0.24074066,0.67865866,1.2079219,0.33608225,0
1.430000000000001,15.741752520834023,1.1823089727246758,-0.5265731416929093,-0.04814968848503962,14.82626,-0.58775103,0.23952241,0.6858475,5.6907945,-4.2592044,1.2979826,-0.2821756,0.30692008,0.002899746,-0.9089386,-7.19935,5.9070754,-0.21065015,0.7572737,0.9374363,0.3172279,0
1.440000000000001,15.741752520834023,1.1823089727246758,-0.5265731416929093,-0.04814968848503962,14.763042,-0.57096756,-1.1386733,0.37616575,5.61836,-4.2,1.2960237,-0.28199723,0.30953062,-0.0023267735,-0.90811,-7.287536,5.934161,-0.181198,0.8236133,0.70912886,0.29929873,0
1.450000000000001,15.741752520834023,1.1823089727246758,-0.5265731416929093,-0.04814968848503962,14.763042,-0.57096756,-1.1386733,0.37616575,5.545043,-4.1405153,1.2943571,-0.28198594,0.31109166,-0.0075071007,-0.9075519,-7.3758197,5.9629207,-0.15217996,0.87959504,0.5164231,0.2822493,0
1.460000000000001,15.741752520834023,1.1823089727246758,-0.5265731416929093,-0.04814968848503962,14.763042,-0.57096756,-1.1386733,0.37616575,5.4708443,-4.0807357,1.2929791,-0.28212872,0.31176746,-0.01264508,-0.90721846,-7.463946,5.9932675,-0.12342237,0.9268365,0.35376722,0.2660365,0
1.470000000000001,15.741752520834023,1.1823089727246758,-0.5265731416929093,-0.04814968848503962,14.763042,-0.57096756,-1.1386733,0.37616575,5.3957663,-4.0206447,1.2918881,-0.28241283,0.3116959,-0.01774412,-0.9070692,-7.551701,6.02513,-0.09477913,0.96670336,0.21647571,0.25061932,0
1.480000000000001,16.071397360777286,1.29531501574576,-1.3447487093613772,-0.15639384668957607,15.328114,-0.8392912,-1.8424191,0.32605588,5.319813,-3.9602277,1.2910836,-0.282826,0.31099293,-0.022807246,-0.9070686,-7.638903,6.058449,-0.06612853,1.0003469,0.10059361,0.23595864,0
1.490000000000001,16.071397360777286,1.29531501574576,-1.3447487093613772,-0.15639384668957607,15.328114,-0.8392912,-1.8424191,0.32605588,5.2429814,-3.8994672,1.2905793,-0.28339088,0.30944645,-0.027781384,-0.9072825,-7.727191,6.0938926,-0.034699723,1.0463804,-0.12481269,0.2167058,0
1.500000000000001,16.071397360777286,1.29531501574576,-1.3447487093613772,-0.15639384668957607,15.328114,-0.8392912,-1.8424191,0.32605588,5.165272,-3.8383453,1.2903906,-0.28412685,0.30689287,-0.032623935,-0.90775836,-7.8144917,6.130661,-0.0029714117,1.0852249,-0.31506857,0.19839771,0
1.5100000000000011,16.071397360777286,1.29531501574576,-1.3447487093613772,-0.15639384668957607,15.328114,-0.8392912,-1.8424191,0.32605588,5.086696,-3.7768495,1.2905215,-0.28501776,0.30348694,-0.03735155,-0.9084417,-7.90056,6.1686506,0.029227521,1.1180038,-0.47565505,0.180988,0
1.5200000000000011,16.154750900956646,1.3058884564595115,-1.9958793438750138,-0.23581879240751463,15.150581,-0.5488032,-2.5626545,0.08539701,5.007266,-3.7149682,1.2909771,-0.28604826,0.29935867,-0.041978426,-0.9092851,-7.9851837,6.2077727,0.06203554,1.1456649,-0.6111987,0.16443257,0
1.5300000000000011,16.154750900956646,1.3058884564595115,-1.9958793438750138,-0.23581879240751463,15.150581,-0.5488032,-2.5626545,0.08539701,4.926996,-3.6526892,1.291768,-0.28722546,0.29437968,-0.046442963,-0.91032195,-8.068599,6.2481503,0.096256,1.1706643,-0.8271512,0.14479212,0
1.5400000000000011,16.154750900956646,1.3058884564595115,-1.9958793438750138,-0.23581879240751463,15.150581,-0.5488032,-2.5626545,0.08539701,4.845901,-3.590002,1.2929054,-0.28855476,0.28845263,-0.050696265,-0.91157115,-8.150123,6.289456,0.13136522,1.1917574,-1.0094261,0.12611547,0
1.5500000000000012,16.154750900956646,1.3058884564595115,-1.9958793438750138,-0.23581879240751463,15.150581,-0.5488032,-2.5626545,0.08539701,4.764001,-3.5268974,1.294399,-0.29001972,0.28172022,-0.0547667,-0.9129752,-8.229521,6.331562,0.1675043,1.2095553,-1.1632756,0.10835524,0
1.5600000000000012,16.39653141316345,1.2020378841312596,-2.343647037193903,-0.31441276073972235,15.253473,-0.55662787,-2.9345775,0.27942657,4.6813188,-3.4633682,1.2962595,-0.29160503,0.27430284,-0.058678374,-0.9144846,-8.306585,6.374358,0.20478003,1.2245735,-1.2931321,0.09146653,0
1.5700000000000012,16.39653141316345,1.2020378841312596,-2.343647037193903,-0.31441276073972235,15.253473,-0.55662787,-2.9345775,0.27942657,4.5978723,-3.3994048,1.298509,-0.2933022,0.26618743,-0.062370438,-0.9160943,-8.382244,6.4183893,0.24531911,1.2210501,-1.4569755,0.071549915,0
1.5800000000000012,16.39653141316345,1.2020378841312596,-2.343647037193903,-0.31441276073972235,15.253473,-0.55662787,-2.9345775,0.27942657,4.513683,-3.3349986,1.3011705,-0.2951044,0.25736842,-0.06579514,-0.91779447,-8.455148,6.462878,0.28718185,1.2180723,-1.5952665,0.05261062,0
1.5900000000000012,16.39653141316345,1.2020378841312596,-2.343647037193903,-0.31441276073972235,15.253473,-0.55662787,-2.9345775,0.27942657,4.428779,-3.270146,1.3042575,-0.29699993,0.24794984,-0.068989165,-0.9195397,-8.525112,6.5076876,0.3304354,1.2155559,-1.7119904,0.034600664,0
1.6000000000000012,15.76011036158361,0.9628480611081283,-2.7348497362919884,-0.36353710497946745,14.214085,-0.95728683,-2.6112194,0.060848363,4.343191,-3.204844,1.3077841,-0.2989776,0.23801976,-0.07198373,-0.9212916,-8.591974,6.5526977,0.3751195,1.21343,-1.8105104,0.01747448,0
1.6100000000000012,15.76011036158361,0.9628480611081283,-2.7348497362919884,-0.36353710497946745,14.214085,-0.95728683,-2.6112194,0.060848363,4.256963,-3.1391003,1.3117368,-0.3010213,0.22753759,-0.07466877,-0.9230592,-8.653115,6.5960393,0.41565734,1.17433,-1.9546753,-0.0012218445,0
1.6200000000000012,15.76011036158361,0.9628480611081283,-2.7348497362919884,-0.36353710497946745,14.214085,-0.95728683,-2.6112194,0.060848363,4.1701393,-3.0729237,1.3161023,-0.30311856,0.21647473,-0.07695777,-0.92484397,-8.710981,6.6392927,0.45762062,1.1413252,-2.0763564,-0.019000765,0
1.6300000000000012,15.76011036158361,0.9628480611081283,-2.7348497362919884,-0.36353710497946745,14.214085,-0.95728683,-2.6112194,0.060848363,4.0827546,-3.0063155,1.3208944,-0.30526355,0.20491658,-0.07890718,-0.92660564,-8.765432,6.682289,0.5010247,1.1134665,-2.17906,-0.035907254,0
1.6400000000000012,15.76011036158361,0.9628480611081283,-2.7348497362919884,-0.36353710497946745,14.305811,-1.0308546,-2.8871906,0.21864569,3.9948432,-2.939279,1.3261278,-0.3074502,0.1929357,-0.08056495,-0.9283105,-8.816344,6.724878,0.54586214,1.089952,-2.265746,-0.05198413,0
1.6500000000000012,15.76011036158361,0.9628480611081283,-2.7348497362919884,-0.36353710497946745,14.305811,-1.0308546,-2.8871906,0.21864569,3.9064405,-2.8718195,1.3318166,-0.30967227,0.18059379,-0.08197191,-0.92993045,-8.8636055,6.766927,0.5921057,1.0701046,-2.3389125,-0.06727213,0
1.6600000000000013,15.76011036158361,0.9628480611081283,-2.7348497362919884,-0.36353710497946745,14.305811,-1.0308546,-2.8871906,0.21864569,3.8175838,-2.803943,1.3379747,-0.31192347,0.16794345,-0.08316274,-0.9314418,-8.907119,6.808317,0.6397114,1.0533527,-2.400668,-0.08180992,0
1.6700000000000013,15.76011036158361,0.9628480611081283,-2.7348497362919884,-0.36353710497946745,14.305811,-1.0308546,-2.8871906,0.21864569,3.7283113,-2.7356558,1.3446153,-0.3141977,0.15502961,-0.08416701,-0.9328251,-8.946799,6.848942,0.688621,1.0392137,-2.4527922,-0.095634356,0
1.6800000000000013,15.819357990300718,0.7056623256534612,-2.120163220443059,-0.37195775103785306,13.364929,-0.7028593,-1.985508,-0.07828348,3.6386614,-2.6669667,1.3517513,-0.31648907,0.1418907,-0.085009895,-0.9340643,-8.98257,6.8887053,0.7387642,1.0272803,-2.496787,-0.108780414,0
1.6900000000000013,15.819357990300718,0.7056623256534612,-2.120163220443059,-0.37195775103785306,13.364929,-0.7028593,-1.985508,-0.07828348,3.548673,-2.597884,1.3593973,-0.31875858,0.12882265,-0.08569481,-0.9351231,-9.014502,6.9276695,0.7906174,0.9771078,-2.4380577,-0.121694595,0
1.7000000000000013,15.819357990300718,0.7056623256534612,-2.120163220443059,-0.37195775103785306,13.364929,-0.7028593,-1.985508,-0.07828348,3.4583845,-2.5284166,1.3675671,-0.3209789,0.11606384,-0.08622708,-0.9359849,-9.04252,6.965634,0.84350604,0.93476087,-2.3884864,-0.13397509,0
1.7100000000000013,15.819357990300718,0.7056623256534612,-2.120163220443059,-0.37195775103785306,13.364929,-0.7028593,-1.985508,-0.07828348,3.3678353,-2.458575,1.3762705,-0.32315996,0.103566945,-0.08662903,-0.93666327,-9.06671,7.0025606,0.89731115,0.8990189,-2.3466454,-0.14565296,0
1.7200000000000013,15.776390908187441,0.4333624758791895,-1.4119675917473082,-0.37214073498850225,13.18099,-0.4124669,-1.3903788,-0.11555224,3.277063,-2.3883693,1.385516,-0.3253094,0.09129193,-0.086919546,-0.93716896,-9.087149,7.0384145,0.9519225,0.86885154,-2.3113291,-0.1567578,0
1.7300000000000013,15.776390908187441,0.4333624758791895,-1.4119675917473082,-0.37214073498850225,13.18099,-0.4124669,-1.3903788,-0.11555224,3.186105,-2.3178108,1.3953092,-0.32739955,0.07950638,-0.087105095,-0.93749774,-9.103872,7.0730753,1.0068167,0.80093676,-2.1710727,-0.1673267,0
1.7400000000000013,15.776390908187441,0.4333624758791895,-1.4119675917473082,-0.37214073498850225,13.18099,-0.4124669,-1.3903788,-0.11555224,3.0949974,-2.2469113,1.4056543,-0.32941276,0.06842163,-0.0871931,-0.93765885,-9.117125,7.106652,1.0622923,0.7436134,-2.0526893,-0.17737697,0
1.7500000000000013,15.776390908187441,0.4333624758791895,-1.4119675917473082,-0.37214073498850225,13.18099,-0.4124669,-1.3903788,-0.11555224,3.0037737,-2.1756814,1.4165566,-0.3313667,0.05793033,-0.08719938,-0.93767667,-9.127108,7.139164,1.1182438,0.6952293,-1.9527678,-0.18693408,0
1.7600000000000013,15.295509395028022,0.12249956955856015,-0.5490080811654022,-0.33537532982955354,12.490114,-0.46082488,-1.6520674,0.048292376,2.912466,-2.1041317,1.4280206,-0.33327532,0.047941484,-0.08713708,-0.93757,-9.133993,7.17063,1.1745819,0.65439045,-1.8684295,-0.19602221,0
1.7700000000000014,15.295509395028022,0.12249956955856015,-0.5490080811654022,-0.33537532982955354,12.490114,-0.46082488,-1.6520674,0.048292376,2.821105,-2.0322769,1.4400259,-0.3351105,0.038743056,-0.08701629,-0.93735224,-9.13783,7.2001443,1.2265112,0.5714612,-1.6626583,-0.20286033,0
1.7800000000000014,15.295509395028022,0.12249956955856015,-0.5490080811654022,-0.33537532982955354,12.490114,-0.46082488,-1.6520674,0.048292376,2.7297184,-1.9601318,1.4525517,-0.33685324,0.030559467,-0.086846925,-0.93704575,-9.139106,7.228732,1.2786638,0.5014626,-1.4889781,-0.20936288,0
1.7900000000000014,15.295509395028022,0.12249956955856015,-0.5490080811654022,-0.33537532982955354,12.490114,-0.46082488,-1.6520674,0.048292376,2.638331,-1.8877051,1.4655999,-0.33852512,0.023233727,-0.08663844,-0.93667275,-9.138101,7.2564664,1.3309785,0.44237795,-1.3423843,-0.21554635,0
1.8000000000000014,14.151524958539115,-0.18837819844201584,0.09668673111888082,-0.26768992017775867,13.150263,-0.06132283,-1.6635067,0.5885319,2.5469637,-1.8150051,1.4791719,-0.34014308,0.016632987,-0.086398475,-0.93624914,-9.135054,7.28341,1.3834099,0.39250585,-1.2186524,-0.22142641,0
1.8100000000000014,14.151524958539115,-0.18837819844201584,0.09668673111888082,-0.26768992017775867,13.150263,-0.06132283,-1.6635067,0.5885319,2.4556346,-1.7420492,1.4932121,-0.34168884,0.010928463,-0.08610497,-0.93579715,-9.1305485,7.307662,1.4246578,0.3019453,-1.0135134,-0.22369659,0
1.8200000000000014,14.151524958539115,-0.18837819844201584,0.09668673111888082,-0.26768992017775867,13.150263,-0.06132283,-1.6635067,0.5885319,2.3643577,-1.668854,1.507665,-0.34314895,0.006249898,-0.08574133,-0.9353391,-9.124631,7.33131,1.4659572,0.22550376,-0.8403675,-0.22585537,0
1.8300000000000014,14.151524958539115,-0.18837819844201584,0.09668673111888082,-0.26768992017775867,13.150263,-0.06132283,-1.6635067,0.5885319,2.273146,-1.5954249,1.5225313,-0.34454137,0.0024376907,-0.08532024,-0.93488336,-9.117565,7.354426,1.5072924,0.1609797,-0.69422513,-0.22790821,0
1.8400000000000014,14.151524958539115,-0.18837819844201584,0.09668673111888082,-0.26768992017775867,13.679373,0.016031362,-1.5679681,0.62706167,2.1820095,-1.5217671,1.5378109,-0.34588012,-0.0006429932,-0.084852025,-0.9344345,-9.109575,7.377072,1.5486549,0.10651495,-0.570875,-0.22986032,0
1.8500000000000014,14.151524958539115,-0.18837819844201584,0.09668673111888082,-0.26768992017775867,13.679373,0.016031362,-1.5679681,0.62706167,2.090957,-1.4478849,1.5535043,-0.34717637,-0.0031060302,-0.08434508,-0.9339946,-9.10085,7.3993015,1.5900406,0.060541507,-0.4667623,-0.23171663,0
1.8600000000000014,14.151524958539115,-0.18837819844201584,0.09668673111888082,-0.26768992017775867,13.679373,0.016031362,-1.5679681,0.62706167,1.9999948,-1.3737824,1.5696117,-0.34843886,-0.00504758,-0.083806306,-0.9335644,-9.091548,7.4211607,1.6314474,0.021735435,-0.37888694,-0.23348184,0
1.8700000000000014,14.151524958539115,-0.18837819844201584,0.09668673111888082,-0.26768992017775867,13.679373,0.016031362,-1.5679681,0.62706167,1.9091277,-1.2994629,1.5861334,-0.3496746,-0.0065488345,-0.08324133,-0.93314344,-9.081803,7.442688,1.6728756,-0.011020791,-0.30471656,-0.23516044,0
1.8800000000000014,14.426192698872967,-0.24948112109289056,0.5898821323975688,-0.21853997233814906,14.316608,0.5989474,-1.9481301,-0.053347282,1.8183597,-1.2249298,1.6030693,-0.3508893,-0.007678339,-0.082654774,-0.9327309,-9.071728,7.463918,1.7143261,-0.038670197,-0.24211375,-0.23675668,0
1.8900000000000015,14.426192698872967,-0.24948112109289056,0.5898821323975688,-0.21853997233814906,14.316608,0.5989474,-1.9481301,-0.053347282,1.7276947,-1.1501837,1.6204334,-0.35206565,-0.008301809,-0.08209696,-0.93233144,-9.061228,7.485294,1.7585088,-0.0715259,-0.112359434,-0.23586279,0
1.9000000000000015,14.426192698872967,-0.24948112109289056,0.5898821323975688,-0.21853997233814906,14.316608,0.5989474,-1.9481301,-0.053347282,1.6371353,-1.0752246,1.6382395,-0.3531895,-0.008315955,-0.08160814,-0.9319491,-9.050651,7.5064745,1.802715,-0.09926099,-0.002841048,-0.23501275,0
1.9100000000000015,14.426192698872967,-0.24948112109289056,0.5898821323975688,-0.21853997233814906,14.316608,0.5989474,-1.9481301,-0.053347282,1.5466814,-1.0000546,1.6564877,-0.35426888,-0.007815884,-0.08117816,-0.9315812,-9.040147,7.527537,1.8469439,-0.122673675,0.08959736,-0.23420443,0
1.9200000000000015,13.565694983313108,-0.25659402927585934,0.1973719866033062,-0.1494526234900823,13.900579,1.0715083,-2.1291692,0.21376145,1.4563317,-0.92467415,1.6751783,-0.3553102,-0.0068818554,-0.080798276,-0.9312249,-9.02984,7.548547,1.891195,-0.14243738,0.16761947,-0.23343576,0
1.9300000000000015,13.565694983313108,-0.25659402927585934,0.1973719866033062,-0.1494526234900823,13.900579,1.0715083,-2.1291692,0.21376145,1.3660808,-0.84908986,1.6942692,-0.35632348,-0.0057275356,-0.08040241,-0.9308797,-9.020426,7.568299,1.9269757,-0.16023976,0.17226157,-0.22931468,0
1.9400000000000015,13.565694983313108,-0.25659402927585934,0.1973719866033062,-0.1494526234900823,13.900579,1.0715083,-2.1291692,0.21376145,1.2759222,-0.77330816,1.7137179,-0.35731587,-0.0045257634,-0.07993759,-0.9305459,-9.011327,7.5880485,1.9627786,-0.17526598,0.17617948,-0.22539583,0
1.9500000000000015,13.565694983313108,-0.25659402927585934,0.1973719866033062,-0.1494526234900823,13.900579,1.0715083,-2.1291692,0.21376145,1.1858529,-0.69732904,1.7335248,-0.35828835,-0.0032840418,-0.07941459,-0.930222,-9.0025625,7.607785,1.9986055,-0.18794908,0.179486,-0.22166927,0
1.9600000000000015,12.289860507653433,-0.2019669496466595,-0.2383134336904269,-0.07748494820396103,11.815142,1.9565043,-3.2849874,-0.28717202,1.0958697,-0.6211526,1.7536902,-0.35924187,-0.0020087054,-0.078842476,-0.9299065,-8.994146,7.627499,2.0344584,-0.1986542,0.18227643,-0.21812557,0
1.9700000000000015,12.289860507653433,-0.2019669496466595,-0.2383134336904269,-0.07748494820396103,11.815142,1.9565043,-3.2849874,-0.28717202,1.0059649,-0.5447884,1.7741513,-0.36018276,-0.00087577803,-0.07818652,-0.92959964,-8.986843,7.6453257,2.0577376,-0.19918054,0.116684884,-0.21122429,0
1.9800000000000015,12.289860507653433,-0.2019669496466595,-0.2383134336904269,-0.07748494820396103,11.815142,1.9565043,-3.2849874,-0.28717202,0.9161318,-0.46824634,1.7948452,-0.36111507,-2.5079818e-05,-0.077419415,-0.9293025,-8.979816,7.663077,2.081044,-0.19962294,0.061322313,-0.20466165,0
1.9900000000000015,12.289860507653433,-0.2019669496466595,-0.2383134336904269,-0.07748494820396103,11.815142,1.9565043,-3.2849874,-0.28717202,0.82636774,-0.39152732,1.8157723,-0.3620366,0.00058721844,-0.076558314,-0.929015,-8.973017,7.680706,2.1043813,-0.19999477,0.014593463,-0.19842106,0
2.0000000000000013,,,,,12.982122,1.065805,-3.6317854,1.4962772,0.7366708,-0.3146328,1.8369329,-0.36294553,0.0009981164,-0.07561767,-0.9287369,-8.966401,7.6981745,2.1277523,-0.20030743,-0.024847958,-0.1924867,0
2.010000000000001,,,,,12.982122,1.065805,-3.6317854,1.4962772,0.6470352,-0.23757534,1.8582516,-0.36385286,0.0009703153,-0.07455381,-0.9284679,-8.960731,7.713281,2.135969,-0.18279202,-0.16358885,-0.1833396,0
2.020000000000001,,,,,12.982122,1.065805,-3.6317854,1.4962772,0.5574561,-0.16036801,1.8796525,-0.36476558,0.00031733583,-0.07333245,-0.9282075,-8.955079,7.7281375,2.1442215,-0.16800416,-0.2806927,-0.17464131,0
2.0300000000000007,,,,,12.982122,1.065805,-3.6317854,1.4962772,0.46793386,-0.08301369,1.9011362,-0.36567718,-0.0008635544,-0.071977526,-0.9279545,-8.949343,7.7426686,2.1525142,-0.15551919,-0.37953377,-0.16636989,0
2.0400000000000005,,,,,12.982122,1.065805,-3.6317854,1.4962772,0.37846985,-0.0055159703,1.9227029,-0.36658224,-0.0024902406,-0.070509255,-0.92770714,-8.943432,7.7568107,2.1608503,-0.14497861,-0.4629602,-0.15850434,0
2.0500000000000003,,,,,13.487808,1.1960787,-3.929906,1.4073997,0.2890661,0.07212099,1.9443532,-0.36747628,-0.004493394,-0.06894476,-0.9274635,-8.937273,7.770508,2.1692302,-0.1360799,-0.53337604,-0.15102474,1
2.06,,,,,13.487808,1.1960787,-3.929906,1.4073997,0.19973381,0.14990933,1.966223,-0.3682724,-0.008134551,-0.06733007,-0.9272415,-8.929084,7.787045,2.2047393,0.07166897,-1.0630804,-0.074552424,1
2.07,,,,,13.487808,1.1960787,-3.929906,1.4073997,0.11048796,0.22785889,1.9884481,-0.36886826,-0.0144117195,-0.0656993,-0.9270453,-8.919875,7.802708,2.240287,0.24706876,-1.5101577,-0.0018326193,1
2.0799999999999996,,,,,13.487808,1.1960787,-3.929906,1.4073997,0.021341924,0.30595964,2.0110288,-0.3692373,-0.022915315,-0.06404907,-0.9268426,-8.909035,7.817246,2.2758389,0.3951501,-1.8874989,0.06731881,1
2.0899999999999994,,,,,16.920069,1.5775051,-4.7394867,1.1266257,-0.06768535,0.3841992,2.0339649,-0.36935508,-0.03329851,-0.062375672,-0.92659485,-8.896048,7.8304443,2.3113377,0.5201622,-2.2059836,0.13307695,1
2.099999999999999,,,,,16.920069,1.5775051,-4.7394867,1.1266257,-0.15655084,0.46257845,2.057425,-0.36924607,-0.045621425,-0.060698215,-0.9262249,-8.876494,7.845084,2.380662,0.6851705,-2.6010463,0.18183067,1
2.109999999999999,,,,,16.920069,1.5775051,-4.7394867,1.1266257,-0.24520189,0.5410934,2.081577,-0.36892572,-0.059913732,-0.05903095,-0.9256459,-8.853058,7.8575587,2.4496615,0.82445717,-2.9344938,0.22819205,1
2.1199999999999988,,,,,16.920069,1.5775051,-4.7394867,1.1266257,-0.3335967,0.6197214,2.1064167,-0.3683625,-0.075861365,-0.057363614,-0.924805,-8.825172,7.867641,2.518137,0.94202834,-3.2159371,0.27227843,1
2.1299999999999986,,,,,18.024502,-0.08207824,-5.206122,2.7167695,-0.42168844,0.6984374,2.1319373,-0.36752993,-0.09319619,-0.05568707,-0.9236535,-8.792373,7.8751426,2.5858507,1.0412667,-3.453488,0.3142015,1
2.1399999999999983,,,,,18.024502,-0.08207824,-5.206122,2.7167695,-0.5094139,0.77721643,2.1581843,-0.36630127,-0.11162832,-0.05329252,-0.92223805,-8.751818,7.8801737,2.6632922,0.8664228,-3.7267785,0.43209624,1
2.149999999999998,,,,,18.024502,-0.08207824,-5.206122,2.7167695,-0.59670496,0.85602915,2.1851985,-0.36456308,-0.13091435,-0.049611975,-0.9205946,-8.705492,7.881792,2.7393637,0.71885777,-3.95747,0.5442058,1
2.159999999999998,,,,,18.024502,-0.08207824,-5.206122,2.7167695,-0.6835036,0.93483895,2.2129657,-0.36231282,-0.1509029,-0.044827804,-0.91866684,-8.65333,7.879534,2.8137686,0.5943091,-4.152199,0.6508141,1
