time-since-start [s],throttle_mpc,roll_mpc,pitch_mpc,yaw_mpc,throttle_nw,roll_nw,pitch_nw,yaw_nw,position_x [m],position_y [m],position_z [m],rotation_w [quaternion],rotation_x [quaternion],rotation_y [quaternion],rotation_z [quaternion],velocity_x [m/s],velocity_y [m/s],velocity_z [m/s],omega_x [rad/s],omega_y [rad/s],omega_z [rad/s],network_used
0.0,9.009758670990015,5.583257206906993,-4.6062521915366785,0.8793777462557203,15.8333235,0.9580061,-2.7058134,0.7506756,14.050671,-11.717693,2.7995865,0.45034352,-0.19878946,0.27561137,0.82565844,-8.169218,-1.5358164,3.0769887,1.2222406,-0.517088,-0.112690255,0
0.01,9.009758670990015,5.583257206906993,-4.6062521915366785,0.8793777462557203,9.746094,3.315452,-1.4696789,-0.48546124,13.968945,-11.732765,2.8302124,0.4534164,-0.19187938,0.28009716,0.82410043,-8.175892,-1.4786199,3.0481808,1.9023274,-1.1547816,-0.0640092,0
0.02,9.009758670990015,5.583257206906993,-4.6062521915366785,0.8793777462557203,9.746094,3.315452,-1.4696789,-0.48546124,13.88716,-11.747265,2.8605504,0.4576581,-0.18104315,0.28584138,0.822233,-8.180671,-1.4213344,3.0194545,2.4763942,-1.6929866,-0.017716937,0
0.03,9.009758670990015,5.583257206906993,-4.6062521915366785,0.8793777462557203,9.746094,3.315452,-1.4696789,-0.48546124,13.805341,-11.761192,2.890602,0.46279657,-0.1668579,0.29260036,0.8199773,-8.182843,-1.3640912,2.9908915,2.9609635,-2.1472301,0.026303759,0
0.04,9.009758670990015,5.583257206906993,-4.6062521915366785,0.8793777462557203,8.46124,3.2842195,-0.330943,-0.42461154,13.723515,-11.774548,2.920369,0.46858758,-0.14980976,0.30015814,0.817244,-8.181808,-1.3070403,2.9625106,3.3699841,-2.530615,0.06816435,0
0.05,9.009758670990015,5.583257206906993,-4.6062521915366785,0.8793777462557203,8.46124,3.2842195,-0.330943,-0.42461154,13.641717,-11.7873335,2.9498527,0.4748152,-0.13031173,0.30832472,0.8139442,-8.177062,-1.2503536,2.9342706,3.7152307,-2.8541982,0.10797082,0
0.060000000000000005,9.009758670990015,5.583257206906993,-4.6062521915366785,0.8793777462557203,8.46124,3.2842195,-0.330943,-0.42461154,13.559988,-11.799556,2.9790542,0.4812906,-0.1087175,0.3169336,0.8099956,-8.168188,-1.1942225,2.906075,4.0066442,-3.127311,0.14582397,0
0.07,9.009758670990015,5.583257206906993,-4.6062521915366785,0.8793777462557203,8.46124,3.2842195,-0.330943,-0.42461154,13.478369,-11.81122,3.0079734,0.48784995,-0.08533249,0.32583925,0.80532575,-8.154848,-1.1388557,2.8777778,4.252617,-3.3578281,0.18181966,0
0.08,11.207343669560348,4.823515125210513,-3.963897980562871,0.7823833192045693,11.19577,5.56534,0.68714845,1.9026954,13.396907,-11.822336,3.0366087,0.49435222,-0.060422353,0.3349148,0.7998731,-8.136777,-1.0844758,2.84919,4.4602313,-3.552395,0.21604902,0
0.09,11.207343669560348,4.823515125210513,-3.963897980562871,0.7823833192045693,11.19577,5.56534,0.68714845,1.9026954,13.315678,-11.832849,3.0650399,0.5005875,-0.03458015,0.34393662,0.79367745,-8.108188,-1.0183432,2.8369176,4.5169597,-3.616479,0.2438392,0
0.09999999999999999,11.207343669560348,4.823515125210513,-3.963897980562871,0.7823833192045693,11.19577,5.56534,0.68714845,1.9026954,13.234765,-11.84271,3.093344,0.5064062,-0.00829793,0.3527345,0.7868051,-8.073443,-0.95397675,2.8237112,4.5648384,-3.6705725,0.27026573,0
0.10999999999999999,11.207343669560348,4.823515125210513,-3.963897980562871,0.7823833192045693,11.19577,5.56534,0.68714845,1.9026954,13.15423,-11.851935,3.12151,0.51177806,0.018344048,0.36127773,0.77924657,-8.032585,-0.8916154,2.8092694,4.6052475,-3.716234,0.2953955,0
0.11999999999999998,11.207343669560348,4.823515125210513,-3.963897980562871,0.7823833192045693,11.19577,5.56534,0.68714845,1.9026954,13.074134,-11.860549,3.1495242,0.51667786,0.045272894,0.3695391,0.7709963,-7.9856887,-0.83149165,2.7932842,4.6393523,-3.7547781,0.31929213,0
0.12999999999999998,12.989072913071345,2.9204595643453994,-1.9020895327287493,0.06019456265892065,10.075576,4.486557,-2.0796428,3.7581818,12.994536,-11.868572,3.1773694,0.521085,0.07242204,0.3774947,0.762052,-7.9328656,-0.7738299,2.775445,4.668135,-3.7873151,0.3420162,0
0.13999999999999999,12.989072913071345,2.9204595643453994,-1.9020895327287493,0.06019456265892065,10.075576,4.486557,-2.0796428,3.7581818,12.915542,-11.875989,3.205088,0.5248105,0.09867442,0.38499138,0.7527411,-7.864997,-0.71006906,2.767874,4.395489,-3.4934156,0.3281871,0
0.15,12.989072913071345,2.9204595643453994,-1.9020895327287493,0.06019456265892065,10.075576,4.486557,-2.0796428,3.7581818,12.837256,-11.882784,3.2327173,0.5277732,0.1231472,0.3919546,0.7434125,-7.791017,-0.649376,2.757586,4.165378,-3.2453341,0.31503662,0
0.16,14.18125796124628,0.804285584490631,0.14915514199574223,-1.0812547513092459,1.3484315,-0.97718096,-0.5305351,1.9974971,12.75974,-11.888988,3.2602298,0.5300962,0.14610179,0.39846596,0.7340829,-7.7115026,-0.5916737,2.7444322,3.9711661,-3.0359285,0.30253142,0
0.17,14.18125796124628,0.804285584490631,0.14915514199574223,-1.0812547513092459,1.3484315,-0.97718096,-0.5305351,1.9974971,12.6831,-11.89459,3.2876513,0.53181684,0.1668493,0.40446216,0.7250813,-7.61604,-0.5297393,2.7389634,3.5278883,-2.5902421,0.23920493,0
0.18000000000000002,14.18125796124628,0.804285584490631,0.14915514199574223,-1.0812547513092459,1.3484315,-0.97718096,-0.5305351,1.9974971,12.607426,-11.899597,3.314989,0.5329962,0.18468033,0.40990686,0.716788,-7.5184073,-0.47232193,2.7278485,3.1130643,-2.1733067,0.17533807,0
0.19000000000000003,14.18125796124628,0.804285584490631,0.14915514199574223,-1.0812547513092459,1.3484315,-0.97718096,-0.5305351,1.9974971,12.532743,-11.904046,3.3421965,0.53376377,0.19987328,0.41490725,0.70922446,-7.417533,-0.41776508,2.7131553,2.7528963,-1.8112727,0.11367669,0
0.20000000000000004,15.041698759401022,-1.2584091274647202,1.4215491738260444,-1.2416105976942524,-0.09036437,-2.7887268,1.2965218,1.8142198,12.459086,-11.907961,3.369243,0.5342378,0.21282129,0.41956756,0.70232505,-7.3133698,-0.36529055,2.6957138,2.4489307,-1.505662,0.055041056,0
0.21000000000000005,15.041698759401022,-1.2584091274647202,1.4215491738260444,-1.2416105976942524,-0.09036437,-2.7887268,1.2965218,1.8142198,12.38653,-11.911338,3.396135,0.53450346,0.22317776,0.42368433,0.69641197,-7.1980305,-0.31054163,2.6819403,1.8971368,-1.075685,-0.0061851535,0
0.22000000000000006,15.041698759401022,-1.2584091274647202,1.4215491738260444,-1.2416105976942524,-0.09036437,-2.7887268,1.2965218,1.8142198,12.315126,-11.914181,3.4228687,0.53462756,0.23053513,0.42709285,0.6918228,-7.082427,-0.25810182,2.664528,1.4050047,-0.6862973,-0.06680782,0
0.23000000000000007,15.041698759401022,-1.2584091274647202,1.4215491738260444,-1.2416105976942524,-0.09036437,-2.7887268,1.2965218,1.8142198,12.244886,-11.916504,3.4494195,0.5346786,0.23530199,0.42993358,0.68841064,-6.965261,-0.20655662,2.6454222,0.9896467,-0.35759988,-0.124455735,0
0.24000000000000007,15.041698759401022,-1.2584091274647202,1.4215491738260444,-1.2416105976942524,-0.9585345,-3.0179546,0.48285627,2.7023656,12.175824,-11.918314,3.4757726,0.5347065,0.23787846,0.43232062,0.68600434,-6.847062,-0.15548274,2.625076,0.63908285,-0.08013773,-0.17927484,0
0.25000000000000006,15.041698759401022,-1.2584091274647202,1.4215491738260444,-1.2416105976942524,-0.9585345,-3.0179546,0.48285627,2.7023656,12.107946,-11.919614,3.5019178,0.53474295,0.23859859,0.43434206,0.68444717,-6.728264,-0.10451598,2.603882,0.34320217,0.15407182,-0.23140398,0
0.26000000000000006,15.041698759401022,-1.2584091274647202,1.4215491738260444,-1.2416105976942524,-0.9585345,-3.0179546,0.48285627,2.7023656,12.041258,-11.9204035,3.5278485,0.5348072,0.23774175,0.43606624,0.68359834,-6.609222,-0.053344794,2.5821748,0.09347259,0.35176834,-0.28097513,0
0.2700000000000001,15.041698759401022,-1.2584091274647202,1.4215491738260444,-1.2416105976942524,-0.9585345,-3.0179546,0.48285627,2.7023656,11.9757595,-11.920678,3.5535605,0.5349102,0.23554215,0.43754646,0.6833334,-6.4902353,-0.0017039124,2.560237,-0.117306314,0.518642,-0.3281138,0
0.2800000000000001,16.30341986706602,-3.2100700249611407,2.576348117293094,-1.2908438223105083,5.074544,-2.9585843,3.0517755,-2.6298916,11.911451,-11.920434,3.5790532,0.53505754,0.23219645,0.43882447,0.6835436,-6.3715568,0.05063167,2.5383053,-0.2952115,0.6594962,-0.37293932,0
0.2900000000000001,16.30341986706602,-3.2100700249611407,2.576348117293094,-1.2908438223105083,5.074544,-2.9585843,3.0517755,-2.6298916,11.848375,-11.91964,3.6043594,0.5352311,0.22713298,0.43964696,0.6845797,-6.2435327,0.10834537,2.5230234,-0.74968165,0.9585598,-0.41798115,0
0.3000000000000001,16.30341986706602,-3.2100700249611407,2.576348117293094,-1.2908438223105083,5.074544,-2.9585843,3.0517755,-2.6298916,11.786575,-11.9182625,3.629516,0.5354027,0.2199028,0.43980595,0.68670076,-6.1165943,0.16741201,2.5084546,-1.1332757,1.2109885,-0.46081278,0
0.3100000000000001,16.30341986706602,-3.2100700249611407,2.576348117293094,-1.2908438223105083,5.074544,-2.9585843,3.0517755,-2.6298916,11.726037,-11.9162855,3.6545324,0.53555554,0.21082246,0.43938816,0.68969035,-5.9912453,0.22819284,2.4950464,-1.4570494,1.424051,-0.5015426,0
0.3200000000000001,18.07504951385688,-4.561990238951413,3.3374215262622435,-1.113572414780171,5.337809,-3.4537761,3.2702389,-2.097913,11.666742,-11.9136915,3.6794221,0.53567,0.20015825,0.4384616,0.6933587,-5.8679376,0.2909855,2.483152,-1.730333,1.6038836,-0.5402739,0
0.3300000000000001,18.07504951385688,-4.561990238951413,3.3374215262622435,-1.113572414780171,5.337809,-3.4537761,3.2702389,-2.097913,11.608735,-11.910423,3.7042494,0.53568083,0.18764228,0.43686116,0.6978462,-5.7339835,0.36312023,2.4826326,-2.1717992,1.8744226,-0.56840575,0
0.34000000000000014,18.07504951385688,-4.561990238951413,3.3374215262622435,-1.113572414780171,5.337809,-3.4537761,3.2702389,-2.097913,11.552052,-11.906419,3.7290833,0.5355108,0.17307039,0.43444267,0.70323175,-5.603434,0.4381189,2.4845352,-2.5444272,2.1027584,-0.59515727,0
0.35000000000000014,18.07504951385688,-4.561990238951413,3.3374215262622435,-1.113572414780171,5.337809,-3.4537761,3.2702389,-2.097913,11.496654,-11.901649,3.7539499,0.5351229,0.15673707,0.431282,0.7092766,-5.476965,0.5162874,2.489212,-2.8589525,2.2954724,-0.6205961,0
0.36000000000000015,19.44773339973212,-5.1475280350635355,3.6505345792648556,-0.908224704634029,21.721725,-0.9681305,1.6000445,-4.4153504,11.442496,-11.896081,3.778878,0.53448313,0.13889359,0.42744035,0.71577346,-5.355209,0.59785175,2.4968948,-3.1244361,2.45812,-0.6447866,0
0.37000000000000016,19.44773339973212,-5.1475280350635355,3.6505345792648556,-0.908224704634029,21.721725,-0.9681305,1.6000445,-4.4153504,11.389576,-11.8896475,3.8039396,0.53351927,0.119550765,0.42286178,0.72267085,-5.229936,0.6894381,2.515992,-3.439836,2.644238,-0.65771353,0
0.38000000000000017,19.44773339973212,-5.1475280350635355,3.6505345792648556,-0.908224704634029,21.721725,-0.9681305,1.6000445,-4.4153504,11.337876,-11.882278,3.8292098,0.53215647,0.098731585,0.4174961,0.72990346,-5.111117,0.7849991,2.5385804,-3.70606,2.8013132,-0.6700062,0
0.3900000000000002,19.44773339973212,-5.1475280350635355,3.6505345792648556,-0.908224704634029,21.721725,-0.9681305,1.6000445,-4.4153504,11.28733,-11.873933,3.8547235,0.5303645,0.07665447,0.41139755,0.7372856,-4.999469,0.88461757,2.56468,-3.9307761,2.9338768,-0.6816957,0
0.4000000000000002,19.3484844653626,-4.775194135359856,3.326972569800893,-0.7094666783347242,25.178217,-2.3058808,4.191272,-2.7802484,11.237861,-11.864572,3.8805153,0.5281186,0.053509574,0.40461308,0.7446584,-4.895661,0.9883004,2.594204,-4.120456,3.0457532,-0.69281155,0
0.4100000000000002,19.3484844653626,-4.775194135359856,3.326972569800893,-0.7094666783347242,25.178217,-2.3058808,4.191272,-2.7802484,11.189384,-11.8541565,3.9066155,0.52542835,0.029648738,0.39722684,0.75183594,-4.8007874,1.0954291,2.6263003,-4.222541,3.0896573,-0.6936288,0
0.4200000000000002,19.3484844653626,-4.775194135359856,3.326972569800893,-0.7094666783347242,25.178217,-2.3058808,4.191272,-2.7802484,11.141813,-11.84265,3.9330513,0.5223093,0.0053672837,0.38931745,0.7586808,-4.714788,1.2063642,2.6613386,-4.3087087,3.1267073,-0.6944059,0
0.4300000000000002,19.3484844653626,-4.775194135359856,3.326972569800893,-0.7094666783347242,25.178217,-2.3058808,4.191272,-2.7802484,11.0950575,-11.830016,3.9598508,0.51875293,-0.019255696,0.3809161,0.76513267,-4.638059,1.3208854,2.6989791,-4.381441,3.1579733,-0.695145,0
0.4400000000000002,19.3484844653626,-4.775194135359856,3.326972569800893,-0.7094666783347242,25.146524,-2.445231,4.2278295,-2.5793324,11.04902,-11.816219,3.9870384,0.51475394,-0.044149257,0.37205118,0.77114046,-4.570956,1.4387438,2.7388444,-4.4428334,3.1843588,-0.69584775,0
0.45000000000000023,19.3484844653626,-4.775194135359856,3.326972569800893,-0.7094666783347242,25.146524,-2.445231,4.2278295,-2.5793324,11.003604,-11.801229,4.0146337,0.5103095,-0.06924946,0.36274856,0.77666116,-4.513793,1.5596645,2.780523,-4.494653,3.2066247,-0.696516,0
0.46000000000000024,19.3484844653626,-4.775194135359856,3.326972569800893,-0.7094666783347242,25.146524,-2.445231,4.2278295,-2.5793324,10.958708,-11.785016,4.042653,0.50541925,-0.09449835,0.35303217,0.7816586,-4.466839,1.68335,2.8235776,-4.5383935,3.2254148,-0.6971514,0
0.47000000000000025,19.3484844653626,-4.775194135359856,3.326972569800893,-0.7094666783347242,25.146524,-2.445231,4.2278295,-2.5793324,10.91423,-11.767553,4.071108,0.5000842,-0.11984317,0.34292418,0.7861023,-4.430321,1.8094835,2.867548,-4.575314,3.2412713,-0.6977557,0
0.48000000000000026,18.53923291894637,-3.794853630986881,2.670616409950332,-0.5598751919684042,10.757397,-3.7992423,6.1239676,0.29661113,10.870066,-11.748819,4.100005,0.49430722,-0.14523558,0.33244523,0.7899668,-4.4044223,1.9377314,2.911957,-4.606478,3.2546523,-0.69833034,0
0.49000000000000027,18.53923291894637,-3.794853630986881,2.670616409950332,-0.5598751919684042,10.757397,-3.7992423,6.1239676,0.29661113,10.826102,-11.728821,4.129317,0.48822862,-0.17022543,0.32180133,0.79315853,-4.3898754,2.062303,2.9503572,-4.479962,3.1634948,-0.6915363,0
0.5000000000000002,18.53923291894637,-3.794853630986881,2.670616409950332,-0.5598751919684042,10.757397,-3.7992423,6.1239676,0.29661113,10.782233,-11.707569,4.15901,0.4819841,-0.19445795,0.31117365,0.7956437,-4.3854322,2.1881964,2.988248,-4.373167,3.086564,-0.6850757,0
0.5100000000000002,18.53923291894637,-3.794853630986881,2.670616409950332,-0.5598751919684042,10.757397,-3.7992423,6.1239676,0.29661113,10.738359,-11.685053,4.1890783,0.47556868,-0.2180208,0.30054548,0.7974799,-4.39085,2.3150594,3.0252006,-4.2830205,3.02164,-0.6789321,0
0.5200000000000002,16.57343089370731,-2.3367998256139098,1.7217087081097093,-0.4797900368410851,10.134875,-3.8934543,5.6928353,0.16091129,10.694384,-11.661264,4.2195096,0.468977,-0.24098703,0.2899024,0.7987133,-4.405896,2.4425642,3.0608134,-4.206927,2.9668484,-0.6730899,0
0.5300000000000002,16.57343089370731,-2.3367998256139098,1.7217087081097093,-0.4797900368410851,10.134875,-3.8934543,5.6928353,0.16091129,10.650222,-11.636269,4.250219,0.46245486,-0.2628414,0.27952644,0.7993218,-4.427702,2.5568478,3.080723,-3.9153838,2.7725172,-0.6636046,0
0.5400000000000003,16.57343089370731,-2.3367998256139098,1.7217087081097093,-0.4797900368410851,10.134875,-3.8934543,5.6928353,0.16091129,10.605803,-11.610128,4.2811184,0.45622537,-0.28319377,0.26965642,0.79934067,-4.457335,2.6711848,3.0988643,-3.6692908,2.6085162,-0.65458477,0
0.5500000000000003,16.57343089370731,-2.3367998256139098,1.7217087081097093,-0.4797900368410851,10.134875,-3.8934543,5.6928353,0.16091129,10.56105,-11.582845,4.3121896,0.45024753,-0.30226803,0.26021942,0.7988726,-4.494234,2.7853746,3.1150572,-3.4615624,2.4701111,-0.64600754,0
0.5600000000000003,14.306265147245673,-0.6692195036842703,0.7854506907183533,-0.39402091217570523,9.933833,-3.8185298,5.2636156,0.22951922,10.515895,-11.554421,4.3434124,0.44448164,-0.32025257,0.25115097,0.7979962,-4.53791,2.899252,3.1291554,-3.286218,2.3533068,-0.6378512,0
0.5700000000000003,14.306265147245673,-0.6692195036842703,0.7854506907183533,-0.39402091217570523,9.933833,-3.8185298,5.2636156,0.22951922,10.4703045,-11.524939,4.37469,0.43919685,-0.33671176,0.24276666,0.7967409,-4.5810485,2.9971702,3.1260056,-2.8782165,2.1086087,-0.6258863,0
0.5800000000000003,14.306265147245673,-0.6692195036842703,0.7854506907183533,-0.39402091217570523,9.933833,-3.8185298,5.2636156,0.22951922,10.424258,-11.494478,4.405926,0.43462494,-0.35132456,0.23532254,0.79517037,-4.629003,3.0946662,3.1209643,-2.533823,1.9021035,-0.61450857,0
0.5900000000000003,14.306265147245673,-0.6692195036842703,0.7854506907183533,-0.39402091217570523,9.933833,-3.8185298,5.2636156,0.22951922,10.37771,-11.463046,4.437103,0.43067455,-0.36438838,0.22868295,0.7933757,-4.681162,3.191739,3.114088,-2.2431214,1.7278299,-0.60368913,0
0.6000000000000003,11.733537001711657,0.8376910697751642,-0.17924568967857682,-0.3071416671459324,9.44346,-3.0573928,4.689292,0.32790527,10.330623,-11.430645,4.468202,0.4272617,-0.3761514,0.22272998,0.7914222,-4.737012,3.288404,3.1054442,-1.9977405,1.5807565,-0.59340066,0
0.6100000000000003,11.733537001711657,0.8376910697751642,-0.17924568967857682,-0.3071416671459324,9.44346,-3.0573928,4.689292,0.32790527,10.283012,-11.397366,4.4991274,0.4246188,-0.38625818,0.21767919,0.7893792,-4.78546,3.3673778,3.0793366,-1.5556746,1.3060999,-0.57935387,0
0.6200000000000003,11.733537001711657,0.8376910697751642,-0.17924568967857682,-0.3071416671459324,9.44346,-3.0573928,4.689292,0.32790527,10.234906,-11.363298,4.5297856,0.4229336,-0.3944454,0.21369885,0.7873202,-4.836036,3.4461157,3.0520148,-1.1825275,1.0743098,-0.56599635,0
0.6300000000000003,11.733537001711657,0.8376910697751642,-0.17924568967857682,-0.3071416671459324,9.44346,-3.0573928,4.689292,0.32790527,10.186286,-11.328444,4.560165,0.42207068,-0.40102434,0.21062905,0.78528434,-4.8882504,3.5247052,3.0236628,-0.8675548,0.8786951,-0.5532943,0
0.6400000000000003,11.733537001711657,0.8376910697751642,-0.17924568967857682,-0.3071416671459324,10.1673155,-2.0889988,3.430761,-0.0760762,10.137136,-11.292804,4.590256,0.42190972,-0.40625337,0.20833227,0.78329325,-4.9416943,3.6032286,2.994449,-0.6016877,0.7136092,-0.5412155,0
0.6500000000000004,11.733537001711657,0.8376910697751642,-0.17924568967857682,-0.3071416671459324,10.1673155,-2.0889988,3.430761,-0.0760762,10.087448,-11.256379,4.6200514,0.42234495,-0.41034725,0.20669085,0.7813571,-4.9960303,3.6817605,2.964524,-0.377271,0.57428694,-0.5297294,0
0.6600000000000004,11.733537001711657,0.8376910697751642,-0.17924568967857682,-0.3071416671459324,10.1673155,-2.0889988,3.430761,-0.0760762,10.037212,-11.219169,4.6495447,0.42328423,-0.4134849,0.20560443,0.77947915,-5.0509753,3.7603679,2.934022,-0.18784222,0.45670712,-0.518807,0
0.6700000000000004,11.733537001711657,0.8376910697751642,-0.17924568967857682,-0.3071416671459324,10.1673155,-2.0889988,3.430761,-0.0760762,9.986426,-11.181171,4.6787305,0.42464784,-0.4158158,0.2049877,0.77765787,-5.106294,3.8391075,2.9030597,-0.027946796,0.35747626,-0.50842047,0
0.6800000000000004,10.20918828294538,1.7873401673241487,-0.72935801049677,-0.20060193214839994,11.871057,-1.6941305,2.0341516,-0.031076804,9.935086,-11.1423855,4.707605,0.4263672,-0.41746497,0.20476821,0.77588934,-5.161788,3.9180284,2.8717391,0.10701956,0.2737307,-0.49854362,0
0.6900000000000004,10.20918828294538,1.7873401673241487,-0.72935801049677,-0.20060193214839994,11.871057,-1.6941305,2.0341516,-0.031076804,9.883227,-11.10286,4.736121,0.4285772,-0.41820136,0.20509061,0.77418816,-5.210063,3.986894,2.8315167,0.3690128,0.11721792,-0.48392352,0
0.7000000000000004,10.20918828294538,1.7873401673241487,-0.72935801049677,-0.20060193214839994,11.871057,-1.6941305,2.0341516,-0.031076804,9.830886,-11.062646,4.7642345,0.43137932,-0.41784516,0.20606536,0.7725637,-5.2580924,4.056016,2.7911925,0.59015876,-0.014869582,-0.47002083,0
0.7100000000000004,10.20918828294538,1.7873401673241487,-0.72935801049677,-0.20060193214839994,11.871057,-1.6941305,2.0341516,-0.031076804,9.778067,-11.021739,4.791945,0.43467304,-0.4165608,0.20758934,0.7710016,-5.305641,4.12545,2.7508905,0.7768256,-0.1263441,-0.45680034,0
0.7200000000000004,8.91181267424551,2.464470892502768,-0.9865415107238226,-0.11920456933793651,12.771995,-0.8228291,1.40683,-0.06533135,9.724775,-10.980136,4.819253,0.4383721,-0.4144859,0.20957509,0.7694867,-5.352512,4.19524,2.7107148,0.93438864,-0.22042309,-0.44422862,0
0.7300000000000004,8.91181267424551,2.464470892502768,-0.9865415107238226,-0.11920456933793651,12.771995,-0.8228291,1.40683,-0.06533135,9.671048,-10.937877,4.8461237,0.4425284,-0.41153505,0.21211548,0.767994,-5.3926744,4.2565026,2.6633675,1.1729729,-0.33995575,-0.4282796,0
0.7400000000000004,8.91181267424551,2.464470892502768,-0.9865415107238226,-0.11920456933793651,12.771995,-0.8228291,1.40683,-0.06533135,9.616924,-10.895003,4.872522,0.44717464,-0.40764263,0.21527863,0.7664971,-5.43189,4.318147,2.6162968,1.3743573,-0.44083318,-0.41311318,0
0.7500000000000004,8.91181267424551,2.464470892502768,-0.9865415107238226,-0.11920456933793651,12.771995,-0.8228291,1.40683,-0.06533135,9.562414,-10.851512,4.8984513,0.45221657,-0.40294155,0.21896242,0.7649798,-5.4699697,4.380209,2.5695798,1.5443422,-0.5259674,-0.398691,0
0.7600000000000005,8.313144843452646,2.6611734576288173,-0.8499515617101229,-0.023248812452142397,13.322987,-0.10772317,1.3099251,-0.007721591,9.507529,-10.807397,4.9239154,0.45757365,-0.39754364,0.22308025,0.76342714,-5.50675,4.4427075,2.5232775,1.6878223,-0.5978159,-0.3849765,0
0.7700000000000005,8.313144843452646,2.6611734576288173,-0.8499515617101229,-0.023248812452142397,13.322987,-0.10772317,1.3099251,-0.007721591,9.452296,-10.762677,4.948901,0.46318716,-0.39154604,0.22764847,0.7617913,-5.539714,4.5014257,2.4739242,1.8396133,-0.63715315,-0.36722645,0
0.7800000000000005,8.313144843452646,2.6611734576288173,-0.8499515617101229,-0.023248812452142397,13.322987,-0.10772317,1.3099251,-0.007721591,9.396741,-10.717367,4.9733953,0.46900392,-0.38502923,0.2326764,0.7600328,-5.5712023,4.5605764,2.4250205,1.9677346,-0.6703479,-0.35034737,0
0.7900000000000005,8.313144843452646,2.6611734576288173,-0.8499515617101229,-0.023248812452142397,13.322987,-0.10772317,1.3099251,-0.007721591,9.3408785,-10.671463,4.997403,0.4749686,-0.37805822,0.23808657,0.7581503,-5.6010995,4.6201677,2.3765755,2.075877,-0.69835997,-0.33429655,0
0.8000000000000005,7.608566692414535,2.478074465281121,-0.8420684468695718,0.014505104252551158,14.020552,0.10831189,0.97567666,0.2755342,9.284725,-10.624962,5.020929,0.48103455,-0.3706884,0.24381308,0.75614244,-5.629303,4.6801972,2.328591,2.1671555,-0.72199893,-0.31903332,0
0.8100000000000005,7.608566692414535,2.478074465281121,-0.8420684468695718,0.014505104252551158,14.020552,0.10831189,0.97567666,0.2755342,9.22831,-10.577884,5.0439553,0.48713142,-0.36300388,0.24974804,0.7540274,-5.6534867,4.7355285,2.2767768,2.2156472,-0.74071014,-0.30266652,0
0.8200000000000005,7.608566692414535,2.478074465281121,-0.8420684468695718,0.014505104252551158,14.020552,0.10831189,0.97567666,0.2755342,9.17166,-10.53025,5.066466,0.49320307,-0.35507563,0.25580364,0.75182235,-5.675986,4.791227,2.2253702,2.256577,-0.7565021,-0.2871028,0
0.8300000000000005,7.608566692414535,2.478074465281121,-0.8420684468695718,0.014505104252551158,14.020552,0.10831189,0.97567666,0.2755342,9.114796,-10.482058,5.0884643,0.49923232,-0.34692955,0.2619552,0.74952435,-5.696755,4.8472633,2.1743586,2.2911243,-0.7698305,-0.27230278,0
0.8400000000000005,7.608566692414535,2.478074465281121,-0.8420684468695718,0.014505104252551158,13.820774,0.26351684,0.65870607,0.48841795,9.057732,-10.433304,5.109955,0.50520486,-0.338588,0.2681816,0.7471313,-5.7157545,4.9036074,2.1237261,2.3202844,-0.7810799,-0.25822905,0
0.8500000000000005,7.608566692414535,2.478074465281121,-0.8420684468695718,0.014505104252551158,13.820774,0.26351684,0.65870607,0.48841795,9.000487,-10.3839855,5.1309404,0.5111089,-0.33007038,0.2744647,0.7446413,-5.7329507,4.9602246,2.0734544,2.344897,-0.79057485,-0.24484591,0
0.8600000000000005,7.608566692414535,2.478074465281121,-0.8420684468695718,0.014505104252551158,13.820774,0.26351684,0.65870607,0.48841795,8.94308,-10.334099,5.1514254,0.51693475,-0.3213935,0.2807889,0.742053,-5.7483134,5.017081,2.0235221,2.3656714,-0.79858893,-0.23211949,0
0.8700000000000006,7.608566692414535,2.478074465281121,-0.8420684468695718,0.014505104252551158,13.820774,0.26351684,0.65870607,0.48841795,8.885527,-10.283643,5.1714115,0.5226744,-0.31257194,0.2871408,0.73936516,-5.761816,5.0741386,1.973907,2.383206,-0.80535334,-0.22001754,0
0.8800000000000006,7.402215185381335,1.945602652578118,-0.30154141938897516,0.08214566695486765,13.2649,0.5753227,0.78213847,0.52024496,8.827849,-10.232615,5.190904,0.52832115,-0.30361846,0.29350874,0.7365769,-5.7734365,5.131361,1.9245847,2.398006,-0.8110632,-0.20850945,0
0.8900000000000006,7.402215185381335,1.945602652578118,-0.30154141938897516,0.08214566695486765,13.2649,0.5753227,0.78213847,0.52024496,8.770065,-10.181023,5.2098975,0.5337369,-0.2948146,0.29984382,0.73369163,-5.7829003,5.187157,1.8741947,2.3274715,-0.73157233,-0.1942469,0
0.9000000000000006,7.402215185381335,1.945602652578118,-0.30154141938897516,0.08214566695486765,13.2649,0.5753227,0.78213847,0.52024496,8.712196,-10.128872,5.2283883,0.5388163,-0.286387,0.30611145,0.7307227,-5.7905636,5.243058,1.824005,2.2679336,-0.6644815,-0.18068424,0
0.9100000000000006,7.402215185381335,1.945602652578118,-0.30154141938897516,0.08214566695486765,13.2649,0.5753227,0.78213847,0.52024496,8.65426,-10.076161,5.246378,0.5435987,-0.27827197,0.3123211,0.727682,-5.7964783,5.299049,1.7739576,2.217678,-0.6078567,-0.1677871,0
0.9200000000000006,7.258516081817543,1.212889541929753,0.021791214174734234,0.12082035567042189,12.574356,0.6938521,0.9259672,0.61224955,8.5962715,-10.02289,5.2638674,0.54811734,-0.27041546,0.31847998,0.72457826,-5.8006887,5.3551154,1.7240021,2.1752577,-0.5600649,-0.15552282,0
0.9300000000000006,7.258516081817543,1.212889541929753,0.021791214174734234,0.12082035567042189,12.574356,0.6938521,0.9259672,0.61224955,8.538251,-9.969065,5.280853,0.55227816,-0.26302567,0.32445478,0.7214816,-5.8031945,5.410153,1.6731566,2.0251904,-0.46929163,-0.14196257,0
0.9400000000000006,7.258516081817543,1.212889541929753,0.021791214174734234,0.12082035567042189,12.574356,0.6938521,0.9259672,0.61224955,8.480213,-9.914687,5.2973304,0.556014,-0.25626817,0.33014408,0.7184569,-5.8041763,5.465242,1.6223078,1.898523,-0.3926798,-0.12906772,0
0.9500000000000006,7.258516081817543,1.212889541929753,0.021791214174734234,0.12082035567042189,12.574356,0.6938521,0.9259672,0.61224955,8.4221735,-9.859759,5.313299,0.5593863,-0.25004274,0.3355955,0.71550095,-5.8037395,5.5203776,1.5714129,1.7916069,-0.32801992,-0.11680565,0
0.9600000000000006,7.851165187916055,0.2851459073304568,0.4762612783091146,0.17972490128481347,12.015741,0.71969306,0.9166299,0.6202814,8.364143,-9.804279,5.3287587,0.56244636,-0.24426423,0.34084824,0.7126093,-5.801973,5.5755568,1.5204364,1.7013624,-0.27344713,-0.10514529,0
0.9700000000000006,7.851165187916055,0.2851459073304568,0.4762612783091146,0.17972490128481347,12.015741,0.71969306,0.9166299,0.6202814,8.306138,-9.748224,5.3437276,0.5650805,-0.23919708,0.34577549,0.7098651,-5.798719,5.635288,1.4731851,1.4805137,-0.1565017,-0.09116662,0
0.9800000000000006,7.851165187916055,0.2851459073304568,0.4762612783091146,0.17972490128481347,12.015741,0.71969306,0.9166299,0.6202814,8.248172,-9.691572,5.3582225,0.56720555,-0.23504876,0.3502824,0.7073419,-5.7942853,5.6950803,1.4257725,1.2941031,-0.05780035,-0.07787391,0
0.9900000000000007,7.851165187916055,0.2851459073304568,0.4762612783091146,0.17972490128481347,12.015741,0.71969306,0.9166299,0.6202814,8.190255,-9.634322,5.3722425,0.5689,-0.23167521,0.35444057,0.7050189,-5.7888374,5.754954,1.3781648,1.1367608,0.025503654,-0.06523347,0
1.0000000000000007,8.451552075282004,-0.5325272537367879,0.5730169386781773,0.22292747866009763,11.478165,0.77739406,0.8589288,0.59245336,8.132398,-9.576473,5.385785,0.5702289,-0.22895409,0.3583091,0.70287555,-5.782514,5.8149285,1.330335,1.0039544,0.09581258,-0.0532133,0
1.0100000000000007,8.451552075282004,-0.5325272537367879,0.5730169386781773,0.22292747866009763,11.478165,0.77739406,0.8589288,0.59245336,8.074611,-9.518001,5.3988676,0.57115436,-0.22699396,0.36173066,0.70100474,-5.7749043,5.879617,1.2860893,0.76434207,0.17024755,-0.03966297,0
1.0200000000000007,8.451552075282004,-0.5325272537367879,0.5730169386781773,0.22292747866009763,11.478165,0.77739406,0.8589288,0.59245336,8.016902,-9.45888,5.411506,0.5716504,-0.22587584,0.36458442,0.69948155,-5.766678,5.944451,1.2415782,0.5620959,0.23306932,-0.026777584,0
1.0300000000000007,8.451552075282004,-0.5325272537367879,0.5730169386781773,0.22292747866009763,11.478165,0.77739406,0.8589288,0.59245336,7.9592786,-9.399112,5.4236984,0.5717815,-0.22546656,0.3669633,0.6982613,-5.7580194,6.009446,1.1968032,0.39138862,0.2860901,-0.014524472,0
1.0400000000000007,8.451552075282004,-0.5325272537367879,0.5730169386781773,0.22292747866009763,11.184865,0.3173105,0.7226727,0.7352934,7.901743,-9.338692,5.435441,0.571601,-0.22565326,0.36894456,0.6973041,-5.749081,6.0746174,1.151766,0.2473023,0.3308396,-0.0028726312,0
1.0500000000000007,8.451552075282004,-0.5325272537367879,0.5730169386781773,0.22292747866009763,11.184865,0.3173105,0.7226727,0.7352934,7.8442974,-9.277619,5.4467325,0.57115275,-0.22634038,0.37059247,0.6965744,-5.7399936,6.139979,1.1064689,0.12568562,0.36860818,0.008207439,0
1.0600000000000007,8.451552075282004,-0.5325272537367879,0.5730169386781773,0.22292747866009763,11.184865,0.3173105,0.7226727,0.7352934,7.7869434,-9.215892,5.4575696,0.57047373,-0.22744714,0.37196073,0.6960408,-5.730866,6.2055426,1.0609142,0.023034846,0.40048522,0.018743815,0
1.0700000000000007,8.451552075282004,-0.5325272537367879,0.5730169386781773,0.22292747866009763,11.184865,0.3173105,0.7226727,0.7352934,7.7296805,-9.153508,5.4679494,0.5695947,-0.22890528,0.37309417,0.69567597,-5.7217913,6.271318,1.0151032,-0.063607894,0.42739007,0.028763175,0
1.0800000000000007,10.22171323493484,-1.4580539537109647,0.8022245521592578,0.3496713174774004,10.919172,0.08786577,0.50567126,0.78365475,7.6725073,-9.090466,5.4778705,0.5685416,-0.23065723,0.37403023,0.695456,-5.7128477,6.337312,0.9690375,-0.13673887,0.45009825,0.038290862,0
1.0900000000000007,10.22171323493484,-1.4580539537109647,0.8022245521592578,0.3496713174774004,10.919172,0.08786577,0.50567126,0.78365475,7.615432,-9.026691,5.4873834,0.56720525,-0.23292269,0.37459835,0.69548637,-5.7022862,6.4174037,0.9335641,-0.34280348,0.5050037,0.05357039,0
1.1000000000000008,10.22171323493484,-1.4580539537109647,0.8022245521592578,0.3496713174774004,10.919172,0.08786577,0.50567126,0.78365475,7.5584598,-8.962116,5.4965405,0.5654964,-0.23587132,0.3746643,0.69584864,-5.692162,6.4977837,0.89779276,-0.51673305,0.5513442,0.06810013,0
1.1100000000000008,10.22171323493484,-1.4580539537109647,0.8022245521592578,0.3496713174774004,10.919172,0.08786577,0.50567126,0.78365475,7.501586,-8.896734,5.505338,0.5634615,-0.23939076,0.3743054,0.69649035,-5.6826634,6.5784645,0.86173105,-0.6635385,0.5904563,0.08191691,0
1.1200000000000008,11.465558012300512,-2.1579833853145267,0.7073246120595288,0.45431925936428197,11.260217,-0.71205944,0.07579901,0.86762726,7.4448037,-8.8305435,5.513774,0.5611395,-0.24338606,0.37358624,0.6973659,-5.6739497,6.659452,0.82538354,-0.7874499,0.623468,0.095055714,0
1.1300000000000008,11.465558012300512,-2.1579833853145267,0.7073246120595288,0.45431925936428197,11.260217,-0.71205944,0.07579901,0.86762726,7.3881083,-8.763494,5.521882,0.55849934,-0.24790238,0.37234706,0.6985561,-5.6652207,6.7506385,0.79623675,-1.001192,0.6365208,0.112684876,0
1.1400000000000008,11.465558012300512,-2.1579833853145267,0.7073246120595288,0.45431925936428197,11.260217,-0.71205944,0.07579901,0.86762726,7.3314943,-8.695531,5.5296974,0.5555133,-0.25296897,0.3704627,0.70012075,-5.6577525,6.8421497,0.7668074,-1.1816007,0.6475368,0.12944897,0
1.1500000000000008,11.465558012300512,-2.1579833853145267,0.7073246120595288,0.45431925936428197,11.260217,-0.71205944,0.07579901,0.86762726,7.274948,-8.626651,5.537217,0.552216,-0.2584902,0.3680292,0.70199335,-5.651755,6.933956,0.7371274,-1.3338748,0.65683407,0.14539047,0
1.1600000000000008,12.317399228947039,-2.6513296756888654,0.4674340552302177,0.5313642414348545,11.60875,-1.3952672,-0.639982,1.024503,7.218454,-8.556851,5.5444393,0.5486367,-0.2643853,0.3651273,0.7041165,-5.6474047,7.026025,0.7072188,-1.4624012,0.6646817,0.16054969,0
1.1700000000000008,12.317399228947039,-2.6513296756888654,0.4674340552302177,0.5313642414348545,11.60875,-1.3952672,-0.639982,1.024503,7.161995,-8.486094,5.5513864,0.5447754,-0.27062273,0.36163524,0.70654297,-5.6446714,7.1251726,0.6821519,-1.6478183,0.6338822,0.17874567,0
1.1800000000000008,12.317399228947039,-2.6513296756888654,0.4674340552302177,0.5313642414348545,11.60875,-1.3952672,-0.639982,1.024503,7.105553,-8.414346,5.558082,0.54062915,-0.2771713,0.35745904,0.7093089,-5.644073,7.224485,0.65690935,-1.8043193,0.6078862,0.19604877,0
1.1900000000000008,12.317399228947039,-2.6513296756888654,0.4674340552302177,0.5313642414348545,11.60875,-1.3952672,-0.639982,1.024503,7.049106,-8.341604,5.564524,0.536217,-0.28396884,0.35269827,0.7123461,-5.6457925,7.323878,0.6315379,-1.9364136,0.5859452,0.21250278,0
1.2000000000000008,12.599917177603107,-2.7403101493691726,-0.056816876392958175,0.6029632322070373,11.988295,-2.115365,-1.4559906,1.1922284,6.9926295,-8.267868,5.570712,0.5315554,-0.2909627,0.34743693,0.7155956,-5.6499825,7.4232683,0.6060695,-2.0479078,0.5674272,0.2281494,0
1.2100000000000009,12.599917177603107,-2.7403101493691726,-0.056816876392958175,0.6029632322070373,11.988295,-2.115365,-1.4559906,1.1922284,6.9360976,-8.193127,5.5766535,0.5267149,-0.297974,0.34161186,0.7190856,-5.6569257,7.5248423,0.5821972,-2.1558785,0.4700349,0.2465416,0
1.2200000000000009,12.599917177603107,-2.7403101493691726,-0.056816876392958175,0.6029632322070373,11.988295,-2.115365,-1.4559906,1.1922284,6.8794823,-8.117372,5.582356,0.5217502,-0.3048575,0.33517838,0.7228374,-5.666626,7.626188,0.5583278,-2.2470114,0.38783237,0.2640313,0
1.2300000000000009,12.599917177603107,-2.7403101493691726,-0.056816876392958175,0.6029632322070373,11.988295,-2.115365,-1.4559906,1.1922284,6.822756,-8.040605,5.58782,0.5166542,-0.31161773,0.32822645,0.7267943,-5.679162,7.7271657,0.534534,-2.3239326,0.31845126,0.28066278,0
1.2400000000000009,12.599917177603107,-2.7403101493691726,-0.056816876392958175,0.6029632322070373,12.687638,-2.8507812,-2.3825758,1.5960917,6.765889,-7.9628305,5.593047,0.51142186,-0.31825885,0.32083198,0.7309073,-5.6945972,7.827646,0.5108697,-2.3888588,0.25989178,0.29647815,0
1.2500000000000009,12.599917177603107,-2.7403101493691726,-0.056816876392958175,0.6029632322070373,12.687638,-2.8507812,-2.3825758,1.5960917,6.7088532,-7.884054,5.598038,0.50604975,-0.32478455,0.31305903,0.7351342,-5.7129807,7.927503,0.48737264,-2.4436598,0.21046665,0.31151748,0
1.260000000000001,12.599917177603107,-2.7403101493691726,-0.056816876392958175,0.6029632322070373,12.687638,-2.8507812,-2.3825758,1.5960917,6.6516185,-7.804283,5.602795,0.50053585,-0.33119813,0.3049617,0.7394387,-5.73435,8.026621,0.46406686,-2.4899154,0.16875134,0.32581878,0
1.270000000000001,12.599917177603107,-2.7403101493691726,-0.056816876392958175,0.6029632322070373,12.687638,-2.8507812,-2.3825758,1.5960917,6.594155,-7.723525,5.6073203,0.49487925,-0.33750272,0.29658586,0.74378955,-5.7587314,8.124885,0.44096512,-2.5289578,0.13354352,0.33941835,0
1.280000000000001,12.744911957558598,-2.5760111177550824,-0.5302363570730606,0.585849012861774,13.567122,-3.1987827,-3.2859702,2.141032,6.536433,-7.641789,5.6116157,0.4890801,-0.34370098,0.2879703,0.74815977,-5.786142,8.222187,0.41807044,-2.5619125,0.1038281,0.3523506,0
1.290000000000001,12.744911957558598,-2.5760111177550824,-0.5302363570730606,0.585849012861774,13.567122,-3.1987827,-3.2859702,2.141032,6.4784203,-7.559079,5.6156874,0.48321787,-0.34962225,0.2791044,0.7525723,-5.816934,8.319528,0.39625388,-2.5640888,0.00492651,0.3638084,0
1.300000000000001,12.744911957558598,-2.5760111177550824,-0.5302363570730606,0.585849012861774,13.567122,-3.1987827,-3.2859702,2.141032,6.420084,-7.475402,5.619542,0.4773561,-0.35513183,0.2699838,0.7570475,-5.850749,8.415656,0.37469304,-2.5659277,-0.07855049,0.374704,0
1.310000000000001,12.744911957558598,-2.5760111177550824,-0.5302363570730606,0.585849012861774,13.567122,-3.1987827,-3.2859702,2.141032,6.361395,-7.3907704,5.6231823,0.4714746,-0.36028075,0.26064685,0.7615592,-5.8875327,8.510445,0.35343397,-2.5674822,-0.14900842,0.38506496,0
1.320000000000001,12.728519047901125,-2.194956936486553,-1.1151512454792085,0.5435271157192947,14.845605,-3.445544,-4.2218013,2.7871337,6.3023233,-7.3051977,5.6266117,0.46555683,-0.36511216,0.25112572,0.76608455,-5.927232,8.603774,0.332509,-2.5687962,-0.20847769,0.3949175,0
1.330000000000001,12.728519047901125,-2.194956936486553,-1.1151512454792085,0.5435271157192947,14.845605,-3.445544,-4.2218013,2.7871337,6.242841,-7.2187004,5.6298327,0.4597082,-0.36941406,0.2414544,0.7706498,-5.9697266,8.695415,0.3118493,-2.5104582,-0.34986988,0.40220982,0
1.340000000000001,12.728519047901125,-2.194956936486553,-1.1151512454792085,0.5435271157192947,14.845605,-3.445544,-4.2218013,2.7871337,6.1829195,-7.131295,5.6328497,0.45401272,-0.373022,0.23166405,0.77527964,-6.01494,8.785363,0.29163292,-2.461223,-0.46921337,0.4091443,0
1.350000000000001,12.728519047901125,-2.194956936486553,-1.1151512454792085,0.5435271157192947,14.845605,-3.445544,-4.2218013,2.7871337,6.1225333,-7.0429997,5.6356673,0.44842958,-0.37603354,0.22177517,0.779952,-6.062732,8.873504,0.27194136,-2.4196696,-0.5699464,0.41573852,0
1.360000000000001,12.73305965364722,-1.6656226609104863,-1.4762070366121343,0.44284408526052266,15.738671,-3.1855645,-4.943304,3.082238,6.0616565,-6.953832,5.638291,0.44292483,-0.37853113,0.21180435,0.7846466,-6.11298,8.959732,0.2528383,-2.3846,-0.6549711,0.42200914,0
1.370000000000001,12.73305965364722,-1.6656226609104863,-1.4762070366121343,0.44284408526052266,15.738671,-3.1855645,-4.943304,3.082238,6.000265,-6.8638115,5.6407266,0.4375912,-0.3803805,0.20186341,0.78935117,-6.165576,9.043985,0.23440677,-2.2724402,-0.78301305,0.42303154,0
1.380000000000001,12.73305965364722,-1.6656226609104863,-1.4762070366121343,0.44284408526052266,15.738671,-3.1855645,-4.943304,3.082238,5.938337,-6.772959,5.6429815,0.43250364,-0.3814815,0.19204359,0.79406,-6.220317,9.1261635,0.21669705,-2.1777768,-0.8910914,0.42400372,0
1.390000000000001,12.73305965364722,-1.6656226609104863,-1.4762070366121343,0.44284408526052266,15.738671,-3.1855645,-4.943304,3.082238,5.8758516,-6.681296,5.645063,0.42761213,-0.38194394,0.18232869,0.7987631,-6.2770123,9.206205,0.19978431,-2.097881,-0.9823192,0.42492825,0
1.400000000000001,12.026273195170118,-1.0634196194175856,-2.027485537636046,0.32440857248883204,16.622211,-2.4684613,-5.2675633,2.8595717,5.81279,-6.588843,5.64698,0.4228746,-0.3818602,0.17270419,0.80345047,-6.335497,9.284057,0.18372777,-2.0304487,-1.0593234,0.4258074,0
1.410000000000001,12.026273195170118,-1.0634196194175856,-2.027485537636046,0.32440857248883204,16.622211,-2.4684613,-5.2675633,2.8595717,5.7491527,-6.4956436,5.6487174,0.41839746,-0.38103184,0.16325285,0.8081499,-6.3922725,9.355473,0.16397813,-1.8796029,-1.2102599,0.4208317,0
1.420000000000001,12.026273195170118,-1.0634196194175856,-2.027485537636046,0.32440857248883204,16.622211,-2.4684613,-5.2675633,2.8595717,5.6849403,-6.4017406,5.6502624,0.41426364,-0.37930667,0.15404114,0.8128855,-6.450367,9.424741,0.14518452,-1.7522887,-1.3376656,0.41610017,0
1.430000000000001,12.026273195170118,-1.0634196194175856,-2.027485537636046,0.32440857248883204,16.622211,-2.4684613,-5.2675633,2.8595717,5.6201415,-6.307156,5.6516247,0.4104089,-0.37681827,0.14503436,0.81764114,-6.5095606,9.491833,0.12744164,-1.644835,-1.4452087,0.41160086,0
1.440000000000001,12.026273195170118,-1.0634196194175856,-2.027485537636046,0.32440857248883204,17.089542,-1.9084911,-5.453718,2.6880562,5.554746,-6.2119117,5.6528153,0.4067793,-0.37367892,0.13620228,0.8224008,-6.5696635,9.556723,0.11082446,-1.5541437,-1.5359858,0.40732232,0
1.450000000000001,12.026273195170118,-1.0634196194175856,-2.027485537636046,0.32440857248883204,17.089542,-1.9084911,-5.453718,2.6880562,5.4887457,-6.1160297,5.653846,0.40332946,-0.36998317,0.12751865,0.8271495,-6.630508,9.619388,0.09539046,-1.4775994,-1.6126108,0.4032537,0
1.460000000000001,12.026273195170118,-1.0634196194175856,-2.027485537636046,0.32440857248883204,17.089542,-1.9084911,-5.453718,2.6880562,5.422134,-6.019532,5.654728,0.40002146,-0.36581066,0.118960895,0.8318733,-6.6919465,9.679804,0.081182055,-1.4129955,-1.6772898,0.39938477,0
1.470000000000001,12.026273195170118,-1.0634196194175856,-2.027485537636046,0.32440857248883204,17.089542,-1.9084911,-5.453718,2.6880562,5.3549047,-5.9224415,5.6554737,0.39682364,-0.3612286,0.110509574,0.83655965,-6.753849,9.737947,0.06822853,-1.3584692,-1.7318854,0.39570567,0
1.480000000000001,11.778689491018923,-0.5164475085105299,-2.0023487874172727,0.20449274966514702,17.106049,-2.2868717,-5.6537256,3.2592428,5.2870555,-5.824781,5.656097,0.39370963,-0.35629374,0.102148056,0.8411972,-6.8160977,9.793798,0.056547843,-1.3124486,-1.7779694,0.39220712,0
1.490000000000001,11.778689491018923,-0.5164475085105299,-2.0023487874172727,0.20449274966514702,17.106049,-2.2868717,-5.6537256,3.2592428,5.218589,-5.7265787,5.6566005,0.39074707,-0.35097852,0.09404541,0.8457456,-6.877293,9.846241,0.04434366,-1.1883147,-1.8129224,0.38299593,0
1.500000000000001,11.778689491018923,-0.5164475085105299,-2.0023487874172727,0.20449274966514702,17.106049,-2.2868717,-5.6537256,3.2592428,5.1495094,-5.6278634,5.656988,0.38799074,-0.34526587,0.08633557,0.8501766,-6.9385705,9.896459,0.033401743,-1.0835404,-1.8424311,0.37423673,0
1.5100000000000011,11.778689491018923,-0.5164475085105299,-2.0023487874172727,0.20449274966514702,17.106049,-2.2868717,-5.6537256,3.2592428,5.0798173,-5.5286565,5.6572723,0.38540325,-0.33921376,0.078957796,0.854496,-6.999784,9.944494,0.023724293,-0.99510646,-1.8673433,0.36590734,0
1.5200000000000011,11.217622039382935,-0.03720726589259406,-1.8862763074638516,0.08182413035764147,16.851501,-1.9275935,-5.8635864,3.2465167,5.0095143,-5.428981,5.6574664,0.3829531,-0.33287102,0.071860485,0.8587079,-7.0608087,9.990386,0.015307863,-0.9204646,-1.8883748,0.3579867,0
1.5300000000000011,11.217622039382935,-0.03720726589259406,-1.8862763074638516,0.08182413035764147,16.851501,-1.9275935,-5.8635864,3.2465167,4.9386168,-5.328867,5.657561,0.3806875,-0.32624674,0.06517761,0.86278117,-7.118635,10.032085,0.0038120372,-0.7827378,-1.8880085,0.34443533,0
1.5400000000000011,11.217622039382935,-0.03720726589259406,-1.8862763074638516,0.08182413035764147,16.851501,-1.9275935,-5.8635864,3.2465167,4.8671427,-5.228346,5.6575465,0.37864468,-0.31935188,0.059013307,0.8666945,-7.176041,10.0718565,-0.006504101,-0.6664886,-1.8877066,0.33154893,0
1.5500000000000012,11.217622039382935,-0.03720726589259406,-1.8862763074638516,0.08182413035764147,16.851501,-1.9275935,-5.8635864,3.2465167,4.7950974,-5.127436,5.657435,0.37678808,-0.31222653,0.05328674,0.87046266,-7.2329025,10.109778,-0.015655868,-0.5683678,-1.8874577,0.31929487,0
1.5600000000000012,10.878737312048655,0.35940139482520994,-1.4485504206837874,-0.018716582187142054,16.20635,-1.5126548,-5.997291,3.0460515,4.722487,-5.0261564,5.6572375,0.3750868,-0.30490413,0.04792944,0.874097,-7.2891135,10.145921,-0.02366049,-0.48554787,-1.8872523,0.30764207,0
1.5700000000000012,10.878737312048655,0.35940139482520994,-1.4485504206837874,-0.018716582187142054,16.20635,-1.5126548,-5.997291,3.0460515,4.6493263,-4.9245296,5.6569514,0.37356618,-0.29750755,0.04308425,0.8775425,-7.3429055,10.179311,-0.0332966,-0.35381112,-1.8188068,0.29162756,0
1.5800000000000012,10.878737312048655,0.35940139482520994,-1.4485504206837874,-0.018716582187142054,16.20635,-1.5126548,-5.997291,3.0460515,4.5756316,-4.8225765,5.656575,0.3722479,-0.29013795,0.038861334,0.8807615,-7.395894,10.211161,-0.04188574,-0.24261437,-1.761042,0.27639887,0
1.5900000000000012,10.878737312048655,0.35940139482520994,-1.4485504206837874,-0.018716582187142054,16.20635,-1.5126548,-5.997291,3.0460515,4.5014114,-4.7203116,5.6561174,0.371103,-0.2827913,0.035163075,0.88378435,-7.448008,10.241591,-0.049473558,-0.14875533,-1.7122906,0.2619175,0
1.6000000000000012,10.350992490765016,0.5187388383328206,-1.5231721393796165,-0.11391418480652547,16.233269,-1.2906991,-6.0732083,2.9942245,4.426675,-4.617749,5.6555886,0.3701067,-0.2754636,0.03190692,0.88663536,-7.499188,10.270708,-0.05610049,-0.06953054,-1.6711464,0.24814671,0
1.6100000000000012,10.350992490765016,0.5187388383328206,-1.5231721393796165,-0.11391418480652547,16.233269,-1.2906991,-6.0732083,2.9942245,4.3514433,-4.5149083,5.654976,0.36926657,-0.26810148,0.029065438,0.889336,-7.546943,10.297246,-0.06628424,0.022187043,-1.6480552,0.2303803,0
1.6200000000000012,10.350992490765016,0.5187388383328206,-1.5231721393796165,-0.11391418480652547,16.233269,-1.2906991,-6.0732083,2.9942245,4.275739,-4.411808,5.6542654,0.36858797,-0.26066196,0.026613092,0.89190215,-7.593696,10.322696,-0.07561178,0.09960315,-1.628569,0.21348566,0
1.6300000000000012,10.350992490765016,0.5187388383328206,-1.5231721393796165,-0.11391418480652547,16.233269,-1.2906991,-6.0732083,2.9942245,4.199573,-4.3084583,5.6534657,0.3680484,-0.25315562,0.02448808,0.8943447,-7.639388,10.347127,-0.08410484,0.16494785,-1.612125,0.19742005,0
1.6400000000000012,10.350992490765016,0.5187388383328206,-1.5231721393796165,-0.11391418480652547,16.380642,-0.9593298,-5.9622693,2.6721172,4.1229553,-4.2048693,5.6525855,0.36762866,-0.24559133,0.02263823,0.8966722,-7.68397,10.370598,-0.091785155,0.22010368,-1.598248,0.18214278,0
1.6500000000000012,10.350992490765016,0.5187388383328206,-1.5231721393796165,-0.11391418480652547,16.380642,-0.9593298,-5.9622693,2.6721172,4.0458975,-4.1010494,5.651633,0.3673124,-0.23797649,0.021019526,0.89889175,-7.7273965,10.393155,-0.09867467,0.2666593,-1.5865369,0.16761518,0
1.6600000000000013,10.350992490765016,0.5187388383328206,-1.5231721393796165,-0.11391418480652547,16.380642,-0.9593298,-5.9622693,2.6721172,3.968411,-3.9970088,5.6506143,0.36708567,-0.23031734,0.019594852,0.90100914,-7.76963,10.414842,-0.10479564,0.3059554,-1.5766537,0.15380044,0
1.6700000000000013,10.350992490765016,0.5187388383328206,-1.5231721393796165,-0.11391418480652547,16.380642,-0.9593298,-5.9622693,2.6721172,3.8905087,-3.8927557,5.6495395,0.3669365,-0.2226191,0.018332921,0.90302914,-7.810636,10.43569,-0.110170625,0.33912462,-1.568313,0.14066362,0
1.6800000000000013,10.404100367015403,0.5115129429003532,-1.2971601060072513,-0.15243270934730815,16.638254,-0.9208008,-5.7270174,2.614656,3.8122027,-3.7882981,5.648414,0.36685467,-0.21488625,0.01720738,0.9049557,-7.850385,10.4557295,-0.11482249,0.36712217,-1.5612737,0.12817141,0
1.6900000000000013,10.404100367015403,0.5115129429003532,-1.2971601060072513,-0.15243270934730815,16.638254,-0.9208008,-5.7270174,2.614656,3.7335043,-3.6836436,5.6472483,0.3668337,-0.20720574,0.016225595,0.90677166,-7.889051,10.475082,-0.11829304,0.38962275,-1.5200869,0.11440209,0
1.7000000000000013,10.404100367015403,0.5115129429003532,-1.2971601060072513,-0.15243270934730815,16.638254,-0.9208008,-5.7270174,2.614656,3.654426,-3.5787992,5.646051,0.36686927,-0.1996473,0.01539223,0.90846586,-7.926424,10.493685,-0.12109596,0.40861616,-1.4853235,0.10130842,0
1.7100000000000013,10.404100367015403,0.5115129429003532,-1.2971601060072513,-0.15243270934730815,16.638254,-0.9208008,-5.7270174,2.614656,3.5749803,-3.4737725,5.644829,0.366956,-0.19219114,0.014683225,0.91004914,-7.962505,10.511573,-0.12326614,0.42464894,-1.455982,0.08885726,0
1.7200000000000013,10.272186116521874,0.304191511881238,-1.2419213836987095,-0.11895260480390557,16.48425,-0.78488153,-5.5943575,2.4987853,3.4951804,-3.3685703,5.6435876,0.367089,-0.18482053,0.014078339,0.9115306,-7.997293,10.528776,-0.12483554,0.43818274,-1.4312165,0.07701709,0
1.7300000000000013,10.272186116521874,0.304191511881238,-1.2419213836987095,-0.11895260480390557,16.48425,-0.78488153,-5.5943575,2.4987853,3.415041,-3.2632005,5.642328,0.36724478,-0.17757194,0.013493756,0.91291654,-8.030366,10.545109,-0.12706585,0.41727662,-1.4016998,0.06740079,0
1.7400000000000013,10.272186116521874,0.304191511881238,-1.2419213836987095,-0.11895260480390557,16.48425,-0.78488153,-5.5943575,2.4987853,3.3345773,-3.1576705,5.6410484,0.36740473,-0.1704737,0.012862197,0.9142135,-8.062187,10.560795,-0.12876542,0.39963168,-1.3767854,0.05825638,0
1.7500000000000013,10.272186116521874,0.304191511881238,-1.2419213836987095,-0.11895260480390557,16.48425,-0.78488153,-5.5943575,2.4987853,3.2538016,-3.051987,5.6397543,0.36757118,-0.16350184,0.012190281,0.91542846,-8.092777,10.575836,-0.12996516,0.38473913,-1.3557562,0.049560696,0
1.7600000000000013,9.956579227452595,-0.03325080062985765,-1.351323883624645,0.04715224300937259,16.406374,-0.64107496,-5.491099,2.4237342,3.172726,-2.946156,5.6384506,0.3677458,-0.15663607,0.011483673,0.91656727,-8.122155,10.590234,-0.13069329,0.37217,-1.3380059,0.0412917,0
1.7700000000000014,9.956579227452595,-0.03325080062985765,-1.351323883624645,0.04715224300937259,16.406374,-0.64107496,-5.491099,2.4237342,3.091367,-2.8401866,5.6371274,0.3678904,-0.14986861,0.010610489,0.91765064,-8.149472,10.60356,-0.1339813,0.308945,-1.3400844,0.041579273,0
1.7800000000000014,9.956579227452595,-0.03325080062985765,-1.351323883624645,0.04715224300937259,16.406374,-0.64107496,-5.491099,2.4237342,3.0097406,-2.7340872,5.635773,0.36797273,-0.14319223,0.009466633,0.9186956,-8.175663,10.616221,-0.13686101,0.25558013,-1.3418385,0.041852742,0
1.7900000000000014,9.956579227452595,-0.03325080062985765,-1.351323883624645,0.04715224300937259,16.406374,-0.64107496,-5.491099,2.4237342,2.9278576,-2.6278648,5.634392,0.36800155,-0.13659208,0.0080940565,0.91970164,-8.200758,10.628174,-0.13935472,0.21053748,-1.3433189,0.042112786,0
1.8000000000000014,9.571471289700447,-0.4397332297486699,-1.622870397463351,0.2279262854481447,16.356339,-0.6551613,-5.392693,2.3436317,2.845729,-2.5215263,5.6329875,0.3679839,-0.13005556,0.0065282285,0.9206682,-8.224782,10.639381,-0.1414838,0.17251915,-1.3445684,0.04236008,0
1.8100000000000014,9.571471289700447,-0.4397332297486699,-1.622870397463351,0.2279262854481447,16.356339,-0.6551613,-5.392693,2.3436317,2.76337,-2.4150817,5.631545,0.36788455,-0.123531714,0.004612216,0.9216175,-8.246868,10.649402,-0.14699371,0.077048376,-1.3879716,0.051465873,0
1.8200000000000014,9.571471289700447,-0.4397332297486699,-1.622870397463351,0.2279262854481447,16.356339,-0.6551613,-5.392693,2.3436317,2.680795,-2.308541,5.6300488,0.36767307,-0.11697923,0.0022233096,0.9225653,-8.267973,10.658588,-0.15218869,-0.003534032,-1.4246069,0.060124848,0
1.8300000000000014,9.571471289700447,-0.4397332297486699,-1.622870397463351,0.2279262854481447,16.356339,-0.6551613,-5.392693,2.3436317,2.5980139,-2.2019129,5.6285024,0.36736092,-0.110401526,-0.0005646755,0.9235022,-8.288119,10.666859,-0.15708534,-0.07155009,-1.455529,0.068358906,0
1.8400000000000014,9.571471289700447,-0.4397332297486699,-1.622870397463351,0.2279262854481447,15.977426,-0.59065247,-5.2216635,2.076624,2.5150359,-2.0952072,5.626908,0.3669575,-0.10380157,-0.0036893643,0.92442036,-8.307328,10.674143,-0.16170187,-0.12895933,-1.4816289,0.07618892,0
1.8500000000000014,9.571471289700447,-0.4397332297486699,-1.622870397463351,0.2279262854481447,15.977426,-0.59065247,-5.2216635,2.076624,2.4318702,-1.9884337,5.625269,0.36647052,-0.09718193,-0.007098043,0.9253128,-8.325612,10.680381,-0.16605788,-0.17741594,-1.5036587,0.08363471,0
1.8600000000000014,9.571471289700447,-0.4397332297486699,-1.622870397463351,0.2279262854481447,15.977426,-0.59065247,-5.2216635,2.076624,2.3485265,-1.8816034,5.6235876,0.36590648,-0.09054488,-0.010746156,0.9261737,-8.342983,10.685524,-0.17017426,-0.2183162,-1.522253,0.09071513,0
1.8700000000000014,9.571471289700447,-0.4397332297486699,-1.622870397463351,0.2279262854481447,15.977426,-0.59065247,-5.2216635,2.076624,2.2650137,-1.7747272,5.621866,0.3652708,-0.08389246,-0.014596036,0.926998,-8.359453,10.689528,-0.17407295,-0.2528384,-1.5379474,0.09744813,0
1.8800000000000014,9.00573463727142,-0.7851305314799942,-1.8136397347064601,0.4698698714414906,15.856476,-0.44768757,-5.0707726,1.8907545,2.1813407,-1.6678168,5.6201067,0.364568,-0.07722649,-0.01861584,0.92778164,-8.375025,10.692359,-0.17777692,-0.28197727,-1.5511942,0.10385073,0
1.8900000000000015,9.00573463727142,-0.7851305314799942,-1.8136397347064601,0.4698698714414906,15.856476,-0.44768757,-5.0707726,1.8907545,2.0975206,-1.5608846,5.6182833,0.3637621,-0.07052866,-0.022932444,0.9285344,-8.38884,10.693885,-0.18689956,-0.36042234,-1.5921319,0.1218114,0
1.9000000000000015,9.00573463727142,-0.7851305314799942,-1.8136397347064601,0.4698698714414906,15.856476,-0.44768757,-5.0707726,1.8907545,2.0135667,-1.4539433,5.6163692,0.36282074,-0.06378455,-0.027644863,0.92926186,-8.401831,10.694209,-0.19588575,-0.42663443,-1.6266859,0.13889074,0
1.9100000000000015,9.00573463727142,-0.7851305314799942,-1.8136397347064601,0.4698698714414906,15.856476,-0.44768757,-5.0707726,1.8907545,1.9294869,-1.3470049,5.6143656,0.3617523,-0.05700101,-0.032690678,0.9299552,-8.41401,10.693267,-0.2047619,-0.4825215,-1.6558515,0.15513198,0
1.9200000000000015,8.565841104734952,-1.149811579841055,-1.984122825507424,0.6984106331489447,15.441578,-0.51632905,-4.7533894,1.8190112,1.8452892,-1.2400826,5.612274,0.36056402,-0.05018404,-0.03801711,0.9306068,-8.425388,10.691002,-0.21355604,-0.52969396,-1.6804686,0.17057624,0
1.9300000000000015,8.565841104734952,-1.149811579841055,-1.984122825507424,0.6984106331489447,15.441578,-0.51632905,-4.7533894,1.8190112,1.7609844,-1.133189,5.610073,0.35922596,-0.04332899,-0.04373854,0.9312172,-8.435457,10.687541,-0.2266629,-0.62636656,-1.7278444,0.19647723,0
1.9400000000000015,8.565841104734952,-1.149811579841055,-1.984122825507424,0.6984106331489447,15.441578,-0.51632905,-4.7533894,1.8190112,1.6765827,-1.0263366,5.6077414,0.3577108,-0.036432594,-0.04994312,0.93178356,-8.444788,10.6827,-0.23975307,-0.70796424,-1.7678324,0.22110724,0
1.9500000000000015,8.565841104734952,-1.149811579841055,-1.984122825507424,0.6984106331489447,15.441578,-0.51632905,-4.7533894,1.8190112,1.5920912,-0.9195398,5.605278,0.35602796,-0.029501744,-0.05655425,0.9322954,-8.453396,10.676405,-0.2528623,-0.7768378,-1.8015844,0.24452867,0
1.9600000000000015,8.385074960046742,-1.4178863634975014,-1.9132072037689833,0.915727000490043,15.034642,-0.7015952,-4.511419,1.7350456,1.5075172,-0.81281364,5.6026835,0.35418567,-0.022542542,-0.0635071,0.9327435,-8.461292,10.668596,-0.26602823,-0.8349719,-1.8300726,0.26680082,0
1.9700000000000015,8.385074960046742,-1.4178863634975014,-1.9132072037689833,0.915727000490043,15.034642,-0.7015952,-4.511419,1.7350456,1.4228686,-0.70617235,5.599948,0.35216582,-0.01562655,-0.070836276,0.9331219,-8.468336,10.659418,-0.2810809,-0.92583656,-1.8430724,0.2986438,0
1.9800000000000015,8.385074960046742,-1.4178863634975014,-1.9132072037689833,0.915727000490043,15.034642,-0.7015952,-4.511419,1.7350456,1.3381528,-0.5996308,5.5970616,0.34995204,-0.008811276,-0.07856637,0.9334251,-8.474723,10.648652,-0.29627123,-1.0025328,-1.8540444,0.32892424,0
1.9900000000000015,8.385074960046742,-1.4178863634975014,-1.9132072037689833,0.915727000490043,15.034642,-0.7015952,-4.511419,1.7350456,1.2533761,-0.493205,5.5940223,0.34755352,-0.0020829723,-0.08663319,0.9336467,-8.48048,10.636251,-0.31164435,-1.06727,-1.8633045,0.3577188,0
2.0000000000000013,,,,,14.212887,-0.8083541,-4.1571574,1.6395919,1.1685451,-0.38691157,5.5908284,0.34497836,0.00456967,-0.09498225,0.93378085,-8.485632,10.622175,-0.3272458,-1.1219133,-1.8711195,0.38510042,0
2.010000000000001,,,,,14.212887,-0.8083541,-4.1571574,1.6395919,1.0836655,-0.28076726,5.5874763,0.34222168,0.0110407695,-0.10357082,0.93382806,-8.49019,10.606416,-0.34322858,-1.1844895,-1.8367305,0.4208963,0
2.020000000000001,,,,,14.212887,-0.8083541,-4.1571574,1.6395919,0.9987431,-0.17478916,5.583963,0.3392791,0.017246192,-0.11236311,0.9337913,-8.494201,10.588939,-0.3595308,-1.2373091,-1.8077031,0.45493567,0
2.0300000000000007,,,,,14.212887,-0.8083541,-4.1571574,1.6395919,0.9137832,-0.068994425,5.5802846,0.33615816,0.023223687,-0.12132575,0.93366903,-8.497704,10.569737,-0.37619692,-1.2818933,-1.783201,0.4873047,0
2.0400000000000005,,,,,14.212887,-0.8083541,-4.1571574,1.6395919,0.8287907,0.036599666,5.5764375,0.33286572,0.029004913,-0.13043028,0.9334594,-8.500728,10.54881,-0.39327058,-1.319526,-1.762518,0.51808536,0
2.0500000000000003,,,,,13.383679,-0.79676205,-3.588171,1.440467,0.74377024,0.14197583,5.5724177,0.32940793,0.034616414,-0.13965239,0.9331606,-8.503297,10.526154,-0.41079468,-1.3512913,-1.7450587,0.54735565,1
2.06,,,,,13.383679,-0.79676205,-3.588171,1.440467,0.65871984,0.24704465,5.56846,0.3256306,0.040893618,-0.14895512,0.93279374,-8.506659,10.487171,-0.38090822,-1.2646526,-2.0324962,0.5911809,1
2.07,,,,,13.383679,-0.79676205,-3.588171,1.440467,0.57364064,0.35170943,5.5647964,0.3213916,0.048495844,-0.15830284,0.93235993,-8.508986,10.445326,-0.35190606,-1.1915307,-2.2751074,0.6328556,1
2.0799999999999996,,,,,13.383679,-0.79676205,-3.588171,1.440467,0.4885448,0.45594102,5.5614185,0.31671438,0.057206,-0.16767788,0.9318277,-8.509936,10.400528,-0.32389665,-1.1298186,-2.4798827,0.6724853,1
2.0899999999999994,,,,,13.972168,-0.37389702,-3.293715,1.3495498,0.40344763,0.5597096,5.5583153,0.31162086,0.066840105,-0.17706487,0.9311671,-8.509213,10.352719,-0.29699677,-1.0777382,-2.6527236,0.7101703,1
2.099999999999999,,,,,13.972168,-0.37389702,-3.293715,1.3495498,0.31836766,0.6629739,5.5555024,0.30615237,0.077186905,-0.1862559,0.9303876,-8.506449,10.299642,-0.2658836,-0.96787196,-2.752655,0.7415449,1
2.109999999999999,,,,,13.972168,-0.37389702,-3.293715,1.3495498,0.23332636,0.7656919,5.5529933,0.30034783,0.088070154,-0.19508713,0.92950267,-8.501441,10.243466,-0.2361549,-0.8751461,-2.8370056,0.7713799,1
2.1199999999999988,,,,,13.972168,-0.37389702,-3.293715,1.3495498,0.1483472,0.86783296,5.550774,0.2942244,0.09939312,-0.20360544,0.9284919,-8.493998,10.184294,-0.2079065,-0.79688716,-2.9082048,0.79975086,1
2.1299999999999986,,,,,13.263295,-0.27585852,-2.463635,1.511729,0.06345538,0.96936774,5.5488296,0.2877987,0.1110738,-0.21185014,0.9273367,-8.483949,10.122224,-0.18123831,-0.7308387,-2.9683034,0.82672966,1
2.1399999999999983,,,,,13.263295,-0.27585852,-2.463635,1.511729,-0.021325493,1.0702841,5.547112,0.28113583,0.12274194,-0.2197261,0.92607605,-8.471816,10.060664,-0.16249044,-0.6598638,-2.8895772,0.8603428,1
2.149999999999998,,,,,13.263295,-0.27585852,-2.463635,1.511729,-0.10597197,1.1705725,5.545574,0.27429366,0.13410133,-0.2271656,0.92475665,-8.457073,9.996638,-0.1453794,-0.59995663,-2.8231306,0.89230657,1
2.159999999999998,,,,,13.263295,-0.27585852,-2.463635,1.511729,-0.19045803,1.2702091,5.5441985,0.26727724,0.1451877,-0.2342354,0.92337227,-8.439734,9.930325,-0.12993568,-0.5493913,-2.767049,0.92270184,1
2.1699999999999977,,,,,12.275735,0.026635882,-1.5439769,1.4338776,-0.27475777,1.3691717,5.542969,0.2600917,0.15603143,-0.24099134,0.9219159,-8.419812,9.861883,-0.116190344,-0.5067112,-2.7197158,0.95160556,1
2.1799999999999975,,,,,12.275735,0.026635882,-1.5439769,1.4338776,-0.35885367,1.4674662,5.5418277,0.2528224,0.16635302,-0.2472731,0.9204688,-8.399005,9.796719,-0.11236314,-0.42361027,-2.5363152,0.97527075,1
2.1899999999999973,,,,,12.275735,0.026635882,-1.5439769,1.4338776,-0.44273004,1.5651007,5.5407166,0.24554384,0.17593479,-0.2529619,0.91911083,-8.375924,9.72994,-0.11008064,-0.3534578,-2.3815212,0.9977747,1
2.199999999999997,,,,,12.275735,0.026635882,-1.5439769,1.4338776,-0.5263647,1.6620601,5.539621,0.23824593,0.18488376,-0.25815535,0.91783005,-8.350675,9.661752,-0.10927921,-0.2942357,-2.2508724,1.0191745,1
2.209999999999997,,,,,11.150701,0.26411885,-0.34580487,1.3101546,-0.6097364,1.7583314,5.5385265,0.23092003,0.19329053,-0.26293468,0.916613,-8.323346,9.592324,-0.10990201,-0.24424058,-2.1406024,1.039524,1
