time-since-start [s],throttle_mpc,roll_mpc,pitch_mpc,yaw_mpc,throttle_nw,roll_nw,pitch_nw,yaw_nw,position_x [m],position_y [m],position_z [m],rotation_w [quaternion],rotation_x [quaternion],rotation_y [quaternion],rotation_z [quaternion],velocity_x [m/s],velocity_y [m/s],velocity_z [m/s],omega_x [rad/s],omega_y [rad/s],omega_z [rad/s],network_used
0.0,13.476785211490359,5.999998849899971,-5.999997621449947,1.1513550189980477,10.3265085,1.2698026,-0.4579875,-0.57105815,13.77993,-11.844509,1.9453936,-0.5008747,0.32685584,-0.30504405,-0.74110585,-7.6860647,-0.702425,0.22754245,0.85017884,-0.724241,0.12999304,0
0.01,13.476785211490359,5.999998849899971,-5.999997621449947,1.1513550189980477,11.140238,1.7896954,-0.79495376,-0.3439139,13.7029505,-11.851008,1.9475838,-0.5040931,0.31919754,-0.3070935,-0.74141526,-7.7095118,-0.5974616,0.21065181,1.653409,-1.5468719,0.18011156,0
0.02,13.476785211490359,5.999998849899971,-5.999997621449947,1.1513550189980477,11.140238,1.7896954,-0.79495376,-0.3439139,13.62575,-11.85646,1.9496108,-0.5094047,0.30675426,-0.3100121,-0.7418228,-7.730429,-0.49293524,0.19500226,2.331407,-2.2411835,0.22777076,0
0.03,13.476785211490359,5.999998849899971,-5.999997621449947,1.1513550189980477,11.140238,1.7896954,-0.79495376,-0.3439139,13.548356,-11.860869,1.9514899,-0.51635617,0.29020077,-0.31360677,-0.7421661,-7.7476397,-0.38917002,0.18114689,2.9036913,-2.827199,0.2730913,0
0.04,13.476785211490359,5.999998849899971,-5.999997621449947,1.1513550189980477,10.913171,2.3165486,-2.046307,-0.55512774,13.470813,-11.864247,1.9532412,-0.52453995,0.2700994,-0.31769812,-0.7422748,-7.7601295,-0.28652972,0.16946837,3.3867393,-3.3218145,0.31618798,0
0.05,13.476785211490359,5.999998849899971,-5.999997621449947,1.1513550189980477,10.913171,2.3165486,-2.046307,-0.55512774,13.393172,-11.866606,1.9548875,-0.5335949,0.24692565,-0.32212296,-0.74198437,-7.767032,-0.1854248,0.16018844,3.7944608,-3.739291,0.35716987,0
0.060000000000000005,13.476785211490359,5.999998849899971,-5.999997621449947,1.1513550189980477,10.913171,2.3165486,-2.046307,-0.55512774,13.315494,-11.867962,1.9564534,-0.5432039,0.22108743,-0.326735,-0.74114364,-7.7676105,-0.0863111,0.15338017,4.138599,-4.0916624,0.39614075,0
0.07,13.476785211490359,5.999998849899971,-5.999997621449947,1.1513550189980477,10.913171,2.3165486,-2.046307,-0.55512774,13.2378435,-11.868339,1.9579636,-0.5530906,0.19293936,-0.33140448,-0.73961884,-7.7612495,0.010316437,0.14898154,4.4290657,-4.389085,0.43319938,0
0.08,14.818607530123282,5.9999962792544395,-5.999994380036403,0.8365944319700468,11.679487,1.5108901,-1.5371745,-0.78309083,13.160295,-11.867765,1.9594408,-0.56301576,0.16279346,-0.3360173,-0.7372948,-7.74745,0.1039328,0.14680943,4.6742287,-4.64013,0.46843946,0
0.09,14.818607530123282,5.9999962792544395,-5.999994380036403,0.8365944319700468,11.679487,1.5108901,-1.5371745,-0.78309083,13.0829315,-11.866228,1.9609549,-0.572802,0.13094042,-0.34046778,-0.73405296,-7.72367,0.2029602,0.15631759,4.8811026,-4.85208,0.4865049,0
0.09999999999999999,14.818607530123282,5.9999962792544395,-5.999994380036403,0.8365944319700468,11.679487,1.5108901,-1.5371745,-0.78309083,13.005851,-11.863723,1.962573,-0.5822996,0.09764191,-0.3446653,-0.7297936,-7.6909776,0.29746872,0.1675341,5.0557065,-5.030985,0.5036839,0
0.10999999999999999,14.818607530123282,5.9999962792544395,-5.999994380036403,0.8365944319700468,11.679487,1.5108901,-1.5371745,-0.78309083,12.929142,-11.860297,1.9643097,-0.5913549,0.063122384,-0.348538,-0.72445554,-7.6491814,0.38685066,0.17995168,5.2030725,-5.181998,0.52001995,0
0.11999999999999998,14.818607530123282,5.9999962792544395,-5.999994380036403,0.8365944319700468,11.679487,1.5108901,-1.5371745,-0.78309083,12.852899,-11.856006,1.9661742,-0.59983724,0.027586235,-0.3520244,-0.7179921,-7.5982037,0.47051048,0.19299114,5.32745,-5.309468,0.5355544,0
0.12999999999999998,15.618639604607452,3.4559776829962243,-2.5588546549930524,0.0747775177784979,11.836036,0.7876058,-0.16192913,-0.9434461,12.77721,-11.850908,1.9681696,-0.6076357,-0.008779353,-0.35507205,-0.71036977,-7.538076,0.54787534,0.20601514,5.432422,-5.417066,0.5503266,0
0.13999999999999999,15.618639604607452,3.4559776829962243,-2.5588546549930524,0.0747775177784979,11.836036,0.7876058,-0.16192913,-0.9434461,12.702186,-11.845053,1.970322,-0.6142808,-0.044174355,-0.35777265,-0.7019301,-7.4652843,0.6222972,0.22430404,5.123961,-4.971518,0.52699125,0
0.15,15.618639604607452,3.4559776829962243,-2.5588546549930524,0.0747775177784979,11.836036,0.7876058,-0.16192913,-0.9434461,12.6279335,-11.838487,1.9726508,-0.61954486,-0.07716298,-0.36028084,-0.6931141,-7.3838463,0.6896602,0.24116072,4.863644,-4.595424,0.504801,0
0.16,15.39490257934767,0.16881954495594584,1.943500365691795,-0.3543321501523214,10.020125,-0.39795637,2.0223863,-1.1143513,12.554535,-11.831282,1.9751383,-0.62365294,-0.10808546,-0.3626321,-0.68401164,-7.294617,0.75021994,0.25600612,4.6439557,-4.2779584,0.48369962,0
0.17,15.39490257934767,0.16881954495594584,1.943500365691795,-0.3543321501523214,10.020125,-0.39795637,2.0223863,-1.1143513,12.482091,-11.823489,1.9777943,-0.6263976,-0.13557094,-0.36511105,-0.6752332,-7.1934595,0.8071446,0.27410805,4.052415,-3.414694,0.45216587,0
0.18000000000000002,15.39490257934767,0.16881954495594584,1.943500365691795,-0.3543321501523214,10.020125,-0.39795637,2.0223863,-1.1143513,12.410672,-11.8151655,1.9805971,-0.6276905,-0.15831234,-0.36799395,-0.66747415,-7.0899,0.8564842,0.28540707,3.493452,-2.6263082,0.41683793,0
0.19000000000000003,15.39490257934767,0.16881954495594584,1.943500365691795,-0.3543321501523214,10.020125,-0.39795637,2.0223863,-1.1143513,12.340298,-11.806379,1.9834821,-0.6278438,-0.17670423,-0.37128097,-0.6608613,-6.984452,0.9001527,0.29103965,2.9775722,-1.9166981,0.37926167,0
0.20000000000000004,15.029318515034058,-2.4223347842802703,5.525057228714026,-0.33218073178537677,11.430869,-1.9033875,5.2817183,-1.1177192,12.270995,-11.7971735,1.9864087,-0.62712014,-0.19130641,-0.37496108,-0.65538216,-6.875439,0.94047105,0.29388064,2.5393686,-1.3148707,0.34326398,0
0.21000000000000005,15.029318515034058,-2.4223347842802703,5.525057228714026,-0.33218073178537677,11.430869,-1.9033875,5.2817183,-1.1177192,12.202837,-11.787565,1.9893848,-0.6254386,-0.20163211,-0.3792366,-0.65142155,-6.756586,0.9808604,0.30034468,1.9008694,-0.38384718,0.32228452,0
0.22000000000000006,15.029318515034058,-2.4223347842802703,5.525057228714026,-0.33218073178537677,11.430869,-1.9033875,5.2817183,-1.1177192,12.135857,-11.777566,1.9923949,-0.62270695,-0.2070587,-0.38425732,-0.6493909,-6.639918,1.0187782,0.30081278,1.2994411,0.46455032,0.29674038,0
0.23000000000000007,15.029318515034058,-2.4223347842802703,5.525057228714026,-0.33218073178537677,11.430869,-1.9033875,5.2817183,-1.1177192,12.070029,-11.767194,1.9953831,-0.61907655,-0.20797165,-0.38991484,-0.6491978,-6.5260253,1.0557479,0.2961543,0.73487073,1.2376447,0.2673472,0
0.24000000000000007,15.029318515034058,-2.4223347842802703,5.525057228714026,-0.33218073178537677,11.33837,-2.48903,5.6325254,-1.1511587,12.005335,-11.756448,1.9983109,-0.61464953,-0.2048195,-0.3960948,-0.6506637,-6.4127955,1.093896,0.28922072,0.24242577,1.9061735,0.23792818,0
0.25000000000000006,15.029318515034058,-2.4223347842802703,5.525057228714026,-0.33218073178537677,11.33837,-2.48903,5.6325254,-1.1511587,11.941773,-11.745307,2.0011644,-0.6095033,-0.19819762,-0.40268272,-0.6535055,-6.299709,1.1346437,0.2813328,-0.17318496,2.470475,0.20995277,0
0.26000000000000006,15.029318515034058,-2.4223347842802703,5.525057228714026,-0.33218073178537677,11.33837,-2.48903,5.6325254,-1.1511587,11.879338,-11.733743,2.0039353,-0.6036858,-0.18862851,-0.4095682,-0.6574467,-6.187374,1.17885,0.27275053,-0.523953,2.9467962,0.18335012,0
0.2700000000000001,15.029318515034058,-2.4223347842802703,5.525057228714026,-0.33218073178537677,11.33837,-2.48903,5.6325254,-1.1511587,11.818022,-11.721715,2.0066178,-0.5972253,-0.17654946,-0.4166482,-0.6622356,-6.0763574,1.2272177,0.26365644,-0.8199979,3.3488524,0.15805286,0
0.2800000000000001,14.641039227638732,-4.308039238142393,5.999997453999562,-0.1999357198909813,12.72987,-4.078917,5.559946,-0.6505987,11.757806,-11.709181,2.0092072,-0.59013927,-0.16232869,-0.42382908,-0.6676477,-5.9671955,1.2803098,0.25416014,-1.0698587,3.6882215,0.13399693,0
0.2900000000000001,14.641039227638732,-4.308039238142393,5.999997453999562,-0.1999357198909813,12.72987,-4.078917,5.559946,-0.6505987,11.698656,-11.696097,2.0116885,-0.5824631,-0.14571345,-0.4306282,-0.6738421,-5.863199,1.3370752,0.24205826,-1.5748396,4.048714,0.11761077,0
0.3000000000000001,14.641039227638732,-4.308039238142393,5.999997453999562,-0.1999357198909813,12.72987,-4.078917,5.559946,-0.6505987,11.640531,-11.68242,2.0140479,-0.5741916,-0.12652491,-0.43663692,-0.68091357,-5.762275,1.3992949,0.22984013,-2.00106,4.3530035,0.10202866,0
0.3100000000000001,14.641039227638732,-4.308039238142393,5.999997453999562,-0.1999357198909813,12.72987,-4.078917,5.559946,-0.6505987,11.583397,-11.668092,2.0162852,-0.5652805,-0.10515214,-0.4418741,-0.6885839,-5.6651893,1.4672811,0.2176707,-2.3608048,4.60985,0.08721119,0
0.3200000000000001,14.951971760300614,-5.509365692993965,5.999997832605965,-0.3486234396903188,14.300896,-5.4437623,5.5072765,-0.9026223,11.527211,-11.653054,2.0184016,-0.55569357,-0.081928395,-0.44635168,-0.6966075,-5.572668,1.541226,0.20561263,-2.664443,4.82665,0.0731208,0
0.3300000000000001,14.951971760300614,-5.509365692993965,5.999997832605965,-0.3486234396903188,14.300896,-5.4437623,5.5072765,-0.9026223,11.471934,-11.6372385,2.0204072,-0.5454489,-0.056867197,-0.44974092,-0.704971,-5.4835715,1.6229092,0.19549103,-3.1080484,5.0096536,0.052425683,0
0.34000000000000014,14.951971760300614,-5.509365692993965,5.999997832605965,-0.3486234396903188,14.300896,-5.4437623,5.5072765,-0.9026223,11.417519,-11.620575,2.022312,-0.53454083,-0.030005097,-0.4517668,-0.71363294,-5.400686,1.7107356,0.18551752,-3.482472,5.164129,0.03274609,0
0.35000000000000014,14.951971760300614,-5.509365692993965,5.999997832605965,-0.3486234396903188,14.300896,-5.4437623,5.5072765,-0.9026223,11.363896,-11.603003,2.0241177,-0.5229153,-0.0016431552,-0.45250922,-0.7223515,-5.324824,1.8045719,0.17567168,-3.7985034,5.2945213,0.014032181,0
0.36000000000000015,15.323904572083329,-5.338303398883409,5.371578363500292,-0.5952366946263576,14.279377,-5.18095,6.184832,-0.8842637,11.310995,-11.584463,2.0258253,-0.51053345,0.027954943,-0.4520361,-0.7309151,-5.256736,1.9041816,0.16583513,-4.06525,5.4045844,-0.0037634308,0
0.37000000000000016,15.323904572083329,-5.338303398883409,5.371578363500292,-0.5952366946263576,14.279377,-5.18095,6.184832,-0.8842637,11.25874,-11.564887,2.0274446,-0.49751115,0.058351416,-0.45033073,-0.73910725,-5.195612,2.0118346,0.1580032,-4.2636795,5.3995185,-0.0327872,0
0.38000000000000017,15.323904572083329,-5.338303398883409,5.371578363500292,-0.5952366946263576,14.279377,-5.18095,6.184832,-0.8842637,11.207051,-11.5442095,2.0289836,-0.48396295,0.089179546,-0.44739857,-0.74676704,-5.143692,2.1245546,0.14974727,-4.431169,5.3952446,-0.060386766,0
0.3900000000000002,15.323904572083329,-5.338303398883409,5.371578363500292,-0.5952366946263576,14.279377,-5.18095,6.184832,-0.8842637,11.155832,-11.522382,2.0304372,-0.4698665,0.12031748,-0.4433249,-0.7537983,-5.1014276,2.2417705,0.14079483,-4.572544,5.3916373,-0.086632,0
0.4000000000000002,15.636892122557992,-4.457433948189583,2.672890523417577,-1.0281445513757388,15.366008,-4.955922,5.2395186,-0.42951936,11.104988,-11.499361,2.0317965,-0.45520937,0.15165496,-0.4381843,-0.760118,-5.0692005,2.362875,0.13083166,-4.6918764,5.388592,-0.11158939,0
0.4100000000000002,15.636892122557992,-4.457433948189583,2.672890523417577,-1.0281445513757388,15.366008,-4.955922,5.2395186,-0.42951936,11.054416,-11.4751005,2.0330582,-0.44056723,0.18213744,-0.43182713,-0.7656706,-5.046812,2.4897325,0.12131931,-4.6551995,4.9652133,-0.156565,0
0.4200000000000002,15.636892122557992,-4.457433948189583,2.672890523417577,-1.0281445513757388,15.366008,-4.955922,5.2395186,-0.42951936,11.004016,-11.449558,2.0342176,-0.42645288,0.21093875,-0.42419901,-0.77051777,-5.034754,2.6189907,0.110337645,-4.6242657,4.6078525,-0.19933368,0
0.4300000000000002,15.636892122557992,-4.457433948189583,2.672890523417577,-1.0281445513757388,15.366008,-4.955922,5.2395186,-0.42951936,10.953688,-11.422715,2.0352597,-0.4127709,0.23827673,-0.41548172,-0.774738,-5.032723,2.7498026,0.09783841,-4.598173,4.3062143,-0.24000366,0
0.4400000000000002,15.636892122557992,-4.457433948189583,2.672890523417577,-1.0281445513757388,16.203327,-3.8491762,4.462295,-0.6107828,10.90333,-11.394559,2.036169,-0.39943695,0.26433614,-0.40582347,-0.77838516,-5.040426,2.8814235,0.08376469,-4.5761623,4.051611,-0.27867794,0
0.45000000000000023,15.636892122557992,-4.457433948189583,2.672890523417577,-1.0281445513757388,16.203327,-3.8491762,4.462295,-0.6107828,10.852847,-11.365086,2.0369294,-0.38637763,0.28927284,-0.39534575,-0.78149533,-5.0575776,3.0131922,0.06804781,-4.5575933,3.836706,-0.31545448,0
0.46000000000000024,15.636892122557992,-4.457433948189583,2.672890523417577,-1.0281445513757388,16.203327,-3.8491762,4.462295,-0.6107828,10.802147,-11.334297,2.037524,-0.37352994,0.3132176,-0.3841485,-0.7840917,-5.0839024,3.1445155,0.05060608,-4.5419273,3.6553097,-0.3504264,0
0.47000000000000025,15.636892122557992,-4.457433948189583,2.672890523417577,-1.0281445513757388,16.203327,-3.8491762,4.462295,-0.6107828,10.751139,-11.302199,2.0379353,-0.36084032,0.3362797,-0.3723145,-0.78618824,-5.1191297,3.2748547,0.03134471,-4.528709,3.5021973,-0.38368225,0
0.48000000000000026,15.038143504978754,-2.718936328819985,-0.9560209931498703,-1.3519992832837695,17.152723,-1.8938949,0.79634184,-0.69486976,10.699735,-11.2688055,2.0381444,-0.3482638,0.35854977,-0.35991278,-0.78779244,-5.1629934,3.4037175,0.010156477,-4.517556,3.3729577,-0.4153062,0
0.49000000000000027,15.038143504978754,-2.718936328819985,-0.9560209931498703,-1.3519992832837695,17.152723,-1.8938949,0.79634184,-0.69486976,10.64786,-11.234157,2.038117,-0.33657402,0.37874234,-0.34704384,-0.7891974,-5.2131424,3.5257869,-0.015877621,-4.237163,2.6979077,-0.46127003,0
0.5000000000000002,15.038143504978754,-2.718936328819985,-0.9560209931498703,-1.3519992832837695,17.152723,-1.8938949,0.79634184,-0.69486976,10.595447,-11.1982975,2.0378213,-0.32641155,0.39588577,-0.33383903,-0.7907473,-5.2704535,3.6456034,-0.043480217,-4.000506,2.128123,-0.50497836,0
0.5100000000000002,15.038143504978754,-2.718936328819985,-0.9560209931498703,-1.3519992832837695,17.152723,-1.8938949,0.79634184,-0.69486976,10.542429,-11.161253,2.0372436,-0.3175529,0.41046575,-0.32037953,-0.7924864,-5.3340826,3.76287,-0.07221785,-3.8007586,1.6471903,-0.5465419,0
0.5200000000000002,14.962431554591099,-0.8061030221546458,-3.8305921551590023,-1.3677819730178304,16.476606,-0.592617,-3.1391315,-0.5980517,10.488746,-11.123049,2.036374,-0.30980167,0.4228858,-0.30672115,-0.79442585,-5.4033237,3.8773692,-0.10170754,-3.632161,1.2412548,-0.58606595,0
0.5300000000000002,14.962431554591099,-0.8061030221546458,-3.8305921551590023,-1.3677819730178304,16.476606,-0.592617,-3.1391315,-0.5980517,10.434342,-11.083712,2.0352097,-0.30363315,0.4323815,-0.29314062,-0.7968196,-5.47763,3.9891396,-0.13145205,-3.201687,0.46017987,-0.62350315,0
0.5400000000000003,14.962431554591099,-0.8061030221546458,-3.8305921551590023,-1.3677819730178304,16.476606,-0.592617,-3.1391315,-0.5980517,10.37918,-11.043278,2.033745,-0.29946926,0.4383026,-0.27990502,-0.7999137,-5.555429,4.0972323,-0.16136824,-2.8283727,-0.20904736,-0.6600251,0
0.5500000000000003,14.962431554591099,-0.8061030221546458,-3.8305921551590023,-1.3677819730178304,16.476606,-0.592617,-3.1391315,-0.5980517,10.323224,-11.001778,2.0319858,-0.29699835,0.4412027,-0.2669822,-0.8036495,-5.6362753,4.2024364,-0.19031575,-2.5132601,-0.77390337,-0.69475496,0
0.5600000000000003,14.301103598839555,1.050310174701678,-5.9999933742271665,-1.1926294037538674,15.779337,1.2024655,-4.8581614,-0.597816,10.266447,-10.959239,2.0299444,-0.29594192,0.44154704,-0.25432754,-0.80794305,-5.719397,4.304794,-0.21770528,-2.2472718,-1.250664,-0.7277806,0
0.5700000000000003,14.301103598839555,1.050310174701678,-5.9999933742271665,-1.1926294037538674,15.779337,1.2024655,-4.8581614,-0.597816,10.208847,-10.915712,2.0276237,-0.2965815,0.4388011,-0.24224465,-0.8129024,-5.8004594,4.4000864,-0.24611855,-1.7353375,-1.9895928,-0.750409,0
0.5800000000000003,14.301103598839555,1.050310174701678,-5.9999933742271665,-1.1926294037538674,15.779337,1.2024655,-4.8581614,-0.597816,10.1504345,-10.871247,2.0250309,-0.2991187,0.432527,-0.2309772,-0.818595,-5.882015,4.492701,-0.27195448,-1.3012594,-2.6152058,-0.77210885,0
0.5900000000000003,14.301103598839555,1.050310174701678,-5.9999933742271665,-1.1926294037538674,15.779337,1.2024655,-4.8581614,-0.597816,10.0912075,-10.825867,2.022196,-0.3032031,0.42322555,-0.22038451,-0.82485056,-5.963293,4.582887,-0.29448387,-0.9348407,-3.1432326,-0.792744,0
0.6000000000000003,14.41153083836323,2.221948043851726,-5.999886859908632,-1.0278958823661521,15.889939,2.69245,-5.6754994,-0.88481015,10.031172,-10.779597,2.0191545,-0.30853355,0.41131184,-0.21034022,-0.83149654,-6.0435286,4.6706953,-0.31319627,-0.6255332,-3.5888944,-0.8123665,0
0.6100000000000003,14.41153083836323,2.221948043851726,-5.999886859908632,-1.0278958823661521,15.889939,2.69245,-5.6754994,-0.88481015,9.97034,-10.732458,2.01595,-0.31502745,0.3969824,-0.2011332,-0.83827674,-6.122629,4.756796,-0.3270538,-0.18169613,-3.9651208,-0.8229426,0
0.6200000000000003,14.41153083836323,2.221948043851726,-5.999886859908632,-1.0278958823661521,15.889939,2.69245,-5.6754994,-0.88481015,9.908729,-10.684469,2.0126293,-0.32259458,0.3804072,-0.1929892,-0.84497213,-6.1992307,4.840585,-0.33639556,0.19295296,-4.282643,-0.83299977,0
0.6300000000000003,14.41153083836323,2.221948043851726,-5.999886859908632,-1.0278958823661521,15.889939,2.69245,-5.6754994,-0.88481015,9.846367,-10.6356535,2.0092385,-0.33098772,0.361871,-0.18571953,-0.85147196,-6.272628,4.922109,-0.34104645,0.50920033,-4.550621,-0.8425634,0
0.6400000000000003,14.41153083836323,2.221948043851726,-5.999886859908632,-1.0278958823661521,15.515178,3.1678257,-5.3984118,-0.96615785,9.78329,-10.586035,2.005825,-0.33999744,0.3416173,-0.17916308,-0.85767114,-6.3421893,5.0013437,-0.34091786,0.77615035,-4.776784,-0.85165775,0
0.6500000000000004,14.41153083836323,2.221948043851726,-5.999886859908632,-1.0278958823661521,15.515178,3.1678257,-5.3984118,-0.96615785,9.719538,-10.535636,2.0024366,-0.34944668,0.31985655,-0.17318292,-0.8634734,-6.407347,5.0782037,-0.33600223,1.001488,-4.9676566,-0.86030585,0
0.6600000000000004,14.41153083836323,2.221948043851726,-5.999886859908632,-1.0278958823661521,15.515178,3.1678257,-5.3984118,-0.96615785,9.655159,-10.48448,1.9991211,-0.3591859,0.29677242,-0.16766326,-0.8687926,-6.4675927,5.152557,-0.3263668,1.1917005,-5.128745,-0.86852956,0
0.6700000000000004,14.41153083836323,2.221948043851726,-5.999886859908632,-1.0278958823661521,15.515178,3.1678257,-5.3984118,-0.96615785,9.590204,-10.432594,1.995925,-0.36908886,0.27252647,-0.1625065,-0.87355274,-6.522471,5.2242327,-0.3121475,1.3522632,-5.264697,-0.87634975,0
0.6800000000000004,13.878943936668117,2.585868781153155,-5.03392946485398,-1.0601893030954455,15.225338,2.9572473,-5.292211,-1.0428237,9.52473,-10.380006,1.9928931,-0.3790489,0.24726205,-0.15763071,-0.8776879,-6.5715785,5.2930274,-0.29354244,1.4877987,-5.3794346,-0.8837862,0
0.6900000000000004,13.878943936668117,2.585868781153155,-5.03392946485398,-1.0601893030954455,15.225338,2.9572473,-5.292211,-1.0428237,9.458802,-10.326757,1.990046,-0.3889566,0.221393,-0.15324332,-0.8810303,-6.6129794,5.3563104,-0.275285,1.6590431,-5.325661,-0.8924423,0
0.7000000000000004,13.878943936668117,2.585868781153155,-5.03392946485398,-1.0601893030954455,15.225338,2.9572473,-5.292211,-1.0428237,9.392491,-10.272891,1.9873997,-0.39872813,0.19526558,-0.14951426,-0.8834777,-6.648244,5.416532,-0.253437,1.803579,-5.2802596,-0.9006736,0
0.7100000000000004,13.878943936668117,2.585868781153155,-5.03392946485398,-1.0601893030954455,15.225338,2.9572473,-5.292211,-1.0428237,9.32586,-10.218438,1.9849881,-0.4083157,0.16890784,-0.14632839,-0.88506293,-6.677183,5.473623,-0.22840716,1.9255724,-5.2419257,-0.90850115,0
0.7200000000000004,13.488639740712433,2.398049886107903,-1.0618785336770709,-1.1882456504436034,14.5304575,2.6709425,-2.9817884,-1.0025862,9.25897,-10.163429,1.9828411,-0.41767964,0.14234765,-0.14358748,-0.88581234,-6.6996446,5.527493,-0.20060512,2.0285392,-5.2095594,-0.9159445,0
0.7300000000000004,13.488639740712433,2.398049886107903,-1.0618785336770709,-1.1882456504436034,14.5304575,2.6709425,-2.9817884,-1.0025862,9.191891,-10.107907,1.9809662,-0.4265756,0.117057785,-0.14181238,-0.885562,-6.715124,5.576682,-0.1740815,2.0865097,-4.5627832,-0.92930645,0
0.7400000000000004,13.488639740712433,2.398049886107903,-1.0618785336770709,-1.1882456504436034,14.5304575,2.6709425,-2.9817884,-1.0025862,9.124688,-10.051907,1.9793653,-0.43485945,0.094220705,-0.14144096,-0.8843157,-6.7245784,5.623041,-0.14587848,2.1353905,-4.016866,-0.94201267,0
0.7500000000000004,13.488639740712433,2.398049886107903,-1.0618785336770709,-1.1882456504436034,14.5304575,2.6709425,-2.9817884,-1.0025862,9.057419,-9.995455,1.9780525,-0.44262847,0.07346379,-0.14227702,-0.88229275,-6.7284155,5.666999,-0.11652422,2.1766064,-3.5560796,-0.95409536,0
0.7600000000000005,12.88213111786691,1.593523647176787,2.6979678304041195,-1.2800582551133515,13.5562105,1.5218694,2.1281486,-0.93884605,8.990139,-9.938574,1.9770373,-0.44995874,0.054467488,-0.1441482,-0.8796544,-6.726988,5.7089295,-0.08643761,2.211358,-3.167148,-0.9655852,1
0.7700000000000005,12.88213111786691,1.593523647176787,2.6979678304041195,-1.2800582551133515,13.5562105,1.5218694,2.1281486,-0.93884605,8.922898,-9.881281,1.9763284,-0.4566878,0.03823569,-0.14717779,-0.87653476,-6.720628,5.749406,-0.055322792,2.104354,-2.3412802,-0.9642731,1
0.7800000000000005,12.88213111786691,1.593523647176787,2.6979678304041195,-1.2800582551133515,13.5562105,1.5218694,2.1281486,-0.93884605,8.855742,-9.823588,1.9759312,-0.46270752,0.025546903,-0.15146951,-0.87310153,-6.710008,5.7888246,-0.024158636,2.0139544,-1.6442168,-0.9630254,1
0.7900000000000005,12.88213111786691,1.593523647176787,2.6979678304041195,-1.2800582551133515,13.5562105,1.5218694,2.1281486,-0.93884605,8.78871,-9.765505,1.9758446,-0.46813548,0.015844172,-0.15685159,-0.86948025,-6.695804,5.827816,0.006792415,1.9375837,-1.0558691,-0.9618389,1
0.8000000000000005,12.520289515324356,0.596457157901088,5.899054923638029,-1.197028978373401,12.1069975,0.59661263,4.0351944,-0.8139584,8.721836,-9.707031,1.9760656,-0.4730598,0.008655881,-0.16317159,-0.86574525,-6.6785746,5.8669257,0.03733934,1.8730648,-0.55928147,-0.96071064,0
0.8100000000000005,12.520289515324356,0.596457157901088,5.899054923638029,-1.197028978373401,12.1069975,0.59661263,4.0351944,-0.8139584,8.65514,-9.648178,1.9765425,-0.4773252,0.0050550173,-0.17069633,-0.86197346,-6.6603236,5.903715,0.057754353,1.676832,0.44578096,-0.97209895,0
0.8200000000000005,12.520289515324356,0.596457157901088,5.899054923638029,-1.197028978373401,12.1069975,0.59661263,4.0351944,-0.8139584,8.5886345,-9.588952,1.9772182,-0.48079497,0.0058934903,-0.17962681,-0.85821676,-6.6405616,5.941803,0.07727292,1.5088953,1.2963116,-0.9831363,0
0.8300000000000005,12.520289515324356,0.596457157901088,5.899054923638029,-1.197028978373401,12.1069975,0.59661263,4.0351944,-0.8139584,8.522331,-9.529335,1.9780848,-0.4835439,0.01047017,-0.18975163,-0.8544416,-6.620013,5.9820237,0.09594317,1.3670741,2.0141883,-0.9936321,0
0.8400000000000005,12.520289515324356,0.596457157901088,5.899054923638029,-1.197028978373401,11.494404,0.006544697,5.580818,-0.8243386,8.456235,-9.469302,1.9791332,-0.48561978,0.018191822,-0.20088145,-0.8505819,-6.5993066,6.0250235,0.1135893,1.2473058,2.6201005,-1.0036128,0
0.8500000000000005,12.520289515324356,0.596457157901088,5.899054923638029,-1.197028978373401,11.494404,0.006544697,5.580818,-0.8243386,8.390344,-9.408823,1.9803522,-0.48705325,0.02855723,-0.21284723,-0.84655786,-6.578963,6.07134,0.13001235,1.1461598,3.1315107,-1.0131037,0
0.8600000000000005,12.520289515324356,0.596457157901088,5.899054923638029,-1.197028978373401,11.494404,0.006544697,5.580818,-0.8243386,8.324653,-9.347861,1.9817283,-0.48786476,0.04114189,-0.22549847,-0.84228635,-6.559418,6.1214104,0.144984,1.0607395,3.5631578,-1.022129,0
0.8700000000000006,12.520289515324356,0.596457157901088,5.899054923638029,-1.197028978373401,11.494404,0.006544697,5.580818,-0.8243386,8.2591505,-9.28638,1.983246,-0.4880691,0.055585235,-0.2387014,-0.83768797,-6.5410337,6.175581,0.15824594,0.9885991,3.9274824,-1.0307114,0
0.8800000000000006,12.235287326932298,-0.3121583658188203,5.999835626107906,-1.0214568981339724,12.194965,-0.19954798,5.251948,-0.56064546,8.193826,-9.224334,1.9848864,-0.48767778,0.07158007,-0.25233752,-0.83269024,-6.524111,6.2341156,0.16951211,0.9276735,4.2349834,-1.0388727,1
0.8900000000000006,12.235287326932298,-0.3121583658188203,5.999835626107906,-1.0214568981339724,12.194965,-0.19954798,5.251948,-0.56064546,8.128661,-9.161689,1.9866143,-0.4866802,0.08878448,-0.26591793,-0.82737404,-6.5092993,6.295545,0.17570272,0.7519243,4.3937087,-1.0154059,1
0.9000000000000006,12.235287326932298,-0.3121583658188203,5.999835626107906,-1.0214568981339724,12.194965,-0.19954798,5.251948,-0.56064546,8.063635,-9.098408,1.988392,-0.4850685,0.10690956,-0.27905583,-0.8218316,-6.4964075,6.361394,0.17942165,0.60356534,4.527657,-0.9930907,1
0.9100000000000006,12.235287326932298,-0.3121583658188203,5.999835626107906,-1.0214568981339724,12.194965,-0.19954798,5.251948,-0.56064546,7.998726,-9.034446,1.9901935,-0.48285815,0.12578323,-0.2917908,-0.8160178,-6.485655,6.431598,0.18044257,0.47832912,4.6406975,-0.9718705,1
0.9200000000000006,11.827673629988965,-1.0825177686427363,4.312387434698697,-0.8978766144003122,12.165996,-0.80973303,5.1933103,-0.23318334,7.9339137,-8.969761,1.9919907,-0.48006567,0.1452578,-0.3041541,-0.80989367,-6.4772186,6.50607,0.17852965,0.3726126,4.7360935,-0.95169157,1
0.9300000000000006,11.827673629988965,-1.0825177686427363,4.312387434698697,-0.8978766144003122,12.165996,-0.80973303,5.1933103,-0.23318334,7.8691735,-8.904311,1.993752,-0.476646,0.16529186,-0.31596777,-0.8035247,-6.4712653,6.5845046,0.17322539,0.18816024,4.807515,-0.9164341,1
0.9400000000000006,11.827673629988965,-1.0825177686427363,4.312387434698697,-0.8978766144003122,12.165996,-0.80973303,5.1933103,-0.23318334,7.8044796,-8.8380575,1.9954436,-0.472559,0.18584089,-0.3270951,-0.7969695,-6.4679585,6.66691,0.16455008,0.03246882,4.867774,-0.8829068,1
0.9500000000000006,11.827673629988965,-1.0825177686427363,4.312387434698697,-0.8978766144003122,12.165996,-0.80973303,5.1933103,-0.23318334,7.7398047,-8.77096,1.9970307,-0.46782938,0.20678209,-0.33761275,-0.79018664,-6.467463,6.7530947,0.15230142,-0.09894525,4.918615,-0.8510246,1
0.9600000000000006,11.220379727698209,-1.6291665506591027,0.5477751848500705,-0.865635583752086,11.52031,-1.1345046,2.7270179,-0.3434496,7.6751204,-8.702983,1.9984767,-0.46248192,0.22800958,-0.34758383,-0.7831399,-6.46991,6.8428526,0.13627367,-0.20986634,4.9615107,-0.82070696,0
0.9700000000000006,11.220379727698209,-1.6291665506591027,0.5477751848500705,-0.865635583752086,11.52031,-1.1345046,2.7270179,-0.3434496,7.6103983,-8.634127,1.9997121,-0.45719042,0.24816622,-0.35593912,-0.77633643,-6.4749417,6.9286757,0.11026168,-0.43156683,4.27331,-0.8229116,0
0.9800000000000006,11.220379727698209,-1.6291665506591027,0.5477751848500705,-0.865635583752086,11.52031,-1.1345046,2.7270179,-0.3434496,7.5456123,-8.564401,2.0006707,-0.45256,0.2662156,-0.36188072,-0.77029955,-6.482626,7.016984,0.08094164,-0.618638,3.6924162,-0.8250081,0
0.9900000000000007,11.220379727698209,-1.6291665506591027,0.5477751848500705,-0.865635583752086,11.52031,-1.1345046,2.7270179,-0.3434496,7.4807367,-8.493781,2.0013213,-0.44850752,0.28250113,-0.36581314,-0.7649936,-6.492807,7.1072245,0.04873176,-0.77648854,3.202097,-0.8270017,0
1.0000000000000007,10.974399678209316,-1.7667480499261885,-3.9568125219290837,-0.8656582964612619,10.474192,-1.7755891,-2.5296123,-0.5793391,7.4157476,-8.422252,2.001637,-0.44495198,0.29730827,-0.36806926,-0.7603623,-6.5053554,7.198955,0.014008851,-0.9096825,2.7882297,-0.8288975,0
1.0100000000000007,10.974399678209316,-1.7667480499261885,-3.9568125219290837,-0.8656582964612619,10.474192,-1.7755891,-2.5296123,-0.5793391,7.350623,-8.349807,2.0015886,-0.44247153,0.30953872,-0.36809808,-0.7569074,-6.5198364,7.2899346,-0.024041135,-1.0416912,1.7386308,-0.83090854,0
1.0200000000000007,10.974399678209316,-1.7667480499261885,-3.9568125219290837,-0.8656582964612619,10.474192,-1.7755891,-2.5296123,-0.5793391,7.2853446,-8.27645,2.0011516,-0.44153175,0.31834397,-0.36546898,-0.7550758,-6.5361605,7.381264,-0.06352466,-1.1552427,0.85049224,-0.8326137,0
1.0300000000000007,10.974399678209316,-1.7667480499261885,-3.9568125219290837,-0.8656582964612619,10.474192,-1.7755891,-2.5296123,-0.5793391,7.2198944,-8.202182,2.0003166,-0.4418932,0.32427466,-0.36061227,-0.7546757,-6.5540442,7.4726276,-0.10351657,-1.2510127,0.10084881,-0.8342352,0
1.0400000000000007,10.974399678209316,-1.7667480499261885,-3.9568125219290837,-0.8656582964612619,10.578514,-1.7909104,-5.174975,-0.23103075,7.154259,-8.127,1.999082,-0.44333544,0.32778114,-0.3538755,-0.75550354,-6.57324,7.563611,-0.14333126,-1.3317854,-0.5318962,-0.8357771,0
1.0500000000000007,10.974399678209316,-1.7667480499261885,-3.9568125219290837,-0.8656582964612619,10.578514,-1.7909104,-5.174975,-0.23103075,7.0884256,-8.050911,1.9974526,-0.44566092,0.32923296,-0.34554046,-0.75735986,-6.59355,7.653862,-0.18239044,-1.3999091,-1.0659719,-0.8372434,0
1.0600000000000007,10.974399678209316,-1.7667480499261885,-3.9568125219290837,-0.8656582964612619,10.578514,-1.7909104,-5.174975,-0.23103075,7.0223846,-7.973925,1.9954383,-0.44869536,0.32893485,-0.3358381,-0.7600574,-6.614815,7.743069,-0.22021368,-1.4573647,-1.5167642,-0.8386377,0
1.0700000000000007,10.974399678209316,-1.7667480499261885,-3.9568125219290837,-0.8656582964612619,10.578514,-1.7909104,-5.174975,-0.23103075,6.956126,-7.8960533,1.9930538,-0.45228723,0.32713938,-0.3249594,-0.7634249,-6.636907,7.83095,-0.25640845,-1.5058222,-1.8972607,-0.8399637,0
1.0800000000000007,11.122799023207506,-1.5549015818947332,-5.999981695139119,-0.7402013069816351,10.0487,-1.968546,-5.7768044,-0.41213316,6.8896437,-7.8173113,1.9903169,-0.45630598,0.324057,-0.31306368,-0.767309,-6.65972,7.917241,-0.29066035,-1.5466907,-2.218423,-0.84122455,0
1.0900000000000007,11.122799023207506,-1.5549015818947332,-5.999981695139119,-0.7402013069816351,10.0487,-1.968546,-5.7768044,-0.41213316,6.822928,-7.737709,1.9872527,-0.46090505,0.31918997,-0.29997882,-0.7718142,-6.6834655,8.002818,-0.32180008,-1.5482852,-2.8081594,-0.8362673,0
1.1000000000000008,11.122799023207506,-1.5549015818947332,-5.999981695139119,-0.7402013069816351,10.0487,-1.968546,-5.7768044,-0.41213316,6.755973,-7.6572623,1.9838899,-0.46617094,0.312138,-0.2855639,-0.7769864,-6.707637,8.086143,-0.3503051,-1.549578,-3.3059266,-0.8315532,0
1.1100000000000008,11.122799023207506,-1.5549015818947332,-5.999981695139119,-0.7402013069816351,10.0487,-1.968546,-5.7768044,-0.41213316,6.688775,-7.5759954,1.9802569,-0.4719084,0.30319422,-0.26998466,-0.7826137,-6.7320275,8.166815,-0.37582862,-1.5506247,-3.726067,-0.82707053,0
1.1200000000000008,11.378664010650445,-1.0949497135867994,-5.999996655844521,-0.5042119208967979,11.004288,-1.242363,-6.1865883,-0.16511758,6.621333,-7.4939365,1.9763845,-0.47794968,0.29260626,-0.25338247,-0.7885069,-6.7564607,8.244448,-0.39812556,-1.5514715,-4.0806866,-0.82280785,1
1.1300000000000008,11.378664010650445,-1.0949497135867994,-5.999996655844521,-0.5042119208967979,11.004288,-1.242363,-6.1865883,-0.16511758,6.553648,-7.4111223,1.972302,-0.48413223,0.28050733,-0.23599902,-0.7945038,-6.7805166,8.317877,-0.41788623,-1.5033348,-4.3800597,-0.79053473,1
1.1400000000000008,11.378664010650445,-1.0949497135867994,-5.999996655844521,-0.5042119208967979,11.004288,-1.242363,-6.1865883,-0.16511758,6.4857235,-7.3275924,1.9680387,-0.4903106,0.26701576,-0.21803933,-0.8004731,-6.8042855,8.387584,-0.43423495,-1.4626739,-4.632739,-0.7598453,1
1.1500000000000008,11.378664010650445,-1.0949497135867994,-5.999996655844521,-0.5042119208967979,11.004288,-1.242363,-6.1865883,-0.16511758,6.417564,-7.243385,1.963629,-0.496377,0.2523086,-0.19956818,-0.8063021,-6.8276057,8.45324,-0.4471742,-1.42833,-4.846007,-0.7306618,1
1.1600000000000008,11.778592561005178,-0.5087059470282448,-5.999992868329202,-0.26662963049238003,12.016658,-0.67404723,-6.025257,0.081621535,6.349174,-7.158542,1.9591068,-0.50224173,0.23653977,-0.18064381,-0.811893,-6.850335,8.514533,-0.4567676,-1.3993233,-5.0260105,-0.70291036,1
1.1700000000000008,11.778592561005178,-0.5087059470282448,-5.999992868329202,-0.26662963049238003,12.016658,-0.67404723,-6.025257,0.081621535,6.28055,-7.073084,1.9545468,-0.50785875,0.21972392,-0.16151147,-0.8171384,-6.8743596,8.576379,-0.45469415,-1.2861568,-5.1779876,-0.6644132,1
1.1800000000000008,11.778592561005178,-0.5087059470282448,-5.999992868329202,-0.26662963049238003,12.016658,-0.67404723,-6.025257,0.081621535,6.2116904,-6.987034,1.9500245,-0.5131835,0.2018838,-0.14237419,-0.82195824,-6.897393,8.632867,-0.4492798,-1.1906277,-5.30625,-0.62780505,1
1.1900000000000008,11.778592561005178,-0.5087059470282448,-5.999992868329202,-0.26662963049238003,12.016658,-0.67404723,-6.025257,0.081621535,6.142606,-6.9004464,1.945572,-0.5181503,0.18315691,-0.12322491,-0.82631075,-6.9192424,8.683754,-0.44075102,-1.1099888,-5.414498,-0.59299326,1
1.2000000000000008,11.787325978198943,0.12047668718621259,-4.620279347766867,-0.11329699947978587,12.545627,-0.40587398,-5.222302,0.26124433,6.0733094,-6.813379,1.9412193,-0.52270657,0.16366428,-0.10406019,-0.83015865,-6.939739,8.728816,-0.42937085,-1.0419205,-5.5058556,-0.55988973,1
1.2100000000000009,11.787325978198943,0.12047668718621259,-4.620279347766867,-0.11329699947978587,12.545627,-0.40587398,-5.222302,0.26124433,6.0038114,-6.725882,1.9370179,-0.52678114,0.14371394,-0.0851363,-0.83342654,-6.959575,8.769581,-0.41050854,-0.94257,-5.4616966,-0.51959646,1
1.2200000000000009,11.787325978198943,0.12047668718621259,-4.620279347766867,-0.11329699947978587,12.545627,-0.40587398,-5.222302,0.26124433,5.934123,-6.6380095,1.933017,-0.53033227,0.123564035,-0.06666239,-0.8360836,-6.9777274,8.803992,-0.38935304,-0.85872424,-5.4244127,-0.4812804,1
1.2300000000000009,11.787325978198943,0.12047668718621259,-4.620279347766867,-0.11329699947978587,12.545627,-0.40587398,-5.222302,0.26124433,5.864262,-6.5498247,1.9292374,-0.5333605,0.10324661,-0.048574198,-0.8381571,-6.994096,8.832023,-0.3662839,-0.7879646,-5.3929343,-0.44484448,1
1.2400000000000009,11.787325978198943,0.12047668718621259,-4.620279347766867,-0.11329699947978587,12.463216,0.13328943,-5.4365125,0.47381842,5.794247,-6.4613914,1.9256966,-0.5358677,0.0827911,-0.030817972,-0.8396677,-7.0085964,8.853652,-0.34167483,-0.72824883,-5.366358,-0.4101965,1
1.2500000000000009,11.787325978198943,0.12047668718621259,-4.620279347766867,-0.11329699947978587,12.463216,0.13328943,-5.4365125,0.47381842,5.7240973,-6.372774,1.922404,-0.5378529,0.062036164,-0.01348633,-0.84064496,-7.0210633,8.8687725,-0.31670758,-0.5937433,-5.377351,-0.36681765,1
1.260000000000001,11.787325978198943,0.12047668718621259,-4.620279347766867,-0.11329699947978587,12.463216,0.13328943,-5.4365125,0.47381842,5.653833,-6.2840376,1.9193654,-0.5393043,0.04085758,0.0033492302,-0.84111255,-7.03145,8.877532,-0.2909326,-0.48022053,-5.386617,-0.3255674,1
1.270000000000001,11.787325978198943,0.12047668718621259,-4.620279347766867,-0.11329699947978587,12.463216,0.13328943,-5.4365125,0.47381842,5.583476,-6.1952457,1.916587,-0.54021233,0.019332273,0.019757908,-0.8410747,-7.0396113,8.879947,-0.2647057,-0.3844078,-5.3944283,-0.28634128,1
1.280000000000001,11.32039000244841,0.6500619014598811,-0.9783664151923386,-0.07166165459053703,13.264603,0.9896603,-2.3639102,0.55099404,5.513049,-6.1064615,1.9140717,-0.54057145,-0.0024716957,0.035797138,-0.8405326,-7.0454297,8.876044,-0.23838486,-0.30354294,-5.401014,-0.24904002,0
1.290000000000001,11.32039000244841,0.6500619014598811,-0.9783664151923386,-0.07166165459053703,13.264603,0.9896603,-2.3639102,0.55099404,5.4425774,-6.017743,1.9117615,-0.5405241,-0.023109863,0.05037682,-0.8395009,-7.0485244,8.866884,-0.22370638,-0.15468992,-4.7113295,-0.24033602,0
1.300000000000001,11.32039000244841,0.6500619014598811,-0.9783664151923386,-0.07166165459053703,13.264603,0.9896603,-2.3639102,0.55099404,5.372085,-5.9291415,1.909596,-0.5402807,-0.04144032,0.06264017,-0.8381263,-7.049545,8.852721,-0.2095056,-0.029075801,-4.1291957,-0.23205912,0
1.310000000000001,11.32039000244841,0.6500619014598811,-0.9783664151923386,-0.07166165459053703,13.264603,0.9896603,-2.3639102,0.55099404,5.301593,-5.840703,1.9075694,-0.53991365,-0.05781862,0.07294753,-0.83655775,-7.0486465,8.834247,-0.19592978,0.07692843,-3.6378412,-0.22418837,0
1.320000000000001,10.977420450508127,0.9628230470137029,3.914724535599071,-0.14606096073150376,12.281255,1.3061765,2.482937,0.40268725,5.2311187,-5.752469,1.905675,-0.53947,-0.07254748,0.08160471,-0.83489496,-7.0459623,8.812049,-0.18306151,0.16638479,-3.2231097,-0.21670383,0
1.330000000000001,10.977420450508127,0.9628230470137029,3.914724535599071,-0.14606096073150376,12.281255,1.3061765,2.482937,0.40268725,5.160679,-5.664471,1.9039,-0.53915536,-0.084337726,0.08779243,-0.8333614,-7.0417166,8.787129,-0.1727241,0.27494916,-2.125781,-0.21468739,0
1.340000000000001,10.977420450508127,0.9628230470137029,3.914724535599071,-0.14606096073150376,12.281255,1.3061765,2.482937,0.40268725,5.0902877,-5.576732,1.9022144,-0.53916174,-0.092161454,0.090750955,-0.832211,-7.0362563,8.760466,-0.16447867,0.382357,-1.1837819,-0.21131986,0
1.350000000000001,10.977420450508127,0.9628230470137029,3.914724535599071,-0.14606096073150376,12.281255,1.3061765,2.482937,0.40268725,5.0199566,-5.489266,1.9006094,-0.5394777,-0.09663984,0.09095961,-0.8314752,-7.0298505,8.732703,-0.15656728,0.47299072,-0.3886841,-0.20811759,0
1.360000000000001,11.067488275942157,0.961030193005886,5.999995615838257,-0.245467859989159,12.08487,0.8878396,5.6040263,0.499649,4.949693,-5.402079,1.8990828,-0.5400656,-0.098299325,0.08884892,-0.8311272,-7.022765,8.704668,-0.14877033,0.5494702,0.28242075,-0.20507246,0
1.370000000000001,11.067488275942157,0.961030193005886,5.999995615838257,-0.245467859989159,12.08487,0.8878396,5.6040263,0.499649,4.879503,-5.315172,1.8976387,-0.54095644,-0.09688749,0.08432731,-0.83118474,-7.015177,8.676869,-0.14001302,0.6137731,1.1740639,-0.20705466,0
1.380000000000001,11.067488275942157,0.961030193005886,5.999995615838257,-0.245467859989159,12.08487,0.8878396,5.6040263,0.499649,4.8093896,-5.228537,1.8962836,-0.5421469,-0.09222284,0.077336386,-0.83161944,-7.0074396,8.6503725,-0.13093673,0.6680314,1.9266572,-0.20893963,0
1.390000000000001,11.067488275942157,0.961030193005886,5.999995615838257,-0.245467859989159,12.08487,0.8878396,5.6040263,0.499649,4.7393537,-5.142158,1.8950217,-0.5435325,-0.08480559,0.06825227,-0.83229935,-6.9998326,8.625965,-0.12135739,0.71381366,2.5618849,-0.21073209,0
1.400000000000001,11.176567137404257,0.7462113943282092,5.9999974832817236,-0.23499686400983072,12.230693,1.129317,5.8154683,0.46555948,4.669392,-5.056009,1.8938586,-0.54501045,-0.07505654,0.05739209,-0.83308846,-6.992591,8.6043215,-0.1111651,0.7524438,3.09805,-0.21243659,0
1.410000000000001,11.176567137404257,0.7462113943282092,5.9999974832817236,-0.23499686400983072,12.230693,1.129317,5.8154683,0.46555948,4.5995,-4.970061,1.8928059,-0.54649013,-0.06328429,0.045096535,-0.83385247,-6.9858522,8.585838,-0.09924957,0.7515369,3.5506067,-0.21354361,0
1.420000000000001,11.176567137404257,0.7462113943282092,5.9999974832817236,-0.23499686400983072,12.230693,1.129317,5.8154683,0.46555948,4.529672,-4.8842793,1.8918757,-0.54788864,-0.049753584,0.03165193,-0.83447033,-6.979883,8.571222,-0.086710945,0.7507622,3.9325874,-0.21459635,0
1.430000000000001,11.176567137404257,0.7462113943282092,5.9999974832817236,-0.23499686400983072,12.230693,1.129317,5.8154683,0.46555948,4.4598994,-4.7986226,1.8910736,-0.5491278,-0.034735188,0.017234972,-0.83483833,-6.9748573,8.560892,-0.07364478,0.7501004,4.2549987,-0.21559742,0
1.440000000000001,11.176567137404257,0.7462113943282092,5.9999974832817236,-0.23499686400983072,12.009553,0.83348995,6.10266,0.40401745,4.3901715,-4.713046,1.8904041,-0.5501406,-0.018461136,0.0019982401,-0.83486557,-6.9709196,8.555203,-0.06020207,0.749535,4.52713,-0.21654938,1
1.450000000000001,11.176567137404257,0.7462113943282092,5.9999974832817236,-0.23499686400983072,12.009553,0.83348995,6.10266,0.40401745,4.3204784,-4.6275024,1.8899118,-0.5508041,-0.001150447,-0.013953817,-0.8345171,-6.9679856,8.5543995,-0.038255375,0.762566,4.756837,-0.186098,1
1.460000000000001,11.176567137404257,0.7462113943282092,5.9999974832817236,-0.23499686400983072,12.009553,0.83348995,6.10266,0.40401745,4.250808,-4.5419393,1.8896387,-0.5510095,0.017007396,-0.030529357,-0.83376694,-6.9664445,8.559173,-0.016375922,0.7735568,4.950721,-0.15714085,1
1.470000000000001,11.176567137404257,0.7462113943282092,5.9999974832817236,-0.23499686400983072,12.009553,0.83348995,6.10266,0.40401745,4.1811447,-4.4562993,1.8895829,-0.5507252,0.03586581,-0.04762148,-0.8325548,-6.9663706,8.569738,0.005141751,0.78282845,5.1143684,-0.12960464,1
1.480000000000001,11.2797007217122,0.36420813540636504,5.999996492678078,-0.17145307485533742,12.692808,0.7113289,5.7618656,0.5111644,4.111475,-4.3705244,1.8897392,-0.54992664,0.055296905,-0.06513643,-0.830831,-6.9678245,8.586261,0.025973495,0.79065126,5.252495,-0.10341965,0
1.490000000000001,11.2797007217122,0.36420813540636504,5.999996492678078,-0.17145307485533742,12.692808,0.7113289,5.7618656,0.5111644,4.041784,-4.28456,1.890063,-0.54864293,0.0752968,-0.082831584,-0.828529,-6.970677,8.607477,0.038607594,0.7241673,5.36907,-0.10675806,0
1.500000000000001,11.2797007217122,0.36420813540636504,5.999996492678078,-0.17145307485533742,12.692808,0.7113289,5.7618656,0.5111644,3.9720562,-4.198355,1.890507,-0.54690313,0.09585473,-0.100505464,-0.8255953,-6.975104,8.634434,0.049933266,0.66804993,5.467465,-0.10993266,0
1.5100000000000011,11.2797007217122,0.36420813540636504,5.999996492678078,-0.17145307485533742,12.692808,0.7113289,5.7618656,0.5111644,3.9022763,-4.111852,1.891056,-0.54469144,0.11685627,-0.11813598,-0.8220096,-6.98119,8.667127,0.059602384,0.62068284,5.550515,-0.11295148,0
1.5200000000000011,11.163880153240584,-0.15326406447012425,5.388613687995119,-0.15913928393183835,12.376664,-0.25755146,3.8086436,0.61042166,3.8324268,-4.024994,1.8916919,-0.54199684,0.13820104,-0.13570158,-0.8177561,-6.988997,8.7055235,0.06726054,0.5807016,5.6206136,-0.115822166,0
1.5300000000000011,11.163880153240584,-0.15326406447012425,5.388613687995119,-0.15913928393183835,12.376664,-0.25755146,3.8086436,0.61042166,3.7624907,-3.9377253,1.8923877,-0.5388182,0.15971358,-0.15288079,-0.81289244,-6.998472,8.749089,0.07149475,0.46624526,5.584441,-0.11794775,0
1.5400000000000011,11.163880153240584,-0.15326406447012425,5.388613687995119,-0.15913928393183835,12.376664,-0.25755146,3.8086436,0.61042166,3.692451,-3.849994,1.8931128,-0.5351662,0.18125069,-0.16942061,-0.80749124,-7.0097537,8.798035,0.073080696,0.3696381,5.5539093,-0.11996905,0
1.5500000000000012,11.163880153240584,-0.15326406447012425,5.388613687995119,-0.15913928393183835,12.376664,-0.25755146,3.8086436,0.61042166,3.6222892,-3.761747,1.8938392,-0.5310508,0.20277345,-0.18539335,-0.8015593,-7.0228887,8.852138,0.071730554,0.28809667,5.5281377,-0.12189115,0
1.5600000000000012,10.80514485051334,-0.7334107151569251,1.3915551132931954,-0.13206915586208606,11.839822,-0.59419054,0.810043,0.46371806,3.5519867,-3.672934,1.8945364,-0.526482,0.22424673,-0.20085847,-0.79510134,-7.0379057,8.911178,0.0671674,0.21927151,5.506384,-0.12371893,0
1.5700000000000012,10.80514485051334,-0.7334107151569251,1.3915551132931954,-0.13206915586208606,11.839822,-0.59419054,0.810043,0.46371806,3.4815273,-3.5835173,1.8951563,-0.5217573,0.2444983,-0.21484755,-0.7885623,-7.0542555,8.972818,0.056277994,0.070650935,4.8646903,-0.124128684,0
1.5800000000000012,10.80514485051334,-0.7334107151569251,1.3915551132931954,-0.13206915586208606,11.839822,-0.59419054,0.810043,0.46371806,3.4108958,-3.4934645,1.8956507,-0.5171891,0.26263374,-0.22662884,-0.7824183,-7.0723186,9.038355,0.04215312,-0.054784738,4.323067,-0.12451832,0
1.5900000000000012,10.80514485051334,-0.7334107151569251,1.3915551132931954,-0.13206915586208606,11.839822,-0.59419054,0.810043,0.46371806,3.3400755,-3.402739,1.8959888,-0.5127913,0.27899516,-0.23656291,-0.77668834,-7.091979,9.107173,0.024992645,-0.16065232,3.8659081,-0.12488884,0
1.6000000000000012,10.578700492046597,-1.2371719375250643,-3.7727734136549196,-0.08967039280108453,11.947149,-0.7202486,-3.9608717,0.33827728,3.269051,-3.3113115,1.8961408,-0.50856274,0.29386827,-0.24495064,-0.77136534,-7.1131425,9.178767,0.0049968567,-0.25000432,3.4800415,-0.12524118,0
1.6100000000000012,10.578700492046597,-1.2371719375250643,-3.7727734136549196,-0.08967039280108453,11.947149,-0.7202486,-3.9608717,0.33827728,3.1978064,-3.21915,1.8960855,-0.50496256,0.30603725,-0.25097543,-0.7670498,-7.135893,9.253279,-0.016933274,-0.37161437,2.3814049,-0.12643409,0
1.6200000000000012,10.578700492046597,-1.2371719375250643,-3.7727734136549196,-0.08967039280108453,11.947149,-0.7202486,-3.9608717,0.33827728,3.1263318,-3.1262484,1.8957877,-0.5023734,0.3145383,-0.25385478,-0.7643588,-7.1591654,9.327216,-0.042919934,-0.50583524,1.4225177,-0.12470898,0
1.6300000000000012,10.578700492046597,-1.2371719375250643,-3.7727734136549196,-0.08967039280108453,11.947149,-0.7202486,-3.9608717,0.33827728,3.0546196,-3.032603,1.895223,-0.50067085,0.31995487,-0.2540278,-0.7631693,-7.1833873,9.401905,-0.07012821,-0.6199533,0.61232334,-0.12298963,0
1.6400000000000012,10.578700492046597,-1.2371719375250643,-3.7727734136549196,-0.08967039280108453,12.258429,-1.1901716,-5.64414,0.45149213,2.9826608,-2.9382095,1.8943833,-0.4997292,0.32278055,-0.2519311,-0.7632916,-7.208426,9.476816,-0.09785532,-0.7162628,-0.071523264,-0.12135465,0
1.6500000000000012,10.578700492046597,-1.2371719375250643,-3.7727734136549196,-0.08967039280108453,12.258429,-1.1901716,-5.64414,0.45149213,2.9104483,-2.8430676,1.893266,-0.49942338,0.3234196,-0.24792287,-0.7645326,-7.234159,9.55146,-0.12554932,-0.7975432,-0.6487254,-0.11979988,0
1.6600000000000013,10.578700492046597,-1.2371719375250643,-3.7727734136549196,-0.08967039280108453,12.258429,-1.1901716,-5.64414,0.45149213,2.8379753,-2.7471826,1.891874,-0.49963534,0.32220462,-0.24229832,-0.76670736,-7.260484,9.625422,-0.15274575,-0.86613995,-1.1359144,-0.11832142,0
1.6700000000000013,10.578700492046597,-1.2371719375250643,-3.7727734136549196,-0.08967039280108453,12.258429,-1.1901716,-5.64414,0.45149213,2.7652364,-2.6505628,1.8902141,-0.50025743,0.31941074,-0.23530196,-0.76964426,-7.2873135,9.698343,-0.1790609,-0.92403257,-1.5471277,-0.11691552,0
1.6800000000000013,10.773988162246347,-1.5912275476826467,-5.999994893675216,-0.03959501733755431,11.843707,-1.9604375,-5.6663036,0.40618378,2.6922271,-2.5532203,1.8882967,-0.5011936,0.3152667,-0.22713745,-0.77318853,-7.3145685,9.769912,-0.20418394,-0.9728913,-1.8942132,-0.1155786,0
1.6900000000000013,10.773988162246347,-1.5912275476826467,-5.999994893675216,-0.03959501733755431,11.843707,-1.9604375,-5.6663036,0.40618378,2.618941,-2.4551637,1.8861421,-0.50250673,0.3093409,-0.21741888,-0.77751154,-7.3426824,9.841105,-0.22646472,-1.0693626,-2.534503,-0.11185006,0
1.7000000000000013,10.773988162246347,-1.5912275476826467,-5.999994893675216,-0.03959501733755431,11.843707,-1.9604375,-5.6663036,0.40618378,2.5453725,-2.3564055,1.8837739,-0.50421387,0.30128577,-0.2058399,-0.7827037,-7.371038,9.910136,-0.24686286,-1.1507795,-3.0749414,-0.10830449,0
1.7100000000000013,10.773988162246347,-1.5912275476826467,-5.999994893675216,-0.03959501733755431,11.843707,-1.9604375,-5.6663036,0.40618378,2.47152,-2.2569697,1.8812126,-0.50617087,0.29138935,-0.19266441,-0.7885198,-7.3995147,9.9765215,-0.2650323,-1.2194916,-3.5310996,-0.1049329,0
1.7200000000000013,11.2159817703574,-1.852296727923343,-5.99999780476697,0.06735215135221075,12.224725,-1.9464617,-5.9168878,0.50438255,2.3973823,-2.1568854,1.8784817,-0.508251,0.27989402,-0.1781156,-0.794742,-7.4279933,10.039811,-0.28073105,-1.2774819,-3.916121,-0.101726755,0
1.7300000000000013,11.2159817703574,-1.852296727923343,-5.99999780476697,0.06735215135221075,12.224725,-1.9464617,-5.9168878,0.50438255,2.3229547,-2.056173,1.8756244,-0.51030505,0.26705655,-0.16230427,-0.80120325,-7.4575257,10.102037,-0.2903222,-1.3671227,-4.241102,-0.09343,0
1.7400000000000013,11.2159817703574,-1.852296727923343,-5.99999780476697,0.06735215135221075,12.224725,-1.9464617,-5.9168878,0.50438255,2.2482328,-1.9548587,1.8726851,-0.5122065,0.2530932,-0.14533047,-0.8077544,-7.486854,10.160186,-0.29711813,-1.442779,-4.515404,-0.08554037,0
1.7500000000000013,11.2159817703574,-1.852296727923343,-5.99999780476697,0.06735215135221075,12.224725,-1.9464617,-5.9168878,0.50438255,2.1732187,-1.8529848,1.8696917,-0.5138851,0.2381417,-0.12735787,-0.8142422,-7.5158925,10.213864,-0.30112836,-1.5066328,-4.7469296,-0.07803789,0
1.7600000000000013,11.776627173947613,-1.8699910290343371,-5.999997739520148,0.3305770378513866,12.299387,-1.451213,-6.0825,0.40254742,2.0979161,-1.750598,1.8666719,-0.5152815,0.22232215,-0.10852898,-0.82053584,-7.5445514,10.2627125,-0.3024308,-1.5605259,-4.942349,-0.07090355,1
1.7700000000000014,11.776627173947613,-1.8699910290343371,-5.999997739520148,0.3305770378513866,12.299387,-1.451213,-6.0825,0.40254742,2.0223155,-1.6477267,1.8636998,-0.5163475,0.20565319,-0.08910987,-0.8265296,-7.5754495,10.310629,-0.2915643,-1.5434091,-5.107313,-0.047671176,1
1.7800000000000014,11.776627173947613,-1.8699910290343371,-5.999997739520148,0.3305770378513866,12.299387,-1.451213,-6.0825,0.40254742,1.9464095,-1.5444056,1.8608495,-0.51703703,0.18816033,-0.069324136,-0.8321433,-7.6056585,10.352592,-0.2780827,-1.52896,-5.2465496,-0.02557882,1
1.7900000000000014,11.776627173947613,-1.8699910290343371,-5.999997739520148,0.3305770378513866,12.299387,-1.451213,-6.0825,0.40254742,1.8702054,-1.4406959,1.8581463,-0.5173083,0.16995254,-0.049231272,-0.8373078,-7.6350102,10.388348,-0.26223582,-1.5167639,-5.3640704,-0.0045705303,1
1.8000000000000014,12.20300474414129,-1.6729404972031392,-5.9999909253740995,0.6318906752293847,13.214016,-1.1831789,-6.131043,0.6195,1.7937127,-1.3366606,1.8556122,-0.51712865,0.15112633,-0.028885052,-0.8419645,-7.663344,10.417668,-0.24431337,-1.5064704,-5.463263,0.01540686,0
1.8100000000000014,12.20300474414129,-1.6729404972031392,-5.9999909253740995,0.6318906752293847,13.214016,-1.1831789,-6.131043,0.6195,1.7169435,-1.2323661,1.8532616,-0.51643556,0.13181263,-0.008263735,-0.84607995,-7.690299,10.440183,-0.22556286,-1.5323211,-5.546996,0.045657914,0
1.8200000000000014,12.20300474414129,-1.6729404972031392,-5.9999909253740995,0.6318906752293847,13.214016,-1.1831789,-6.131043,0.6195,1.639911,-1.1278801,1.8511057,-0.515178,0.1121243,0.012644349,-0.8496233,-7.715983,10.455947,-0.20542891,-1.5541432,-5.6176705,0.07442453,0
1.8300000000000014,12.20300474414129,-1.6729404972031392,-5.9999909253740995,0.6318906752293847,13.214016,-1.1831789,-6.131043,0.6195,1.5626286,-1.0232708,1.8491564,-0.51334864,0.092118144,0.03377861,-0.85255283,-7.74029,10.46482,-0.18429068,-1.5725653,-5.677322,0.101779565,0
1.8400000000000014,12.20300474414129,-1.6729404972031392,-5.9999909253740995,0.6318906752293847,12.610128,-1.3332696,-6.0152416,0.9171665,1.4851104,-0.9186078,1.8474219,-0.5109432,0.07184625,0.05508428,-0.85483384,-7.7631197,10.466696,-0.16254675,-1.5881184,-5.7276697,0.12779227,1
1.8500000000000014,12.20300474414129,-1.6729404972031392,-5.9999909253740995,0.6318906752293847,12.610128,-1.3332696,-6.0152416,0.9171665,1.4073681,-0.8139619,1.845926,-0.5079392,0.051289346,0.07639297,-0.8564644,-7.7850733,10.461336,-0.13660476,-1.5482259,-5.770175,0.16652709,1
1.8600000000000014,12.20300474414129,-1.6729404972031392,-5.9999909253740995,0.6318906752293847,12.610128,-1.3332696,-6.0152416,0.9171665,1.329415,-0.70940614,1.8446888,-0.5043147,0.030440459,0.097565904,-0.85745025,-7.8052473,10.448667,-0.110892065,-1.5145603,-5.806049,0.20336117,1
1.8700000000000014,12.20300474414129,-1.6729404972031392,-5.9999909253740995,0.6318906752293847,12.610128,-1.3332696,-6.0152416,0.9171665,1.2512696,-0.60501355,1.8437058,-0.50007075,0.009362111,0.118595876,-0.85777426,-7.823496,10.428717,-0.08584167,-1.486151,-5.8363256,0.2383878,1
1.8800000000000014,12.290869658228518,-1.3335851053425813,-3.9060252471753505,0.891059725156021,13.768283,-0.51616824,-4.7524533,1.2556337,1.1729519,-0.5008566,1.8429682,-0.495211,-0.011889278,0.1394741,-0.8574216,-7.8396873,10.401546,-0.061890207,-1.4621782,-5.8618784,0.27169564,0
1.8900000000000015,12.290869658228518,-1.3335851053425813,-3.9060252471753505,0.891059725156021,13.768283,-0.51616824,-4.7524533,1.2556337,1.094485,-0.39700282,1.8424474,-0.48987505,-0.032544993,0.15977949,-0.8564075,-7.85337,10.368149,-0.042517334,-1.442068,-5.556889,0.30208802,0
1.9000000000000015,12.290869658228518,-1.3335851053425813,-3.9060252471753505,0.891059725156021,13.768283,-0.51616824,-4.7524533,1.2556337,1.0158916,-0.2935161,1.8421115,-0.48422694,-0.05199436,0.17919111,-0.8548167,-7.865008,10.328204,-0.02498093,-1.4251006,-5.2994614,0.33098906,0
1.9100000000000015,12.290869658228518,-1.3335851053425813,-3.9060252471753505,0.891059725156021,13.768283,-0.51616824,-4.7524533,1.2556337,0.93719155,-0.19045983,1.8419404,-0.47829932,-0.070405,0.19783439,-0.8527219,-7.874693,10.282119,-0.009566581,-1.4107845,-5.0821776,0.3584719,0
1.9200000000000015,12.068552688762916,-0.9521733631381842,0.436687578978695,1.052977005166339,13.036093,-0.05110928,-1.6988902,1.4201413,0.8584041,-0.08789355,1.8419119,-0.47211528,-0.0879193,0.21581452,-0.8501774,-7.8825045,10.230262,0.0034782605,-1.3987043,-4.8987784,0.38460615,0
1.9300000000000015,12.068552688762916,-0.9521733631381842,0.436687578978695,1.052977005166339,13.036093,-0.05110928,-1.6988902,1.4201413,0.7795481,0.014131898,1.8419914,-0.4660577,-0.103252165,0.23228258,-0.84745157,-7.888445,10.174066,0.012030836,-1.3294232,-4.0669613,0.41738138,0
1.9400000000000015,12.068552688762916,-0.9521733631381842,0.436687578978695,1.052977005166339,13.036093,-0.05110928,-1.6988902,1.4201413,0.7006399,0.115572326,1.8421443,-0.4605006,-0.11540552,0.24660356,-0.84487134,-7.893,10.113383,0.018142207,-1.2707127,-3.3646297,0.44857025,0
1.9500000000000015,12.068552688762916,-0.9521733631381842,0.436687578978695,1.052977005166339,13.036093,-0.05110928,-1.6988902,1.4201413,0.62169147,0.21638675,1.8423468,-0.45542604,-0.12487808,0.25914404,-0.8425183,-7.8965564,10.048977,0.022037098,-1.2211555,-2.7718253,0.47822863,0
1.9600000000000015,12.08499731635774,-0.47510144969798734,4.685288966985275,1.0842816046213188,12.273411,0.2647801,2.3473034,1.1256859,0.542711,0.31654122,1.842578,-0.45079842,-0.13208994,0.27020675,-0.84042937,-7.899445,9.981477,0.023934431,-1.1793214,-2.2714684,0.5064317,0
1.9700000000000015,12.08499731635774,-0.47510144969798734,4.685288966985275,1.0842816046213188,12.273411,0.2647801,2.3473034,1.1256859,0.46370322,0.41599262,1.8428406,-0.44700512,-0.13610761,0.27929145,-0.83884305,-7.902086,9.908854,0.027748212,-1.1142465,-1.2309872,0.5307776,0
1.9800000000000015,12.08499731635774,-0.47510144969798734,4.685288966985275,1.0842816046213188,12.273411,0.2647801,2.3473034,1.1256859,0.38466895,0.5147204,1.8431176,-0.4443781,-0.13615371,0.28583756,-0.83802587,-7.9048395,9.836699,0.027218157,-1.0201595,-0.313609,0.5574482,0
1.9900000000000015,12.08499731635774,-0.47510144969798734,4.685288966985275,1.0842816046213188,12.273411,0.2647801,2.3473034,1.1256859,0.30560392,0.612724,1.8433819,-0.44277215,-0.13280353,0.29012245,-0.83794105,-7.908313,9.763956,0.025560543,-0.9354479,0.46598122,0.58330005,0
2.0000000000000013,,,,,12.115502,0.61595786,4.562317,0.87934256,0.22649857,0.70999867,1.8436282,-0.4420316,-0.12657942,0.29249838,-0.8384692,-7.9129767,9.691005,0.023693867,-0.86392444,1.1239933,0.6078834,0
2.010000000000001,,,,,12.115502,0.61595786,4.562317,0.87934256,0.1473386,0.8065416,1.8438615,-0.4421445,-0.11756193,0.2928701,-0.839592,-7.919299,9.617701,0.023035321,-0.7322983,1.8844455,0.62783086,0
2.020000000000001,,,,,12.115502,0.61595786,4.562317,0.87934256,0.06810566,0.9023563,1.844091,-0.44307834,-0.10583372,0.29116496,-0.8412514,-7.9276314,9.545464,0.023019716,-0.62116754,2.5263011,0.64679956,0
2.0300000000000007,,,,,12.115502,0.61595786,4.562317,0.87934256,-0.011222184,0.99745667,1.8443253,-0.44465977,-0.0918026,0.28767893,-0.843262,-7.938334,9.474925,0.02400312,-0.52733827,3.0680552,0.6648375,0
2.0400000000000005,,,,,12.115502,0.61595786,4.562317,0.87934256,-0.090670235,1.0918626,1.8445755,-0.4467315,-0.07581384,0.28265616,-0.84545183,-7.951716,9.406645,0.026233155,-0.44811472,3.5253189,0.68199027,0
2.0500000000000003,,,,,12.63493,0.8705413,5.219158,0.89030486,-0.17026663,1.1855991,1.8448547,-0.44915324,-0.05816158,0.27629974,-0.8476657,-7.9680386,9.341126,0.029858252,-0.38122162,3.911269,0.6983013,1
2.06,,,,,12.63493,0.8705413,5.219158,0.89030486,-0.2500451,1.2786852,1.8451954,-0.45171255,-0.03952739,0.2686193,-0.84984547,-7.988171,9.276655,0.03853051,-0.18612786,4.115321,0.707723,1
2.07,,,,,12.63493,0.8705413,5.219158,0.89030486,-0.3300412,1.371145,1.8456304,-0.4542519,-0.020471472,0.25963703,-0.8519536,-8.011557,9.215912,0.04871359,-0.021445103,4.28754,0.7166824,1
2.0799999999999996,,,,,12.63493,0.8705413,5.219158,0.89030486,-0.4102872,1.4630175,1.8461747,-0.45672947,-0.0010639098,0.2495281,-0.85389286,-8.038147,9.159246,0.06035781,0.117567405,4.4328904,0.7252021,1
2.0899999999999994,,,,,12.904688,0.96845704,4.467397,0.99023354,-0.49081495,1.5543451,1.8468423,-0.45910716,0.018633269,0.23844212,-0.8555811,-8.06789,9.106975,0.07336404,0.23491131,4.555565,0.73330367,1
2.099999999999999,,,,,12.904688,0.96845704,4.467397,0.99023354,-0.5716591,1.6451681,1.8476582,-0.4612725,0.038292237,0.22661299,-0.8569762,-8.101426,9.05835,0.08998697,0.34927648,4.5418725,0.7459113,1
2.109999999999999,,,,,12.904688,0.96845704,4.467397,0.99023354,-0.6528538,1.7355292,1.8486458,-0.46314502,0.05764816,0.21423909,-0.8580649,-8.137984,9.014655,0.10766586,0.44580758,4.5303087,0.7579003,1
2.1199999999999988,,,,,12.904688,0.96845704,4.467397,0.99023354,-0.7344286,1.8254786,1.8498145,-0.4647347,0.07673466,0.20139143,-0.85882205,-8.177417,8.976012,0.12619443,0.5272858,4.520542,0.76930094,1
2.1299999999999986,,,,,12.7870035,0.78618443,1.6849375,1.0907593,-0.81641155,1.9150672,1.8511719,-0.4660486,0.09557875,0.18813129,-0.8592266,-8.219588,8.942524,0.1453569,0.5960585,4.512293,0.7801422,1
2.1399999999999983,,,,,12.7870035,0.78618443,1.6849375,1.0907593,-0.89882725,2.0043483,1.8527178,-0.46687657,0.11328281,0.17509504,-0.8593808,-8.263935,8.91448,0.16385543,0.6258916,4.0713897,0.7953843,1
2.149999999999998,,,,,12.7870035,0.78618443,1.6849375,1.0907593,-0.9816979,2.0933735,1.8544496,-0.46709383,0.12914324,0.16280165,-0.85944253,-8.310524,8.891277,0.1825451,0.6510468,3.699243,0.8098784,1
2.159999999999998,,,,,12.7870035,0.78618443,1.6849375,1.0907593,-1.0650444,2.1821892,1.8563688,-0.46681282,0.14344232,0.15113881,-0.85945773,-8.35903,8.872544,0.20125842,0.67225635,3.3851304,0.8236614,1
2.1699999999999977,,,,,11.610901,0.43932343,-2.4469059,1.4760877,-1.1488842,2.2708385,1.8584745,-0.46612167,0.1564191,0.14000914,-0.8594543,-8.409182,8.857958,0.21986938,0.69013876,3.1200016,0.836768,1
2.1799999999999975,,,,,11.610901,0.43932343,-2.4469059,1.4760877,-1.23321,2.3593664,1.8607137,-0.46481192,0.16693178,0.13019855,-0.8597282,-8.456061,8.848132,0.22778231,0.6536597,2.2540493,0.8679328,1
