t,px,py,pz,qx,qy,qz,qw,vx,vy,vz,wx,wy,wz,throttle_mpc,roll_mpc,pitch_mpc,yaw_mpc,throttle_nw,roll_nw,pitch_nw,yaw_nw,network_used
-2.0,16.427908,-10.433682000000001,2.219563,-0.4000597,0.33828384,0.84245366,0.12565067,-12.419435499999999,-2.4938537999999997,0.37275848,2.1962318,-0.07443921,-0.97920495,10.980869944926193,5.99999979783088,-5.99999992705688,-3.5572287994691814,11.987112,-0.27605775,-3.0386024,-2.3560927000000005,0
-1.99,16.30327,-10.458110000000001,2.2231405,-0.39896098,0.34559268,0.83854353,0.13505799,-12.507739,-2.3916075,0.3423069,2.3593864,-0.5690723000000001,-1.0672691,10.980869944926193,5.99999979783088,-5.99999992705688,-3.5572287994691814,11.175282000000001,-1.7717679,-5.2859419999999995,-0.20173016,0
-1.98,16.177769,-10.481515,2.2264,-0.39584035,0.35305494,0.83507895,0.14596494,-12.591759,-2.2892240000000004,0.30920482,2.5340924,-1.0236148,-1.1543219999999998,10.980869944926193,5.99999979783088,-5.99999992705688,-3.5572287994691814,11.175282000000001,-1.7717679,-5.2859419999999995,-0.20173016,0
-1.97,16.051448999999998,-10.503894,2.2293172,-0.39083076,0.36069754,0.8319143,0.15832588,-12.67104,-2.1866047,0.27393556,2.7173305,-1.4430962,-1.2403042,10.980869944926193,5.99999979783088,-5.99999992705688,-3.5572287994691814,11.175282000000001,-1.7717679,-5.2859419999999995,-0.20173016,0
-1.96,15.924363,-10.525246000000001,2.2318728,-0.38404006,0.36852965,0.8289052,0.17209058,-12.745171000000001,-2.0836926,0.23690456,2.9066240000000003,-1.8318338,-1.3251655,10.980869944926193,5.99999979783088,-5.99999992705688,-3.5572287994691814,9.024142,-1.6145955,-5.844091000000001,-1.0465001,0
-1.95,15.796563,-10.545567,2.2340505,-0.3755554,0.37654567,0.8259091999999999,0.18720417,-12.813778999999998,-1.9804747,0.19844946,3.0999491000000003,-2.1935387000000004,-1.4088641000000002,10.980869944926193,5.99999979783088,-5.99999992705688,-3.5572287994691814,9.024142,-1.6145955,-5.844091000000001,-1.0465001,0
-1.94,15.668107000000001,-10.564853999999999,2.235838,-0.3654473,0.38472763,0.82278615,0.20360711,-12.876522999999999,-1.8769883,0.15884835,3.295657,-2.5314028,-1.4913657,10.980869944926193,5.99999979783088,-5.99999992705688,-3.5572287994691814,9.024142,-1.6145955,-5.844091000000001,-1.0465001,0
-1.93,15.539054,-10.583105999999999,2.2372243,-0.353773,0.393047,0.8193984000000001,0.22123508,-12.933092,-1.7733212,0.11832707,3.4924101999999997,-2.8481755,-1.5726423,10.980869944926193,5.99999979783088,-5.99999992705688,-3.5572287994691814,9.024142,-1.6145955,-5.844091000000001,-1.0465001,0
-1.92,15.409467999999999,-10.600322,2.2382016,-0.34057919999999997,0.40146622,0.8156111999999999,0.2400188,-12.983203999999999,-1.6696131,0.07706529,3.6891312999999997,-3.1462274,-1.6526723,14.118343062922973,5.999999895267246,-5.999999959315176,-3.1074369133998707,13.344937,-1.2580318000000001,-7.2487617,0.93969923,0
-1.91,15.279383,-10.616429,2.2388022000000003,-0.32549584,0.41015598,0.8112655,0.26013997,-13.032531,-1.5518399999999999,0.042922527,4.0323324000000005,-3.575271,-1.7225453000000002,14.118343062922973,5.999999895267246,-5.999999959315176,-3.1074369133998707,13.344937,-1.2580318000000001,-7.2487617,0.93969923,0
-1.9,15.148844,-10.631355000000001,2.2390606,-0.3082196,0.41920564,0.8061715,0.2817,-13.074171,-1.4331707,0.008944794,4.3385906,-3.9539410000000004,-1.7905023000000002,14.118343062922973,5.999999895267246,-5.999999959315176,-3.1074369133998707,13.344937,-1.2580318000000001,-7.2487617,0.93969923,0
-1.89,15.017926000000001,-10.645086000000001,2.2389843,-0.28899258,0.42840487,0.8001733,0.30442604,-13.10791,-1.3125575,-0.024030647999999998,4.5971355,-4.2735176,-1.8551247,14.118343062922973,5.999999895267246,-5.999999959315176,-3.1074369133998707,13.344937,-1.2580318000000001,-7.2487617,0.93969923,0
-1.8800000000000001,14.886714999999999,-10.657602,2.2385838,-0.26805425,0.43755972,0.79313964,0.32805157,-13.133060999999998,-1.1904316000000001,-0.055956162999999996,4.815405,-4.543218,-1.9165758999999998,14.118343062922973,5.999999895267246,-5.999999959315176,-3.1074369133998707,13.344937,-1.2580318000000001,-7.2487617,0.93969923,0
-1.87,14.755298000000002,-10.668891,2.237869,-0.24561675,0.4465053,0.7849611,0.35233712,-13.149042000000001,-1.0673392,-0.08683587599999999,4.9996767,-4.770823,-1.9750118000000003,19.323295946074836,5.9999999340893675,-5.9999999710417935,-2.4201373038823064,14.335869,-0.33023766,-7.342846000000001,0.062293377000000004,0
-1.8599999999999999,14.623753,-10.67872,2.236976,-0.22183207,0.45512274,0.7755799,0.37700078,-13.157716,-0.89842415,-0.09157051,5.1553593,-4.9627857,-1.9968542,19.323295946074836,5.9999999340893675,-5.9999999710417935,-2.4201373038823064,14.335869,-0.33023766,-7.342846000000001,0.062293377000000004,0
-1.85,14.492189999999999,-10.686862,2.236042,-0.19683599999999998,0.46331227,0.7649600999999999,0.40178776,-13.152698000000001,-0.7300541,-0.095065944,5.2868010000000005,-5.124781,-2.0176249,19.323295946074836,5.9999999340893675,-5.9999999710417935,-2.4201373038823064,14.335869,-0.33023766,-7.342846000000001,0.062293377000000004,0
-1.84,14.360747,-10.693327,2.2350779999999997,-0.17078800000000002,0.47097100000000003,0.75305307,0.42653126,-13.133642000000002,-0.5632995,-0.09749631,5.397776599999999,-5.2614865,-2.0373761999999997,20.99999824406204,4.531780166575193,-5.524022918186752,-0.8685222489738935,14.808565,0.39098449999999996,-5.544510400000001,-0.27910152,0
-1.83,14.229579999999999,-10.698066,2.2341363,-0.14414468,0.477695,0.7401669,0.45075798,-13.097527000000001,-0.38505915,-0.09068411,5.2628699999999995,-5.302053,-1.9800200000000001,20.99999824406204,4.531780166575193,-5.524022918186752,-0.8685222489738935,14.808565,0.39098449999999996,-5.544510400000001,-0.27910152,0
-1.82,14.098849,-10.701042999999999,2.2332669999999997,-0.117293395,0.4832025,0.72662455,0.47410378,-13.046312,-0.21104118,-0.08306875,5.149001999999999,-5.336339,-1.9254785,20.99999824406204,4.531780166575193,-5.524022918186752,-0.8685222489738935,14.808565,0.39098449999999996,-5.544510400000001,-0.27910152,0
-1.81,13.968704,-10.702306,2.2324777,-0.09027462,0.4875767,0.71241325,0.49657503,-12.980501,-0.042423367999999996,-0.07478285,5.0528913,-5.3653164,-1.8736131999999999,20.99999824406204,4.531780166575193,-5.524022918186752,-0.8685222489738935,14.808565,0.39098449999999996,-5.544510400000001,-0.27910152,0
-1.8,13.839288,-10.701914,2.2317734000000002,-0.06312611,0.49088767,0.697525,0.5181729,-12.900651,0.119686395,-0.065991625,4.971767400000001,-5.389807,-1.8242933000000001,20.232544161585384,3.1266699312830983,-3.881353824337788,-0.5186793459267955,14.252984,-0.6893425999999999,-4.948185,1.4176469999999999,0
-1.79,13.710720000000002,-10.699967,2.2311392000000003,-0.03661403,0.4931639,0.6822335999999999,0.5385222,-12.810853,0.26864308,-0.060809046,4.684521,-5.154026999999999,-1.7602263999999999,20.232544161585384,3.1266699312830983,-3.881353824337788,-0.5186793459267955,14.252984,-0.6893425999999999,-4.948185,1.4176469999999999,0
-1.7799999999999998,13.583110999999999,-10.696569,2.2305574,-0.011350893999999999,0.49449554,0.66683906,0.55737865,-12.709244,0.40975100000000003,-0.055542285999999996,4.442,-4.955099,-1.6993034,20.232544161585384,3.1266699312830983,-3.881353824337788,-0.5186793459267955,14.252984,-0.6893425999999999,-4.948185,1.4176469999999999,0
-1.77,13.456573,-10.691801,2.230028,0.01284142,0.49501154,0.6513627,0.57491326,-12.596921,0.54258025,-0.05038636,4.237242,-4.787262,-1.6413698,20.232544161585384,3.1266699312830983,-3.881353824337788,-0.5186793459267955,14.252984,-0.6893425999999999,-4.948185,1.4176469999999999,0
-1.7599999999999998,13.331206,-10.685748,2.2295487,0.03611585,0.49481356,0.6358136999999999,0.5912665,-12.474881,0.6667801999999999,-0.04551309,4.064367,-4.6456550000000005,-1.586279,20.232544161585384,3.1266699312830983,-3.881353824337788,-0.5186793459267955,13.625107,-0.6328715,-2.6665306,1.2894322,0
-1.75,13.207106,-10.678497,2.2291162,0.058602642,0.4939817,0.6201935000000001,0.60655403,-12.344035,0.7820600999999999,-0.04107767,3.9184117,-4.526178,-1.5338916,20.232544161585384,3.1266699312830983,-3.881353824337788,-0.5186793459267955,13.625107,-0.6328715,-2.6665306,1.2894322,0
-1.7399999999999998,13.0843525,-10.670138,2.2287252,0.08041191,0.4925791,0.6044988,0.62087107,-12.205221,0.8881757,-0.037223585,3.7951846,-4.425371599999999,-1.4840748,20.232544161585384,3.1266699312830983,-3.881353824337788,-0.5186793459267955,13.625107,-0.6328715,-2.6665306,1.2894322,0
-1.73,12.963025,-10.660766,2.2283692000000004,0.10163606,0.49065575,0.5887236,0.63429606,-12.059219,0.98491955,-0.034086086,3.6911466,-4.340317199999999,-1.4367026000000003,20.232544161585384,3.1266699312830983,-3.881353824337788,-0.5186793459267955,13.625107,-0.6328715,-2.6665306,1.2894322,0
-1.72,12.843191000000001,-10.650473,2.2280407,0.12235209,0.48825112,0.57286066,0.64689374,-11.90676,1.0721142,-0.031794712,3.6033093999999997,-4.268554,-1.3916549999999999,18.54697479491121,1.4101538893841032,-1.874081098752316,0.2785907159000379,14.281818,-1.4142115,-0.27258828,1.154567,0
-1.71,12.724844000000001,-10.639389,2.2276886,0.14177142,0.4855273,0.5574154,0.65837085,-11.761757000000001,1.1432282,-0.038748708,3.2618357999999996,-3.8946528,-1.3096955,18.54697479491121,1.4101538893841032,-1.874081098752316,0.2785907159000379,14.281818,-1.4142115,-0.27258828,1.154567,0
-1.7,12.60797,-10.627637,2.2272625,0.15929429,0.48266652,0.54285336,0.66855717,-11.612353,1.205926,-0.04662711,2.9735188,-3.5791477999999994,-1.2317579,18.54697479491121,1.4101538893841032,-1.874081098752316,0.2785907159000379,14.281818,-1.4142115,-0.27258828,1.154567,0
-1.69,12.49261,-10.615298,2.226753,0.17523366,0.47971362,0.52910006,0.6776585999999999,-11.459328999999999,1.2607329,-0.055433800000000005,2.7300873,-3.3129157999999994,-1.1576446000000002,18.54697479491121,1.4101538893841032,-1.874081098752316,0.2785907159000379,14.281818,-1.4142115,-0.27258828,1.154567,0
-1.68,12.378796000000001,-10.6024475,2.2261507999999997,0.18985283,0.47669595,0.5160802999999999,0.68584114,-11.303321,1.308123,-0.065159254,2.5245562,-3.088259,-1.0871681,17.169906651037973,-0.2627121206623862,0.21488039899377692,1.3168892254134088,15.219595000000002,-2.3160682,1.7617677,1.1521567,0
-1.67,12.266494999999999,-10.589174,2.2254142999999997,0.20254792,0.47384380000000004,0.5042974,0.69291455,-11.156644,1.345596,-0.08227205,2.0904481,-2.5726662,-0.96920025,17.169906651037973,-0.2627121206623862,0.21488039899377692,1.3168892254134088,15.219595000000002,-2.3160682,1.7617677,1.1521567,0
-1.66,12.155669,-10.575556,2.2245028,0.21287464,0.47136688,0.4941864,0.6987686,-11.008258,1.3775327,-0.10012322,1.7239064999999998,-2.137591,-0.85702115,17.169906651037973,-0.2627121206623862,0.21488039899377692,1.3168892254134088,15.219595000000002,-2.3160682,1.7617677,1.1521567,0
-1.65,12.046333,-10.561641,2.2234097000000004,0.22124726,0.4692388,0.4855742,0.7036209,-10.858611999999999,1.4048374,-0.118602514,1.4144238,-1.7704519,-0.7503468000000001,17.169906651037973,-0.2627121206623862,0.21488039899377692,1.3168892254134088,15.219595000000002,-2.3160682,1.7617677,1.1521567,0
-1.64,11.938499,-10.547472,2.2221289,0.22801018,0.4674241,0.47829908,0.70764124,-10.708038,1.4282892,-0.13760398,1.1531245,-1.4606354,-0.6489069000000001,17.72157827203304,-3.2414146450738412,3.3489757174210792,2.3497192042673407,16.638706,-3.5868839999999995,3.8447132000000006,0.9966828000000001,0
-1.63,11.832199000000001,-10.533082,2.2206686,0.23206905,0.46618003,0.47315258,0.7105961,-10.551950999999999,1.449337,-0.15447335,0.46818778,-0.7102411999999999,-0.50176346,17.72157827203304,-3.2414146450738412,3.3489757174210792,2.3497192042673407,16.638706,-3.5868839999999995,3.8447132000000006,0.9966828000000001,0
-1.6199999999999999,11.727461,-10.518491000000001,2.2190387,0.23258310000000001,0.46571624,0.47077116,0.7123118,-10.395575,1.4686754,-0.1714695,-0.110105544,-0.07702656,-0.36184040000000006,17.72157827203304,-3.2414146450738412,3.3489757174210792,2.3497192042673407,16.638706,-3.5868839999999995,3.8447132000000006,0.9966828000000001,0
-1.6099999999999999,11.624286999999999,-10.503708999999999,2.2172396,0.23014705,0.46591204,0.4707885,0.7129631999999999,-10.239262,1.4877917999999999,-0.18829302,-0.59834254,0.45732206,-0.22878341,17.72157827203304,-3.2414146450738412,3.3489757174210792,2.3497192042673407,16.638706,-3.5868839999999995,3.8447132000000006,0.9966828000000001,0
-1.5999999999999999,11.522675,-10.48873,2.2152743,0.22525087,0.46664497,0.47287226,0.71266854,-10.083298,1.5079446,-0.20469767,-1.0105338,0.90825397,-0.10225555,20.704283289405968,-5.564839345646273,5.656856555763997,3.0494288503606235,17.158016,-3.6700084000000004,5.332791,0.08137569,0
-1.5899999999999999,11.42275,-10.473523,2.2132172999999997,0.21723832,0.4679922,0.47742337,0.71123683,-9.901826,1.5340532,-0.20660995,-1.7208878,1.6486738,0.05239851,20.704283289405968,-5.564839345646273,5.656856555763997,3.0494288503606235,17.158016,-3.6700084000000004,5.332791,0.08137569,0
-1.5799999999999998,11.3246355,-10.458034,2.211146,0.20559758,0.46996984,0.48471084,0.7084585,-9.721616000000001,1.5645154,-0.20744486,-2.3205857000000005,2.2735078,0.19946365,20.704283289405968,-5.564839345646273,5.656856555763997,3.0494288503606235,17.158016,-3.6700084000000004,5.332791,0.08137569,0
-1.5699999999999998,11.2283125,-10.442212,2.2090732999999996,0.19089237,0.47237426,0.49426496,0.7043614,-9.543284,1.6010433000000002,-0.20692357,-2.8268464,2.8008182,0.33931226,20.704283289405968,-5.564839345646273,5.656856555763997,3.0494288503606235,17.158016,-3.6700084000000004,5.332791,0.08137569,0
-1.5599999999999998,11.13376,-10.425988,2.207013,0.17359477,0.4750178,0.50566554,0.6989459,-9.367510000000001,1.6450426999999999,-0.20488155,-3.2542124,3.2458412999999995,0.47229844,20.704283289405968,-5.564839345646273,5.656856555763997,3.0494288503606235,19.988632,-3.6266382000000004,5.4290557,-0.26753366,0
-1.5499999999999998,11.040951,-10.409282000000001,2.204981,0.15410438,0.4777326,0.51853913,0.69219977,-9.195044000000001,1.6976426,-0.2012587,-3.6149657,3.6214306000000005,0.598759,20.704283289405968,-5.564839345646273,5.656856555763997,3.0494288503606235,19.988632,-3.6266382000000004,5.4290557,-0.26753366,0
-1.5399999999999998,10.949845,-10.392004,2.2029932,0.13276282,0.48037174,0.5325551,0.68410677,-9.026702,1.7597208,-0.19608803,-3.9194784,3.9384296,0.7190141,20.704283289405968,-5.564839345646273,5.656856555763997,3.0494288503606235,19.988632,-3.6266382000000004,5.4290557,-0.26753366,0
-1.5299999999999998,10.860398,-10.374055,2.2010642999999996,0.10986494,0.48280868,0.5474216,0.6746518,-8.863363,1.8319232,-0.18948376,-4.1765094,4.2059865,0.8333681999999999,20.704283289405968,-5.564839345646273,5.656856555763997,3.0494288503606235,19.988632,-3.6266382000000004,5.4290557,-0.26753366,0
-1.5199999999999998,10.772557,-10.3553295,2.199208,0.08566739400000001,0.48493606,0.56288075,0.6638248000000001,-8.705949,1.9146816999999998,-0.18162969,-4.393454599999999,4.431821,0.9421109000000001,20.99999727343135,-5.999993934520875,5.806078451281487,3.362057668001833,19.994646,-3.6915388,5.408845400000001,-0.29159707,0
-1.5099999999999998,10.686266999999999,-10.335716,2.197443,0.060264967,0.48659953,0.5788177,0.65158194,-8.553272999999999,2.0095735,-0.17123264,-4.644483,4.6456227,1.0608583999999999,20.99999727343135,-5.999993934520875,5.806078451281487,3.362057668001833,19.994646,-3.6915388,5.408845400000001,-0.29159707,0
-1.4999999999999998,10.601465,-10.3151,2.1957862,0.03375672,0.48766315,0.5951133000000001,0.6378756,-8.408647,2.1155245,-0.160053,-4.8563538,4.8260922,1.1737788,20.99999727343135,-5.999993934520875,5.806078451281487,3.362057668001833,19.994646,-3.6915388,5.408845400000001,-0.29159707,0
-1.4899999999999998,10.518064,-10.293367,2.194244,0.006361222,0.4880706,0.6115461999999999,0.6227020000000001,-8.273154,2.2324624,-0.14837715,-5.035168,4.978432700000001,1.2811582000000001,20.99999727343135,-5.999993934520875,5.806078451281487,3.362057668001833,19.994646,-3.6915388,5.408845400000001,-0.29159707,0
-1.4799999999999998,10.435967,-10.270412,2.1928196,-0.021727167000000002,0.4877774,0.6279203000000001,0.60606694,-8.147861500000001,2.3601232000000003,-0.13653748,-5.186079,5.107033,1.3832686,20.999993984506126,-5.999991292312707,4.347835921766172,2.961212930639153,18.796988,-3.3490733999999995,4.8164973,-0.22074577,0
-1.4699999999999998,10.355068,-10.246129,2.191513,-0.04998941,0.486403,0.64405555,0.58830744,-8.03378,2.4980261,-0.12486668,-5.3131537,4.9882545,1.4606987,20.999993984506126,-5.999991292312707,4.347835921766172,2.961212930639153,18.796988,-3.3490733999999995,4.8164973,-0.22074577,0
-1.4599999999999997,10.27525,-10.220419,2.1903214,-0.07799151,0.48367786,0.65983456,0.56972927,-7.931763,2.6453216,-0.11352153,-5.420406,4.88802,1.5343293,20.999993984506126,-5.999991292312707,4.347835921766172,2.961212930639153,18.796988,-3.3490733999999995,4.8164973,-0.22074577,0
-1.4499999999999997,10.196389,-10.193192999999999,2.1892412,-0.105688825,0.47971997,0.6751746999999999,0.5503069,-7.8425465,2.8010167999999998,-0.10262149,-5.5109277,4.803436799999999,1.6043469,20.999993984506126,-5.999991292312707,4.347835921766172,2.961212930639153,18.796988,-3.3490733999999995,4.8164973,-0.22074577,0
-1.4399999999999997,10.118354,-10.164373,2.1882669999999997,-0.13304122,0.47463122,0.68999785,0.53002656,-7.766774000000001,2.964077,-0.09231769,-5.5873275,4.7320633,1.6709287,20.130342997178435,-5.270519573772935,2.2205677336397014,2.29182875851078,21.242924,-3.2861311,3.6308392999999994,0.9376715,0
-1.4299999999999997,10.040992999999999,-10.1339245,2.1873697999999995,-0.15930973,0.46825576,0.7041826999999999,0.50939554,-7.707502000000001,3.1263732999999996,-0.08720311,-5.5375824,4.340340599999999,1.7013965,20.130342997178435,-5.270519573772935,2.2205677336397014,2.29182875851078,21.242924,-3.2861311,3.6308392999999994,0.9376715,0
-1.4199999999999997,9.964157,-10.101828999999999,2.1865208,-0.18391559,0.46053162,0.71769804,0.48887143,-7.661656,3.2933407,-0.08269791,-5.495643599999999,4.0097055,1.7303691000000003,20.130342997178435,-5.270519573772935,2.2205677336397014,2.29182875851078,21.242924,-3.2861311,3.6308392999999994,0.9376715,0
-1.4099999999999997,9.887714,-10.068045,2.1857142000000005,-0.20704475,0.4516594,0.7305872,0.46837870000000004,-7.6291285,3.463685,-0.078653574,-5.460287999999999,3.730632,1.7579200000000001,20.130342997178435,-5.270519573772935,2.2205677336397014,2.29182875851078,21.242924,-3.2861311,3.6308392999999994,0.9376715,0
-1.3999999999999997,9.81153,-10.032547000000001,2.1849463,-0.22885743,0.44180247,0.7428749,0.44785240000000004,-7.6097693,3.636228,-0.074951775,-5.430484,3.4950794999999997,1.7841189999999998,18.193596485959773,-3.952860996081713,-0.03224729456964297,1.7381049372208284,17.660044,-3.6994784,2.1308717999999995,0.5413645,0
-1.3899999999999997,9.73547,-9.9954,2.1841652000000003,-0.24862003,0.43108409999999997,0.7545375,0.42781746,-7.603934,3.7931568999999996,-0.08123796400000001,-5.1994066,2.9452705000000003,1.7818611,18.193596485959773,-3.952860996081713,-0.03224729456964297,1.7381049372208284,17.660044,-3.6994784,2.1308717999999995,0.5413645,0
-1.3799999999999997,9.659412,-9.956684,2.1833217,-0.26578283,0.4196602,0.76562834,0.4087274,-7.609075999999999,3.950052,-0.08741775,-5.0044665,2.4811614,1.779714,18.193596485959773,-3.952860996081713,-0.03224729456964297,1.7381049372208284,17.660044,-3.6994784,2.1308717999999995,0.5413645,0
-1.3699999999999997,9.583252,-9.916402,2.1824182999999997,-0.28072070000000005,0.40768403,0.77624506,0.39042708,-7.624415400000001,4.1060214,-0.09315363,-4.840013,2.0893936,1.7776721999999998,18.193596485959773,-3.952860996081713,-0.03224729456964297,1.7381049372208284,17.660044,-3.6994784,2.1308717999999995,0.5413645,0
-1.3599999999999997,9.50689,-9.874569000000001,2.181461,-0.29375124,0.39527097,0.78645235,0.37277856,-7.649240499999999,4.260324,-0.09815078,-4.7012773,1.7586913,1.7757306000000002,18.193596485959773,-3.952860996081713,-0.03224729456964297,1.7381049372208284,17.210846,-3.8971324000000003,1.1133628999999998,0.4772192,0
-1.3499999999999996,9.430236,-9.831204,2.1804588,-0.30514306,0.382508,0.7962916,0.35566148,-7.682907000000001,4.412335,-0.10215687,-4.584238,1.479536,1.7738843999999998,18.193596485959773,-3.952860996081713,-0.03224729456964297,1.7381049372208284,17.210846,-3.8971324000000003,1.1133628999999998,0.4772192,0
-1.3399999999999996,9.353204,-9.786333,2.1794221,-0.31512335,0.36946094,0.80578756,0.33897248,-7.724828,4.5615196,-0.104960054,-4.485501999999999,1.2438931,1.7721286,18.193596485959773,-3.952860996081713,-0.03224729456964297,1.7381049372208284,17.210846,-3.8971324000000003,1.1133628999999998,0.4772192,0
-1.3299999999999996,9.275713,-9.739985,2.1783642999999997,-0.32388398,0.35617948,0.8149536999999999,0.32262352,-7.774468400000001,4.707414,-0.10638603,-4.402206,1.0449808,1.770459,18.193596485959773,-3.952860996081713,-0.03224729456964297,1.7381049372208284,17.210846,-3.8971324000000003,1.1133628999999998,0.4772192,0
-1.3199999999999996,9.19769,-9.692198,2.1772997000000003,-0.33158708,0.34270135,0.82379526,0.3065407,-7.831336500000001,4.849611,-0.106294625,-4.331937,0.8770730999999999,1.7688714,17.08536839794627,-2.4348531604904062,-2.2183240668438597,0.9559307165118516,19.524286,-4.256794999999999,0.5871916,0.94976157,0
-1.3099999999999996,9.119083,-9.643049000000001,2.1762137000000004,-0.3375003,0.3292663,0.8323785,0.29124448,-7.891029,4.9793434,-0.11062267,-4.0355215,0.39479408,1.7289802,17.08536839794627,-2.4348531604904062,-2.2183240668438597,0.9559307165118516,19.524286,-4.256794999999999,0.5871916,0.94976157,0
-1.2999999999999996,9.039850999999999,-9.592624,2.1750937,-0.34106925,0.31609190000000004,0.84079766,0.27715886,-7.9561357,5.1050487,-0.1130838,-3.7854392999999997,-0.012345061000000001,1.6910465000000001,17.08536839794627,-2.4348531604904062,-2.2183240668438597,0.9559307165118516,19.524286,-4.256794999999999,0.5871916,0.94976157,0
-1.2899999999999996,8.959945,-9.540962,2.1739597,-0.34265614,0.30316479999999996,0.8490774,0.26409382,-8.025752,5.2265844,-0.11335524,-3.5744457,-0.35604987,1.6549741999999998,17.08536839794627,-2.4348531604904062,-2.2183240668438597,0.9559307165118516,19.524286,-4.256794999999999,0.5871916,0.94976157,0
-1.2799999999999996,8.879323,-9.488106,2.172835,-0.34256333,0.29046395,0.8572247,0.25188676,-8.099095,5.343853500000001,-0.111170486,-3.3964286,-0.64620274,1.620672,16.534350872170748,-0.9523100981225237,-3.9997060145591288,0.28208393743622345,18.841757,-3.8485167000000002,-0.8212427999999999,0.5517363000000001,0
-1.2699999999999996,8.797965,-9.434117,2.1717288,-0.34030944,0.27827144,0.8652928,0.24087958,-8.172956,5.453163,-0.1096109,-3.0147672,-1.1686473999999998,1.5549871000000002,16.534350872170748,-0.9523100981225237,-3.9997060145591288,0.28208393743622345,18.841757,-3.8485167000000002,-0.8212427999999999,0.5517363000000001,0
-1.2599999999999996,8.715857000000002,-9.379056,2.1706529,-0.33553204,0.26681828,0.873332,0.23133837,-8.24872,5.5583825,-0.105119415,-2.6927462,-1.6097131000000002,1.4925252,16.534350872170748,-0.9523100981225237,-3.9997060145591288,0.28208393743622345,18.841757,-3.8485167000000002,-0.8212427999999999,0.5517363000000001,0
-1.2499999999999996,8.632986,-9.322962,2.1696377,-0.32861966,0.25600508,0.8813213,0.22303201,-8.325424,5.659644,-0.09739433,-2.4210403,-1.982073,1.4331285,16.534350872170748,-0.9523100981225237,-3.9997060145591288,0.28208393743622345,18.841757,-3.8485167000000002,-0.8212427999999999,0.5517363000000001,0
-1.2399999999999995,8.549347000000001,-9.265875999999999,2.1687171000000003,-0.31989563,0.24573915,0.8892271,0.21576451,-8.402238,5.7570724,-0.08620649,-2.191783,-2.296427,1.3766464,16.86217501731252,0.15304265409034726,-5.134041908158687,-0.4012129897545533,18.387129,-2.657036,-1.8910394,-0.319868,0
-1.2299999999999995,8.464934,-9.207824,2.1679378,-0.30915149999999997,0.23620735,0.8970279000000001,0.20969586,-8.479906,5.8526545,-0.06914169999999999,-1.8258667000000002,-2.7385187,1.2894063,16.86217501731252,0.15304265409034726,-5.134041908158687,-0.4012129897545533,18.387129,-2.657036,-1.8910394,-0.319868,0
-1.2199999999999995,8.379753,-9.148833999999999,2.1673481,-0.29623398,0.22755232,0.90468943,0.2049447,-8.555981,5.9446754,-0.048180833,-1.5171107,-3.1117573,1.2064472,16.86217501731252,0.15304265409034726,-5.134041908158687,-0.4012129897545533,18.387129,-2.657036,-1.8910394,-0.319868,0
-1.2099999999999995,8.293824,-9.088942,2.1669881,-0.28146476,0.21963306,0.91214913,0.20130272,-8.629576,6.033352,-0.023192677999999998,-1.2565792,-3.4268615,1.127559,16.86217501731252,0.15304265409034726,-5.134041908158687,-0.4012129897545533,18.387129,-2.657036,-1.8910394,-0.319868,0
-1.1999999999999995,8.207174,-9.028178,2.1668985,-0.26511416,0.21232605,0.9193433000000001,0.19859453,-8.699914999999999,6.1188564,0.0058752,-1.0367342,-3.6928828,1.0525416,17.996720555898552,0.8448789443443034,-5.5114644953958365,-0.9347847493798191,19.446733,-2.4398855999999998,-2.5869052000000003,-0.49328116,0
-1.1899999999999995,8.119817999999999,-8.966547,2.1671636000000003,-0.24723071,0.2057322,0.9261783000000001,0.19683675,-8.770762,6.2068825,0.047833797000000004,-0.7433554,-3.9762404,0.95502305,17.996720555898552,0.8448789443443034,-5.5114644953958365,-0.9347847493798191,19.446733,-2.4398855999999998,-2.5869052000000003,-0.49328116,0
-1.1799999999999995,8.031777,-8.904052,2.1678696,-0.22786574,0.19992463,0.93256456,0.19603698,-8.83661,6.2918763,0.09403884400000001,-0.49577653,-4.2154727,0.8622896000000001,17.996720555898552,0.8448789443443034,-5.5114644953958365,-0.9347847493798191,19.446733,-2.4398855999999998,-2.5869052000000003,-0.49328116,0
-1.1699999999999995,7.9431057,-8.84072,2.1690582999999997,-0.20723514,0.19476612,0.93844813,0.19604720000000003,-8.89674,6.3740125,0.14433476,-0.28684190000000004,-4.417448,0.7741066,17.996720555898552,0.8448789443443034,-5.5114644953958365,-0.9347847493798191,19.446733,-2.4398855999999998,-2.5869052000000003,-0.49328116,0
-1.1599999999999995,7.853864,-8.776581,2.1707697,-0.18552369,0.19013964,0.9437795,0.19674273,-8.950526,6.453412,0.19850358,-0.11051485,-4.5879636,0.6902508,17.996720555898552,0.8448789443443034,-5.5114644953958365,-0.9347847493798191,18.581785,-1.7155122999999999,-3.041208,-0.45840195,0
-1.1499999999999995,7.764119,-8.71166,2.1730409,-0.16289061,0.18594584,0.94851416,0.19801842,-8.99742,6.5301495,0.25627226,0.038297642,-4.731918,0.6105098000000001,17.996720555898552,0.8448789443443034,-5.5114644953958365,-0.9347847493798191,18.581785,-1.7155122999999999,-3.041208,-0.45840195,0
-1.1399999999999995,7.6739416,-8.645986,2.1759067,-0.13947381,0.18210088,0.9526131,0.19978534,-9.036947999999999,6.6042576,0.3173196,0.16389231,-4.8534455,0.53468174,17.996720555898552,0.8448789443443034,-5.5114644953958365,-0.9347847493798191,18.581785,-1.7155122999999999,-3.041208,-0.45840195,0
-1.1299999999999994,7.5834074000000005,-8.579583,2.1793976,-0.11539344,0.17853424,0.95604306,0.20196807,-9.068703,6.6757364,0.38128278,0.2698948,-4.956039,0.4625746,17.996720555898552,0.8448789443443034,-5.5114644953958365,-0.9347847493798191,18.581785,-1.7155122999999999,-3.041208,-0.45840195,0
-1.1199999999999994,7.4925957,-8.51248,2.183541,-0.09075473,0.17518687,0.95877606,0.20450242,-9.09234,6.744557,0.44776359999999993,0.35936409999999996,-5.042646400000001,0.39400578,18.18027294267265,0.8733669422658619,-5.0213260530757555,-1.2159531773732095,19.012121,-1.62694,-3.7944503,-0.20300439,0
-1.1099999999999994,7.4015889999999995,-8.444697,2.1883686,-0.06584254,0.17205839999999997,0.96076685,0.20733416,-9.107742,6.811348,0.51803035,0.43926206,-5.0393233,0.31500459999999997,18.18027294267265,0.8733669422658619,-5.0213260530757555,-1.2159531773732095,19.012121,-1.62694,-3.7944503,-0.20300439,0
-1.0999999999999994,7.310471000000001,-8.376261999999999,2.1939073,-0.040892847,0.16915023,0.96199644,0.21042466,-9.114527,6.8753804999999995,0.5899286,0.50671315,-5.036527599999999,0.23988006,18.18027294267265,0.8733669422658619,-5.0213260530757555,-1.2159531773732095,19.012121,-1.62694,-3.7944503,-0.20300439,0
-1.0899999999999994,7.2193284,-8.3071995,2.2001712,-0.01592596,0.16641957,0.9624783000000001,0.21374318,-9.11262,6.936623,0.66297555,0.5636576,-5.0341744,0.16844189,18.18027294267265,0.8733669422658619,-5.0213260530757555,-1.2159531773732095,19.012121,-1.62694,-3.7944503,-0.20300439,0
-1.0799999999999994,7.128247999999999,-8.23754,2.207169,0.00903873,0.16383082,0.9622238000000001,0.21726222,-9.101982000000001,6.995029,0.7366928,0.6117336,-5.0321927,0.10050921,19.123012877451753,0.6885366866058381,-4.048148845843851,-1.4393796204055125,19.86283,-2.2437139,-4.1871667,0.5596821999999999,0
-1.0699999999999994,7.037323,-8.167295,2.2149502999999995,0.03358744,0.16136985,0.9612619000000001,0.22092284,-9.081627000000001,7.053424400000001,0.8195275,0.62346023,-4.878762,0.024946417999999998,19.123012877451753,0.6885366866058381,-4.048148845843851,-1.4393796204055125,19.86283,-2.2437139,-4.1871667,0.5596821999999999,0
-1.0599999999999994,6.946646,-8.096482,2.223559,0.05739005,0.1590312,0.9596511999999999,0.2246882,-9.052341,7.1087694,0.9020971,0.6333839,-4.749258,-0.04690849,19.123012877451753,0.6885366866058381,-4.048148845843851,-1.4393796204055125,19.86283,-2.2437139,-4.1871667,0.5596821999999999,0
-1.0499999999999994,6.8563056,-8.02513,2.23299,0.08054269,0.15679884,0.9574369,0.22856337,-9.014415,7.161060000000001,0.9839686,0.6417813,-4.639949,-0.115237445,19.123012877451753,0.6885366866058381,-4.048148845843851,-1.4393796204055125,19.86283,-2.2437139,-4.1871667,0.5596821999999999,0
-1.0399999999999994,6.7663865,-7.953271000000001,2.2432346,0.10312638,0.15465899,0.95465475,0.23255005,-8.968116,7.2102832999999995,1.0647438,0.6488868,-4.5476856,-0.18021348,19.041368278710035,0.2341359761968746,-2.680969706014497,-1.4797813563531887,20.270838,-2.8798316,-4.1102386,1.4280803,0
-1.0299999999999994,6.67697,-7.8809357,2.2542758,0.12464499,0.15255629999999998,0.95142794,0.23658983,-8.913981,7.25623,1.1433076000000002,0.58406305,-4.256589,-0.24398366,19.041368278710035,0.2341359761968746,-2.680969706014497,-1.4797813563531887,20.270838,-2.8798316,-4.1102386,1.4280803,0
-1.0199999999999994,6.588133,-7.8081565,2.2660947,0.14471401,0.15045445,0.9478974,0.24064829999999998,-8.852360000000001,7.2991475999999995,1.2201739999999999,0.52937204,-4.0108843,-0.30462462,19.041368278710035,0.2341359761968746,-2.680969706014497,-1.4797813563531887,20.270838,-2.8798316,-4.1102386,1.4280803,0
-1.0099999999999993,6.4999465999999995,-7.7349630000000005,2.278673,0.16354713,0.14836666,0.9441053,0.24475394,-8.783816999999999,7.339088,1.2951626,0.483228,-3.803494,-0.36228988,19.041368278710035,0.2341359761968746,-2.680969706014497,-1.4797813563531887,20.270838,-2.8798316,-4.1102386,1.4280803,0
-0.9999999999999991,6.4124784,-7.661385000000001,2.2919907999999998,0.18132526,0.14630266,0.94008064,0.24892716,-8.708846000000001,7.376093400000001,1.3681275,0.44429350000000006,-3.6284440000000004,-0.41712550000000004,18.854681814505753,-0.30889173523125035,-1.4250007675169083,-1.400097867474002,19.413567999999998,-2.5962548,-3.0189676,1.1754869,0
-0.9899999999999991,6.3257866,-7.587453,2.3060197999999996,0.19767769,0.14419048,0.9359763000000001,0.25314158,-8.628706,7.4098716,1.437309,0.3268241,-3.284797,-0.46536022,18.854681814505753,-0.30889173523125035,-1.4250007675169083,-1.400097867474002,19.413567999999998,-2.5962548,-3.0189676,1.1754869,0
-0.9799999999999991,6.2399225,-7.513197,2.3207297000000002,0.21232478,0.14197865,0.9319407,0.257384,-8.543301,7.440861999999999,1.5044137,0.22768237,-2.9947397999999996,-0.5112281,18.854681814505753,-0.30889173523125035,-1.4250007675169083,-1.400097867474002,19.413567999999998,-2.5962548,-3.0189676,1.1754869,0
-0.9699999999999993,6.1549363,-7.4386444,2.3361007999999996,0.2255299,0.13969938,0.9279777,0.26168206,-8.453248,7.4691477,1.5695252,0.1440068,-2.749916,-0.55484515,18.854681814505753,-0.30889173523125035,-1.4250007675169083,-1.400097867474002,19.413567999999998,-2.5962548,-3.0189676,1.1754869,0
-0.9599999999999993,6.0708720000000005,-7.363823,2.3521132000000002,0.23751488,0.13737771,0.9240825,0.26605496,-8.359067999999999,7.4948025,1.6327318000000002,0.073382966,-2.543273,-0.59632194,18.854681814505753,-0.30889173523125035,-1.4250007675169083,-1.400097867474002,21.024729999999998,-3.1242037,-3.2521033,2.3992832,0
-0.9499999999999993,5.987768,-7.2887580000000005,2.3687491,0.24846663,0.13503306,0.92024535,0.27051559999999997,-8.261198,7.517892,1.6941202000000002,0.01377398,-2.3688562,-0.63576347,18.854681814505753,-0.30889173523125035,-1.4250007675169083,-1.400097867474002,21.024729999999998,-3.1242037,-3.2521033,2.3992832,0
-0.9399999999999993,5.9056597,-7.213474300000001,2.38599,0.25854245,0.13268036,0.91645336,0.27507207,-8.160008,7.5384717000000006,1.7537718999999998,-0.036539033,-2.2216406,-0.67326957,18.854681814505753,-0.30889173523125035,-1.4250007675169083,-1.400097867474002,21.024729999999998,-3.1242037,-3.2521033,2.3992832,0
-0.9299999999999993,5.8245783,-7.137997,2.4038188,0.26787478,0.13033107,0.91269284,0.27972886,-8.055814999999999,7.5565906,1.8117613999999997,-0.07900688,-2.0973847,-0.70893526,18.854681814505753,-0.30889173523125035,-1.4250007675169083,-1.400097867474002,21.024729999999998,-3.1242037,-3.2521033,2.3992832,0
-0.9199999999999993,5.7445526,-7.0623507,2.4222195,0.2765752,0.12799382,0.90894985,0.28448778,-7.948885000000001,7.572288,1.8681548,-0.114852965,-1.9925078,-0.7428508,18.534113184650387,-0.8036797267488615,-0.35988545481497786,-1.196866799034359,22.141287,-4.037389,-3.9826337999999994,3.3559697,0
-0.9099999999999993,5.6656,-6.986560300000001,2.4411633,0.284298,0.12561077,0.9053648999999999,0.28932747,-7.8413405,7.5853796,1.9204313999999998,-0.22217724,-1.7378460999999998,-0.7651295,18.534113184650387,-0.8036797267488615,-0.35988545481497786,-1.196866799034359,22.141287,-4.037389,-3.9826337999999994,3.3559697,0
-0.8999999999999992,5.587733,-6.9106507,2.4606237,0.29077762,0.123138756,0.9020600000000001,0.29423195,-7.7317615,7.5962114000000005,1.9714141,-0.3127764,-1.5229045,-0.78631496,18.534113184650387,-0.8036797267488615,-0.35988545481497786,-1.196866799034359,22.141287,-4.037389,-3.9826337999999994,3.3559697,0
-0.8899999999999992,5.5109699999999995,-6.834644,2.4805882,0.2962078,0.120602146,0.8989944,0.29920644,-7.6205425,7.6048694,2.0213208,-0.38925752,-1.341488,-0.80646086,18.534113184650387,-0.8036797267488615,-0.35988545481497786,-1.196866799034359,22.141287,-4.037389,-3.9826337999999994,3.3559697,0
-0.8799999999999992,5.435326,-6.758561,2.5010471,0.3007513,0.11801998,0.89613014,0.30425316,-7.5080132,7.611431,2.0703428,-0.45382106,-1.1883681000000001,-0.8256181999999999,18.088056458693927,-1.2546604633541836,0.6278394760537317,-0.923506379075102,22.239456,-3.972149,-4.201265,3.7644012000000004,0
-0.8699999999999992,5.3608,-6.682423,2.5219747999999997,0.30414012,0.11535661,0.8935844999999999,0.30935037,-7.397211,7.615864299999999,2.1151438,-0.5785621999999999,-0.90506285,-0.83042157,18.088056458693927,-1.2546604633541836,0.6278394760537317,-0.923506379075102,22.239456,-3.972149,-4.201265,3.7644012000000004,0
-0.8599999999999992,5.287383999999999,-6.6062503,2.5433482999999995,0.30617009999999995,0.11258509,0.8914523999999999,0.3144781,-7.285834299999999,7.618442,2.1595432999999997,-0.68387216,-0.6659486,-0.8349892,18.088056458693927,-1.2546604633541836,0.6278394760537317,-0.923506379075102,22.239456,-3.972149,-4.201265,3.7644012000000004,0
-0.8499999999999992,5.2150836,-6.5300603,2.5651653,0.30705229999999994,0.10972965,0.8896681999999999,0.3196373,-7.1742754,7.6192850000000005,2.2038214,-0.77277786,-0.46413267,-0.8393326999999999,18.088056458693927,-1.2546604633541836,0.6278394760537317,-0.923506379075102,22.239456,-3.972149,-4.201265,3.7644012000000004,0
-0.8399999999999992,5.1438975,-6.4538703,2.5874252,0.30696392,0.106809214,0.8881733,0.3248268,-7.062865700000001,7.618502,2.2482168999999996,-0.847835,-0.29379687,-0.8434630999999999,17.807186192430773,-1.5408245663471078,1.2555802934408686,-0.603825696113958,22.110123,-4.1275864,-4.0083327,4.010638,0
-0.8299999999999992,5.073816000000001,-6.3776956,2.6101196,0.3057974,0.10380695,0.8870174000000001,0.33001742,-6.9536257,7.616232000000001,2.290726,-0.9557730999999999,-0.05212022400000001,-0.8317040000000001,17.807186192430773,-1.5408245663471078,1.2555802934408686,-0.603825696113958,22.110123,-4.1275864,-4.0083327,4.010638,0
-0.8199999999999992,5.0048227,-6.30155,2.6332419999999996,0.30347458,0.10070918,0.88623613,0.33518020000000004,-6.8451705,7.6125894,2.3338125,-1.0469022,0.15185682,-0.820522,17.807186192430773,-1.5408245663471078,1.2555802934408686,-0.603825696113958,22.110123,-4.1275864,-4.0083327,4.010638,0
-0.8099999999999992,4.9369082,-6.225447,2.6567986,0.30017164,0.09753314,0.8857603000000001,0.34031227,-6.7378273,7.607700299999999,2.3777084,-1.1238393999999998,0.32401517,-0.80988866,17.807186192430773,-1.5408245663471078,1.2555802934408686,-0.603825696113958,22.110123,-4.1275864,-4.0083327,4.010638,0
-0.7999999999999992,4.870061,-6.1493993,2.6807990000000004,0.29603675,0.09429246,0.8855295,0.34541008,-6.6318779999999995,7.601679300000001,2.4226036,-1.1887943,0.46931866,-0.79977715,17.058820333263014,-1.6945541593966948,1.5403659380620291,-0.2925248611818815,22.658312,-3.5583457999999997,-4.4660400000000005,4.549429,0
-0.7899999999999991,4.804243,-6.0734153,2.7052243,0.29107592,0.09097172,0.8855438,0.3504433,-6.5319557,7.5949273,2.4625971,-1.2675903999999998,0.6363684000000001,-0.77488613,17.058820333263014,-1.6945541593966948,1.5403659380620291,-0.2925248611818815,22.658312,-3.5583457999999997,-4.4660400000000005,4.549429,0
-0.7799999999999991,4.739415,-5.9975038,2.7300556,0.28529970000000004,0.08755788,0.88579965,0.3553817,-6.433862,7.587297400000001,2.5038497000000004,-1.3341157,0.77735925,-0.7512166,17.058820333263014,-1.6945541593966948,1.5403659380620291,-0.2925248611818815,22.658312,-3.5583457999999997,-4.4660400000000005,4.549429,0
-0.7699999999999991,4.6755580000000005,-5.9216723,2.7553062,0.2788294,0.08406394,0.88624316,0.36022220000000005,-6.337833,7.5788899999999995,2.5464884999999997,-1.3902807,0.89635676,-0.72870845,17.058820333263014,-1.6945541593966948,1.5403659380620291,-0.2925248611818815,22.658312,-3.5583457999999997,-4.4660400000000005,4.549429,0
-0.7599999999999991,4.6126504,-5.845928,2.7809906000000004,0.27176744,0.08050065,0.8868283000000001,0.36496198,-6.2440752999999996,7.569796000000001,2.5906081000000003,-1.4376981000000002,0.996792,-0.7073048000000001,17.058820333263014,-1.6945541593966948,1.5403659380620291,-0.2925248611818815,22.569292,-3.4116623,-5.168119,4.5055566,0
-0.7499999999999991,4.5506687,-5.770278500000001,2.807124,0.26420045,0.07687691599999999,0.88751584,0.3695988,-6.1527709999999995,7.5600996,2.6362758,-1.4777299,1.081561,-0.6869514,17.058820333263014,-1.6945541593966948,1.5403659380620291,-0.2925248611818815,22.569292,-3.4116623,-5.168119,4.5055566,0
-0.7399999999999989,4.489587,-5.694728400000001,2.8337216,0.25620177,0.07320025,0.8882725,0.37413093,-6.064081,7.5498767,2.6835341,-1.511526,1.1531075000000002,-0.6675968000000001,17.058820333263014,-1.6945541593966948,1.5403659380620291,-0.2925248611818815,22.569292,-3.4116623,-5.168119,4.5055566,0
-0.7299999999999989,4.429378,-5.619283,2.8608,0.24783360000000001,0.069476955,0.88907015,0.37855703,-5.978149,7.539197,2.7324069,-1.5400575,1.2134943,-0.649192,17.058820333263014,-1.6945541593966948,1.5403659380620291,-0.2925248611818815,22.569292,-3.4116623,-5.168119,4.5055566,0
-0.7199999999999989,4.3700137,-5.5439463,2.8883753,0.23914862,0.06571243,0.88988507,0.3828762,-5.895100599999999,7.528125,2.7828999,-1.564144,1.2644621999999999,-0.6316901999999999,15.55573549006113,-1.6904616898607676,1.6027518526261342,-0.03196000705809339,20.40671,0.14296994,-5.4454117,1.2331802,0
-0.7099999999999989,4.3114295,-5.468717,2.9163976000000003,0.23017219,0.06191475,0.8907153,0.38705727,-5.8221045,7.517726400000001,2.8217697,-1.5838468,1.3171959999999998,-0.6022613,15.55573549006113,-1.6904616898607676,1.6027518526261342,-0.03196000705809339,20.40671,0.14296994,-5.4454117,1.2331802,0
-0.6999999999999991,4.2535615,-5.393592400000001,2.9448159,0.22092703,0.058090024000000004,0.89156,0.39107186,-5.751942,7.507085000000001,2.8620942000000005,-1.6004804,1.3617055,-0.57427645,15.55573549006113,-1.6904616898607676,1.6027518526261342,-0.03196000705809339,20.40671,0.14296994,-5.4454117,1.2331802,0
-0.6899999999999991,4.19638,-5.3185754,2.9736445,0.21145116,0.05424008,0.8924021999999999,0.39492340000000004,-5.6847043,7.496256,2.903848,-1.6145232,1.3992738,-0.5476649,15.55573549006113,-1.6904616898607676,1.6027518526261342,-0.03196000705809339,20.40671,0.14296994,-5.4454117,1.2331802,0
-0.679999999999999,4.139857,-5.2436676,3.0028975,0.20177692,0.05036667400000001,0.8932271,0.39861536,-5.620472,7.485291,2.9469967,-1.6263778,1.4309833,-0.52235913,12.821995040492721,-1.5285433033687847,1.4514130174423758,0.2251030566359805,19.339098,1.6470552999999999,-5.9125333,0.48251188,0
-0.669999999999999,4.0839057,-5.1688595,3.0324638,0.1920136,0.04649887,0.8940207,0.40211332,-5.5700603,7.47618,2.9664357000000003,-1.6111538,1.4341257,-0.48568094,12.821995040492721,-1.5285433033687847,1.4514130174423758,0.2251030566359805,19.339098,1.6470552999999999,-5.9125333,0.48251188,0
-0.659999999999999,4.028446,-5.094143,3.0622298999999997,0.18225035,0.042659443,0.8947764000000001,0.4053881,-5.522204,7.4670309999999995,2.9869351,-1.5983026000000002,1.4367812,-0.45080256,12.821995040492721,-1.5285433033687847,1.4514130174423758,0.2251030566359805,19.339098,1.6470552999999999,-5.9125333,0.48251188,0
-0.649999999999999,3.9734523,-5.019518,3.092206,0.1724854,0.03884171,0.895493,0.40845048,-5.4769154,7.4578757,3.008438,-1.5874541000000002,1.4390253,-0.41763568,12.821995040492721,-1.5285433033687847,1.4514130174423758,0.2251030566359805,19.339098,1.6470552999999999,-5.9125333,0.48251188,0
-0.639999999999999,3.9188987999999996,-4.9449844,3.122402,0.16271733,0.035040338,0.89616877,0.41131037,-5.434207,7.4487404999999995,3.030888,-1.5782962,1.4409223,-0.38609629999999995,10.403196366199495,-1.2778069959711689,1.2357341456833233,0.4402210630182882,18.770304,0.50737727,-6.850484,1.9882945,0
-0.629999999999999,3.8647213,-4.870533999999999,3.1527123,0.15306477,0.031301237999999995,0.8967966999999999,0.41394025,-5.4016523,7.4413657,3.0313177000000002,-1.5314806,1.4088709,-0.3455487,10.403196366199495,-1.2778069959711689,1.2357341456833233,0.4402210630182882,18.770304,0.50737727,-6.850484,1.9882945,0
-0.619999999999999,3.8108589999999998,-4.796157,3.1830304,0.14362267,0.027660482000000004,0.89737725,0.41631833,-5.3711652999999995,7.4340470000000005,3.0324109,-1.4919612,1.381824,-0.3069907,10.403196366199495,-1.2778069959711689,1.2357341456833233,0.4402210630182882,18.770304,0.50737727,-6.850484,1.9882945,0
-0.6099999999999992,3.7572910000000004,-4.7218523,3.2133625,0.13435785,0.024101127000000003,0.89791816,0.41846094,-5.34271,7.4268,3.0341110000000002,-1.4586012,1.3589997,-0.27032483,10.403196366199495,-1.2778069959711689,1.2357341456833233,0.4402210630182882,18.770304,0.50737727,-6.850484,1.9882945,0
-0.5999999999999992,3.7039976,-4.64762,3.2437142999999997,0.12524223,0.020609157,0.8984251,0.4203825,-5.316257,7.4196386,3.0363665,-1.4304404,1.339739,-0.23545815,8.35304749501809,-1.0016286164674573,0.8736649698067546,0.6388752280725251,18.2404,1.2288398,-6.883476299999999,1.3333941999999999,0
-0.5899999999999992,3.6509347,-4.573452,3.273992,0.11642929,0.017208301999999998,0.89889365,0.42206365,-5.296598,7.4139657,3.0192509,-1.3636141000000002,1.2670063999999999,-0.19255438,8.35304749501809,-1.0016286164674573,0.8736649698067546,0.6388752280725251,18.2404,1.2288398,-6.883476299999999,1.3333941999999999,0
-0.5799999999999992,3.5980606,-4.4993405,3.3041004999999997,0.10804016,0.013916695500000001,0.89932734,0.42348963,-5.27846,7.408367599999999,3.0024947999999996,-1.3072025,1.205623,-0.1517559,8.35304749501809,-1.0016286164674573,0.8736649698067546,0.6388752280725251,18.2404,1.2288398,-6.883476299999999,1.3333941999999999,0
-0.5699999999999992,3.5453606,-4.425284400000001,3.3340428,0.10000897,0.010716277,0.8997393,0.42467879999999997,-5.261781,7.4028410000000004,2.9860550999999997,-1.2595828000000002,1.1538178,-0.11295939,8.35304749501809,-1.0016286164674573,0.8736649698067546,0.6388752280725251,18.2404,1.2288398,-6.883476299999999,1.3333941999999999,0
-0.5599999999999992,3.4928203,-4.3512835999999995,3.3638225,0.092279874,0.0075920355,0.90013933,0.42564717,-5.246508,7.397381299999999,2.9698946,-1.219385,1.1100959,-0.07606666,8.35304749501809,-1.0016286164674573,0.8736649698067546,0.6388752280725251,17.639464999999998,2.1503747000000004,-6.419520400000001,0.5416863000000001,0
-0.5499999999999992,3.4404258999999997,-4.277336599999999,3.3934417000000003,0.08480557,0.004531508,0.9005344999999999,0.42640900000000004,-5.2325945,7.3919835,2.9539802,-1.1854526,1.0731959,-0.040984254,8.35304749501809,-1.0016286164674573,0.8736649698067546,0.6388752280725251,17.639464999999998,2.1503747000000004,-6.419520400000001,0.5416863000000001,0
-0.5399999999999991,3.3881636,-4.203443,3.422903,0.077546,0.0015243622,0.9009298000000001,0.42697704,-5.220004,7.386646000000001,2.9382825,-1.156809,1.0420532,-0.0076233475,8.35304749501809,-1.0016286164674573,0.8736649698067546,0.6388752280725251,17.639464999999998,2.1503747000000004,-6.419520400000001,0.5416863000000001,0
-0.5299999999999991,3.3360212,-4.1296029999999995,3.4522082999999997,0.07046728,-0.0014379566,0.90132856,0.42736256,-5.208703,7.3813642999999995,2.9227755,-1.1326298000000001,1.0157696,0.024100525,8.35304749501809,-1.0016286164674573,0.8736649698067546,0.6388752280725251,17.639464999999998,2.1503747000000004,-6.419520400000001,0.5416863000000001,0
-0.5199999999999991,3.2839856,-4.0558157,3.4813592000000004,0.06354076,-0.0043625208,0.9017328000000001,0.4275759,-5.198664,7.3761363,2.907435,-1.1122196000000002,0.99358684,0.054267697000000004,6.926694108331209,-0.8336149543863973,0.8167578622258524,0.8213393035579363,17.069198999999998,1.6591330000000002,-5.5863476,0.99302715,0
-0.5099999999999991,3.2320363999999997,-3.982076,3.5102866,0.056791387,-0.0072056646,0.9021524999999999,0.42760184,-5.1913656999999995,7.371844,2.8780818,-1.0687941,0.9659857,0.09190811,6.926694108331209,-0.8336149543863973,0.8167578622258524,0.8213393035579363,17.069198999999998,1.6591330000000002,-5.5863476,0.99302715,0
-0.4999999999999991,3.1801548,-3.9083788,3.5389209000000004,0.050237678,-0.00993295,0.9025978000000001,0.42742765,-5.185064,7.3675966,2.84883,-1.0321388,0.9426918,0.12770149,6.926694108331209,-0.8336149543863973,0.8167578622258524,0.8213393035579363,17.069198999999998,1.6591330000000002,-5.5863476,0.99302715,0
-0.4899999999999989,3.1283317000000004,-3.8347241999999997,3.5672634,0.04384853,-0.012562133999999999,0.90306944,0.42706528,-5.179729,7.363398599999999,2.8196630000000003,-1.001198,0.92303276,0.1617385,6.926694108331209,-0.8336149543863973,0.8167578622258524,0.8213393035579363,17.069198999999998,1.6591330000000002,-5.5863476,0.99302715,0
-0.47999999999999887,3.0765569999999998,-3.761111,3.5953144999999997,0.037597675,-0.015108106999999999,0.9035673000000001,0.42652553,-5.1753364,7.359253,2.7905655,-0.9750809000000001,0.9064414000000001,0.19410529999999998,5.624048654592178,-0.8028143273923588,1.1768701962678676,0.9982071364177868,16.253313000000002,2.1501342999999995,-4.496104,0.29842225,0
-0.46999999999999886,3.0248183999999996,-3.687535,3.6230102,0.031337578,-0.017511563,0.9041046999999999,0.42580006,-5.17252,7.355933,2.7485367999999997,-0.9482455,0.9485934000000001,0.23356279999999996,5.624048654592178,-0.8028143273923588,1.1768701962678676,0.9982071364177868,16.253313000000002,2.1501342999999995,-4.496104,0.29842225,0
-0.45999999999999885,2.9731042000000003,-3.6139919999999996,3.6502852,0.024949932,-0.019726085,0.90469044,0.42488042,-5.170453500000001,7.35268,2.7065446,-0.9255950000000001,0.9841738000000001,0.2710841,5.624048654592178,-0.8028143273923588,1.1768701962678676,0.9982071364177868,16.253313000000002,2.1501342999999995,-4.496104,0.29842225,0
-0.44999999999999885,2.9214067000000004,-3.5404809999999998,3.6771407,0.018453702,-0.021780446000000002,0.9053171,0.42377567,-5.1691403,7.3495173,2.6645803,-0.90647626,1.014207,0.30676422,5.624048654592178,-0.8028143273923588,1.1768701962678676,0.9982071364177868,16.253313000000002,2.1501342999999995,-4.496104,0.29842225,0
-0.43999999999999884,2.8697188,-3.4670013999999996,3.7035766000000003,0.011864996499999999,-0.023698805,0.90597796,0.42249417,-5.1685834,7.346463000000001,2.6226346,-0.89033824,1.0395577,0.3406935,4.478313085396743,-0.7593026193375795,1.7342530065846842,1.1245403235530052,16.351599,1.3241591000000001,-4.145605000000001,1.4520549999999999,0
-0.4299999999999988,2.8180327000000003,-3.3935489999999997,3.7295464999999997,0.0050299214,-0.025467021,0.9066713,0.42103812,-5.1687536,7.344027499999999,2.5712547000000003,-0.8906939,1.1271296,0.3772959,4.478313085396743,-0.7593026193375795,1.7342530065846842,1.1245403235530052,16.351599,1.3241591000000001,-4.145605000000001,1.4520549999999999,0
-0.4199999999999988,2.7663417000000003,-3.3201199,3.7549989999999998,-0.0021862593,-0.0270384,0.9073933000000001,0.41940606,-5.1695647000000005,7.3417616,2.5190813999999997,-0.8827174000000001,1.2093258999999998,0.41284227,4.478313085396743,-0.7593026193375795,1.7342530065846842,1.1245403235530052,16.351599,1.3241591000000001,-4.145605000000001,1.4520549999999999,0
-0.4099999999999988,2.7146392,-3.2467127000000002,3.7799252999999995,-0.00974507,-0.028387802,0.9081347,0.41760072,-5.171017,7.3396883,2.4661086,-0.8677408000000001,1.2869523,0.44738140000000004,4.478313085396743,-0.7593026193375795,1.7342530065846842,1.1245403235530052,16.351599,1.3241591000000001,-4.145605000000001,1.4520549999999999,0
-0.3999999999999988,2.662919,-3.173325,3.8043194,-0.017610574,-0.029503033999999997,0.9088866,0.41562536,-5.1731243,7.337816,2.4127026000000003,-0.8508795,1.3566949,0.4806098,4.078691268008551,-0.6960702216024435,2.169020076138175,1.1494688809461318,15.263063,2.2277868,-4.424339,0.7024458,0
-0.3899999999999988,2.611175,-3.099955,3.8281699999999996,-0.025857672,-0.030391766,0.9096343000000001,0.41348895,-5.1757956,7.3362245999999995,2.3573408,-0.8482039000000001,1.4619559,0.5115108,4.078691268008551,-0.6960702216024435,2.169020076138175,1.1494688809461318,15.263063,2.2277868,-4.424339,0.7024458,0
-0.3799999999999988,2.5594012999999998,-3.0266,3.851463,-0.034553252,-0.031034704,0.9103621,0.41119778,-5.179085,7.3348875,2.30115,-0.83769864,1.5590522,0.5416327,4.078691268008551,-0.6960702216024435,2.169020076138175,1.1494688809461318,15.263063,2.2277868,-4.424339,0.7024458,0
-0.3699999999999988,2.5075915,-2.9532566000000005,3.8741903,-0.04364765,-0.03141455,0.9110591999999998,0.40875300000000003,-5.182992,7.3338265,2.2441299999999997,-0.8207004000000001,1.6491413000000001,0.5710035,4.078691268008551,-0.6960702216024435,2.169020076138175,1.1494688809461318,15.263063,2.2277868,-4.424339,0.7024458,0
-0.35999999999999877,2.4557393,-2.8799224,3.8963437000000005,-0.05309624,-0.03152314,0.9117149,0.40615609999999996,-5.1875453,7.333055,2.1865563,-0.8013509,1.7301842,0.5993866999999999,4.078691268008551,-0.6960702216024435,2.169020076138175,1.1494688809461318,14.452028,1.1731658,-3.8768084000000003,1.3700598,0
-0.34999999999999876,2.4038382,-2.8065946,3.9179209999999998,-0.06284764,-0.031388506000000004,0.9123190000000001,0.4034089,-5.192806200000001,7.3325872,2.128899,-0.7849906999999999,1.798613,0.62637943,4.078691268008551,-0.6960702216024435,2.169020076138175,1.1494688809461318,14.452028,1.1731658,-3.8768084000000003,1.3700598,0
-0.33999999999999875,2.3518807999999995,-2.73327,3.9389212,-0.07285328,-0.031046625,0.9128620999999999,0.40051347,-5.198789,7.3324447,2.071144,-0.7711779999999999,1.8563703999999999,0.6520476,4.078691268008551,-0.6960702216024435,2.169020076138175,1.1494688809461318,14.452028,1.1731658,-3.8768084000000003,1.3700598,0
-0.32999999999999874,2.2998597999999997,-2.6599448,3.9593434000000003,-0.08307173,-0.03052774,0.91333616,0.3974719,-5.2055050000000005,7.3326435,2.013273,-0.75951594,1.9051209999999998,0.6764562,4.078691268008551,-0.6960702216024435,2.169020076138175,1.1494688809461318,14.452028,1.1731658,-3.8768084000000003,1.3700598,0
-0.31999999999999873,2.247768,-2.5866158,3.9791865,-0.09346759,-0.029857272,0.9137341999999998,0.39428663,-5.212964,7.333197599999999,1.9552675,-0.7496691,1.9462688000000001,0.69966704,4.2742308525962365,-0.6336576223198983,2.4204733370162184,1.1131002792860225,12.285103999999999,0.97393644,-2.2693484,0.9410466999999999,0
-0.3099999999999987,2.195596,-2.5132792,3.9984584,-0.10409256,-0.028994642,0.9140386999999999,0.39096937,-5.221568,7.334161999999999,1.899023,-0.73163754,2.020219,0.71995425,4.2742308525962365,-0.6336576223198983,2.4204733370162184,1.1131002792860225,12.285103999999999,0.97393644,-2.2693484,0.9410466999999999,0
-0.2999999999999987,2.143334,-2.439931,4.017167,-0.11498551,-0.027909165,0.9142316999999999,0.38753003,-5.2309730000000005,7.33553,1.8425945,-0.7164130999999999,2.0826366000000003,0.739246,4.2742308525962365,-0.6336576223198983,2.4204733370162184,1.1131002792860225,12.285103999999999,0.97393644,-2.2693484,0.9410466999999999,0
-0.2899999999999987,2.0909736,-2.366567,4.03531,-0.1261009,-0.026633797,0.91430694,0.38396847,-5.2411900000000005,7.337317999999999,1.7859580000000002,-0.7035583000000001,2.1353197,0.7575911,4.2742308525962365,-0.6336576223198983,2.4204733370162184,1.1131002792860225,12.285103999999999,0.97393644,-2.2693484,0.9410466999999999,0
-0.2799999999999987,2.0385072,-2.2931828,4.052885,-0.13739976,-0.025196271,0.914259,0.38028502,-5.25223,7.339539500000001,1.7290893,-0.6927041,2.1797869999999997,0.7750361,4.935335508732538,-0.6060507233026334,2.4314820068928507,1.0560638551643022,10.968595,0.4385532999999999,-1.5637332,0.9890424999999999,0
-0.2699999999999989,1.9859171999999998,-2.2197726,4.069922,-0.14884841,-0.023609152,0.9140804,0.3764885,-5.2659364,7.3426165999999995,1.6783005000000002,-0.6792303000000001,2.2190394,0.7888261999999999,4.935335508732538,-0.6060507233026334,2.4314820068928507,1.0560638551643022,10.968595,0.4385532999999999,-1.5637332,0.9890424999999999,0
-0.2599999999999989,1.9331851999999998,-2.146329,4.08645,-0.16041799,-0.021883836,0.9137645000000001,0.37258747,-5.280606,7.346214,1.6271847,-0.66785413,2.2521698,0.8019396,4.935335508732538,-0.6060507233026334,2.4314820068928507,1.0560638551643022,10.968595,0.4385532999999999,-1.5637332,0.9890424999999999,0
-0.2499999999999989,1.8803018,-2.0728467,4.1024647000000005,-0.17208399,-0.020040283,0.91330844,0.36858237,-5.296243,7.3503375,1.5757123,-0.658249,2.2801332000000003,0.8144096,4.935335508732538,-0.6060507233026334,2.4314820068928507,1.0560638551643022,10.968595,0.4385532999999999,-1.5637332,0.9890424999999999,0
-0.23999999999999888,1.827257,-1.9993201,4.117963,-0.18382533,-0.01809534,0.91270995,0.3644739,-5.3128495000000004,7.354989999999999,1.5238534,-0.6501391,2.3037353,0.82626766,6.329748019740607,-0.6371480627013459,2.493530184183125,0.9774564928756392,9.940717999999999,-0.4135473,-1.5286193000000001,1.1166194999999999,0
-0.22999999999999865,1.7740169,-1.9257375,4.133005000000001,-0.1956507,-0.0160674,0.9119584000000001,0.36026993,-5.3353915,7.361635000000001,1.4845251,-0.64814043,2.3333318,0.83368653,6.329748019740607,-0.6371480627013459,2.493530184183125,0.9774564928756392,9.940717999999999,-0.4135473,-1.5286193000000001,1.1166194999999999,0
-0.21999999999999864,1.720545,-1.8520851000000003,4.147651000000001,-0.20756538,-0.013972303,0.9110439,0.35597795,-5.3591805,7.368956599999999,1.4446219999999999,-0.6464509,2.3583126,0.8407414000000001,6.329748019740607,-0.6371480627013459,2.493530184183125,0.9774564928756392,9.940717999999999,-0.4135473,-1.5286193000000001,1.1166194999999999,0
-0.20999999999999863,1.6668291000000002,-1.7783561,4.1618958,-0.21954778,-0.011819731000000002,0.90996575,0.35159835,-5.384217700000001,7.37695,1.4041035,-0.6450220999999999,2.3793973999999998,0.84745,6.329748019740607,-0.6371480627013459,2.493530184183125,0.9774564928756392,9.940717999999999,-0.4135473,-1.5286193000000001,1.1166194999999999,0
-0.19999999999999862,1.6128565000000001,-1.7045438000000002,4.1757317,-0.23157918,-0.009617878,0.9087233,0.34713188,-5.410503,7.3856087,1.362929,-0.64381397,2.3971944,0.8538295,8.068507710915815,-0.6525666110699694,2.3736833312356005,0.8614137040248269,11.769258500000001,-1.2135504,-1.0219817,1.9086888,0
-0.18999999999999884,1.5585772,-1.6306291000000002,4.18923,-0.24360202,-0.00739921,0.9073228999999999,0.34259072,-5.4455934,7.397481,1.3365049,-0.6451775,2.3935267999999996,0.85420173,8.068507710915815,-0.6525666110699694,2.3736833312356005,0.8614137040248269,11.769258500000001,-1.2135504,-1.0219817,1.9086888,0
-0.17999999999999883,1.5039392,-1.5565915000000001,4.202458999999999,-0.25556985,-0.005190300300000001,0.90577126,0.33798736,-5.482256400000001,7.410165299999999,1.3091487,-0.6463288,2.3904313999999998,0.8545556000000001,8.068507710915815,-0.6525666110699694,2.3736833312356005,0.8614137040248269,11.769258500000001,-1.2135504,-1.0219817,1.9086888,0
-0.16999999999999882,1.4489267,-1.4824231,4.2154093,-0.2674827,-0.0029896717,0.90406847,0.33332303,-5.520476,7.423636999999999,1.2808167,-0.64730084,2.3878188,0.8548921,8.068507710915815,-0.6525666110699694,2.3736833312356005,0.8614137040248269,11.769258500000001,-1.2135504,-1.0219817,1.9086888,0
-0.1599999999999988,1.3935243999999998,-1.4081161,4.2280717,-0.27934042,-0.00079614145,0.9022145,0.32859892,-5.5602339999999995,7.437869500000001,1.2514662,-0.64812136,2.385614,0.85521215,8.068507710915815,-0.6525666110699694,2.3736833312356005,0.8614137040248269,11.882228999999999,-1.1360306999999998,-0.74877083,2.0200326,0
-0.1499999999999988,1.3377168,-1.3336632,4.240435,-0.2911424,0.0013912217999999998,0.9002095999999999,0.32381612,-5.601513,7.4528375,1.2210549,-0.648814,2.3837528,0.8555164000000001,8.068507710915815,-0.6525666110699694,2.3736833312356005,0.8614137040248269,11.882228999999999,-1.1360306999999998,-0.74877083,2.0200326,0
-0.1399999999999988,1.2814888999999998,-1.2590569999999999,4.252489,-0.302888,0.0035731378000000004,0.8980538,0.31897575,-5.6442943,7.468514999999999,1.1895416,-0.64939886,2.3821821,0.85580575,8.068507710915815,-0.6525666110699694,2.3736833312356005,0.8614137040248269,11.882228999999999,-1.1360306999999998,-0.74877083,2.0200326,0
-0.12999999999999878,1.2248259,-1.1842906000000002,4.264222,-0.31457627,0.005750149,0.89574736,0.31407884,-5.688557,7.484875,1.1568855,-0.64989257,2.3808563,0.85608095,8.068507710915815,-0.6525666110699694,2.3736833312356005,0.8614137040248269,11.882228999999999,-1.1360306999999998,-0.74877083,2.0200326,0
-0.11999999999999877,1.1677128,-1.1093572,4.275623,-0.32620606,0.007922651,0.8932904,0.30912649999999997,-5.7342815,7.501892,1.1230466000000001,-0.6503091999999999,2.3797374,0.8563426,9.2982577602688,-0.5840482772429555,1.9807111065589065,0.696716243688463,11.927315,-1.1827553999999998,-1.2300318000000001,2.2216017000000003,0
-0.10999999999999877,1.1100997,-1.0342371,4.2867274,-0.33762807,0.010060425999999999,0.89072984,0.30414876,-5.7886295,7.522225,1.0975981000000001,-0.6399293,2.3175185000000003,0.8485096999999999,9.2982577602688,-0.5840482772429555,1.9807111065589065,0.696716243688463,11.927315,-1.1827553999999998,-1.2300318000000001,2.2216017000000003,0
-0.09999999999999876,1.051935,-0.95891035,4.2975699999999994,-0.3487261,0.012139108000000001,0.88810897,0.2991745,-5.844576999999999,7.5432334,1.0707295000000001,-0.6311746,2.2650015,0.8410612,9.2982577602688,-0.5840482772429555,1.9807111065589065,0.696716243688463,11.927315,-1.1827553999999998,-1.2300318000000001,2.2216017000000003,0
