time-since-start [s],throttle_mpc,roll_mpc,pitch_mpc,yaw_mpc,throttle_nw,roll_nw,pitch_nw,yaw_nw,position_x [m],position_y [m],position_z [m],rotation_w [quaternion],rotation_x [quaternion],rotation_y [quaternion],rotation_z [quaternion],velocity_x [m/s],velocity_y [m/s],velocity_z [m/s],omega_x [rad/s],omega_y [rad/s],omega_z [rad/s],network_used
0.0,6.908652252658468,0.13015199968671595,-5.999999268707047,-0.11371386497342427,9.016709,0.7295277,-1.2009612,-0.2691971,12.42535,-11.379731,1.2052342,0.34487528,-0.3926113,0.15779059,0.83786607,-4.265631,4.185425,1.2388908,0.3162994,-0.26845098,0.26592615,0
0.01,6.908652252658468,0.13015199968671595,-5.999999268707047,-0.11371386497342427,8.720296,0.6132466,-3.0850048,-0.11983046,12.3824835,-11.337671,1.2173798,0.34483412,-0.3890842,0.15820618,0.8394485,-4.3075027,4.22635,1.1899986,0.21073203,-1.0856314,0.25417536,0
0.02,6.908652252658468,0.13015199968671595,-5.999999268707047,-0.11371386497342427,8.720296,0.6132466,-3.0850048,-0.11983046,12.339207,-11.295211,1.2290299,0.345281,-0.38247687,0.15692466,0.84253615,-4.3474054,4.2655783,1.1398692,0.15052006,-1.8042867,0.24041435,0
0.03,6.908652252658468,0.13015199968671595,-5.999999268707047,-0.11371386497342427,8.720296,0.6132466,-3.0850048,-0.11983046,12.295542,-11.252367,1.2401745,0.34621066,-0.37307566,0.15426208,0.84685063,-4.3852496,4.3029404,1.0889611,0.12677829,-2.4379702,0.224904,0
0.04,6.908652252658468,0.13015199968671595,-5.999999268707047,-0.11371386497342427,9.533195,0.54645693,-2.9394321,-0.54758906,12.251509,-11.209158,1.2508086,0.34759608,-0.36113012,0.15047397,0.85212654,-4.4212337,4.3386006,1.0380011,0.12622333,-2.9923375,0.2083937,0
0.05,6.908652252658468,0.13015199968671595,-5.999999268707047,-0.11371386497342427,9.533195,0.54645693,-2.9394321,-0.54758906,12.207121,-11.165597,1.2609395,0.34935775,-0.34693748,0.14573692,0.8581051,-4.456095,4.373289,0.9884186,0.12686431,-3.461382,0.1925878,0
0.060000000000000005,6.908652252658468,0.13015199968671595,-5.999999268707047,-0.11371386497342427,9.533195,0.54645693,-2.9394321,-0.54758906,12.16239,-11.1216955,1.2705826,0.35139617,-0.33079997,0.14017825,0.86454743,-4.4896894,4.4068727,0.94047886,0.12738886,-3.857279,0.17755748,0
0.07,6.908652252658468,0.13015199968671595,-5.999999268707047,-0.11371386497342427,9.533195,0.54645693,-2.9394321,-0.54758906,12.1173315,-11.077464,1.279755,0.3536232,-0.31297478,0.13390541,0.87124443,-4.521823,4.43917,0.8943086,0.12781946,-4.191436,0.16326472,0
0.08,9.313638540511457,0.01485832766215527,-5.999999125000775,-0.18786428250706058,11.492299,0.1043093,-3.2770581,-0.56055796,12.0719595,-11.032917,1.288475,0.3559621,-0.29368195,0.12701023,0.878015,-4.5523133,4.4700103,0.84998125,0.12817368,-4.473481,0.1496733,0
0.09,9.313638540511457,0.01485832766215527,-5.999999125000775,-0.18786428250706058,11.492299,0.1043093,-3.2770581,-0.56055796,12.02624,-10.988018,1.2968574,0.35834122,-0.273129,0.1195285,0.8847062,-4.5909724,4.5094037,0.8268918,0.11047465,-4.711544,0.13311024,0
0.09999999999999999,9.313638540511457,0.01485832766215527,-5.999999125000775,-0.18786428250706058,11.492299,0.1043093,-3.2770581,-0.56055796,11.980148,-10.942738,1.3050215,0.36070165,-0.25149488,0.1114941,0.8911868,-4.6269794,4.546402,0.80629957,0.09553044,-4.9124804,0.11735992,0
0.10999999999999999,9.313638540511457,0.01485832766215527,-5.999999125000775,-0.18786428250706058,11.492299,0.1043093,-3.2770581,-0.56055796,11.933709,-10.8970995,1.3129919,0.36299875,-0.2289191,0.102978624,0.89734244,-4.660142,4.5808043,0.78813326,0.08291332,-5.0820804,0.102382496,0
0.11999999999999998,9.313638540511457,0.01485832766215527,-5.999999125000775,-0.18786428250706058,11.492299,0.1043093,-3.2770581,-0.56055796,11.886953,-10.851131,1.3207922,0.3651942,-0.20552443,0.094044805,0.9030773,-4.690284,4.612425,0.772278,0.072261184,-5.225231,0.08814,0
0.12999999999999998,11.644744819665576,-0.1778089783260519,-5.999998707626504,-0.24118952047532297,12.259627,-0.10252423,-2.2117476,-0.4213903,11.839912,-10.804862,1.3284448,0.36725512,-0.18141957,0.08474793,0.9083108,-4.7172413,4.6410933,0.7585811,0.063269,-5.346057,0.074596375,0
0.13999999999999999,11.644744819665576,-0.1778089783260519,-5.999998707626504,-0.24118952047532297,12.259627,-0.10252423,-2.2117476,-0.4213903,11.792589,-10.758288,1.3360783,0.369146,-0.15673026,0.07506564,0.9129798,-4.746784,4.6730504,0.768476,0.025622927,-5.448041,0.05910068,0
0.15,11.644744819665576,-0.1778089783260519,-5.999998707626504,-0.24118952047532297,12.259627,-0.10252423,-2.2117476,-0.4213903,11.744992,-10.711414,1.3438219,0.37084007,-0.13156621,0.06498468,0.9170306,-4.7720213,4.7009273,0.7805706,-0.006152036,-5.5341196,0.044365354,0
0.16,12.616493247600644,-0.35193849451050074,-5.999993668776161,-0.22986367112641412,11.686643,0.3018071,-4.434089,-0.68080795,11.697165,-10.664284,1.3516963,0.3723227,-0.10599743,0.054563753,0.92041475,-4.792829,4.724548,0.794568,-0.03297107,-5.606774,0.03035309,0
0.17,12.616493247600644,-0.35193849451050074,-5.999993668776161,-0.22986367112641412,11.686643,0.3018071,-4.434089,-0.68080795,11.649144,-10.61693,1.359766,0.3735728,-0.08011346,0.043790765,0.92309684,-4.8104663,4.7453613,0.81963205,-0.082759835,-5.6680965,0.017584184,0
0.18000000000000002,12.616493247600644,-0.35193849451050074,-5.999993668776161,-0.22986367112641412,11.686643,0.3018071,-4.434089,-0.68080795,11.600972,-10.569393,1.3680934,0.37457427,-0.053993173,0.032660924,0.92504716,-4.823121,4.761239,0.8460364,-0.124782585,-5.7198553,0.0054418473,0
0.19000000000000003,12.616493247600644,-0.35193849451050074,-5.999993668776161,-0.22986367112641412,11.686643,0.3018071,-4.434089,-0.68080795,11.552699,-10.521724,1.37669,0.37532136,-0.027682904,0.021233246,0.92623794,-4.8307433,4.7720456,0.87339,-0.16025065,-5.763542,-0.006104664,0
0.20000000000000004,12.164159169825076,-0.40533046117863236,-3.0489906823736606,-0.20388770799953154,12.170376,0.1960207,-0.50209004,-0.55865896,11.504375,-10.473971,1.3855631,0.37580845,-0.0012260126,0.0095598865,0.9266473,-4.8332987,4.7776732,0.9012869,-0.19018587,-5.800415,-0.017084582,0
0.21000000000000005,12.164159169825076,-0.40533046117863236,-3.0489906823736606,-0.20388770799953154,12.170376,0.1960207,-0.50209004,-0.55865896,11.456051,-10.426189,1.3946936,0.376029,0.024234807,-0.0018886947,0.926289,-4.8309097,4.778074,0.92478925,-0.22376508,-5.37133,-0.026251068,0
0.22000000000000006,12.164159169825076,-0.40533046117863236,-3.0489906823736606,-0.20388770799953154,12.170376,0.1960207,-0.50209004,-0.55865896,11.407773,-10.378427,1.4040581,0.37602505,0.04779246,-0.012735998,0.92528856,-4.8239784,4.773684,0.9480408,-0.25210232,-5.0091605,-0.03496775,0
0.23000000000000007,12.164159169825076,-0.40533046117863236,-3.0489906823736606,-0.20388770799953154,12.170376,0.1960207,-0.50209004,-0.55865896,11.359585,-10.33073,1.4136525,0.3758501,0.06973047,-0.023067622,0.9237653,-4.812873,4.7648044,0.970737,-0.27601668,-4.7034717,-0.04325671,0
0.24000000000000007,12.164159169825076,-0.40533046117863236,-3.0489906823736606,-0.20388770799953154,11.797003,-0.08662229,1.8769552,-0.44475228,11.311528,-10.283145,1.42347,0.37554294,0.090290636,-0.032956865,0.92180747,-4.797911,4.7516966,0.992631,-0.29619864,-4.445454,-0.051138926,0
0.25000000000000006,12.164159169825076,-0.40533046117863236,-3.0489906823736606,-0.20388770799953154,11.797003,-0.08662229,1.8769552,-0.44475228,11.263639,-10.23571,1.4335016,0.37513152,0.109678455,-0.04246622,0.9194801,-4.779372,4.73459,1.013519,-0.31323114,-4.227674,-0.058634363,0
0.26000000000000006,12.164159169825076,-0.40533046117863236,-3.0489906823736606,-0.20388770799953154,11.797003,-0.08662229,1.8769552,-0.44475228,11.215953,-10.188466,1.4437363,0.37463564,0.1280681,-0.051648784,0.916831,-4.757498,4.7136865,1.033229,-0.3276059,-4.043857,-0.06576198,0
0.2700000000000001,12.164159169825076,-0.40533046117863236,-3.0489906823736606,-0.20388770799953154,11.797003,-0.08662229,1.8769552,-0.44475228,11.1685,-10.141449,1.4541616,0.37406904,0.14560686,-0.060549527,0.91389537,-4.7324986,4.6891613,1.0516124,-0.33973765,-3.8887062,-0.07253986,0
0.2800000000000001,11.453480694263595,-0.3785906664296185,2.643494651128969,-0.17097012690265836,13.0431595,-0.64225596,3.6756053,-0.13812712,11.121313,-10.094694,1.4647635,0.37344104,0.16241902,-0.06920644,0.9106988,-4.70456,4.6611714,1.0685383,-0.34997645,-3.7577512,-0.07898513,0
0.2900000000000001,11.453480694263595,-0.3785906664296185,2.643494651128969,-0.17097012690265836,13.0431595,-0.64225596,3.6756053,-0.13812712,11.0744095,-10.048226,1.4754938,0.37292567,0.1765453,-0.07679406,0.90766776,-4.675716,4.63176,1.0773032,-0.35439584,-2.759479,-0.083498865,0
0.3000000000000001,11.453480694263595,-0.3785906664296185,2.643494651128969,-0.17097012690265836,13.0431595,-0.64225596,3.6756053,-0.13812712,11.027805,-10.002067,1.4863054,0.37271065,0.1864624,-0.08266856,0.9052537,-4.6449695,4.599907,1.0848328,-0.35812873,-1.9168872,-0.08779112,0
0.3100000000000001,11.453480694263595,-0.3785906664296185,2.643494651128969,-0.17097012690265836,13.0431595,-0.64225596,3.6756053,-0.13812712,10.981516,-9.956234,1.4971874,0.37280035,0.19284756,-0.08710197,0.9034615,-4.6129947,4.5662665,1.0914412,-0.36128235,-1.2056967,-0.09187273,0
0.3200000000000001,10.837925327104932,-0.32657326365614636,5.999998295238004,-0.1305040367730655,13.053075,-0.33962676,5.207521,-0.0864553,10.935549,-9.910746,1.5081321,0.37317932,0.1962651,-0.09032141,0.90225214,-4.580348,4.531381,1.0974339,-0.36394733,-0.6054164,-0.095754065,0
0.3300000000000001,10.837925327104932,-0.32657326365614636,5.999998295238004,-0.1305040367730655,13.053075,-0.33962676,5.207521,-0.0864553,10.8899,-9.8656,1.519107,0.3739353,0.19598134,-0.09199715,0.9018314,-4.5492983,4.4976616,1.0975428,-0.35805425,0.42469433,-0.09745926,0
0.34000000000000014,10.837925327104932,-0.32657326365614636,5.999998295238004,-0.1305040367730655,13.053075,-0.33962676,5.207521,-0.0864553,10.844562,-9.820792,1.5300832,0.37512437,0.19143273,-0.091873914,0.90232706,-4.518728,4.4638705,1.097777,-0.35308835,1.2941598,-0.099080764,0
0.35000000000000014,10.837925327104932,-0.32657326365614636,5.999998295238004,-0.1305040367730655,13.053075,-0.33962676,5.207521,-0.0864553,10.799522,-9.77632,1.541064,0.3766655,0.1832756,-0.090224035,0.9035444,-4.4892573,4.4306326,1.0985329,-0.3489041,2.0280328,-0.10062271,0
0.36000000000000015,9.415244466531,-0.28103913700354316,5.999999638854054,-0.15306687492637788,12.378699,-1.0090929,5.622912,-0.28648514,10.754771,-9.732175,1.5520564,0.37847406,0.17205684,-0.08727437,0.90528274,-4.461416,4.3984847,1.1001173,-0.34537846,2.6474588,-0.10208901,0
0.37000000000000016,9.415244466531,-0.28103913700354316,5.999999638854054,-0.15306687492637788,12.378699,-1.0090929,5.622912,-0.28648514,10.71027,-9.688325,1.5630039,0.38046676,0.15824214,-0.08319805,0.9073491,-4.4390416,4.3719125,1.0895241,-0.33530492,3.1702855,-0.1045905,0
0.38000000000000017,9.415244466531,-0.28103913700354316,5.999999638854054,-0.15306687492637788,12.378699,-1.0090929,5.622912,-0.28648514,10.665982,-9.644732,1.5738504,0.38256666,0.14222413,-0.07814182,0.90956515,-4.4188223,4.347057,1.0799525,-0.3268067,3.611578,-0.10696925,0
0.3900000000000002,9.415244466531,-0.28103913700354316,5.999999638854054,-0.15306687492637788,12.378699,-1.0090929,5.622912,-0.28648514,10.621884,-9.6013775,1.5846065,0.38470456,0.12432933,-0.07224637,0.91177016,-4.401054,4.3242373,1.0714474,-0.3196374,3.9840508,-0.10923128,0
0.4000000000000002,9.595396070483153,-0.19979658003021808,5.999999698468203,-0.1230091719844321,11.036582,-0.48681858,5.2396064,-0.5084082,10.577951,-9.55824,1.5952829,0.38681883,0.104836635,-0.06563174,0.91382307,-4.385994,4.303738,1.0639921,-0.3135897,4.298437,-0.111382306,0
0.4100000000000002,9.595396070483153,-0.19979658003021808,5.999999698468203,-0.1230091719844321,11.036582,-0.48681858,5.2396064,-0.5084082,10.534156,-9.515296,1.6058984,0.38884875,0.083997965,-0.05837159,0.9156055,-4.3736324,4.2854657,1.0592681,-0.29582274,4.5637937,-0.11195284,0
0.4200000000000002,9.595396070483153,-0.19979658003021808,5.999999698468203,-0.1230091719844321,11.036582,-0.48681858,5.2396064,-0.5084082,10.490468,-9.472521,1.6164712,0.39074254,0.062030107,-0.050531436,0.9170162,-4.3644457,4.2700434,1.0554196,-0.28082973,4.7877684,-0.112495385,0
0.4300000000000002,9.595396070483153,-0.19979658003021808,5.999999698468203,-0.1230091719844321,11.036582,-0.48681858,5.2396064,-0.5084082,10.446856,-9.429885,1.6270093,0.39246207,0.039109223,-0.04219644,0.91796684,-4.3585896,4.257673,1.0522834,-0.26817706,4.9768143,-0.11301129,0
0.4400000000000002,9.595396070483153,-0.19979658003021808,5.999999698468203,-0.1230091719844321,10.222192,-0.46315274,5.5402846,-0.04730685,10.403284,-9.387357,1.6375186,0.3939748,0.0153890215,-0.033440594,0.9183836,-4.3561926,4.2485285,1.0496608,-0.25749978,5.136379,-0.1135019,1
0.45000000000000023,9.595396070483153,-0.19979658003021808,5.999999698468203,-0.1230091719844321,10.222192,-0.46315274,5.5402846,-0.04730685,10.359719,-9.344905,1.6480347,0.39524108,-0.008868677,-0.024498004,0.9182077,-4.3574324,4.2423706,1.0535789,-0.28957766,5.1993694,-0.11025369,1
0.46000000000000024,9.595396070483153,-0.19979658003021808,5.999999698468203,-0.1230091719844321,10.222192,-0.46315274,5.5402846,-0.04730685,10.316122,-9.302496,1.6585903,0.3962308,-0.033445016,-0.015559664,0.9174095,-4.362532,4.2398643,1.0575316,-0.31665337,5.252536,-0.10716489,1
0.47000000000000025,9.595396070483153,-0.19979658003021808,5.999999698468203,-0.1230091719844321,10.222192,-0.46315274,5.5402846,-0.04730685,10.272454,-9.260095,1.6691844,0.39693215,-0.05827206,-0.0066274367,0.9159721,-4.371533,4.2410398,1.0612385,-0.33950672,5.297411,-0.10422763,1
0.48000000000000026,10.544413094506313,-0.11210812228256711,5.999999663153779,-0.07558086945021823,12.057877,-0.30748355,5.5945644,-0.2004446,10.228678,-9.217663,1.6798133,0.39733613,-0.08328887,0.002295912,0.91388255,-4.384455,4.2459173,1.0644116,-0.35879648,5.3352876,-0.10143452,0
0.49000000000000027,10.544413094506313,-0.11210812228256711,5.999999663153779,-0.07558086945021823,12.057877,-0.30748355,5.5945644,-0.2004446,10.184749,-9.175162,1.6904857,0.39744973,-0.108552374,0.011407914,0.911109,-4.401831,4.254783,1.0699234,-0.3203232,5.4389462,-0.10016586,0
0.5000000000000002,10.544413094506313,-0.11210812228256711,5.999999663153779,-0.07558086945021823,12.057877,-0.30748355,5.5945644,-0.2004446,10.140626,-9.132555,1.7012078,0.39727655,-0.13409925,0.0208628,0.90760845,-4.423242,4.2675457,1.0742663,-0.28785086,5.52644,-0.098959476,0
0.5100000000000002,10.544413094506313,-0.11210812228256711,5.999999663153779,-0.07558086945021823,12.057877,-0.30748355,5.5945644,-0.2004446,10.09627,-9.0898,1.7119659,0.39680555,-0.15984918,0.0305979,0.90335876,-4.448656,4.2842636,1.0771141,-0.26044327,5.60029,-0.09781227,0
0.5200000000000002,11.752743796096967,0.03308338539388424,5.99999946839157,-0.028560918106335178,12.023602,0.04347983,5.331296,-0.055857643,10.051639,-9.046857,1.7227436,0.39602748,-0.18573011,0.040558487,0.8983437,-4.478019,4.304965,1.0781349,-0.23731056,5.6626225,-0.096721366,1
0.5300000000000002,11.752743796096967,0.03308338539388424,5.99999946839157,-0.028560918106335178,12.023602,0.04347983,5.331296,-0.055857643,10.006672,-9.00367,1.7335894,0.3949584,-0.21141343,0.050647218,0.89260674,-4.515911,4.33311,1.0906025,-0.19353189,5.610949,-0.09471616,1
0.5400000000000003,11.752743796096967,0.03308338539388424,5.99999946839157,-0.028560918106335178,12.023602,0.04347983,5.331296,-0.055857643,9.961307,-8.960179,1.744546,0.39362362,-0.23663794,0.060783993,0.8862099,-4.5580363,4.3657193,1.1002767,-0.15657948,5.5673347,-0.09280936,1
0.5500000000000003,11.752743796096967,0.03308338539388424,5.99999946839157,-0.028560918106335178,12.023602,0.04347983,5.331296,-0.055857643,9.915499,-8.91634,1.7555842,0.39202744,-0.26143363,0.07094751,0.8791662,-4.6041927,4.402691,1.106847,-0.12538902,5.530523,-0.09099611,1
0.5600000000000003,12.489971884307367,0.1597101162386257,5.9999989064962485,0.0003797148055782483,12.621001,0.6884458,4.5468154,-0.062191725,9.869209,-8.87211,1.7666713,0.39017278,-0.2858235,0.08111883,0.8714871,-4.6541805,4.4439096,1.110016,-0.09906201,5.499452,-0.08927185,0
0.5700000000000003,12.489971884307367,0.1597101162386257,5.9999989064962485,0.0003797148055782483,12.621001,0.6884458,4.5468154,-0.062191725,9.822392,-8.827439,1.7777909,0.38804477,-0.310037,0.09142721,0.8630986,-4.7098846,4.4910235,1.1132747,-0.05871796,5.5775094,-0.08487262,0
0.5800000000000003,12.489971884307367,0.1597101162386257,5.9999989064962485,0.0003797148055782483,12.621001,0.6884458,4.5468154,-0.062191725,9.775,-8.782276,1.7889224,0.38562116,-0.33424526,0.10197063,0.8539194,-4.769191,4.542363,1.1123502,-0.024666037,5.6433945,-0.08068925,0
0.5900000000000003,12.489971884307367,0.1597101162386257,5.9999989064962485,0.0003797148055782483,12.621001,0.6884458,4.5468154,-0.062191725,9.726996,-8.736579,1.8000224,0.38289455,-0.3583837,0.1126903,0.84395117,-4.8319187,4.5978527,1.1068896,0.0040753772,5.6990056,-0.0767112,0
0.6000000000000003,12.2516386812543,0.25403042395829456,5.999997539846954,0.06553114950190451,12.821428,0.8367731,3.0841105,-0.5179684,9.6783495,-8.690307,1.8110434,0.3798593,-0.38239422,0.123534955,0.83319896,-4.8978705,4.6573844,1.0965525,0.02833476,5.745944,-0.072928324,0
0.6100000000000003,12.2516386812543,0.25403042395829456,5.999997539846954,0.06553114950190451,12.821428,0.8367731,3.0841105,-0.5179684,9.629036,-8.643425,1.8219275,0.3765192,-0.40620905,0.13449413,0.82166815,-4.9655128,4.7196126,1.0794373,0.06350808,5.785562,-0.06613408,0
0.6200000000000003,12.2516386812543,0.25403042395829456,5.999997539846954,0.06553114950190451,12.821428,0.8367731,3.0841105,-0.5179684,9.579031,-8.595902,1.8326137,0.37287796,-0.42976835,0.14555578,0.8093667,-5.0358677,4.785523,1.056917,0.09319686,5.819002,-0.05967322,0
0.6300000000000003,12.2516386812543,0.25403042395829456,5.999997539846954,0.06553114950190451,12.821428,0.8367731,3.0841105,-0.5179684,9.52831,-8.547703,1.8430464,0.36893174,-0.45303276,0.15667565,0.79630595,-5.108684,4.854944,1.0287086,0.11825656,5.8472276,-0.053529397,0
0.6400000000000003,12.2516386812543,0.25403042395829456,5.999997539846954,0.06553114950190451,12.533298,0.7262095,1.8392137,-0.57233834,9.4768505,-8.498793,1.8531675,0.36467808,-0.47596598,0.16781484,0.7824986,-5.1837,4.92768,0.9945489,0.13940899,5.871052,-0.047687072,0
0.6500000000000004,12.2516386812543,0.25403042395829456,5.999997539846954,0.06553114950190451,12.533298,0.7262095,1.8392137,-0.57233834,9.42463,-8.44914,1.8629162,0.36011565,-0.49853435,0.17893903,0.76795876,-5.260646,5.0035143,0.9541957,0.15726364,5.8911605,-0.042131435,0
0.6600000000000004,12.2516386812543,0.25403042395829456,5.999997539846954,0.06553114950190451,12.533298,0.7262095,1.8392137,-0.57233834,9.371632,-8.398712,1.8722295,0.35524413,-0.5207065,0.19001779,0.7527013,-5.339243,5.0822124,0.9074297,0.17233442,5.908133,-0.036848404,0
0.6700000000000004,12.2516386812543,0.25403042395829456,5.999997539846954,0.06553114950190451,12.533298,0.7262095,1.8392137,-0.57233834,9.31784,-8.347486,1.8810421,0.35006422,-0.5424531,0.20102392,0.73674184,-5.419207,5.163523,0.8540549,0.18505572,5.9224596,-0.03182462,0
0.6800000000000004,11.666372077542837,0.29142417327632975,4.184610368576065,0.12595466551100007,12.539063,0.9308338,1.8689041,-0.5807642,9.263242,-8.295435,1.8892872,0.34457752,-0.56374687,0.21193312,0.72009695,-5.5002484,5.2471805,0.79389995,0.19579412,5.9345517,-0.027047353,0
0.6900000000000004,11.666372077542837,0.29142417327632975,4.184610368576065,0.12595466551100007,12.539063,0.9308338,1.8689041,-0.5807642,9.20785,-8.242557,1.8968886,0.33895096,-0.58404434,0.22249249,0.70320773,-5.5781603,5.328801,0.7253733,0.21067496,5.6616497,-0.019539496,0
0.7000000000000004,11.666372077542837,0.29142417327632975,4.184610368576065,0.12595466551100007,12.539063,0.9308338,1.8689041,-0.5807642,9.151678,-8.188853,1.9037725,0.33334497,-0.6029579,0.23251703,0.6864825,-5.656512,5.4120626,0.6504181,0.22323933,5.431307,-0.012400055,0
0.7100000000000004,11.666372077542837,0.29142417327632975,4.184610368576065,0.12595466551100007,12.539063,0.9308338,1.8689041,-0.5807642,9.094721,-8.134311,1.9098754,0.32774925,-0.62067044,0.24207701,0.6698857,-5.735027,5.4966598,0.5692317,0.23384804,5.236886,-0.0056109563,0
0.7200000000000004,10.526314421436147,0.3034240896076417,-1.3092165365165371,0.19004142534311652,12.192139,0.76072633,-1.7081822,-0.41320074,9.036978,-8.078917,1.9151362,0.32215238,-0.63733274,0.2512306,0.65338165,-5.813461,5.58232,0.481995,0.24280499,5.0727854,0.0008450113,0
0.7300000000000004,10.526314421436147,0.3034240896076417,-1.3092165365165371,0.19004142534311652,12.192139,0.76072633,-1.7081822,-0.41320074,8.978491,-8.022704,1.9194925,0.31711024,-0.6516631,0.2593386,0.63837236,-5.8839626,5.660338,0.38849005,0.25223407,4.077517,0.010128934,0
0.7400000000000004,10.526314421436147,0.3034240896076417,-1.3092165365165371,0.19004142534311652,12.192139,0.76072633,-1.7081822,-0.41320074,8.919302,-7.965708,1.922891,0.31311867,-0.6627672,0.26594153,0.62607574,-5.9540668,5.7388515,0.29059583,0.26020387,3.2374604,0.018957296,0
0.7500000000000004,10.526314421436147,0.3034240896076417,-1.3092165365165371,0.19004142534311652,12.192139,0.76072633,-1.7081822,-0.41320074,8.859413,-7.907925,1.9252925,0.31006697,-0.67124975,0.2713142,0.61617386,-6.0237193,5.8177013,0.18921408,0.26693875,2.5284104,0.027352437,0
0.7600000000000005,9.633534309142085,0.33469488431268646,-5.999998969650318,0.18960253501005916,10.977771,1.1163495,-5.9829392,-0.105430186,8.798829,-7.849353,1.926666,0.30784392,-0.6775902,0.2756771,0.60836273,-6.092914,5.8967957,0.08510914,0.27262908,1.9299359,0.03533563,0
0.7700000000000005,9.633534309142085,0.33469488431268646,-5.999998969650318,0.18960253501005916,10.977771,1.1163495,-5.9829392,-0.105430186,8.7375555,-7.7899876,1.9269876,0.30687726,-0.68115515,0.27876946,0.603441,-6.160991,5.975295,-0.020908445,0.32073253,0.7741171,0.039475385,0
0.7800000000000005,9.633534309142085,0.33469488431268646,-5.999998969650318,0.18960253501005916,10.977771,1.1163495,-5.9829392,-0.105430186,8.675625,-7.729862,1.9262464,0.30754825,-0.68131953,0.2802944,0.60220623,-6.224704,6.049345,-0.12733933,0.34017232,-0.2650657,0.04526762,0
0.7900000000000005,9.633534309142085,0.33469488431268646,-5.999998969650318,0.18960253501005916,10.977771,1.1163495,-5.9829392,-0.105430186,8.613066,-7.669004,1.9244418,0.30957177,-0.67854327,0.28036726,0.6042666,-6.2870765,6.122321,-0.23347522,0.3393495,-1.1594238,0.052350186,0
0.8000000000000005,6.853304424811888,0.7848554668765022,-5.999999864918575,-0.4102398443261117,11.95931,0.8839294,-5.781157,0.008516923,8.549884,-7.607415,1.9215804,0.3127129,-0.67324585,0.27917683,0.60910636,-6.3493156,6.195516,-0.33858562,0.33865765,-1.9143075,0.05908521,0
0.8100000000000005,6.853304424811888,0.7848554668765022,-5.999999864918575,-0.4102398443261117,11.95931,0.8839294,-5.781157,0.008516923,8.486152,-7.545178,1.9176826,0.31679204,-0.6658565,0.2769202,0.616111,-6.396799,6.251576,-0.44069946,0.35601094,-2.4992487,0.04074521,0
0.8200000000000005,6.853304424811888,0.7848554668765022,-5.999999864918575,-0.4102398443261117,11.95931,0.8839294,-5.781157,0.008516923,8.421954,-7.4823895,1.9127728,0.32173914,-0.6566427,0.27377266,0.6247819,-6.442671,6.305907,-0.5409435,0.39602765,-3.0183563,0.021034606,0
0.8300000000000005,6.853304424811888,0.7848554668765022,-5.999999864918575,-0.4102398443261117,11.95931,0.8839294,-5.781157,0.008516923,8.357305,-7.4190655,1.906871,0.32750612,-0.64569575,0.26986054,0.6348163,-6.4870853,6.358674,-0.63907075,0.45225015,-3.478973,0.0002766708,0
0.8400000000000005,6.853304424811888,0.7848554668765022,-5.999999864918575,-0.4102398443261117,11.968366,1.0700129,-6.241517,-0.05565165,8.292213,-7.3552165,1.8999995,0.3339933,-0.6331314,0.26527524,0.6459272,-6.5311007,6.411147,-0.7348344,0.5040694,-3.8721323,-0.019867485,0
0.8500000000000005,6.853304424811888,0.7848554668765022,-5.999999864918575,-0.4102398443261117,11.968366,1.0700129,-6.241517,-0.05565165,8.226684,-7.290843,1.8921834,0.34104747,-0.61910504,0.26007694,0.65784144,-6.5749264,6.4635954,-0.8279644,0.54780126,-4.2039795,-0.039023176,0
0.8600000000000005,6.853304424811888,0.7848554668765022,-5.999999864918575,-0.4102398443261117,11.968366,1.0700129,-6.241517,-0.05565165,8.160716,-7.2259455,1.8834502,0.34853172,-0.60375303,0.25431612,0.6703215,-6.6184716,6.5159273,-0.91823524,0.58470947,-4.484076,-0.057238877,0
0.8700000000000006,6.853304424811888,0.7848554668765022,-5.999999864918575,-0.4102398443261117,11.968366,1.0700129,-6.241517,-0.05565165,8.094316,-7.160526,1.8738291,0.3563278,-0.5871931,0.24803679,0.68316334,-6.6616335,6.568032,-1.005465,0.6158601,-4.720492,-0.07456073,0
0.8800000000000006,7.83357675645833,1.0083587796840021,-5.999999908733752,-0.8542530174254362,12.550497,1.3129543,-6.2947483,0.014968574,8.027486,-7.094587,1.8633516,0.36433387,-0.5695284,0.24127808,0.69619155,-6.704298,6.6197824,-1.089512,0.64215237,-4.920038,-0.09103259,0
0.8900000000000006,7.83357675645833,1.0083587796840021,-5.999999908733752,-0.8542530174254362,12.550497,1.3129543,-6.2947483,0.014968574,7.9602017,-7.0280957,1.8520621,0.37255087,-0.5508304,0.23410678,0.7092145,-6.7523565,6.6783724,-1.1677904,0.69912803,-5.0884776,-0.12848403,0
0.9000000000000006,7.83357675645833,1.0083587796840021,-5.999999908733752,-0.8542530174254362,12.550497,1.3129543,-6.2947483,0.014968574,7.8924413,-6.961022,1.840009,0.38097763,-0.53116536,0.22657783,0.7220675,-6.7995443,6.736239,-1.2422271,0.74721926,-5.23065,-0.16409773,0
0.9100000000000006,7.83357675645833,1.0083587796840021,-5.999999908733752,-0.8542530174254362,12.550497,1.3129543,-6.2947483,0.014968574,7.824214,-6.8933735,1.8272309,0.38952965,-0.51061285,0.21870914,0.73464763,-6.8456945,6.793214,-1.3127742,0.78781295,-5.3506513,-0.19796383,0
0.9200000000000006,10.61792707957583,0.6942501574608508,-5.999999901379716,-0.29925464345632713,14.089787,0.8966343,-6.1111636,-0.31505585,7.7555313,-6.8251605,1.813767,0.3981341,-0.48924488,0.21051835,0.74686706,-6.8906407,6.849119,-1.3794174,0.82207954,-5.451938,-0.23016812,0
0.9300000000000006,10.61792707957583,0.6942501574608508,-5.999999901379716,-0.29925464345632713,14.089787,0.8966343,-6.1111636,-0.31505585,7.6863284,-6.7562976,1.7997178,0.40661636,-0.46716362,0.20196186,0.7587044,-6.9497137,6.923192,-1.4296113,0.80211955,-5.537407,-0.23355821,0
0.9400000000000006,10.61792707957583,0.6942501574608508,-5.999999901379716,-0.29925464345632713,14.089787,0.8966343,-6.1111636,-0.31505585,7.6165442,-6.6867037,1.7851926,0.41482902,-0.44445887,0.19301005,0.7701429,-7.006753,6.9952826,-1.4746013,0.7852748,-5.6095476,-0.23678197,0
0.9500000000000006,10.61792707957583,0.6942501574608508,-5.999999901379716,-0.29925464345632713,14.089787,0.8966343,-6.1111636,-0.31505585,7.5462003,-6.6164,1.7702432,0.42275017,-0.42117694,0.18369903,0.78111887,-7.061585,7.06511,-1.5144881,0.7710588,-5.6704383,-0.23984753,0
0.9600000000000006,13.66786497609819,0.3408908059499257,-5.9999998509319425,0.114193303050274,14.200126,0.31190258,-6.373442,0.49491107,7.4753203,-6.54541,1.7549199,0.43036035,-0.39736146,0.17406175,0.7915783,-7.1140385,7.132398,-1.5494052,0.75906146,-5.7218328,-0.24276264,1
0.9700000000000006,13.66786497609819,0.3408908059499257,-5.9999998509319425,0.114193303050274,14.200126,0.31190258,-6.373442,0.49491107,7.4038434,-6.473652,1.7393851,0.4375047,-0.37310323,0.16404532,0.8015439,-7.180792,7.218628,-1.5565795,0.6894563,-5.7651854,-0.20656477,1
0.9800000000000006,13.66786497609819,0.3408908059499257,-5.9999998509319425,0.114193303050274,14.200126,0.31190258,-6.373442,0.49491107,7.331717,-6.401052,1.7238096,0.44405156,-0.3484815,0.15361266,0.8110375,-7.2439833,7.3007193,-1.5575874,0.6307022,-5.801782,-0.17214313,1
0.9900000000000007,13.66786497609819,0.3408908059499257,-5.9999998509319425,0.114193303050274,14.200126,0.31190258,-6.373442,0.49491107,7.2589774,-6.327653,1.7082536,0.45001552,-0.32352057,0.14281385,0.82001495,-7.303464,7.378305,-1.5527239,0.5811066,-5.8326755,-0.13941059,1
1.0000000000000007,15.454013578279856,0.15213857229379177,-5.999999729765673,0.28138173395240695,14.61054,-0.23053196,-5.9334445,0.5589509,7.1856613,-6.253503,1.6927743,0.4554083,-0.29824504,0.13169308,0.8284383,-7.359084,7.4510436,-1.5423137,0.5392407,-5.858755,-0.108284235,1
1.0100000000000007,15.454013578279856,0.15213857229379177,-5.999999729765673,0.28138173395240695,14.61054,-0.23053196,-5.9334445,0.5589509,7.1118016,-6.1786404,1.6774416,0.4601669,-0.27280024,0.12012375,0.83629936,-7.412201,7.520566,-1.5234252,0.41931954,-5.8703856,-0.07554281,1
1.0200000000000007,15.454013578279856,0.15213857229379177,-5.999999729765673,0.28138173395240695,14.61054,-0.23053196,-5.9334445,0.5589509,7.0374317,-6.103111,1.6623228,0.46424907,-0.24730901,0.10800823,0.8435907,-7.4611416,7.5844293,-1.4995939,0.3180943,-5.880208,-0.044408023,1
1.0300000000000007,15.454013578279856,0.15213857229379177,-5.999999729765673,0.28138173395240695,14.61054,-0.23053196,-5.9334445,0.5589509,6.9625936,-6.0269723,1.6474651,0.4676901,-0.22176492,0.09542301,0.8502828,-7.505862,7.6423163,-1.4712416,0.23264977,-5.888503,-0.014801031,1
1.0400000000000007,15.454013578279856,0.15213857229379177,-5.999999729765673,0.28138173395240695,15.11635,-0.6483107,-5.7739,0.65169847,6.8873296,-5.950286,1.6329118,0.4705186,-0.19616583,0.08243508,0.85635024,-7.546311,7.693945,-1.4388068,0.16052505,-5.8955083,0.013353139,1
1.0500000000000007,15.454013578279856,0.15213857229379177,-5.999999729765673,0.28138173395240695,15.11635,-0.6483107,-5.7739,0.65169847,6.8116765,-5.873108,1.6187246,0.47271216,-0.17064622,0.06899215,0.86177915,-7.5836954,7.740629,-1.3981003,0.0345074,-5.8765435,0.044676915,1
1.0600000000000007,15.454013578279856,0.15213857229379177,-5.999999729765673,0.28138173395240695,15.11635,-0.6483107,-5.7739,0.65169847,6.735671,-5.795498,1.6049612,0.47426057,-0.14531776,0.055057563,0.86656135,-7.6166344,7.7803435,-1.354137,-0.071864374,-5.8605404,0.07446364,1
1.0700000000000007,15.454013578279856,0.15213857229379177,-5.999999729765673,0.28138173395240695,15.11635,-0.6483107,-5.7739,0.65169847,6.6593585,-5.717526,1.5916514,0.4752002,-0.12015223,0.04070782,0.8706844,-7.64516,7.8128853,-1.3074213,-0.16165353,-5.847036,0.102788724,1
1.0800000000000007,16.508125149181478,0.08972417159805884,-5.99999932619985,0.34044388954815763,15.530545,-0.35375893,-5.779044,0.66734916,6.5827827,-5.6392655,1.5788206,0.47556055,-0.095128536,0.026009848,0.8741376,-7.6692963,7.8380876,-1.2584616,-0.2374457,-5.83564,0.12972389,1
1.0900000000000007,16.508125149181478,0.08972417159805884,-5.99999932619985,0.34044388954815763,15.530545,-0.35375893,-5.779044,0.66734916,6.505985,-5.5607877,1.5665087,0.47537416,-0.070173934,0.011124785,0.8769102,-7.6895933,7.8563104,-1.2036914,-0.25548527,-5.82682,0.15610531,1
1.1000000000000008,16.508125149181478,0.08972417159805884,-5.99999932619985,0.34044388954815763,15.530545,-0.35375893,-5.779044,0.66734916,6.4290066,-5.4821663,1.5547512,0.4746641,-0.04523317,-0.003814171,0.87899584,-7.7053576,7.8667927,-1.1476649,-0.27071646,-5.819375,0.18119217,1
1.1100000000000008,16.508125149181478,0.08972417159805884,-5.99999932619985,0.34044388954815763,15.530545,-0.35375893,-5.779044,0.66734916,6.351893,-5.403479,1.543558,0.4734403,-0.020317793,-0.01878966,0.8803912,-7.71655,7.8695035,-1.0909077,-0.28357732,-5.8130913,0.20504804,1
1.1200000000000008,16.537143530691804,0.302213480070412,-5.999998050259483,0.3189332168936996,15.73412,-0.25495914,-5.722323,0.51645994,6.274691,-5.3248034,1.5329337,0.47171196,0.0045591923,-0.03378523,0.8810935,-7.7231393,7.86444,-1.0339453,-0.29443684,-5.8077874,0.2277333,1
1.1300000000000008,16.537143530691804,0.302213480070412,-5.999998050259483,0.3189332168936996,15.73412,-0.25495914,-5.722323,0.51645994,6.197446,-5.2462177,1.5228881,0.46950486,0.029382851,-0.0487395,0.8810939,-7.725131,7.8514605,-0.97527385,-0.2882288,-5.794461,0.2419012,1
1.1400000000000008,16.537143530691804,0.302213480070412,-5.999998050259483,0.3189332168936996,15.73412,-0.25495914,-5.722323,0.51645994,6.1202044,-5.1678004,1.5134252,0.4668433,0.054137804,-0.06360078,0.8803871,-7.7224197,7.8307033,-0.91745234,-0.28299144,-5.7832127,0.25537387,1
1.1500000000000008,16.537143530691804,0.302213480070412,-5.999998050259483,0.3189332168936996,15.73412,-0.25495914,-5.722323,0.51645994,6.0430136,-5.089629,1.5045341,0.46373382,0.07880883,-0.07836684,0.87897605,-7.714999,7.8022685,-0.8610008,-0.27857327,-5.7737184,0.26818544,1
1.1600000000000008,15.756249063625969,0.5878251042915437,-4.253632544232001,0.22638311030395397,15.742383,0.016345207,-5.2772207,0.52375203,5.9659204,-5.0117803,1.4961988,0.46018308,0.10338005,-0.093034096,0.8768631,-7.7028756,7.7662807,-0.8064322,-0.2748464,-5.7657046,0.28036836,0
1.1700000000000008,15.756249063625969,0.5878251042915437,-4.253632544232001,0.22638311030395397,15.742383,0.016345207,-5.2772207,0.52375203,5.8889723,-4.934329,1.4883986,0.45625436,0.12747961,-0.10702998,0.8741428,-7.6860504,7.722871,-0.7540258,-0.14036597,-5.529873,0.2777193,0
1.1800000000000008,15.756249063625969,0.5878251042915437,-4.253632544232001,0.22638311030395397,15.742383,0.016345207,-5.2772207,0.52375203,5.812216,-4.8573465,1.4811088,0.45202363,0.15081695,-0.119906425,0.8709486,-7.664598,7.672552,-0.70438284,-0.026849665,-5.3308234,0.27520022,0
1.1900000000000008,15.756249063625969,0.5878251042915437,-4.253632544232001,0.22638311030395397,15.742383,0.016345207,-5.2772207,0.52375203,5.7356963,-4.7808995,1.4743004,0.44751218,0.17348701,-0.13182689,0.86732745,-7.638587,7.6158357,-0.65782034,0.06897026,-5.162819,0.27280477,0
1.2000000000000008,14.382315251998346,0.8436926427288397,0.029528051002452847,0.06502719660758084,13.543597,1.0172266,-0.9976053,0.37631822,5.6594596,-4.70505,1.4679409,0.44273683,0.1955697,-0.14292902,0.8633122,-7.6080904,7.5531807,-0.6146224,0.14985284,-5.0210176,0.27052683,0
1.2100000000000009,14.382315251998346,0.8436926427288397,0.029528051002452847,0.06502719660758084,13.543597,1.0172266,-0.9976053,0.37631822,5.583535,-4.6298256,1.4619353,0.43797055,0.21570805,-0.15248437,0.8593023,-7.576282,7.491027,-0.58699816,0.2578898,-4.2333703,0.2604429,0
1.2200000000000009,14.382315251998346,0.8436926427288397,0.029528051002452847,0.06502719660758084,13.543597,1.0172266,-0.9976053,0.37631822,5.5079465,-4.555244,1.4561903,0.43349084,0.2328601,-0.1599454,0.8557333,-7.5409155,7.4247684,-0.562454,0.3491102,-3.5685601,0.2508538,0
1.2300000000000009,14.382315251998346,0.8436926427288397,0.029528051002452847,0.06502719660758084,13.543597,1.0172266,-0.9976053,0.37631822,5.4327273,-4.481342,1.4506768,0.4293003,0.24750876,-0.16565832,0.8526418,-7.502436,7.3552637,-0.5406718,0.42613012,-3.0074303,0.24173526,0
1.2400000000000009,14.382315251998346,0.8436926427288397,0.029528051002452847,0.06502719660758084,13.313383,1.1484573,2.2984536,0.12181771,5.357907,-4.408148,1.4453685,0.4253864,0.26005813,-0.16991094,0.8500274,-7.4612107,7.283212,-0.5213289,0.49115977,-2.533811,0.23306413,0
1.2500000000000009,14.382315251998346,0.8436926427288397,0.029528051002452847,0.06502719660758084,13.313383,1.1484573,2.2984536,0.12181771,5.2835116,-4.335685,1.4402429,0.42172834,0.27084595,-0.17294249,0.84786713,-7.417541,7.209185,-0.50411576,0.5460648,-2.1340544,0.22481851,0
1.260000000000001,14.382315251998346,0.8436926427288397,0.029528051002452847,0.06502719660758084,13.313383,1.1484573,2.2984536,0.12181771,5.209564,-4.2639694,1.43528,0.41830158,0.28015462,-0.17495191,0.84612596,-7.371677,7.133651,-0.48874557,0.59242105,-1.7966412,0.2169775,0
1.270000000000001,14.382315251998346,0.8436926427288397,0.029528051002452847,0.06502719660758084,13.313383,1.1484573,2.2984536,0.12181771,5.136085,-4.1930156,1.4304626,0.41508055,0.2882203,-0.17610478,0.8447629,-7.3238263,7.056994,-0.47495902,0.631559,-1.5118488,0.20952128,0
1.280000000000001,13.363481681236161,0.8715301961031796,4.597303106390652,-0.08193751546142133,13.028426,2.229269,5.414328,-0.041901514,5.0630937,-4.1228323,1.4257761,0.41204044,0.2952406,-0.17653911,0.8437355,-7.2741604,6.9795322,-0.46252558,0.66460234,-1.2714705,0.2024309,0
1.290000000000001,13.363481681236161,0.8715301961031796,4.597303106390652,-0.08193751546142133,13.028426,2.229269,5.414328,-0.041901514,4.990589,-4.0533986,1.4211694,0.40949503,0.29984856,-0.17560479,0.84354466,-7.2265124,6.907118,-0.4589207,0.69674814,-0.35624078,0.18847688,0
1.300000000000001,13.363481681236161,0.8715301961031796,4.597303106390652,-0.08193751546142133,13.028426,2.229269,5.414328,-0.041901514,4.9185667,-3.984689,1.4165963,0.4076936,0.30097163,-0.17279743,0.8445963,-7.177819,6.8348875,-0.4556795,0.72391367,0.41625875,0.17520759,0
1.310000000000001,13.363481681236161,0.8715301961031796,4.597303106390652,-0.08193751546142133,13.028426,2.229269,5.414328,-0.041901514,4.8470345,-3.916698,1.4120567,0.40651494,0.2991495,-0.16841254,0.84669495,-7.1285686,6.7634892,-0.45211917,0.74686855,1.0682869,0.16258939,0
1.320000000000001,12.902284919435425,0.8136742508634687,5.999997599143296,-0.1894412758878957,12.882058,1.8248708,6.0446644,-0.0751221,4.7759957,-3.8494143,1.4075569,0.40584406,0.29482815,-0.162693,0.8496458,-7.079178,6.693472,-0.44767082,0.7662636,1.618631,0.15059039,0
1.330000000000001,12.902284919435425,0.8136742508634687,5.999997599143296,-0.1894412758878957,12.882058,1.8248708,6.0446644,-0.0751221,4.7054415,-3.7828102,1.4030901,0.40568247,0.28789195,-0.1556272,0.8534167,-7.0317254,6.627683,-0.44543937,0.77361494,2.301895,0.13390492,0
1.340000000000001,12.902284919435425,0.8136742508634687,5.999997599143296,-0.1894412758878957,12.882058,1.8248708,6.0446644,-0.0751221,4.6353583,-3.7168527,1.3986543,0.40600976,0.27825752,-0.14721097,0.85793805,-6.9849334,6.5642343,-0.4414087,0.7798413,2.8786047,0.11803823,0
1.350000000000001,12.902284919435425,0.8136742508634687,5.999997599143296,-0.1894412758878957,12.882058,1.8248708,6.0446644,-0.0751221,4.565738,-3.651516,1.3942696,0.40669593,0.26630867,-0.13763888,0.8629795,-6.93922,6.5036345,-0.43518448,0.78511286,3.3653765,0.102950126,0
1.360000000000001,12.641897940235221,0.675395073301505,5.999998771680004,-0.20877616015906006,11.726542,1.1953205,5.7732058,0.11798835,4.496568,-3.5867689,1.3899592,0.40762636,0.25236854,-0.12707472,0.8683334,-6.8949633,6.446346,-0.42649248,0.78957444,3.7762372,0.0886024,1
1.370000000000001,12.641897940235221,0.675395073301505,5.999998771680004,-0.20877616015906006,11.726542,1.1953205,5.7732058,0.11798835,4.4278126,-3.5225518,1.3856992,0.40861964,0.23684803,-0.11557133,0.87382853,-6.8563685,6.3976707,-0.4251407,0.85282856,4.0876675,0.090044394,1
1.380000000000001,12.641897940235221,0.675395073301505,5.999998771680004,-0.20877616015906006,11.726542,1.1953205,5.7732058,0.11798835,4.3594337,-3.4588027,1.3814647,0.4095257,0.22009109,-0.10317992,0.87931937,-6.819634,6.352749,-0.4213495,0.9062208,4.35053,0.09141561,1
1.390000000000001,12.641897940235221,0.675395073301505,5.999998771680004,-0.20877616015906006,11.726542,1.1953205,5.7732058,0.11798835,4.2914124,-3.3954825,1.3772805,0.41029477,0.20226264,-0.090028174,0.8846711,-6.7849565,6.311912,-0.41514808,0.9512885,4.5723987,0.09271955,1
1.400000000000001,12.876057681761347,0.4433128592442408,5.999998612907707,-0.19553779885973768,12.464186,1.4033878,6.0825367,0.32921964,4.2237267,-3.3325493,1.3731699,0.41088486,0.18350595,-0.07622675,0.8897689,-6.7525234,6.2754564,-0.40662813,0.9893301,4.759667,0.09395949,1
1.410000000000001,12.876057681761347,0.4433128592442408,5.999998612907707,-0.19553779885973768,12.464186,1.4033878,6.0825367,0.32921964,4.156363,-3.2699678,1.3691895,0.41122842,0.1638973,-0.061765015,0.8945468,-6.72062,6.2416525,-0.3890904,1.0538532,4.9531083,0.105503775,1
1.420000000000001,12.876057681761347,0.4433128592442408,5.999998612907707,-0.19553779885973768,12.464186,1.4033878,6.0825367,0.32921964,4.089305,-3.2076983,1.3653953,0.41126463,0.1435066,-0.046641756,0.8989393,-6.6914563,6.213086,-0.36943716,1.1083152,5.1163816,0.11648158,1
1.430000000000001,12.876057681761347,0.4433128592442408,5.999998612907707,-0.19553779885973768,12.464186,1.4033878,6.0825367,0.32921964,4.022524,-3.145687,1.3618073,0.41097027,0.12244327,-0.030960359,0.9028581,-6.66519,6.190024,-0.34791115,1.1542854,5.254193,0.1269207,1
1.440000000000001,12.876057681761347,0.4433128592442408,5.999998612907707,-0.19553779885973768,11.525639,1.3968072,5.9085426,0.09703239,3.9559903,-3.083878,1.3584427,0.41032657,0.10080463,-0.014811535,0.9062292,-6.641967,6.172693,-0.3247992,1.1930885,5.370512,0.13684757,0
1.450000000000001,12.876057681761347,0.4433128592442408,5.999998612907707,-0.19553779885973768,11.525639,1.3968072,5.9085426,0.09703239,3.8896766,-3.022215,1.3553358,0.40941405,0.07852094,0.0013824627,0.90896255,-6.6212745,6.16089,-0.29637715,1.0762107,5.4686584,0.12053731,0
1.460000000000001,12.876057681761347,0.4433128592442408,5.999998612907707,-0.19553779885973768,11.525639,1.3968072,5.9085426,0.09703239,3.8235526,-2.960639,1.3525184,0.4082979,0.055545848,0.017277852,0.91099346,-6.6041107,6.155247,-0.26700643,0.9775603,5.551503,0.105027415,0
1.470000000000001,12.876057681761347,0.4433128592442408,5.999998612907707,-0.19553779885973768,11.525639,1.3968072,5.9085426,0.09703239,3.7575815,-2.8990889,1.3499979,0.40694538,0.03199304,0.032905962,0.91229886,-6.5907044,6.155773,-0.23706293,0.8942938,5.621432,0.0902786,0
1.480000000000001,12.99638881804503,0.03434812785619754,5.9999972226352805,-0.1932465353963913,13.526171,1.0198777,5.9801016,0.2385243,3.6917248,-2.8375025,1.3477777,0.40533093,0.007962753,0.04829123,0.91285896,-6.5812473,6.1624575,-0.2069407,0.824012,5.6804576,0.076253496,1
1.490000000000001,12.99638881804503,0.03434812785619754,5.9999972226352805,-0.1932465353963913,13.526171,1.0198777,5.9801016,0.2385243,3.625944,-2.7758155,1.3458905,0.40338606,-0.01635278,0.063659444,0.9126663,-6.5756154,6.175927,-0.17058682,0.8545252,5.727193,0.08421616,1
1.500000000000001,12.99638881804503,0.03434812785619754,5.9999972226352805,-0.1932465353963913,13.526171,1.0198777,5.9801016,0.2385243,3.5601974,-2.7139618,1.3443637,0.40105626,-0.040791642,0.07918969,0.9117121,-6.574347,6.195851,-0.13492453,0.8802812,5.7666397,0.09178811,1
1.5100000000000011,12.99638881804503,0.03434812785619754,5.9999972226352805,-0.1932465353963913,13.526171,1.0198777,5.9801016,0.2385243,3.494442,-2.6518762,1.343188,0.3983421,-0.06531073,0.09483481,0.9099806,-6.5774617,6.2222214,-0.100413315,0.90202206,5.7999344,0.0989885,1
1.5200000000000011,12.762388146538346,-0.4172419328466369,5.038081536873763,-0.2205467020638002,13.323509,0.83153504,4.5127816,0.2021586,3.4286335,-2.5894952,1.3423499,0.39524487,-0.08986971,0.11055251,0.9074598,-6.5849643,6.2549977,-0.06751641,0.9203739,5.8280363,0.105835564,0
1.5300000000000011,12.762388146538346,-0.4172419328466369,5.038081536873763,-0.2205467020638002,13.323509,0.83153504,4.5127816,0.2021586,3.362731,-2.5267653,1.3417941,0.391809,-0.11432298,0.12563048,0.9042307,-6.5961823,6.291862,-0.043966595,0.7118415,5.7048216,0.08981989,0
1.5400000000000011,12.762388146538346,-0.4172419328466369,5.038081536873763,-0.2205467020638002,13.323509,0.83153504,4.5127816,0.2021586,3.2966955,-2.4636385,1.3414626,0.3880815,-0.13855505,0.13950628,0.90040743,-6.611578,6.3343306,-0.022721909,0.53582335,5.600828,0.07459012,0
1.5500000000000012,12.762388146538346,-0.4172419328466369,5.038081536873763,-0.2205467020638002,13.323509,0.83153504,4.5127816,0.2021586,3.230485,-2.400061,1.3413306,0.38406834,-0.1625714,0.15234667,0.89602053,-6.631185,6.382017,-0.0040940344,0.38724974,5.513057,0.06010767,0
1.5600000000000012,12.069999204440547,-0.9410445354549948,0.7939258472019196,-0.3080554022623616,12.648096,-0.44141078,0.32693782,-0.066396296,3.1640573,-2.3359816,1.3413707,0.37977567,-0.18637514,0.16429178,0.89109105,-6.655014,6.4345684,0.011624051,0.26184145,5.4389772,0.046335872,1
1.5700000000000012,12.069999204440547,-0.9410445354549948,0.7939258472019196,-0.3080554022623616,12.648096,-0.44141078,0.32693782,-0.066396296,3.0973718,-2.2713566,1.3415474,0.37552014,-0.20829748,0.17474647,0.8860366,-6.6827364,6.491078,0.023215547,0.15221049,4.6417537,0.04080406,1
1.5800000000000012,12.069999204440547,-0.9410445354549948,0.7939258472019196,-0.3080554022623616,12.648096,-0.44141078,0.32693782,-0.066396296,3.0303903,-2.2061472,1.3418247,0.3716187,-0.22705156,0.18327631,0.88133836,-6.7141013,6.551304,0.03181174,0.059667144,3.9688578,0.035543695,1
1.5900000000000012,12.069999204440547,-0.9410445354549948,0.7939258472019196,-0.3080554022623616,12.648096,-0.44141078,0.32693782,-0.066396296,2.963079,-2.14032,1.342174,0.36806187,-0.2431504,0.19020182,0.87705874,-6.7485924,6.614539,0.037670203,-0.018451322,3.4009006,0.03054146,1
1.6000000000000012,11.594720606259852,-1.2545240581364339,-3.904212988171986,-0.4308350502080992,11.954532,-0.4577469,-4.970661,0.07447172,2.895409,-2.0738482,1.3425695,0.36482805,-0.25702387,0.19578895,0.8732161,-6.785782,6.6802106,0.04106077,-0.084392935,2.9215167,0.025784701,0
1.6100000000000012,11.594720606259852,-1.2545240581364339,-3.904212988171986,-0.4308350502080992,11.954532,-0.4577469,-4.970661,0.07447172,2.8273718,-2.0067375,1.3429463,0.3621827,-0.26768574,0.19934954,0.8703035,-6.8219857,6.742162,0.03403412,-0.26682836,1.8570485,0.003378239,0
1.6200000000000012,11.594720606259852,-1.2545240581364339,-3.904212988171986,-0.4308350502080992,11.954532,-0.4577469,-4.970661,0.07447172,2.7589638,-1.9390014,1.3432455,0.36034912,-0.27438638,0.2003578,0.8687449,-6.8597755,6.805146,0.025647545,-0.42084303,0.9585883,-0.017928727,0
1.6300000000000012,11.594720606259852,-1.2545240581364339,-3.904212988171986,-0.4308350502080992,11.954532,-0.4577469,-4.970661,0.07447172,2.6901724,-1.8706335,1.3434567,0.35922787,-0.277764,0.19922617,0.8683961,-6.8986435,6.8684688,0.016559873,-0.5508607,0.20024595,-0.03819014,0
1.6400000000000012,11.594720606259852,-1.2545240581364339,-3.904212988171986,-0.4308350502080992,12.263799,-0.48501226,-5.947028,-0.16980042,2.6209888,-1.8016331,1.3435762,0.3587172,-0.2783437,0.19629222,0.8690894,-6.93817,6.9315586,0.00734709,-0.6606176,-0.43983126,-0.05745734,0
1.6500000000000012,11.594720606259852,-1.2545240581364339,-3.904212988171986,-0.4308350502080992,12.263799,-0.48501226,-5.947028,-0.16980042,2.5514083,-1.7320049,1.3436049,0.35871953,-0.27655938,0.19183367,0.87065226,-6.9780025,6.993937,-0.0015011025,-0.75326854,-0.9800873,-0.07577911,0
1.6600000000000013,11.594720606259852,-1.2545240581364339,-3.904212988171986,-0.4308350502080992,12.263799,-0.48501226,-5.947028,-0.16980042,2.481429,-1.6617583,1.3435487,0.35914463,-0.27277064,0.1860804,0.87291795,-7.0178413,7.055194,-0.009578888,-0.83147764,-1.4360898,-0.093201794,0
1.6700000000000013,11.594720606259852,-1.2545240581364339,-3.904212988171986,-0.4308350502080992,12.263799,-0.48501226,-5.947028,-0.16980042,2.4110527,-1.5909063,1.343417,0.35991132,-0.26727715,0.17922375,0.8757317,-7.0574274,7.1149726,-0.016558612,-0.8974942,-1.8209785,-0.10976956,0
1.6800000000000013,11.694045605554406,-1.3194122765715572,-5.999992626318093,-0.4787354576724277,12.52625,-0.51770896,-5.775832,-0.22656612,2.3402824,-1.5194651,1.3432223,0.36094794,-0.26032954,0.17142394,0.8789535,-7.096535,7.172958,-0.022183815,-0.9532178,-2.1458442,-0.12552434,1
1.6900000000000013,11.694045605554406,-1.3194122765715572,-5.999992626318093,-0.4787354576724277,12.52625,-0.51770896,-5.775832,-0.22656612,2.2691088,-1.4474317,1.3430164,0.36237016,-0.25136706,0.16281034,0.8826073,-7.138015,7.23335,-0.018685952,-0.8853552,-2.7119412,-0.13048248,1
1.7000000000000013,11.694045605554406,-1.3194122765715572,-5.999992626318093,-0.4787354576724277,12.52625,-0.51770896,-5.775832,-0.22656612,2.1975262,-1.3748071,1.3428552,0.3642427,-0.23994622,0.1534895,0.8866761,-7.1782856,7.291136,-0.013207005,-0.8280713,-3.1897557,-0.13519733,1
1.7100000000000013,11.694045605554406,-1.3194122765715572,-5.999992626318093,-0.4787354576724277,12.52625,-0.51770896,-5.775832,-0.22656612,2.1255488,-1.3016192,1.3427598,0.36643773,-0.22641936,0.1435547,0.8909827,-7.216886,7.3459663,-0.0055106096,-0.7797164,-3.5930548,-0.13968083,1
1.7200000000000013,11.822461384012293,-1.2020994389466118,-5.999997081773971,-0.41572368230949713,13.083027,-0.07851572,-6.157693,-0.4149682,2.0531952,-1.2278991,1.3427532,0.36884552,-0.21108516,0.133085,0.8953686,-7.253409,7.3975167,0.0045445487,-0.73889816,-3.9334593,-0.14394431,0
1.7300000000000013,11.822461384012293,-1.2020994389466118,-5.999997081773971,-0.41572368230949713,13.083027,-0.07851572,-6.157693,-0.4149682,1.9804983,-1.1536949,1.342828,0.37134814,-0.19422185,0.12186451,0.89973766,-7.285585,7.4427786,0.010805535,-0.81120133,-4.2557206,-0.1572806,0
1.7400000000000013,11.822461384012293,-1.2020994389466118,-5.999997081773971,-0.41572368230949713,13.083027,-0.07851572,-6.157693,-0.4149682,1.9074923,-1.0790564,1.342977,0.37385127,-0.17606556,0.10972483,0.90398943,-7.3152137,7.4842987,0.019350447,-0.8722267,-4.527726,-0.16996248,0
1.7500000000000013,11.822461384012293,-1.2020994389466118,-5.999997081773971,-0.41572368230949713,13.083027,-0.07851572,-6.157693,-0.4149682,1.8342036,-1.004023,1.3432226,0.37629965,-0.15679672,0.09679471,0.9079892,-7.3420815,7.521733,0.030114837,-0.92373276,-4.757313,-0.18202208,0
1.7600000000000013,11.999542872179632,-1.0405326260852208,-5.999996349298071,-0.3204155973962299,13.136569,-0.17518902,-6.1908116,-0.26808363,1.7606609,-0.9286369,1.3435863,0.3786457,-0.1365721,0.08318627,0.9116226,-7.3659983,7.5547714,0.04296926,-0.96720374,-4.951096,-0.1934899,0
1.7700000000000014,11.999542872179632,-1.0405326260852208,-5.999996349298071,-0.3204155973962299,13.136569,-0.17518902,-6.1908116,-0.26808363,1.6868927,-0.85294145,1.3440968,0.3808464,-0.115503155,0.069058254,0.91479295,-7.3871036,7.5835648,0.059418324,-0.9786806,-5.114666,-0.19971818,0
1.7800000000000014,11.999542872179632,-1.0405326260852208,-5.999996349298071,-0.3204155973962299,13.136569,-0.17518902,-6.1908116,-0.26808363,1.6129302,-0.77698267,1.3447804,0.38286263,-0.09369004,0.054545216,0.9174221,-7.404875,7.6073856,0.07756184,-0.9883647,-5.252728,-0.20564082,0
1.7900000000000014,11.999542872179632,-1.0405326260852208,-5.999996349298071,-0.3204155973962299,13.136569,-0.17518902,-6.1908116,-0.26808363,1.5388073,-0.70081145,1.3456528,0.38466236,-0.0712462,0.039706632,0.91944677,-7.419165,7.626037,0.09712048,-0.9965354,-5.3692594,-0.21127285,0
1.8000000000000014,12.133138963881862,-0.7263486301413076,-5.829584853765353,-0.19018004434596267,13.971309,0.09369879,-5.739755,-0.57200426,1.4645592,-0.6244803,1.3467265,0.38621908,-0.048272096,0.02459585,0.92081475,-7.429853,7.639351,0.11778085,-1.0034295,-5.467618,-0.2166285,0
1.8100000000000014,12.133138963881862,-0.7263486301413076,-5.829584853765353,-0.19018004434596267,13.971309,0.09369879,-5.739755,-0.57200426,1.3902222,-0.5480428,1.3480177,0.38750055,-0.024871005,0.009403858,0.9214861,-7.4369154,7.647282,0.14053176,-0.9602222,-5.5240736,-0.21533066,0
1.8200000000000014,12.133138963881862,-0.7263486301413076,-5.829584853765353,-0.19018004434596267,13.971309,0.09369879,-5.739755,-0.57200426,1.3158338,-0.47155383,1.3495387,0.3884789,-0.0011340748,-0.0057128295,0.9214393,-7.4401407,7.649621,0.1636827,-0.9237521,-5.571724,-0.21409652,0
1.8300000000000014,12.133138963881862,-0.7263486301413076,-5.829584853765353,-0.19018004434596267,13.971309,0.09369879,-5.739755,-0.57200426,1.2414328,-0.39506963,1.3512915,0.38914067,0.022870777,-0.020755492,0.9206605,-7.439458,7.646341,0.18685259,-0.8929683,-5.6119423,-0.2129229,0
1.8400000000000014,12.133138963881862,-0.7263486301413076,-5.829584853765353,-0.19018004434596267,13.616651,0.47311613,-5.2353177,-0.31113422,1.1670583,-0.31864637,1.3532746,0.38947576,0.047082383,-0.03572311,0.91913867,-7.4348197,7.6374354,0.2096523,-0.8669846,-5.6458874,-0.2118069,0
1.8500000000000014,12.133138963881862,-0.7263486301413076,-5.829584853765353,-0.19018004434596267,13.616651,0.47311613,-5.2353177,-0.31113422,1.0927501,-0.24234024,1.355482,0.38947672,0.07144536,-0.050612744,0.9168652,-7.4261994,7.622917,0.23168737,-0.8450526,-5.6745386,-0.21074566,0
1.8600000000000014,12.133138963881862,-0.7263486301413076,-5.829584853765353,-0.19018004434596267,13.616651,0.47311613,-5.2353177,-0.31113422,1.0185479,-0.1662072,1.3579043,0.3891383,0.095909305,-0.06541987,0.9138342,-7.4135942,7.6028185,0.25256062,-0.82654047,-5.6987214,-0.20973651,0
1.8700000000000014,12.133138963881862,-0.7263486301413076,-5.829584853765353,-0.19018004434596267,13.616651,0.47311613,-5.2353177,-0.31113422,0.94449174,-0.09030285,1.3605279,0.38845715,0.12042808,-0.080138616,0.9100417,-7.3970194,7.577192,0.27187455,-0.8109149,-5.7191324,-0.20877686,0
1.8800000000000014,11.913695534893431,-0.30408646685236745,-3.2559364242918574,-0.07623377365930982,14.00602,0.6146892,-3.7373796,-0.49926662,0.87062097,-0.01468211,1.363335,0.3874312,0.14495926,-0.09476206,0.9054855,-7.376511,7.5461097,0.28923357,-0.79772574,-5.7363596,-0.20786431,0
1.8900000000000015,11.913695534893431,-0.30408646685236745,-3.2559364242918574,-0.07623377365930982,14.00602,0.6146892,-3.7373796,-0.49926662,0.7969726,0.06060423,1.366294,0.38613135,0.16859995,-0.108735055,0.90036285,-7.352594,7.510366,0.3022211,-0.7206681,-5.3495526,-0.20140517,0
1.9000000000000015,11.913695534893431,-0.30408646685236745,-3.2559364242918574,-0.07623377365930982,14.00602,0.6146892,-3.7373796,-0.49926662,0.7235812,0.13550857,1.3693706,0.38465378,0.190649,-0.12162789,0.8949307,-7.325154,7.469781,0.31270474,-0.65563947,-5.0230656,-0.19526298,0
1.9100000000000015,11.913695534893431,-0.30408646685236745,-3.2559364242918574,-0.07623377365930982,14.00602,0.6146892,-3.7373796,-0.49926662,0.6504806,0.20998463,1.3725389,0.3830269,0.21134286,-0.13360287,0.88925517,-7.294473,7.424773,0.3205478,-0.60076183,-4.747492,-0.18942218,0
1.9200000000000015,11.400422134257736,0.14740821718197353,1.1853366927735027,0.005658942317371365,13.629246,0.88916904,-0.03996485,-0.534861,0.577702,0.2839901,1.3757721,0.3812703,0.23088104,-0.1447972,0.88338023,-7.2607985,7.3757067,0.32564476,-0.55445033,-4.5148926,-0.18386799,0
1.9300000000000015,11.400422134257736,0.14740821718197353,1.1853366927735027,0.005658942317371365,13.629246,0.88916904,-0.03996485,-0.534861,0.5052663,0.3574973,1.3790206,0.37961861,0.24793838,-0.15449671,0.87780803,-7.225961,7.3252306,0.323637,-0.4448674,-3.6259604,-0.17456783,0
1.9400000000000015,11.400422134257736,0.14740821718197353,1.1853366927735027,0.005658942317371365,13.629246,0.88916904,-0.03996485,-0.534861,0.4331901,0.43048486,1.3822368,0.3783036,0.26150623,-0.16216023,0.8730434,-7.188992,7.271879,0.31925312,-0.3524003,-2.8756537,-0.16572404,0
1.9500000000000015,11.400422134257736,0.14740821718197353,1.1853366927735027,0.005658942317371365,13.629246,0.88916904,-0.03996485,-0.534861,0.36149216,0.50292724,1.3853989,0.37731743,0.27215853,-0.16812325,0.8690775,-7.1503696,7.216294,0.31288555,-0.27437466,-2.2423546,-0.15731423,0
1.9600000000000015,11.243566764724296,0.5359164914235622,4.749191973343729,0.0014223645622051914,12.106959,1.0692614,2.3889267,-0.29046017,0.29018703,0.57480484,1.3884889,0.37663782,0.2803718,-0.1726643,0.8658652,-7.110482,7.158994,0.30490932,-0.208534,-1.7078158,-0.14931709,0
1.9700000000000015,11.243566764724296,0.5359164914235622,4.749191973343729,0.0014223645622051914,12.106959,1.0692614,2.3889267,-0.29046017,0.21928354,0.6461059,1.3914881,0.37644342,0.2853734,-0.17535593,0.8637723,-7.0701656,7.1011453,0.29465792,-0.094408154,-0.70293283,-0.14211413,0
1.9800000000000015,11.243566764724296,0.5359164914235622,4.749191973343729,0.0014223645622051914,12.106959,1.0692614,2.3889267,-0.29046017,0.14878507,0.7168258,1.3943799,0.37687027,0.2865633,-0.17584899,0.8630917,-7.029496,7.0428066,0.2836463,0.0039687827,0.14731386,-0.13507076,0
1.9900000000000015,11.243566764724296,0.5359164914235622,4.749191973343729,0.0014223645622051914,12.106959,1.0692614,2.3889267,-0.29046017,0.07869348,0.786962,1.3971611,0.3778238,0.28454083,-0.17448668,0.8636203,-6.9888577,6.9844847,0.27265996,0.08698527,0.8649673,-0.12837298,0
2.0000000000000013,,,,,10.936414,1.0550243,5.1124363,-0.14211194,0.009006478,0.85651726,1.3998349,0.37920842,0.27979997,-0.17155306,0.8651487,-6.948634,6.926699,0.26222157,0.1570405,1.4707046,-0.1220039,1
2.010000000000001,,,,,10.936414,1.0550243,5.1124363,-0.14211194,-0.060287178,0.9255071,1.4023968,0.38091487,0.27270564,-0.16704309,0.86754364,-6.9102306,6.871461,0.25034305,0.29712707,2.038619,-0.12299061,1
2.020000000000001,,,,,10.936414,1.0550243,5.1124363,-0.14211194,-0.1292015,0.99395144,1.4048463,0.38284543,0.26356226,-0.16096005,0.8706641,-6.8728027,6.8176455,0.23978192,0.41536072,2.5179694,-0.1239289,1
2.0300000000000007,,,,,10.936414,1.0550243,5.1124363,-0.14211194,-0.19774735,1.0618665,1.4071978,0.38492915,0.25266528,-0.15353209,0.8743098,-6.8365693,6.7656765,0.23082317,0.51515025,2.9225667,-0.12482114,1
2.0400000000000005,,,,,10.936414,1.0550243,5.1124363,-0.14211194,-0.2659377,1.1292727,1.4094689,0.38710174,0.24026306,-0.14495175,0.8783022,-6.8017287,6.715933,0.22366996,0.5993729,3.2640684,-0.12566961,1
2.0500000000000003,,,,,10.942064,1.230995,5.7916694,-0.2433206,-0.33378735,1.196194,1.411678,0.3893061,0.22656585,-0.13538241,0.8824852,-6.7684617,6.6687565,0.21845211,0.6704569,3.5523143,-0.12647644,1
2.06,,,,,10.942064,1.230995,5.7916694,-0.2433206,-0.40131283,1.2626576,1.4138451,0.3915223,0.21154076,-0.124791935,0.88678503,-6.736923,6.624444,0.21529019,0.75791585,3.9015305,-0.13221002,1
2.07,,,,,10.942064,1.230995,5.7916694,-0.2433206,-0.46853244,1.3286941,1.415991,0.3937242,0.19516905,-0.113160916,0.89111435,-6.7073174,6.583372,0.21418451,0.8317325,4.1962876,-0.13766223,1
2.0799999999999996,,,,,10.942064,1.230995,5.7916694,-0.2433206,-0.5354665,1.3943374,1.418136,0.3958571,0.17763694,-0.100636855,0.89532924,-6.6798277,6.545881,0.21512902,0.8940344,4.445078,-0.14284693,1
2.0899999999999994,,,,,11.8776,1.0109917,5.1552014,-0.2222719,-0.6021369,1.459625,1.4203004,0.3978737,0.15910527,-0.08734726,0.8993066,-6.654621,6.512276,0.21805507,0.9466177,4.6550703,-0.14777718,1
2.099999999999999,,,,,11.8776,1.0109917,5.1552014,-0.2222719,-0.6685574,1.5245843,1.4225473,0.3997253,0.13990852,-0.07358452,0.9029011,-6.629897,6.480303,0.23163141,0.9566755,4.733062,-0.1514327,1
2.109999999999999,,,,,11.8776,1.0109917,5.1552014,-0.2222719,-0.7347443,1.5892471,1.4249392,0.40137985,0.12032618,-0.059591275,0.90601575,-6.607921,6.4530134,0.24701042,0.9651635,4.798891,-0.15490878,1
2.1199999999999988,,,,,11.8776,1.0109917,5.1552014,-0.2222719,-0.8007255,1.6536611,1.4274929,0.40282264,0.10041414,-0.04540343,0.9086194,-6.5887823,6.43054,0.2639483,0.9723264,4.8544545,-0.1582143,1
2.1299999999999986,,,,,12.08101,0.59667456,2.8741374,-0.06536268,-0.86652994,1.7178749,1.4302226,0.40404144,0.08022239,-0.031053284,0.91068673,-6.5725565,6.412996,0.28218368,0.9783712,4.9013534,-0.16135763,1
2.1399999999999983,,,,,12.08101,0.59667456,2.8741374,-0.06536268,-0.93218565,1.781937,1.4331502,0.4050029,0.060561046,-0.01709219,0.9121473,-6.559055,6.4002185,0.30344367,0.91879857,4.5852194,-0.15664713,1
2.149999999999998,,,,,12.08101,0.59667456,2.8741374,-0.06536268,-0.99772096,1.8458959,1.436294,0.40571243,0.04208112,-0.0039617033,0.9130229,-6.5484347,6.3923054,0.3254157,0.86852354,4.3183846,-0.15216778,1
2.159999999999998,,,,,12.08101,0.59667456,2.8741374,-0.06536268,-1.0631636,1.9097989,1.4396598,0.40620902,0.024607176,0.008460894,0.91340953,-6.540538,6.3889933,0.34781313,0.8260951,4.0931616,-0.14790823,1
2.1699999999999977,,,,,10.722033,0.43583435,0.35269657,0.2078802,-1.1285405,1.9736906,1.4432508,0.4065223,0.007989457,0.020280344,0.9133806,-6.535226,6.3900504,0.37039378,0.7902885,3.9030607,-0.1438577,1
2.1799999999999975,,,,,10.722033,0.43583435,0.35269657,0.2078802,-1.1938784,2.0376115,1.4469998,0.40667343,-0.0070033446,0.031116825,0.9130165,-6.532667,6.3946495,0.3793789,0.7349215,3.3493967,-0.12659782,1
