time-since-start [s],throttle_mpc,roll_mpc,pitch_mpc,yaw_mpc,throttle_nw,roll_nw,pitch_nw,yaw_nw,position_x [m],position_y [m],position_z [m],rotation_w [quaternion],rotation_x [quaternion],rotation_y [quaternion],rotation_z [quaternion],velocity_x [m/s],velocity_y [m/s],velocity_z [m/s],omega_x [rad/s],omega_y [rad/s],omega_z [rad/s],network_used
0.0,8.814924064065384,0.6389365411432121,-5.999999705342935,-0.06877067930727615,8.920446,-0.06116924,-5.540139,-0.33223674,8.566426,-8.750458,1.0665728,-0.35030165,0.18772222,-0.11978208,-0.9097809,-5.6772547,4.113499,-0.16422896,0.035870906,-0.12164127,0.13128278,0
0.01,8.814924064065384,0.6389365411432121,-5.999999705342935,-0.06877067930727615,10.212406,-0.36074552,-5.2344127,0.23718195,8.509536,-8.709162,1.0648553,-0.35011753,0.18493913,-0.1191879,-0.91049963,-5.700759,4.1454525,-0.17974061,0.09432191,-1.002695,0.124685965,0
0.02,8.814924064065384,0.6389365411432121,-5.999999705342935,-0.06877067930727615,10.212406,-0.36074552,-5.2344127,0.23718195,8.452416,-8.667555,1.062969,-0.35051984,0.1782574,-0.11745934,-0.9119011,-5.722882,4.175923,-0.19769785,0.17536801,-1.7780772,0.115559004,0
0.03,8.814924064065384,0.6389365411432121,-5.999999705342935,-0.06877067930727615,10.212406,-0.36074552,-5.2344127,0.23718195,8.395082,-8.625647,1.0609028,-0.35142595,0.1681619,-0.1148124,-0.9138051,-5.743784,4.205477,-0.21542585,0.24769686,-2.4364798,0.1065139,0
0.04,8.814924064065384,0.6389365411432121,-5.999999705342935,-0.06877067930727615,10.711383,-0.27169028,-5.659857,0.028413149,8.337546,-8.583448,1.0586631,-0.35272315,0.155162,-0.111380465,-0.9160272,-5.7631,4.2339344,-0.23236601,0.3087324,-2.992206,0.09791264,0
0.05,8.814924064065384,0.6389365411432121,-5.999999705342935,-0.06877067930727615,10.711383,-0.27169028,-5.659857,0.028413149,8.279826,-8.540973,1.0562587,-0.35430735,0.13969141,-0.10727241,-0.91839296,-5.780428,4.261011,-0.24839145,0.36023903,-3.4612682,0.089733444,0
0.060000000000000005,8.814924064065384,0.6389365411432121,-5.999999705342935,-0.06877067930727615,10.711383,-0.27169028,-5.659857,0.028413149,8.221946,-8.498234,1.0536987,-0.35608575,0.122117795,-0.10257956,-0.92074317,-5.795418,4.2864566,-0.26344135,0.40370542,-3.8571815,0.08195559,0
0.07,8.814924064065384,0.6389365411432121,-5.999999705342935,-0.06877067930727615,10.711383,-0.27169028,-5.659857,0.028413149,8.163928,-8.45525,1.0509931,-0.3579767,0.102754645,-0.09737928,-0.9229365,-5.8077674,4.310044,-0.27751505,0.44038722,-4.191353,0.07455942,0
0.08,10.047585086880215,0.522978168224163,-5.999999712105257,-0.07322369656156279,10.871916,0.07874814,-5.409217,-0.14208424,8.105801,-8.412041,1.0481516,-0.35990942,0.08187076,-0.0917377,-0.9248497,-5.8172164,4.331571,-0.29066536,0.47134423,-4.473411,0.06752618,0
0.09,10.047585086880215,0.522978168224163,-5.999999712105257,-0.07322369656156279,10.871916,0.07874814,-5.409217,-0.14208424,8.04759,-8.368613,1.0452427,-0.3618199,0.059714653,-0.08566883,-0.92638093,-5.8244276,4.353552,-0.29099736,0.47938582,-4.7114835,0.06061954,0
0.09999999999999999,10.047585086880215,0.522978168224163,-5.999999712105257,-0.07322369656156279,10.871916,0.07874814,-5.409217,-0.14208424,7.9893255,-8.32498,1.0423344,-0.36365506,0.03650046,-0.07918814,-0.92744386,-5.8278756,4.3727813,-0.2905483,0.486171,-4.912429,0.054051813,0
0.10999999999999999,10.047585086880215,0.522978168224163,-5.999999712105257,-0.07322369656156279,10.871916,0.07874814,-5.409217,-0.14208424,7.9310455,-8.281167,1.0394337,-0.36537305,0.012398284,-0.072351,-0.9279625,-5.827396,4.3890843,-0.28951514,0.49189645,-5.0820365,0.047806375,0
0.11999999999999998,10.047585086880215,0.522978168224163,-5.999999712105257,-0.07322369656156279,10.871916,0.07874814,-5.409217,-0.14208424,7.872791,-8.237208,1.0365454,-0.36693826,-0.0124431,-0.06520586,-0.92787385,-5.822855,4.402311,-0.28812775,0.4967279,-5.225194,0.04186739,0
0.12999999999999998,12.535415176613,0.2023873699302115,-5.999999425025742,-0.019353345287434185,10.914498,-0.32632628,-5.259955,0.17150567,7.8146024,-8.193132,1.0336715,-0.36832055,-0.037892975,-0.057795268,-0.92712677,-5.8141537,4.4123306,-0.28664324,0.5008053,-5.3460264,0.03621984,0
0.13999999999999999,12.535415176613,0.2023873699302115,-5.999999425025742,-0.019353345287434185,10.914498,-0.32632628,-5.259955,0.17150567,7.7565374,-8.148964,1.0309349,-0.36949444,-0.063789085,-0.050037667,-0.92568964,-5.798023,4.4206905,-0.26072705,0.45425993,-5.448015,0.03349285,0
0.15,12.535415176613,0.2023873699302115,-5.999999425025742,-0.019353345287434185,10.914498,-0.32632628,-5.259955,0.17150567,7.6986604,-8.104733,1.0284549,-0.37044176,-0.08999192,-0.041872095,-0.92353743,-5.7765994,4.4247656,-0.23539941,0.414973,-5.534098,0.030899666,0
0.16,13.567956447251149,-0.120711366655419,-5.99999894760777,0.02191649602762136,12.132813,-0.17995211,-3.3701952,0.10509594,7.641023,-8.060484,1.0262237,-0.3711484,-0.11642361,-0.03336192,-0.92064196,-5.7499013,4.4244337,-0.21103741,0.38181275,-5.606756,0.02843372,0
0.17,13.567956447251149,-0.120711366655419,-5.99999894760777,0.02191649602762136,12.132813,-0.17995211,-3.3701952,0.10509594,7.5836926,-8.016262,1.0242794,-0.3716136,-0.14296618,-0.024442885,-0.91698796,-5.7153482,4.419198,-0.17805333,0.3034444,-5.6680837,0.02811392,0
0.18000000000000002,13.567956447251149,-0.120711366655419,-5.99999894760777,0.02191649602762136,12.132813,-0.17995211,-3.3701952,0.10509594,7.5267353,-7.972117,1.0226558,-0.37183923,-0.16951826,-0.015069048,-0.9125637,-5.6752505,4.40898,-0.14695576,0.2372974,-5.7198467,0.027809812,0
0.19000000000000003,13.567956447251149,-0.120711366655419,-5.99999894760777,0.02191649602762136,12.132813,-0.17995211,-3.3701952,0.10509594,7.4702063,-7.928099,1.0213321,-0.3718166,-0.19603558,-0.005316954,-0.9073558,-5.62975,4.3936987,-0.11816865,0.181466,-5.7635374,0.027520636,0
0.20000000000000004,13.598172907856005,-0.3454050045330899,-5.332816310262168,0.04309741855017014,11.355613,-0.3563569,-0.5630308,0.22098318,7.4141583,-7.88426,1.020283,-0.3715375,-0.22247678,0.004747009,-0.90135556,-5.5790067,4.3733087,-0.09211751,0.1343411,-5.800414,0.02724565,0
0.21000000000000005,13.598172907856005,-0.3454050045330899,-5.332816310262168,0.04309741855017014,11.355613,-0.3563569,-0.5630308,0.22098318,7.3586435,-7.840651,1.0194803,-0.3710168,-0.24853088,0.015047426,-0.8946245,-5.5230894,4.347748,-0.06894853,0.059526503,-5.727494,0.028023487,0
0.22000000000000006,13.598172907856005,-0.3454050045330899,-5.332816310262168,0.04309741855017014,11.355613,-0.3563569,-0.5630308,0.22098318,7.3037124,-7.797323,1.0188919,-0.37027848,-0.2739533,0.025519934,-0.8872388,-5.462396,4.3171244,-0.04929936,-0.003620808,-5.665945,0.028763173,0
0.23000000000000007,13.598172907856005,-0.3454050045330899,-5.332816310262168,0.04309741855017014,11.355613,-0.3563569,-0.5630308,0.22098318,7.2494106,-7.7543263,1.018481,-0.3693262,-0.298797,0.036125883,-0.87921214,-5.397233,4.2815313,-0.033499207,-0.056920286,-5.613995,0.029466566,0
0.24000000000000007,13.598172907856005,-0.3454050045330899,-5.332816310262168,0.04309741855017014,10.59926,-0.3970015,3.404458,0.013385301,7.1957817,-7.7117095,1.0182076,-0.36816147,-0.32310447,0.046831746,-0.8705562,-5.327896,4.2410755,-0.021862224,-0.101907745,-5.5701466,0.030135434,0
0.25000000000000006,13.598172907856005,-0.3454050045330899,-5.332816310262168,0.04309741855017014,10.59926,-0.3970015,3.404458,0.013385301,7.1428657,-7.6695213,1.0180284,-0.36678421,-0.34690925,0.057608254,-0.8612811,-5.254676,4.195878,-0.01468824,-0.1398795,-5.533136,0.030771488,0
0.26000000000000006,13.598172907856005,-0.3454050045330899,-5.332816310262168,0.04309741855017014,10.59926,-0.3970015,3.404458,0.013385301,7.0907,-7.627808,1.0178974,-0.3651936,-0.37023744,0.06842975,-0.85139644,-5.1778593,4.1460733,-0.012263018,-0.17192964,-5.501897,0.03137632,0
0.2700000000000001,13.598172907856005,-0.3454050045330899,-5.332816310262168,0.04309741855017014,10.59926,-0.3970015,3.404458,0.013385301,7.03932,-7.5866156,1.0177658,-0.36338806,-0.39310876,0.079273574,-0.84091085,-5.097729,4.091808,-0.014858316,-0.1989817,-5.4755297,0.031951487,0
0.2800000000000001,12.48190307218418,-0.5139110487435072,-0.1769989930952232,0.08811863173483944,11.373216,-0.350085,5.081874,-0.1835914,6.988756,-7.545987,1.017582,-0.3613658,-0.41553757,0.09011959,-0.82983285,-5.0145683,4.033241,-0.022731688,-0.22181493,-5.4532743,0.032498427,0
0.2900000000000001,12.48190307218418,-0.5139110487435072,-0.1769989930952232,0.08811863173483944,11.373216,-0.350085,5.081874,-0.1835914,6.9390025,-7.5059395,1.0172572,-0.35935488,-0.43581972,0.10026718,-0.8190681,-4.9357553,3.9757454,-0.04298995,-0.26737618,-4.6304436,0.03522772,0
0.3000000000000001,12.48190307218418,-0.5139110487435072,-0.1769989930952232,0.08811863173483944,11.373216,-0.350085,5.081874,-0.1835914,6.8900476,-7.466483,1.0167066,-0.35760722,-0.4526878,0.109177805,-0.8094886,-4.854995,3.9150288,-0.06781855,-0.30583245,-3.9359329,0.037823103,0
0.3100000000000001,12.48190307218418,-0.5139110487435072,-0.1769989930952232,0.08811863173483944,11.373216,-0.350085,5.081874,-0.1835914,6.841908,-7.4276476,1.0158871,-0.35613632,-0.46672654,0.11705205,-0.80101985,-4.772787,3.8516128,-0.096647836,-0.33829135,-3.3497305,0.04029111,0
0.3200000000000001,11.774850784271539,-0.5907357400662843,5.999995257659472,0.14459559914330614,9.888317,-1.3831395,6.2820406,-0.832743,6.7945957,-7.389458,1.0147617,-0.35493836,-0.47841674,0.12405774,-0.79356575,-4.689519,3.7859123,-0.12895708,-0.3656879,-2.854946,0.042638022,0
0.3300000000000001,11.774850784271539,-0.5907357400662843,5.999995257659472,0.14459559914330614,9.888317,-1.3831395,6.2820406,-0.832743,6.748114,-7.35193,1.0132931,-0.35432371,-0.4862945,0.12955701,-0.78815484,-4.6077824,3.720133,-0.16584118,-0.41004047,-1.5115571,0.04681148,0
0.34000000000000014,11.774850784271539,-0.5907357400662843,5.999995257659472,0.14459559914330614,9.888317,-1.3831395,6.2820406,-0.832743,6.702433,-7.315053,1.0114335,-0.35456958,-0.489092,0.13295992,-0.7857428,-4.52832,3.6551573,-0.20624888,-0.43825397,-0.34013698,0.051609766,0
0.35000000000000014,11.774850784271539,-0.5907357400662843,5.999995257659472,0.14459559914330614,9.888317,-1.3831395,6.2820406,-0.832743,6.657547,-7.2788286,1.0091667,-0.35557118,-0.4875989,0.13456379,-0.7859451,-4.4490514,3.5895677,-0.2470848,-0.4620684,0.64860106,0.056172606,0
0.36000000000000015,9.415336562186749,-0.9498303871539102,5.999999839930307,-0.4190958161483649,9.33962,-2.2283988,6.4094477,-1.0346799,6.613451,-7.243262,1.0064938,-0.3572132,-0.4824795,0.13464484,-0.78834236,-4.370322,3.5238564,-0.28731954,-0.48216864,1.483146,0.06051155,0
0.37000000000000016,9.415336562186749,-0.9498303871539102,5.999999839930307,-0.4190958161483649,9.33962,-2.2283988,6.4094477,-1.0346799,6.5700626,-7.2082872,1.0033681,-0.3594867,-0.4742499,0.13350098,-0.79248625,-4.3077116,3.4712684,-0.3377286,-0.550097,2.1825538,0.0374406,0
0.38000000000000017,9.415336562186749,-0.9498303871539102,5.999999839930307,-0.4190958161483649,9.33962,-2.2283988,6.4094477,-1.0346799,6.527293,-7.1738343,0.9997446,-0.3623955,-0.4632889,0.13138628,-0.7979794,-4.2463636,3.419474,-0.3866536,-0.6124095,2.7778897,0.015038222,0
0.3900000000000002,9.415336562186749,-0.9498303871539102,5.999999839930307,-0.4190958161483649,9.33962,-2.2283988,6.4094477,-1.0346799,6.4851317,-7.1398954,0.9956426,-0.3658107,-0.44995984,0.12843084,-0.80450284,-4.1861935,3.3684375,-0.43338174,-0.66498977,3.280385,-0.006264855,0
0.4000000000000002,9.515087821222547,-1.115225766867532,5.999999905125905,-0.8586744752568117,8.451023,-2.20491,6.0361743,-1.5665709,6.443565,-7.1064625,0.9910858,-0.36961284,-0.4345708,0.12474195,-0.81177247,-4.127445,3.3183944,-0.47755274,-0.7093601,3.704517,-0.026522586,0
0.4100000000000002,9.515087821222547,-1.115225766867532,5.999999905125905,-0.8586744752568117,8.451023,-2.20491,6.0361743,-1.5665709,6.4025803,-7.073527,0.9861043,-0.3737686,-0.41736326,0.12044103,-0.81951165,-4.069755,3.269054,-0.5182949,-0.7725409,4.0625176,-0.06735652,0
0.4200000000000002,9.515087821222547,-1.115225766867532,5.999999905125905,-0.8586744752568117,8.451023,-2.20491,6.0361743,-1.5665709,6.3621635,-7.0410776,0.9807305,-0.37824774,-0.39854395,0.11562838,-0.82747924,-4.0139956,3.2211583,-0.5559855,-0.82585925,4.36469,-0.10618672,0
0.4300000000000002,9.515087821222547,-1.115225766867532,5.999999905125905,-0.8586744752568117,8.451023,-2.20491,6.0361743,-1.5665709,6.3222933,-7.0090985,0.97499555,-0.3829557,-0.3783078,0.11036061,-0.8354934,-3.9604146,3.1749136,-0.5905029,-0.87085736,4.6197395,-0.14311151,0
0.4400000000000002,9.515087821222547,-1.115225766867532,5.999999905125905,-0.8586744752568117,9.401697,-1.9487333,5.965264,-2.0319474,6.2829466,-6.977573,0.96893156,-0.3878105,-0.3568236,0.104687564,-0.84339845,-3.909251,3.1305242,-0.62179035,-0.9088361,4.835015,-0.17822441,0
0.45000000000000023,9.515087821222547,-1.115225766867532,5.999999905125905,-0.8586744752568117,9.401697,-1.9487333,5.965264,-2.0319474,6.244099,-6.946481,0.96257085,-0.39274114,-0.33423895,0.09865352,-0.85106206,-3.8607342,3.0881894,-0.64984894,-0.9408924,5.0167174,-0.2116143,0
0.46000000000000024,9.515087821222547,-1.115225766867532,5.999999905125905,-0.8586744752568117,9.401697,-1.9487333,5.965264,-2.0319474,6.2057223,-6.9158015,0.95594555,-0.3976862,-0.31068373,0.0922981,-0.85837215,-3.8150816,3.0481043,-0.6747311,-0.9679515,5.170083,-0.24336572,0
0.47000000000000025,9.515087821222547,-1.115225766867532,5.999999905125905,-0.8586744752568117,9.401697,-1.9487333,5.965264,-2.0319474,6.167787,-6.8855104,0.94908684,-0.40259266,-0.28627288,0.085657045,-0.8652342,-3.7724984,3.010458,-0.6965347,-0.9907942,5.299531,-0.27355912,0
0.48000000000000026,11.700079856965168,-0.696620234078659,5.999999902627703,-0.34989146839660096,10.20181,-2.2709954,6.127777,-1.9163113,6.130261,-6.855583,0.94202495,-0.40741456,-0.26110905,0.07876277,-0.8715688,-3.7331758,2.9754312,-0.71539795,-1.0100784,5.408791,-0.3022709,0
0.49000000000000027,11.700079856965168,-0.696620234078659,5.999999902627703,-0.34989146839660096,10.20181,-2.2709954,6.127777,-1.9163113,6.093153,-6.82603,0.9348821,-0.41201523,-0.2353481,0.07151465,-0.87734866,-3.6890416,2.9357996,-0.7126643,-0.9611683,5.5009813,-0.30460766,0
0.5000000000000002,11.700079856965168,-0.696620234078659,5.999999902627703,-0.34989146839660096,10.20181,-2.2709954,6.127777,-1.9163113,6.056465,-6.7968545,0.92778254,-0.41628113,-0.20912485,0.06383602,-0.8825543,-3.6492794,2.8998415,-0.7067846,-0.9198887,5.578796,-0.30682975,0
0.5100000000000002,11.700079856965168,-0.696620234078659,5.999999902627703,-0.34989146839660096,10.20181,-2.2709954,6.127777,-1.9163113,6.0201516,-6.7680197,0.9207563,-0.4202061,-0.18249796,0.05578753,-0.88713545,-3.6140146,2.8677826,-0.6980467,-0.88504916,5.644477,-0.3089428,0
0.5200000000000002,14.587635337402094,-0.23580928172620094,5.999999854566676,0.08230796836542661,12.590067,-2.2957861,6.382128,-1.293237,5.984168,-6.7394853,0.91383034,-0.42378396,-0.15552177,0.0474225,-0.8910508,-3.583361,2.839824,-0.6867652,-0.85564524,5.699916,-0.31095213,0
0.5300000000000002,14.587635337402094,-0.23580928172620094,5.999999854566676,0.08230796836542661,12.590067,-2.2957861,6.382128,-1.293237,5.948501,-6.711239,0.9071659,-0.4269342,-0.12832274,0.0386315,-0.8942977,-3.551004,2.8103073,-0.6457389,-0.7590449,5.7466846,-0.29165477,0
0.5400000000000003,14.587635337402094,-0.23580928172620094,5.999999854566676,0.08230796836542661,12.590067,-2.2957861,6.382128,-1.293237,5.913128,-6.68326,0.90092355,-0.42959183,-0.10100935,0.029330974,-0.8968768,-3.5245514,2.7863755,-0.60241103,-0.6775083,5.786165,-0.2733043,0
0.5500000000000003,14.587635337402094,-0.23580928172620094,5.999999854566676,0.08230796836542661,12.590067,-2.2957861,6.382128,-1.293237,5.87799,-6.6554914,0.895124,-0.4317712,-0.0736057,0.019600272,-0.8987614,-3.5040176,2.768248,-0.557249,-0.6086857,5.819494,-0.2558543,0
0.5600000000000003,17.066807873913188,0.0911803415105532,5.999999660913374,0.23285142028775016,16.536285,-1.1129327,6.250843,-0.80887717,5.843027,-6.627875,0.88978326,-0.43348336,-0.046136186,0.009508412,-0.89992976,-3.489407,2.7561057,-0.51073474,-0.55059433,5.8476276,-0.23926061,0
0.5700000000000003,17.066807873913188,0.0911803415105532,5.999999660913374,0.23285142028775016,16.536285,-1.1129327,6.250843,-0.80887717,5.8081894,-6.600354,0.8850359,-0.43471548,-0.018682094,-0.0010014407,-0.90037364,-3.4792273,2.749076,-0.43863875,-0.4505948,5.8713675,-0.21609391,0
0.5800000000000003,17.066807873913188,0.0911803415105532,5.999999660913374,0.23285142028775016,16.536285,-1.1129327,6.250843,-0.80887717,5.7734194,-6.572868,0.88101196,-0.43545955,0.0086864885,-0.011969845,-0.90008694,-3.4758873,2.7493892,-0.3661268,-0.36618704,5.891411,-0.19406404,0
0.5900000000000003,17.066807873913188,0.0911803415105532,5.999999660913374,0.23285142028775016,16.536285,-1.1129327,6.250843,-0.80887717,5.7386484,-6.5453405,0.8777127,-0.4357293,0.03596014,-0.023318289,-0.899057,-3.4792895,2.7571774,-0.2937938,-0.29493946,5.9083323,-0.17311516,0
0.6000000000000003,17.479785528587747,0.3088716881542427,5.999999262758626,0.3059792911859299,18.032726,-0.11260843,6.147818,-0.11189116,5.7038107,-6.5176983,0.87513345,-0.43553543,0.06312712,-0.034978494,-0.897274,-3.4893286,2.7725263,-0.22223759,-0.23479971,5.922618,-0.15319426,1
0.6100000000000003,17.479785528587747,0.3088716881542427,5.999999262758626,0.3059792911859299,18.032726,-0.11260843,6.147818,-0.11189116,5.6688347,-6.489858,0.8733109,-0.43491897,0.09021081,-0.04681484,-0.8947157,-3.5068316,2.7967725,-0.14253226,-0.21575063,5.934683,-0.15116751,1
0.6200000000000003,17.479785528587747,0.3088716881542427,5.999999262758626,0.3059792911859299,18.032726,-0.11260843,6.147818,-0.11189116,5.63365,-6.4617357,0.8722756,-0.43391523,0.117226,-0.0587133,-0.89136344,-3.5311308,2.8290212,-0.064909406,-0.19967222,5.944867,-0.14924021,1
0.6300000000000003,17.479785528587747,0.3088716881542427,5.999999262758626,0.3059792911859299,18.032726,-0.11260843,6.147818,-0.11189116,5.598189,-6.4332504,0.87200344,-0.432525,0.14414655,-0.070647135,-0.88721657,-3.5621157,2.8692014,0.0100062005,-0.18610106,5.953464,-0.14740752,1
0.6400000000000003,17.479785528587747,0.3088716881542427,5.999999262758626,0.3059792911859299,17.846384,0.28794628,6.24797,-0.1555056,5.562385,-6.4043245,0.87246424,-0.43074918,0.17094663,-0.082592055,-0.88227624,-3.599654,2.9172087,0.08159733,-0.1746461,5.9607196,-0.14566472,1
0.6500000000000004,17.479785528587747,0.3088716881542427,5.999999262758626,0.3059792911859299,17.846384,0.28794628,6.24797,-0.1555056,5.5261765,-6.374882,0.87361324,-0.42862254,0.19753222,-0.094666004,-0.87652874,-3.6431277,2.9723375,0.1475441,-0.102502674,5.9668384,-0.14614762,1
0.6600000000000004,17.479785528587747,0.3088716881542427,5.999999262758626,0.3059792911859299,17.846384,0.28794628,6.24797,-0.1555056,5.489503,-6.3448515,0.87539977,-0.42617878,0.22382452,-0.1069581,-0.8699625,-3.6926832,3.0349689,0.2090123,-0.041610077,5.9720044,-0.1466068,1
0.6700000000000004,17.479785528587747,0.3088716881542427,5.999999262758626,0.3059792911859299,17.846384,0.28794628,6.24797,-0.1555056,5.452304,-6.314158,0.87777615,-0.4234167,0.24981864,-0.11940809,-0.862584,-3.74805,3.1049643,0.26542974,0.009786115,5.976365,-0.14704347,1
0.6800000000000004,17.05445194524344,0.452657725981214,5.999993781129147,0.3916255585446345,17.65361,0.762332,6.4843874,0.17957069,5.414523,-6.2827277,0.8806891,-0.42033467,0.27550703,-0.13196331,-0.8544009,-3.8089478,3.1821468,0.31624168,0.05316712,5.9800467,-0.1474587,1
0.6900000000000004,17.05445194524344,0.452657725981214,5.999993781129147,0.3916255585446345,17.65361,0.762332,6.4843874,0.17957069,5.3761106,-6.250495,0.8840721,-0.41694948,0.30079466,-0.14475082,-0.8454132,-3.8743613,3.265403,0.35937098,0.16369851,5.9831495,-0.13141127,1
0.7000000000000004,17.05445194524344,0.452657725981214,5.999993781129147,0.3916255585446345,17.65361,0.762332,6.4843874,0.17957069,5.3370194,-6.2173967,0.8878539,-0.41327503,0.3256015,-0.15786801,-0.83562297,-3.9445748,3.3553824,0.3959188,0.25699574,5.9857717,-0.1161513,1
0.7100000000000004,17.05445194524344,0.452657725981214,5.999993781129147,0.3916255585446345,17.65361,0.762332,6.4843874,0.17957069,5.297204,-6.1833653,0.89196616,-0.40930495,0.349937,-0.17123139,-0.82504183,-4.0191946,3.4518754,0.42540085,0.33574626,5.9879875,-0.10164013,1
0.7200000000000004,15.210330121208564,0.6126171456760731,2.2775701428926327,0.4754291817123904,17.847702,0.7172882,5.8666472,0.42793974,5.2566214,-6.1483374,0.896336,-0.40503308,0.37380576,-0.18476859,-0.81368214,-4.0978312,3.5546317,0.44735736,0.40221822,5.9898605,-0.08784102,0
0.7300000000000004,15.210330121208564,0.6126171456760731,2.2775701428926327,0.4754291817123904,17.847702,0.7172882,5.8666472,0.42793974,5.215291,-6.112326,0.9008077,-0.40069494,0.39603066,-0.19778648,-0.8021748,-4.1686797,3.6482606,0.44591925,0.4348987,5.4109373,-0.060201183,0
0.7400000000000004,15.210330121208564,0.6126171456760731,2.2775701428926327,0.4754291817123904,17.847702,0.7172882,5.8666472,0.42793974,5.173239,-6.0753555,0.9052317,-0.39653695,0.41573915,-0.20976497,-0.7911503,-4.242084,3.7463813,0.4379,0.4625099,4.9222975,-0.033917632,0
0.7500000000000004,15.210330121208564,0.6126171456760731,2.2775701428926327,0.4754291817123904,17.847702,0.7172882,5.8666472,0.42793974,5.1304426,-6.0373845,0.9095442,-0.39255744,0.43333673,-0.22087726,-0.78059715,-4.317533,3.8483903,0.42366213,0.48583603,4.509861,-0.00892384,0
0.7600000000000005,13.8947749682176,0.5948103356803502,-3.1070909375019844,0.5766513033966726,15.960517,1.2408922,-0.42910874,0.6517452,5.086883,-5.9983764,0.91368484,-0.38874483,0.4491603,-0.23126733,-0.77048594,-4.39461,3.9537919,0.403547,0.50554055,4.1617436,0.014843507,0
0.7700000000000005,13.8947749682176,0.5948103356803502,-3.1070909375019844,0.5766513033966726,15.960517,1.2408922,-0.42910874,0.6517452,5.04258,-5.9583454,0.9175647,-0.38558468,0.46184835,-0.24022624,-0.76178247,-4.466157,4.0527515,0.37172124,0.5194177,3.0281825,0.042411588,0
0.7800000000000005,13.8947749682176,0.5948103356803502,-3.1070909375019844,0.5766513033966726,15.960517,1.2408922,-0.42910874,0.6517452,4.9975576,-5.917314,0.92110574,-0.3835084,0.47039348,-0.24722642,-0.755335,-4.538355,4.1537676,0.33598047,0.5311652,2.0713992,0.06862689,0
0.7900000000000005,13.8947749682176,0.5948103356803502,-3.1070909375019844,0.5766513033966726,15.960517,1.2408922,-0.42910874,0.6517452,4.9518127,-5.875264,0.92427486,-0.38240197,0.4755048,-0.25260985,-0.7509013,-4.6107664,4.256282,0.29749104,0.5411055,1.2638257,0.0935558,0
0.8000000000000005,13.040339284440117,0.5357744255555963,-5.999998865604958,0.562985860970889,14.288948,1.3115952,-5.3501263,0.5034287,4.9053435,-5.8321843,0.92704964,-0.38214412,0.47775367,-0.25665188,-0.7482297,-4.6830554,4.359872,0.2572677,0.5495125,0.58219254,0.11726145,0
0.8100000000000005,13.040339284440117,0.5357744255555963,-5.999998865604958,0.562985860970889,14.288948,1.3115952,-5.3501263,0.5034287,4.8581753,-5.788097,0.92939985,-0.38290378,0.47674668,-0.2591142,-0.7476347,-4.75052,4.457769,0.21273762,0.54745394,-0.44428888,0.13913326,0
0.8200000000000005,13.040339284440117,0.5357744255555963,-5.999998865604958,0.562985860970889,14.288948,1.3115952,-5.3501263,0.5034287,4.8103356,-5.743028,0.93130565,-0.38479546,0.47217703,-0.25980783,-0.7493208,-4.8172965,4.555942,0.16856147,0.5457282,-1.3106917,0.15993182,0
0.8300000000000005,13.040339284440117,0.5357744255555963,-5.999998865604958,0.562985860970889,14.288948,1.3115952,-5.3501263,0.5034287,4.7618327,-5.696978,0.9327759,-0.38762194,0.46457264,-0.2589961,-0.7528898,-4.883084,4.654002,0.1257852,0.54427785,-2.0419798,0.17970979,0
0.8400000000000005,13.040339284440117,0.5357744255555963,-5.999998865604958,0.562985860970889,13.306506,1.3318702,-5.9167414,0.5609088,4.712678,-5.6499496,0.9338292,-0.3911997,0.45436075,-0.25689104,-0.7579754,-4.947608,4.751595,0.08527508,0.54305595,-2.6592245,0.19851726,1
0.8500000000000005,13.040339284440117,0.5357744255555963,-5.999998865604958,0.562985860970889,13.306506,1.3318702,-5.9167414,0.5609088,4.6628795,-5.601939,0.93449783,-0.39549726,0.44179183,-0.2539203,-0.7641512,-5.011876,4.850368,0.048970375,0.6661731,-3.167209,0.21629992,1
0.8600000000000005,13.040339284440117,0.5357744255555963,-5.999998865604958,0.562985860970889,13.306506,1.3318702,-5.9167414,0.5609088,4.6124477,-5.552946,0.934821,-0.40046826,0.4270758,-0.25042984,-0.77104926,-5.0742087,4.948064,0.016253132,0.77008814,-3.595974,0.23320997,1
0.8700000000000006,13.040339284440117,0.5357744255555963,-5.999998865604958,0.562985860970889,13.306506,1.3318702,-5.9167414,0.5609088,4.5614038,-5.502982,0.93483675,-0.40593815,0.41048285,-0.24646863,-0.77844197,-5.1342316,5.044428,-0.012452395,0.8577939,-3.9578743,0.24929024,1
0.8800000000000006,12.498215097428321,0.5494067927613006,-5.999999669431545,0.37621562809447257,12.092357,1.1222337,-6.308525,0.75876033,4.5097723,-5.4520626,0.9345868,-0.4117562,0.39224288,-0.2420768,-0.78613096,-5.191591,5.1391892,-0.036835764,0.9318179,-4.263337,0.26458147,1
0.8900000000000006,12.498215097428321,0.5494067927613006,-5.999999669431545,0.37621562809447257,12.092357,1.1222337,-6.308525,0.75876033,4.4576073,-5.400247,0.9340802,-0.41774926,0.3725559,-0.23721749,-0.7939876,-5.2409935,5.223587,-0.06382602,0.96163106,-4.534148,0.288831,1
0.9000000000000006,12.498215097428321,0.5494067927613006,-5.999999669431545,0.37621562809447257,12.092357,1.1222337,-6.308525,0.75876033,4.4049625,-5.3475976,0.9333248,-0.42377022,0.35159442,-0.23186325,-0.80189794,-5.2874055,5.3059797,-0.086578034,0.98679125,-4.7627277,0.31189057,1
0.9100000000000006,12.498215097428321,0.5494067927613006,-5.999999669431545,0.37621562809447257,12.092357,1.1222337,-6.308525,0.75876033,4.35187,-5.2941356,0.93236333,-0.4297342,0.32950664,-0.22605845,-0.80972356,-5.330576,5.386071,-0.10504531,1.0080233,-4.955661,0.33381858,1
0.9200000000000006,12.77809263820022,0.2879063833735834,-5.999999700487225,0.37600734383163525,12.263664,0.46958503,-6.35336,0.56746167,4.2983627,-5.2398853,0.9312385,-0.4355688,0.30642316,-0.21984176,-0.8173464,-5.3702693,5.4635663,-0.119249426,1.0259389,-5.118507,0.35467064,1
0.9300000000000006,12.77809263820022,0.2879063833735834,-5.999999700487225,0.37600734383163525,12.263664,0.46958503,-6.35336,0.56746167,4.244474,-5.184869,0.9299988,-0.4411542,0.2825796,-0.21302606,-0.8247135,-5.406783,5.539224,-0.12802354,0.9392432,-5.255989,0.36511236,1
0.9400000000000006,12.77809263820022,0.2879063833735834,-5.999999700487225,0.37600734383163525,12.263664,0.46958503,-6.35336,0.56746167,4.19024,-5.129112,0.9286921,-0.44640377,0.25817758,-0.20546472,-0.83177704,-5.439426,5.611612,-0.13268413,0.8660624,-5.3720293,0.37504172,1
0.9500000000000006,12.77809263820022,0.2879063833735834,-5.999999700487225,0.37600734383163525,12.263664,0.46958503,-6.35336,0.56746167,4.135699,-5.072649,0.9273586,-0.45130384,0.2332802,-0.19724512,-0.83845115,-5.4680953,5.680396,-0.13340367,0.8042894,-5.4699707,0.38448384,1
0.9600000000000006,14.087752609396961,-0.140815202096073,-5.999999502166805,0.4098592584498903,13.470161,0.038391896,-6.2016253,0.19157892,4.0808916,-5.015517,0.9260368,-0.45584133,0.20794536,-0.18844351,-0.84466404,-5.4926944,5.7452683,-0.13039678,0.7521455,-5.5526376,0.39346263,1
0.9700000000000006,14.087752609396961,-0.140815202096073,-5.999999502166805,0.4098592584498903,13.470161,0.038391896,-6.2016253,0.19157892,4.025849,-4.9577274,0.9248138,-0.4600092,0.18231423,-0.17897123,-0.8503666,-5.5151515,5.8119035,-0.11362535,0.64081776,-5.6224356,0.38355616,1
0.9800000000000006,14.087752609396961,-0.140815202096073,-5.999999502166805,0.4098592584498903,13.470161,0.038391896,-6.2016253,0.19157892,3.9706044,-4.8992963,0.9237764,-0.46381202,0.15650778,-0.1687633,-0.85551363,-5.5330133,5.873594,-0.093339294,0.54684967,-5.6813436,0.3741358,1
0.9900000000000007,14.087752609396961,-0.140815202096073,-5.999999502166805,0.4098592584498903,13.470161,0.038391896,-6.2016253,0.19157892,3.9152045,-4.8402734,0.922958,-0.46725273,0.13054982,-0.15791489,-0.86005545,-5.546268,5.9300313,-0.06987034,0.4675345,-5.73106,0.36517766,1
1.0000000000000007,14.84419014876635,-0.43439832227719394,-5.999999002066828,0.3746264156057862,14.474282,-0.29243672,-6.1075974,0.23121305,3.8596952,-4.780714,0.92238873,-0.4703316,0.10446428,-0.14650926,-0.863951,-5.554906,5.9809403,-0.04357807,0.40058795,-5.7730193,0.35665908,1
1.0100000000000007,14.84419014876635,-0.43439832227719394,-5.999999002066828,0.3746264156057862,14.474282,-0.29243672,-6.1075974,0.23121305,3.8041205,-4.7206573,0.922142,-0.47303024,0.07833685,-0.13450545,-0.867188,-5.55923,6.0294366,-0.005390262,0.292496,-5.808443,0.3505034,1
1.0200000000000007,14.84419014876635,-0.43439832227719394,-5.999999002066828,0.3746264156057862,14.474282,-0.29243672,-6.1075974,0.23121305,3.7485273,-4.6601477,0.92228854,-0.47533616,0.052240904,-0.12187704,-0.86975473,-5.5586476,6.0714655,0.034994937,0.20126072,-5.838338,0.34464982,1
1.0300000000000007,14.84419014876635,-0.43439832227719394,-5.999999002066828,0.3746264156057862,14.474282,-0.29243672,-6.1075974,0.23121305,3.692964,-4.599251,0.92284805,-0.4772546,0.02618361,-0.108712554,-0.8716221,-5.553226,6.106795,0.0771351,0.12425314,-5.863567,0.33908343,1
1.0400000000000007,14.84419014876635,-0.43439832227719394,-5.999999002066828,0.3746264156057862,15.29559,-0.61077493,-6.046894,0.16435234,3.637479,-4.5380354,0.92383575,-0.4787881,0.00017459411,-0.09508954,-0.87276626,-5.543036,6.1352296,0.12057108,0.059254922,-5.884858,0.33379018,1
1.0500000000000007,14.84419014876635,-0.43439832227719394,-5.999999002066828,0.3746264156057862,15.29559,-0.61077493,-6.046894,0.16435234,3.5821233,-4.476564,0.9253026,-0.4799456,-0.02571265,-0.08096499,-0.8731763,-5.527315,6.1578207,0.17290935,-0.045263924,-5.902837,0.32547584,1
1.0600000000000007,14.84419014876635,-0.43439832227719394,-5.999999002066828,0.3746264156057862,15.29559,-0.61077493,-6.046894,0.16435234,3.526949,-4.414905,0.9272952,-0.48073795,-0.05141562,-0.06631134,-0.87284094,-5.506776,6.172792,0.22561759,-0.13348225,-5.9180074,0.3175695,1
1.0700000000000007,14.84419014876635,-0.43439832227719394,-5.999999002066828,0.3746264156057862,15.29559,-0.61077493,-6.046894,0.16435234,3.4720035,-4.353135,0.9298145,-0.48116684,-0.07693669,-0.05121374,-0.87174386,-5.4815674,6.1800137,0.27818772,-0.20794222,-5.9308085,0.31005108,1
1.0800000000000007,14.82258641486351,-0.5452344621705024,-5.999996613367417,0.35603962733067995,16.125235,-0.6032401,-6.105486,0.091707386,3.4173326,-4.291332,0.9328567,-0.4812321,-0.1022745,-0.03574689,-0.8698728,-5.4518414,6.179396,0.33010453,-0.27078936,-5.9416103,0.30290157,0
1.0900000000000007,14.82258641486351,-0.5452344621705024,-5.999996613367417,0.35603962733067995,16.125235,-0.6032401,-6.105486,0.091707386,3.362976,-4.2295732,0.93638957,-0.4809087,-0.12743786,-0.01999681,-0.86722976,-5.418804,6.171153,0.3762453,-0.31357703,-5.9507246,0.30550906,0
1.1000000000000008,14.82258641486351,-0.5452344621705024,-5.999996613367417,0.35603962733067995,16.125235,-0.6032401,-6.105486,0.091707386,3.3089702,-4.167935,0.940376,-0.480172,-0.15242976,-0.0040364894,-0.86381984,-5.3816805,6.155259,0.42074263,-0.34969276,-5.958417,0.30798858,0
1.1100000000000008,14.82258641486351,-0.5452344621705024,-5.999996613367417,0.35603962733067995,16.125235,-0.6032401,-6.105486,0.091707386,3.2553558,-4.106494,0.944797,-0.47902152,-0.1772364,0.012089755,-0.85963976,-5.3406186,6.131745,0.4630912,-0.38017702,-5.964908,0.31034645,0
1.1200000000000008,14.09122472714283,-0.4957460182990202,-3.9254440237951083,0.3796037660916685,15.733172,-0.43521667,-6.0638084,0.23044203,3.202171,-4.0453267,0.94962865,-0.47745663,-0.20184268,0.028342046,-0.8546885,-5.295775,6.100674,0.5027899,-0.40590766,-5.9703856,0.31258863,0
1.1300000000000008,14.09122472714283,-0.4957460182990202,-3.9254440237951083,0.3796037660916685,15.733172,-0.43521667,-6.0638084,0.23044203,3.1494412,-3.9844975,0.9548087,-0.47550607,-0.22553723,0.044272866,-0.8491572,-5.249729,6.0640874,0.5327215,-0.4199707,-5.651482,0.31587708,0
1.1400000000000008,14.09122472714283,-0.4957460182990202,-3.9254440237951083,0.3796037660916685,15.733172,-0.43521667,-6.0638084,0.23044203,3.0971873,-3.9240677,0.96027184,-0.4732369,-0.24777292,0.059529185,-0.84327507,-5.2005754,6.0208445,0.55938274,-0.43183216,-5.382311,0.31900418,0
1.1500000000000008,14.09122472714283,-0.4957460182990202,-3.9254440237951083,0.3796037660916685,15.733172,-0.43521667,-6.0638084,0.23044203,3.045439,-3.864102,0.96598434,-0.47069466,-0.26875636,0.074205875,-0.8370849,-5.1486287,5.971384,0.58255583,-0.44183668,-5.155116,0.3219778,0
1.1600000000000008,13.070741458622688,-0.3379664702851686,0.6548494615623299,0.4149710782065584,15.031244,0.2261346,-4.192384,-0.15903549,2.994223,-3.8046598,0.97191036,-0.46791303,-0.28866157,0.08838324,-0.83061504,-5.094167,5.9161,0.60205615,-0.45027474,-4.9633517,0.3248055,0
1.1700000000000008,13.070741458622688,-0.3379664702851686,0.6548494615623299,0.4149710782065584,15.031244,0.2261346,-4.192384,-0.15903549,2.9435427,-3.7457767,0.9779711,-0.46507794,-0.30615345,0.101225056,-0.8244556,-5.04158,5.8598237,0.60954577,-0.43293357,-4.0871935,0.32922995,0
1.1800000000000008,13.070741458622688,-0.3379664702851686,0.6548494615623299,0.4149710782065584,15.031244,0.2261346,-4.192384,-0.15903549,2.893397,-3.6874778,0.9840904,-0.4624065,-0.32022545,0.112089776,-0.81919026,-4.9873657,5.7993474,0.61384606,-0.41827282,-3.3476725,0.3334373,0
1.1900000000000008,13.070741458622688,-0.3379664702851686,0.6548494615623299,0.4149710782065584,15.031244,0.2261346,-4.192384,-0.15903549,2.8437998,-3.6298015,0.99023867,-0.45994186,-0.33144626,0.121300116,-0.8147908,-4.9319444,5.7354693,0.6154016,-0.40587738,-2.7234795,0.3374382,0
1.2000000000000008,12.496559699832813,-0.12743025959492318,5.25673147828748,0.38973162875796985,13.218086,-0.23368543,1.6512125,0.56350815,2.7947612,-3.5727777,0.9963905,-0.4577,-0.34028658,0.12912609,-0.8111986,-4.8756495,5.668837,0.6146397,-0.3953968,-2.19663,0.34124276,0
1.2100000000000009,12.496559699832813,-0.12743025959492318,5.25673147828748,0.38973162875796985,13.218086,-0.23368543,1.6512125,0.56350815,2.7462761,-3.516417,1.0025039,-0.45590022,-0.3456866,0.1348839,-0.80898887,-4.821278,5.6030703,0.6078333,-0.3538641,-1.0342736,0.34362212,0
1.2200000000000009,12.496559699832813,-0.12743025959492318,5.25673147828748,0.38973162875796985,13.218086,-0.23368543,1.6512125,0.56350815,2.6983361,-3.4607208,1.0085436,-0.45472685,-0.34683263,0.1380479,-0.808625,-4.766767,5.5360994,0.600065,-0.3187711,-0.053187475,0.34588474,0
1.2300000000000009,12.496559699832813,-0.12743025959492318,5.25673147828748,0.38973162875796985,13.218086,-0.23368543,1.6512125,0.56350815,2.6509402,-3.4056966,1.0145046,-0.45410636,-0.34439775,0.13903145,-0.809845,-4.7125144,5.468762,0.5921799,-0.28911906,0.7748977,0.34803632,0
1.2400000000000009,12.496559699832813,-0.12743025959492318,5.25673147828748,0.38973162875796985,12.888692,0.22145833,5.462862,0.0796069,2.6040838,-3.3513446,1.0203892,-0.45394933,-0.33893085,0.13817514,-0.812382,-4.658859,5.4017577,0.5848972,-0.26406398,1.4738424,0.35008234,1
1.2500000000000009,12.496559699832813,-0.12743025959492318,5.25673147828748,0.38973162875796985,12.888692,0.22145833,5.462862,0.0796069,2.557768,-3.2976687,1.026221,-0.45415714,-0.3308842,0.13559668,-0.81600946,-4.6044383,5.333617,0.5817014,-0.18847099,2.0959468,0.33681,1
1.260000000000001,12.496559699832813,-0.12743025959492318,5.25673147828748,0.38973162875796985,12.888692,0.22145833,5.462862,0.0796069,2.5119908,-3.2446668,1.0320293,-0.4546388,-0.32063168,0.13139799,-0.82050866,-4.551186,5.267027,0.58025074,-0.124636605,2.6210306,0.32418895,1
1.270000000000001,12.496559699832813,-0.12743025959492318,5.25673147828748,0.38973162875796985,12.888692,0.22145833,5.462862,0.0796069,2.4667394,-3.192321,1.0378333,-0.45531464,-0.3084833,0.12581766,-0.8256498,-4.4993258,5.202517,0.5809425,-0.070733055,3.0642247,0.31218725,1
1.280000000000001,12.30821338054507,0.039846269465273525,5.9999968661226335,0.3048481397887233,12.513315,0.30848116,6.2080054,0.33413956,2.4219987,-3.1406078,1.0436563,-0.45611095,-0.2946993,0.11905662,-0.83122903,-4.4490743,5.1405597,0.58406794,-0.025216734,3.4383001,0.30077446,1
1.290000000000001,12.30821338054507,0.039846269465273525,5.9999968661226335,0.3048481397887233,12.513315,0.30848116,6.2080054,0.33413956,2.3777444,-3.089491,1.0495086,-0.4569487,-0.27933225,0.11116683,-0.8371466,-4.4020553,5.083307,0.5868049,0.026740951,3.8378057,0.30241168,1
1.300000000000001,12.30821338054507,0.039846269465273525,5.9999968661226335,0.3048481397887233,12.513315,0.30848116,6.2080054,0.33413956,2.3339508,-3.0389302,1.0554017,-0.45774835,-0.2624323,0.10219854,-0.84329844,-4.3570275,5.0293913,0.5922518,0.07060768,4.1750073,0.30396858,1
1.310000000000001,12.30821338054507,0.039846269465273525,5.9999968661226335,0.3048481397887233,12.513315,0.30848116,6.2080054,0.33413956,2.2905965,-2.9888902,1.0613632,-0.45844707,-0.24420162,0.092307575,-0.84951293,-4.3142138,4.979225,0.6004837,0.10764323,4.459621,0.30544907,1
1.320000000000001,12.058436145983002,0.06360659052522812,5.9999972056248945,0.24330515071135275,10.648442,0.23237634,6.1115117,0.6264716,2.2476583,-2.9393315,1.0674208,-0.45899022,-0.22481474,0.08162756,-0.8556426,-4.273831,4.933183,0.6114944,0.13891174,4.6998487,0.30685693,0
1.330000000000001,12.058436145983002,0.06360659052522812,5.9999972056248945,0.24330515071135275,10.648442,0.23237634,6.1115117,0.6264716,2.205104,-2.8902037,1.0735822,-0.45936212,-0.20437957,0.07035532,-0.86154896,-4.237464,4.8931093,0.62114185,0.12713738,4.9026036,0.30373845,0
1.340000000000001,12.058436145983002,0.06360659052522812,5.9999972056248945,0.24330515071135275,10.648442,0.23237634,6.1115117,0.6264716,2.1628995,-2.8414538,1.0798523,-0.4595471,-0.18299422,0.0586559,-0.867116,-4.203865,4.8575983,0.63325924,0.11720566,5.0737395,0.30077296,0
1.350000000000001,12.058436145983002,0.06360659052522812,5.9999972056248945,0.24330515071135275,10.648442,0.23237634,6.1115117,0.6264716,2.1210163,-2.7930353,1.0862553,-0.4595027,-0.16078831,0.046593912,-0.87225825,-4.173248,4.826884,0.64766157,0.10882825,5.2181873,0.29795298,0
1.360000000000001,11.861342776621937,-0.045251670813326005,5.999994787233293,0.19121624932061304,9.331283,0.030162508,5.934191,0.5889631,2.0794237,-2.744899,1.0928128,-0.45919394,-0.1378763,0.03422629,-0.876904,-4.1458087,4.8011675,0.6641182,0.10176149,5.3401084,0.2952714,0
1.370000000000001,11.861342776621937,-0.045251670813326005,5.999994787233293,0.19121624932061304,9.331283,0.030162508,5.934191,0.5889631,2.0380867,-2.6969922,1.0995344,-0.4586036,-0.11433993,0.02164085,-0.88098913,-4.122121,4.7809596,0.6804581,0.07883318,5.4430127,0.29016533,0
1.380000000000001,11.861342776621937,-0.045251670813326005,5.999994787233293,0.19121624932061304,9.331283,0.030162508,5.934191,0.5889631,1.9969693,-2.6492615,1.1064271,-0.45771718,-0.090254016,0.00891237,-0.88446075,-4.101907,4.765974,0.6982575,0.05948325,5.5298696,0.28530988,0
1.390000000000001,11.861342776621937,-0.045251670813326005,5.999994787233293,0.19121624932061304,9.331283,0.030162508,5.934191,0.5889631,1.9560362,-2.601654,1.1135036,-0.45651278,-0.06570524,-0.003929194,-0.8872793,-4.08532,4.756316,0.7171932,0.043153197,5.6031823,0.2806927,0
1.400000000000001,11.53677703150653,-0.19320169075639712,4.949656364330253,0.12707174479134142,9.690948,-0.044143293,5.5688214,0.28240642,1.9152502,-2.5541165,1.1207737,-0.45497304,-0.040771328,-0.016856423,-0.8894123,-4.0724936,4.7520657,0.73691964,0.029371364,5.6650624,0.27630207,0
1.410000000000001,11.53677703150653,-0.19320169075639712,4.949656364330253,0.12707174479134142,9.690948,-0.044143293,5.5688214,0.28240642,1.8745718,-2.506594,1.1282274,-0.45310596,-0.015869651,-0.029600922,-0.8908244,-4.0637746,4.753223,0.75383735,-0.005292098,5.5534887,0.26897928,0
1.420000000000001,11.53677703150653,-0.19320169075639712,4.949656364330253,0.12707174479134142,9.690948,-0.044143293,5.5688214,0.28240642,1.8339617,-2.459034,1.1358508,-0.45093796,0.008660609,-0.041948598,-0.89152753,-4.0588336,4.759573,0.7708105,-0.034555268,5.4593163,0.26201585,0
1.430000000000001,11.53677703150653,-0.19320169075639712,4.949656364330253,0.12707174479134142,9.690948,-0.044143293,5.5688214,0.28240642,1.7933822,-2.411385,1.1436427,-0.4484802,0.032860488,-0.05394936,-0.89155835,-4.057662,4.770977,0.78749394,-0.05925923,5.3798313,0.2553941,0
1.440000000000001,11.53677703150653,-0.19320169075639712,4.949656364330253,0.12707174479134142,10.647988,0.10655071,4.786188,0.122365266,1.7527956,-2.3635974,1.1515986,-0.44574177,0.05676338,-0.065644674,-0.8909456,-4.0602436,4.7872987,0.803559,-0.0801144,5.312742,0.24909729,1
1.450000000000001,11.53677703150653,-0.19320169075639712,4.949656364330253,0.12707174479134142,10.647988,0.10655071,4.786188,0.122365266,1.7121668,-2.3156304,1.159667,-0.44274342,0.080284566,-0.077146605,-0.88970906,-4.0660634,4.80678,0.80996794,-0.050969526,5.2306314,0.24287851,1
1.460000000000001,11.53677703150653,-0.19320169075639712,4.949656364330253,0.12707174479134142,10.647988,0.10655071,4.786188,0.122365266,1.6714629,-2.267447,1.167794,-0.43950805,0.10335772,-0.08854526,-0.88786864,-4.0752516,4.8305616,0.81523895,-0.026373422,5.161325,0.23696488,1
1.470000000000001,11.53677703150653,-0.19320169075639712,4.949656364330253,0.12707174479134142,10.647988,0.10655071,4.786188,0.122365266,1.6306505,-2.2190046,1.1759669,-0.43604457,0.12603171,-0.09984217,-0.88544554,-4.087727,4.85853,0.8191084,-0.0056161466,5.1028256,0.23134145,1
1.480000000000001,11.069408720614604,-0.35194335599179694,1.5760357403326686,0.07229797944591598,10.008841,-0.102175936,3.7074463,-0.03619362,1.5896972,-2.1702623,1.1841702,-0.4323596,0.14834636,-0.11103769,-0.88245696,-4.1034126,4.890568,0.82132405,0.011901392,5.053448,0.22599395,0
1.490000000000001,11.069408720614604,-0.35194335599179694,1.5760357403326686,0.07229797944591598,10.008841,-0.102175936,3.7074463,-0.03619362,1.5485679,-2.121173,1.1924063,-0.42859128,0.1692846,-0.12141732,-0.87915367,-4.122945,4.9279304,0.825564,-0.044737723,4.5111394,0.21845205,0
1.500000000000001,11.069408720614604,-0.35194335599179694,1.5760357403326686,0.07229797944591598,10.008841,-0.102175936,3.7074463,-0.03619362,1.5072281,-2.0716915,1.2006747,-0.42489347,0.18805936,-0.1304302,-0.8758358,-4.145432,4.968894,0.8278018,-0.09256204,4.053406,0.21128024,0
1.5100000000000011,11.069408720614604,-0.35194335599179694,1.5760357403326686,0.07229797944591598,10.008841,-0.102175936,3.7074463,-0.03619362,1.4656501,-2.0217843,1.2089555,-0.42128295,0.20501038,-0.13829513,-0.8725635,-4.1705866,5.0129757,0.8280671,-0.13294272,3.6670563,0.20446034,0
1.5200000000000011,10.685947725735645,-0.5894572800309682,-2.7821233955138824,0.019550351733622174,10.672737,-0.31290618,-3.1554866,-0.041504707,1.4238081,-1.9714226,1.2172292,-0.4177658,0.22042413,-0.14519545,-0.8693701,-4.198166,5.0597734,0.8264106,-0.16703823,3.340959,0.1979751,1
1.5300000000000011,10.685947725735645,-0.5894572800309682,-2.7821233955138824,0.019550351733622174,10.672737,-0.31290618,-3.1554866,-0.041504707,1.3816843,-1.9205892,1.2254608,-0.41464192,0.23290184,-0.15050766,-0.86670494,-4.226868,5.107164,0.8196173,-0.19039835,2.328601,0.1862949,1
1.5400000000000011,10.685947725735645,-0.5894572800309682,-2.7821233955138824,0.019550351733622174,10.672737,-0.31290618,-3.1554866,-0.041504707,1.3392652,-1.8692738,1.2336167,-0.41218445,0.2413586,-0.15376212,-0.8649904,-4.2571487,5.1561084,0.81139463,-0.20938863,1.4733598,0.17511669,1
1.5500000000000012,10.685947725735645,-0.5894572800309682,-2.7821233955138824,0.019550351733622174,10.672737,-0.31290618,-3.1554866,-0.041504707,1.2965375,-1.8174638,1.2416855,-0.41033253,0.24644221,-0.15529674,-0.8641629,-4.288523,5.206001,0.802272,-0.22544442,0.7514937,0.164487,1
1.5600000000000012,10.505360218828947,-0.841152846815759,-5.9999829064952985,-0.04888776989340674,10.366033,-0.63597196,-5.5349298,-0.1541228,1.2534924,-1.7651523,1.2496605,-0.4090149,0.24869005,-0.15538912,-0.86412704,-4.3205748,5.2563186,0.792668,-0.23901768,0.14220229,0.15437894,1
1.5700000000000012,10.505360218828947,-0.841152846815759,-5.9999829064952985,-0.04888776989340674,10.366033,-0.63597196,-5.5349298,-0.1541228,1.2101295,-1.7123448,1.2575259,-0.40828508,0.24777985,-0.15376365,-0.8650239,-4.3520026,5.305152,0.78043437,-0.30084023,-0.7431465,0.13924067,1
1.5800000000000012,10.505360218828947,-0.841152846815759,-5.9999829064952985,-0.04888776989340674,10.366033,-0.63597196,-5.5349298,-0.1541228,1.1664528,-1.6590515,1.2652705,-0.4081669,0.24346954,-0.15020801,-0.86692625,-4.3833137,5.353387,0.7685805,-0.35304976,-1.4904238,0.12484524,1
1.5900000000000012,10.505360218828947,-0.841152846815759,-5.9999829064952985,-0.04888776989340674,10.366033,-0.63597196,-5.5349298,-0.1541228,1.122465,-1.6052812,1.2729002,-0.40854275,0.23627332,-0.14501491,-0.8696204,-4.414113,5.4004817,0.75753593,-0.39713854,-2.1211624,0.11115621,1
1.6000000000000012,10.486982112388382,-1.0719986465880353,-5.999996039996646,-0.10797253104732973,11.410939,-1.0148683,-5.7309237,0.14108294,1.0781735,-1.5510476,1.2804251,-0.40930173,0.22661917,-0.1384274,-0.8729003,-4.4440575,5.4459677,0.74763685,-0.43436825,-2.6535366,0.0981389,1
1.6100000000000012,10.486982112388382,-1.0719986465880353,-5.999996039996646,-0.10797253104732973,11.410939,-1.0148683,-5.7309237,0.14108294,1.0335734,-1.4963468,1.2879027,-0.41028693,0.21485394,-0.13049215,-0.87662727,-4.4757495,5.4938035,0.7481648,-0.52486193,-3.1334598,0.10024618,1
1.6200000000000012,10.486982112388382,-1.0719986465880353,-5.999996039996646,-0.10797253104732973,11.410939,-1.0148683,-5.7309237,0.14108294,0.98866385,-1.4411807,1.2953943,-0.4113584,0.2012691,-0.121255755,-0.8806663,-4.505897,5.538951,0.7504274,-0.6012471,-3.5385387,0.10225007,1
1.6300000000000012,10.486982112388382,-1.0719986465880353,-5.999996039996646,-0.10797253104732973,11.410939,-1.0148683,-5.7309237,0.14108294,0.9434616,-1.3855784,1.3029177,-0.41244426,0.18612228,-0.1109066,-0.88484406,-4.534261,5.5809894,0.7545419,-0.6657236,-3.8804452,0.10415561,1
1.6400000000000012,10.486982112388382,-1.0719986465880353,-5.999996039996646,-0.10797253104732973,11.865162,-0.9386092,-5.8331566,-0.10731799,0.8979856,-1.3295729,1.3104917,-0.41348165,0.16963346,-0.099605374,-0.8890092,-4.560624,5.6195436,0.7605469,-0.7201481,-4.1690307,0.10596764,0
1.6500000000000012,10.486982112388382,-1.0719986465880353,-5.999996039996646,-0.10797253104732973,11.865162,-0.9386092,-5.8331566,-0.10731799,0.85226667,-1.2732149,1.3180922,-0.41444957,0.151908,-0.08741972,-0.8930366,-4.5828285,5.6514616,0.759834,-0.7750298,-4.4545674,0.09546953,0
1.6600000000000013,10.486982112388382,-1.0719986465880353,-5.999996039996646,-0.10797253104732973,11.865162,-0.9386092,-5.8331566,-0.10731799,0.8063366,-1.2165568,1.325694,-0.41532826,0.13304153,-0.07441208,-0.8968089,-4.602829,5.6795645,0.76075965,-0.8213575,-4.695574,0.08548656,0
1.6700000000000013,10.486982112388382,-1.0719986465880353,-5.999996039996646,-0.10797253104732973,11.865162,-0.9386092,-5.8331566,-0.10731799,0.76021826,-1.1596377,1.3333126,-0.41606924,0.113197856,-0.0607044,-0.90021586,-4.6204586,5.7035766,0.7631996,-0.8604638,-4.8989944,0.07599347,0
1.6800000000000013,10.294149885172459,-1.2098644933668967,-5.999995717088518,-0.05694259115774083,13.330974,-0.34643778,-6.0936112,-0.18310626,0.7139361,-1.1025,1.3409625,-0.4166314,0.09251985,-0.046402894,-0.90316445,-4.635567,5.7232575,0.7669811,-0.8934737,-5.0706916,0.066966206,0
1.6900000000000013,10.294149885172459,-1.2098644933668967,-5.999995717088518,-0.05694259115774083,13.330974,-0.34643778,-6.0936112,-0.18310626,0.6675172,-1.0451894,1.3486466,-0.41696966,0.07115557,-0.031551242,-0.90558195,-4.647798,5.7381215,0.76999575,-0.9428291,-5.2156143,0.06088596,0
1.7000000000000013,10.294149885172459,-1.2098644933668967,-5.999995717088518,-0.05694259115774083,13.330974,-0.34643778,-6.0936112,-0.18310626,0.62098944,-0.98775333,1.3563653,-0.4170471,0.049233492,-0.016191943,-0.9074065,-4.6573305,5.7483473,0.77387196,-0.98448837,-5.3379364,0.055104073,0
1.7100000000000013,10.294149885172459,-1.2098644933668967,-5.999995717088518,-0.05694259115774083,13.330974,-0.34643778,-6.0936112,-0.18310626,0.5743801,-0.9302389,1.3641261,-0.41684297,0.026845185,-0.00041093444,-0.90858245,-4.664085,5.753782,0.77833563,-1.0196513,-5.441182,0.04960591,0
1.7200000000000013,10.289488865783186,-1.1853740768209058,-5.999989276397286,0.09933174546825188,14.03129,-0.13025016,-5.9416437,-0.17808014,0.5277174,-0.87269455,1.3719331,-0.41633987,0.004072425,0.015715918,-0.9090646,-4.667996,5.7543044,0.7830889,-1.0493308,-5.528326,0.04437754,0
1.7300000000000013,10.289488865783186,-1.1853740768209058,-5.999989276397286,0.09933174546825188,14.03129,-0.13025016,-5.9416437,-0.17808014,0.4810301,-0.81516993,1.3797876,-0.41550618,-0.019015081,0.032112442,-0.9088249,-4.6690125,5.7498274,0.7877685,-1.0705348,-5.6018844,0.047074173,0
1.7400000000000013,10.289488865783186,-1.1853740768209058,-5.999989276397286,0.09933174546825188,14.03129,-0.13025016,-5.9416437,-0.17808014,0.43434724,-0.75771534,1.3876874,-0.41431385,-0.04235358,0.048712265,-0.90784264,-4.6670985,5.7402925,0.7920895,-1.0884326,-5.663971,0.04963847,0
1.7500000000000013,10.289488865783186,-1.1853740768209058,-5.999989276397286,0.09933174546825188,14.03129,-0.13025016,-5.9416437,-0.17808014,0.3876983,-0.7003815,1.3956273,-0.4127554,-0.06588133,0.06546512,-0.90609485,-4.662228,5.7256713,0.7957102,-1.1035398,-5.7163754,0.052076932,0
1.7600000000000013,10.164181232416126,-0.9918893665353762,-4.3617158769891615,0.2576121200604127,12.378189,-0.9483633,-5.84158,-0.04053564,0.34111285,-0.64321935,1.4035982,-0.41082534,-0.08954213,0.08232571,-0.90356416,-4.654392,5.705963,0.79828143,-1.1162915,-5.760607,0.05439575,0
1.7700000000000014,10.164181232416126,-0.9918893665353762,-4.3617158769891615,0.2576121200604127,12.378189,-0.9483633,-5.84158,-0.04053564,0.29461995,-0.58627814,1.411582,-0.4085577,-0.1127243,0.098917305,-0.9003278,-4.6437416,5.6815186,0.7982496,-1.0968626,-5.5424576,0.064367644,0
1.7800000000000014,10.164181232416126,-0.9918893665353762,-4.3617158769891615,0.2576121200604127,12.378189,-0.9483633,-5.84158,-0.04053564,0.24824758,-0.5296054,1.4195573,-0.40600854,-0.13494489,0.11494504,-0.896513,-4.6303062,5.652302,0.79655695,-1.0804667,-5.3583274,0.0738502,0
1.7900000000000014,10.164181232416126,-0.9918893665353762,-4.3617158769891615,0.2576121200604127,12.378189,-0.9483633,-5.84158,-0.04053564,0.20202288,-0.4732477,1.4275066,-0.40320104,-0.1563307,0.13048165,-0.8921687,-4.6142325,5.6185517,0.7929623,-1.06663,-5.202912,0.08286744,0
1.8000000000000014,9.806023511102612,-0.6893487418082531,-0.4402755561870063,0.35277728939632713,11.5501175,-0.6939884,-5.26605,0.13656661,0.15597154,-0.4172492,1.4354094,-0.40015268,-0.17698841,0.14558806,-0.88733184,-4.595656,5.58049,0.7872476,-1.054953,-5.0717325,0.091442205,0
1.8100000000000014,9.806023511102612,-0.6893487418082531,-0.4402755561870063,0.35277728939632713,11.5501175,-0.6939884,-5.26605,0.13656661,0.11011424,-0.3616446,1.4432278,-0.39709023,-0.19566883,0.1595876,-0.8823636,-4.5754757,5.5398574,0.7760714,-0.9979436,-4.3494644,0.10426598,0
1.8200000000000014,9.806023511102612,-0.6893487418082531,-0.4402755561870063,0.35277728939632713,11.5501175,-0.6939884,-5.26605,0.13656661,0.06446857,-0.3064638,1.4509234,-0.39425048,-0.21141373,0.17196861,-0.87766635,-4.5533924,5.495805,0.76274276,-0.9498299,-3.739833,0.116460495,0
1.8300000000000014,9.806023511102612,-0.6893487418082531,-0.4402755561870063,0.35277728939632713,11.5501175,-0.6939884,-5.26605,0.13656661,0.019051664,-0.25173852,1.4584757,-0.39164478,-0.22469506,0.18299778,-0.87329197,-4.529775,5.4488316,0.7474108,-0.9092223,-3.2252727,0.12805663,0
1.8400000000000014,9.806023511102612,-0.6893487418082531,-0.4402755561870063,0.35277728939632713,11.326097,0.015346669,0.86506647,0.6331584,-0.026122713,-0.1974958,1.4658653,-0.38926905,-0.23590845,0.1928976,-0.8692571,-4.5049295,5.3993444,0.7302356,-0.8749492,-2.7909575,0.13908371,0
1.8500000000000014,9.806023511102612,-0.6893487418082531,-0.4402755561870063,0.35277728939632713,11.326097,0.015346669,0.86506647,0.6331584,-0.07104357,-0.1437591,1.4730747,-0.3871101,-0.24538523,0.20185368,-0.8655562,-4.479108,5.3476787,0.7113764,-0.84602153,-2.4243727,0.14956972,0
1.8600000000000014,9.806023511102612,-0.6893487418082531,-0.4402755561870063,0.35277728939632713,11.326097,0.015346669,0.86506647,0.6331584,-0.115702234,-0.09054878,1.4800878,-0.38514966,-0.2534027,0.21002069,-0.86217093,-4.452519,5.2941074,0.69098437,-0.82160485,-2.1149566,0.15954117,0
1.8700000000000014,9.806023511102612,-0.6893487418082531,-0.4402755561870063,0.35277728939632713,11.326097,0.015346669,0.86506647,0.6331584,-0.1600919,-0.037882738,1.4868897,-0.38336724,-0.26019305,0.21752764,-0.8590759,-4.4253373,5.2388554,0.66919833,-0.80099523,-1.8537937,0.16902332,0
1.8800000000000014,9.599526226580299,-0.3692528831340839,3.5248257822248097,0.38136401842414225,10.058997,0.09323366,4.408839,-0.6029886,-0.20420742,0.0142231835,1.4934675,-0.3817419,-0.26595074,0.2244821,-0.8562427,-4.3977065,5.182108,0.64614356,-0.78359866,-1.6333592,0.17804018,1
1.8900000000000015,9.599526226580299,-0.3692528831340839,3.5248257822248097,0.38136401842414225,10.058997,0.09323366,4.408839,-0.6029886,-0.248036,0.06573629,1.4998326,-0.38065615,-0.26945016,0.22989121,-0.85419434,-4.368122,5.1206346,0.6263713,-0.61321837,-0.7248098,0.14276122,1
1.9000000000000015,9.599526226580299,-0.3692528831340839,3.5248257822248097,0.38136401842414225,10.058997,0.09323366,4.408839,-0.6029886,-0.2915729,0.116639145,1.5059848,-0.38050327,-0.2696097,0.23302417,-0.8533628,-4.3393645,5.0600066,0.60379094,-0.49882287,0.071504414,0.106565915,1
1.9100000000000015,9.599526226580299,-0.3692528831340839,3.5248257822248097,0.38136401842414225,10.058997,0.09323366,4.408839,-0.6029886,-0.33482486,0.16693582,1.5119075,-0.38121927,-0.2668596,0.23427267,-0.85356575,-4.3111134,4.999311,0.5807655,-0.40652272,0.74792504,0.07174788,1
1.9200000000000015,9.567819259565912,-0.061161181861681346,5.999989409127479,0.3575048284469956,9.495273,0.133503,5.283153,-1.1160008,-0.37779757,0.2166257,1.5176014,-0.38268793,-0.26165,0.23392262,-0.8546167,-4.283565,4.938712,0.5580784,-0.32858494,1.3188533,0.038638365,0
1.9300000000000015,9.567819259565912,-0.061161181861681346,5.999989409127479,0.3575048284469956,9.495273,0.133503,5.283153,-1.1160008,-0.42050606,0.2657264,1.5230532,-0.38485864,-0.2537619,0.23204675,-0.8565298,-4.25831,4.881525,0.532407,-0.28691918,2.048872,0.054285225,0
1.9400000000000015,9.567819259565912,-0.061161181861681346,5.999989409127479,0.3575048284469956,9.495273,0.133503,5.283153,-1.1160008,-0.4629682,0.31425908,1.5282533,-0.38765284,-0.24302635,0.22870882,-0.8592764,-4.2343464,4.8251824,0.507827,-0.2517595,2.6650453,0.06916428,0
1.9500000000000015,9.567819259565912,-0.061161181861681346,5.999989409127479,0.3575048284469956,9.495273,0.133503,5.283153,-1.1160008,-0.5051986,0.3622342,1.5332146,-0.390924,-0.22985815,0.22411,-0.8626231,-4.212011,4.770064,0.48467216,-0.22208817,3.1851273,0.08331323,0
1.9600000000000015,9.639429719125246,0.1026238738149085,5.99999608324016,0.330878909969169,9.5001545,0.48275205,5.842623,-0.27933592,-0.54721504,0.4096658,1.5379524,-0.39454082,-0.21460599,0.21841726,-0.8663579,-4.191597,4.716517,0.46318474,-0.19704717,3.6241028,0.096767895,1
1.9700000000000015,9.639429719125246,0.1026238738149085,5.99999608324016,0.330878909969169,9.5001545,0.48275205,5.842623,-0.27933592,-0.58903867,0.45657292,1.5424817,-0.3983968,-0.19772343,0.21159017,-0.8702961,-4.1734853,4.665232,0.44297007,-0.09100705,3.9700878,0.07831236,1
1.9800000000000015,9.639429719125246,0.1026238738149085,5.99999608324016,0.330878909969169,9.5001545,0.48275205,5.842623,-0.27933592,-0.6306927,0.502978,1.5468183,-0.40241438,-0.17959167,0.20360371,-0.87427413,-4.1577015,4.616154,0.42465925,-0.0014960673,4.262113,0.060762443,1
1.9900000000000015,9.639429719125246,0.1026238738149085,5.99999608324016,0.330878909969169,9.5001545,0.48275205,5.842623,-0.27933592,-0.6722012,0.54890466,1.5509815,-0.40652376,-0.1603875,0.19460931,-0.87814677,-4.1443787,4.569589,0.4082793,0.07406138,4.508595,0.044073723,1
2.0000000000000013,,,,,9.518576,0.6257186,5.5390744,-0.12845114,-0.7135892,0.5943794,1.5549904,-0.41066307,-0.14026372,0.18473719,-0.88179046,-4.133633,4.5258217,0.39380163,0.13783918,4.716637,0.028203914,1
2.010000000000001,,,,,9.518576,0.6257186,5.5390744,-0.12845114,-0.75488293,0.63943124,1.5588646,-0.41473255,-0.11948083,0.17410247,-0.8851045,-4.1255455,4.4850307,0.38131344,0.2139456,4.8448963,0.020516813,1
2.020000000000001,,,,,9.518576,0.6257186,5.5390744,-0.12845114,-0.79610944,0.6840914,1.5626225,-0.41865236,-0.098257415,0.16280662,-0.8880147,-4.1201887,4.447527,0.37052542,0.27818364,4.9531527,0.0132069085,1
2.0300000000000007,,,,,9.518576,0.6257186,5.5390744,-0.12845114,-0.8372962,0.72839373,1.5662804,-0.42239833,-0.07666102,0.15093647,-0.89046127,-4.1175933,4.41351,0.36127746,0.33240357,5.0445256,0.006255719,1
2.0400000000000005,,,,,9.518576,0.6257186,5.5390744,-0.12845114,-0.87847096,0.77237415,1.5698527,-0.42594904,-0.05475198,0.13856785,-0.892395,-4.1177816,4.38316,0.35338482,0.37816745,5.121649,-0.00035439036,1
2.0500000000000003,,,,,10.726546,1.2141712,6.1257343,-0.10126444,-0.91966146,0.8160701,1.573352,-0.42928538,-0.032584503,0.12576729,-0.8937758,-4.1207657,4.356638,0.34664193,0.41679415,5.186745,-0.0066401307,1
2.06,,,,,10.726546,1.2141712,6.1257343,-0.10126444,-0.9608992,0.85950583,1.5768472,-0.43240234,-0.010143487,0.11230312,-0.8946025,-4.1272798,4.331236,0.35254037,0.54116136,5.3135695,-0.0112833595,1
2.07,,,,,10.726546,1.2141712,6.1257343,-0.10126444,-1.0022178,0.902711,1.5804056,-0.4352909,0.012576612,0.097994894,-0.89485246,-4.1369143,4.310546,0.3592371,0.6461331,5.4206157,-0.015698759,1
2.0799999999999996,,,,,10.726546,1.2141712,6.1257343,-0.10126444,-1.0436481,0.9457337,1.5840338,-0.4379288,0.035515565,0.082967736,-0.89446837,-4.1496253,4.2947893,0.36646187,0.7347344,5.5109677,-0.019897498,1
2.0899999999999994,,,,,8.336062,0.3482881,6.33572,0.4673736,-1.0852207,0.9886244,1.5877358,-0.44029555,0.058618564,0.06733083,-0.8934039,-4.1653595,4.2841496,0.373919,0.80951774,5.587229,-0.023890197,1
2.099999999999999,,,,,8.336062,0.3482881,6.33572,0.4673736,-1.1269451,1.0314417,1.5913945,-0.44228747,0.0819928,0.051484775,-0.8916325,-4.1798973,4.279967,0.3577848,0.7375016,5.6516128,0.00021627033,1
2.109999999999999,,,,,8.336062,0.3482881,6.33572,0.4673736,-1.1688266,1.0742377,1.5948905,-0.44380394,0.10571698,0.03575173,-0.88914794,-4.196756,4.2799077,0.341312,0.6767187,5.7059536,0.023139827,1
2.1199999999999988,,,,,8.336062,0.3482881,6.33572,0.4673736,-1.2108883,1.117054,1.5982188,-0.44483447,0.12970418,0.020115096,-0.8859428,-4.2159476,4.283978,0.32421985,0.6254177,5.7518177,0.044938497,1
2.1299999999999986,,,,,8.817632,-0.4938998,4.9634876,0.8274083,-1.2531536,1.1599315,1.6013718,-0.4453725,0.1538768,0.0045631155,-0.8820117,-4.237468,4.2921686,0.30622575,0.5821202,5.7905283,0.065667525,1
2.1399999999999983,,,,,8.817632,-0.4938998,4.9634876,0.8274083,-1.2956524,1.2029148,1.604362,-0.44532502,0.17795165,-0.010437462,-0.8774452,-4.2626724,4.3051424,0.29160914,0.41418278,5.6615553,0.10304636,1
2.149999999999998,,,,,8.817632,-0.4938998,4.9634876,0.8274083,-1.3384153,1.2460486,1.6071987,-0.44462743,0.20170462,-0.024520138,-0.87236506,-4.2902884,4.322248,0.2754717,0.2724464,5.552689,0.138591,1
2.159999999999998,,,,,8.817632,-0.4938998,4.9634876,0.8274083,-1.3814663,1.2893732,1.6098654,-0.44331565,0.22515038,-0.037827436,-0.86680335,-4.3202825,4.343275,0.25756803,0.15282296,5.460796,0.17239144,1
2.1699999999999977,,,,,9.271901,-0.9443044,1.3223815,0.8861173,-1.4248289,1.3329268,1.6123433,-0.4414221,0.24829926,-0.05047924,-0.8607824,-4.3526096,4.3680267,0.23767006,0.05186279,5.3832307,0.20453332,1
