time-since-start [s],throttle_mpc,roll_mpc,pitch_mpc,yaw_mpc,throttle_nw,roll_nw,pitch_nw,yaw_nw,position_x [m],position_y [m],position_z [m],rotation_w [quaternion],rotation_x [quaternion],rotation_y [quaternion],rotation_z [quaternion],velocity_x [m/s],velocity_y [m/s],velocity_z [m/s],omega_x [rad/s],omega_y [rad/s],omega_z [rad/s],network_used
0.0,11.217314572361673,5.999999837019976,-5.999999956136244,-4.43635586663376,12.391138,-0.98139924,-5.0236177,-0.47767863,20.626408,-8.230616,2.044788,-0.13812575,-0.46158785,0.18039548,0.8575053,-10.338477,-7.58793,0.1962376,2.1898634,0.009198047,-0.62177753,0
0.01,11.217314572361673,5.999999837019976,-5.999999956136244,-4.43635586663376,12.969042,-1.3600146,-5.706464,-1.4194429,20.522308,-8.306336,2.0466914,-0.12997541,-0.46299756,0.1882668,0.8563266,-10.481424,-7.5557814,0.18397011,2.183696,-0.3279286,-0.75528467,0
0.02,11.217314572361673,5.999999837019976,-5.999999956136244,-4.43635586663376,12.969042,-1.3600146,-5.706464,-1.4194429,20.41679,-8.381721,2.0484579,-0.120912895,-0.46307755,0.19606397,0.85586107,-10.62178,-7.520747,0.16893049,2.2096567,-0.6437033,-0.8850305,0
0.03,11.217314572361673,5.999999837019976,-5.999999956136244,-4.43635586663376,12.969042,-1.3600146,-5.706464,-1.4194429,20.309883,-8.45674,2.050062,-0.110892,-0.46192464,0.20389065,0.85601234,-10.759197,-7.4827213,0.15152788,2.2625654,-0.94128567,-1.0111841,0
0.04,11.217314572361673,5.999999837019976,-5.999999956136244,-4.43635586663376,13.658193,-0.57039565,-4.3790655,-2.2811987,20.201618,-8.531364,2.0514817,-0.099874996,-0.45961305,0.21183072,0.85668457,-10.893351,-7.4415917,0.13211402,2.3380148,-1.2233074,-1.133903,0
0.05,11.217314572361673,5.999999837019976,-5.999999956136244,-4.43635586663376,13.658193,-0.57039565,-4.3790655,-2.2811987,20.092028,-8.605561,2.0526984,-0.08783193,-0.45619825,0.21995081,0.8577821,-11.023937,-7.3972487,0.11099032,2.4322546,-1.4919573,-1.2533344,0
0.060000000000000005,11.217314572361673,5.999999837019976,-5.999999956136244,-4.43635586663376,13.658193,-0.57039565,-4.3790655,-2.2811987,19.981152,-8.679298,2.0536964,-0.07474008,-0.4517199,0.22830263,0.8592094,-11.15066,-7.3495927,0.08841423,2.542089,-1.7490542,-1.3696154,0
0.07,11.217314572361673,5.999999837019976,-5.999999956136244,-4.43635586663376,13.658193,-0.57039565,-4.3790655,-2.2811987,19.86903,-8.752542,2.0544622,-0.060583487,-0.44620457,0.2369246,0.8608703,-11.273228,-7.29854,0.064604476,2.6647956,-1.996107,-1.4828748,0
0.08,14.53291562030229,5.999999939092787,-5.999999989627567,-3.9219025638874028,14.082238,-1.981721,-6.2191052,-0.27054644,19.755703,-8.825256,2.0549848,-0.045352545,-0.4396679,0.24584343,0.86266804,-11.391348,-7.244028,0.039745737,2.7980533,-2.2343667,-1.5932325,0
0.09,14.53291562030229,5.999999939092787,-5.999999989627567,-3.9219025638874028,14.082238,-1.981721,-6.2191052,-0.27054644,19.64115,-8.897374,2.055298,-0.028786687,-0.43176937,0.25545496,0.8645745,-11.518395,-7.178984,0.02273455,3.1010835,-2.626384,-1.6899709,0
0.09999999999999999,14.53291562030229,5.999999939092787,-5.999999989627567,-3.9219025638874028,14.082238,-1.981721,-6.2191052,-0.27054644,19.525356,-8.9688225,2.0554354,-0.010658846,-0.42217982,0.26608354,0.86651593,-11.6390915,-7.11006,0.0045733494,3.39658,-2.9970396,-1.785516,0
0.10999999999999999,14.53291562030229,5.999999939092787,-5.999999989627567,-3.9219025638874028,14.082238,-1.981721,-6.2191052,-0.27054644,19.408388,-9.039561,2.0553863,0.008981811,-0.41091853,0.27763677,0.86832184,-11.752977,-7.0370684,-0.014545021,3.684467,-3.3484094,-1.8798145,0
0.11999999999999998,14.53291562030229,5.999999939092787,-5.999999989627567,-3.9219025638874028,14.082238,-1.981721,-6.2191052,-0.27054644,19.29032,-9.1095495,2.055142,0.030081175,-0.3979967,0.29001865,0.86981755,-11.859585,-6.9599247,-0.034480043,3.964749,-3.682314,-1.9728216,0
0.12999999999999998,19.2582412835589,5.9999999653037435,-5.999999997487627,-3.311942601769693,15.99887,1.577561,-4.8435,-1.8684714,19.171225,-9.178745,2.0546944,0.052579217,-0.3834203,0.30312943,0.87082523,-11.958436,-6.8786507,-0.05514025,4.237492,-4.0003533,-2.0645003,0
0.13999999999999999,19.2582412835589,5.9999999653037435,-5.999999997487627,-3.311942601769693,15.99887,1.577561,-4.8435,-1.8684714,19.051037,-9.246976,2.054157,0.07637198,-0.3671351,0.3169231,0.8711708,-12.077763,-6.7663217,-0.05214256,4.5117636,-4.312745,-2.1257126,0
0.15,19.2582412835589,5.9999999653037435,-5.999999997487627,-3.311942601769693,15.99887,1.577561,-4.8435,-1.8684714,18.9297,-9.314045,2.0536566,0.10125976,-0.3491992,0.33125296,0.8706765,-12.188082,-6.6463246,-0.047741685,4.743316,-4.576371,-2.1839213,0
0.16,20.99999988049708,5.9999998992900245,-5.999999957275269,-2.69843330473045,17.140476,-0.10456411,-5.8340464,-0.73734426,18.80731,-9.379876,2.0532067,0.12704575,-0.3297745,0.34588993,0.8691766,-12.288328,-6.518874,-0.042005617,4.9388065,-4.7988415,-2.239274,0
0.17,20.99999988049708,5.9999998992900245,-5.999999957275269,-2.69843330473045,17.140476,-0.10456411,-5.8340464,-0.73734426,18.683931,-9.444338,2.052868,0.15348412,-0.30898246,0.36066186,0.8665421,-12.385564,-6.372215,-0.025565412,5.1039524,-4.986477,-2.261805,0
0.18000000000000002,20.99999988049708,5.9999998992900245,-5.999999957275269,-2.69843330473045,17.140476,-0.10456411,-5.8340464,-0.73734426,18.559645,-9.507297,2.052699,0.18034843,-0.2869341,0.37542132,0.8626713,-12.469708,-6.218504,-0.008016265,5.243386,-5.1448135,-2.2832305,0
0.19000000000000003,20.99999988049708,5.9999998992900245,-5.999999957275269,-2.69843330473045,17.140476,-0.10456411,-5.8340464,-0.73734426,18.434584,-9.5686865,2.0527103,0.20749334,-0.2637577,0.3900181,0.8574754,-12.539849,-6.058538,0.010383927,5.361111,-5.278425,-2.3036046,0
0.20000000000000004,21.0,4.903002829085211,-5.9999992086792,-1.103721775930066,19.138323,2.1903691,-4.7308006,-2.663178,18.308895,-9.62845,2.052909,0.2347847,-0.23957345,0.40432265,0.8508841,-12.595181,-5.8932557,0.029331889,5.460509,-5.3911724,-2.322979,0
0.21000000000000005,21.0,4.903002829085211,-5.9999992086792,-1.103721775930066,19.138323,2.1903691,-4.7308006,-2.663178,18.182732,-9.686538,2.053298,0.26183152,-0.21452408,0.41790083,0.8430791,-12.635049,-5.723739,0.04851127,5.3736367,-5.4857774,-2.2631497,0
0.22000000000000006,21.0,4.903002829085211,-5.9999992086792,-1.103721775930066,19.138323,2.1903691,-4.7308006,-2.663178,18.056248,-9.742915,2.0538793,0.28830862,-0.18874645,0.43042165,0.8342601,-12.659073,-5.5512786,0.06771371,5.3003297,-5.565665,-2.2062564,0
0.23000000000000007,21.0,4.903002829085211,-5.9999992086792,-1.103721775930066,19.138323,2.1903691,-4.7308006,-2.663178,17.929604,-9.797558,2.0546517,0.3141877,-0.16233808,0.44191992,0.82440215,-12.667048,-5.3772173,0.08674006,5.2384686,-5.633125,-2.1521547,0
0.24000000000000007,21.0,4.903002829085211,-5.9999992086792,-1.103721775930066,18.10245,-0.5313274,-3.805336,-0.45120502,17.80296,-9.850458,2.0556126,0.3394388,-0.13538751,0.45242444,0.81348836,-12.658889,-5.2028875,0.105353676,5.1862636,-5.6900916,-2.100708,0
0.25000000000000006,21.0,4.903002829085211,-5.9999992086792,-1.103721775930066,18.10245,-0.5313274,-3.805336,-0.45120502,17.67648,-9.901619,2.0567565,0.36403129,-0.10797602,0.46195856,0.8015088,-12.63462,-5.029605,0.12328695,5.1422067,-5.738197,-2.0517857,0
0.26000000000000006,21.0,4.903002829085211,-5.9999992086792,-1.103721775930066,18.10245,-0.5313274,-3.805336,-0.45120502,17.550322,-9.951057,2.0580752,0.38793418,-0.08017894,0.47054148,0.7884597,-12.594379,-4.858662,0.14024754,5.1050243,-5.7788205,-2.0052638,0
0.2700000000000001,21.0,4.903002829085211,-5.9999992086792,-1.103721775930066,18.10245,-0.5313274,-3.805336,-0.45120502,17.424648,-9.998803,2.0595572,0.4111167,-0.052066743,0.47818878,0.7743431,-12.538416,-4.691323,0.15592399,5.0736423,-5.8131256,-1.9610248,0
0.2800000000000001,20.99999999698697,3.3829332560610488,-4.145269664540978,-0.2357522330306486,18.378437,-0.84627384,-3.2601902,-0.62805605,17.29961,-10.0449,2.061188,0.43354866,-0.02370591,0.4849132,0.7591655,-12.46708,-4.528814,0.16999096,5.0471544,-5.8420963,-1.9189566,0
0.2900000000000001,20.99999999698697,3.3829332560610488,-4.145269664540978,-0.2357522330306486,18.378437,-0.84627384,-3.2601902,-0.62805605,17.175358,-10.0894,2.0629501,0.45476037,0.0040645357,0.49060884,0.74328923,-12.380906,-4.37228,0.18212453,4.788252,-5.5768948,-1.8363612,0
0.3000000000000001,20.99999999698697,3.3829332560610488,-4.145269664540978,-0.2357522330306486,18.378437,-0.84627384,-3.2601902,-0.62805605,17.052038,-10.132368,2.064823,0.47442532,0.030579517,0.49526593,0.7271153,-12.28095,-4.22256,0.19207194,4.5696354,-5.353138,-1.7578188,0
0.3100000000000001,20.99999999698697,3.3829332560610488,-4.145269664540978,-0.2357522330306486,18.378437,-0.84627384,-3.2601902,-0.62805605,16.929785,-10.173877,2.0667834,0.49270758,0.056019228,0.49901482,0.7106932,-12.168358,-4.0802875,0.19963679,4.385038,-5.164346,-1.6831306,0
0.3200000000000001,20.99999984464768,1.5254326704363486,-1.60076446844939,0.3118193793904561,16.885714,-2.294589,-1.968967,-0.28879696,16.808712,-10.214002,2.068807,0.5097441,0.08053738,0.5019582,0.69405484,-12.044188,-3.945998,0.20465194,4.229167,-5.0050545,-1.6121073,0
0.3300000000000001,20.99999984464768,1.5254326704363486,-1.60076446844939,0.3118193793904561,16.885714,-2.294589,-1.968967,-0.28879696,16.688934,-10.252825,2.070867,0.5251697,0.10321658,0.50419813,0.6777365,-11.909501,-3.8200684,0.20698899,3.808356,-4.4734797,-1.5176997,0
0.34000000000000014,20.99999984464768,1.5254326704363486,-1.60076446844939,0.3118193793904561,16.885714,-2.294589,-1.968967,-0.28879696,16.57055,-10.290431,2.0729373,0.5387639,0.12335939,0.505894,0.66225874,-11.765735,-3.702328,0.20664927,3.4530153,-4.0249267,-1.4279246,0
0.35000000000000014,20.99999984464768,1.5254326704363486,-1.60076446844939,0.3118193793904561,16.885714,-2.294589,-1.968967,-0.28879696,16.453648,-10.326898,2.074991,0.55081743,0.14138359,0.5071799,0.6475947,-11.61424,-3.5923939,0.2037039,3.1529658,-3.6464243,-1.3425549,0
0.36000000000000015,20.999998890211902,-0.4683562117503624,0.9156490490146536,1.3488196380840685,16.676888,-3.3570437,0.21756403,0.5703571,16.338293,-10.362303,2.0770025,0.5615668,0.15764253,0.5081519,0.63369757,-11.456124,-3.4898741,0.19824243,2.899609,-3.3270292,-1.2613744,0
0.37000000000000016,20.999998890211902,-0.4683562117503624,0.9156490490146536,1.3488196380840685,16.676888,-3.3570437,0.21756403,0.5703571,16.224548,-10.396718,2.0789475,0.57075197,0.17141768,0.5089341,0.62116313,-11.292372,-3.394296,0.19038758,2.3751462,-2.6647544,-1.1332912,0
0.38000000000000017,20.999998890211902,-0.4683562117503624,0.9156490490146536,1.3488196380840685,16.676888,-3.3570437,0.21756403,0.5703571,16.112463,-10.430209,2.080803,0.5782084,0.1821804,0.509666,0.61051226,-11.124161,-3.304662,0.18041913,1.9322858,-2.1059103,-1.0114933,0
0.3900000000000002,20.999998890211902,-0.4683562117503624,0.9156490490146536,1.3488196380840685,16.676888,-3.3570437,0.21756403,0.5703571,16.002077,-10.462829,2.0825496,0.5842278,0.19045588,0.5104118,0.60156757,-10.952536,-3.2198746,0.16865309,1.5583429,-1.6343343,-0.8956721,0
0.4000000000000002,20.99999889604687,-2.883655322740828,3.761449907144707,1.648281813537918,18.001778,-4.2417955,2.3754716,2.1928916,15.89342,-10.49462,2.0841708,0.58903986,0.19668105,0.5112047,0.5941528,-10.778304,-3.1389573,0.15537345,1.2426028,-1.2363912,-0.78553426,0
0.4100000000000002,20.99999889604687,-2.883655322740828,3.761449907144707,1.648281813537918,18.001778,-4.2417955,2.3754716,2.1928916,15.786516,-10.525618,2.0856528,0.59241784,0.19999434,0.51215506,0.5888462,-10.602166,-3.0609374,0.14086597,0.59955287,-0.45660228,-0.6661062,0
0.4200000000000002,20.99999889604687,-2.883655322740828,3.761449907144707,1.648281813537918,18.001778,-4.2417955,2.3754716,2.1928916,15.681379,-10.555843,2.0869856,0.59418905,0.19973499,0.51335514,0.5860982,-10.425061,-2.9842954,0.12558761,0.05662185,0.20144258,-0.5525386,0
0.4300000000000002,20.99999889604687,-2.883655322740828,3.761449907144707,1.648281813537918,18.001778,-4.2417955,2.3754716,2.1928916,15.578015,-10.585303,2.0881639,0.5945736,0.19649933,0.51477236,0.58555865,-10.247876,-2.9074943,0.10999253,-0.4017639,0.7567622,-0.44454366,0
0.4400000000000002,20.99999889604687,-2.883655322740828,3.761449907144707,1.648281813537918,17.726505,-5.308222,4.2798395,2.2807484,15.47642,-10.613988,2.089186,0.5937345,0.19078037,0.51635677,0.5869048,-10.071357,-2.829231,0.09444916,-0.7887579,1.2254022,-0.34184813,0
0.45000000000000023,20.99999889604687,-2.883655322740828,3.761449907144707,1.648281813537918,17.726505,-5.308222,4.2798395,2.2807484,15.376584,-10.641879,2.090054,0.5917945,0.18298705,0.518051,0.5898454,-9.896157,-2.7484114,0.07924655,-1.1154697,1.6209003,-0.24419186,0
0.46000000000000024,20.99999889604687,-2.883655322740828,3.761449907144707,1.648281813537918,17.726505,-5.308222,4.2798395,2.2807484,15.278491,-10.668945,2.0907726,0.58884805,0.17346007,0.5197971,0.5941212,-9.722865,-2.6641297,0.06460273,-1.3912815,1.9546783,-0.15132762,0
0.47000000000000025,20.99999889604687,-2.883655322740828,3.761449907144707,1.648281813537918,17.726505,-5.308222,4.2798395,2.2807484,15.182118,-10.695147,2.0913484,0.5849698,0.1624843,0.52153987,0.59950376,-9.552033,-2.5756462,0.05067363,-1.6241164,2.2363737,-0.063020274,0
0.48000000000000026,20.99999941325472,-4.609131796884048,5.005271314629959,1.5920590767060812,19.245195,-6.07982,4.959069,1.4316875,15.08744,-10.720442,2.091789,0.5802204,0.15029898,0.52322906,0.60579306,-9.384184,-2.482369,0.037561823,-1.8206656,2.474117,0.020953793,0
0.49000000000000027,20.99999941325472,-4.609131796884048,5.005271314629959,1.5920590767060812,19.245195,-6.07982,4.959069,1.4316875,14.994422,-10.744777,2.0921028,0.5744894,0.13639855,0.5246847,0.6132395,-9.219869,-2.3837829,0.025356472,-2.2556736,2.868731,0.09804838,0
0.5000000000000002,20.99999941325472,-4.609131796884048,5.005271314629959,1.5920590767060812,19.245195,-6.07982,4.959069,1.4316875,14.903027,-10.768096,2.0923002,0.56765795,0.12038765,0.52573043,0.6219954,-9.05992,-2.2791967,0.014279353,-2.6228676,3.2017753,0.17135993,0
0.5100000000000002,20.99999941325472,-4.609131796884048,5.005271314629959,1.5920590767060812,19.245195,-6.07982,4.959069,1.4316875,14.813205,-10.790338,2.0923932,0.5597597,0.102601856,0.5263273,0.6317603,-8.905245,-2.168003,0.004525859,-2.9328134,3.4828627,0.24107404,0
0.5200000000000002,20.999999771975308,-5.438212398970063,5.2191798051246225,1.3794813292011932,21.085934,-6.82836,5.7921376,1.4852289,14.7249,-10.811432,2.0923955,0.5508226,0.083327256,0.5264396,0.6422708,-8.756726,-2.049787,-0.003799558,-3.194432,3.7201035,0.30736727,0
0.5300000000000002,20.999999771975308,-5.438212398970063,5.2191798051246225,1.3794813292011932,21.085934,-6.82836,5.7921376,1.4852289,14.638046,-10.831307,2.092322,0.54086727,0.06255809,0.5258685,0.6534607,-8.615243,-1.9242983,-0.0106513435,-3.5445302,3.9536927,0.3599762,0
0.5400000000000003,20.999999771975308,-5.438212398970063,5.2191798051246225,1.3794813292011932,21.085934,-6.82836,5.7921376,1.4852289,14.5525675,-10.849892,2.0921881,0.5298985,0.04030687,0.52443886,0.66524136,-8.481781,-1.7913895,-0.015945308,-3.84003,4.1508503,0.4100036,0
0.5500000000000003,20.999999771975308,-5.438212398970063,5.2191798051246225,1.3794813292011932,21.085934,-6.82836,5.7921376,1.4852289,14.468379,-10.867109,2.0920088,0.51792234,0.016828042,0.5221556,0.677367,-8.357332,-1.6510669,-0.019650005,-4.0894437,4.3172626,0.45757613,0
0.5600000000000003,20.999999789682363,-5.419081920072745,4.458534953738399,1.041695072617102,23.076927,-7.6121044,5.570128,2.1132278,14.385386,-10.882888,2.0918002,0.5049495,-0.007656963,0.5190245,0.68962324,-8.242836,-1.5035013,-0.021820799,-4.2999563,4.457727,0.5028143,0
0.5700000000000003,20.999999789682363,-5.419081920072745,4.458534953738399,1.041695072617102,23.076927,-7.6121044,5.570128,2.1132278,14.303485,-10.897156,2.0915775,0.49118462,-0.03276108,0.51490855,0.70180684,-8.13916,-1.3490309,-0.022572156,-4.47456,4.457719,0.52925736,0
0.5800000000000003,20.999999789682363,-5.419081920072745,4.458534953738399,1.041695072617102,23.076927,-7.6121044,5.570128,2.1132278,14.222563,-10.909846,2.0913537,0.47681057,-0.058160488,0.50971663,0.71376276,-8.047018,-1.1882253,-0.02199386,-4.6219306,4.45772,0.5544028,0
0.5900000000000003,20.999999789682363,-5.419081920072745,4.458534953738399,1.041695072617102,23.076927,-7.6121044,5.570128,2.1132278,14.142502,-10.920901,2.0911417,0.46181518,-0.08376035,0.50351924,0.72538173,-7.967022,-1.0217673,-0.020204546,-4.7463155,4.4577284,0.5783144,0
0.6000000000000003,20.99999975929798,-4.61758786168406,3.249022322017335,0.7121265957417142,22.896044,-7.308473,4.8501887,1.8496702,14.063179,-10.930265,2.090953,0.44619456,-0.10947641,0.49637914,0.7365679,-7.899712,-0.8503965,-0.01737543,-4.8513,4.4577427,0.60105264,0
0.6100000000000003,20.99999975929798,-4.61758786168406,3.249022322017335,0.7121265957417142,22.896044,-7.308473,4.8501887,1.8496702,13.984463,-10.937895,2.090797,0.4302642,-0.13475536,0.48837847,0.7471275,-7.845506,-0.67492193,-0.013712546,-4.8147945,4.2692404,0.60650307,0
0.6200000000000003,20.99999975929798,-4.61758786168406,3.249022322017335,0.7121265957417142,22.896044,-7.308473,4.8501887,1.8496702,13.906223,-10.943752,2.0906813,0.41431025,-0.15916093,0.47962278,0.7569519,-7.804459,-0.49628252,-0.009396373,-4.783991,4.1101336,0.6116861,0
0.6300000000000003,20.99999975929798,-4.61758786168406,3.249022322017335,0.7121265957417142,22.896044,-7.308473,4.8501887,1.8496702,13.828329,-10.947812,2.090611,0.3982945,-0.1827822,0.47019303,0.76607454,-7.7764883,-0.31540608,-0.004599179,-4.758,3.9758396,0.6166148,0
0.6400000000000003,20.99999975929798,-4.61758786168406,3.249022322017335,0.7121265957417142,22.532814,-6.8535995,4.1721096,1.2915375,13.750649,-10.950055,2.0905902,0.38218582,-0.20569414,0.46015623,0.774519,-7.7614884,-0.13316408,0.0004982982,-4.736069,3.862487,0.62130165,0
0.6500000000000004,20.99999975929798,-4.61758786168406,3.249022322017335,0.7121265957417142,22.532814,-6.8535995,4.1721096,1.2915375,13.673056,-10.950473,2.0906212,0.36595935,-0.22795928,0.4495684,0.7823018,-7.7593303,0.0496194,0.0057073603,-4.7175646,3.7668114,0.6257584,0
0.6600000000000004,20.99999975929798,-4.61758786168406,3.249022322017335,0.7121265957417142,22.532814,-6.8535995,4.1721096,1.2915375,13.59542,-10.949063,2.0907042,0.34959605,-0.24962942,0.43847665,0.7894336,-7.769864,0.23216039,0.010832124,-4.701951,3.686056,0.62999654,0
0.6700000000000004,20.99999975929798,-4.61758786168406,3.249022322017335,0.7121265957417142,22.532814,-6.8535995,4.1721096,1.2915375,13.517616,-10.945834,2.090837,0.33308172,-0.27074698,0.42692095,0.7959212,-7.792915,0.41370958,0.015670426,-4.688776,3.6178937,0.6340267,0
0.6800000000000004,20.999999570535746,-3.412736800729485,1.8974058690526998,0.3454284742448927,22.173433,-6.487888,3.9579813,1.4330893,13.43952,-10.940796,2.0910156,0.31640658,-0.29134637,0.41493547,0.8017681,-7.8282847,0.5935484,0.020015009,-4.6776595,3.5603614,0.6378591,0
0.6900000000000004,20.999999570535746,-3.412736800729485,1.8974058690526998,0.3454284742448927,22.173433,-6.487888,3.9579813,1.4330893,13.361009,-10.933972,2.0912347,0.29997113,-0.31089348,0.40276155,0.80693567,-7.875686,0.77099526,0.023670767,-4.480257,3.3011487,0.62350947,0
0.7000000000000004,20.999999570535746,-3.412736800729485,1.8974058690526998,0.3454284742448927,22.173433,-6.487888,3.9579813,1.4330893,13.281966,-10.925386,2.0914862,0.28411853,-0.32899016,0.39062354,0.81145227,-7.9344482,0.9454705,0.026541572,-4.313661,3.0823417,0.60986394,0
0.7100000000000004,20.999999570535746,-3.412736800729485,1.8974058690526998,0.3454284742448927,22.173433,-6.487888,3.9579813,1.4330893,13.202283,-10.915073,2.0917623,0.26876232,-0.34584382,0.37852013,0.8154023,-8.003835,1.1164949,0.0285751,-4.1730647,2.8976429,0.59688807,0
0.7200000000000004,20.999996630962727,-1.803527456929354,0.44047690184207394,-0.022852131900306806,20.742815,-5.6227956,2.9343905,0.8431223,13.121856,-10.9030695,2.0920546,0.25382662,-0.3616283,0.3664452,0.81884956,-8.083191,1.2836583,0.029724652,-4.054409,2.7417352,0.58454883,0
0.7300000000000004,20.999996630962727,-1.803527456929354,0.44047690184207394,-0.022852131900306806,20.742815,-5.6227956,2.9343905,0.8431223,13.040587,-10.889416,2.0923536,0.23973386,-0.37587243,0.35476136,0.82182217,-8.171853,1.4466333,0.029963491,-3.703202,2.3830612,0.5547435,0
0.7400000000000004,20.999996630962727,-1.803527456929354,0.44047690184207394,-0.022852131900306806,20.742815,-5.6227956,2.9343905,0.8431223,12.95839,-10.874153,2.092651,0.2268339,-0.38823864,0.34377816,0.8243988,-8.268817,1.6053244,0.029376633,-3.4068007,2.0802865,0.52640074,0
0.7500000000000004,20.999996630962727,-1.803527456929354,0.44047690184207394,-0.022852131900306806,20.742815,-5.6227956,2.9343905,0.8431223,12.875185,-10.857326,2.092939,0.21496332,-0.39903668,0.33340853,0.8266795,-8.373093,1.7597525,0.028090805,-3.156651,1.8247005,0.49944872,0
0.7600000000000005,19.50680406554693,-0.02500372451384276,-1.0224420021551095,-0.4086558942115141,19.549583,-4.385383,1.7554985,-0.33723146,12.790905,-10.838974,2.093211,0.20397922,-0.4085234,0.32357088,0.82873565,-8.483851,1.9099733,0.026228813,-2.945535,1.6089494,0.47381926,0
0.7700000000000005,19.50680406554693,-0.02500372451384276,-1.0224420021551095,-0.4086558942115141,19.549583,-4.385383,1.7554985,-0.33723146,12.705529,-10.819193,2.0934281,0.19427943,-0.41630313,0.3146472,0.8306288,-8.592043,2.045712,0.017113626,-2.4899187,1.1987969,0.43051594,0
0.7800000000000005,19.50680406554693,-0.02500372451384276,-1.0224420021551095,-0.4086558942115141,19.549583,-4.385383,1.7554985,-0.33723146,12.619049,-10.798072,2.0935528,0.1861824,-0.42209202,0.30694652,0.8324411,-8.704569,2.1780071,0.007814372,-2.1053963,0.85256076,0.38933754,0
0.7900000000000005,19.50680406554693,-0.02500372451384276,-1.0224420021551095,-0.4086558942115141,19.549583,-4.385383,1.7554985,-0.33723146,12.531425,-10.775644,2.0935845,0.17946276,-0.42623025,0.30029494,0.83423245,-8.820504,2.3072839,-0.0014218611,-1.7808715,0.5602832,0.35017973,0
0.8000000000000005,17.94210783613358,1.5048349309260554,-2.1582517146169953,-0.6933378748602068,17.377453,-2.8292465,0.9422392,-1.6677029,12.44263,-10.751936,2.0935252,0.17392597,-0.4289971,0.29453802,0.83603746,-8.93909,2.4339345,-0.010372373,-1.5069807,0.3135574,0.31294346,0
0.8100000000000005,17.94210783613358,1.5048349309260554,-2.1582517146169953,-0.6933378748602068,17.377453,-2.8292465,0.9422392,-1.6677029,12.352686,-10.727024,2.0933425,0.16983095,-0.43014824,0.28995994,0.83788615,-9.049979,2.5483716,-0.026016772,-1.0372128,-0.07178982,0.26356494,0
0.8200000000000005,17.94210783613358,1.5048349309260554,-2.1582517146169953,-0.6933378748602068,17.377453,-2.8292465,0.9422392,-1.6677029,12.261626,-10.7009735,2.093007,0.16737601,-0.42950353,0.28677845,0.8398036,-9.161902,2.6612856,-0.04095838,-0.6407377,-0.397084,0.21660945,0
0.8300000000000005,17.94210783613358,1.5048349309260554,-2.1582517146169953,-0.6933378748602068,17.377453,-2.8292465,0.9422392,-1.6677029,12.169446,-10.6738,2.092527,0.1663231,-0.42735535,0.28477463,0.84178823,-9.2741165,2.7732105,-0.05495944,-0.30611736,-0.67168045,0.17195809,0
0.8400000000000005,17.94210783613358,1.5048349309260554,-2.1582517146169953,-0.6933378748602068,15.175427,-1.5334762,-0.18683465,-2.309579,12.076145,-10.645513,2.091912,0.16646856,-0.42394337,0.28375882,0.8438253,-9.385998,2.8846035,-0.06781951,-0.023698956,-0.9034776,0.1294978,0
0.8500000000000005,17.94210783613358,1.5048349309260554,-2.1582517146169953,-0.6933378748602068,15.175427,-1.5334762,-0.18683465,-2.309579,11.9817295,-10.616111,2.091175,0.16763861,-0.41946518,0.28356776,0.8458933,-9.497019,2.9958491,-0.079373315,0.21466282,-1.0991442,0.089121014,0
0.8600000000000005,17.94210783613358,1.5048349309260554,-2.1582517146169953,-0.6933378748602068,15.175427,-1.5334762,-0.18683465,-2.309579,11.8862095,-10.585595,2.0903296,0.16968514,-0.41408443,0.28406155,0.8479682,-9.6067295,3.1072655,-0.08948769,0.4158427,-1.2643099,0.050725512,0
0.8700000000000006,17.94210783613358,1.5048349309260554,-2.1582517146169953,-0.6933378748602068,15.175427,-1.5334762,-0.18683465,-2.309579,11.789601,-10.553964,2.0893908,0.17248198,-0.4079373,0.28512093,0.8500254,-9.714739,3.2191126,-0.09805823,0.58564186,-1.4037277,0.014214104,0
0.8800000000000006,17.107966084131842,2.4345705306207748,-2.7257127860142543,-0.879344989413519,13.554853,-0.57518977,-0.66579026,-2.0394402,11.691922,-10.521211,2.0883741,0.17592175,-0.40113756,0.28664443,0.8520418,-9.820709,3.3315983,-0.105005935,0.7289563,-1.5214102,-0.020505674,0
0.8900000000000006,17.107966084131842,2.4345705306207748,-2.7257127860142543,-0.879344989413519,13.554853,-0.57518977,-0.66579026,-2.0394402,11.59322,-10.487355,2.0872748,0.18014576,-0.39352685,0.28881323,0.8539737,-9.919497,3.4396381,-0.11458618,0.99489677,-1.7092509,-0.06264915,0
0.9000000000000006,17.107966084131842,2.4345705306207748,-2.7257127860142543,-0.879344989413519,13.554853,-0.57518977,-0.66579026,-2.0394402,11.493542,-10.4524145,2.086088,0.1852587,-0.38497892,0.29176182,0.85577184,-10.015606,3.5487127,-0.122503616,1.2193581,-1.8678082,-0.10272465,0
0.9100000000000006,17.107966084131842,2.4345705306207748,-2.7257127860142543,-0.879344989413519,13.554853,-0.57518977,-0.66579026,-2.0394402,11.392918,-10.416376,2.0848305,0.19112623,-0.37562484,0.29534727,0.857407,-10.108611,3.6590502,-0.12871933,1.4088113,-2.0016456,-0.14083362,0
0.9200000000000006,16.96229548567018,2.9967474650985633,-2.8832690338494973,-1.1515468647556915,12.415795,0.28080675,-1.4384664,-1.9051402,11.291381,-10.379229,2.0835197,0.19763367,-0.36557502,0.2994481,0.85885185,-10.198132,3.7708175,-0.13321927,1.5687178,-2.114615,-0.17707258,0
0.9300000000000006,16.96229548567018,2.9967474650985633,-2.8832690338494973,-1.1515468647556915,12.415795,0.28080675,-1.4384664,-1.9051402,11.188972,-10.34096,2.0821683,0.20481211,-0.35483336,0.30412924,0.8600294,-10.283085,3.8831742,-0.13682546,1.791335,-2.2345672,-0.2248903,0
0.9400000000000006,16.96229548567018,2.9967474650985633,-2.8832690338494973,-1.1515468647556915,12.415795,0.28080675,-1.4384664,-1.9051402,11.085735,-10.3015585,2.080789,0.2126802,-0.34340551,0.30943257,0.8608665,-10.363847,3.9972134,-0.13878751,1.9792346,-2.335818,-0.2703616,0
0.9500000000000006,16.96229548567018,2.9967474650985633,-2.8832690338494973,-1.1515468647556915,12.415795,0.28080675,-1.4384664,-1.9051402,10.981712,-10.261008,2.0793977,0.22113004,-0.33138075,0.31523174,0.86134607,-10.440044,4.113041,-0.13917507,2.1378322,-2.4212809,-0.3136016,0
0.9600000000000006,16.39870102565317,3.007509629825982,-2.772716453471806,-1.2678915957099335,11.497888,0.36889336,-1.9404696,-1.5846486,10.876952,-10.219292,2.07801,0.23006913,-0.3188356,0.3214196,0.861453,-10.511342,4.2307053,-0.13807276,2.271698,-2.493416,-0.35471982,0
0.9700000000000006,16.39870102565317,3.007509629825982,-2.772716453471806,-1.2678915957099335,11.497888,0.36889336,-1.9404696,-1.5846486,10.771516,-10.176409,2.076624,0.23941743,-0.3058778,0.32791486,0.86115605,-10.575246,4.3462396,-0.13892277,2.3863633,-2.537069,-0.39952943,0
0.9800000000000006,16.39870102565317,3.007509629825982,-2.772716453471806,-1.2678915957099335,11.497888,0.36889336,-1.9404696,-1.5846486,10.665465,-10.132361,2.0752354,0.24910766,-0.29259872,0.33464876,0.86043096,-10.633876,4.4635196,-0.138549,2.4831498,-2.573912,-0.4421402,0
0.9900000000000007,16.39870102565317,3.007509629825982,-2.772716453471806,-1.2678915957099335,11.497888,0.36889336,-1.9404696,-1.5846486,10.558856,-10.087132,2.0738566,0.2590829,-0.27903765,0.3415541,0.8592757,-10.687016,4.58248,-0.13708135,2.5648458,-2.6050065,-0.48266006,0
1.0000000000000007,16.038947733267722,2.601604469994199,-2.4347777158091546,-1.343483520645098,11.057708,-0.0941594,-2.147025,-1.3515399,10.451743,-10.040706,2.072497,0.2692937,-0.26522917,0.3485741,0.85768896,-10.734472,4.703024,-0.13465314,2.6338046,-2.6312485,-0.52119166,0
1.0100000000000007,16.038947733267722,2.601604469994199,-2.4347777158091546,-1.343483520645098,11.057708,-0.0941594,-2.147025,-1.3515399,10.344191,-9.993079,2.0711548,0.27961573,-0.25136784,0.35555694,0.85569173,-10.775177,4.8223505,-0.13362448,2.6287246,-2.6006763,-0.5615418,0
1.0200000000000007,16.038947733267722,2.601604469994199,-2.4347777158091546,-1.343483520645098,11.057708,-0.0941594,-2.147025,-1.3515399,10.23626,-9.944253,2.0698266,0.2899525,-0.23761539,0.36238518,0.8533131,-10.81012,4.942939,-0.13192731,2.6244402,-2.5748684,-0.59991187,0
1.0300000000000007,16.038947733267722,2.601604469994199,-2.4347777158091546,-1.343483520645098,11.057708,-0.0941594,-2.147025,-1.3515399,10.128009,-9.894216,2.0685182,0.30030063,-0.22395529,0.3690608,0.85056305,-10.839288,5.0646124,-0.12969418,2.620827,-2.5530822,-0.6363991,0
1.0400000000000007,16.038947733267722,2.601604469994199,-2.4347777158091546,-1.343483520645098,11.178827,-0.5378638,-1.8792758,-1.1324667,10.019494,-9.842957,2.067234,0.31065583,-0.21037383,0.37558523,0.8474499,-10.86267,5.187194,-0.12705117,2.6177793,-2.5346906,-0.6710959,0
1.0500000000000007,16.038947733267722,2.601604469994199,-2.4347777158091546,-1.343483520645098,11.178827,-0.5378638,-1.8792758,-1.1324667,9.910775,-9.790468,2.065978,0.3210131,-0.19685975,0.38195953,0.8439808,-10.880258,5.310503,-0.1241188,2.6152093,-2.5191646,-0.7040902,0
1.0600000000000007,16.038947733267722,2.601604469994199,-2.4347777158091546,-1.343483520645098,11.178827,-0.5378638,-1.8792758,-1.1324667,9.8019085,-9.736744,2.0647526,0.33136672,-0.18340385,0.3881844,0.8401618,-10.892049,5.4343596,-0.12101269,2.6130424,-2.506057,-0.73546535,0
1.0700000000000007,16.038947733267722,2.601604469994199,-2.4347777158091546,-1.343483520645098,11.178827,-0.5378638,-1.8792758,-1.1324667,9.692954,-9.681779,2.0635583,0.3417106,-0.1699987,0.39426035,0.8359982,-10.898042,5.558581,-0.11784417,2.6112156,-2.494991,-0.765301,0
1.0800000000000007,15.844017702570694,1.845692208576467,-1.9187602235523147,-1.3585705027758097,11.214039,-0.8991298,-1.7201685,-0.90515316,9.583968,-9.625571,2.0623956,0.35203815,-0.15663841,0.40018755,0.8314946,-10.898244,5.682983,-0.11472076,2.6096754,-2.4856482,-0.79367256,0
1.0900000000000007,15.844017702570694,1.845692208576467,-1.9187602235523147,-1.3585705027758097,11.214039,-0.8991298,-1.7201685,-0.90515316,9.475009,-9.568128,2.0612571,0.36221653,-0.14359875,0.40578994,0.8267484,-10.892758,5.805868,-0.112970635,2.4905348,-2.3972256,-0.8213923,0
1.1000000000000008,15.844017702570694,1.845692208576467,-1.9187602235523147,-1.3585705027758097,11.214039,-0.8991298,-1.7201685,-0.90515316,9.366133,-9.509456,2.0601356,0.37214833,-0.13110313,0.41093874,0.82185566,-10.881776,5.928557,-0.11143182,2.389972,-2.3225965,-0.8477518,0
1.1100000000000008,15.844017702570694,1.845692208576467,-1.9187602235523147,-1.3585705027758097,11.214039,-0.8991298,-1.7201685,-0.90515316,9.257393,-9.449558,2.0590277,0.38187385,-0.11907564,0.4156965,0.8168167,-10.865508,6.050872,-0.11015626,2.3050895,-2.2596095,-0.87281775,0
1.1200000000000008,15.204943131454923,0.8376053158813916,-1.3593729808817592,-1.2043113918860173,11.315674,-1.574511,-1.1559155,-0.6061083,9.14884,-9.38844,2.0579312,0.39142537,-0.107451275,0.42011496,0.8116302,-10.844142,6.172653,-0.10918994,2.2334425,-2.2064483,-0.8966538,0
1.1300000000000008,15.204943131454923,0.8376053158813916,-1.3593729808817592,-1.2043113918860173,11.315674,-1.574511,-1.1559155,-0.6061083,9.040521,-9.326132,2.0568225,0.4006787,-0.096507475,0.42400268,0.8064517,-10.8189335,6.288867,-0.11254723,2.0158193,-2.0742402,-0.9117506,0
1.1400000000000008,15.204943131454923,0.8376053158813916,-1.3593729808817592,-1.2043113918860173,11.315674,-1.574511,-1.1559155,-0.6061083,8.932476,-9.262665,2.0556788,0.40954435,-0.08646385,0.42722157,0.801423,-10.789358,6.4042964,-0.116206825,1.8321252,-1.9626651,-0.92610663,0
1.1500000000000008,15.204943131454923,0.8376053158813916,-1.3593729808817592,-1.2043113918860173,11.315674,-1.574511,-1.1559155,-0.6061083,8.824747,-9.19805,2.0544972,0.41809076,-0.07718978,0.42988074,0.79651994,-10.755766,6.518835,-0.12012451,1.6770705,-1.8685036,-0.9397582,0
1.1600000000000008,14.844121170867753,-0.16279147052530038,-0.8990165347440671,-0.9791655288731766,11.401848,-2.2275655,-0.9513635,-0.40280196,8.717374,-9.132293,2.0532756,0.42637357,-0.06857343,0.4320701,0.79171854,-10.718456,6.6323967,-0.12425863,1.5461897,-1.7890381,-0.9527399,0
1.1700000000000008,14.844121170867753,-0.16279147052530038,-0.8990165347440671,-0.9791655288731766,11.401848,-2.2275655,-0.9513635,-0.40280196,8.610385,-9.065417,2.0520005,0.43431088,-0.060824834,0.4336299,0.78717154,-10.678676,6.7422414,-0.1307857,1.2797595,-1.6500753,-0.95403665,0
1.1800000000000008,14.844121170867753,-0.16279147052530038,-0.8990165347440671,-0.9791655288731766,11.401848,-2.2275655,-0.9513635,-0.40280196,8.50381,-8.99745,2.0506597,0.44184372,-0.054106057,0.43444437,0.78300977,-10.635931,6.851015,-0.13736889,1.0548662,-1.5328095,-0.95526975,0
1.1900000000000008,14.844121170867753,-0.16279147052530038,-0.8990165347440671,-0.9791655288731766,11.401848,-2.2275655,-0.9513635,-0.40280196,8.397675,-8.9284,2.0492535,0.4490422,-0.04826315,0.4346388,0.77917933,-10.590608,6.9586883,-0.14389108,0.8650336,-1.4338526,-0.95644236,0
1.2000000000000008,14.4984282385247,-1.025311618070211,-0.5401834543734092,-0.6841414653716571,11.650789,-2.837617,-0.92057484,-0.041230362,8.292006,-8.858279,2.0477827,0.4559631,-0.04316481,0.43431616,0.775631,-10.543031,7.0652447,-0.15024948,0.7047958,-1.3503457,-0.9575574,0
1.2100000000000009,14.4984282385247,-1.025311618070211,-0.5401834543734092,-0.6841414653716571,11.650789,-2.837617,-0.92057484,-0.041230362,8.186816,-8.787111,2.046239,0.46254805,-0.0389529,0.43336204,0.7724823,-10.494652,7.168222,-0.1584873,0.43507627,-1.2238293,-0.9441408,0
1.2200000000000009,14.4984282385247,-1.025311618070211,-0.5401834543734092,-0.6841414653716571,11.650789,-2.837617,-0.92057484,-0.041230362,8.082118,-8.714918,2.0446146,0.4687517,-0.035733268,0.43169275,0.76982844,-10.4447365,7.2701135,-0.16632736,0.20740438,-1.1170734,-0.93138254,0
1.2300000000000009,14.4984282385247,-1.025311618070211,-0.5401834543734092,-0.6841414653716571,11.650789,-2.837617,-0.92057484,-0.041230362,7.9779253,-8.641711,2.0429144,0.47463244,-0.033353575,0.429426,0.7675965,-10.393646,7.3709397,-0.17363031,0.015225738,-1.026991,-0.91925037,0
1.2400000000000009,14.4984282385247,-1.025311618070211,-0.5401834543734092,-0.6841414653716571,11.324923,-3.4142885,-0.6032912,0.14801489,7.874248,-8.567503,2.0411441,0.48023766,-0.031684358,0.4266587,0.76572174,-10.341686,7.4707246,-0.18027881,-0.14699279,-0.9509775,-0.9077135,0
1.2500000000000009,14.4984282385247,-1.025311618070211,-0.5401834543734092,-0.6841414653716571,11.324923,-3.4142885,-0.6032912,0.14801489,7.771094,-8.492301,2.0393114,0.4856058,-0.030615687,0.4234708,0.76414764,-10.289115,7.5694923,-0.18617503,-0.2839219,-0.8868354,-0.89674276,0
1.260000000000001,14.4984282385247,-1.025311618070211,-0.5401834543734092,-0.6841414653716571,11.324923,-3.4142885,-0.6032912,0.14801489,7.668467,-8.416118,2.0374238,0.4907685,-0.03005429,0.4199287,0.76282525,-10.2361555,7.6672664,-0.19123834,-0.3995039,-0.8327104,-0.88631034,0
1.270000000000001,14.4984282385247,-1.025311618070211,-0.5401834543734092,-0.6841414653716571,11.324923,-3.4142885,-0.6032912,0.14801489,7.5663714,-8.338961,2.0354898,0.49575165,-0.029921042,0.41608742,0.7617124,-10.182997,7.7640686,-0.19540301,-0.4970668,-0.78703785,-0.8763898,0
1.280000000000001,14.105583512834977,-1.5165141953378125,-0.2889906858098503,-0.39303584685286475,11.252735,-3.4586031,-0.52726597,0.20560668,7.4648075,-8.260839,2.0335188,0.5005768,-0.030148873,0.41199282,0.76077276,-10.129802,7.859917,-0.19861619,-0.57941973,-0.74849755,-0.8669562,0
1.290000000000001,14.105583512834977,-1.5165141953378125,-0.2889906858098503,-0.39303584685286475,11.252735,-3.4586031,-0.52726597,0.20560668,7.363768,-8.181778,2.031508,0.5051872,-0.030841345,0.40758526,0.7600713,-10.078161,7.9522614,-0.20342955,-0.7255083,-0.6767662,-0.84370077,0
1.300000000000001,14.105583512834977,-1.5165141953378125,-0.2889906858098503,-0.39303584685286475,11.252735,-3.4586031,-0.52726597,0.20560668,7.2632437,-8.101798,2.029454,0.50953466,-0.032076437,0.40281972,0.7596585,-10.026837,8.043731,-0.20721185,-0.848823,-0.6162372,-0.82158655,0
1.310000000000001,14.105583512834977,-1.5165141953378125,-0.2889906858098503,-0.39303584685286475,11.252735,-3.4586031,-0.52726597,0.20560668,7.16323,-8.020907,2.0273674,0.51364726,-0.0337671,0.39775065,0.7594866,-9.97603,8.134357,-0.20990832,-0.95291406,-0.5651605,-0.80055743,0
1.320000000000001,13.946113179443701,-1.7043204191892227,-0.1884540343902854,-0.13446248856445256,11.461634,-3.7351494,-0.50173956,0.4532738,7.063721,-7.9391146,2.0252593,0.5175483,-0.035839695,0.3924234,0.7595146,-9.925912,8.224172,-0.21147792,-1.0407779,-0.52205986,-0.78056026,0
1.330000000000001,13.946113179443701,-1.7043204191892227,-0.1884540343902854,-0.13446248856445256,11.461634,-3.7351494,-0.50173956,0.4532738,6.9647064,-7.8564324,2.023136,0.5212148,-0.038289003,0.3868409,0.75975156,-9.877192,8.312189,-0.21299432,-1.1442207,-0.47000518,-0.748856,0
1.340000000000001,13.946113179443701,-1.7043204191892227,-0.1884540343902854,-0.13446248856445256,11.461634,-3.7351494,-0.50173956,0.4532738,6.866174,-7.772874,2.0210035,0.5246258,-0.04110635,0.3810074,0.7602044,-9.829463,8.399453,-0.21333805,-1.231538,-0.426079,-0.7187075,0
1.350000000000001,13.946113179443701,-1.7043204191892227,-0.1884540343902854,-0.13446248856445256,11.461634,-3.7351494,-0.50173956,0.4532738,6.7681136,-7.6884465,2.0188735,0.52780247,-0.044229656,0.37495947,0.760837,-9.782876,8.485985,-0.21248883,-1.3052435,-0.3890115,-0.6900384,0
1.360000000000001,13.54654500570157,-1.5937299248732577,-0.35641607821786137,0.10227324009715134,11.590897,-3.6472144,-0.73360795,0.66633576,6.6705127,-7.603157,2.016758,0.53076303,-0.04760658,0.3687279,0.7616188,-9.7375555,8.571802,-0.21043612,-1.3674588,-0.35773095,-0.6627761,0
1.370000000000001,13.54654500570157,-1.5937299248732577,-0.35641607821786137,0.10227324009715134,11.590897,-3.6472144,-0.73360795,0.66633576,6.5733514,-7.5170255,2.0146542,0.533528,-0.051107537,0.36233804,0.7625262,-9.69487,8.654476,-0.21008103,-1.4027369,-0.35754493,-0.6252349,0
1.380000000000001,13.54654500570157,-1.5937299248732577,-0.35641607821786137,0.10227324009715134,11.590897,-3.6472144,-0.73360795,0.66633576,6.47661,-7.4300704,2.0125604,0.5361116,-0.05462619,0.3558117,0.76354283,-9.653587,8.736458,-0.20855464,-1.432514,-0.35738996,-0.5895359,0
1.390000000000001,13.54654500570157,-1.5937299248732577,-0.35641607821786137,0.10227324009715134,11.590897,-3.6472144,-0.73360795,0.66633576,6.380275,-7.342299,2.010487,0.53852075,-0.058153406,0.34916818,0.76465315,-9.613759,8.81773,-0.20586185,-1.4576476,-0.3572607,-0.55558866,0
1.400000000000001,13.279386328878237,-1.3013871093709672,-0.4758648213742719,0.27386229355275676,11.597181,-3.3094833,-0.97629017,0.77492106,6.28433,-7.2537184,2.0084467,0.54076195,-0.06168179,0.34242386,0.765844,-9.575432,8.898277,-0.2020121,-1.478862,-0.35715237,-0.5233072,0
1.410000000000001,13.279386328878237,-1.3013871093709672,-0.4758648213742719,0.27386229355275676,11.597181,-3.3094833,-0.97629017,0.77492106,6.188757,-7.164344,2.0064404,0.54284906,-0.06509822,0.3356579,0.767079,-9.539365,8.976508,-0.19905373,-1.4511818,-0.3757119,-0.4841898,0
1.420000000000001,13.279386328878237,-1.3013871093709672,-0.4758648213742719,0.27386229355275676,11.597181,-3.3094833,-0.97629017,0.77492106,6.093537,-7.0741906,2.0044692,0.5447931,-0.06831198,0.32893488,0.7683327,-9.50479,9.053991,-0.19500354,-1.427817,-0.39137265,-0.44699198,0
1.430000000000001,13.279386328878237,-1.3013871093709672,-0.4758648213742719,0.27386229355275676,11.597181,-3.3094833,-0.97629017,0.77492106,5.998656,-6.983267,2.002544,0.5465962,-0.07134811,0.32224783,0.76960874,-9.471684,9.130707,-0.18989152,-1.4080948,-0.40458724,-0.41161945,0
1.440000000000001,13.279386328878237,-1.3013871093709672,-0.4758648213742719,0.27386229355275676,11.581481,-2.8376906,-1.1716634,0.8233789,5.9040985,-6.8915796,2.000675,0.548261,-0.074228145,0.31559104,0.7709096,-9.440029,9.206633,-0.18374602,-1.3914475,-0.41573793,-0.37798265,0
1.450000000000001,13.279386328878237,-1.3013871093709672,-0.4758648213742719,0.27386229355275676,11.581481,-2.8376906,-1.1716634,0.8233789,5.80985,-6.799137,1.9988725,0.5497903,-0.076970726,0.30895954,0.77223665,-9.40981,9.281751,-0.17659424,-1.3773962,-0.42514682,-0.3459964,0
1.460000000000001,13.279386328878237,-1.3013871093709672,-0.4758648213742719,0.27386229355275676,11.581481,-2.8376906,-1.1716634,0.8233789,5.7158976,-6.7059474,1.9971465,0.5511874,-0.07959193,0.3023492,0.7735904,-9.381015,9.356045,-0.16846226,-1.3655359,-0.433086,-0.31557974,0
1.470000000000001,13.279386328878237,-1.3013871093709672,-0.4758648213742719,0.27386229355275676,11.581481,-2.8376906,-1.1716634,0.8233789,5.6222253,-6.6120186,1.9955065,0.5524554,-0.08210568,0.2957565,0.77497053,-9.353637,9.429499,-0.15937544,-1.3555249,-0.43978485,-0.28665563,0
1.480000000000001,13.21089828585611,-0.8429029288779046,-0.6009971326225804,0.38063684198757947,11.582531,-2.5376494,-1.3822836,0.7684969,5.5288196,-6.5173597,1.9939622,0.5535978,-0.084524065,0.28917837,0.77637655,-9.327669,9.502096,-0.1493585,-1.3470752,-0.4454372,-0.2591509,0
1.490000000000001,13.21089828585611,-0.8429029288779046,-0.6009971326225804,0.38063684198757947,11.582531,-2.5376494,-1.3822836,0.7684969,5.4356666,-6.4219813,1.9925196,0.55463827,-0.08671326,0.28272843,0.7777669,-9.303223,9.573452,-0.1390004,-1.2684445,-0.46973598,-0.22775632,0
1.500000000000001,13.21089828585611,-0.8429029288779046,-0.6009971326225804,0.38063684198757947,11.582531,-2.5376494,-1.3822836,0.7684969,5.3427515,-6.3258934,1.9911851,0.55559653,-0.088567585,0.27649775,0.7791128,-9.2800865,9.643929,-0.12778251,-1.2020751,-0.4902394,-0.19790228,0
1.5100000000000011,13.21089828585611,-0.8429029288779046,-0.6009971326225804,0.38063684198757947,11.582531,-2.5376494,-1.3822836,0.7684969,5.2500606,-6.229106,1.9899668,0.55647045,-0.09013474,0.27045345,0.7804299,-9.258177,9.713512,-0.11574348,-1.1460553,-0.50754046,-0.16951318,0
1.5200000000000011,12.899654026798265,-0.31175360120800605,-0.7304826084645156,0.45637116214755247,11.651711,-2.0871263,-1.6775573,0.760942,5.157583,-6.131627,1.9888729,0.55725884,-0.09145536,0.2645676,0.7817302,-9.237421,9.782193,-0.102916814,-1.0987712,-0.5221395,-0.14251716,0
1.5300000000000011,12.899654026798265,-0.31175360120800605,-0.7304826084645156,0.45637116214755247,11.651711,-2.0871263,-1.6775573,0.760942,5.065306,-6.033474,1.987898,0.5579872,-0.09240258,0.25895485,0.78297764,-9.218208,9.848364,-0.09196565,-0.9760286,-0.5546606,-0.11312954,0
1.5400000000000011,12.899654026798265,-0.31175360120800605,-0.7304826084645156,0.45637116214755247,11.651711,-2.0871263,-1.6775573,0.760942,4.9732156,-5.9346633,1.9870359,0.55867636,-0.0928776,0.25370565,0.78414756,-9.19992,9.913639,-0.08031755,-0.87242675,-0.5821036,-0.085183986,0
1.5500000000000012,12.899654026798265,-0.31175360120800605,-0.7304826084645156,0.45637116214755247,11.651711,-2.0871263,-1.6775573,0.760942,4.8813047,-5.8352046,1.9862937,0.55931944,-0.092950255,0.24876522,0.7852626,-9.182418,9.978014,-0.068011336,-0.7849809,-0.60526174,-0.058609717,0
1.5600000000000012,12.505224021830005,0.1683796715320145,-1.0175527619888125,0.5129430730232519,11.608522,-1.6674892,-1.8321614,0.5609538,4.789565,-5.7351065,1.9856777,0.5599109,-0.092679754,0.24408694,0.7863405,-9.165587,10.041486,-0.05507947,-0.71117187,-0.6248045,-0.03333947,0
1.5700000000000012,12.505224021830005,0.1683796715320145,-1.0175527619888125,0.5129430730232519,11.608522,-1.6674892,-1.8321614,0.5609538,4.697988,-5.6343875,1.985177,0.5604865,-0.09191665,0.2397187,0.7873631,-9.149817,10.102136,-0.04496301,-0.57399577,-0.6860665,-0.0065332362,0
1.5800000000000012,12.505224021830005,0.1683796715320145,-1.0175527619888125,0.5129430730232519,11.608522,-1.6674892,-1.8321614,0.5609538,4.606567,-5.5330663,1.9847803,0.56107354,-0.09054485,0.23569652,0.78831774,-9.134432,10.161885,-0.03429162,-0.45821068,-0.7377698,0.01895763,0
1.5900000000000012,12.505224021830005,0.1683796715320145,-1.0175527619888125,0.5129430730232519,11.608522,-1.6674892,-1.8321614,0.5609538,4.5152984,-5.4311523,1.9844931,0.5616563,-0.08865575,0.23196754,0.7892231,-9.119271,10.220713,-0.023087077,-0.36048135,-0.78140646,0.04319764,0
1.6000000000000012,12.239822745596499,0.4062889684191449,-0.9674207441905404,0.5781241494747089,11.867185,-1.2917935,-1.7275904,0.5759166,4.424181,-5.3286552,1.9843204,0.5622217,-0.08632669,0.22848675,0.7900936,-9.104199,10.278599,-0.011368598,-0.27799234,-0.8182353,0.06624819,0
1.6100000000000012,12.239822745596499,0.4062889684191449,-0.9674207441905404,0.5781241494747089,11.867185,-1.2917935,-1.7275904,0.5759166,4.333213,-5.2255898,1.9842557,0.5627565,-0.083583646,0.22530317,0.7909216,-9.08942,10.33432,-0.0014967357,-0.17126441,-0.84149903,0.0913661,0
1.6200000000000012,12.239822745596499,0.4062889684191449,-0.9674207441905404,0.5781241494747089,11.867185,-1.2917935,-1.7275904,0.5759166,4.242393,-5.1219716,1.984292,0.56324905,-0.08045055,0.22245368,0.79170215,-9.07449,10.389109,0.008831503,-0.08118071,-0.8611324,0.11525147,0
1.6300000000000012,12.239822745596499,0.4062889684191449,-0.9674207441905404,0.5781241494747089,11.867185,-1.2917935,-1.7275904,0.5759166,4.1517234,-5.017811,1.9844338,0.56369215,-0.07698513,0.21988651,0.7924482,-9.059295,10.442966,0.019587705,-0.0051458515,-0.8777026,0.13796476,0
1.6400000000000012,12.239822745596499,0.4062889684191449,-0.9674207441905404,0.5781241494747089,14.13259,-1.40477,-2.6021698,1.4711171,4.061208,-4.913116,1.9846852,0.56408006,-0.0732363,0.2175577,0.79317003,-9.043738,10.495899,0.03074618,0.059031013,-0.89168775,0.15956348,0
1.6500000000000012,12.239822745596499,0.4062889684191449,-0.9674207441905404,0.5781241494747089,14.13259,-1.40477,-2.6021698,1.4711171,3.97085,-4.8078957,1.9850501,0.5644085,-0.06924551,0.21542998,0.7938753,-9.027739,10.547909,0.042283315,0.11319909,-0.9034912,0.18010236,0
1.6600000000000013,12.239822745596499,0.4062889684191449,-0.9674207441905404,0.5781241494747089,14.13259,-1.40477,-2.6021698,1.4711171,3.880655,-4.702161,1.9855322,0.5646742,-0.06504792,0.2134717,0.79457,-9.0112295,10.598997,0.05417716,0.15891899,-0.9134536,0.1996334,0
1.6700000000000013,12.239822745596499,0.4062889684191449,-0.9674207441905404,0.5781241494747089,14.13259,-1.40477,-2.6021698,1.4711171,3.790628,-4.5959196,1.9861349,0.564875,-0.06067338,0.21165605,0.7952588,-8.994152,10.649166,0.06640703,0.1975085,-0.92186236,0.21820606,0
1.6800000000000013,11.892045323324814,0.3461464320857923,-0.8542921936934216,0.6817436774718119,15.06922,-1.3992258,-2.850948,2.175519,3.7007744,-4.489181,1.9868615,0.5650095,-0.056147218,0.20996024,0.7959449,-8.976458,10.698416,0.078953244,0.23007937,-0.92895985,0.23586734,0
1.6900000000000013,11.892045323324814,0.3461464320857923,-0.8542921936934216,0.6817436774718119,15.06922,-1.3992258,-2.850948,2.175519,3.6110983,-4.3819613,1.9876992,0.5650561,-0.051537946,0.20837212,0.79664063,-8.958629,10.745375,0.08864423,0.24819133,-0.9173092,0.2577466,0
1.7000000000000013,11.892045323324814,0.3461464320857923,-0.8542921936934216,0.6817436774718119,15.06922,-1.3992258,-2.850948,2.175519,3.5216038,-4.2742767,1.9886353,0.5649972,-0.04690081,0.20688109,0.79735714,-8.940141,10.791454,0.09860357,0.263478,-0.90747565,0.27855226,0
1.7100000000000013,11.892045323324814,0.3461464320857923,-0.8542921936934216,0.6817436774718119,15.06922,-1.3992258,-2.850948,2.175519,3.4322977,-4.1661353,1.9896722,0.5648377,-0.042237885,0.20547141,0.798095,-8.920981,10.836667,0.108811595,0.27638006,-0.8991758,0.298337,0
1.7200000000000013,11.552070435411835,0.11718763258661023,-0.7495849799833247,0.8476601595868242,16.60998,-1.7921835,-3.9144912,3.137249,3.3431864,-4.057546,1.9908123,0.56458205,-0.03755105,0.20412977,0.7988541,-8.901138,10.881024,0.11925011,0.28726977,-0.89217067,0.31715086,0
1.7300000000000013,11.552070435411835,0.11718763258661023,-0.7495849799833247,0.8476601595868242,16.60998,-1.7921835,-3.9144912,3.137249,3.2542741,-3.948524,1.9920423,0.5642064,-0.032923046,0.20279597,0.79966295,-8.881193,10.923292,0.12679371,0.26075578,-0.86993563,0.3431831,0
1.7400000000000013,11.552070435411835,0.11718763258661023,-0.7495849799833247,0.8476601595868242,16.60998,-1.7921835,-3.9144912,3.137249,3.1655648,-3.839083,1.9933487,0.56369126,-0.028419122,0.20142174,0.8005459,-8.860604,10.964749,0.13453484,0.23837599,-0.8511681,0.36793792,0
1.7500000000000013,11.552070435411835,0.11718763258661023,-0.7495849799833247,0.8476601595868242,16.60998,-1.7921835,-3.9144912,3.137249,3.0770643,-3.7292316,1.9947336,0.5630462,-0.024017366,0.20001258,0.80149674,-8.839403,11.005406,0.14246501,0.21948583,-0.8353274,0.39147803,0
1.7600000000000013,11.173925226207345,-0.36378586998117424,-0.8114048839596649,1.0591908646386143,16.29289,-2.2267737,-3.924271,3.4776502,2.9887786,-3.6189775,1.9961987,0.5622798,-0.019699432,0.19857308,0.80250984,-8.817615,11.045274,0.15057628,0.20354114,-0.8219571,0.41386303,0
1.7700000000000014,11.173925226207345,-0.36378586998117424,-0.8114048839596649,1.0591908646386143,16.29289,-2.2267737,-3.924271,3.4776502,2.9007103,-3.508335,1.9977282,0.5613801,-0.015533064,0.19693907,0.8036331,-8.796001,11.0830765,0.1553816,0.11508334,-0.8203329,0.44552946,0
1.7800000000000014,11.173925226207345,-0.36378586998117424,-0.8114048839596649,1.0591908646386143,16.29289,-2.2267737,-3.924271,3.4776502,2.8128605,-3.3973186,1.9993068,0.56033593,-0.011570374,0.19498032,0.80490524,-8.773921,11.120098,0.16037138,0.040419556,-0.8189612,0.47564203,0
1.7900000000000014,11.173925226207345,-0.36378586998117424,-0.8114048839596649,1.0591908646386143,16.29289,-2.2267737,-3.924271,3.4776502,2.7252336,-3.2859359,2.0009363,0.55915576,-0.007776322,0.192746,0.80630845,-8.751451,11.156315,0.16556238,-0.022601243,-0.8178028,0.50427693,0
1.8000000000000014,10.951592276759076,-1.1089658897833459,-0.43452284421430476,1.3416710280119675,17.395643,-2.8320305,-4.1799192,3.905044,2.6378326,-3.174195,2.0026188,0.5578468,-0.0041215727,0.19027758,0.80782694,-8.728652,11.191705,0.17096777,-0.07579463,-0.8168238,0.5315067,0
1.8100000000000014,10.951592276759076,-1.1089658897833459,-0.43452284421430476,1.3416710280119675,17.395643,-2.8320305,-4.1799192,3.905044,2.550659,-3.062108,2.004346,0.5563577,-0.00086306623,0.18745309,0.8095224,-8.706055,11.225565,0.17453626,-0.23691806,-0.75726575,0.57126176,0
1.8200000000000014,10.951592276759076,-1.1089658897833459,-0.43452284421430476,1.3416710280119675,17.395643,-2.8320305,-4.1799192,3.905044,2.463712,-2.9496868,2.0061102,0.55464625,0.0017976743,0.18417677,0.811445,-8.683351,11.258597,0.17835326,-0.37291452,-0.7069937,0.609066,0
1.8300000000000014,10.951592276759076,-1.1089658897833459,-0.43452284421430476,1.3416710280119675,17.395643,-2.8320305,-4.1799192,3.905044,2.3769917,-2.8369389,2.007914,0.55272967,0.003957702,0.18051614,0.813565,-8.660697,11.290803,0.18244565,-0.48770237,-0.66455877,0.6450151,0
1.8400000000000014,10.951592276759076,-1.1089658897833459,-0.43452284421430476,1.3416710280119675,17.046783,-3.1704104,-3.7101767,4.4162107,2.2904975,-2.7238734,2.0097601,0.55062205,0.005698605,0.17652826,0.81585574,-8.638224,11.322181,0.18683504,-0.5845891,-0.62873846,0.67920023,0
1.8500000000000014,10.951592276759076,-1.1089658897833459,-0.43452284421430476,1.3416710280119675,17.046783,-3.1704104,-3.7101767,4.4162107,2.2042263,-2.6104982,2.0116518,0.5483353,0.0070889327,0.17226131,0.8182934,-8.616039,11.352726,0.19153818,-0.66636616,-0.5985008,0.7117079,0
1.8600000000000014,10.951592276759076,-1.1089658897833459,-0.43452284421430476,1.3416710280119675,17.046783,-3.1704104,-3.7101767,4.4162107,2.1181753,-2.4968216,2.013592,0.54587966,0.008186244,0.16775611,0.820857,-8.594234,11.382434,0.19656736,-0.73538965,-0.57297516,0.74262035,0
1.8700000000000014,10.951592276759076,-1.1089658897833459,-0.43452284421430476,1.3416710280119675,17.046783,-3.1704104,-3.7101767,4.4162107,2.0323398,-2.382852,2.0155842,0.54326373,0.009038847,0.16304722,0.82352793,-8.572886,11.4113,0.20193096,-0.7936484,-0.5514268,0.772016,0
1.8800000000000014,10.861809059292261,-1.791782494407882,-0.20940125840328538,1.6726033344746736,17.61862,-3.355413,-3.5861146,4.6451607,1.9467155,-2.2685983,2.0176318,0.54049516,0.009687254,0.158164,0.82628995,-8.552059,11.439315,0.20763387,-0.8428215,-0.5332358,0.7999691,0
1.8900000000000015,10.861809059292261,-1.791782494407882,-0.20940125840328538,1.6726033344746736,17.61862,-3.355413,-3.5861146,4.6451607,1.8612958,-2.15407,2.019734,0.5375352,0.009949966,0.15295328,0.8291936,-8.531983,11.466246,0.21282701,-0.990824,-0.48283848,0.8427895,0
1.9000000000000015,10.861809059292261,-1.791782494407882,-0.20940125840328538,1.6726033344746736,17.61862,-3.355413,-3.5861146,4.6451607,1.7760733,-2.0392764,2.0218897,0.5343475,0.009685934,0.14729333,0.83227605,-8.512621,11.492307,0.21837905,-1.1157444,-0.440294,0.8835087,0
1.9100000000000015,10.861809059292261,-1.791782494407882,-0.20940125840328538,1.6726033344746736,17.61862,-3.355413,-3.5861146,4.6451607,1.6910404,-1.9242268,2.0241027,0.53094155,0.008980661,0.1412497,0.83550507,-8.494111,11.517475,0.22430624,-1.2211825,-0.40437776,0.9222298,0
1.9200000000000015,10.759780594333947,-2.4153607625380653,-0.04621746109761547,1.9492835642837005,17.793413,-3.6193082,-3.3590531,5.0104756,1.6061878,-1.80893,2.026377,0.52732563,0.007905933,0.13487813,0.8388521,-8.476568,11.54173,0.2306173,-1.3101764,-0.37405598,0.9590509,0
1.9300000000000015,10.759780594333947,-2.4153607625380653,-0.04621746109761547,1.9492835642837005,17.793413,-3.6193082,-3.3590531,5.0104756,1.5215045,-1.6933966,2.028711,0.5234708,0.0063405056,0.12805022,0.8423426,-8.460257,11.564826,0.23633227,-1.4825507,-0.32308397,1.0076419,0
1.9400000000000015,10.759780594333947,-2.4153607625380653,-0.04621746109761547,1.9492835642837005,17.793413,-3.6193082,-3.3590531,5.0104756,1.4369783,-1.577637,2.0311048,0.519348,0.0041922866,0.12066518,0.8459905,-8.445167,11.586952,0.24244265,-1.6280416,-0.28005108,1.0538485,0
1.9500000000000015,10.759780594333947,-2.4153607625380653,-0.04621746109761547,1.9492835642837005,17.793413,-3.6193082,-3.3590531,5.0104756,1.3525963,-1.4616612,2.0335615,0.51496375,0.0015557823,0.11280437,0.84975594,-8.431457,11.608065,0.24895325,-1.7508416,-0.24371919,1.0977877,0
1.9600000000000015,10.727242828159364,-2.7959615247418985,0.03535859872140018,2.085203448304985,18.316525,-3.7117827,-3.4300811,5.223598,1.2683439,-1.3454795,2.0360851,0.5103237,-0.001489656,0.10453721,0.8536039,-8.419254,11.628115,0.25585845,-1.8544892,-0.2130434,1.139571,0
1.9700000000000015,10.727242828159364,-2.7959615247418985,0.03535859872140018,2.085203448304985,18.316525,-3.7117827,-3.4300811,5.223598,1.1842055,-1.2291031,2.0386784,0.50541466,-0.004980991,0.09580927,0.85752666,-8.408708,11.646999,0.26282588,-2.0013344,-0.17447439,1.1859734,0
1.9800000000000015,10.727242828159364,-2.7959615247418985,0.03535859872140018,2.085203448304985,18.316525,-3.7117827,-3.4300811,5.223598,1.1001638,-1.1125436,2.041343,0.50022256,-0.008943551,0.08658002,0.8615111,-8.399913,11.66472,0.27015662,-2.1252773,-0.14190775,1.230099,0
1.9900000000000015,10.727242828159364,-2.7959615247418985,0.03535859872140018,2.085203448304985,18.316525,-3.7117827,-3.4300811,5.223598,1.0162008,-0.9958129,2.0440829,0.4947515,-0.013300422,0.07692351,0.86552113,-8.392995,11.681212,0.27782565,-2.2298892,-0.1144079,1.2720592,0
2.0000000000000013,,,,,17.571762,-3.8721936,-2.9861722,5.0227003,0.9322971,-0.8789237,2.0469007,0.48900563,-0.01798696,0.06690325,0.86952513,-8.388056,11.696416,0.28579816,-2.3181846,-0.09118506,1.3119605,0
2.010000000000001,,,,,17.571762,-3.8721936,-2.9861722,5.0227003,0.8484331,-0.76188684,2.0498178,0.4829512,-0.023083847,0.056439888,0.8735215,-8.385086,11.710738,0.29765835,-2.4647248,-0.05043224,1.3637054,0
2.020000000000001,,,,,17.571762,-3.8721936,-2.9861722,5.0227003,0.7645875,-0.64471406,2.0528545,0.47655454,-0.028651265,0.045473058,0.8775004,-8.384381,11.723583,0.30973843,-2.5884092,-0.016019428,1.4129112,0
2.0300000000000007,,,,,17.571762,-3.8721936,-2.9861722,5.0227003,0.68073726,-0.5274205,2.056013,0.46982038,-0.03461163,0.03407958,0.8814246,-8.386063,11.734867,0.32197833,-2.6928022,0.013041351,1.4597021,0
2.0400000000000005,,,,,17.571762,-3.8721936,-2.9861722,5.0227003,0.5968578,-0.4100223,2.0592945,0.46275386,-0.04089959,0.022325698,0.8852613,-8.390221,11.744513,0.33430794,-2.7809126,0.03758379,1.5041972,0
2.0500000000000003,,,,,18.77656,-4.3816943,-3.08222,5.182424,0.51292413,-0.29253614,2.0626993,0.45536062,-0.047460016,0.010268681,0.8889818,-8.396926,11.7524395,0.34664866,-2.8552797,0.0583116,1.5465089,1
2.06,,,,,18.77656,-4.3816943,-3.08222,5.182424,0.42887288,-0.17495257,2.0666945,0.44737732,-0.053487394,-0.0024041263,0.8927411,-8.414004,11.763684,0.4517761,-2.921593,-0.26044738,1.7095737,1
2.07,,,,,18.77656,-4.3816943,-3.08222,5.182424,0.34462988,-0.05727636,2.071722,0.4385221,-0.058285646,-0.016090265,0.8966839,-8.435199,11.770883,0.553086,-3.0149322,-0.5669529,1.8679818,1
2.0799999999999996,,,,,18.77656,-4.3816943,-3.08222,5.182424,0.26015633,0.060449343,2.0777428,0.42877018,-0.061957493,-0.030856794,0.900758,-8.460036,11.773503,0.65047824,-3.1309757,-0.8630063,2.0219517,1
2.0899999999999994,,,,,20.924603,-4.829346,-4.367547,5.630838,0.17541811,0.17817624,2.0847175,0.41809338,-0.06458696,-0.046756405,0.90489787,-8.488076,11.771044,0.743836,-3.2660215,-1.150074,2.1716864,1
2.099999999999999,,,,,20.924603,-4.829346,-4.367547,5.630838,0.09036268,0.2958458,2.092745,0.40640786,-0.06594246,-0.063958056,0.90906185,-8.523455,11.761823,0.8608725,-3.4160233,-1.5593524,2.3330736,1
2.109999999999999,,,,,20.924603,-4.829346,-4.367547,5.630838,0.0049403273,0.4133885,2.1019175,0.393619,-0.06582928,-0.08261485,0.9131841,-8.56136,11.745566,0.9728154,-3.5859795,-1.9482534,2.4904208,1
2.1199999999999988,,,,,20.924603,-4.829346,-4.367547,5.630838,-0.080871046,0.5307307,2.1121833,0.37968054,-0.064360045,-0.10273308,0.91714025,-8.601188,11.721631,1.0796597,-3.7699492,-2.3171122,2.6436813,1
2.1299999999999986,,,,,18.274467,-5.329372,-4.4643126,4.406848,-0.16709007,0.64779115,2.123503,0.3645677,-0.06167096,-0.12420313,0.9207934,-8.642893,11.6890135,1.183979,-3.9343603,-2.637535,2.7902617,1
2.1399999999999983,,,,,18.274467,-5.329372,-4.4643126,4.406848,-0.25370672,0.76450413,2.1357286,0.34841454,-0.057959605,-0.14697665,0.92392945,-8.680602,11.6522255,1.2608478,-4.151243,-2.9230285,2.8695881,1
2.149999999999998,,,,,18.274467,-5.329372,-4.4643126,4.406848,-0.3407049,0.8808052,2.1487122,0.33135825,-0.05339097,-0.17098218,0.9263455,-8.719116,11.606568,1.3354344,-4.3343673,-3.1639462,2.9450219,1
2.159999999999998,,,,,18.274467,-5.329372,-4.4643126,4.406848,-0.4280901,0.9966034,2.162428,0.31341758,-0.048088543,-0.1959556,0.9279322,-8.757932,11.551595,1.4072142,-4.4889913,-3.367244,3.0167542,1
2.1699999999999977,,,,,17.672907,-5.2472887,-4.606919,3.531628,-0.5158627,1.111804,2.1768448,0.2946179,-0.042161703,-0.22166662,0.9285938,-8.796515,11.487002,1.4756268,-4.6195545,-3.5387933,3.0849664,1
2.1799999999999975,,,,,17.672907,-5.2472887,-4.606919,3.531628,-0.6040114,1.2263218,2.1918998,0.2750796,-0.03562067,-0.2479041,0.92822725,-8.833059,11.415074,1.5347389,-4.717062,-3.7056303,3.1068842,1
2.1899999999999973,,,,,17.672907,-5.2472887,-4.606919,3.531628,-0.6925192,1.3400729,2.2075243,0.254923,-0.028477034,-0.27448273,0.92674834,-8.868248,11.333643,1.5894623,-4.7994137,-3.8464177,3.1277266,1
2.199999999999997,,,,,17.672907,-5.2472887,-4.606919,3.531628,-0.78136957,1.4529624,2.2236717,0.23418102,-0.02082422,-0.30124822,0.9241077,-8.901483,11.2427845,1.6392263,-4.8689666,-3.965222,3.147546,1
