time-since-start [s],throttle_mpc,roll_mpc,pitch_mpc,yaw_mpc,throttle_nw,roll_nw,pitch_nw,yaw_nw,position_x [m],position_y [m],position_z [m],rotation_w [quaternion],rotation_x [quaternion],rotation_y [quaternion],rotation_z [quaternion],velocity_x [m/s],velocity_y [m/s],velocity_z [m/s],omega_x [rad/s],omega_y [rad/s],omega_z [rad/s],network_used
0.0,12.678176912908144,5.999999609729291,-5.999999884295121,-3.894150254478532,11.209036,0.5623199,-2.7346072,-0.69316906,16.658035,-10.491577,1.3071088,-0.123516634,0.39882177,-0.23792987,-0.87696874,-8.7808275,-3.484091,-0.582589,1.3861026,-0.16205937,-0.108736776,0
0.01,12.678176912908144,5.999999609729291,-5.999999884295121,-3.894150254478532,13.43989,0.89165515,-2.0951304,-0.7398235,16.569641,-10.525943,1.3013128,-0.12757328,0.39668754,-0.24374254,-0.8757588,-8.897382,-3.3890178,-0.5769678,1.5232842,-0.49033582,-0.24240862,0
0.02,12.678176912908144,5.999999609729291,-5.999999884295121,-3.894150254478532,13.43989,0.89165515,-2.0951304,-0.7398235,16.4801,-10.559356,1.2955616,-0.13287774,0.39319074,-0.24970719,-0.87486607,-9.010057,-3.2934961,-0.5736018,1.6754732,-0.803895,-0.37278,0
0.03,12.678176912908144,5.999999609729291,-5.999999884295121,-3.894150254478532,13.43989,0.89165515,-2.0951304,-0.7398235,16.389454,-10.591809,1.2898341,-0.13942811,0.38837096,-0.25588536,-0.87421405,-9.118438,-3.197414,-0.5721425,1.839833,-1.1045325,-0.49996802,0
0.04,12.678176912908144,5.999999609729291,-5.999999884295121,-3.894150254478532,11.936455,1.3049535,-2.4581923,-1.1148527,16.297749,-10.623301,1.2841132,-0.14721665,0.38225767,-0.2623233,-0.8737234,-9.222127,-3.1006663,-0.5722916,2.0139594,-1.3937529,-0.6240832,0
0.05,12.678176912908144,5.999999609729291,-5.999999884295121,-3.894150254478532,11.936455,1.3049535,-2.4581923,-1.1148527,16.20503,-10.653821,1.2783836,-0.1562301,0.37487182,-0.26905385,-0.8733116,-9.320742,-3.0031667,-0.5737977,2.1958132,-1.6728184,-0.7452299,0
0.060000000000000005,12.678176912908144,5.999999609729291,-5.999999884295121,-3.894150254478532,11.936455,1.3049535,-2.4581923,-1.1148527,16.111355,-10.683362,1.2726332,-0.1664499,0.3662273,-0.2760982,-0.8728927,-9.413911,-2.9048524,-0.57645226,2.3836656,-1.9427862,-0.86350685,0
0.07,12.678176912908144,5.999999609729291,-5.999999884295121,-3.894150254478532,11.936455,1.3049535,-2.4581923,-1.1148527,16.016773,-10.711917,1.2668511,-0.17785229,0.35633215,-0.28346688,-0.87237734,-9.501276,-2.8056924,-0.58008707,2.5760527,-2.2045424,-0.9790072,0
0.08,14.201349553060886,5.999999592363002,-5.999999900053605,-4.081209450217657,14.96575,-0.36212045,-2.1893847,-1.0095781,15.92135,-10.739474,1.2610284,-0.19040832,0.34518987,-0.29116103,-0.87167287,-9.582488,-2.7056913,-0.5845719,2.7717338,-2.4588306,-1.0918193,0
0.09,14.201349553060886,5.999999592363002,-5.999999900053605,-4.081209450217657,14.96575,-0.36212045,-2.1893847,-1.0095781,15.825113,-10.765983,1.2551981,-0.20413049,0.332768,-0.2991892,-0.8706789,-9.663813,-2.5959868,-0.58160657,2.9846532,-2.7213333,-1.2125468,0
0.09999999999999999,14.201349553060886,5.999999592363002,-5.999999900053605,-4.081209450217657,14.96575,-0.36212045,-2.1893847,-1.0095781,15.7281,-10.79139,1.2493937,-0.21902469,0.3190289,-0.30755147,-0.8692874,-9.737706,-2.4854853,-0.57937765,3.1991954,-2.9777853,-1.3304664,0
0.10999999999999999,14.201349553060886,5.999999592363002,-5.999999900053605,-4.081209450217657,14.96575,-0.36212045,-2.1893847,-1.0095781,15.630387,-10.81569,1.243608,-0.2350436,0.30396497,-0.3162238,-0.867388,-9.803799,-2.3743248,-0.5778501,3.4145463,-3.2285666,-1.4456657,0
0.11999999999999998,14.201349553060886,5.999999592363002,-5.999999900053605,-4.081209450217657,14.96575,-0.36212045,-2.1893847,-1.0095781,15.532054,-10.838876,1.2378341,-0.25213352,0.2875684,-0.32517448,-0.8648666,-9.86174,-2.2627008,-0.57702523,3.6300173,-3.4739952,-1.5582277,0
0.12999999999999998,16.053922223726158,5.255113075968409,-5.999999850124327,-3.6231436756528996,16.678583,-0.045963522,-2.8603435,-0.5041562,15.433184,-10.860944,1.2320648,-0.27023405,0.26983234,-0.33436465,-0.86160547,-9.911205,-2.1508665,-0.57693934,3.845025,-3.714338,-1.6682311,0
0.13999999999999999,16.053922223726158,5.255113075968409,-5.999999850124327,-3.6231436756528996,16.678583,-0.045963522,-2.8603435,-0.5041562,15.333852,-10.88187,1.2263125,-0.28936931,0.25045395,-0.34368783,-0.8575643,-9.953673,-2.0341754,-0.57332236,4.0642867,-4.0712776,-1.7641592,0
0.15,16.053922223726158,5.255113075968409,-5.999999850124327,-3.6231436756528996,16.678583,-0.045963522,-2.8603435,-0.5041562,15.234139,-10.901621,1.2206025,-0.30946052,0.22931096,-0.35297367,-0.85267806,-9.987259,-1.9156625,-0.56850207,4.2493906,-4.372526,-1.8553802,0
0.16,16.986825848162407,3.1075965559639203,-5.56386437533506,-1.300264777086689,17.271757,0.80742025,-2.686088,-0.5767935,15.13414,-10.920179,1.2149464,-0.33030105,0.20664816,-0.36209726,-0.8468075,-10.01129,-1.795839,-0.56253487,4.4056644,-4.6267676,-1.9421247,0
0.17,16.986825848162407,3.1075965559639203,-5.56386437533506,-1.300264777086689,17.271757,0.80742025,-2.686088,-0.5767935,15.033945,-10.9375,1.2093856,-0.35123172,0.18301824,-0.37035125,-0.84022623,-10.026068,-1.6683309,-0.5494171,4.2031446,-4.772565,-1.9106284,0
0.18000000000000002,16.986825848162407,3.1075965559639203,-5.56386437533506,-1.300264777086689,17.271757,0.80742025,-2.686088,-0.5767935,14.933657,-10.953547,1.2039615,-0.37172323,0.15889256,-0.37720716,-0.8332403,-10.030097,-1.540971,-0.53522575,4.0322366,-4.895676,-1.8806778,0
0.19000000000000003,16.986825848162407,3.1075965559639203,-5.56386437533506,-1.300264777086689,17.271757,0.80742025,-2.686088,-0.5767935,14.833382,-10.968324,1.1986846,-0.39177442,0.13435763,-0.3828083,-0.8257834,-10.023455,-1.4146469,-0.5199932,3.8880048,-4.9996305,-1.8521967,0
0.20000000000000004,16.867324419942346,1.9712917260103267,-4.35015343462853,-1.0878095451521972,16.73464,2.1196406,-1.8976107,-1.1154997,14.733224,-10.981846,1.1935649,-0.4113778,0.10948778,-0.3872764,-0.8178002,-10.006266,-1.2901976,-0.50379944,3.7662845,-5.087409,-1.8251133,0
0.21000000000000005,16.867324419942346,1.9712917260103267,-4.35015343462853,-1.0878095451521972,16.73464,2.1196406,-1.8976107,-1.1154997,14.63329,-10.99414,1.1886073,-0.43027106,0.08492477,-0.3905562,-0.8093948,-9.978941,-1.169263,-0.48757443,3.486611,-4.9720187,-1.7889335,0
0.22000000000000006,16.867324419942346,1.9712917260103267,-4.35015343462853,-1.0878095451521972,16.73464,2.1196406,-1.8976107,-1.1154997,14.53368,-11.00524,1.1838157,-0.44827273,0.061189674,-0.3926456,-0.8007098,-9.941889,-1.0516237,-0.47064924,3.2505205,-4.874691,-1.7545291,0
0.23000000000000007,16.867324419942346,1.9712917260103267,-4.35015343462853,-1.0878095451521972,16.73464,2.1196406,-1.8976107,-1.1154997,14.434485,-11.015184,1.1791962,-0.4654777,0.03817583,-0.39370835,-0.7917488,-9.895705,-0.9378337,-0.4531545,3.0512216,-4.792597,-1.7218128,0
0.24000000000000007,16.867324419942346,1.9712917260103267,-4.35015343462853,-1.0878095451521972,17.155956,1.8693013,-2.1101415,-1.005837,14.335795,-11.024013,1.174754,-0.48196176,0.015790524,-0.3938795,-0.7825099,-9.840946,-0.82837766,-0.435218,2.8829803,-4.7233505,-1.6907022,0
0.25000000000000006,16.867324419942346,1.9712917260103267,-4.35015343462853,-1.0878095451521972,17.155956,1.8693013,-2.1101415,-1.005837,14.237694,-11.03177,1.1704928,-0.4977854,-0.0060460847,-0.3932707,-0.77298814,-9.7781315,-0.72368336,-0.4169675,2.740957,-4.664942,-1.661118,0
0.26000000000000006,16.867324419942346,1.9712917260103267,-4.35015343462853,-1.0878095451521972,17.155956,1.8693013,-2.1101415,-1.005837,14.140258,-11.038505,1.1664152,-0.5129966,-0.027402148,-0.3919743,-0.763177,-9.707752,-0.6241321,-0.39853248,2.6210659,-4.6156726,-1.6329857,0
0.2700000000000001,16.867324419942346,1.9712917260103267,-4.35015343462853,-1.0878095451521972,17.155956,1.8693013,-2.1101415,-1.005837,14.043563,-11.044271,1.1625224,-0.5276334,-0.048335332,-0.39006692,-0.75306964,-9.630271,-0.5300656,-0.38004503,2.519858,-4.5741134,-1.6062337,0
0.2800000000000001,16.43312888963027,0.09852768440013755,-2.350434173713888,0.05814892078448033,16.304308,0.7154522,-0.13247457,-0.2679659,13.947677,-11.049126,1.1588141,-0.54172575,-0.068894,-0.38761204,-0.7426595,-9.546132,-0.44179225,-0.36164045,2.434421,-4.5390573,-1.5807945,0
0.2900000000000001,16.43312888963027,0.09852768440013755,-2.350434173713888,0.05814892078448033,16.304308,0.7154522,-0.13247457,-0.2679659,13.852651,-11.053139,1.1552739,-0.55494916,-0.08817364,-0.38454336,-0.7323815,-9.458157,-0.36166117,-0.34643242,2.0707123,-4.1972585,-1.5003711,0
0.3000000000000001,16.43312888963027,0.09852768440013755,-2.350434173713888,0.05814892078448033,16.304308,0.7154522,-0.13247457,-0.2679659,13.758531,-11.056379,1.1518847,-0.5670909,-0.10547145,-0.38085273,-0.72265786,-9.364981,-0.28732634,-0.33142552,1.7636286,-3.9088588,-1.4238939,0
0.3100000000000001,16.43312888963027,0.09852768440013755,-2.350434173713888,0.05814892078448033,16.304308,0.7154522,-0.13247457,-0.2679659,13.665366,-11.058905,1.1486448,-0.57831573,-0.121098034,-0.37665802,-0.7134525,-9.267412,-0.2186028,-0.3165715,1.5043571,-3.665511,-1.3511697,0
0.3200000000000001,16.14461834590384,-2.063703054769998,0.06092797362227767,1.8956239765934537,16.248095,0.5218387,-0.41476622,-0.1176671,13.573196,-11.06077,1.145553,-0.58875555,-0.135317,-0.37205037,-0.7047228,-9.166126,-0.15530606,-0.30181617,1.2854557,-3.460174,-1.282014,0
0.3300000000000001,16.14461834590384,-2.063703054769998,0.06092797362227767,1.8956239765934537,16.248095,0.5218387,-0.41476622,-0.1176671,13.482053,-11.06203,1.142607,-0.59816474,-0.14725289,-0.36695793,-0.6970344,-9.062268,-0.097476244,-0.28762203,0.7428772,-2.9315474,-1.1280222,0
0.34000000000000014,16.14461834590384,-2.063703054769998,0.06092797362227767,1.8956239765934537,16.248095,0.5218387,-0.41476622,-0.1176671,13.391953,-11.062737,1.1397965,-0.60633504,-0.15623482,-0.36144093,-0.6908752,-8.957461,-0.04485248,-0.27448574,0.30383244,-2.466461,-0.97983205,0
0.35000000000000014,16.14461834590384,-2.063703054769998,0.06092797362227767,1.8956239765934537,16.248095,0.5218387,-0.41476622,-0.1176671,13.302908,-11.06294,1.1371186,-0.61343265,-0.1627469,-0.35565728,-0.68609136,-8.851463,0.0038360944,-0.26097152,-0.06493914,-2.072085,-0.83873254,0
0.36000000000000015,17.72414825916003,-4.003908096659551,3.0491624912143953,2.220157982739979,16.178484,-0.18391182,1.6266747,-0.37671375,13.214926,-11.062672,1.1345795,-0.6196106,-0.16719808,-0.3496645,-0.6825408,-8.744809,0.049246974,-0.24670321,-0.3763096,-1.7393042,-0.7045569,0
0.37000000000000016,17.72414825916003,-4.003908096659551,3.0491624912143953,2.220157982739979,16.178484,-0.18391182,1.6266747,-0.37671375,13.128063,-11.061942,1.1322433,-0.62467796,-0.16864747,-0.3437091,-0.6805874,-8.627649,0.09616116,-0.22035903,-0.94159204,-0.99237126,-0.5610403,0
0.38000000000000017,17.72414825916003,-4.003908096659551,3.0491624912143953,2.220157982739979,16.178484,-0.18391182,1.6266747,-0.37671375,13.042369,-11.060754,1.1301774,-0.628489,-0.166365,-0.33799076,-0.6805044,-8.511299,0.14123684,-0.19258259,-1.4188927,-0.36204588,-0.4245661,0
0.3900000000000002,17.72414825916003,-4.003908096659551,3.0491624912143953,2.220157982739979,16.178484,-0.18391182,1.6266747,-0.37671375,12.95783,-11.059119,1.1283977,-0.6311939,-0.16094467,-0.3324686,-0.682023,-8.39661,0.18559556,-0.16303916,-1.8218892,0.16988927,-0.2947887,0
0.4000000000000002,18.70015381175952,-4.859651900129736,4.559064570537182,2.2817545807027533,16.668774,-1.5718664,3.1119826,-0.06446729,12.874429,-11.057041,1.1269234,-0.63289666,-0.15288213,-0.3270952,-0.68489206,-8.28431,0.23018344,-0.13146897,-2.1621354,0.6188032,-0.17137954,0
0.4100000000000002,18.70015381175952,-4.859651900129736,4.559064570537182,2.2817545807027533,16.668774,-1.5718664,3.1119826,-0.06446729,12.792165,-11.0545,1.125812,-0.63351667,-0.14196281,-0.32196775,-0.689086,-8.16905,0.27834985,-0.0904187,-2.582837,1.2331306,-0.05100356,0
0.4200000000000002,18.70015381175952,-4.859651900129736,4.559064570537182,2.2817545807027533,16.668774,-1.5718664,3.1119826,-0.06446729,12.711034,-11.051467,1.1251235,-0.6329665,-0.12803064,-0.31714723,-0.6945349,-8.057817,0.32864618,-0.046869703,-2.9380164,1.751602,0.06346556,0
0.4300000000000002,18.70015381175952,-4.859651900129736,4.559064570537182,2.2817545807027533,16.668774,-1.5718664,3.1119826,-0.06446729,12.630992,-11.047916,1.1248834,-0.63129634,-0.11154814,-0.31253716,-0.70095795,-7.9514117,0.38198578,-0.0007521976,-3.237866,2.1891832,0.17231764,0
0.4400000000000002,18.70015381175952,-4.859651900129736,4.559064570537182,2.2817545807027533,16.355333,-1.5756058,2.7100954,0.12888333,12.551988,-11.043814,1.1251172,-0.6285378,-0.09290792,-0.30805236,-0.7081043,-7.850578,0.43909547,0.047899228,-3.490995,2.558502,0.2758283,0
0.45000000000000023,18.70015381175952,-4.859651900129736,4.559064570537182,2.2817545807027533,16.355333,-1.5756058,2.7100954,0.12888333,12.47396,-11.03912,1.1258496,-0.62471175,-0.07244542,-0.3036194,-0.71575254,-7.7560143,0.5005352,0.0989536,-3.7046752,2.8702133,0.37425968,0
0.46000000000000024,18.70015381175952,-4.859651900129736,4.559064570537182,2.2817545807027533,16.355333,-1.5756058,2.7100954,0.12888333,12.396844,-11.033788,1.1271037,-0.61983365,-0.050449003,-0.29917657,-0.72370857,-7.66838,0.5667152,0.1521933,-3.8850472,3.1333084,0.467861,0
0.47000000000000025,18.70015381175952,-4.859651900129736,4.559064570537182,2.2817545807027533,16.355333,-1.5756058,2.7100954,0.12888333,12.320566,-11.027769,1.1288999,-0.61391646,-0.027167937,-0.29467288,-0.73180324,-7.588293,0.63791096,0.20732446,-4.037298,3.3553743,0.5568693,0
0.48000000000000026,19.384344839453444,-4.800587013541031,4.897838170349227,2.165173718693171,17.942274,-3.2138677,3.7119932,0.33148524,12.245049,-11.021011,1.1312554,-0.6069728,-0.0028189044,-0.29006717,-0.7398896,-7.516332,0.714277,0.26398754,-4.165807,3.542813,0.64150995,0
0.49000000000000027,19.384344839453444,-4.800587013541031,4.897838170349227,2.165173718693171,17.942274,-3.2138677,3.7119932,0.33148524,12.170222,-11.013451,1.1342119,-0.59898704,0.02249938,-0.28542587,-0.7478235,-7.4507165,0.7988543,0.32746565,-4.2650704,3.7538795,0.7162765,0
0.5000000000000002,19.384344839453444,-4.800587013541031,4.897838170349227,2.165173718693171,17.942274,-3.2138677,3.7119932,0.33148524,12.096003,-11.005016,1.1378069,-0.5899509,0.048694216,-0.2807993,-0.7554721,-7.394595,0.8888631,0.39158282,-4.348849,3.9320388,0.7873744,0
0.5100000000000002,19.384344839453444,-4.800587013541031,4.897838170349227,2.165173718693171,17.942274,-3.2138677,3.7119932,0.33148524,12.022296,-10.995655,1.1420438,-0.5798885,0.07559517,-0.2761367,-0.76273376,-7.3484397,0.98423284,0.4557765,-4.4195538,4.082424,0.8549834,0
0.5200000000000002,19.12112832713013,-3.9474601791101693,4.227852761568982,1.942261062230987,18.149754,-3.0994613,3.2743688,0.56434625,11.948999,-10.985314,1.1469207,-0.56882435,0.10305119,-0.27139753,-0.76952076,-7.3126683,1.0847943,0.519455,-4.4792223,4.2093673,0.91927475,0
0.5300000000000002,19.12112832713013,-3.9474601791101693,4.227852761568982,1.942261062230987,18.149754,-3.0994613,3.2743688,0.56434625,11.876005,-10.973949,1.1524181,-0.55692035,0.13053665,-0.26666152,-0.77568746,-7.287948,1.188845,0.5798272,-4.396434,4.2121553,0.969473,0
0.5400000000000003,19.12112832713013,-3.9474601791101693,4.227852761568982,1.942261062230987,18.149754,-3.0994613,3.2743688,0.56434625,11.803205,-10.961521,1.1585115,-0.5443432,0.1576306,-0.26200637,-0.7811499,-7.2738614,1.2973511,0.6385047,-4.3265495,4.214513,1.017208,0
0.5500000000000003,19.12112832713013,-3.9474601791101693,4.227852761568982,1.942261062230987,18.149754,-3.0994613,3.2743688,0.56434625,11.730491,-10.9479885,1.1651807,-0.5311211,0.18434912,-0.257399,-0.78592044,-7.2703795,1.4098663,0.69493496,-4.2675567,4.216506,1.0626006,0
0.5600000000000003,17.99587102546896,-2.5607413451806074,2.9076698530974765,1.6474078475793728,17.325048,-2.7052057,2.2081847,1.8420352,11.65776,-10.933312,1.1724007,-0.51727957,0.21070261,-0.25281155,-0.79000753,-7.277456,1.5259296,0.74859387,-4.217758,4.218191,1.1057658,1
0.5700000000000003,17.99587102546896,-2.5607413451806074,2.9076698530974765,1.6474078475793728,17.325048,-2.7052057,2.2081847,1.8420352,11.584913,-10.917516,1.1800714,-0.50317305,0.23580949,-0.24820217,-0.793477,-7.2933145,1.6338466,0.7850681,-3.9817429,3.9048073,1.1418946,1
0.5800000000000003,17.99587102546896,-2.5607413451806074,2.9076698530974765,1.6474078475793728,17.325048,-2.7052057,2.2081847,1.8420352,11.511863,-10.900628,1.1880913,-0.4891309,0.25899133,-0.24356793,-0.7964599,-7.3181524,1.7439054,0.8184171,-3.7825525,3.6402826,1.1762506,1
0.5900000000000003,17.99587102546896,-2.5607413451806074,2.9076698530974765,1.6474078475793728,17.325048,-2.7052057,2.2081847,1.8420352,11.438522,-10.882632,1.1964288,-0.4751336,0.28052744,-0.23893431,-0.7990382,-7.351434,1.8555167,0.84855413,-3.614443,3.416999,1.2089208,1
0.6000000000000003,17.18676533947064,-0.9150192551246323,1.355169180392272,1.289658747429574,16.892775,0.56847095,-0.19269145,1.0953307,11.364807,-10.863515,1.2050512,-0.46115896,0.30065337,-0.23431782,-0.80127037,-7.392686,1.9681733,0.87542176,-3.4725652,3.228526,1.2399879,0
0.6100000000000003,17.18676533947064,-0.9150192551246323,1.355169180392272,1.289658747429574,16.892775,0.56847095,-0.19269145,1.0953307,11.290644,-10.843272,1.213921,-0.44754395,0.31898645,-0.23012957,-0.80311364,-7.44104,2.0805416,0.8980237,-3.0734863,2.9366944,1.2424252,0
0.6200000000000003,17.18676533947064,-0.9150192551246323,1.355169180392272,1.289658747429574,16.892775,0.56847095,-0.19269145,1.0953307,11.215962,-10.821903,1.2230006,-0.43459213,0.33525965,-0.22670428,-0.8045712,-7.496077,2.193225,0.9174313,-2.7366793,2.6903245,1.244743,0
0.6300000000000003,17.18676533947064,-0.9150192551246323,1.355169180392272,1.289658747429574,16.892775,0.56847095,-0.19269145,1.0953307,11.1407,-10.799408,1.232259,-0.42222908,0.3498079,-0.22394341,-0.80573285,-7.5570507,2.3060205,0.9337631,-2.4524274,2.4823346,1.246947,0
0.6400000000000003,17.18676533947064,-0.9150192551246323,1.355169180392272,1.289658747429574,16.808113,0.6197725,-0.54448396,1.2539853,11.064802,-10.775784,1.2416657,-0.4103828,0.36290994,-0.22175811,-0.8066627,-7.623333,2.4187796,0.94714326,-2.2125301,2.3067458,1.249043,0
0.6500000000000004,17.18676533947064,-0.9150192551246323,1.355169180392272,1.289658747429574,16.808113,0.6197725,-0.54448396,1.2539853,10.988216,-10.751033,1.251192,-0.39898613,0.37479785,-0.22006929,-0.8074065,-7.6943965,2.5313916,0.95769286,-2.0100663,2.15851,1.251036,0
0.6600000000000004,17.18676533947064,-0.9150192551246323,1.355169180392272,1.289658747429574,16.808113,0.6197725,-0.54448396,1.2539853,10.910898,-10.725157,1.2608101,-0.38797763,0.38566485,-0.218807,-0.8079967,-7.7697983,2.6437721,0.96552575,-1.839195,2.0333662,1.2529312,0
0.6700000000000004,17.18676533947064,-0.9150192551246323,1.355169180392272,1.289658747429574,16.808113,0.6197725,-0.54448396,1.2539853,10.832806,-10.698158,1.2704935,-0.37730208,0.39567173,-0.2179099,-0.8084563,-7.8491654,2.7558553,0.97074574,-1.6949862,1.9277171,1.2547336,0
0.6800000000000004,16.216428179918978,0.6658306459860329,-0.1190781696830054,0.9217253871272981,18.036665,3.6295304,-3.2082202,-0.022513563,10.7539015,-10.670041,1.2802165,-0.36691037,0.40495238,-0.2173244,-0.8088014,-7.932184,2.8675878,0.97344613,-1.5732801,1.838526,1.2564473,0
0.6900000000000004,16.216428179918978,0.6658306459860329,-0.1190781696830054,0.9217253871272981,18.036665,3.6295304,-3.2082202,-0.022513563,10.674175,-10.64084,1.2899263,-0.3571847,0.41292405,-0.2172846,-0.809135,-8.0136595,2.9726508,0.9681884,-1.2238259,1.5335376,1.2400225,0
0.7000000000000004,16.216428179918978,0.6658306459860329,-0.1190781696830054,0.9217253871272981,18.036665,3.6295304,-3.2082202,-0.022513563,10.59362,-10.610589,1.2995734,-0.3484432,0.41914713,-0.21798111,-0.8095594,-8.097728,3.0774043,0.9609495,-0.928914,1.2760606,1.2244035,0
0.7100000000000004,16.216428179918978,0.6658306459860329,-0.1190781696830054,0.9217253871272981,18.036665,3.6295304,-3.2082202,-0.022513563,10.512214,-10.579291,1.3091396,-0.34055465,0.4239127,-0.2193088,-0.8100762,-8.183832,3.1819382,0.95204365,-0.6800308,1.0586945,1.209551,0
0.7200000000000004,15.649764720536334,2.065463756748749,-1.5574771201523618,0.5524777011037453,18.165257,3.560091,-3.5283427,-0.21670194,10.429938,-10.54695,1.3186096,-0.33340287,0.42746145,-0.22117543,-0.8106786,-8.271508,3.2863472,0.94174135,-0.46999195,0.87519115,1.1954273,0
0.7300000000000004,15.649764720536334,2.065463756748749,-1.5574771201523618,0.5524777011037453,18.165257,3.560091,-3.5283427,-0.21670194,10.346796,-10.513583,1.3279554,-0.32729155,0.42935166,-0.22374563,-0.81146437,-8.357225,3.3870904,0.92727655,-0.07428339,0.49612772,1.1638777,0
0.7400000000000004,15.649764720536334,2.065463756748749,-1.5574771201523618,0.5524777011037453,18.165257,3.560091,-3.5283427,-0.21670194,10.262793,-10.479209,1.3371527,-0.32246274,0.42924738,-0.22714624,-0.81250733,-8.4434395,3.487991,0.9121078,0.25965503,0.17611748,1.1338761,0
0.7500000000000004,15.649764720536334,2.065463756748749,-1.5574771201523618,0.5524777011037453,18.165257,3.560091,-3.5283427,-0.21670194,10.177927,-10.443823,1.3461965,-0.3187348,0.42746946,-0.23124897,-0.81375736,-8.529553,3.5892384,0.8966201,0.5414681,-0.09403735,1.1053467,0
0.7600000000000005,15.81691213541411,3.0358969140717633,-2.732719816489311,0.20764020501003633,17.78351,4.1531024,-5.000408,-0.22153528,10.092203,-10.407422,1.3550851,-0.31594914,0.42428264,-0.23594175,-0.81516314,-8.615061,3.6910014,0.8811283,0.77929306,-0.32210243,1.0782171,0
0.7700000000000005,15.81691213541411,3.0358969140717633,-2.732719816489311,0.20764020501003633,17.78351,4.1531024,-5.000408,-0.22153528,10.005625,-10.369995,1.3638245,-0.31427824,0.41940954,-0.24127766,-0.8167674,-8.700397,3.7945297,0.8667955,1.1314541,-0.69782066,1.0354975,0
0.7800000000000005,15.81691213541411,3.0358969140717633,-2.732719816489311,0.20764020501003633,17.78351,4.1531024,-5.000408,-0.22153528,9.918201,-10.33153,1.3724233,-0.3138512,0.41263586,-0.24728844,-0.81858206,-8.78404,3.8989167,0.85309935,1.4286383,-1.0149992,0.9948743,0
0.7900000000000005,15.81691213541411,3.0358969140717633,-2.732719816489311,0.20764020501003633,17.78351,4.1531024,-5.000408,-0.22153528,9.829951,-10.292015,1.3808897,-0.31447914,0.40424582,-0.25385308,-0.8205156,-8.865395,4.004324,0.84036595,1.6794311,-1.2827563,0.9562445,0
0.8000000000000005,16.39315551661876,3.4681352195917894,-3.356702241930957,-0.037653769037121344,20.928198,4.050597,-7.8668675,-2.3140683,9.740902,-10.251441,1.3892347,-0.31599826,0.39447594,-0.26086643,-0.8224849,-8.943936,4.110873,0.82883996,1.8910761,-1.5087907,0.9195103,0
0.8100000000000005,16.39315551661876,3.4681352195917894,-3.356702241930957,-0.037653769037121344,20.928198,4.050597,-7.8668675,-2.3140683,9.65107,-10.209775,1.3974872,-0.3184246,0.3832708,-0.2682883,-0.82445705,-9.021922,4.2225776,0.8219126,2.1371357,-1.7968891,0.87254196,0
0.8200000000000005,16.39315551661876,3.4681352195917894,-3.356702241930957,-0.037653769037121344,20.928198,4.050597,-7.8668675,-2.3140683,9.560477,-10.1669855,1.4056784,-0.32176104,0.3705924,-0.27607605,-0.8263849,-9.095941,4.335621,0.8166264,2.3447835,-2.0400913,0.82787836,0
0.8300000000000005,16.39315551661876,3.4681352195917894,-3.356702241930957,-0.037653769037121344,20.928198,4.050597,-7.8668675,-2.3140683,9.469166,-10.123057,1.4138258,-0.32585713,0.35664678,-0.2841409,-0.82818055,-9.165462,4.450028,0.81312674,2.5200183,-2.2453911,0.7854065,0
0.8400000000000005,16.39315551661876,3.4681352195917894,-3.356702241930957,-0.037653769037121344,20.84749,4.7194552,-8.12635,-3.1834111,9.377185,-10.077979,1.4219474,-0.3305828,0.34160852,-0.29240644,-0.8297686,-9.230012,4.565783,0.8114893,2.6679018,-2.4186938,0.74501866,0
0.8500000000000005,16.39315551661876,3.4681352195917894,-3.356702241930957,-0.037653769037121344,20.84749,4.7194552,-8.12635,-3.1834111,9.284585,-10.031737,1.430062,-0.33582574,0.3256264,-0.3008068,-0.83108526,-9.289169,4.6828313,0.8117293,2.7927048,-2.564985,0.7066127,0
0.8600000000000005,16.39315551661876,3.4681352195917894,-3.356702241930957,-0.037653769037121344,20.84749,4.7194552,-8.12635,-3.1834111,9.191422,-9.984319,1.4381883,-0.3414889,0.30882776,-0.30928543,-0.832077,-9.342557,4.801084,0.81381106,2.8980308,-2.6884735,0.67009133,0
0.8700000000000006,16.39315551661876,3.4681352195917894,-3.356702241930957,-0.037653769037121344,20.84749,4.7194552,-8.12635,-3.1834111,9.097756,-9.935712,1.4463443,-0.34748843,0.2913223,-0.31779402,-0.83269984,-9.389842,4.920422,0.8176553,2.9869208,-2.792712,0.635362,0
0.8800000000000006,16.90490617142411,3.4015384010852534,-3.501886282276982,-0.2629002323141541,18.819502,3.106674,-7.3704834,-1.2742537,9.003649,-9.885907,1.454547,-0.35375187,0.2732048,-0.32629117,-0.83291763,-9.430728,5.0407014,0.82314605,3.0619402,-2.880701,0.60233694,0
0.8900000000000006,16.90490617142411,3.4015384010852534,-3.501886282276982,-0.2629002323141541,18.819502,3.106674,-7.3704834,-1.2742537,8.909159,-9.834877,1.4628288,-0.3602515,0.25452793,-0.33469108,-0.83271563,-9.466025,5.165531,0.83342063,3.114856,-2.97764,0.55987954,0
0.9000000000000006,16.90490617142411,3.4015384010852534,-3.501886282276982,-0.2629002323141541,18.819502,3.106674,-7.3704834,-1.2742537,8.814352,-9.782596,1.4712203,-0.3669647,0.23534136,-0.34292242,-0.83207846,-9.494223,5.2909455,0.84509134,3.1595137,-3.0594628,0.5195055,0
0.9100000000000006,16.90490617142411,3.4015384010852534,-3.501886282276982,-0.2629002323141541,18.819502,3.106674,-7.3704834,-1.2742537,8.7193,-9.729058,1.4797348,-0.37383926,0.2157185,-0.3509722,-0.8309797,-9.515117,5.4167113,0.8579852,3.1972024,-3.1285257,0.48111266,0
0.9200000000000006,17.051537677833316,2.8341384272209074,-3.188263035329015,-0.4156680557723579,18.787632,3.7948408,-7.80924,-2.1423104,8.624076,-9.674262,1.4883837,-0.3808292,0.19572352,-0.35882938,-0.8293986,-9.528537,5.542585,0.8719065,3.2290108,-3.186818,0.44460374,0
0.9300000000000006,17.051537677833316,2.8341384272209074,-3.188263035329015,-0.4156680557723579,18.787632,3.7948408,-7.80924,-2.1423104,8.528756,-9.618203,1.4971808,-0.3878227,0.17561124,-0.36634222,-0.8273733,-9.534417,5.669401,0.8876218,3.1673434,-3.187148,0.40238994,0
0.9400000000000006,17.051537677833316,2.8341384272209074,-3.188263035329015,-0.4156680557723579,18.787632,3.7948408,-7.80924,-2.1423104,8.433415,-9.560878,1.5061383,-0.39473972,0.15559363,-0.37339723,-0.82495135,-9.532664,5.7957907,0.9039482,3.1152966,-3.1874173,0.36224762,0
0.9500000000000006,17.051537677833316,2.8341384272209074,-3.188263035329015,-0.4156680557723579,18.787632,3.7948408,-7.80924,-2.1423104,8.33813,-9.502291,1.5152613,-0.40158394,0.13566472,-0.38003707,-0.82212913,-9.523347,5.921482,0.9206778,3.071371,-3.187636,0.32407504,0
0.9600000000000006,16.73969482723049,1.9093510104331837,-2.552618167519948,-0.49095712344324394,19.165344,5.4617214,-6.8761725,-4.9080563,8.242976,-9.4424515,1.5245527,-0.40835625,0.11581996,-0.38629794,-0.8189041,-9.506539,6.046213,0.9376029,3.0342996,-3.1878135,0.28777567,0
0.9700000000000006,16.73969482723049,1.9093510104331837,-2.552618167519948,-0.49095712344324394,19.165344,5.4617214,-6.8761725,-4.9080563,8.148024,-9.381382,1.5340029,-0.41492635,0.09642035,-0.39201358,-0.8153917,-9.482798,6.167474,0.95241845,2.8587685,-3.0888596,0.24956302,0
0.9800000000000006,16.73969482723049,1.9093510104331837,-2.552618167519948,-0.49095712344324394,19.165344,5.4617214,-6.8761725,-4.9080563,8.053345,-9.319107,1.5436004,-0.4212071,0.077756755,-0.3970672,-0.81171125,-9.452115,6.2873206,0.967071,2.7106223,-3.0053215,0.21322547,0
0.9900000000000007,16.73969482723049,1.9093510104331837,-2.552618167519948,-0.49095712344324394,19.165344,5.4617214,-6.8761725,-4.9080563,7.959005,-9.255641,1.5533433,-0.42725265,0.05973028,-0.40155238,-0.80786276,-9.414823,6.405559,0.98142993,2.5855882,-2.9347987,0.17867103,0
1.0000000000000007,16.654889087130723,0.9074428324346921,-1.7666970859109343,-0.5037424025981418,19.522184,5.4233546,-6.329704,-5.290832,7.86507,-9.191002,1.5632277,-0.43310553,0.04225617,-0.4055473,-0.8038435,-9.371213,6.5220165,0.99537635,2.4800608,-2.8752635,0.14581221,0
1.0100000000000007,16.654889087130723,0.9074428324346921,-1.7666970859109343,-0.5037424025981418,19.522184,5.4233546,-6.329704,-5.290832,7.7716002,-9.12521,1.5732461,-0.43866026,0.025689632,-0.40893468,-0.7998054,-9.3218355,6.6359625,1.0082436,2.234739,-2.7024531,0.113938384,0
1.0200000000000007,16.654889087130723,0.9074428324346921,-1.7666970859109343,-0.5037424025981418,19.522184,5.4233546,-6.329704,-5.290832,7.6786523,-9.058289,1.5833906,-0.44384933,0.01030922,-0.41163778,-0.7958926,-9.266935,6.7478986,1.020562,2.0276864,-2.5565782,0.083628625,0
1.0300000000000007,16.654889087130723,0.9074428324346921,-1.7666970859109343,-0.5037424025981418,19.522184,5.4233546,-6.329704,-5.290832,7.586279,-8.990259,1.5936555,-0.4487511,-0.004056533,-0.41376898,-0.7920861,-9.206983,6.857771,1.0323249,1.8529323,-2.4334412,0.054806154,0
1.0400000000000007,16.654889087130723,0.9074428324346921,-1.7666970859109343,-0.5037424025981418,20.060926,5.346479,-6.4768324,-5.609071,7.4945283,-8.921141,1.6040353,-0.45342755,-0.017553959,-0.41542098,-0.7883653,-9.142374,6.9655404,1.0435326,1.7054384,-2.3294988,0.027398027,0
1.0500000000000007,16.654889087130723,0.9074428324346921,-1.7666970859109343,-0.5037424025981418,20.060926,5.346479,-6.4768324,-5.609071,7.403446,-8.850956,1.6145244,-0.45792773,-0.03030775,-0.41667038,-0.7847092,-9.073452,7.071175,1.0541881,1.5809516,-2.2417593,0.0013348153,0
1.0600000000000007,16.654889087130723,0.9074428324346921,-1.7666970859109343,-0.5037424025981418,20.060926,5.346479,-6.4768324,-5.609071,7.3130736,-8.779725,1.6251173,-0.46229032,-0.04242404,-0.41758046,-0.78109765,-9.000505,7.1746497,1.0642955,1.475883,-2.1676977,-0.02344948,0
1.0700000000000007,16.654889087130723,0.9074428324346921,-1.7666970859109343,-0.5037424025981418,20.060926,5.346479,-6.4768324,-5.609071,7.223449,-8.70747,1.6358083,-0.4665458,-0.05399311,-0.41820362,-0.7775118,-8.923786,7.275942,1.0738571,1.3872036,-2.105182,-0.047017608,0
1.0800000000000007,16.10344293396344,0.009023773904910777,-1.1965276693505589,-0.4172375241685049,18.822212,2.0320468,-5.7682776,0.3278443,7.13461,-8.634214,1.6465925,-0.470718,-0.06509168,-0.41858336,-0.77393454,-8.843508,7.3750315,1.0828735,1.3123567,-2.0524127,-0.069429226,0
1.0900000000000007,16.10344293396344,0.009023773904910777,-1.1965276693505589,-0.4172375241685049,18.822212,2.0320468,-5.7682776,0.3278443,7.0465775,-8.559995,1.6574465,-0.4747478,-0.07544358,-0.41858616,-0.77052414,-8.762653,7.468698,1.0878277,1.1090873,-1.9189413,-0.08649628,0
1.1000000000000008,16.10344293396344,0.009023773904910777,-1.1965276693505589,-0.4172375241685049,18.822212,2.0320468,-5.7682776,0.3278443,6.9593678,-8.484849,1.6683478,-0.47859633,-0.08483448,-0.41811436,-0.76741654,-8.678894,7.5602574,1.0923556,0.9375204,-1.8062817,-0.102725856,0
1.1100000000000008,16.10344293396344,0.009023773904910777,-1.1965276693505589,-0.4172375241685049,18.822212,2.0320468,-5.7682776,0.3278443,6.8730087,-8.408798,1.6792927,-0.4823057,-0.09340814,-0.41724795,-0.7645648,-8.592558,7.649758,1.0965638,0.7927109,-1.7111895,-0.118159026,0
1.1200000000000008,15.466104333065925,-0.8013667777477291,-0.5717921629993966,-0.26164165265374817,19.31192,2.266771,-5.7889247,0.15697466,6.787524,-8.331862,1.6902783,-0.485909,-0.1012864,-0.41605276,-0.76192695,-8.50392,7.737243,1.1005461,0.67048585,-1.6309252,-0.13283488,0
1.1300000000000008,15.466104333065925,-0.8013667777477291,-0.5717921629993966,-0.26164165265374817,19.31192,2.266771,-5.7889247,0.15697466,6.702919,-8.254078,1.701283,-0.4893479,-0.10823244,-0.4144569,-0.7596374,-8.416823,7.81938,1.1003615,0.44095948,-1.4657359,-0.13915548,0
1.1400000000000008,15.466104333065925,-0.8013667777477291,-0.5717921629993966,-0.26164165265374817,19.31192,2.266771,-5.7889247,0.15697466,6.6191926,-8.17548,1.7122858,-0.49258018,-0.11406548,-0.41240934,-0.7578071,-8.328104,7.8997326,1.1001996,0.24722669,-1.3263093,-0.1451659,0
1.1500000000000008,15.466104333065925,-0.8013667777477291,-0.5717921629993966,-0.26164165265374817,19.31192,2.266771,-5.7889247,0.15697466,6.5363603,-8.096088,1.7232876,-0.4956487,-0.118956245,-0.40998644,-0.7563677,-8.238091,7.978414,1.1002147,0.083705835,-1.2086276,-0.15088141,0
1.1600000000000008,14.832394145276412,-1.4697591198290323,-0.03973386632524887,-0.06743601241295331,18.783197,-1.8100075,-4.6386957,3.4336295,6.4544334,-8.015918,1.7342912,-0.49858713,-0.123048924,-0.40725073,-0.7552588,-8.147061,8.05552,1.1005408,-0.05431494,-1.1092997,-0.15631644,0
1.1700000000000008,14.832394145276412,-1.4697591198290323,-0.03973386632524887,-0.06743601241295331,18.783197,-1.8100075,-4.6386957,3.4336295,6.3734026,-7.9349985,1.7452798,-0.5013506,-0.12618081,-0.40415537,-0.75457513,-8.059026,8.128048,1.0972517,-0.27503312,-0.94247967,-0.15195507,0
1.1800000000000008,14.832394145276412,-1.4697591198290323,-0.03973386632524887,-0.06743601241295331,18.783197,-1.8100075,-4.6386957,3.4336295,6.293254,-7.853361,1.7562382,-0.5039032,-0.12823018,-0.4006657,-0.7543903,-7.970562,8.199287,1.0945402,-0.46133375,-0.80167973,-0.14780769,0
1.1900000000000008,14.832394145276412,-1.4697591198290323,-0.03973386632524887,-0.06743601241295331,18.783197,-1.8100075,-4.6386957,3.4336295,6.213991,-7.771017,1.767173,-0.5062797,-0.12936448,-0.39684436,-0.7546253,-7.881965,8.269367,1.0925614,-0.618584,-0.6828413,-0.14386383,0
1.2000000000000008,13.383582060145491,-1.73948624855845,0.05797159751228294,0.1274317795673257,18.1767,-1.1179814,-3.6449738,3.6117604,6.1356144,-7.6879773,1.7780924,-0.50850713,-0.12972492,-0.3927427,-0.75521135,-7.793484,8.338397,1.0914448,-0.7513136,-0.5825384,-0.1401135,0
1.2100000000000009,13.383582060145491,-1.73948624855845,0.05797159751228294,0.1274317795673257,18.1767,-1.1179814,-3.6449738,3.6117604,6.058078,-7.6042857,1.7889576,-0.51058733,-0.1293556,-0.3883382,-0.75614834,-7.7139463,8.399821,1.0817347,-0.90540534,-0.48264486,-0.12698497,0
1.2200000000000009,13.383582060145491,-1.73948624855845,0.05797159751228294,0.1274317795673257,18.1767,-1.1179814,-3.6449738,3.6117604,5.9813337,-7.519984,1.7997307,-0.5125186,-0.12829837,-0.38361368,-0.75743246,-7.6349077,8.460457,1.0730112,-1.0354695,-0.39833367,-0.11450066,0
1.2300000000000009,13.383582060145491,-1.73948624855845,0.05797159751228294,0.1274317795673257,18.1767,-1.1179814,-3.6449738,3.6117604,5.9053774,-7.435079,1.8104217,-0.51431566,-0.1266602,-0.378615,-0.75900346,-7.556551,8.520368,1.0653691,-1.1452528,-0.32717374,-0.102628954,0
1.2400000000000009,13.383582060145491,-1.73948624855845,0.05797159751228294,0.1274317795673257,17.08624,-1.0405892,-3.5062215,3.4873347,5.8302,-7.349579,1.8210421,-0.5159905,-0.124531314,-0.37338048,-0.76081,-7.479032,8.579605,1.0588845,-1.2379172,-0.26711333,-0.09133983,0
1.2500000000000009,13.383582060145491,-1.73948624855845,0.05797159751228294,0.1274317795673257,17.08624,-1.0405892,-3.5062215,3.4873347,5.7557936,-7.2634897,1.8316036,-0.51755255,-0.12198788,-0.36794236,-0.7628079,-7.4024863,8.638211,1.0536166,-1.316132,-0.21642105,-0.08060464,0
1.260000000000001,13.383582060145491,-1.73948624855845,0.05797159751228294,0.1274317795673257,17.08624,-1.0405892,-3.5062215,3.4873347,5.682147,-7.1768174,1.8421187,-0.51900965,-0.11909423,-0.3623277,-0.76495975,-7.327033,8.6962185,1.0496106,-1.3821505,-0.1736354,-0.07039625,0
1.270000000000001,13.383582060145491,-1.73948624855845,0.05797159751228294,0.1274317795673257,17.08624,-1.0405892,-3.5062215,3.4873347,5.6092486,-7.0895677,1.8526003,-0.52036834,-0.115904704,-0.35655934,-0.7672338,-7.2527742,8.753651,1.0468994,-1.4378742,-0.13752304,-0.06068878,0
1.280000000000001,11.565805319908975,-1.609072343732961,-0.3691336906070371,0.31282917337313004,13.764345,-0.4187593,-2.1384008,3.2281353,5.537087,-7.0017467,1.8630613,-0.5216339,-0.1124652,-0.35065666,-0.7696031,-7.1798024,8.810525,1.0455059,-1.4849085,-0.10704291,-0.05145766,0
1.290000000000001,11.565805319908975,-1.609072343732961,-0.3691336906070371,0.31282917337313004,13.764345,-0.4187593,-2.1384008,3.2281353,5.4655995,-6.9133973,1.8734486,-0.5228474,-0.108981475,-0.3445846,-0.7720197,-7.1179175,8.859197,1.0321282,-1.5042714,-0.14793256,-0.033581987,0
1.300000000000001,11.565805319908975,-1.609072343732961,-0.3691336906070371,0.31282917337313004,13.764345,-0.4187593,-2.1384008,3.2281353,5.394725,-6.824564,1.8837079,-0.52403826,-0.10562018,-0.33831632,-0.774448,-7.057232,8.907349,1.0199068,-1.520614,-0.18244532,-0.016583495,0
1.310000000000001,11.565805319908975,-1.609072343732961,-0.3691336906070371,0.31282917337313004,13.764345,-0.4187593,-2.1384008,3.2281353,5.3244505,-6.7352524,1.8938507,-0.5251959,-0.10236429,-0.33187804,-0.77688295,-6.9977565,8.95493,1.0088416,-1.5344071,-0.21157539,-0.00041912217,0
1.320000000000001,9.926399409076108,-1.4141539139323314,-0.7530702020305003,0.5038808789010988,13.779251,-0.43732357,-2.1214526,3.1205392,5.254765,-6.6454678,1.9038886,-0.52631176,-0.09919919,-0.3252921,-0.7793201,-6.9395022,9.001897,0.99892926,-1.5460489,-0.23616192,0.014952065,0
1.330000000000001,9.926399409076108,-1.4141539139323314,-0.7530702020305003,0.5038808789010988,13.779251,-0.43732357,-2.1214526,3.1205392,5.1856155,-6.55525,1.91377,-0.52740294,-0.09628098,-0.31855533,-0.7817276,-6.8905587,9.041638,0.977499,-1.5254741,-0.31679714,0.038943946,0
1.340000000000001,9.926399409076108,-1.4141539139323314,-0.7530702020305003,0.5038808789010988,13.779251,-0.43732357,-2.1214526,3.1205392,5.11695,-6.4646378,1.9234419,-0.52847964,-0.093734026,-0.31166628,-0.78408337,-6.8426423,9.080748,0.95703703,-1.5081064,-0.38485563,0.061758544,0
1.350000000000001,9.926399409076108,-1.4141539139323314,-0.7530702020305003,0.5038808789010988,13.779251,-0.43732357,-2.1214526,3.1205392,5.048759,-6.373637,1.932914,-0.5295272,-0.09150372,-0.30464512,-0.7863961,-6.7957206,9.119156,0.9375268,-1.4934461,-0.44229913,0.08345361,0
1.360000000000001,8.938915233128611,-1.3769878522058099,-0.9503421949497222,0.7015060607853493,13.792948,-2.9787588,-1.8477005,1.988226,4.9810324,-6.2822566,1.9421958,-0.53053373,-0.08954356,-0.2975088,-0.7886722,-6.7497687,9.156805,0.9189512,-1.4810712,-0.49078286,0.104084104,0
1.370000000000001,8.938915233128611,-1.3769878522058099,-0.9503421949497222,0.7015060607853493,13.792948,-2.9787588,-1.8477005,1.988226,4.9137383,-6.190522,1.9512564,-0.5314924,-0.08789136,-0.2902395,-0.79091805,-6.7092414,9.189978,0.8932902,-1.4648238,-0.5624779,0.13339977,0
1.380000000000001,8.938915233128611,-1.3769878522058099,-0.9503421949497222,0.7015060607853493,13.792948,-2.9787588,-1.8477005,1.988226,4.846845,-6.0984597,1.9600644,-0.53239423,-0.08657574,-0.2828235,-0.7931401,-6.669541,9.222361,0.8684398,-1.4511093,-0.62299037,0.1612769,0
1.390000000000001,8.938915233128611,-1.3769878522058099,-0.9503421949497222,0.7015060607853493,13.792948,-2.9787588,-1.8477005,1.988226,4.7803445,-6.0060773,1.9686279,-0.5332281,-0.08554745,-0.27527976,-0.79534256,-6.630643,9.253899,0.84438413,-1.439533,-0.67406434,0.18778613,0
1.400000000000001,8.089361055821751,-1.2736276143187144,-0.8373002250740273,0.8715223057628512,12.390588,-1.7438967,-2.3852596,1.9563068,4.7142296,-5.9133844,1.9769547,-0.53398514,-0.084764495,-0.2676244,-0.79752827,-6.592527,9.284544,0.82110626,-1.429762,-0.717172,0.21299455,0
1.410000000000001,8.089361055821751,-1.2736276143187144,-0.8373002250740273,0.8715223057628512,12.390588,-1.7438967,-2.3852596,1.9563068,4.6484733,-5.820404,1.9850167,-0.53462654,-0.08418265,-0.25992668,-0.7997031,-6.5587263,9.311432,0.79140407,-1.4053949,-0.73593223,0.2453087,0
1.420000000000001,8.089361055821751,-1.2736276143187144,-0.8373002250740273,0.8715223057628512,12.390588,-1.7438967,-2.3852596,1.9563068,4.5830517,-5.7271595,1.992785,-0.53512055,-0.08376525,-0.25224242,-0.8018742,-6.5256042,9.337453,0.7623654,-1.3848283,-0.751765,0.2760372,0
1.430000000000001,8.089361055821751,-1.2736276143187144,-0.8373002250740273,0.8715223057628512,12.390588,-1.7438967,-2.3852596,1.9563068,4.517958,-5.6336584,2.000266,-0.53547055,-0.08348932,-0.24456635,-0.8040443,-6.4931464,9.362592,0.7339659,-1.3674695,-0.7651271,0.30525783,0
1.440000000000001,8.089361055821751,-1.2736276143187144,-0.8373002250740273,0.8715223057628512,11.418269,-1.5673196,-1.5166565,1.705193,4.453186,-5.539911,2.007466,-0.5356803,-0.08333509,-0.2368941,-0.80621475,-6.4613423,9.386835,0.70618224,-1.3528187,-0.77640414,0.33304462,0
1.450000000000001,8.089361055821751,-1.2736276143187144,-0.8373002250740273,0.8715223057628512,11.418269,-1.5673196,-1.5166565,1.705193,4.388729,-5.445925,2.0143914,-0.5357534,-0.08328558,-0.229222,-0.80838615,-6.430182,9.41017,0.6789921,-1.3404533,-0.7859214,0.3594679,0
1.460000000000001,8.089361055821751,-1.2736276143187144,-0.8373002250740273,0.8715223057628512,11.418269,-1.5673196,-1.5166565,1.705193,4.3245807,-5.3517113,2.0210478,-0.5356936,-0.08332617,-0.22154714,-0.8105585,-6.3996587,9.432582,0.6523738,-1.3300171,-0.79395336,0.3845946,0
1.470000000000001,8.089361055821751,-1.2736276143187144,-0.8373002250740273,0.8715223057628512,11.418269,-1.5673196,-1.5166565,1.705193,4.260734,-5.257277,2.0274408,-0.5355045,-0.08344426,-0.21386707,-0.81273115,-6.369766,9.454062,0.62630624,-1.3212091,-0.8007316,0.40848827,0
1.480000000000001,7.537445679129179,-1.2098660906444954,-0.6716647696641321,0.9978806477692481,11.397069,-2.2750807,0.87399614,1.7448423,4.1971827,-5.1626334,2.0335758,-0.53518987,-0.08362898,-0.20617984,-0.814903,-6.3404994,9.474599,0.6007689,-1.3137753,-0.806452,0.4312095,0
1.490000000000001,7.537445679129179,-1.2098660906444954,-0.6716647696641321,0.9978806477692481,11.397069,-2.2750807,0.87399614,1.7448423,4.133911,-5.0677958,2.039433,-0.53472507,-0.08383373,-0.19853893,-0.81708163,-6.3138084,9.492848,0.57075536,-1.2975622,-0.78545105,0.4590162,0
1.500000000000001,7.537445679129179,-1.2098660906444954,-0.6716647696641321,0.9978806477692481,11.397069,-2.2750807,0.87399614,1.7448423,4.070904,-4.9727798,2.0449924,-0.5340904,-0.0840211,-0.19098677,-0.8192747,-6.2876945,9.510217,0.5411944,-1.2838781,-0.76772434,0.48545843,0
1.5100000000000011,7.537445679129179,-1.2098660906444954,-0.6716647696641321,0.9978806477692481,11.397069,-2.2750807,0.87399614,1.7448423,4.008155,-4.8775945,2.0502582,-0.5332961,-0.08419473,-0.18350707,-0.8214809,-6.262156,9.526713,0.51206416,-1.2723283,-0.7527612,0.51060313,0
1.5200000000000011,7.196579577548672,-1.2195094950152643,-0.24342687478841007,1.1024984232323585,10.783968,-1.9891766,1.4167111,1.3470527,3.9456587,-4.7822485,2.0552351,-0.53235143,-0.0843575,-0.1760862,-0.8236982,-6.2371917,9.542346,0.48334438,-1.2625799,-0.7401308,0.534514,0
1.5300000000000011,7.196579577548672,-1.2195094950152643,-0.24342687478841007,1.1024984232323585,10.783968,-1.9891766,1.4167111,1.3470527,3.8834038,-4.6867537,2.0599108,-0.5312244,-0.08437063,-0.16879956,-0.82594687,-6.213906,9.556456,0.45186007,-1.255878,-0.6626905,0.5623852,0
1.5400000000000011,7.196579577548672,-1.2195094950152643,-0.24342687478841007,1.1024984232323585,10.783968,-1.9891766,1.4167111,1.3470527,3.8213787,-4.591122,2.0642734,-0.5298913,-0.08412397,-0.16170631,-0.8282443,-6.1911836,9.569785,0.42073032,-1.2502201,-0.5973261,0.5888887,0
1.5500000000000012,7.196579577548672,-1.2195094950152643,-0.24342687478841007,1.1024984232323585,10.783968,-1.9891766,1.4167111,1.3470527,3.759578,-4.495361,2.0683262,-0.52837026,-0.08365824,-0.15477389,-0.83058435,-6.169042,9.582373,0.38993773,-1.2454429,-0.5421545,0.6140917,0
1.5600000000000012,7.494965984621695,-1.402481131795944,0.2894154931882643,1.2448852245236233,9.808461,-1.4235994,1.1059427,1.108466,3.6979957,-4.399477,2.0720732,-0.5266766,-0.08300774,-0.14797494,-0.8329611,-6.1474957,9.594253,0.3594664,-1.2414095,-0.4955858,0.63805795,0
1.5700000000000012,7.494965984621695,-1.402481131795944,0.2894154931882643,1.2448852245236233,9.808461,-1.4235994,1.1059427,1.108466,3.63663,-4.303476,2.0755308,-0.52478373,-0.081987575,-0.14133604,-0.83540624,-6.125693,9.605918,0.332119,-1.2665721,-0.37320036,0.6678351,0
1.5800000000000012,7.494965984621695,-1.402481131795944,0.2894154931882643,1.2448852245236233,9.808461,-1.4235994,1.1059427,1.108466,3.5754793,-4.207361,2.0787165,-0.52267057,-0.08045246,-0.13487625,-0.8379443,-6.1045713,9.616934,0.30508164,-1.2878069,-0.2698987,0.6961512,0
1.5900000000000012,7.494965984621695,-1.402481131795944,0.2894154931882643,1.2448852245236233,9.808461,-1.4235994,1.1059427,1.108466,3.514536,-4.11114,2.0816336,-0.5203565,-0.07848233,-0.12856443,-0.8405595,-6.0841794,9.627358,0.2783459,-1.3057265,-0.18270494,0.7230777,0
1.6000000000000012,8.557177467427199,-1.7762117504303792,0.9213398450335558,1.4654112579173213,10.843766,-1.6452745,1.9549942,2.0797012,3.4537928,-4.014816,2.0842845,-0.5178573,-0.076144665,-0.12237449,-0.84323764,-6.064557,9.6372385,0.251903,-1.320848,-0.10910723,0.7486829,0
1.6100000000000012,8.557177467427199,-1.7762117504303792,0.9213398450335558,1.4654112579173213,10.843766,-1.6452745,1.9549942,2.0797012,3.3932552,-3.9183896,2.0867233,-0.51514417,-0.07320886,-0.11628687,-0.8460164,-6.0430813,9.647944,0.23594072,-1.3919411,0.051524013,0.783853,0
1.6200000000000012,8.557177467427199,-1.7762117504303792,0.9213398450335558,1.4654112579173213,10.843766,-1.6452745,1.9549942,2.0797012,3.3329275,-3.8218586,2.089004,-0.51219094,-0.069494806,-0.11028331,-0.84892166,-6.0226293,9.658152,0.22030242,-1.451941,0.18710911,0.8172973,0
1.6300000000000012,8.557177467427199,-1.7762117504303792,0.9213398450335558,1.4654112579173213,10.843766,-1.6452745,1.9549942,2.0797012,3.2727985,-3.7252278,2.09113,-0.50901353,-0.065123096,-0.1043459,-0.8519246,-6.0033007,9.667931,0.20498621,-1.5025779,0.30155396,0.8491004,0
1.6400000000000012,8.557177467427199,-1.7762117504303792,0.9213398450335558,1.4654112579173213,13.041405,-1.768988,1.3794426,2.6877577,3.2128572,-3.6285012,2.0931048,-0.5056251,-0.060195588,-0.09846,-0.85499984,-5.9851813,9.6773405,0.1899858,-1.545312,0.39815527,0.879343,0
1.6500000000000012,8.557177467427199,-1.7762117504303792,0.9213398450335558,1.4654112579173213,13.041405,-1.768988,1.3794426,2.6877577,3.153091,-3.5316823,2.094931,-0.50203675,-0.054798335,-0.09261373,-0.8581249,-5.968344,9.686422,0.17529091,-1.5813763,0.4796955,0.90810156,0
1.6600000000000013,8.557177467427199,-1.7762117504303792,0.9213398450335558,1.4654112579173213,13.041405,-1.768988,1.3794426,2.6877577,3.0934858,-3.4347742,2.0966115,-0.49825773,-0.049004097,-0.08679756,-0.8612801,-5.9528527,9.6952095,0.16088772,-1.6118112,0.54852307,0.9354489,0
1.6700000000000013,8.557177467427199,-1.7762117504303792,0.9213398450335558,1.4654112579173213,13.041405,-1.768988,1.3794426,2.6877577,3.034029,-3.3377793,2.0981493,-0.49429622,-0.04287441,-0.0810039,-0.8644482,-5.93876,9.703726,0.14675924,-1.6374948,0.6066202,0.9614543,0
1.6800000000000013,9.782445648607641,-2.1472622645957915,1.3082945802980321,1.6691283303608555,13.267852,-0.79856455,0.09007526,2.2687476,2.9747057,-3.2407005,2.0995474,-0.49015945,-0.036461357,-0.07522677,-0.86761427,-5.926113,9.711989,0.13288572,-1.6591688,0.6556603,0.9861835,0
1.6900000000000013,9.782445648607641,-2.1472622645957915,1.3082945802980321,1.6691283303608555,13.267852,-0.79856455,0.09007526,2.2687476,2.9155097,-3.1435344,2.1008682,-0.48582503,-0.029603792,-0.06940715,-0.87079245,-5.9133615,9.721163,0.1313395,-1.7353686,0.7573515,1.0196959,0
1.7000000000000013,9.782445648607641,-2.1472622645957915,1.3082945802980321,1.6691283303608555,13.267852,-0.79856455,0.09007526,2.2687476,2.8564322,-3.0462778,2.1021748,-0.4812701,-0.022176567,-0.06349682,-0.8739878,-5.9024143,9.730082,0.13003796,-1.7996776,0.84319085,1.0515637,0
1.7100000000000013,9.782445648607641,-2.1472622645957915,1.3082945802980321,1.6691283303608555,13.267852,-0.79856455,0.09007526,2.2687476,2.7974548,-2.9489334,2.1034696,-0.47650006,-0.014268978,-0.05750662,-0.8771753,-5.893372,9.738764,0.1289543,-1.853951,0.9156499,1.0818677,0
1.7200000000000013,11.058961970185267,-2.3184214084515435,1.6543885170218218,1.7505493704508228,13.708827,-1.0028605,0.48131412,2.555291,2.738558,-2.8515031,2.1047544,-0.47151995,-0.005956646,-0.051446408,-0.88033295,-5.8863206,9.747218,0.12805568,-1.8997542,0.9768147,1.1106848,0
1.7300000000000013,11.058961970185267,-2.3184214084515435,1.6543885170218218,1.7505493704508228,13.708827,-1.0028605,0.48131412,2.555291,2.6797247,-2.7539845,2.1060946,-0.46631867,0.0028500764,-0.045329683,-0.88344973,-5.880688,9.756519,0.14000726,-1.9651434,1.0823946,1.1420832,0
1.7400000000000013,11.058961970185267,-2.3184214084515435,1.6543885170218218,1.7505493704508228,13.708827,-1.0028605,0.48131412,2.555291,2.6209357,-2.6563737,2.107555,-0.46088544,0.012218675,-0.03916709,-0.88651043,-5.877507,9.765585,0.15207647,-2.0203257,1.1715164,1.1719408,0
1.7500000000000013,11.058961970185267,-2.3184214084515435,1.6543885170218218,1.7505493704508228,13.708827,-1.0028605,0.48131412,2.555291,2.5621657,-2.5586734,2.1091363,-0.45522535,0.02205986,-0.03296362,-0.889492,-5.8768854,9.774428,0.16420776,-2.066894,1.2467462,1.2003334,0
1.7600000000000013,12.085759907096353,-2.419020164995967,1.504975384511774,1.7765942912783432,13.924908,-0.28604677,-0.21811095,1.3633049,2.5033886,-2.4608858,2.1108391,-0.44934335,0.032297764,-0.026724307,-0.89237475,-5.8789124,9.7830515,0.17633939,-2.1061924,1.31025,1.2273326,0
1.7700000000000014,12.085759907096353,-2.419020164995967,1.504975384511774,1.7765942912783432,13.924908,-0.28604677,-0.21811095,1.3633049,2.444576,-2.3630092,2.112714,-0.4432414,0.042832304,-0.020391587,-0.8951459,-5.884104,9.792227,0.1986334,-2.1550255,1.3405408,1.2542849,0
1.7800000000000014,12.085759907096353,-2.419020164995967,1.504975384511774,1.7765942912783432,13.924908,-0.28604677,-0.21811095,1.3633049,2.3856962,-2.265042,2.1148112,-0.4369206,0.05357988,-0.013921158,-0.8977948,-5.8923354,9.801112,0.22077942,-2.196239,1.3661141,1.2799147,0
1.7900000000000014,12.085759907096353,-2.419020164995967,1.504975384511774,1.7765942912783432,13.924908,-0.28604677,-0.21811095,1.3633049,2.3267186,-2.166988,2.1171288,-0.43038496,0.064503014,-0.0073357765,-0.9003077,-5.9036584,9.809655,0.24269849,-2.2310216,1.3877051,1.3042871,0
1.8000000000000014,12.67828584923883,-2.4828722325612578,0.8744380708143662,1.7237139851644423,14.428605,0.35870293,-1.3993889,1.118602,2.2676122,-2.06885,2.119664,-0.42363876,0.07556968,-0.00065522396,-0.90267307,-5.918111,9.817807,0.26430836,-2.2603765,1.4059342,1.3274634,0
1.8100000000000014,12.67828584923883,-2.4828722325612578,0.8744380708143662,1.7237139851644423,14.428605,0.35870293,-1.3993889,1.118602,2.2083414,-1.9706311,2.1224425,-0.41669056,0.086535245,0.0062330137,-0.9048986,-5.9365745,9.825879,0.29137602,-2.2950196,1.3229886,1.3469075,0
1.8200000000000014,12.67828584923883,-2.4828722325612578,0.8744380708143662,1.7237139851644423,14.428605,0.35870293,-1.3993889,1.118602,2.1488698,-1.8723345,2.1254892,-0.40954852,0.09720352,0.013414925,-0.9069957,-5.958306,9.833339,0.31795606,-2.3242688,1.2529839,1.3653975,0
1.8300000000000014,12.67828584923883,-2.4828722325612578,0.8744380708143662,1.7237139851644423,14.428605,0.35870293,-1.3993889,1.118602,2.0891645,-1.7739669,2.1287992,-0.40221688,0.10761464,0.020839082,-0.9089588,-5.9832506,9.840044,0.3439761,-2.3489642,1.193901,1.3829802,0
1.8400000000000014,12.67828584923883,-2.4828722325612578,0.8744380708143662,1.7237139851644423,14.057016,0.2856424,-1.7707247,1.7110896,2.0291939,-1.6755366,2.1323662,-0.3947005,0.11780243,0.02846202,-0.9107819,-6.0113554,9.845867,0.36936387,-2.3698149,1.1440362,1.3997002,0
1.8500000000000014,12.67828584923883,-2.4828722325612578,0.8744380708143662,1.7237139851644423,14.057016,0.2856424,-1.7707247,1.7110896,1.9689267,-1.5770532,2.136184,-0.38700444,0.12779537,0.036246974,-0.9124592,-6.0425653,9.850694,0.39404687,-2.3874192,1.1019518,1.4155996,0
1.8600000000000014,12.67828584923883,-2.4828722325612578,0.8744380708143662,1.7237139851644423,14.057016,0.2856424,-1.7707247,1.7110896,1.9083321,-1.4785266,2.1402447,-0.37913406,0.13761736,0.044162787,-0.91398484,-6.076825,9.85442,0.41795266,-2.402283,1.0664338,1.4307188,0
1.8700000000000014,12.67828584923883,-2.4828722325612578,0.8744380708143662,1.7237139851644423,14.057016,0.2856424,-1.7707247,1.7110896,1.8473799,-1.3799688,2.1445403,-0.37109482,0.14728844,0.05218304,-0.9153532,-6.1140776,9.856953,0.44100896,-2.4148328,1.0364579,1.4450963,0
1.8800000000000014,12.518753094325453,-2.2830206833893714,-0.04473460662874808,1.5104886794089563,13.077947,0.21496436,-1.5723842,2.3259692,1.7860404,-1.2813919,2.1490617,-0.36289233,0.15682529,0.06028527,-0.91655904,-6.1542654,9.858209,0.46314365,-2.4254289,1.0111594,1.458768,0
1.8900000000000015,12.518753094325453,-2.2830206833893714,-0.04473460662874808,1.5104886794089563,13.077947,0.21496436,-1.5723842,2.3259692,1.7242874,-1.1828092,2.1537921,-0.35454676,0.16587435,0.06851352,-0.9176535,-6.1967707,9.858099,0.48279083,-2.4030654,0.84651035,1.461306,0
1.9000000000000015,12.518753094325453,-2.2830206833893714,-0.04473460662874808,1.5104886794089563,13.077947,0.21496436,-1.5723842,2.3259692,1.6620958,-1.084235,2.158714,-0.3460786,0.17415701,0.07689929,-0.9186867,-6.2419267,9.8565,0.50143635,-2.3842134,0.7075352,1.4637194,0
1.9100000000000015,12.518753094325453,-2.2830206833893714,-0.04473460662874808,1.5104886794089563,13.077947,0.21496436,-1.5723842,2.3259692,1.5994403,-0.9856849,2.1638174,-0.33749354,0.18178704,0.085408755,-0.9196503,-6.2895446,9.853271,0.51906586,-2.3683217,0.5902307,1.4660144,0
1.9200000000000015,12.067635921753087,-1.8387214029166425,-0.7425001241388397,1.163128676806928,12.733418,0.14904107,-1.3795594,2.5847492,1.5362971,-0.8871756,2.169092,-0.32879704,0.1888603,0.09401392,-0.9205354,-6.339453,9.848292,0.53566325,-2.3549254,0.49121755,1.4681967,0
1.9300000000000015,12.067635921753087,-1.8387214029166425,-0.7425001241388397,1.163128676806928,12.733418,0.14904107,-1.3795594,2.5847492,1.4726533,-0.78872424,2.1745064,-0.32004154,0.1951388,0.10262696,-0.9213912,-6.389608,9.841706,0.5471226,-2.2742367,0.2989192,1.4532269,0
1.9400000000000015,12.067635921753087,-1.8387214029166425,-0.7425001241388397,1.163128676806928,12.733418,0.14904107,-1.3795594,2.5847492,1.4084986,-0.690348,2.1800308,-0.3112759,0.20043994,0.11117672,-0.9222638,-6.4415665,9.833237,0.55760807,-2.2061634,0.1365953,1.4389918,0
1.9500000000000015,12.067635921753087,-1.8387214029166425,-0.7425001241388397,1.163128676806928,12.733418,0.14904107,-1.3795594,2.5847492,1.3438165,-0.5920663,2.1856556,-0.30249995,0.20491235,0.11966494,-0.9231385,-6.495085,9.822799,0.56716055,-2.1487327,-0.00042646378,1.4254551,0
1.9600000000000015,10.988387955816528,-1.4749179910981252,-1.7121129312951406,0.760181741170487,12.427144,1.887421,-2.4595337,1.856963,1.2785925,-0.49389902,2.1913712,-0.2937134,0.20868097,0.1280938,-0.92400014,-6.5499506,9.810326,0.5758144,-2.10028,-0.11608982,1.4125826,0
1.9700000000000015,10.988387955816528,-1.4749179910981252,-1.7121129312951406,0.760181741170487,12.427144,1.887421,-2.4595337,1.856963,1.2128388,-0.39586058,2.1971216,-0.28494227,0.21144372,0.1364542,-0.9249213,-6.600949,9.797057,0.5741367,-2.0025337,-0.36485705,1.3805691,0
1.9800000000000015,10.988387955816528,-1.4749179910981252,-1.7121129312951406,0.760181741170487,12.427144,1.887421,-2.4595337,1.856963,1.1465709,-0.2979647,2.2028515,-0.2762114,0.21296655,0.14473751,-0.9259607,-6.6527185,9.781805,0.5717516,-1.9200747,-0.5748485,1.3501266,0
1.9900000000000015,10.988387955816528,-1.4749179910981252,-1.7121129312951406,0.760181741170487,12.427144,1.887421,-2.4595337,1.856963,1.0797827,-0.20023154,2.2085545,-0.26751873,0.21343753,0.15294722,-0.92708415,-6.7049932,9.764501,0.5687409,-1.8505111,-0.75210816,1.321178,0
2.0000000000000013,,,,,12.116566,0.7886457,-1.9532436,1.9542593,1.0124702,-0.10268192,2.2142243,-0.2588623,0.21301474,0.16108684,-0.9282595,-6.75754,9.745092,0.56517226,-1.7918248,-0.9017379,1.2936498,0
2.010000000000001,,,,,12.116566,0.7886457,-1.9532436,1.9542593,0.9446484,-0.0053303875,2.2198262,-0.25026497,0.21148513,0.16913076,-0.92953527,-6.8068223,9.724897,0.55517554,-1.6902442,-1.1552042,1.2462617,0
2.020000000000001,,,,,12.116566,0.7886457,-1.9532436,1.9542593,0.87633455,0.09180896,2.2253263,-0.24174829,0.20868526,0.17705706,-0.930945,-6.855893,9.702648,0.54480124,-1.6045494,-1.3691636,1.2011989,0
2.0300000000000007,,,,,12.116566,0.7886457,-1.9532436,1.9542593,0.80753213,0.1887154,2.2307212,-0.23330873,0.20480418,0.1848744,-0.93243945,-6.9044957,9.678309,0.53413206,-1.5322542,-1.5497736,1.1583474,0
2.0400000000000005,,,,,12.116566,0.7886457,-1.9532436,1.9542593,0.73824704,0.2853679,2.2360084,-0.2249432,0.200001,0.1925904,-0.9339747,-6.952406,9.651859,0.5232318,-1.4712617,-1.7022319,1.1175987,0
2.0500000000000003,,,,,12.692438,0.3417271,-3.0755203,1.3920649,0.66848713,0.38174528,2.2411854,-0.21664898,0.19440989,0.20021172,-0.9355121,-6.9994254,9.623289,0.51214725,-1.4198034,-1.8309262,1.0788494,1
2.06,,,,,12.692438,0.3417271,-3.0755203,1.3920649,0.5982085,0.47779113,2.246352,-0.20837075,0.187839,0.20720984,-0.9372096,-7.0560594,9.585479,0.5211549,-1.1449372,-2.0248387,1.0942191,1
2.07,,,,,12.692438,0.3417271,-3.0755203,1.3920649,0.5273716,0.5734466,2.2516084,-0.20004082,0.18015285,0.2131608,-0.9391969,-7.1110306,9.545238,0.53014266,-0.91295534,-2.1885355,1.1088345,1
2.0799999999999996,,,,,12.692438,0.3417271,-3.0755203,1.3920649,0.4559947,0.6686882,2.2569556,-0.19164172,0.17153008,0.21821105,-0.9414003,-7.164014,9.502753,0.5392662,-0.7171676,-2.3267252,1.1227328,1
2.0899999999999994,,,,,12.892381,-1.4753157,-3.9019644,1.249059,0.38409913,0.76349455,2.2623951,-0.18316044,0.1621201,0.22248471,-0.9437529,-7.2147303,9.458203,0.5486472,-0.5519274,-2.4433835,1.1359491,1
2.099999999999999,,,,,12.892381,-1.4753157,-3.9019644,1.249059,0.31170493,0.857842,2.2679384,-0.17441405,0.15186168,0.22683525,-0.94607776,-7.2636924,9.410978,0.5600595,-0.6957514,-2.6709573,1.1414994,1
2.109999999999999,,,,,12.892381,-1.4753157,-3.9019644,1.249059,0.23883498,0.9517069,2.2735972,-0.16526528,0.14070095,0.23193981,-0.94820577,-7.3098474,9.361659,0.57176614,-0.8171715,-2.8630254,1.1467773,1
2.1199999999999988,,,,,12.892381,-1.4753157,-3.9019644,1.249059,0.16551849,1.0450674,2.2793744,-0.15576659,0.12876531,0.23765752,-0.950092,-7.352951,9.310079,0.58367395,-0.919678,-3.025127,1.1517963,1
2.1299999999999986,,,,,11.213247,-0.6127485,-3.6420245,0.561737,0.091787204,1.1379004,2.285271,-0.14596269,0.11616437,0.24386916,-0.9516976,-7.39278,9.256125,0.59567744,-1.0062169,-3.1619375,1.156569,1
2.1399999999999983,,,,,11.213247,-0.6127485,-3.6420245,0.561737,0.017698899,1.230218,2.2912161,-0.13603747,0.10302219,0.25014052,-0.9530528,-7.4243956,9.207092,0.59333086,-0.9448609,-3.2367425,1.1273804,1
2.149999999999998,,,,,11.213247,-0.6127485,-3.6420245,0.561737,-0.056689776,1.3220353,2.2971373,-0.12614812,0.08944548,0.2561255,-0.9541937,-7.452832,9.156028,0.5909196,-0.89308137,-3.2998917,1.0996242,1
2.159999999999998,,,,,11.213247,-0.6127485,-3.6420245,0.561737,-0.13134637,1.4133322,2.3030338,-0.116294295,0.07549802,0.26184952,-0.95509696,-7.4779577,9.103051,0.5883948,-0.849383,-3.3532012,1.0732298,1
2.1699999999999977,,,,,11.209835,0.8303705,-3.3481977,0.04852055,-0.20623717,1.5040902,2.3089042,-0.10647636,0.06123451,0.26733407,-0.95574325,-7.4996567,9.048279,0.58569753,-0.81250405,-3.3982038,1.0481306,1
2.1799999999999975,,,,,11.209835,0.8303705,-3.3481977,0.04852055,-0.28132737,1.5942922,2.3147466,-0.09682047,0.046738204,0.27203757,-0.9562617,-7.5178237,8.991874,0.5827462,-0.55641264,-3.3902123,0.99907935,1
2.1899999999999973,,,,,11.209835,0.8303705,-3.3481977,0.04852055,-0.35658127,1.683923,2.3205583,-0.08742776,0.032082524,0.27553514,-0.95676905,-7.5323873,8.934104,0.5795964,-0.34025183,-3.3835087,0.95243514,1
