time-since-start [s],throttle_mpc,roll_mpc,pitch_mpc,yaw_mpc,throttle_nw,roll_nw,pitch_nw,yaw_nw,position_x [m],position_y [m],position_z [m],rotation_w [quaternion],rotation_x [quaternion],rotation_y [quaternion],rotation_z [quaternion],velocity_x [m/s],velocity_y [m/s],velocity_z [m/s],omega_x [rad/s],omega_y [rad/s],omega_z [rad/s],network_used
0.0,10.924464856947749,5.9999994117083695,-5.999999958086886,-5.999998968366216,11.145987,-1.6321342,-3.0536847,-0.9681944,18.053507,-10.562094,2.045745,-0.073387936,-0.373306,0.38108787,0.8426321,-11.657954,-3.9160275,-0.11448013,1.4608555,-0.09615967,-0.04983634,0
0.01,10.924464856947749,5.9999994117083695,-5.999999958086886,-5.999998968366216,14.730895,-5.253107,-5.53955,0.14697489,17.936209,-10.600636,2.0445604,-0.069842875,-0.37346268,0.38677946,0.8402674,-11.801139,-3.792209,-0.12309364,1.3548547,-0.20318419,-0.24855888,0
0.02,10.924464856947749,5.9999994117083695,-5.999999958086886,-5.999998968366216,14.730895,-5.253107,-5.53955,0.14697489,17.8175,-10.637942,2.0432696,-0.065460466,-0.3735316,0.3917118,0.83830243,-11.940028,-3.669366,-0.13566242,1.2659645,-0.29409376,-0.44235978,0
0.03,10.924464856947749,5.9999994117083695,-5.999999958086886,-5.999998968366216,14.730895,-5.253107,-5.53955,0.14697489,17.697422,-10.6740265,2.0418348,-0.06026074,-0.37357923,0.39595386,0.8366766,-12.0746155,-3.5475945,-0.15182059,1.1914138,-0.37129956,-0.6313608,0
0.04,10.924464856947749,5.9999994117083695,-5.999999958086886,-5.999998968366216,6.6189814,-3.1976507,-4.9659324,-2.417479,17.576021,-10.708899,2.0402217,-0.054263946,-0.37365934,0.39956328,0.83533424,-12.204918,-3.4269743,-0.17125334,1.1288825,-0.4368538,-0.81568104,0
0.05,10.924464856947749,5.9999994117083695,-5.999999958086886,-5.999998968366216,6.6189814,-3.1976507,-4.9659324,-2.417479,17.453339,-10.742571,2.0383992,-0.04749034,-0.37381488,0.4025881,0.83422416,-12.33097,-3.3075707,-0.19368832,1.0764263,-0.49250475,-0.9954362,0
0.060000000000000005,10.924464856947749,5.9999994117083695,-5.999999958086886,-5.999998968366216,6.6189814,-3.1976507,-4.9659324,-2.417479,17.329414,-10.775053,2.03634,-0.039943464,-0.3740603,0.4050898,0.8332981,-12.453607,-3.1886683,-0.2184158,1.0456363,-0.5529783,-1.169614,0
0.07,10.924464856947749,5.9999994117083695,-5.999999958086886,-5.999998968366216,6.6189814,-3.1976507,-4.9659324,-2.417479,17.204275,-10.806345,2.034025,-0.031571064,-0.37433696,0.40719303,0.8325076,-12.573465,-3.0696652,-0.24487357,1.0450486,-0.6294614,-1.3375167,0
0.08,12.825415824501485,5.999999825177552,-5.99999999183778,-5.999999147315024,12.964524,-4.320982,-7.8804617,-0.7578737,17.077951,-10.836447,2.031437,-0.02231485,-0.37457165,0.40902075,0.83180535,-12.690397,-2.9506333,-0.2729746,1.0708091,-0.7203233,-1.4995292,0
0.09,12.825415824501485,5.999999825177552,-5.99999999183778,-5.999999147315024,12.964524,-4.320982,-7.8804617,-0.7578737,16.95043,-10.865311,2.0285873,-0.012013616,-0.37459284,0.41078246,0.83114,-12.813219,-2.8221898,-0.29723802,1.1708019,-0.8754372,-1.6605896,0
0.09999999999999999,12.825415824501485,5.999999825177552,-5.99999999183778,-5.999999147315024,12.964524,-4.320982,-7.8804617,-0.7578737,16.8217,-10.892891,2.0254865,-0.0005221809,-0.3742385,0.41265684,0.83045745,-12.932281,-2.6938157,-0.32321063,1.2872742,-1.0385095,-1.8166169,0
0.10999999999999999,12.825415824501485,5.999999825177552,-5.99999999183778,-5.999999147315024,12.964524,-4.320982,-7.8804617,-0.7578737,16.691797,-10.919187,2.0221174,0.012182407,-0.3734528,0.41469535,0.8297062,-13.047301,-2.56539,-0.35081625,1.4178773,-1.2085215,-1.9678779,0
0.11999999999999998,12.825415824501485,5.999999825177552,-5.99999999183778,-5.999999147315024,12.964524,-4.320982,-7.8804617,-0.7578737,16.560766,-10.944198,2.0184646,0.026116988,-0.37218085,0.41693613,0.8288326,-13.157991,-2.4367945,-0.3799787,1.5605412,-1.3845239,-2.1146183,0
0.12999999999999998,16.063350900603222,5.9999999642720345,-6.0,-5.840460571070151,10.071398,-2.0175822,-8.113501,0.1617795,16.428654,-10.967921,2.0145125,0.04129243,-0.37036827,0.41940522,0.827781,-13.26405,-2.3079207,-0.41061935,1.7134402,-1.5656369,-2.257065,0
0.13999999999999999,16.063350900603222,5.9999999642720345,-6.0,-5.840460571070151,10.071398,-2.0175822,-8.113501,0.1617795,16.295443,-10.990274,2.0102882,0.057936814,-0.36771923,0.42233086,0.8264759,-13.377642,-2.1626847,-0.43449196,1.9845115,-1.8609401,-2.397399,0
0.15,16.063350900603222,5.9999999642720345,-6.0,-5.840460571070151,10.071398,-2.0175822,-8.113501,0.1617795,16.161125,-11.011174,2.0058172,0.076250605,-0.36395362,0.42589504,0.82482535,-13.484882,-2.0171323,-0.45999914,2.2542944,-2.1512616,-2.5345144,0
0.16,19.34224521732506,5.9999999934058215,-6.0,-5.015346815720074,11.901556,0.12173317,-7.389564,-0.5482709,16.02577,-11.030616,2.0010831,0.096194625,-0.3590399,0.4300397,0.822741,-13.585237,-1.8710598,-0.4870136,2.5223103,-2.4366908,-2.6685085,0
0.17,19.34224521732506,5.9999999934058215,-6.0,-5.015346815720074,11.901556,0.12173317,-7.389564,-0.5482709,15.889414,-11.048539,1.9960971,0.118084684,-0.3524372,0.4350869,0.8200874,-13.684709,-1.713931,-0.5104629,2.99156,-2.921368,-2.7771852,0
0.18000000000000002,19.34224521732506,5.9999999934058215,-6.0,-5.015346815720074,11.901556,0.12173317,-7.389564,-0.5482709,15.752109,-11.064891,1.9908682,0.14217852,-0.34364063,0.44126827,0.8166875,-13.774843,-1.5566034,-0.5355641,3.4389255,-3.3818,-2.8851175,0
0.19000000000000003,19.34224521732506,5.9999999934058215,-6.0,-5.015346815720074,11.901556,0.12173317,-7.389564,-0.5482709,15.613948,-11.079661,1.9853846,0.1682946,-0.33271524,0.44834837,0.81237984,-13.85589,-1.3966941,-0.5611026,3.8372989,-3.7911153,-2.9896483,0
0.20000000000000004,20.999999752184852,5.9999999897453735,-6.0,-4.2513164773170375,13.3243685,-0.8063587,-9.70096,0.8304947,15.475022,-11.092811,1.9796478,0.19611786,-0.3198661,0.45600608,0.8070203,-13.927559,-1.2325836,-0.58616483,4.173633,-4.1365137,-3.0890498,0
0.21000000000000005,20.999999752184852,5.9999999897453735,-6.0,-4.2513164773170375,13.3243685,-0.8063587,-9.70096,0.8304947,15.335406,-11.104227,1.9736949,0.22525913,-0.305259,0.46397546,0.80050105,-13.993955,-1.050143,-0.60429937,4.4577045,-4.4278603,-3.1460826,0
0.22000000000000006,20.999999752184852,5.9999999897453735,-6.0,-4.2513164773170375,13.3243685,-0.8063587,-9.70096,0.8304947,15.195187,-11.1138,1.9675647,0.25536525,-0.2890388,0.47203305,0.79273564,-14.04784,-0.86397517,-0.62162966,4.697557,-4.6736913,-3.200317,0
0.23000000000000007,20.999999752184852,5.9999999897453735,-6.0,-4.2513164773170375,13.3243685,-0.8063587,-9.70096,0.8304947,15.054495,-11.121496,1.9612656,0.2861877,-0.27137563,0.47996268,0.78363734,-14.088266,-0.6748283,-0.63803774,4.900077,-4.881115,-3.25189,0
0.24000000000000007,20.999999752184852,5.9999999897453735,-6.0,-4.2513164773170375,14.609787,-0.80499196,-9.652283,0.54089075,14.91347,-11.127291,1.9548074,0.31749988,-0.25242406,0.48758167,0.77313644,-14.114436,-0.48363,-0.65342504,5.0710773,-5.0561285,-3.3009322,0
0.25000000000000006,20.999999752184852,5.9999999897453735,-6.0,-4.2513164773170375,14.609787,-0.80499196,-9.652283,0.54089075,14.772257,-11.131166,1.9482008,0.34909442,-0.23232584,0.49473634,0.7611791,-14.125715,-0.2914577,-0.6677126,5.215467,-5.203794,-3.347568,0
0.26000000000000006,20.999999752184852,5.9999999897453735,-6.0,-4.2513164773170375,14.609787,-0.80499196,-9.652283,0.54089075,14.631009,-11.133121,1.941457,0.38078094,-0.21121198,0.501298,0.7477269,-14.121631,-0.09950975,-0.6808406,5.337389,-5.328382,-3.391915,0
0.2700000000000001,20.999999752184852,5.9999999897453735,-6.0,-4.2513164773170375,14.609787,-0.80499196,-9.652283,0.54089075,14.48988,-11.133162,1.9345881,0.412384,-0.18920429,0.5071593,0.7327555,-14.101884,0.0909223,-0.6927676,5.440342,-5.4334974,-3.434086,0
0.2800000000000001,21.0,5.999999850737139,-5.9999999557899715,-3.370308059875539,16.70836,1.6833795,-8.209007,0.2424222,14.349025,-11.131311,1.927606,0.44374165,-0.16641663,0.51223123,0.71625274,-14.066345,0.2784803,-0.70346975,5.527278,-5.522182,-3.4741879,0
0.2900000000000001,21.0,5.999999850737139,-5.9999999557899715,-3.370308059875539,16.70836,1.6833795,-8.209007,0.2424222,14.208606,-11.127605,1.9205229,0.474627,-0.14290029,0.5164591,0.6982683,-14.0150585,0.4617646,-0.7129397,5.600848,-5.596845,-3.4690905,0
0.3000000000000001,21.0,5.999999850737139,-5.9999999557899715,-3.370308059875539,16.70836,1.6833795,-8.209007,0.2424222,14.068777,-11.122095,1.9133514,0.50483435,-0.11870422,0.5197998,0.6788664,-13.948237,0.63935924,-0.72118855,5.6629715,-5.6598396,-3.4642434,0
0.3100000000000001,21.0,5.999999850737139,-5.9999999557899715,-3.370308059875539,16.70836,1.6833795,-8.209007,0.2424222,13.929694,-11.114842,1.9061033,0.53424996,-0.09392946,0.52220297,0.6580715,-13.86626,0.80985516,-0.72824776,5.715429,-5.7129893,-3.4596338,0
0.3200000000000001,21.0,3.8128990722886416,-5.999999542607745,0.06060701590366732,16.50232,0.90292776,-7.006866,0.3759924,13.791503,-11.1059265,1.8987902,0.5627694,-0.068672046,0.52362835,0.63591504,-13.769661,0.9718707,-0.734168,5.759723,-5.7578316,-3.4552505,0
0.3300000000000001,21.0,3.8128990722886416,-5.999999542607745,0.06060701590366732,16.50232,0.90292776,-7.006866,0.3759924,13.654347,-11.095439,1.8914237,0.58998793,-0.043304123,0.52353454,0.613148,-13.659195,1.124089,-0.7389699,5.4566855,-5.7942996,-3.2827263,0
0.34000000000000014,21.0,3.8128990722886416,-5.999999542607745,0.06060701590366732,16.50232,0.90292776,-7.006866,0.3759924,13.518362,-11.083483,1.8840156,0.6156235,-0.01813307,0.5215519,0.59047633,-13.536094,1.2653927,-0.7424237,5.200894,-5.825273,-3.1186678,0
0.35000000000000014,21.0,3.8128990722886416,-5.999999542607745,0.06060701590366732,16.50232,0.90292776,-7.006866,0.3759924,13.383665,-11.070171,1.8765808,0.6397503,0.0068486216,0.51787823,0.5678685,-13.401722,1.3948523,-0.7442757,4.984978,-5.8515744,-2.9626598,0
0.36000000000000015,21.0,2.4843760006297733,-3.921458466423063,1.5042026573018996,15.036029,0.5598694,-4.8690095,0.9899307,13.250361,-11.055629,1.8691362,0.6624283,0.03164722,0.5126783,0.5452963,-13.2574215,1.5116795,-0.7443521,4.8027177,-5.873904,-2.8143075,0
0.37000000000000016,21.0,2.4843760006297733,-3.921458466423063,1.5042026573018996,15.036029,0.5598694,-4.8690095,0.9899307,13.118573,-11.039964,1.861718,0.6833028,0.05552979,0.50621396,0.5232219,-13.099666,1.6186411,-0.73935205,4.392122,-5.618351,-2.608658,0
0.38000000000000017,21.0,2.4843760006297733,-3.921458466423063,1.5042026573018996,15.036029,0.5598694,-4.8690095,0.9899307,12.988385,-11.023307,1.8543502,0.7021505,0.07794642,0.4988151,0.50208825,-12.937409,1.7103848,-0.73414165,4.0632086,-5.385131,-2.4097667,0
0.3900000000000002,21.0,2.4843760006297733,-3.921458466423063,1.5042026573018996,15.036029,0.5598694,-4.8690095,0.9899307,12.859838,-11.005804,1.8470372,0.71914643,0.099165,0.49077633,0.48180225,-12.771535,1.7879739,-0.7283373,3.8121798,-5.1618075,-2.2182436,0
0.4000000000000002,20.9999999891374,1.2154329296995423,-1.3219890509934673,1.4346651797008079,15.534413,-0.051362537,-2.3186996,1.5679353,12.732967,-10.987591,1.8397888,0.7344568,0.11940954,0.4822876,0.46229142,-12.601783,1.852604,-0.72111315,3.6059825,-4.967647,-2.035582,0
0.4100000000000002,20.9999999891374,1.2154329296995423,-1.3219890509934673,1.4346651797008079,15.534413,-0.051362537,-2.3186996,1.5679353,12.607814,-10.968794,1.8326205,0.747854,0.1379988,0.47395238,0.4438917,-12.428742,1.9049011,-0.7123523,3.2342124,-4.3984656,-1.8653158,0
0.4200000000000002,20.9999999891374,1.2154329296995423,-1.3219890509934673,1.4346651797008079,15.534413,-0.051362537,-2.3186996,1.5679353,12.484403,-10.949532,1.825546,0.7592503,0.15442522,0.46630317,0.4269112,-12.253418,1.9458393,-0.70239633,2.9203844,-3.9179993,-1.7033846,0
0.4300000000000002,20.9999999891374,1.2154329296995423,-1.3219890509934673,1.4346651797008079,15.534413,-0.051362537,-2.3186996,1.5679353,12.362752,-10.929913,1.8185756,0.7689899,0.16907614,0.45927784,0.41125605,-12.076555,1.976515,-0.6915405,2.6553025,-3.5125906,-1.5493996,0
0.4400000000000002,20.9999999891374,1.2154329296995423,-1.3219890509934673,1.4346651797008079,15.813244,-0.72970223,-0.22640468,1.2046276,12.242875,-10.910034,1.8117174,0.7773489,0.18227454,0.45280513,0.39682755,-11.89873,1.9978869,-0.6800262,2.4314048,-3.1705081,-1.4029707,0
0.45000000000000023,20.9999999891374,1.2154329296995423,-1.3219890509934673,1.4346651797008079,15.813244,-0.72970223,-0.22640468,1.2046276,12.124779,-10.889984,1.8049767,0.7845491,0.19428891,0.4468117,0.38352787,-11.720374,2.0107877,-0.6680455,2.2423015,-2.8818555,-1.263727,0
0.46000000000000024,20.9999999891374,1.2154329296995423,-1.3219890509934673,1.4346651797008079,15.813244,-0.72970223,-0.22640468,1.2046276,12.008467,-10.869844,1.7983575,0.79077023,0.20534195,0.44122612,0.37126327,-11.541817,2.0159366,-0.65575373,2.0825908,-2.638283,-1.1313162,0
0.47000000000000025,20.9999999891374,1.2154329296995423,-1.3219890509934673,1.4346651797008079,15.813244,-0.72970223,-0.22640468,1.2046276,11.89394,-10.8496895,1.7918622,0.7961582,0.21561797,0.43598124,0.35994592,-11.363308,2.0139513,-0.6432777,1.9477102,-2.432748,-1.0054028,0
0.48000000000000026,20.999999729279015,-0.4438784202370626,0.9957382213055106,2.8042235544005463,17.279922,-1.8322258,0.9698658,0.8258186,11.7811985,-10.829588,1.7854922,0.8008324,0.22526926,0.4310156,0.34949464,-11.185042,2.0053604,-0.63072276,1.8338025,-2.2593074,-0.885668,0
0.49000000000000027,20.999999729279015,-0.4438784202370626,0.9957382213055106,2.8042235544005463,17.279922,-1.8322258,0.9698658,0.8258186,11.670238,-10.809603,1.779248,0.80459505,0.23364182,0.4267518,0.34047168,-11.007117,1.9907185,-0.6181547,1.4785925,-1.7518129,-0.7046516,0
0.5000000000000002,20.999999729279015,-0.4438784202370626,0.9957382213055106,2.8042235544005463,17.279922,-1.8322258,0.9698658,0.8258186,11.561054,-10.789789,1.7731287,0.8073223,0.24024805,0.4235427,0.3333509,-10.829639,1.9711157,-0.60572845,1.1791321,-1.3230618,-0.5324701,0
0.5100000000000002,20.999999729279015,-0.4438784202370626,0.9957382213055106,2.8042235544005463,17.279922,-1.8322258,0.9698658,0.8258186,11.453644,-10.770192,1.7671329,0.8091942,0.245419,0.42122707,0.32793564,-10.652505,1.9476701,-0.5934969,0.9262545,-0.9612581,-0.36873758,0
0.5200000000000002,20.999998591667172,-1.7530928815209947,3.1499465807398748,4.56998882078512,17.854666,-2.7510474,2.898036,0.18219772,11.348003,-10.750845,1.761258,0.81034845,0.24942684,0.41965944,0.32404846,-10.475621,1.921324,-0.581517,0.7127245,-0.65594065,-0.21303949,0
0.5300000000000002,20.999998591667172,-1.7530928815209947,3.1499465807398748,4.56998882078512,17.854666,-2.7510474,2.898036,0.18219772,11.244215,-10.731785,1.7555531,0.81078774,0.25173372,0.41889304,0.32215184,-10.28303,1.8904191,-0.5599594,0.22338656,-0.16720185,0.004143432,0
0.5400000000000003,20.999998591667172,-1.7530928815209947,3.1499465807398748,4.56998882078512,17.854666,-2.7510474,2.898036,0.18219772,11.142328,-10.713036,1.750048,0.8105017,0.25193983,0.4189533,0.32263172,-10.095234,1.8594735,-0.54153293,-0.18943712,0.24552059,0.21594748,0
0.5500000000000003,20.999998591667172,-1.7530928815209947,3.1499465807398748,4.56998882078512,17.854666,-2.7510474,2.898036,0.18219772,11.042299,-10.694591,1.7447145,0.8095439,0.25044033,0.41969734,0.32522643,-9.910979,1.8296317,-0.5253782,-0.5252387,0.6065285,0.4213702,0
0.5600000000000003,20.999998990096664,-3.787233516827137,5.460939854385242,4.831553555118233,17.219635,-3.156313,5.8206487,-0.30515608,10.944102,-10.676435,1.7395357,0.8078811,0.24760374,0.4211058,0.32968184,-9.728868,1.8017495,-0.5105969,-0.77975434,0.9401831,0.6193042,0
0.5700000000000003,20.999998990096664,-3.787233516827137,5.460939854385242,4.831553555118233,17.219635,-3.156313,5.8206487,-0.30515608,10.847734,-10.658549,1.7345097,0.8053313,0.24273534,0.42352477,0.33637422,-9.545024,1.7762878,-0.49482605,-1.3295817,1.5644404,0.8187935,0
0.5800000000000003,20.999998990096664,-3.787233516827137,5.460939854385242,4.831553555118233,17.219635,-3.156313,5.8206487,-0.30515608,10.753196,-10.640895,1.729635,0.80170125,0.23528336,0.42719957,0.34556797,-9.363091,1.7553047,-0.48032698,-1.7650088,2.120048,1.0110643,0
0.5900000000000003,20.999998990096664,-3.787233516827137,5.460939854385242,4.831553555118233,17.219635,-3.156313,5.8206487,-0.30515608,10.660466,-10.623422,1.7248988,0.7969017,0.225729,0.4320026,0.35688606,-9.183076,1.7402321,-0.46712735,-2.1034167,2.6181822,1.1965098,0
0.6000000000000003,20.999999659023743,-5.576079794163493,5.999997715621653,3.748384277872536,18.497028,-3.409973,6.631397,-1.4348601,10.56953,-10.606065,1.7202886,0.79084337,0.2144667,0.43780893,0.36999184,-9.004427,1.7321934,-0.45495605,-2.3677275,3.0600061,1.3747867,0
0.6100000000000003,20.999999659023743,-5.576079794163493,5.999997715621653,3.748384277872536,18.497028,-3.409973,6.631397,-1.4348601,10.480379,-10.58875,1.7157995,0.78359836,0.2010784,0.44433403,0.38484818,-8.825644,1.7321984,-0.442916,-2.8687434,3.5178325,1.4912599,0
0.6200000000000003,20.999999659023743,-5.576079794163493,5.999997715621653,3.748384277872536,18.497028,-3.409973,6.631397,-1.4348601,10.393017,-10.571389,1.7114303,0.77521664,0.18521233,0.45125568,0.40137714,-8.647077,1.7415483,-0.43093154,-3.291607,3.9042788,1.6020178,0
0.6300000000000003,20.999999659023743,-5.576079794163493,5.999997715621653,3.748384277872536,18.497028,-3.409973,6.631397,-1.4348601,10.307436,-10.553882,1.7071807,0.765623,0.16723704,0.4583527,0.4192443,-8.46936,1.7614306,-0.41897905,-3.6484988,4.2304835,1.7073406,0
0.6400000000000003,20.999999659023743,-5.576079794163493,5.999997715621653,3.748384277872536,20.763294,-4.5977755,5.8095517,-0.44954717,10.223624,-10.53612,1.7030504,0.7547496,0.14746962,0.4654348,0.43815055,-8.2932625,1.7927966,-0.4071041,-3.9497035,4.5058465,1.8074952,0
0.6500000000000004,20.999999659023743,-5.576079794163493,5.999997715621653,3.748384277872536,20.763294,-4.5977755,5.8095517,-0.44954717,10.1415615,-10.517984,1.6990379,0.7425401,0.12618545,0.47233933,0.45782828,-8.119672,1.836375,-0.39541218,-4.2039027,4.7383,1.9027352,0
0.6600000000000004,20.999999659023743,-5.576079794163493,5.999997715621653,3.748384277872536,20.763294,-4.5977755,5.8095517,-0.44954717,10.061218,-10.499349,1.6951408,0.7289504,0.103625774,0.47892871,0.47803777,-7.9495697,1.8926841,-0.38405862,-4.418427,4.934535,1.9933016,0
0.6700000000000004,20.999999659023743,-5.576079794163493,5.999997715621653,3.748384277872536,20.763294,-4.5977755,5.8095517,-0.44954717,9.982554,-10.480085,1.6913549,0.71394944,0.080003634,0.485087,0.49856395,-7.784008,1.9620405,-0.3732391,-4.5994635,5.1002007,2.0794241,0
0.6800000000000004,20.99999981078814,-5.624116960066708,5.855561164377532,3.7353818425434584,17.204943,-3.1855955,5.615031,-0.35326597,9.905519,-10.460062,1.6876734,0.69751877,0.05550843,0.49071738,0.5192135,-7.624089,2.044569,-0.3631802,-4.7522345,5.2400637,2.1613207,0
0.6900000000000004,20.99999981078814,-5.624116960066708,5.855561164377532,3.7353818425434584,17.204943,-3.1855955,5.615031,-0.35326597,9.8300495,-10.439149,1.6840878,0.6796824,0.030326026,0.4956897,0.53981835,-7.4709425,2.140207,-0.35412621,-4.888607,5.335613,2.2385604,0
0.7000000000000004,20.99999981078814,-5.624116960066708,5.855561164377532,3.7353818425434584,17.204943,-3.1855955,5.615031,-0.35326597,9.756074,-10.417214,1.6805866,0.6604702,0.004623527,0.49990064,0.5602294,-7.3257084,2.2486994,-0.3463103,-5.0036864,5.4162917,2.31201,0
0.7100000000000004,20.99999981078814,-5.624116960066708,5.855561164377532,3.7353818425434584,17.204943,-3.1855955,5.615031,-0.35326597,9.683506,-10.394133,1.6771564,0.6398894,-0.02146411,0.503313,0.5803075,-7.189511,2.3696246,-0.3399671,-5.100795,5.4844174,2.3818555,0
0.7200000000000004,20.999999801368894,-4.977268942080644,4.529200846781224,3.070200727357547,17.705915,-3.0746698,4.5174427,-0.28280503,9.61225,-10.3697815,1.6737813,0.6179567,-0.047814686,0.5058976,0.59992576,-7.063438,2.502412,-0.3353364,-5.1827354,5.541946,2.4482737,0
0.7300000000000004,20.999999801368894,-4.977268942080644,4.529200846781224,3.070200727357547,17.705915,-3.0746698,4.5174427,-0.28280503,9.5422,-10.344046,1.6704429,0.5950389,-0.07387957,0.50746864,0.6188264,-6.948494,2.6463132,-0.33263552,-5.1505494,5.383958,2.4787917,0
0.7400000000000004,20.999999801368894,-4.977268942080644,4.529200846781224,3.070200727357547,17.705915,-3.0746698,4.5174427,-0.28280503,9.47324,-10.31682,1.6671216,0.57149076,-0.09921786,0.50792676,0.6368395,-6.8454185,2.8002543,-0.3319496,-5.123411,5.250606,2.5078125,0
0.7500000000000004,20.999999801368894,-4.977268942080644,4.529200846781224,3.070200727357547,17.705915,-3.0746698,4.5174427,-0.28280503,9.405249,-10.288011,1.663797,0.54731715,-0.1238737,0.50736386,0.6539734,-6.7547927,2.9630756,-0.3333137,-5.100529,5.138049,2.535409,0
0.7600000000000005,20.999999404986006,-3.972303974859096,2.5368255483106275,2.312924011634072,19.218422,-3.2101526,3.8424742,-0.28160945,9.3381,-10.257532,1.6604484,0.52252567,-0.14788322,0.50585616,0.67022914,-6.6771126,3.133629,-0.3367591,-5.081237,5.0430446,2.5616512,0
0.7700000000000005,20.999999404986006,-3.972303974859096,2.5368255483106275,2.312924011634072,19.218422,-3.2101526,3.8424742,-0.28160945,9.271662,-10.225315,1.6570548,0.497666,-0.17058054,0.5033258,0.6854883,-6.61273,3.3107355,-0.3422775,-4.907611,4.6525292,2.549446,0
0.7800000000000005,20.999999404986006,-3.972303974859096,2.5368255483106275,2.312924011634072,19.218422,-3.2101526,3.8424742,-0.28160945,9.205801,-10.191299,1.6535964,0.47323516,-0.19145685,0.49977836,0.6997246,-6.5615425,3.4930358,-0.34965128,-4.7611704,4.3228655,2.53784,0
0.7900000000000005,20.999999404986006,-3.972303974859096,2.5368255483106275,2.312924011634072,19.218422,-3.2101526,3.8424742,-0.28160945,9.140388,-10.15544,1.6500561,0.44916353,-0.21075323,0.49537414,0.71304965,-6.5232716,3.679247,-0.35860518,-4.637658,4.044571,2.5268033,0
0.8000000000000005,19.381866063963272,-2.6473985821231123,0.4376558041987309,1.5338235360387955,16.207855,-2.9009957,4.6736083,-0.9401419,9.075293,-10.117704,1.6464195,0.42538595,-0.2286754,0.49023867,0.7255485,-6.4976225,3.8682375,-0.36888725,-4.533484,3.8096411,2.5163083,0
0.8100000000000005,19.381866063963272,-2.6473985821231123,0.4376558041987309,1.5338235360387955,16.207855,-2.9009957,4.6736083,-0.9401419,9.010386,-10.078143,1.6426411,0.40245596,-0.2446157,0.4844944,0.73719597,-6.4852405,4.044283,-0.3869203,-4.2383857,3.2843983,2.4680974,0
0.8200000000000005,19.381866063963272,-2.6473985821231123,0.4376558041987309,1.5338235360387955,16.207855,-2.9009957,4.6736083,-0.9401419,8.945551,-10.036817,1.6386789,0.38084877,-0.2581291,0.47829452,0.74803627,-6.483347,4.221023,-0.40554038,-3.9894738,2.8409693,2.4222522,0
0.8300000000000005,19.381866063963272,-2.6473985821231123,0.4376558041987309,1.5338235360387955,16.207855,-2.9009957,4.6736083,-0.9401419,8.880686,-9.993723,1.6345295,0.36039394,-0.26959452,0.47175625,0.7582093,-6.4910555,4.3976865,-0.4243328,-3.7795167,2.4666123,2.3786569,0
0.8400000000000005,19.381866063963272,-2.6473985821231123,0.4376558041987309,1.5338235360387955,14.611589,-2.3563437,4.70069,-1.0526079,8.815699,-9.948865,1.6301928,0.34093732,-0.27933085,0.46496275,0.7678189,-6.507575,4.5736613,-0.44293433,-3.6024153,2.150569,2.3372006,0
0.8500000000000005,19.381866063963272,-2.6473985821231123,0.4376558041987309,1.5338235360387955,14.611589,-2.3563437,4.70069,-1.0526079,8.750506,-9.902253,1.6256723,0.322342,-0.28760585,0.45797253,0.7769426,-6.5322013,4.748457,-0.46102974,-3.453026,1.883757,2.2977786,0
0.8600000000000005,19.381866063963272,-2.6473985821231123,0.4376558041987309,1.5338235360387955,14.611589,-2.3563437,4.70069,-1.0526079,8.68503,-9.853901,1.6209747,0.30448797,-0.29464442,0.45082608,0.78563845,-6.5643106,4.9216757,-0.47834736,-3.3270109,1.6585082,2.260291,0
0.8700000000000006,19.381866063963272,-2.6473985821231123,0.4376558041987309,1.5338235360387955,14.611589,-2.3563437,4.70069,-1.0526079,8.619197,-9.803826,1.6161089,0.287271,-0.30063525,0.44355112,0.79394984,-6.6033483,5.092988,-0.49465436,-3.2207115,1.4683483,2.224643,0
0.8800000000000006,16.402828283531584,-1.3453016053156635,-1.4129893614713471,0.7526067664420852,14.453364,-2.8556468,3.4205854,-0.1284441,8.552941,-9.7520485,1.6110859,0.2706012,-0.30573675,0.43616602,0.8019098,-6.6488223,5.2621174,-0.509752,-3.1310418,1.3078116,2.1907442,0
0.8900000000000006,16.402828283531584,-1.3453016053156635,-1.4129893614713471,0.7526067664420852,14.453364,-2.8556468,3.4205854,-0.1284441,8.486239,-9.69872,1.605854,0.25496292,-0.30939275,0.4288805,0.80952555,-6.6923203,5.403216,-0.5364219,-2.8519104,0.88403386,2.1201742,0
0.9000000000000006,16.402828283531584,-1.3453016053156635,-1.4129893614713471,0.7526067664420852,14.453364,-2.8556468,3.4205854,-0.1284441,8.41908,-9.643991,1.6003624,0.24075046,-0.3111865,0.4218847,0.8168326,-6.740087,5.542188,-0.5616618,-2.6164377,0.5262542,2.053067,0
0.9100000000000006,16.402828283531584,-1.3453016053156635,-1.4129893614713471,0.7526067664420852,14.453364,-2.8556468,3.4205854,-0.1284441,8.351425,-9.587883,1.5946267,0.22776814,-0.31142446,0.41515413,0.82388324,-6.791361,5.67901,-0.58523136,-2.417791,0.22419643,1.9892529,0
0.9200000000000006,14.879359545723295,-0.3971300648697542,-2.8919960155810442,0.020376814884563773,11.667466,-2.2268858,2.5893042,-0.5582514,8.283242,-9.530418,1.5886644,0.21584736,-0.3103617,0.40865937,0.8307125,-6.8454895,5.813686,-0.60693383,-2.2502067,-0.0308154,1.9285703,0
0.9300000000000006,14.879359545723295,-0.3971300648697542,-2.8919960155810442,0.020376814884563773,11.667466,-2.2268858,2.5893042,-0.5582514,8.214526,-9.4716625,1.5824689,0.20518894,-0.307788,0.40246642,0.8373679,-6.8978853,5.936876,-0.6321475,-1.9980965,-0.43921468,1.8383065,0
0.9400000000000006,14.879359545723295,-0.3971300648697542,-2.8919960155810442,0.020376814884563773,11.667466,-2.2268858,2.5893042,-0.5582514,8.145284,-9.411696,1.5760229,0.19604583,-0.30342844,0.39670262,0.84387463,-6.9505696,6.0556507,-0.6568307,-1.7524731,-0.81687546,1.7495137,0
0.9500000000000006,14.879359545723295,-0.3971300648697542,-2.8919960155810442,0.020376814884563773,11.667466,-2.2268858,2.5893042,-0.5582514,8.075511,-9.350555,1.5693395,0.1882818,-0.29748183,0.3913635,0.850229,-7.003778,6.172353,-0.67950964,-1.5408019,-1.1401625,1.6646644,0
0.9600000000000006,14.596552843869334,-0.09835886127671176,-3.879695724350664,-0.5446367254243513,13.254866,-2.355108,0.800393,-1.0175182,8.005208,-9.288256,1.5624409,0.18171102,-0.29020134,0.38638502,0.8564293,-7.0570555,6.2874637,-0.69982874,-1.3622247,-1.4130944,1.5839787,0
0.9700000000000006,14.596552843869334,-0.09835886127671176,-3.879695724350664,-0.5446367254243513,13.254866,-2.355108,0.800393,-1.0175182,7.93437,-9.224806,1.5553551,0.17633359,-0.28158143,0.3816429,0.86253536,-7.1101866,6.4017854,-0.71719444,-1.2033823,-1.7590159,1.4829961,0
0.9800000000000006,14.596552843869334,-0.09835886127671176,-3.879695724350664,-0.5446367254243513,13.254866,-2.355108,0.800393,-1.0175182,7.863012,-9.160232,1.5480999,0.17222644,-0.27151582,0.37710285,0.8685683,-7.1612206,6.5124106,-0.733627,-1.0379119,-2.0824704,1.3841492,0
0.9900000000000007,14.596552843869334,-0.09835886127671176,-3.879695724350664,-0.5446367254243513,13.254866,-2.355108,0.800393,-1.0175182,7.791152,-9.094562,1.5406907,0.16929507,-0.26013008,0.37278634,0.87447244,-7.2104325,6.621208,-0.7477849,-0.8912815,-2.362559,1.2895031,0
1.0000000000000007,15.254906164076544,-0.4123902964988458,-3.881744409286982,-0.9490406215476813,14.834965,-2.0796673,-0.24698712,-1.0430397,7.7188106,-9.027811,1.5331535,0.16738929,-0.24762346,0.36864606,0.8802067,-7.2575617,6.72878,-0.7592134,-0.7675788,-2.5990064,1.1995014,0
1.0100000000000007,15.254906164076544,-0.4123902964988458,-3.881744409286982,-0.9490406215476813,14.834965,-2.0796673,-0.24698712,-1.0430397,7.6459994,-8.959966,1.525536,0.16638894,-0.23421039,0.3645113,0.885772,-7.304181,6.839961,-0.76385075,-0.71222264,-2.7989564,1.0940717,0
1.0200000000000007,15.254906164076544,-0.4123902964988458,-3.881744409286982,-0.9490406215476813,14.834965,-2.0796673,-0.24698712,-1.0430397,7.5727367,-8.891015,1.5178864,0.16619936,-0.22007205,0.36024162,0.89116347,-7.3477883,6.949878,-0.76558584,-0.6655372,-2.9677396,0.99381566,0
1.0300000000000007,15.254906164076544,-0.4123902964988458,-3.881744409286982,-0.9490406215476813,14.834965,-2.0796673,-0.24698712,-1.0430397,7.4990544,-8.820972,1.5102341,0.16673,-0.20532614,0.35583434,0.89633954,-7.3880596,7.0584826,-0.76442486,-0.6261596,-3.1102133,0.8984792,0
1.0400000000000007,15.254906164076544,-0.4123902964988458,-3.881744409286982,-0.9490406215476813,15.354432,-2.489431,-0.32247308,-0.9013613,7.4249873,-8.74985,1.5026078,0.16790254,-0.1900724,0.35128787,0.90126497,-7.424711,7.1657104,-0.76040614,-0.59294266,-3.2304788,0.8078209,0
1.0500000000000007,15.254906164076544,-0.4123902964988458,-3.881744409286982,-0.9490406215476813,15.354432,-2.489431,-0.32247308,-0.9013613,7.350573,-8.677664,1.4950355,0.16964896,-0.17439553,0.3466017,0.90591013,-7.457494,7.271484,-0.7535947,-0.56491923,-3.3319967,0.72161126,0
1.0600000000000007,15.254906164076544,-0.4123902964988458,-3.881744409286982,-0.9490406215476813,15.354432,-2.489431,-0.32247308,-0.9013613,7.2758512,-8.604426,1.4875451,0.17190999,-0.15836754,0.34177628,0.91025054,-7.4861927,7.3757153,-0.7440783,-0.5412746,-3.4176893,0.63963187,0
1.0700000000000007,15.254906164076544,-0.4123902964988458,-3.881744409286982,-0.9490406215476813,15.354432,-2.489431,-0.32247308,-0.9013613,7.200864,-8.530154,1.480163,0.1746337,-0.1420498,0.336813,0.914266,-7.5106187,7.4783077,-0.73196405,-0.52132225,-3.4900236,0.56167525,0
1.0800000000000007,15.318694648575997,-1.1517535353935422,-3.103521722895445,-1.0810595170402888,15.0388775,-3.272546,0.14357542,-0.54930496,7.1256547,-8.454865,1.4729143,0.17777438,-0.12549464,0.33171403,0.91793984,-7.5306106,7.579156,-0.717375,-0.5044835,-3.5510817,0.487544,0
1.0900000000000007,15.318694648575997,-1.1517535353935422,-3.103521722895445,-1.0810595170402888,15.0388775,-3.272546,0.14357542,-0.54930496,7.0502677,-8.378574,1.4658259,0.1811689,-0.10909163,0.32626495,0.9213188,-7.5461235,7.678555,-0.6999623,-0.605622,-3.481287,0.41057217,0
1.1000000000000008,15.318694648575997,-1.1517535353935422,-3.103521722895445,-1.0810595170402888,15.0388775,-3.272546,0.14357542,-0.54930496,6.9747477,-8.301301,1.4589227,0.18469608,-0.093156524,0.32030118,0.92445487,-7.55714,7.7759085,-0.6803128,-0.6909702,-3.4223647,0.33737737,0
1.1100000000000008,15.318694648575997,-1.1517535353935422,-3.103521722895445,-1.0810595170402888,15.0388775,-3.272546,0.14357542,-0.54930496,6.8991394,-8.223063,1.4522268,0.18837276,-0.07763006,0.3138927,0.9273408,-7.5637727,7.871038,-0.658536,-0.7629932,-3.372623,0.26777428,0
1.1200000000000008,15.245571879984386,-2.130616542083074,-1.9103175417250091,-0.9365903107223491,15.686228,-4.1011224,0.9553379,-0.14871588,6.8234863,-8.143888,1.4457588,0.19220978,-0.062461298,0.30709934,0.92997,-7.5661206,7.963779,-0.63474417,-0.8237713,-3.330632,0.20158662,0
1.1300000000000008,15.245571879984386,-2.130616542083074,-1.9103175417250091,-0.9365903107223491,15.686228,-4.1011224,0.9553379,-0.14871588,6.747831,-8.0638,1.4395354,0.19602925,-0.048121475,0.29970217,0.9324354,-7.5643206,8.053541,-0.6096359,-1.0277158,-3.1091244,0.14573595,0
1.1400000000000008,15.245571879984386,-2.130616542083074,-1.9103175417250091,-0.9365903107223491,15.686228,-4.1011224,0.9553379,-0.14871588,6.6722126,-7.982827,1.4335724,0.19969876,-0.034984022,0.29153615,0.93482804,-7.558729,8.14057,-0.5826933,-1.1998318,-2.9221463,0.09262588,0
1.1500000000000008,15.245571879984386,-2.130616542083074,-1.9103175417250091,-0.9365903107223491,15.686228,-4.1011224,0.9553379,-0.14871588,6.596668,-7.9009986,1.4278879,0.20328148,-0.022875246,0.2827198,0.93713564,-7.549722,8.224676,-0.55396336,-1.345088,-2.764317,0.042121924,0
1.1600000000000008,14.973316613433523,-3.1166883664370886,-0.8473132491285774,-0.6285310880052947,15.917444,-5.2112856,1.9903545,0.23463377,6.5212293,-7.8183446,1.4224993,0.20682593,-0.011646709,0.2733523,0.9393435,-7.53762,8.305698,-0.52349484,-1.4676771,-2.631094,-0.005903771,0
1.1700000000000008,14.973316613433523,-3.1166883664370886,-0.8473132491285774,-0.6285310880052947,15.917444,-5.2112856,1.9903545,0.23463377,6.4459243,-7.734903,1.4174122,0.21021529,-0.001643321,0.26323524,0.9415489,-7.5230026,8.382097,-0.4936566,-1.7248858,-2.3528793,-0.036456272,0
1.1800000000000008,14.973316613433523,-3.1166883664370886,-0.8473132491285774,-0.6285310880052947,15.917444,-5.2112856,1.9903545,0.23463377,6.370777,-7.650714,1.4126318,0.21336047,0.006867797,0.25221676,0.9438311,-7.506128,8.455133,-0.46214336,-1.9419714,-2.1180453,-0.06550955,0
1.1900000000000008,14.973316613433523,-3.1166883664370886,-0.8473132491285774,-0.6285310880052947,15.917444,-5.2112856,1.9903545,0.23463377,6.295808,-7.565812,1.408175,0.21632905,0.014109377,0.24043499,0.94614685,-7.487471,8.524631,-0.4289393,-2.1251943,-1.9198295,-0.09313719,0
1.2000000000000008,15.047146922610969,-3.731591406406755,0.2969446930892508,-0.29166186661079535,15.034406,-5.8876786,2.9305775,0.2647886,6.2210326,-7.480234,1.4040587,0.21917279,0.020270837,0.22800554,0.9484545,-7.4674397,8.590434,-0.3940459,-2.2798374,-1.7525228,-0.119409114,0
1.2100000000000009,15.047146922610969,-3.731591406406755,0.2969446930892508,-0.29166186661079535,15.034406,-5.8876786,2.9305775,0.2647886,6.1464634,-7.394016,1.400303,0.22179468,0.025033778,0.21489188,0.9507902,-7.446313,8.652714,-0.35681272,-2.5062203,-1.4328781,-0.12786162,0
1.2200000000000009,15.047146922610969,-3.731591406406755,0.2969446930892508,-0.29166186661079535,15.034406,-5.8876786,2.9305775,0.2647886,6.0721083,-7.3071938,1.3969281,0.22411872,0.02815393,0.20107026,0.9531784,-7.4247174,8.711025,-0.3178957,-2.6973,-1.1630832,-0.13589935,0
1.2300000000000009,15.047146922610969,-3.731591406406755,0.2969446930892508,-0.29166186661079535,15.034406,-5.8876786,2.9305775,0.2647886,5.997969,-7.219809,1.3939507,0.22620626,0.029880403,0.18664657,0.95556325,-7.403173,8.76526,-0.27730682,-2.8585818,-0.9353642,-0.14354266,0
1.2400000000000009,15.047146922610969,-3.731591406406755,0.2969446930892508,-0.29166186661079535,16.512194,-6.1065,3.1803203,1.1367677,5.924043,-7.1319027,1.3913876,0.22810426,0.030424561,0.17170972,0.95789284,-7.382123,8.815321,-0.23508267,-2.9947128,-0.7431596,-0.1508109,0
1.2500000000000009,15.047146922610969,-3.731591406406755,0.2969446930892508,-0.29166186661079535,16.512194,-6.1065,3.1803203,1.1367677,5.8503237,-7.043517,1.3892546,0.22984864,0.02996579,0.15633485,0.9601204,-7.361947,8.861121,-0.19128385,-3.1096158,-0.5809307,-0.15772249,0
1.260000000000001,15.047146922610969,-3.731591406406755,0.2969446930892508,-0.29166186661079535,16.512194,-6.1065,3.1803203,1.1367677,5.7768,-6.954695,1.387567,0.23146659,0.028656395,0.14058588,0.9622046,-7.3429713,8.902581,-0.14599323,-3.2066004,-0.4440028,-0.16429491,0
1.270000000000001,15.047146922610969,-3.731591406406755,0.2969446930892508,-0.29166186661079535,16.512194,-6.1065,3.1803203,1.1367677,5.7034593,-6.8654804,1.3863394,0.23297855,0.026625762,0.1245175,0.96410966,-7.325475,8.93963,-0.099313855,-3.2884614,-0.32843032,-0.17054485,0
1.280000000000001,15.53049552472712,-3.6581202451487265,1.2989374501511208,-0.0017046160898693207,17.552683,-5.2698555,3.1077719,2.1909015,5.6302843,-6.7759175,1.3855852,0.23439977,0.023983859,0.1081767,0.965805,-7.309699,8.972203,-0.051366705,-3.3575578,-0.23088284,-0.17648809,0
1.290000000000001,15.53049552472712,-3.6581202451487265,1.2989374501511208,-0.0017046160898693207,17.552683,-5.2698555,3.1077719,2.1909015,5.55726,-6.686047,1.3853397,0.2356649,0.020447431,0.09172597,0.9672798,-7.295428,9.001161,0.0024386495,-3.404403,0.007677965,-0.16791141,0
1.300000000000001,15.53049552472712,-3.6581202451487265,1.2989374501511208,-0.0017046160898693207,17.552683,-5.2698555,3.1077719,2.1909015,5.484367,-6.5959105,1.3856374,0.23672435,0.0157968,0.07529786,0.96852577,-7.283508,9.025504,0.057252914,-3.443949,0.20903516,-0.15975559,0
1.310000000000001,15.53049552472712,-3.6581202451487265,1.2989374501511208,-0.0017046160898693207,17.552683,-5.2698555,3.1077719,2.1909015,5.41158,-6.505553,1.3864876,0.23760739,0.010204428,0.058889728,0.96952075,-7.274274,9.0453005,0.11290675,-3.4773328,0.3789905,-0.152,0
1.320000000000001,15.289412741366956,-2.986842063996372,1.8360950135070386,0.1782878163705694,17.306154,-4.773777,3.1151443,2.3761303,5.338871,-6.4150195,1.3878978,0.23833615,0.00381681,0.042500027,0.97024477,-7.2680078,9.060606,0.16922092,-3.5055149,0.52244174,-0.14462496,0
1.330000000000001,15.289412741366956,-2.986842063996372,1.8360950135070386,0.1782878163705694,17.306154,-4.773777,3.1151443,2.3761303,5.2662077,-6.3243566,1.3898617,0.23889783,-0.0033851536,0.026440324,0.9706787,-7.2649984,9.07133,0.22360139,-3.4246163,0.72726214,-0.12877953,0
1.340000000000001,15.289412741366956,-2.986842063996372,1.8360950135070386,0.1782878163705694,17.306154,-4.773777,3.1151443,2.3761303,5.1935587,-6.2336073,1.3923708,0.23928696,-0.011409611,0.010958963,0.97081995,-7.2653737,9.077906,0.27824628,-3.35634,0.9001451,-0.11371166,0
1.350000000000001,15.289412741366956,-2.986842063996372,1.8360950135070386,0.1782878163705694,17.306154,-4.773777,3.1151443,2.3761303,5.120888,-6.1428123,1.3954269,0.23952685,-0.020126661,-0.004029748,0.9706727,-7.269328,9.08055,0.33295915,-3.2987158,1.0460708,-0.09938316,0
1.360000000000001,13.815803132048085,-2.1067951051657534,1.4536001425935239,0.25725334210965217,15.786823,-4.7333794,2.5054846,2.1155727,5.0481596,-6.0520096,1.3990296,0.23963481,-0.029425997,-0.01859782,0.9702388,-7.2770214,9.079451,0.38754848,-3.2500815,1.1692426,-0.08575776,0
1.370000000000001,13.815803132048085,-2.1067951051657534,1.4536001425935239,0.25725334210965217,15.786823,-4.7333794,2.5054846,2.1155727,4.9753394,-5.961234,1.4031034,0.23962308,-0.03898133,-0.032500464,0.9695385,-7.2874503,9.075235,0.42714155,-3.0717974,1.2135442,-0.068926096,0
1.380000000000001,13.815803132048085,-2.1067951051657534,1.4536001425935239,0.25725334210965217,15.786823,-4.7333794,2.5054846,2.1155727,4.902398,-5.870516,1.407571,0.23950456,-0.048529785,-0.045547176,0.9686113,-7.301328,9.068023,0.46630567,-2.921317,1.2509434,-0.05292039,0
1.390000000000001,13.815803132048085,-2.1067951051657534,1.4536001425935239,0.25725334210965217,15.786823,-4.7333794,2.5054846,2.1155727,4.8293014,-5.779884,1.4124275,0.23929104,-0.058070403,-0.057866976,0.9674807,-7.3185906,9.058035,0.5049113,-2.7943046,1.2825154,-0.037700087,0
1.400000000000001,12.159780132643515,-1.173872978155554,0.7951324633295203,0.21106024637955975,13.259911,-2.7780082,2.2984338,0.7846548,4.7560153,-5.6893644,1.417667,0.23899122,-0.0676023,-0.06956882,0.9661642,-7.339179,9.045463,0.5428418,-2.6870992,1.309168,-0.023226652,0
1.410000000000001,12.159780132643515,-1.173872978155554,0.7951324633295203,0.21106024637955975,13.259911,-2.7780082,2.2984338,0.7846548,4.682521,-5.598974,1.4232007,0.2386251,-0.076780856,-0.08044776,0.96472317,-7.360158,9.032277,0.56378424,-2.451123,1.2289823,-0.011730119,0
1.420000000000001,12.159780132643515,-1.173872978155554,0.7951324633295203,0.21106024637955975,13.259911,-2.7780082,2.2984338,0.7846548,4.6088037,-5.5087256,1.4289402,0.23821336,-0.08533463,-0.090348125,0.96322864,-7.3838086,9.017169,0.5839955,-2.2519455,1.161306,-0.00079772435,0
1.430000000000001,12.159780132643515,-1.173872978155554,0.7951324633295203,0.21106024637955975,13.259911,-2.7780082,2.2984338,0.7846548,4.534837,-5.418637,1.434878,0.23776183,-0.0933614,-0.09942107,0.9617007,-7.4099307,9.000324,0.6034506,-2.083828,1.1041871,0.009598201,0
1.440000000000001,12.159780132643515,-1.173872978155554,0.7951324633295203,0.21106024637955975,12.476194,-1.7681512,1.2154317,0.36957625,4.4605975,-5.328725,1.4410065,0.23727433,-0.10094366,-0.1077942,0.96015173,-7.4383535,8.981901,0.6221329,-1.9419276,1.0559785,0.019484004,1
1.450000000000001,12.159780132643515,-1.173872978155554,0.7951324633295203,0.21106024637955975,12.476194,-1.7681512,1.2154317,0.36957625,4.386059,-5.2390065,1.4473331,0.23672807,-0.1083707,-0.11576129,0.9585482,-7.469742,8.96151,0.64304495,-1.9148396,1.0808243,0.03666313,1
1.460000000000001,12.159780132643515,-1.173872978155554,0.7951324633295203,0.21106024637955975,12.476194,-1.7681512,1.2154317,0.36957625,4.3111954,-5.1495,1.4538646,0.23609956,-0.115874395,-0.12355881,0.9568506,-7.5033207,8.939699,0.66310465,-1.8919759,1.1017965,0.05299927,1
1.470000000000001,12.159780132643515,-1.173872978155554,0.7951324633295203,0.21106024637955975,12.476194,-1.7681512,1.2154317,0.36957625,4.235985,-5.0602174,1.4605922,0.23539056,-0.1234415,-0.13120888,0.9550589,-7.5390835,8.916518,0.68225914,-1.8726774,1.1194996,0.06853379,1
1.480000000000001,11.849767483413283,-0.18720508192626126,0.3177152532749309,0.05434439208702816,13.633379,-1.3226962,-0.11988808,0.49898937,4.1604056,-4.971174,1.4675065,0.2346028,-0.13106073,-0.13873003,0.9531728,-7.5770216,8.892008,0.7004558,-1.8563882,1.1344429,0.08330604,0
1.490000000000001,11.849767483413283,-0.18720508192626126,0.3177152532749309,0.05434439208702816,13.633379,-1.3226962,-0.11988808,0.49898937,4.0844464,-4.8823752,1.4745688,0.23381,-0.13822713,-0.14562514,0.951325,-7.6150804,8.867521,0.71186876,-1.5960721,1.0070902,0.08188488,0
1.500000000000001,11.849767483413283,-0.18720508192626126,0.3177152532749309,0.05434439208702816,13.633379,-1.3226962,-0.11988808,0.49898937,4.0080976,-4.793827,1.4817408,0.23308282,-0.1445428,-0.15150593,0.9496449,-7.6549573,8.841982,0.7223919,-1.3763535,0.8995955,0.08053347,0
1.5100000000000011,11.849767483413283,-0.18720508192626126,0.3177152532749309,0.05434439208702816,13.633379,-1.3226962,-0.11988808,0.49898937,3.931342,-4.705539,1.489014,0.23241703,-0.15014245,-0.15653281,0.9481228,-7.696419,8.81556,0.7321079,-1.1909009,0.8088624,0.07924836,0
1.5200000000000011,12.094172397681595,0.9189817155081532,-0.2341102689694335,-0.19778102679458073,14.713125,-0.5798483,-1.6658691,0.50748223,3.8541646,-4.6175194,1.4963807,0.2318077,-0.15513927,-0.16084062,0.9467455,-7.7392726,8.7884,0.7410935,-1.0343705,0.7322772,0.07802631,0
1.5300000000000011,12.094172397681595,0.9189817155081532,-0.2341102689694335,-0.19778102679458073,14.713125,-0.5798483,-1.6658691,0.50748223,3.7765477,-4.5297766,1.5038447,0.23131303,-0.15931211,-0.16418017,0.9455996,-7.7842464,8.760058,0.7516255,-0.72973347,0.5815916,0.06449237,0
1.5400000000000011,12.094172397681595,0.9189817155081532,-0.2341102689694335,-0.19778102679458073,14.713125,-0.5798483,-1.6658691,0.50748223,3.698476,-4.4423194,1.5114113,0.23098488,-0.16249095,-0.1663618,0.9447572,-7.830191,8.731293,0.7616383,-0.47260806,0.45439816,0.05162252,0
1.5500000000000012,12.094172397681595,0.9189817155081532,-0.2341102689694335,-0.19778102679458073,14.713125,-0.5798483,-1.6658691,0.50748223,3.6199415,-4.3551517,1.5190761,0.23080817,-0.16483152,-0.16756947,0.9441813,-7.8768497,8.702294,0.7712828,-0.2555839,0.34703514,0.039384216,0
1.5600000000000012,12.059950127209076,1.8584303894652225,-0.9877908200841969,-0.5080867632155803,15.112949,0.48535255,-2.7724137,0.48413685,3.5409377,-4.268274,1.5268362,0.23076838,-0.16646455,-0.16795757,0.9438355,-7.924005,8.673223,0.7806911,-0.072406664,0.2564112,0.027746454,0
1.5700000000000012,12.059950127209076,1.8584303894652225,-0.9877908200841969,-0.5080867632155803,15.112949,0.48535255,-2.7724137,0.48413685,3.4614613,-4.181686,1.534688,0.2309002,-0.16712198,-0.1673769,0.9437902,-7.971321,8.644303,0.78968495,0.22871095,0.06238039,0.0014529647,0
1.5800000000000012,12.059950127209076,1.8584303894652225,-0.9877908200841969,-0.5080867632155803,15.112949,0.48535255,-2.7724137,0.48413685,3.3815112,-4.095387,1.54263,0.23123461,-0.16659544,-0.16571619,0.9440944,-8.018639,8.615628,0.79874355,0.48286325,-0.1014007,-0.023550302,0
1.5900000000000012,12.059950127209076,1.8584303894652225,-0.9877908200841969,-0.5080867632155803,15.112949,0.48535255,-2.7724137,0.48413685,3.3010895,-4.009372,1.5506636,0.23175251,-0.16506605,-0.16314523,0.94468373,-8.065668,8.587359,0.8080368,0.69737643,-0.23964672,-0.04732665,0
1.6000000000000012,11.937937786558788,2.56486094229405,-0.994622471426381,-0.6810041235634323,15.875091,0.20038673,-3.561608,0.80096024,3.2201998,-3.9236379,1.558792,0.23243587,-0.1626861,-0.15980642,0.94549906,-8.112163,8.559638,0.8177041,0.87843347,-0.35633776,-0.069936275,0
1.6100000000000012,11.937937786558788,2.56486094229405,-0.994622471426381,-0.6810041235634323,15.875091,0.20038673,-3.561608,0.80096024,3.1388512,-3.838176,1.567014,0.23333319,-0.15951182,-0.15555583,0.94652724,-8.157444,8.532867,0.8267681,1.1414176,-0.45591187,-0.09992155,0
1.6200000000000012,11.937937786558788,2.56486094229405,-0.994622471426381,-0.6810041235634323,15.875091,0.20038673,-3.561608,0.80096024,3.0570543,-3.7529776,1.5753294,0.23448177,-0.15559295,-0.15028457,0.9477466,-8.201765,8.50695,0.83644223,1.3633875,-0.5399632,-0.12843542,0
1.6300000000000012,11.937937786558788,2.56486094229405,-0.994622471426381,-0.6810041235634323,15.875091,0.20038673,-3.561608,0.80096024,2.97482,-3.6680334,1.5837451,0.23585021,-0.15103896,-0.14414982,0.94909567,-8.244921,8.482069,0.8468302,1.55074,-0.61091006,-0.15555012,0
1.6400000000000012,11.937937786558788,2.56486094229405,-0.994622471426381,-0.6810041235634323,15.391487,0.6711259,-3.7414718,0.51278347,2.8921604,-3.5833323,1.5922687,0.2374108,-0.1459424,-0.13728406,0.9505209,-8.286736,8.458378,0.85800654,1.7088743,-0.67079437,-0.1813343,0
1.6500000000000012,11.937937786558788,2.56486094229405,-0.994622471426381,-0.6810041235634323,15.391487,0.6711259,-3.7414718,0.51278347,2.8090904,-3.4988613,1.600908,0.23913908,-0.14038174,-0.12979902,0.9519756,-8.327054,8.436009,0.87002033,1.8423476,-0.7213402,-0.20585324,0
1.6600000000000013,11.937937786558788,2.56486094229405,-0.994622471426381,-0.6810041235634323,15.391487,0.6711259,-3.7414718,0.51278347,2.725625,-3.414607,1.609672,0.24101363,-0.13442357,-0.12178913,0.95342016,-8.365741,8.415077,0.8828985,1.9550059,-0.76400316,-0.22916903,0
1.6700000000000013,11.937937786558788,2.56486094229405,-0.994622471426381,-0.6810041235634323,15.391487,0.6711259,-3.7414718,0.51278347,2.6417818,-3.3305545,1.618569,0.24301553,-0.12812465,-0.113334216,0.95482075,-8.402674,8.395677,0.89664906,2.0500956,-0.8000119,-0.25134072,0
1.6800000000000013,11.227128696039573,2.7546408659527515,-0.9691927218449183,-0.8019575682866469,13.093943,0.74394894,-3.3105848,0.14025572,2.5575783,-3.246688,1.627608,0.24512817,-0.12153337,-0.104501925,0.95614904,-8.437745,8.377891,0.91126364,2.1303566,-0.8304037,-0.27242443,0
1.6900000000000013,11.227128696039573,2.7546408659527515,-0.9691927218449183,-0.8019575682866469,13.093943,0.74394894,-3.3105848,0.14025572,2.4730437,-3.162986,1.6367635,0.2473612,-0.11468058,-0.095276184,0.95738345,-8.468885,8.36275,0.9199598,2.227695,-0.8521026,-0.29840878,0
1.7000000000000013,11.227128696039573,2.7546408659527515,-0.9691927218449183,-0.8019575682866469,13.093943,0.74394894,-3.3105848,0.14025572,2.3882072,-3.0794272,1.6460098,0.24972174,-0.10759289,-0.085647285,0.9585026,-8.498092,8.349275,0.929422,2.3098543,-0.87041575,-0.32311806,0
1.7100000000000013,11.227128696039573,2.7546408659527515,-0.9691927218449183,-0.8019575682866469,13.093943,0.74394894,-3.3105848,0.14025572,2.3030887,-2.9959946,1.6553544,0.2521926,-0.10030315,-0.07567693,0.9594848,-8.525282,8.337535,0.9396137,2.3792017,-0.8858708,-0.34661484,0
1.7200000000000013,10.166561011373217,2.553802274484985,-1.0662980398337514,-0.9101214240918892,11.996688,0.8228293,-3.3306046,-0.25176984,2.2177088,-2.9126706,1.6648043,0.2547587,-0.092839666,-0.06541755,0.96031207,-8.550382,8.327593,0.9504877,2.4377353,-0.8989134,-0.36895865,0
1.7300000000000013,10.166561011373217,2.553802274484985,-1.0662980398337514,-0.9101214240918892,11.996688,0.8228293,-3.3306046,-0.25176984,2.1320996,-2.8294327,1.6743146,0.25740993,-0.08520935,-0.05500217,0.9609652,-8.5711565,8.320257,0.95163447,2.4558136,-0.9250638,-0.39551365,0
1.7400000000000013,10.166561011373217,2.553802274484985,-1.0662980398337514,-0.9101214240918892,11.996688,0.8228293,-3.3306046,-0.25176984,2.0462928,-2.74626,1.6838388,0.26014075,-0.07741991,-0.044539206,0.9614307,-8.589925,8.314599,0.95328957,2.4710739,-0.94713384,-0.4207656,0
1.7500000000000013,10.166561011373217,2.553802274484985,-1.0662980398337514,-0.9101214240918892,11.996688,0.8228293,-3.3306046,-0.25176984,1.9603082,-2.663135,1.6933819,0.2629442,-0.06949524,-0.034036703,0.96170276,-8.606639,8.310615,0.95539,2.4839551,-0.9657598,-0.44477847,0
1.7600000000000013,9.609341028607574,1.9710808142480623,-1.5781440139106289,-1.0166410718868597,10.317881,0.6003295,-2.7563443,-0.24360666,1.874167,-2.580042,1.702948,0.26581344,-0.06145593,-0.023501676,0.96177655,-8.621255,8.3083,0.95786977,2.4948287,-0.9814789,-0.46761298,0
1.7700000000000014,9.609341028607574,1.9710808142480623,-1.5781440139106289,-1.0166410718868597,10.317881,0.6003295,-2.7563443,-0.24360666,1.7878939,-2.4969633,1.7125127,0.26873708,-0.053184874,-0.013220025,0.96165335,-8.633052,8.307671,0.9551316,2.4131033,-1.0745461,-0.49455395,0
1.7800000000000014,9.609341028607574,1.9710808142480623,-1.5781440139106289,-1.0166410718868597,10.317881,0.6003295,-2.7563443,-0.24360666,1.7015129,-2.4138834,1.7220513,0.27171263,-0.044591773,-0.0034194703,0.9613388,-8.642783,8.308506,0.95262486,2.3441257,-1.153099,-0.52017295,0
1.7900000000000014,9.609341028607574,1.9710808142480623,-1.5781440139106289,-1.0166410718868597,10.317881,0.6003295,-2.7563443,-0.24360666,1.6150454,-2.3307886,1.7315657,0.27474448,-0.035729147,0.005972967,0.9608348,-8.650404,8.310695,0.95028806,2.2859077,-1.219401,-0.54453474,0
1.8000000000000014,10.02100762569373,1.5202789905926346,-1.0398219350913045,-1.0163480882622093,12.216638,-0.7304425,-3.4174144,0.7312029,1.5285122,-2.2476654,1.7410574,0.27783445,-0.026641475,0.01501905,0.9601422,-8.655876,8.314143,0.94806105,2.2367713,-1.2753632,-0.5677011,0
1.8100000000000014,10.02100762569373,1.5202789905926346,-1.0398219350913045,-1.0163480882622093,12.216638,-0.7304425,-3.4174144,0.7312029,1.4419346,-2.1645007,1.7505476,0.28097475,-0.017623655,0.023658052,0.9592618,-8.659322,8.318961,0.9499934,2.1250305,-1.23862,-0.5897164,0
1.8200000000000014,10.02100762569373,1.5202789905926346,-1.0398219350913045,-1.0163480882622093,12.216638,-0.7304425,-3.4174144,0.7312029,1.3553334,-2.0812821,1.7600572,0.2841599,-0.008912017,0.0318458,0.95820653,-8.660563,8.324913,0.95191646,2.0307152,-1.207609,-0.6106513,0
1.8300000000000014,10.02100762569373,1.5202789905926346,-1.0398219350913045,-1.0163480882622093,12.216638,-0.7304425,-3.4174144,0.7312029,1.2687306,-1.9979987,1.7695857,0.28739205,-0.00046219304,0.03965271,0.9569919,-8.659672,8.33192,0.9537751,1.9511081,-1.1814365,-0.63055897,0
1.8400000000000014,10.02100762569373,1.5202789905926346,-1.0398219350913045,-1.0163480882622093,14.839249,-1.8506916,-4.3185625,2.129892,1.1821471,-1.9146402,1.7791322,0.2906718,0.0077634547,0.04713817,0.95562965,-8.65671,8.3399105,0.9555201,1.8839152,-1.1593475,-0.6494898,0
1.8500000000000014,10.02100762569373,1.5202789905926346,-1.0398219350913045,-1.0163480882622093,14.839249,-1.8506916,-4.3185625,2.129892,1.0956033,-1.8311973,1.7886956,0.29399866,0.01579683,0.054352235,0.9541286,-8.651727,8.348824,0.9571067,1.8272009,-1.1407051,-0.6674917,0
1.8600000000000014,10.02100762569373,1.5202789905926346,-1.0398219350913045,-1.0163480882622093,14.839249,-1.8506916,-4.3185625,2.129892,1.0091193,-1.7476608,1.7982738,0.29737127,0.02366495,0.061337058,0.95249593,-8.64477,8.358604,0.9584936,1.7793308,-1.1249715,-0.6846101,0
1.8700000000000014,10.02100762569373,1.5202789905926346,-1.0398219350913045,-1.0163480882622093,14.839249,-1.8506916,-4.3185625,2.129892,0.92271453,-1.6640223,1.8078647,0.3007877,0.031390667,0.06812811,0.95073676,-8.635875,8.369204,0.9596422,1.7389259,-1.1116929,-0.70088863,0
1.8800000000000014,10.706389900328652,0.9044867540258528,-0.4198485840102502,-0.8822365266024071,15.467065,-2.4195545,-4.0093403,2.6820555,0.8364083,-1.580274,1.8174657,0.30424547,0.038993306,0.074755214,0.9488553,-8.625076,8.380576,0.96051574,1.7048222,-1.1004863,-0.7163684,0
1.8900000000000015,10.706389900328652,0.9044867540258528,-0.4198485840102502,-0.8822365266024071,15.467065,-2.4195545,-4.0093403,2.6820555,0.7502237,-1.4964042,1.8271077,0.30771798,0.046179943,0.08108517,0.94689107,-8.611552,8.39351,0.96783,1.5800545,-0.9942914,-0.7245076,0
1.9000000000000015,10.706389900328652,0.9044867540258528,-0.4198485840102502,-0.8822365266024071,15.467065,-2.4195545,-4.0093403,2.6820555,0.6641836,-1.4124013,1.836821,0.311184,0.052719653,0.0870156,0.9448883,-8.596176,8.407172,0.974798,1.4747379,-0.9046652,-0.73224735,0
1.9100000000000015,10.706389900328652,0.9044867540258528,-0.4198485840102502,-0.8822365266024071,15.467065,-2.4195545,-4.0093403,2.6820555,0.578306,-1.3282584,1.8466024,0.3146478,0.058711175,0.09261079,0.9428539,-8.579092,8.421512,0.9814115,1.3858396,-0.82902265,-0.7396074,0
1.9200000000000015,11.025713963965934,0.17924138729944872,-0.022499701503769464,-0.6650982456284532,15.802887,-2.7132165,-3.3833683,2.878879,0.49260724,-1.2439688,1.856448,0.3181123,0.06423805,0.09792464,0.9407919,-8.560422,8.436484,0.9876651,1.3108003,-0.76518214,-0.74660623,0
1.9300000000000015,11.025713963965934,0.17924138729944872,-0.022499701503769464,-0.6650982456284532,15.802887,-2.7132165,-3.3833683,2.878879,0.4071056,-1.1595243,1.86637,0.32155815,0.069131464,0.102778725,0.93875366,-8.539683,8.452511,0.9966607,1.1343924,-0.64927256,-0.74260664,0
1.9400000000000015,11.025713963965934,0.17924138729944872,-0.022499701503769464,-0.6650982456284532,15.802887,-2.7132165,-3.3833683,2.878879,0.3218181,-1.0749168,1.8763801,0.32496864,0.07326161,0.10703519,0.9367884,-8.517619,8.469072,1.0053096,0.9854858,-0.55145323,-0.7388032,0
1.9500000000000015,11.025713963965934,0.17924138729944872,-0.022499701503769464,-0.6650982456284532,15.802887,-2.7132165,-3.3833683,2.878879,0.23675711,-0.99014133,1.8864751,0.32834888,0.07674637,0.110789865,0.93489224,-8.494413,8.486095,1.0136435,0.8597932,-0.4689007,-0.73518646,0
1.9600000000000015,10.596702372828583,-0.6495793663058477,-0.05482122088860992,-0.33232793687534473,15.937635,-3.0001767,-3.4553926,2.8661325,0.15193322,-0.90519357,1.8966521,0.33170253,0.0796854,0.1141231,0.9330597,-8.470222,8.503521,1.0216929,0.7536957,-0.39923218,-0.73174727,0
1.9700000000000015,10.596702372828583,-0.6495793663058477,-0.05482122088860992,-0.33232793687534473,15.937635,-3.0001767,-3.4553926,2.8661325,0.06735072,-0.8200732,1.9068875,0.3350224,0.0820693,0.116785474,0.9313359,-8.446161,8.520595,1.0253695,0.53488594,-0.3454102,-0.7121477,0
1.9800000000000015,10.596702372828583,-0.6495793663058477,-0.05482122088860992,-0.33232793687534473,15.937635,-3.0001767,-3.4553926,2.8661325,-0.016987799,-0.7347809,1.9171588,0.33829916,0.08389483,0.118582785,0.92976034,-8.421454,8.537876,1.0288565,0.350194,-0.30000302,-0.6935099,0
1.9900000000000015,10.596702372828583,-0.6495793663058477,-0.05482122088860992,-0.33232793687534473,15.937635,-3.0001767,-3.4553926,2.8661325,-0.1010767,-0.64931536,1.9274642,0.34153193,0.08524817,0.119651094,0.9283173,-8.396261,8.555243,1.0322095,0.19430012,-0.26169425,-0.67578655,0
2.0000000000000013,,,,,15.085928,-3.052864,-2.4034588,2.4806297,-0.1849118,-0.5636761,1.9378028,0.34471968,0.086202234,0.12010477,0.9269914,-8.370716,8.572592,1.0354773,0.06271425,-0.22937389,-0.658933,0
2.010000000000001,,,,,15.085928,-3.052864,-2.4034588,2.4806297,-0.26849422,-0.47786656,1.948158,0.3478356,0.08672757,0.11986959,0.92580813,-8.345738,8.5893,1.0355675,-0.12318171,-0.18959473,-0.62644595,0
2.020000000000001,,,,,15.085928,-3.052864,-2.4034588,2.4806297,-0.3518263,-0.39189085,1.9585142,0.35085317,0.0868042,0.118891254,0.9247879,-8.320675,8.605803,1.0356711,-0.2800917,-0.15603776,-0.59555304,0
2.0300000000000007,,,,,15.085928,-3.052864,-2.4034588,2.4806297,-0.43490788,-0.30575156,1.9688718,0.35377166,0.08650186,0.1172851,0.92390907,-8.295657,8.622002,1.0358368,-0.41253504,-0.12772895,-0.5661761,0
2.0400000000000005,,,,,15.085928,-3.052864,-2.4034588,2.4806297,-0.51774,-0.21945216,1.9792315,0.35659072,0.08587945,0.11514824,0.92315185,-8.270799,8.637815,1.036105,-0.52432656,-0.103846684,-0.5382407,0
2.0500000000000003,,,,,15.5582905,-3.0471227,-3.5127032,3.1648884,-0.60032475,-0.13299681,1.9895946,0.3593104,0.084986776,0.11256245,0.9224986,-8.246193,8.653179,1.0365084,-0.61868656,-0.08369832,-0.511676,1
2.06,,,,,15.5582905,-3.0471227,-3.5127032,3.1648884,-0.6825658,-0.046329506,2.0003643,0.36169887,0.08446815,0.109407745,0.92199224,-8.202216,8.680048,1.1170281,-0.68189305,-0.30294454,-0.35949874,1
2.07,,,,,15.5582905,-3.0471227,-3.5127032,3.1648884,-0.7643731,0.040598392,2.0119257,0.36354092,0.08490084,0.10544935,0.92168915,-8.159402,8.705245,1.1948727,-0.76731527,-0.5201219,-0.21191826,1
2.0799999999999996,,,,,15.5582905,-3.0471227,-3.5127032,3.1648884,-0.84575725,0.12776849,2.0242524,0.36485898,0.086232245,0.100595474,0.9215873,-8.1175585,8.728436,1.270025,-0.8715485,-0.73561597,-0.068703815,1
2.0899999999999994,,,,,14.287058,-2.3799913,-4.6988773,3.2813766,-0.92672706,0.21515904,2.0373168,0.3656712,0.08841637,0.09476778,0.9216761,-8.076528,8.749284,1.3424734,-0.99165183,-0.9496844,0.07035802,1
2.099999999999999,,,,,14.287058,-2.3799913,-4.6988773,3.2813766,-1.007297,0.30274174,2.0510633,0.36598048,0.09184804,0.088203296,0.9218694,-8.037527,8.766834,1.4064256,-0.9507217,-1.2771351,0.20489842,1
2.109999999999999,,,,,14.287058,-2.3799913,-4.6988773,3.2813766,-1.0874784,0.39048597,2.0654366,0.36578438,0.09683175,0.081097074,0.92208976,-7.998769,8.781552,1.4677919,-0.94563943,-1.5830318,0.33547506,1
2.1199999999999988,,,,,14.287058,-2.3799913,-4.6988773,3.2813766,-1.167272,0.4783622,2.0804102,0.36508822,0.103207104,0.073331125,0.9223244,-7.959901,8.793191,1.5264714,-0.9707178,-1.8706402,0.46227324,1
2.1299999999999986,,,,,11.515579,-2.8495567,-5.1053843,2.7715814,-1.2466751,0.56633836,2.0959566,0.36389545,0.110836215,0.06480607,0.9225489,-7.920642,8.801504,1.5823635,-1.0211163,-2.1426754,0.5854658,1
2.1399999999999983,,,,,11.515579,-2.8495567,-5.1053843,2.7715814,-1.3257134,0.65437585,2.1119306,0.36228845,0.11962451,0.0553353,0.9227003,-7.8869386,8.805515,1.6119983,-1.1290752,-2.4278839,0.67690074,1
2.149999999999998,,,,,11.515579,-2.8495567,-5.1053843,2.7715814,-1.4044119,0.7424374,2.128187,0.36033967,0.12948503,0.04477595,0.9227051,-7.8526564,8.806278,1.6388164,-1.2475497,-2.6960044,0.76629615,1
2.159999999999998,,,,,11.515579,-2.8495567,-5.1053843,2.7715814,-1.4827641,0.8304895,2.144697,0.35803616,0.14031522,0.033113085,0.9225107,-7.8176894,8.803586,1.6627393,-1.37436,-2.9491594,0.8537036,1
2.1699999999999977,,,,,11.874731,-4.5695257,-5.3793216,3.3949568,-1.560763,0.9184966,2.1614316,0.35536492,0.15202354,0.02033864,0.9220584,-7.7819624,8.797261,1.6836697,-1.5076764,-3.18915,0.93917334,1
2.1799999999999975,,,,,11.874731,-4.5695257,-5.3793216,3.3949568,-1.6383733,1.0064147,2.1784468,0.35231557,0.16416219,0.0062728375,0.92135006,-7.7399764,8.785638,1.7188562,-1.7613714,-3.307466,1.039677,1
2.1899999999999973,,,,,11.874731,-4.5695257,-5.3793216,3.3949568,-1.7155596,1.0941939,2.1957963,0.34888253,0.17637318,-0.009235559,0.9203744,-7.6971765,8.769496,1.7504528,-2.0035942,-3.4354608,1.1377617,1
2.199999999999997,,,,,11.874731,-4.5695257,-5.3793216,3.3949568,-1.7923145,1.1817887,2.213443,0.34505692,0.18869798,-0.026146503,0.9190463,-7.653717,8.748702,1.7783204,-2.2357352,-3.571225,1.2335107,1
2.209999999999997,,,,,13.091145,-5.4847546,-5.36997,3.7922533,-1.8686321,1.2691517,2.2313492,0.34082654,0.20116511,-0.044419397,0.91727734,-7.6097336,8.723152,1.8022918,-2.4589567,-3.7131336,1.3270018,1
2.2199999999999966,,,,,13.091145,-5.4847546,-5.36997,3.7922533,-1.9444777,1.356215,2.2495553,0.3361959,0.21357715,-0.0641691,0.91500837,-7.5593243,8.688641,1.8382139,-2.7601027,-3.8015785,1.4327172,1
