time-since-start [s],throttle_mpc,roll_mpc,pitch_mpc,yaw_mpc,throttle_nw,roll_nw,pitch_nw,yaw_nw,position_x [m],position_y [m],position_z [m],rotation_w [quaternion],rotation_x [quaternion],rotation_y [quaternion],rotation_z [quaternion],velocity_x [m/s],velocity_y [m/s],velocity_z [m/s],omega_x [rad/s],omega_y [rad/s],omega_z [rad/s],network_used
0.0,10.924464856947765,5.9999994117083695,-5.999999958086886,-5.999998968366216,11.033747,-1.6702411,-3.1789808,-1.0215915,18.053507,-10.562094,2.045745,-0.073387936,-0.373306,0.38108787,0.8426321,-11.657954,-3.9160275,-0.11448013,1.4608555,-0.09615967,-0.04983634,0
0.01,10.924464856947765,5.9999994117083695,-5.999999958086886,-5.999998968366216,14.816111,-5.6581135,-5.533193,0.50118834,17.936209,-10.600636,2.0445604,-0.069842875,-0.37346268,0.38677946,0.8402674,-11.801139,-3.792209,-0.12309364,1.3548547,-0.20318419,-0.24855888,0
0.02,10.924464856947765,5.9999994117083695,-5.999999958086886,-5.999998968366216,14.816111,-5.6581135,-5.533193,0.50118834,17.8175,-10.637942,2.0432696,-0.065460466,-0.3735316,0.3917118,0.83830243,-11.940028,-3.669366,-0.13566242,1.2659645,-0.29409376,-0.44235978,0
0.03,10.924464856947765,5.9999994117083695,-5.999999958086886,-5.999998968366216,14.816111,-5.6581135,-5.533193,0.50118834,17.697422,-10.6740265,2.0418348,-0.06026074,-0.37357923,0.39595386,0.8366766,-12.0746155,-3.5475945,-0.15182059,1.1914138,-0.37129956,-0.6313608,0
0.04,10.924464856947765,5.9999994117083695,-5.999999958086886,-5.999998968366216,6.571472,-3.540243,-4.7603345,-2.1166754,17.576021,-10.708899,2.0402217,-0.054263946,-0.37365934,0.39956328,0.83533424,-12.204918,-3.4269743,-0.17125334,1.1288825,-0.4368538,-0.81568104,0
0.05,10.924464856947765,5.9999994117083695,-5.999999958086886,-5.999998968366216,6.571472,-3.540243,-4.7603345,-2.1166754,17.453339,-10.742571,2.0383992,-0.04749034,-0.37381488,0.4025881,0.83422416,-12.33097,-3.3075707,-0.19368832,1.0764263,-0.49250475,-0.9954362,0
0.060000000000000005,10.924464856947765,5.9999994117083695,-5.999999958086886,-5.999998968366216,6.571472,-3.540243,-4.7603345,-2.1166754,17.329414,-10.775053,2.03634,-0.039943464,-0.3740603,0.4050898,0.8332981,-12.453607,-3.1886683,-0.2184158,1.0456363,-0.5529783,-1.169614,0
0.07,10.924464856947765,5.9999994117083695,-5.999999958086886,-5.999998968366216,6.571472,-3.540243,-4.7603345,-2.1166754,17.204275,-10.806345,2.034025,-0.031571064,-0.37433696,0.40719303,0.8325076,-12.573465,-3.0696652,-0.24487357,1.0450486,-0.6294614,-1.3375167,0
0.08,12.825415824501487,5.999999825177552,-5.99999999183778,-5.999999147315024,12.54096,-4.680251,-7.678798,-0.30095974,17.077951,-10.836447,2.031437,-0.02231485,-0.37457165,0.40902075,0.83180535,-12.690397,-2.9506333,-0.2729746,1.0708091,-0.7203233,-1.4995292,0
0.09,12.825415824501487,5.999999825177552,-5.99999999183778,-5.999999147315024,12.54096,-4.680251,-7.678798,-0.30095974,16.95043,-10.865311,2.0285873,-0.012013616,-0.37459284,0.41078246,0.83114,-12.813219,-2.8221898,-0.29723802,1.1708019,-0.8754372,-1.6605896,0
0.09999999999999999,12.825415824501487,5.999999825177552,-5.99999999183778,-5.999999147315024,12.54096,-4.680251,-7.678798,-0.30095974,16.8217,-10.892891,2.0254865,-0.0005221809,-0.3742385,0.41265684,0.83045745,-12.932281,-2.6938157,-0.32321063,1.2872742,-1.0385095,-1.8166169,0
0.10999999999999999,12.825415824501487,5.999999825177552,-5.99999999183778,-5.999999147315024,12.54096,-4.680251,-7.678798,-0.30095974,16.691797,-10.919187,2.0221174,0.012182407,-0.3734528,0.41469535,0.8297062,-13.047301,-2.56539,-0.35081625,1.4178773,-1.2085215,-1.9678779,0
0.11999999999999998,12.825415824501487,5.999999825177552,-5.99999999183778,-5.999999147315024,12.54096,-4.680251,-7.678798,-0.30095974,16.560766,-10.944198,2.0184646,0.026116988,-0.37218085,0.41693613,0.8288326,-13.157991,-2.4367945,-0.3799787,1.5605412,-1.3845239,-2.1146183,0
0.12999999999999998,16.063350900603215,5.9999999642720345,-6.0,-5.840460571070152,9.922958,-2.5228698,-7.8374033,0.6292196,16.428654,-10.967921,2.0145125,0.04129243,-0.37036827,0.41940522,0.827781,-13.26405,-2.3079207,-0.41061935,1.7134402,-1.5656369,-2.257065,0
0.13999999999999999,16.063350900603215,5.9999999642720345,-6.0,-5.840460571070152,9.922958,-2.5228698,-7.8374033,0.6292196,16.295443,-10.990274,2.0102882,0.057936814,-0.36771923,0.42233086,0.8264759,-13.377642,-2.1626847,-0.43449196,1.9845115,-1.8609401,-2.397399,0
0.15,16.063350900603215,5.9999999642720345,-6.0,-5.840460571070152,9.922958,-2.5228698,-7.8374033,0.6292196,16.161125,-11.011174,2.0058172,0.076250605,-0.36395362,0.42589504,0.82482535,-13.484882,-2.0171323,-0.45999914,2.2542944,-2.1512616,-2.5345144,0
0.16,19.342245217325036,5.9999999934058215,-6.0,-5.015346815720077,12.626735,-0.79200494,-7.446609,0.19950947,16.02577,-11.030616,2.0010831,0.096194625,-0.3590399,0.4300397,0.822741,-13.585237,-1.8710598,-0.4870136,2.5223103,-2.4366908,-2.6685085,0
0.17,19.342245217325036,5.9999999934058215,-6.0,-5.015346815720077,12.626735,-0.79200494,-7.446609,0.19950947,15.889414,-11.048539,1.9960971,0.118084684,-0.3524372,0.4350869,0.8200874,-13.684709,-1.713931,-0.5104629,2.99156,-2.921368,-2.7771852,0
0.18000000000000002,19.342245217325036,5.9999999934058215,-6.0,-5.015346815720077,12.626735,-0.79200494,-7.446609,0.19950947,15.752109,-11.064891,1.9908682,0.14217852,-0.34364063,0.44126827,0.8166875,-13.774843,-1.5566034,-0.5355641,3.4389255,-3.3818,-2.8851175,0
0.19000000000000003,19.342245217325036,5.9999999934058215,-6.0,-5.015346815720077,12.626735,-0.79200494,-7.446609,0.19950947,15.613948,-11.079661,1.9853846,0.1682946,-0.33271524,0.44834837,0.81237984,-13.85589,-1.3966941,-0.5611026,3.8372989,-3.7911153,-2.9896483,0
0.20000000000000004,20.999999752184852,5.9999999897453735,-6.0,-4.25131647731704,12.656375,-2.0187073,-8.476671,1.8950111,15.475022,-11.092811,1.9796478,0.19611786,-0.3198661,0.45600608,0.8070203,-13.927559,-1.2325836,-0.58616483,4.173633,-4.1365137,-3.0890498,0
0.21000000000000005,20.999999752184852,5.9999999897453735,-6.0,-4.25131647731704,12.656375,-2.0187073,-8.476671,1.8950111,15.335406,-11.104227,1.9736949,0.22525913,-0.305259,0.46397546,0.80050105,-13.993955,-1.050143,-0.60429937,4.4577045,-4.4278603,-3.1460826,0
0.22000000000000006,20.999999752184852,5.9999999897453735,-6.0,-4.25131647731704,12.656375,-2.0187073,-8.476671,1.8950111,15.195187,-11.1138,1.9675647,0.25536525,-0.2890388,0.47203305,0.79273564,-14.04784,-0.86397517,-0.62162966,4.697557,-4.6736913,-3.200317,0
0.23000000000000007,20.999999752184852,5.9999999897453735,-6.0,-4.25131647731704,12.656375,-2.0187073,-8.476671,1.8950111,15.054495,-11.121496,1.9612656,0.2861877,-0.27137563,0.47996268,0.78363734,-14.088266,-0.6748283,-0.63803774,4.900077,-4.881115,-3.25189,0
0.24000000000000007,20.999999752184852,5.9999999897453735,-6.0,-4.25131647731704,14.049311,-2.061753,-8.636957,1.4681364,14.91347,-11.127291,1.9548074,0.31749988,-0.25242406,0.48758167,0.77313644,-14.114436,-0.48363,-0.65342504,5.0710773,-5.0561285,-3.3009322,0
0.25000000000000006,20.999999752184852,5.9999999897453735,-6.0,-4.25131647731704,14.049311,-2.061753,-8.636957,1.4681364,14.772257,-11.131166,1.9482008,0.34909442,-0.23232584,0.49473634,0.7611791,-14.125715,-0.2914577,-0.6677126,5.215467,-5.203794,-3.347568,0
0.26000000000000006,20.999999752184852,5.9999999897453735,-6.0,-4.25131647731704,14.049311,-2.061753,-8.636957,1.4681364,14.631009,-11.133121,1.941457,0.38078094,-0.21121198,0.501298,0.7477269,-14.121631,-0.09950975,-0.6808406,5.337389,-5.328382,-3.391915,0
0.2700000000000001,20.999999752184852,5.9999999897453735,-6.0,-4.25131647731704,14.049311,-2.061753,-8.636957,1.4681364,14.48988,-11.133162,1.9345881,0.412384,-0.18920429,0.5071593,0.7327555,-14.101884,0.0909223,-0.6927676,5.440342,-5.4334974,-3.434086,0
0.2800000000000001,21.0,5.999999850737139,-5.9999999557899715,-3.3703080598755375,16.430025,1.3027006,-7.9556746,-0.2433683,14.349025,-11.131311,1.927606,0.44374165,-0.16641663,0.51223123,0.71625274,-14.066345,0.2784803,-0.70346975,5.527278,-5.522182,-3.4741879,0
0.2900000000000001,21.0,5.999999850737139,-5.9999999557899715,-3.3703080598755375,16.430025,1.3027006,-7.9556746,-0.2433683,14.208606,-11.127605,1.9205229,0.474627,-0.14290029,0.5164591,0.6982683,-14.0150585,0.4617646,-0.7129397,5.600848,-5.596845,-3.4690905,0
0.3000000000000001,21.0,5.999999850737139,-5.9999999557899715,-3.3703080598755375,16.430025,1.3027006,-7.9556746,-0.2433683,14.068777,-11.122095,1.9133514,0.50483435,-0.11870422,0.5197998,0.6788664,-13.948237,0.63935924,-0.72118855,5.6629715,-5.6598396,-3.4642434,0
0.3100000000000001,21.0,5.999999850737139,-5.9999999557899715,-3.3703080598755375,16.430025,1.3027006,-7.9556746,-0.2433683,13.929694,-11.114842,1.9061033,0.53424996,-0.09392946,0.52220297,0.6580715,-13.86626,0.80985516,-0.72824776,5.715429,-5.7129893,-3.4596338,0
0.3200000000000001,21.0,3.8128990722886464,-5.999999542607745,0.060607015903662034,16.697327,1.0468981,-6.8048496,0.04366788,13.791503,-11.1059265,1.8987902,0.5627694,-0.068672046,0.52362835,0.63591504,-13.769661,0.9718707,-0.734168,5.759723,-5.7578316,-3.4552505,0
0.3300000000000001,21.0,3.8128990722886464,-5.999999542607745,0.060607015903662034,16.697327,1.0468981,-6.8048496,0.04366788,13.654347,-11.095439,1.8914237,0.58998793,-0.043304123,0.52353454,0.613148,-13.659195,1.124089,-0.7389699,5.4566855,-5.7942996,-3.2827263,0
0.34000000000000014,21.0,3.8128990722886464,-5.999999542607745,0.060607015903662034,16.697327,1.0468981,-6.8048496,0.04366788,13.518362,-11.083483,1.8840156,0.6156235,-0.01813307,0.5215519,0.59047633,-13.536094,1.2653927,-0.7424237,5.200894,-5.825273,-3.1186678,0
0.35000000000000014,21.0,3.8128990722886464,-5.999999542607745,0.060607015903662034,16.697327,1.0468981,-6.8048496,0.04366788,13.383665,-11.070171,1.8765808,0.6397503,0.0068486216,0.51787823,0.5678685,-13.401722,1.3948523,-0.7442757,4.984978,-5.8515744,-2.9626598,0
0.36000000000000015,21.0,2.4843760006297733,-3.9214584664230627,1.5042026573019023,15.34835,0.7454333,-5.011704,0.8296483,13.250361,-11.055629,1.8691362,0.6624283,0.03164722,0.5126783,0.5452963,-13.2574215,1.5116795,-0.7443521,4.8027177,-5.873904,-2.8143075,0
0.37000000000000016,21.0,2.4843760006297733,-3.9214584664230627,1.5042026573019023,15.34835,0.7454333,-5.011704,0.8296483,13.118573,-11.039964,1.861718,0.6833028,0.05552979,0.50621396,0.5232219,-13.099666,1.6186411,-0.73935205,4.392122,-5.618351,-2.608658,0
0.38000000000000017,21.0,2.4843760006297733,-3.9214584664230627,1.5042026573019023,15.34835,0.7454333,-5.011704,0.8296483,12.988385,-11.023307,1.8543502,0.7021505,0.07794642,0.4988151,0.50208825,-12.937409,1.7103848,-0.73414165,4.0632086,-5.385131,-2.4097667,0
0.3900000000000002,21.0,2.4843760006297733,-3.9214584664230627,1.5042026573019023,15.34835,0.7454333,-5.011704,0.8296483,12.859838,-11.005804,1.8470372,0.71914643,0.099165,0.49077633,0.48180225,-12.771535,1.7879739,-0.7283373,3.8121798,-5.1618075,-2.2182436,0
0.4000000000000002,20.9999999891374,1.215432929699542,-1.321989050993466,1.434665179700802,15.363924,-0.28644517,-2.1046004,1.5166953,12.732967,-10.987591,1.8397888,0.7344568,0.11940954,0.4822876,0.46229142,-12.601783,1.852604,-0.72111315,3.6059825,-4.967647,-2.035582,0
0.4100000000000002,20.9999999891374,1.215432929699542,-1.321989050993466,1.434665179700802,15.363924,-0.28644517,-2.1046004,1.5166953,12.607814,-10.968794,1.8326205,0.747854,0.1379988,0.47395238,0.4438917,-12.428742,1.9049011,-0.7123523,3.2342124,-4.3984656,-1.8653158,0
0.4200000000000002,20.9999999891374,1.215432929699542,-1.321989050993466,1.434665179700802,15.363924,-0.28644517,-2.1046004,1.5166953,12.484403,-10.949532,1.825546,0.7592503,0.15442522,0.46630317,0.4269112,-12.253418,1.9458393,-0.70239633,2.9203844,-3.9179993,-1.7033846,0
0.4300000000000002,20.9999999891374,1.215432929699542,-1.321989050993466,1.434665179700802,15.363924,-0.28644517,-2.1046004,1.5166953,12.362752,-10.929913,1.8185756,0.7689899,0.16907614,0.45927784,0.41125605,-12.076555,1.976515,-0.6915405,2.6553025,-3.5125906,-1.5493996,0
0.4400000000000002,20.9999999891374,1.215432929699542,-1.321989050993466,1.434665179700802,15.917696,-0.7726145,-0.14511849,1.1699388,12.242875,-10.910034,1.8117174,0.7773489,0.18227454,0.45280513,0.39682755,-11.89873,1.9978869,-0.6800262,2.4314048,-3.1705081,-1.4029707,0
0.45000000000000023,20.9999999891374,1.215432929699542,-1.321989050993466,1.434665179700802,15.917696,-0.7726145,-0.14511849,1.1699388,12.124779,-10.889984,1.8049767,0.7845491,0.19428891,0.4468117,0.38352787,-11.720374,2.0107877,-0.6680455,2.2423015,-2.8818555,-1.263727,0
0.46000000000000024,20.9999999891374,1.215432929699542,-1.321989050993466,1.434665179700802,15.917696,-0.7726145,-0.14511849,1.1699388,12.008467,-10.869844,1.7983575,0.79077023,0.20534195,0.44122612,0.37126327,-11.541817,2.0159366,-0.65575373,2.0825908,-2.638283,-1.1313162,0
0.47000000000000025,20.9999999891374,1.215432929699542,-1.321989050993466,1.434665179700802,15.917696,-0.7726145,-0.14511849,1.1699388,11.89394,-10.8496895,1.7918622,0.7961582,0.21561797,0.43598124,0.35994592,-11.363308,2.0139513,-0.6432777,1.9477102,-2.432748,-1.0054028,0
0.48000000000000026,20.999999729279015,-0.44387842023706114,0.9957382213055073,2.804223554400538,16.735292,-1.8134762,1.1292388,0.88314223,11.7811985,-10.829588,1.7854922,0.8008324,0.22526926,0.4310156,0.34949464,-11.185042,2.0053604,-0.63072276,1.8338025,-2.2593074,-0.885668,0
0.49000000000000027,20.999999729279015,-0.44387842023706114,0.9957382213055073,2.804223554400538,16.735292,-1.8134762,1.1292388,0.88314223,11.670238,-10.809603,1.779248,0.80459505,0.23364182,0.4267518,0.34047168,-11.007117,1.9907185,-0.6181547,1.4785925,-1.7518129,-0.7046516,0
0.5000000000000002,20.999999729279015,-0.44387842023706114,0.9957382213055073,2.804223554400538,16.735292,-1.8134762,1.1292388,0.88314223,11.561054,-10.789789,1.7731287,0.8073223,0.24024805,0.4235427,0.3333509,-10.829639,1.9711157,-0.60572845,1.1791321,-1.3230618,-0.5324701,0
0.5100000000000002,20.999999729279015,-0.44387842023706114,0.9957382213055073,2.804223554400538,16.735292,-1.8134762,1.1292388,0.88314223,11.453644,-10.770192,1.7671329,0.8091942,0.245419,0.42122707,0.32793564,-10.652505,1.9476701,-0.5934969,0.9262545,-0.9612581,-0.36873758,0
0.5200000000000002,20.999998591667172,-1.7530928815209976,3.1499465807398743,4.569988820785118,17.605335,-2.7774527,3.1184366,0.1594306,11.348003,-10.750845,1.761258,0.81034845,0.24942684,0.41965944,0.32404846,-10.475621,1.921324,-0.581517,0.7127245,-0.65594065,-0.21303949,0
0.5300000000000002,20.999998591667172,-1.7530928815209976,3.1499465807398743,4.569988820785118,17.605335,-2.7774527,3.1184366,0.1594306,11.244215,-10.731785,1.7555531,0.81078774,0.25173372,0.41889304,0.32215184,-10.28303,1.8904191,-0.5599594,0.22338656,-0.16720185,0.004143432,0
0.5400000000000003,20.999998591667172,-1.7530928815209976,3.1499465807398743,4.569988820785118,17.605335,-2.7774527,3.1184366,0.1594306,11.142328,-10.713036,1.750048,0.8105017,0.25193983,0.4189533,0.32263172,-10.095234,1.8594735,-0.54153293,-0.18943712,0.24552059,0.21594748,0
0.5500000000000003,20.999998591667172,-1.7530928815209976,3.1499465807398743,4.569988820785118,17.605335,-2.7774527,3.1184366,0.1594306,11.042299,-10.694591,1.7447145,0.8095439,0.25044033,0.41969734,0.32522643,-9.910979,1.8296317,-0.5253782,-0.5252387,0.6065285,0.4213702,0
0.5600000000000003,20.999998990096664,-3.787233516827136,5.460939854385244,4.83155355511824,17.142488,-3.1877108,5.305264,-0.5241302,10.944102,-10.676435,1.7395357,0.8078811,0.24760374,0.4211058,0.32968184,-9.728868,1.8017495,-0.5105969,-0.77975434,0.9401831,0.6193042,0
0.5700000000000003,20.999998990096664,-3.787233516827136,5.460939854385244,4.83155355511824,17.142488,-3.1877108,5.305264,-0.5241302,10.847734,-10.658549,1.7345097,0.8053313,0.24273534,0.42352477,0.33637422,-9.545024,1.7762878,-0.49482605,-1.3295817,1.5644404,0.8187935,0
0.5800000000000003,20.999998990096664,-3.787233516827136,5.460939854385244,4.83155355511824,17.142488,-3.1877108,5.305264,-0.5241302,10.753196,-10.640895,1.729635,0.80170125,0.23528336,0.42719957,0.34556797,-9.363091,1.7553047,-0.48032698,-1.7650088,2.120048,1.0110643,0
0.5900000000000003,20.999998990096664,-3.787233516827136,5.460939854385244,4.83155355511824,17.142488,-3.1877108,5.305264,-0.5241302,10.660466,-10.623422,1.7248988,0.7969017,0.225729,0.4320026,0.35688606,-9.183076,1.7402321,-0.46712735,-2.1034167,2.6181822,1.1965098,0
0.6000000000000003,20.999999659023743,-5.576079794163496,5.999997715621653,3.748384277872537,18.854998,-3.8990057,6.527572,-1.4161447,10.56953,-10.606065,1.7202886,0.79084337,0.2144667,0.43780893,0.36999184,-9.004427,1.7321934,-0.45495605,-2.3677275,3.0600061,1.3747867,0
0.6100000000000003,20.999999659023743,-5.576079794163496,5.999997715621653,3.748384277872537,18.854998,-3.8990057,6.527572,-1.4161447,10.480379,-10.58875,1.7157995,0.78359836,0.2010784,0.44433403,0.38484818,-8.825644,1.7321984,-0.442916,-2.8687434,3.5178325,1.4912599,0
0.6200000000000003,20.999999659023743,-5.576079794163496,5.999997715621653,3.748384277872537,18.854998,-3.8990057,6.527572,-1.4161447,10.393017,-10.571389,1.7114303,0.77521664,0.18521233,0.45125568,0.40137714,-8.647077,1.7415483,-0.43093154,-3.291607,3.9042788,1.6020178,0
0.6300000000000003,20.999999659023743,-5.576079794163496,5.999997715621653,3.748384277872537,18.854998,-3.8990057,6.527572,-1.4161447,10.307436,-10.553882,1.7071807,0.765623,0.16723704,0.4583527,0.4192443,-8.46936,1.7614306,-0.41897905,-3.6484988,4.2304835,1.7073406,0
0.6400000000000003,20.999999659023743,-5.576079794163496,5.999997715621653,3.748384277872537,20.715666,-5.1033754,5.711601,-0.24458465,10.223624,-10.53612,1.7030504,0.7547496,0.14746962,0.4654348,0.43815055,-8.2932625,1.7927966,-0.4071041,-3.9497035,4.5058465,1.8074952,0
0.6500000000000004,20.999999659023743,-5.576079794163496,5.999997715621653,3.748384277872537,20.715666,-5.1033754,5.711601,-0.24458465,10.1415615,-10.517984,1.6990379,0.7425401,0.12618545,0.47233933,0.45782828,-8.119672,1.836375,-0.39541218,-4.2039027,4.7383,1.9027352,0
0.6600000000000004,20.999999659023743,-5.576079794163496,5.999997715621653,3.748384277872537,20.715666,-5.1033754,5.711601,-0.24458465,10.061218,-10.499349,1.6951408,0.7289504,0.103625774,0.47892871,0.47803777,-7.9495697,1.8926841,-0.38405862,-4.418427,4.934535,1.9933016,0
0.6700000000000004,20.999999659023743,-5.576079794163496,5.999997715621653,3.748384277872537,20.715666,-5.1033754,5.711601,-0.24458465,9.982554,-10.480085,1.6913549,0.71394944,0.080003634,0.485087,0.49856395,-7.784008,1.9620405,-0.3732391,-4.5994635,5.1002007,2.0794241,0
0.6800000000000004,20.99999981078814,-5.624116960066705,5.855561164377532,3.7353818425434597,17.904428,-3.5223382,5.540397,-0.4740112,9.905519,-10.460062,1.6876734,0.69751877,0.05550843,0.49071738,0.5192135,-7.624089,2.044569,-0.3631802,-4.7522345,5.2400637,2.1613207,0
0.6900000000000004,20.99999981078814,-5.624116960066705,5.855561164377532,3.7353818425434597,17.904428,-3.5223382,5.540397,-0.4740112,9.8300495,-10.439149,1.6840878,0.6796824,0.030326026,0.4956897,0.53981835,-7.4709425,2.140207,-0.35412621,-4.888607,5.335613,2.2385604,0
0.7000000000000004,20.99999981078814,-5.624116960066705,5.855561164377532,3.7353818425434597,17.904428,-3.5223382,5.540397,-0.4740112,9.756074,-10.417214,1.6805866,0.6604702,0.004623527,0.49990064,0.5602294,-7.3257084,2.2486994,-0.3463103,-5.0036864,5.4162917,2.31201,0
0.7100000000000004,20.99999981078814,-5.624116960066705,5.855561164377532,3.7353818425434597,17.904428,-3.5223382,5.540397,-0.4740112,9.683506,-10.394133,1.6771564,0.6398894,-0.02146411,0.503313,0.5803075,-7.189511,2.3696246,-0.3399671,-5.100795,5.4844174,2.3818555,0
0.7200000000000004,20.999999801368894,-4.97726894208064,4.529200846781228,3.0702007273575567,18.450457,-3.262096,4.495572,-0.37828207,9.61225,-10.3697815,1.6737813,0.6179567,-0.047814686,0.5058976,0.59992576,-7.063438,2.502412,-0.3353364,-5.1827354,5.541946,2.4482737,0
0.7300000000000004,20.999999801368894,-4.97726894208064,4.529200846781228,3.0702007273575567,18.450457,-3.262096,4.495572,-0.37828207,9.5422,-10.344046,1.6704429,0.5950389,-0.07387957,0.50746864,0.6188264,-6.948494,2.6463132,-0.33263552,-5.1505494,5.383958,2.4787917,0
0.7400000000000004,20.999999801368894,-4.97726894208064,4.529200846781228,3.0702007273575567,18.450457,-3.262096,4.495572,-0.37828207,9.47324,-10.31682,1.6671216,0.57149076,-0.09921786,0.50792676,0.6368395,-6.8454185,2.8002543,-0.3319496,-5.123411,5.250606,2.5078125,0
0.7500000000000004,20.999999801368894,-4.97726894208064,4.529200846781228,3.0702007273575567,18.450457,-3.262096,4.495572,-0.37828207,9.405249,-10.288011,1.663797,0.54731715,-0.1238737,0.50736386,0.6539734,-6.7547927,2.9630756,-0.3333137,-5.100529,5.138049,2.535409,0
0.7600000000000005,20.999999404986006,-3.972303974859095,2.5368255483106266,2.312924011634073,18.855558,-2.9253087,3.7474475,-0.41285333,9.3381,-10.257532,1.6604484,0.52252567,-0.14788322,0.50585616,0.67022914,-6.6771126,3.133629,-0.3367591,-5.081237,5.0430446,2.5616512,0
0.7700000000000005,20.999999404986006,-3.972303974859095,2.5368255483106266,2.312924011634073,18.855558,-2.9253087,3.7474475,-0.41285333,9.271662,-10.225315,1.6570548,0.497666,-0.17058054,0.5033258,0.6854883,-6.61273,3.3107355,-0.3422775,-4.907611,4.6525292,2.549446,0
0.7800000000000005,20.999999404986006,-3.972303974859095,2.5368255483106266,2.312924011634073,18.855558,-2.9253087,3.7474475,-0.41285333,9.205801,-10.191299,1.6535964,0.47323516,-0.19145685,0.49977836,0.6997246,-6.5615425,3.4930358,-0.34965128,-4.7611704,4.3228655,2.53784,0
0.7900000000000005,20.999999404986006,-3.972303974859095,2.5368255483106266,2.312924011634073,18.855558,-2.9253087,3.7474475,-0.41285333,9.140388,-10.15544,1.6500561,0.44916353,-0.21075323,0.49537414,0.71304965,-6.5232716,3.679247,-0.35860518,-4.637658,4.044571,2.5268033,0
0.8000000000000005,19.381866063963265,-2.6473985821231127,0.4376558041987295,1.5338235360387993,14.996875,-3.1868293,3.961864,-1.0132307,9.075293,-10.117704,1.6464195,0.42538595,-0.2286754,0.49023867,0.7255485,-6.4976225,3.8682375,-0.36888725,-4.533484,3.8096411,2.5163083,0
0.8100000000000005,19.381866063963265,-2.6473985821231127,0.4376558041987295,1.5338235360387993,14.996875,-3.1868293,3.961864,-1.0132307,9.010386,-10.078143,1.6426411,0.40245596,-0.2446157,0.4844944,0.73719597,-6.4852405,4.044283,-0.3869203,-4.2383857,3.2843983,2.4680974,0
0.8200000000000005,19.381866063963265,-2.6473985821231127,0.4376558041987295,1.5338235360387993,14.996875,-3.1868293,3.961864,-1.0132307,8.945551,-10.036817,1.6386789,0.38084877,-0.2581291,0.47829452,0.74803627,-6.483347,4.221023,-0.40554038,-3.9894738,2.8409693,2.4222522,0
0.8300000000000005,19.381866063963265,-2.6473985821231127,0.4376558041987295,1.5338235360387993,14.996875,-3.1868293,3.961864,-1.0132307,8.880686,-9.993723,1.6345295,0.36039394,-0.26959452,0.47175625,0.7582093,-6.4910555,4.3976865,-0.4243328,-3.7795167,2.4666123,2.3786569,0
0.8400000000000005,19.381866063963265,-2.6473985821231127,0.4376558041987295,1.5338235360387993,13.745232,-2.740586,3.935389,-0.95042485,8.815699,-9.948865,1.6301928,0.34093732,-0.27933085,0.46496275,0.7678189,-6.507575,4.5736613,-0.44293433,-3.6024153,2.150569,2.3372006,0
0.8500000000000005,19.381866063963265,-2.6473985821231127,0.4376558041987295,1.5338235360387993,13.745232,-2.740586,3.935389,-0.95042485,8.750506,-9.902253,1.6256723,0.322342,-0.28760585,0.45797253,0.7769426,-6.5322013,4.748457,-0.46102974,-3.453026,1.883757,2.2977786,0
0.8600000000000005,19.381866063963265,-2.6473985821231127,0.4376558041987295,1.5338235360387993,13.745232,-2.740586,3.935389,-0.95042485,8.68503,-9.853901,1.6209747,0.30448797,-0.29464442,0.45082608,0.78563845,-6.5643106,4.9216757,-0.47834736,-3.3270109,1.6585082,2.260291,0
0.8700000000000006,19.381866063963265,-2.6473985821231127,0.4376558041987295,1.5338235360387993,13.745232,-2.740586,3.935389,-0.95042485,8.619197,-9.803826,1.6161089,0.287271,-0.30063525,0.44355112,0.79394984,-6.6033483,5.092988,-0.49465436,-3.2207115,1.4683483,2.224643,0
0.8800000000000006,16.40282828353158,-1.345301605315664,-1.412989361471347,0.752606766442087,14.73493,-2.9299862,3.3475814,-0.39539424,8.552941,-9.7520485,1.6110859,0.2706012,-0.30573675,0.43616602,0.8019098,-6.6488223,5.2621174,-0.509752,-3.1310418,1.3078116,2.1907442,0
0.8900000000000006,16.40282828353158,-1.345301605315664,-1.412989361471347,0.752606766442087,14.73493,-2.9299862,3.3475814,-0.39539424,8.486239,-9.69872,1.605854,0.25496292,-0.30939275,0.4288805,0.80952555,-6.6923203,5.403216,-0.5364219,-2.8519104,0.88403386,2.1201742,0
0.9000000000000006,16.40282828353158,-1.345301605315664,-1.412989361471347,0.752606766442087,14.73493,-2.9299862,3.3475814,-0.39539424,8.41908,-9.643991,1.6003624,0.24075046,-0.3111865,0.4218847,0.8168326,-6.740087,5.542188,-0.5616618,-2.6164377,0.5262542,2.053067,0
0.9100000000000006,16.40282828353158,-1.345301605315664,-1.412989361471347,0.752606766442087,14.73493,-2.9299862,3.3475814,-0.39539424,8.351425,-9.587883,1.5946267,0.22776814,-0.31142446,0.41515413,0.82388324,-6.791361,5.67901,-0.58523136,-2.417791,0.22419643,1.9892529,0
0.9200000000000006,14.879359545723293,-0.39713006486975627,-2.8919960155810425,0.02037681488456176,11.971666,-2.385852,2.5123177,-0.64815074,8.283242,-9.530418,1.5886644,0.21584736,-0.3103617,0.40865937,0.8307125,-6.8454895,5.813686,-0.60693383,-2.2502067,-0.0308154,1.9285703,0
0.9300000000000006,14.879359545723293,-0.39713006486975627,-2.8919960155810425,0.02037681488456176,11.971666,-2.385852,2.5123177,-0.64815074,8.214526,-9.4716625,1.5824689,0.20518894,-0.307788,0.40246642,0.8373679,-6.8978853,5.936876,-0.6321475,-1.9980965,-0.43921468,1.8383065,0
0.9400000000000006,14.879359545723293,-0.39713006486975627,-2.8919960155810425,0.02037681488456176,11.971666,-2.385852,2.5123177,-0.64815074,8.145284,-9.411696,1.5760229,0.19604583,-0.30342844,0.39670262,0.84387463,-6.9505696,6.0556507,-0.6568307,-1.7524731,-0.81687546,1.7495137,0
0.9500000000000006,14.879359545723293,-0.39713006486975627,-2.8919960155810425,0.02037681488456176,11.971666,-2.385852,2.5123177,-0.64815074,8.075511,-9.350555,1.5693395,0.1882818,-0.29748183,0.3913635,0.850229,-7.003778,6.172353,-0.67950964,-1.5408019,-1.1401625,1.6646644,0
0.9600000000000006,14.596552843869336,-0.09835886127671198,-3.8796957243506625,-0.544636725424351,13.6448,-2.443484,0.7570001,-0.98079854,8.005208,-9.288256,1.5624409,0.18171102,-0.29020134,0.38638502,0.8564293,-7.0570555,6.2874637,-0.69982874,-1.3622247,-1.4130944,1.5839787,0
0.9700000000000006,14.596552843869336,-0.09835886127671198,-3.8796957243506625,-0.544636725424351,13.6448,-2.443484,0.7570001,-0.98079854,7.93437,-9.224806,1.5553551,0.17633359,-0.28158143,0.3816429,0.86253536,-7.1101866,6.4017854,-0.71719444,-1.2033823,-1.7590159,1.4829961,0
0.9800000000000006,14.596552843869336,-0.09835886127671198,-3.8796957243506625,-0.544636725424351,13.6448,-2.443484,0.7570001,-0.98079854,7.863012,-9.160232,1.5480999,0.17222644,-0.27151582,0.37710285,0.8685683,-7.1612206,6.5124106,-0.733627,-1.0379119,-2.0824704,1.3841492,0
0.9900000000000007,14.596552843869336,-0.09835886127671198,-3.8796957243506625,-0.544636725424351,13.6448,-2.443484,0.7570001,-0.98079854,7.791152,-9.094562,1.5406907,0.16929507,-0.26013008,0.37278634,0.87447244,-7.2104325,6.621208,-0.7477849,-0.8912815,-2.362559,1.2895031,0
1.0000000000000007,15.254906164076544,-0.4123902964988492,-3.881744409286982,-0.9490406215476812,14.514509,-2.0735688,-0.24180938,-0.9970631,7.7188106,-9.027811,1.5331535,0.16738929,-0.24762346,0.36864606,0.8802067,-7.2575617,6.72878,-0.7592134,-0.7675788,-2.5990064,1.1995014,0
1.0100000000000007,15.254906164076544,-0.4123902964988492,-3.881744409286982,-0.9490406215476812,14.514509,-2.0735688,-0.24180938,-0.9970631,7.6459994,-8.959966,1.525536,0.16638894,-0.23421039,0.3645113,0.885772,-7.304181,6.839961,-0.76385075,-0.71222264,-2.7989564,1.0940717,0
1.0200000000000007,15.254906164076544,-0.4123902964988492,-3.881744409286982,-0.9490406215476812,14.514509,-2.0735688,-0.24180938,-0.9970631,7.5727367,-8.891015,1.5178864,0.16619936,-0.22007205,0.36024162,0.89116347,-7.3477883,6.949878,-0.76558584,-0.6655372,-2.9677396,0.99381566,0
1.0300000000000007,15.254906164076544,-0.4123902964988492,-3.881744409286982,-0.9490406215476812,14.514509,-2.0735688,-0.24180938,-0.9970631,7.4990544,-8.820972,1.5102341,0.16673,-0.20532614,0.35583434,0.89633954,-7.3880596,7.0584826,-0.76442486,-0.6261596,-3.1102133,0.8984792,0
1.0400000000000007,15.254906164076544,-0.4123902964988492,-3.881744409286982,-0.9490406215476812,14.8333845,-2.5793488,-0.24238445,-0.94616896,7.4249873,-8.74985,1.5026078,0.16790254,-0.1900724,0.35128787,0.90126497,-7.424711,7.1657104,-0.76040614,-0.59294266,-3.2304788,0.8078209,0
1.0500000000000007,15.254906164076544,-0.4123902964988492,-3.881744409286982,-0.9490406215476812,14.8333845,-2.5793488,-0.24238445,-0.94616896,7.350573,-8.677664,1.4950355,0.16964896,-0.17439553,0.3466017,0.90591013,-7.457494,7.271484,-0.7535947,-0.56491923,-3.3319967,0.72161126,0
1.0600000000000007,15.254906164076544,-0.4123902964988492,-3.881744409286982,-0.9490406215476812,14.8333845,-2.5793488,-0.24238445,-0.94616896,7.2758512,-8.604426,1.4875451,0.17190999,-0.15836754,0.34177628,0.91025054,-7.4861927,7.3757153,-0.7440783,-0.5412746,-3.4176893,0.63963187,0
1.0700000000000007,15.254906164076544,-0.4123902964988492,-3.881744409286982,-0.9490406215476812,14.8333845,-2.5793488,-0.24238445,-0.94616896,7.200864,-8.530154,1.480163,0.1746337,-0.1420498,0.336813,0.914266,-7.5106187,7.4783077,-0.73196405,-0.52132225,-3.4900236,0.56167525,0
1.0800000000000007,15.318694648575994,-1.1517535353935444,-3.1035217228954446,-1.0810595170402886,14.725101,-3.5074809,0.33735034,-0.534439,7.1256547,-8.454865,1.4729143,0.17777438,-0.12549464,0.33171403,0.91793984,-7.5306106,7.579156,-0.717375,-0.5044835,-3.5510817,0.487544,0
1.0900000000000007,15.318694648575994,-1.1517535353935444,-3.1035217228954446,-1.0810595170402886,14.725101,-3.5074809,0.33735034,-0.534439,7.0502677,-8.378574,1.4658259,0.1811689,-0.10909163,0.32626495,0.9213188,-7.5461235,7.678555,-0.6999623,-0.605622,-3.481287,0.41057217,0
1.1000000000000008,15.318694648575994,-1.1517535353935444,-3.1035217228954446,-1.0810595170402886,14.725101,-3.5074809,0.33735034,-0.534439,6.9747477,-8.301301,1.4589227,0.18469608,-0.093156524,0.32030118,0.92445487,-7.55714,7.7759085,-0.6803128,-0.6909702,-3.4223647,0.33737737,0
1.1100000000000008,15.318694648575994,-1.1517535353935444,-3.1035217228954446,-1.0810595170402886,14.725101,-3.5074809,0.33735034,-0.534439,6.8991394,-8.223063,1.4522268,0.18837276,-0.07763006,0.3138927,0.9273408,-7.5637727,7.871038,-0.658536,-0.7629932,-3.372623,0.26777428,0
1.1200000000000008,15.245571879984386,-2.130616542083073,-1.9103175417250111,-0.9365903107223491,15.259238,-4.3891172,1.2465082,-0.14985517,6.8234863,-8.143888,1.4457588,0.19220978,-0.062461298,0.30709934,0.92997,-7.5661206,7.963779,-0.63474417,-0.8237713,-3.330632,0.20158662,0
1.1300000000000008,15.245571879984386,-2.130616542083073,-1.9103175417250111,-0.9365903107223491,15.259238,-4.3891172,1.2465082,-0.14985517,6.747831,-8.0638,1.4395354,0.19602925,-0.048121475,0.29970217,0.9324354,-7.5643206,8.053541,-0.6096359,-1.0277158,-3.1091244,0.14573595,0
1.1400000000000008,15.245571879984386,-2.130616542083073,-1.9103175417250111,-0.9365903107223491,15.259238,-4.3891172,1.2465082,-0.14985517,6.6722126,-7.982827,1.4335724,0.19969876,-0.034984022,0.29153615,0.93482804,-7.558729,8.14057,-0.5826933,-1.1998318,-2.9221463,0.09262588,0
1.1500000000000008,15.245571879984386,-2.130616542083073,-1.9103175417250111,-0.9365903107223491,15.259238,-4.3891172,1.2465082,-0.14985517,6.596668,-7.9009986,1.4278879,0.20328148,-0.022875246,0.2827198,0.93713564,-7.549722,8.224676,-0.55396336,-1.345088,-2.764317,0.042121924,0
1.1600000000000008,14.97331661343352,-3.116688366437094,-0.8473132491285813,-0.6285310880052929,15.737858,-5.2268925,2.110002,0.25454077,6.5212293,-7.8183446,1.4224993,0.20682593,-0.011646709,0.2733523,0.9393435,-7.53762,8.305698,-0.52349484,-1.4676771,-2.631094,-0.005903771,0
1.1700000000000008,14.97331661343352,-3.116688366437094,-0.8473132491285813,-0.6285310880052929,15.737858,-5.2268925,2.110002,0.25454077,6.4459243,-7.734903,1.4174122,0.21021529,-0.001643321,0.26323524,0.9415489,-7.5230026,8.382097,-0.4936566,-1.7248858,-2.3528793,-0.036456272,0
1.1800000000000008,14.97331661343352,-3.116688366437094,-0.8473132491285813,-0.6285310880052929,15.737858,-5.2268925,2.110002,0.25454077,6.370777,-7.650714,1.4126318,0.21336047,0.006867797,0.25221676,0.9438311,-7.506128,8.455133,-0.46214336,-1.9419714,-2.1180453,-0.06550955,0
1.1900000000000008,14.97331661343352,-3.116688366437094,-0.8473132491285813,-0.6285310880052929,15.737858,-5.2268925,2.110002,0.25454077,6.295808,-7.565812,1.408175,0.21632905,0.014109377,0.24043499,0.94614685,-7.487471,8.524631,-0.4289393,-2.1251943,-1.9198295,-0.09313719,0
1.2000000000000008,15.047146922610969,-3.731591406406756,0.2969446930892507,-0.291661866610796,15.68698,-5.808111,3.040382,0.35418305,6.2210326,-7.480234,1.4040587,0.21917279,0.020270837,0.22800554,0.9484545,-7.4674397,8.590434,-0.3940459,-2.2798374,-1.7525228,-0.119409114,0
1.2100000000000009,15.047146922610969,-3.731591406406756,0.2969446930892507,-0.291661866610796,15.68698,-5.808111,3.040382,0.35418305,6.1464634,-7.394016,1.400303,0.22179468,0.025033778,0.21489188,0.9507902,-7.446313,8.652714,-0.35681272,-2.5062203,-1.4328781,-0.12786162,0
1.2200000000000009,15.047146922610969,-3.731591406406756,0.2969446930892507,-0.291661866610796,15.68698,-5.808111,3.040382,0.35418305,6.0721083,-7.3071938,1.3969281,0.22411872,0.02815393,0.20107026,0.9531784,-7.4247174,8.711025,-0.3178957,-2.6973,-1.1630832,-0.13589935,0
1.2300000000000009,15.047146922610969,-3.731591406406756,0.2969446930892507,-0.291661866610796,15.68698,-5.808111,3.040382,0.35418305,5.997969,-7.219809,1.3939507,0.22620626,0.029880403,0.18664657,0.95556325,-7.403173,8.76526,-0.27730682,-2.8585818,-0.9353642,-0.14354266,0
1.2400000000000009,15.047146922610969,-3.731591406406756,0.2969446930892507,-0.291661866610796,17.155905,-6.1007786,3.328555,1.3367683,5.924043,-7.1319027,1.3913876,0.22810426,0.030424561,0.17170972,0.95789284,-7.382123,8.815321,-0.23508267,-2.9947128,-0.7431596,-0.1508109,0
1.2500000000000009,15.047146922610969,-3.731591406406756,0.2969446930892507,-0.291661866610796,17.155905,-6.1007786,3.328555,1.3367683,5.8503237,-7.043517,1.3892546,0.22984864,0.02996579,0.15633485,0.9601204,-7.361947,8.861121,-0.19128385,-3.1096158,-0.5809307,-0.15772249,0
1.260000000000001,15.047146922610969,-3.731591406406756,0.2969446930892507,-0.291661866610796,17.155905,-6.1007786,3.328555,1.3367683,5.7768,-6.954695,1.387567,0.23146659,0.028656395,0.14058588,0.9622046,-7.3429713,8.902581,-0.14599323,-3.2066004,-0.4440028,-0.16429491,0
1.270000000000001,15.047146922610969,-3.731591406406756,0.2969446930892507,-0.291661866610796,17.155905,-6.1007786,3.328555,1.3367683,5.7034593,-6.8654804,1.3863394,0.23297855,0.026625762,0.1245175,0.96410966,-7.325475,8.93963,-0.099313855,-3.2884614,-0.32843032,-0.17054485,0
1.280000000000001,15.530495524727122,-3.6581202451487265,1.2989374501511197,-0.001704616089869232,17.552734,-5.2585883,3.178248,2.110483,5.6302843,-6.7759175,1.3855852,0.23439977,0.023983859,0.1081767,0.965805,-7.309699,8.972203,-0.051366705,-3.3575578,-0.23088284,-0.17648809,0
1.290000000000001,15.530495524727122,-3.6581202451487265,1.2989374501511197,-0.001704616089869232,17.552734,-5.2585883,3.178248,2.110483,5.55726,-6.686047,1.3853397,0.2356649,0.020447431,0.09172597,0.9672798,-7.295428,9.001161,0.0024386495,-3.404403,0.007677965,-0.16791141,0
1.300000000000001,15.530495524727122,-3.6581202451487265,1.2989374501511197,-0.001704616089869232,17.552734,-5.2585883,3.178248,2.110483,5.484367,-6.5959105,1.3856374,0.23672435,0.0157968,0.07529786,0.96852577,-7.283508,9.025504,0.057252914,-3.443949,0.20903516,-0.15975559,0
1.310000000000001,15.530495524727122,-3.6581202451487265,1.2989374501511197,-0.001704616089869232,17.552734,-5.2585883,3.178248,2.110483,5.41158,-6.505553,1.3864876,0.23760739,0.010204428,0.058889728,0.96952075,-7.274274,9.0453005,0.11290675,-3.4773328,0.3789905,-0.152,0
1.320000000000001,15.289412741366956,-2.9868420639963733,1.8360950135070402,0.17828781637056848,17.348888,-4.672115,3.220872,2.3523877,5.338871,-6.4150195,1.3878978,0.23833615,0.00381681,0.042500027,0.97024477,-7.2680078,9.060606,0.16922092,-3.5055149,0.52244174,-0.14462496,0
1.330000000000001,15.289412741366956,-2.9868420639963733,1.8360950135070402,0.17828781637056848,17.348888,-4.672115,3.220872,2.3523877,5.2662077,-6.3243566,1.3898617,0.23889783,-0.0033851536,0.026440324,0.9706787,-7.2649984,9.07133,0.22360139,-3.4246163,0.72726214,-0.12877953,0
1.340000000000001,15.289412741366956,-2.9868420639963733,1.8360950135070402,0.17828781637056848,17.348888,-4.672115,3.220872,2.3523877,5.1935587,-6.2336073,1.3923708,0.23928696,-0.011409611,0.010958963,0.97081995,-7.2653737,9.077906,0.27824628,-3.35634,0.9001451,-0.11371166,0
1.350000000000001,15.289412741366956,-2.9868420639963733,1.8360950135070402,0.17828781637056848,17.348888,-4.672115,3.220872,2.3523877,5.120888,-6.1428123,1.3954269,0.23952685,-0.020126661,-0.004029748,0.9706727,-7.269328,9.08055,0.33295915,-3.2987158,1.0460708,-0.09938316,0
1.360000000000001,13.815803132048085,-2.106795105165754,1.4536001425935225,0.25725334210965345,15.604011,-4.327202,2.6125236,1.8725568,5.0481596,-6.0520096,1.3990296,0.23963481,-0.029425997,-0.01859782,0.9702388,-7.2770214,9.079451,0.38754848,-3.2500815,1.1692426,-0.08575776,0
1.370000000000001,13.815803132048085,-2.106795105165754,1.4536001425935225,0.25725334210965345,15.604011,-4.327202,2.6125236,1.8725568,4.9753394,-5.961234,1.4031034,0.23962308,-0.03898133,-0.032500464,0.9695385,-7.2874503,9.075235,0.42714155,-3.0717974,1.2135442,-0.068926096,0
1.380000000000001,13.815803132048085,-2.106795105165754,1.4536001425935225,0.25725334210965345,15.604011,-4.327202,2.6125236,1.8725568,4.902398,-5.870516,1.407571,0.23950456,-0.048529785,-0.045547176,0.9686113,-7.301328,9.068023,0.46630567,-2.921317,1.2509434,-0.05292039,0
1.390000000000001,13.815803132048085,-2.106795105165754,1.4536001425935225,0.25725334210965345,15.604011,-4.327202,2.6125236,1.8725568,4.8293014,-5.779884,1.4124275,0.23929104,-0.058070403,-0.057866976,0.9674807,-7.3185906,9.058035,0.5049113,-2.7943046,1.2825154,-0.037700087,0
1.400000000000001,12.15978013264351,-1.173872978155556,0.7951324633295207,0.21106024637955947,13.585752,-2.7226331,1.9975224,0.9135248,4.7560153,-5.6893644,1.417667,0.23899122,-0.0676023,-0.06956882,0.9661642,-7.339179,9.045463,0.5428418,-2.6870992,1.309168,-0.023226652,0
1.410000000000001,12.15978013264351,-1.173872978155556,0.7951324633295207,0.21106024637955947,13.585752,-2.7226331,1.9975224,0.9135248,4.682521,-5.598974,1.4232007,0.2386251,-0.076780856,-0.08044776,0.96472317,-7.360158,9.032277,0.56378424,-2.451123,1.2289823,-0.011730119,0
1.420000000000001,12.15978013264351,-1.173872978155556,0.7951324633295207,0.21106024637955947,13.585752,-2.7226331,1.9975224,0.9135248,4.6088037,-5.5087256,1.4289402,0.23821336,-0.08533463,-0.090348125,0.96322864,-7.3838086,9.017169,0.5839955,-2.2519455,1.161306,-0.00079772435,0
1.430000000000001,12.15978013264351,-1.173872978155556,0.7951324633295207,0.21106024637955947,13.585752,-2.7226331,1.9975224,0.9135248,4.534837,-5.418637,1.434878,0.23776183,-0.0933614,-0.09942107,0.9617007,-7.4099307,9.000324,0.6034506,-2.083828,1.1041871,0.009598201,0
1.440000000000001,12.15978013264351,-1.173872978155556,0.7951324633295207,0.21106024637955947,13.177982,-1.7993696,0.9062203,0.51103,4.4605975,-5.328725,1.4410065,0.23727433,-0.10094366,-0.1077942,0.96015173,-7.4383535,8.981901,0.6221329,-1.9419276,1.0559785,0.019484004,0
1.450000000000001,12.15978013264351,-1.173872978155556,0.7951324633295207,0.21106024637955947,13.177982,-1.7993696,0.9062203,0.51103,4.386063,-5.239004,1.447318,0.23675337,-0.10815098,-0.11557519,0.9585892,-7.468932,8.962032,0.64003146,-1.8221556,1.01529,0.028884713,0
1.460000000000001,12.15978013264351,-1.173872978155556,0.7951324633295207,0.21106024637955947,13.177982,-1.7993696,0.9062203,0.51103,4.311212,-5.149489,1.4538044,0.23620056,-0.11504196,-0.1228548,0.95701677,-7.501544,8.940833,0.6571381,-1.7210615,0.9809484,0.037824135,0
1.470000000000001,12.15978013264351,-1.173872978155556,0.7951324633295207,0.21106024637955947,13.177982,-1.7993696,0.9062203,0.51103,4.236025,-5.060192,1.4604579,0.2356168,-0.12166597,-0.1297096,0.9554357,-7.5360847,8.918398,0.67344624,-1.6357323,0.9519635,0.046324875,0
1.480000000000001,11.868409163844907,-0.19121512663220872,0.32023440793412583,0.05461096294429493,12.958431,-1.0160667,-0.08502318,0.12618306,4.160484,-4.9711256,1.4672705,0.23500271,-0.12806457,-0.13620412,0.9538456,-7.572464,8.894809,0.68894976,-1.5637097,0.9274997,0.054408483,0
1.490000000000001,11.868409163844907,-0.19121512663220872,0.32023440793412583,0.05461096294429493,12.958431,-1.0160667,-0.08502318,0.12618306,4.084574,-4.882297,1.4742205,0.23440254,-0.1339969,-0.14206535,0.95232224,-7.609674,8.87074,0.7009481,-1.3496666,0.8328046,0.05441842,0
1.500000000000001,11.868409163844907,-0.19121512663220872,0.32023440793412583,0.05461096294429493,12.958431,-1.0160667,-0.08502318,0.12618306,4.0082846,-4.7937136,1.4812868,0.2338574,-0.13927513,-0.14708202,0.9509363,-7.6484103,8.845766,0.7122168,-1.169004,0.75287586,0.054427862,0
1.5100000000000011,11.868409163844907,-0.19121512663220872,0.32023440793412583,0.05461096294429493,12.958431,-1.0160667,-0.08502318,0.12618306,3.9316008,-4.7053843,1.4884626,0.23336239,-0.14400262,-0.15138721,0.94967735,-7.688491,8.820033,0.7228232,-1.0165159,0.685411,0.05443683,0
1.5200000000000011,12.1701487269107,0.8101463419699149,-0.16093389807704286,-0.18472764856869486,13.511717,-0.19019845,-1.0701857,-0.09382936,3.8545103,-4.6173153,1.4957412,0.23291247,-0.14826624,-0.15509297,0.94853306,-7.729764,8.793661,0.73282874,-0.8878087,0.62846637,0.05444538,0
1.5300000000000011,12.1701487269107,0.8101463419699149,-0.16093389807704286,-0.18472764856869486,13.511717,-0.19019845,-1.0701857,-0.09382936,3.7769964,-4.529516,1.503131,0.23256092,-0.15185882,-0.157963,0.9475769,-7.7731614,8.76608,0.7450334,-0.6230052,0.5053741,0.0427091,0
1.5400000000000011,12.1701487269107,0.8101463419699149,-0.16093389807704286,-0.18472764856869486,13.511717,-0.19019845,-1.0701857,-0.09382936,3.699044,-4.441995,1.5106406,0.23235515,-0.15462,-0.15981655,0.9468698,-7.8174105,8.738135,0.75680757,-0.39950013,0.40147296,0.031548712,0
1.5500000000000012,12.1701487269107,0.8101463419699149,-0.16093389807704286,-0.18472764856869486,13.511717,-0.19019845,-1.0701857,-0.09382936,3.620646,-4.354754,1.5182662,0.23228148,-0.15667975,-0.16081473,0.94638014,-7.8622894,8.709999,0.76827693,-0.21085235,0.31377137,0.020935971,0
1.5600000000000012,12.104557259688146,1.6628067720652526,-0.8610698423110472,-0.47804114394339825,14.375768,0.5428865,-2.0130463,0.14007643,3.5417967,-4.267795,1.5260055,0.23232694,-0.15814722,-0.1610929,0.9460775,-7.9076138,8.681816,0.7795509,-0.051625475,0.23974395,0.010843996,0
1.5700000000000012,12.104557259688146,1.6628067720652526,-0.8610698423110472,-0.47804114394339825,14.375768,0.5428865,-2.0130463,0.14007643,3.4624941,-4.181117,1.533854,0.23252279,-0.15876399,-0.16051282,0.9460247,-7.9529624,8.653868,0.79014516,0.21574183,0.06807142,-0.013145741,0
1.5800000000000012,12.104557259688146,1.6628067720652526,-0.8610698423110472,-0.47804114394339825,14.375768,0.5428865,-2.0130463,0.14007643,3.3827379,-4.094717,1.5418086,0.23289734,-0.15832868,-0.15897119,0.9462658,-7.9983177,8.626157,0.80079746,0.4414084,-0.076836035,-0.03595828,0
1.5900000000000012,12.104557259688146,1.6628067720652526,-0.8610698423110472,-0.47804114394339825,14.375768,0.5428865,-2.0130463,0.14007643,3.302529,-4.0085926,1.5498707,0.2334343,-0.15700237,-0.15661933,0.9467466,-8.04342,8.598832,0.8116525,0.6318792,-0.19915019,-0.05765141,0
1.6000000000000012,11.935612305783437,2.3412258821006153,-0.853548106247604,-0.644468774377272,15.017969,0.22508797,-2.8982117,0.7624187,3.2218716,-3.9227388,1.5580429,0.23411821,-0.15492058,-0.1535842,0.9474177,-8.088045,8.572017,0.8228293,0.7926439,-0.30239272,-0.07828006,0
1.6100000000000012,11.935612305783437,2.3412258821006153,-0.853548106247604,-0.644468774377272,15.017969,0.22508797,-2.8982117,0.7624187,3.140774,-3.8371482,1.5663211,0.23499638,-0.15213344,-0.1497175,0.9482705,-8.131389,8.546195,0.83289796,1.0341332,-0.38837582,-0.10606311,0
1.6200000000000012,11.935612305783437,2.3412258821006153,-0.853548106247604,-0.644468774377272,15.017969,0.22508797,-2.8982117,0.7624187,3.059247,-3.7518122,1.5747026,0.23610558,-0.14868525,-0.14490642,0.9492887,-8.173873,8.521163,0.8434912,1.2379607,-0.46095452,-0.13248283,0
1.6300000000000012,11.935612305783437,2.3412258821006153,-0.853548106247604,-0.644468774377272,15.017969,0.22508797,-2.8982117,0.7624187,2.9773002,-3.6667218,1.5831931,0.23741771,-0.14467359,-0.13929695,0.9504204,-8.215317,8.497089,0.8547006,1.4100004,-0.5222171,-0.15760612,0
1.6400000000000012,11.935612305783437,2.3412258821006153,-0.853548106247604,-0.644468774377272,14.642697,0.6957823,-3.2006676,0.56222206,2.8949447,-3.5818665,1.591799,0.23890801,-0.14018093,-0.13301207,0.95161974,-8.255563,8.474119,0.86659294,1.5552104,-0.5739269,-0.18149662,0
1.6500000000000012,11.935612305783437,2.3412258821006153,-0.853548106247604,-0.644468774377272,14.642697,0.6957823,-3.2006676,0.56222206,2.8121934,-3.497235,1.6005274,0.2405546,-0.13527717,-0.12615553,0.9528476,-8.294471,8.452375,0.87921304,1.6777749,-0.61757284,-0.20421483,0
1.6600000000000013,11.935612305783437,2.3412258821006153,-0.853548106247604,-0.644468774377272,14.642697,0.6957823,-3.2006676,0.56222206,2.7290602,-3.4128144,1.6093858,0.24233827,-0.1300216,-0.11881491,0.9540701,-8.33192,8.431962,0.89258677,1.7812259,-0.6544119,-0.22581822,0
1.6700000000000013,11.935612305783437,2.3412258821006153,-0.853548106247604,-0.644468774377272,14.642697,0.6957823,-3.2006676,0.56222206,2.6455603,-3.3285909,1.6183817,0.24424209,-0.12446472,-0.11106425,0.9552587,-8.367802,8.412969,0.9067239,1.8685439,-0.6855048,-0.24636154,0
1.6800000000000013,11.189156330781328,2.553746278289875,-0.8401932135977916,-0.7619943766734045,12.217623,0.8781627,-2.8799028,0.085452944,2.56171,-3.2445498,1.627523,0.24625121,-0.11864951,-0.10296618,0.9563894,-8.402021,8.395471,0.92162055,1.942245,-0.71174747,-0.2658968,0
1.6900000000000013,11.189156330781328,2.553746278289875,-0.8401932135977916,-0.7619943766734045,12.217623,0.8781627,-2.8799028,0.085452944,2.4775362,-3.160671,1.6367812,0.24837673,-0.112595275,-0.09449271,0.95744586,-8.432462,8.380531,0.9301484,2.0375934,-0.73182726,-0.29024047,0
1.7000000000000013,11.189156330781328,2.553746278289875,-0.8401932135977916,-0.7619943766734045,12.217623,0.8781627,-2.8799028,0.085452944,2.3930666,-3.0769336,1.6461283,0.25062698,-0.10631906,-0.0856244,0.9584107,-8.461181,8.367132,0.9393564,2.1180725,-0.74877405,-0.31338957,0
1.7100000000000013,11.189156330781328,2.553746278289875,-0.8401932135977916,-0.7619943766734045,12.217623,0.8781627,-2.8799028,0.085452944,2.3083189,-2.9933224,1.6555707,0.25298592,-0.09985207,-0.07642185,0.9592641,-8.4881,8.355345,0.9492177,2.1860018,-0.763076,-0.3354027,0
1.7200000000000013,10.102493855382924,2.4079431489553826,-0.9645715596602359,-0.8693684463228801,11.126867,1.023407,-2.7984142,-0.33876327,2.223311,-2.909821,1.6651149,0.25543946,-0.0932211,-0.06693649,0.95998967,-8.51315,8.345227,0.9596961,2.2433383,-0.7751455,-0.35633567,0
1.7300000000000013,10.102493855382924,2.4079431489553826,-0.9645715596602359,-0.8693684463228801,11.126867,1.023407,-2.7984142,-0.33876327,2.1380737,-2.826408,1.6747137,0.25797948,-0.086415574,-0.05728207,0.96057165,-8.534023,8.33764,0.960147,2.2689884,-0.8047295,-0.38151038,0
1.7400000000000013,10.102493855382924,2.4079431489553826,-0.9645715596602359,-0.8693684463228801,11.126867,1.023407,-2.7984142,-0.33876327,2.0526364,-2.743063,1.6843195,0.2606015,-0.079429045,-0.047551528,0.9609979,-8.553099,8.331613,0.9610692,2.2906392,-0.8296979,-0.40544975,0
1.7500000000000013,10.102493855382924,2.4079431489553826,-0.9645715596602359,-0.8693684463228801,11.126867,1.023407,-2.7984142,-0.33876327,1.9670178,-2.6597703,1.6939366,0.2632984,-0.07228854,-0.037757233,0.96126115,-8.570324,8.3271475,0.9624122,2.3089147,-0.8507706,-0.42821437,0
1.7600000000000013,9.535685519112059,1.896798348644758,-1.5129039384057907,-0.9806957458421511,10.878754,0.54755896,-2.5747252,-0.27334395,1.8812363,-2.5765145,1.7035689,0.26606336,-0.06501728,-0.027909793,0.96135545,-8.585656,8.324246,0.96412224,2.324341,-0.86855483,-0.44986194,0
1.7700000000000014,9.535685519112059,1.896798348644758,-1.5129039384057907,-0.9806957458421511,10.878754,0.54755896,-2.5747252,-0.27334395,1.7953151,-2.4932795,1.7131919,0.26888505,-0.057478648,-0.018274503,0.9612821,-8.5983,8.322968,0.9605262,2.25762,-0.96905935,-0.47591013,0
1.7800000000000014,9.535685519112059,1.896798348644758,-1.5129039384057907,-0.9806957458421511,10.878754,0.54755896,-2.5747252,-0.27334395,1.7092768,-2.4100504,1.7227802,0.27176043,-0.04956678,-0.009062929,0.96104497,-8.609059,8.323063,0.95717186,2.201307,-1.0538896,-0.5006801,0
1.7900000000000014,9.535685519112059,1.896798348644758,-1.5129039384057907,-0.9806957458421511,10.878754,0.54755896,-2.5747252,-0.27334395,1.6231406,-2.3268137,1.732336,0.27469313,-0.04134148,-0.00021087728,0.9606429,-8.61788,8.324435,0.95400774,2.1537786,-1.1254903,-0.52423465,0
1.8000000000000014,9.960325512486966,1.527613183403832,-1.0173591562724849,-0.9910454423821622,11.936034,-0.31827065,-3.0852656,0.42210266,1.5369262,-2.2435572,1.7418609,0.2776845,-0.032853413,0.008336002,0.9600743,-8.624714,8.326995,0.9509827,2.1136646,-1.1859244,-0.54663336,0
1.8100000000000014,9.960325512486966,1.527613183403832,-1.0173591562724849,-0.9910454423821622,11.936034,-0.31827065,-3.0852656,0.42210266,1.4506521,-2.1602688,1.7513771,0.28072914,-0.024377128,0.016537203,0.95933497,-8.629747,8.33083,0.9522824,2.022263,-1.159633,-0.56844074,0
1.8200000000000014,9.960325512486966,1.527613183403832,-1.0173591562724849,-0.9910454423821622,11.936034,-0.31827065,-3.0852656,0.42210266,1.3643383,-2.0769367,1.7609065,0.28382298,-0.016133068,0.024364037,0.9584314,-8.632715,8.335749,0.95361775,1.9451154,-1.1374434,-0.5891781,0
1.8300000000000014,9.960325512486966,1.527613183403832,-1.0173591562724849,-0.9910454423821622,11.936034,-0.31827065,-3.0852656,0.42210266,1.2780048,-1.9935504,1.7704492,0.28696695,-0.008087773,0.03187478,0.957376,-8.633671,8.341684,0.95493746,1.8799988,-1.1187156,-0.60889786,0
1.8400000000000014,9.960325512486966,1.527613183403832,-1.0173591562724849,-0.9910454423821622,14.703491,-1.4522827,-3.9696994,1.7991492,1.1916716,-1.9100999,1.780005,0.29016075,-0.00021288008,0.03911858,0.95617807,-8.632661,8.348576,0.95619506,1.8250374,-1.1029097,-0.6276499,0
1.8500000000000014,9.960325512486966,1.527613183403832,-1.0173591562724849,-0.9910454423821622,14.703491,-1.4522827,-3.9696994,1.7991492,1.1053582,-1.8265758,1.7895727,0.29340318,0.0075156256,0.04613688,0.95484525,-8.629723,8.35637,0.95734763,1.778647,-1.08957,-0.6454818,0
1.8600000000000014,9.960325512486966,1.527613183403832,-1.0173591562724849,-0.9910454423821622,14.703491,-1.4522827,-3.9696994,1.7991492,1.0190836,-1.7429694,1.7991514,0.29669237,0.015118057,0.05296457,0.9533833,-8.624891,8.36502,0.95835507,1.739491,-1.0783114,-0.6624387,0
1.8700000000000014,9.960325512486966,1.527613183403832,-1.0173591562724849,-0.9910454423821622,14.703491,-1.4522827,-3.9696994,1.7991492,0.93286675,-1.6592726,1.8087392,0.30002603,0.022611575,0.059631016,0.9517968,-8.618195,8.374484,0.9591796,1.7064418,-1.0688096,-0.67856354,0
1.8800000000000014,10.661248541871009,0.9833848443034611,-0.43983354543459713,-0.873200684721703,15.056028,-2.272614,-4.2536063,2.5113745,0.84672606,-1.5754771,1.8183342,0.3034014,0.030010667,0.06616091,0.9500892,-8.609657,8.384725,0.9597849,1.6785464,-1.0607903,-0.69389707,0
1.8900000000000015,10.661248541871009,0.9833848443034611,-0.43983354543459713,-0.873200684721703,15.056028,-2.272614,-4.2536063,2.5113745,0.7606833,-1.4915718,1.8279687,0.30679375,0.037042752,0.07243839,0.94829214,-8.598584,8.396477,0.96706617,1.5701747,-0.9639126,-0.7026956,0
1.9000000000000015,10.661248541871009,0.9833848443034611,-0.43983354543459713,-0.873200684721703,15.056028,-2.272614,-4.2536063,2.5113745,0.6747605,-1.4075452,1.8376744,0.31018305,0.043492667,0.078374326,0.9464418,-8.585696,8.408972,0.9740551,1.4786977,-0.88214904,-0.7110623,0
1.9100000000000015,10.661248541871009,0.9833848443034611,-0.43983354543459713,-0.873200684721703,15.056028,-2.272614,-4.2536063,2.5113745,0.5889752,-1.3233901,1.8474486,0.31357276,0.049449183,0.08402357,0.94454575,-8.571121,8.422168,0.9807377,1.4014816,-0.8131417,-0.7190185,0
1.9200000000000015,10.989644828557296,0.31283156237849247,-0.07640889974718962,-0.6752732358293855,15.024282,-2.4586704,-3.638445,2.5522795,0.5033436,-1.2390997,1.8572881,0.31696537,0.054987397,0.08943212,0.94260854,-8.554969,8.436027,0.98710287,1.3363031,-0.7549006,-0.72658426,0
1.9300000000000015,10.989644828557296,0.31283156237849247,-0.07640889974718962,-0.6752732358293855,15.024282,-2.4586704,-3.638445,2.5522795,0.41788363,-1.1546652,1.8672057,0.32034174,0.059950672,0.09443085,0.940675,-8.536798,8.450958,0.9963524,1.1767442,-0.6490128,-0.72406644,0
1.9400000000000015,10.989644828557296,0.31283156237849247,-0.07640889974718962,-0.6752732358293855,15.024282,-2.4586704,-3.638445,2.5522795,0.3326123,-1.0700785,1.8772142,0.32368577,0.064218394,0.09888883,0.93878865,-8.517276,8.466467,1.0052826,1.0420606,-0.5596505,-0.7216721,0
1.9500000000000015,10.989644828557296,0.31283156237849247,-0.07640889974718962,-0.6752732358293855,15.024282,-2.4586704,-3.638445,2.5522795,0.24754222,-0.98533404,1.8873104,0.32700232,0.06789782,0.10289267,0.9369483,-8.49657,8.482485,1.013915,0.9283739,-0.4842344,-0.71939534,0
1.9600000000000015,10.558036910528653,-0.4875263400964821,-0.13083386464193317,-0.35851091540818264,15.939312,-2.7051,-3.187933,2.5346506,0.1626845,-0.90042716,1.8974916,0.33029503,0.07107966,0.10651497,0.93515086,-8.474821,8.498956,1.0222707,0.8324108,-0.4205881,-0.7172303,0
1.9700000000000015,10.558036910528653,-0.4875263400964821,-0.13083386464193317,-0.35851091540818264,15.939312,-2.7051,-3.187933,2.5346506,0.07804453,-0.8153569,1.9077342,0.33355567,0.07375897,0.109507434,0.93343884,-8.453048,8.51516,1.0262026,0.62659293,-0.37529776,-0.6996278,0
1.9800000000000015,10.558036910528653,-0.4875263400964821,-0.13083386464193317,-0.35851091540818264,15.939312,-2.7051,-3.187933,2.5346506,-0.0063739643,-0.7301231,1.918015,0.33677453,0.075935654,0.11167643,0.9318502,-8.430548,8.531627,1.0299344,0.45286787,-0.33708966,-0.6828891,0
1.9900000000000015,10.558036910528653,-0.4875263400964821,-0.13083386464193317,-0.35851091540818264,15.939312,-2.7051,-3.187933,2.5346506,-0.090564445,-0.6447239,1.9283323,0.33995166,0.07768716,0.11315149,0.9303731,-8.407467,8.548238,1.033513,0.3062315,-0.30485573,-0.66697174,0
2.0000000000000013,,,,,15.289924,-2.8765724,-2.7265725,2.6952589,-0.17452173,-0.55915827,1.9386849,0.34308675,0.07907904,0.11404153,0.9289953,-8.383928,8.564893,1.0369792,0.18245989,-0.27766156,-0.6518355,0
2.010000000000001,,,,,15.289924,-2.8765724,-2.7265725,2.6952589,-0.25824553,-0.47342882,1.9490559,0.34615418,0.08007869,0.11426745,0.9277432,-8.360786,8.580987,1.0372112,0.0034868866,-0.24342671,-0.6215603,0
2.020000000000001,,,,,15.289924,-2.8765724,-2.7265725,2.6952589,-0.34173673,-0.38753906,1.9594291,0.34912863,0.08066335,0.113770954,0.92663836,-8.337439,8.596932,1.0374182,-0.14757898,-0.2145485,-0.5927707,0
2.0300000000000007,,,,,15.289924,-2.8765724,-2.7265725,2.6952589,-0.424994,-0.30149096,1.9698044,0.35201022,0.080897525,0.11266436,0.92566246,-8.314008,8.612634,1.0376446,-0.27508914,-0.19018777,-0.56539375,0
2.0400000000000005,,,,,15.289924,-2.8765724,-2.7265725,2.6952589,-0.50801694,-0.21528746,1.9801823,0.35479924,0.080835745,0.11104222,0.92479867,-8.290597,8.628011,1.0379274,-0.3827165,-0.16963723,-0.5393603,0
2.0500000000000003,,,,,15.408487,-2.9250147,-3.7052896,3.1560159,-0.59080625,-0.1289321,1.9905635,0.35749623,0.08052411,0.10898419,0.92403173,-8.267298,8.642996,1.0382968,-0.47356153,-0.15230058,-0.5146043,1
2.06,,,,,15.408487,-2.9250147,-3.7052896,3.1560159,-0.673269,-0.042369563,2.0013506,0.35986772,0.080625266,0.10636822,0.923407,-8.225404,8.669293,1.1187094,-0.53169435,-0.38220894,-0.3634928,1
2.07,,,,,15.408487,-2.9250147,-3.7052896,3.1560159,-0.7553172,0.04444839,2.0129282,0.36169633,0.081731185,0.102957524,0.92298186,-8.184359,8.694027,1.196347,-0.61285764,-0.6084099,-0.21692352,1
2.0799999999999996,,,,,15.408487,-2.9250147,-3.7052896,3.1560159,-0.83695835,0.13150443,2.025268,0.36300412,0.08378146,0.098658845,0.9227541,-8.143958,8.716856,1.2711966,-0.7134917,-0.8315167,-0.07467093,1
2.0899999999999994,,,,,14.49184,-2.6170397,-4.901962,3.7561758,-0.91819805,0.21877778,2.0383425,0.3638091,0.08672349,0.09339278,0.9227133,-8.104038,8.737437,1.3432515,-0.830528,-1.051982,0.06347376,1
2.099999999999999,,,,,14.49184,-2.6170397,-4.901962,3.7561758,-0.99903524,0.30624667,2.0521448,0.36405462,0.09079863,0.08749566,0.92280245,-8.063408,8.755917,1.4168332,-0.7709985,-1.3144623,0.21443962,1
2.109999999999999,,,,,14.49184,-2.6170397,-4.901962,3.7561758,-1.0794659,0.39388645,2.0666702,0.3636872,0.09618811,0.08124486,0.92297286,-8.022691,8.771591,1.4878407,-0.7493019,-1.5645967,0.3605532,1
2.1199999999999988,,,,,14.49184,-2.6170397,-4.901962,3.7561758,-1.1594876,0.48166823,2.0818923,0.3627246,0.102767974,0.0744973,0.92321175,-7.981577,8.784274,1.5561504,-0.7597433,-1.8045199,0.50207055,1
2.1299999999999986,,,,,12.108459,-3.0690491,-5.470696,3.3020766,-1.2390951,0.569561,2.0977836,0.36118218,0.110432245,0.067130595,0.9234965,-7.93982,8.793766,1.6216449,-0.7974422,-2.035959,0.6392287,1
2.1399999999999983,,,,,12.108459,-3.0690491,-5.470696,3.3020766,-1.3183066,0.65752786,2.1142182,0.3591499,0.11917325,0.058929246,0.92376214,-7.902351,8.799118,1.6648633,-0.8890265,-2.3093076,0.74641675,1
2.149999999999998,,,,,12.108459,-3.0690491,-5.470696,3.3020766,-1.3971394,0.7455322,2.1310706,0.3567063,0.12897697,0.049720522,0.92393374,-7.8640695,8.801231,1.7051182,-0.9947407,-2.5684845,0.85088736,1
2.159999999999998,,,,,12.108459,-3.0690491,-5.470696,3.3020766,-1.4755849,0.8335405,2.1483102,0.35384697,0.13974842,0.039468147,0.92396164,-7.8248553,8.799879,1.7423198,-1.1119922,-2.8153088,0.9527388,1
2.1699999999999977,,,,,11.204355,-3.691357,-5.564133,2.880349,-1.5536331,0.92151713,2.165906,0.35056686,0.1514032,0.028144758,0.92379,-7.784621,8.794859,1.7763611,-1.2385838,-3.0513067,1.0520641,1
2.1799999999999975,,,,,11.204355,-3.691357,-5.564133,2.880349,-1.6312884,1.0094273,2.1837795,0.34694925,0.16382171,0.015472927,0.92333597,-7.7462816,8.786619,1.797858,-1.4770983,-3.2997587,1.1289128,1
2.1899999999999973,,,,,11.204355,-3.691357,-5.564133,2.880349,-1.7085558,1.0972364,2.2018507,0.34306583,0.17690484,0.00122879,0.92250156,-7.707084,8.7746105,1.8158063,-1.7074016,-3.5384805,1.2045835,1
2.199999999999997,,,,,11.204355,-3.691357,-5.564133,2.880349,-1.7854271,1.1849059,2.2200832,0.33889288,0.1906051,-0.014527862,0.9212006,-7.6670594,8.758641,1.8301008,-1.9299338,-3.7681463,1.2790587,1
2.209999999999997,,,,,12.372189,-5.2315187,-5.4283586,3.231696,-1.8618944,1.2723951,2.2384398,0.33440614,0.20487389,-0.031737346,0.9193434,-7.6262455,8.738566,1.8406061,-2.1451068,-3.9893653,1.3523252,1
2.2199999999999966,,,,,12.372189,-5.2315187,-5.4283586,3.231696,-1.9379164,1.3596438,2.256966,0.32965535,0.21929786,-0.050664026,0.9168802,-7.578053,8.710382,1.8639361,-2.5229506,-4.111093,1.4353001,1
2.2299999999999964,,,,,12.372189,-5.2315187,-5.4283586,3.231696,-2.0134535,1.4465857,2.2757018,0.3246839,0.23354878,-0.07152549,0.9137394,-7.5292754,8.677178,1.8824469,-2.8726656,-4.244665,1.5169588,1
