time-since-start [s],throttle_mpc,roll_mpc,pitch_mpc,yaw_mpc,throttle_nw,roll_nw,pitch_nw,yaw_nw,position_x [m],position_y [m],position_z [m],rotation_w [quaternion],rotation_x [quaternion],rotation_y [quaternion],rotation_z [quaternion],velocity_x [m/s],velocity_y [m/s],velocity_z [m/s],omega_x [rad/s],omega_y [rad/s],omega_z [rad/s],network_used
0.0,12.678176913108725,5.999999609728751,-5.999999884295086,-3.8941502537663726,12.667476,-0.18382555,-0.31270498,0.92364645,16.658035,-10.491577,1.3071088,-0.123516634,0.39882177,-0.23792987,-0.87696874,-8.7808275,-3.484091,-0.582589,1.3861026,-0.16205937,-0.108736776,0
0.01,12.678176913108725,5.999999609728751,-5.999999884295086,-3.8941502537663726,18.14312,1.8706743,-2.2246664,-0.85579354,16.569641,-10.525943,1.3013128,-0.12757328,0.39668754,-0.24374254,-0.8757588,-8.897382,-3.3890178,-0.5769678,1.5232842,-0.49033582,-0.24240862,0
0.02,12.678176913108725,5.999999609728751,-5.999999884295086,-3.8941502537663726,18.14312,1.8706743,-2.2246664,-0.85579354,16.4801,-10.559356,1.2955616,-0.13287774,0.39319074,-0.24970719,-0.87486607,-9.010057,-3.2934961,-0.5736018,1.6754732,-0.803895,-0.37278,0
0.03,12.678176913108725,5.999999609728751,-5.999999884295086,-3.8941502537663726,18.14312,1.8706743,-2.2246664,-0.85579354,16.389454,-10.591809,1.2898341,-0.13942811,0.38837096,-0.25588536,-0.87421405,-9.118438,-3.197414,-0.5721425,1.839833,-1.1045325,-0.49996802,0
0.04,12.678176913108725,5.999999609728751,-5.999999884295086,-3.8941502537663726,13.669266,1.6675612,-1.8396497,-0.7163001,16.297749,-10.623301,1.2841132,-0.14721665,0.38225767,-0.2623233,-0.8737234,-9.222127,-3.1006663,-0.5722916,2.0139594,-1.3937529,-0.6240832,0
0.05,12.678176913108725,5.999999609728751,-5.999999884295086,-3.8941502537663726,13.669266,1.6675612,-1.8396497,-0.7163001,16.20503,-10.653821,1.2783836,-0.1562301,0.37487182,-0.26905385,-0.8733116,-9.320742,-3.0031667,-0.5737977,2.1958132,-1.6728184,-0.7452299,0
0.060000000000000005,12.678176913108725,5.999999609728751,-5.999999884295086,-3.8941502537663726,13.669266,1.6675612,-1.8396497,-0.7163001,16.111355,-10.683362,1.2726332,-0.1664499,0.3662273,-0.2760982,-0.8728927,-9.413911,-2.9048524,-0.57645226,2.3836656,-1.9427862,-0.86350685,0
0.07,12.678176913108725,5.999999609728751,-5.999999884295086,-3.8941502537663726,13.669266,1.6675612,-1.8396497,-0.7163001,16.016773,-10.711917,1.2668511,-0.17785229,0.35633215,-0.28346688,-0.87237734,-9.501276,-2.8056924,-0.58008707,2.5760527,-2.2045424,-0.9790072,0
0.08,14.201349553060892,5.999999592363002,-5.999999900053605,-4.081209450217656,14.548387,1.9116162,-1.5161123,-1.119377,15.92135,-10.739474,1.2610284,-0.19040832,0.34518987,-0.29116103,-0.87167287,-9.582488,-2.7056913,-0.5845719,2.7717338,-2.4588306,-1.0918193,0
0.09,14.201349553060892,5.999999592363002,-5.999999900053605,-4.081209450217656,14.548387,1.9116162,-1.5161123,-1.119377,15.825113,-10.765983,1.2551981,-0.20413049,0.332768,-0.2991892,-0.8706789,-9.663813,-2.5959868,-0.58160657,2.9846532,-2.7213333,-1.2125468,0
0.09999999999999999,14.201349553060892,5.999999592363002,-5.999999900053605,-4.081209450217656,14.548387,1.9116162,-1.5161123,-1.119377,15.7281,-10.79139,1.2493937,-0.21902469,0.3190289,-0.30755147,-0.8692874,-9.737706,-2.4854853,-0.57937765,3.1991954,-2.9777853,-1.3304664,0
0.10999999999999999,14.201349553060892,5.999999592363002,-5.999999900053605,-4.081209450217656,14.548387,1.9116162,-1.5161123,-1.119377,15.630387,-10.81569,1.243608,-0.2350436,0.30396497,-0.3162238,-0.867388,-9.803799,-2.3743248,-0.5778501,3.4145463,-3.2285666,-1.4456657,0
0.11999999999999998,14.201349553060892,5.999999592363002,-5.999999900053605,-4.081209450217656,14.548387,1.9116162,-1.5161123,-1.119377,15.532054,-10.838876,1.2378341,-0.25213352,0.2875684,-0.32517448,-0.8648666,-9.86174,-2.2627008,-0.57702523,3.6300173,-3.4739952,-1.5582277,0
0.12999999999999998,16.053922223726165,5.25511307596841,-5.999999850124327,-3.6231436756529023,13.666083,1.7595178,-0.6748133,-1.6967486,15.433184,-10.860944,1.2320648,-0.27023405,0.26983234,-0.33436465,-0.86160547,-9.911205,-2.1508665,-0.57693934,3.845025,-3.714338,-1.6682311,0
0.13999999999999999,16.053922223726165,5.25511307596841,-5.999999850124327,-3.6231436756529023,13.666083,1.7595178,-0.6748133,-1.6967486,15.333852,-10.88187,1.2263125,-0.28936931,0.25045395,-0.34368783,-0.8575643,-9.953673,-2.0341754,-0.57332236,4.0642867,-4.0712776,-1.7641592,0
0.15,16.053922223726165,5.25511307596841,-5.999999850124327,-3.6231436756529023,13.666083,1.7595178,-0.6748133,-1.6967486,15.234139,-10.901621,1.2206025,-0.30946052,0.22931096,-0.35297367,-0.85267806,-9.987259,-1.9156625,-0.56850207,4.2493906,-4.372526,-1.8553802,0
0.16,16.986825848162407,3.10759655596392,-5.5638643753350605,-1.300264777086687,15.093254,1.4922736,-0.48338372,-1.188274,15.13414,-10.920179,1.2149464,-0.33030105,0.20664816,-0.36209726,-0.8468075,-10.01129,-1.795839,-0.56253487,4.4056644,-4.6267676,-1.9421247,0
0.17,16.986825848162407,3.10759655596392,-5.5638643753350605,-1.300264777086687,15.093254,1.4922736,-0.48338372,-1.188274,15.033945,-10.9375,1.2093856,-0.35123172,0.18301824,-0.37035125,-0.84022623,-10.026068,-1.6683309,-0.5494171,4.2031446,-4.772565,-1.9106284,0
0.18000000000000002,16.986825848162407,3.10759655596392,-5.5638643753350605,-1.300264777086687,15.093254,1.4922736,-0.48338372,-1.188274,14.933657,-10.953547,1.2039615,-0.37172323,0.15889256,-0.37720716,-0.8332403,-10.030097,-1.540971,-0.53522575,4.0322366,-4.895676,-1.8806778,0
0.19000000000000003,16.986825848162407,3.10759655596392,-5.5638643753350605,-1.300264777086687,15.093254,1.4922736,-0.48338372,-1.188274,14.833382,-10.968324,1.1986846,-0.39177442,0.13435763,-0.3828083,-0.8257834,-10.023455,-1.4146469,-0.5199932,3.8880048,-4.9996305,-1.8521967,0
0.20000000000000004,16.867324419942346,1.9712917260103278,-4.35015343462853,-1.0878095451521963,15.037621,-0.41774285,0.15836063,-0.47569412,14.733224,-10.981846,1.1935649,-0.4113778,0.10948778,-0.3872764,-0.8178002,-10.006266,-1.2901976,-0.50379944,3.7662845,-5.087409,-1.8251133,0
0.21000000000000005,16.867324419942346,1.9712917260103278,-4.35015343462853,-1.0878095451521963,15.037621,-0.41774285,0.15836063,-0.47569412,14.63329,-10.99414,1.1886073,-0.43027106,0.08492477,-0.3905562,-0.8093948,-9.978941,-1.169263,-0.48757443,3.486611,-4.9720187,-1.7889335,0
0.22000000000000006,16.867324419942346,1.9712917260103278,-4.35015343462853,-1.0878095451521963,15.037621,-0.41774285,0.15836063,-0.47569412,14.53368,-11.00524,1.1838157,-0.44827273,0.061189674,-0.3926456,-0.8007098,-9.941889,-1.0516237,-0.47064924,3.2505205,-4.874691,-1.7545291,0
0.23000000000000007,16.867324419942346,1.9712917260103278,-4.35015343462853,-1.0878095451521963,15.037621,-0.41774285,0.15836063,-0.47569412,14.434485,-11.015184,1.1791962,-0.4654777,0.03817583,-0.39370835,-0.7917488,-9.895705,-0.9378337,-0.4531545,3.0512216,-4.792597,-1.7218128,0
0.24000000000000007,16.867324419942346,1.9712917260103278,-4.35015343462853,-1.0878095451521963,15.205938,-2.1652582,1.2932385,0.7549873,14.335795,-11.024013,1.174754,-0.48196176,0.015790524,-0.3938795,-0.7825099,-9.840946,-0.82837766,-0.435218,2.8829803,-4.7233505,-1.6907022,0
0.25000000000000006,16.867324419942346,1.9712917260103278,-4.35015343462853,-1.0878095451521963,15.205938,-2.1652582,1.2932385,0.7549873,14.237694,-11.03177,1.1704928,-0.4977854,-0.0060460847,-0.3932707,-0.77298814,-9.7781315,-0.72368336,-0.4169675,2.740957,-4.664942,-1.661118,0
0.26000000000000006,16.867324419942346,1.9712917260103278,-4.35015343462853,-1.0878095451521963,15.205938,-2.1652582,1.2932385,0.7549873,14.140258,-11.038505,1.1664152,-0.5129966,-0.027402148,-0.3919743,-0.763177,-9.707752,-0.6241321,-0.39853248,2.6210659,-4.6156726,-1.6329857,0
0.2700000000000001,16.867324419942346,1.9712917260103278,-4.35015343462853,-1.0878095451521963,15.205938,-2.1652582,1.2932385,0.7549873,14.043563,-11.044271,1.1625224,-0.5276334,-0.048335332,-0.39006692,-0.75306964,-9.630271,-0.5300656,-0.38004503,2.519858,-4.5741134,-1.6062337,0
0.2800000000000001,16.43312888963027,0.09852768440013727,-2.3504341737138867,0.058148920784479696,15.289739,-2.7323403,1.4117475,0.8974989,13.947677,-11.049126,1.1588141,-0.54172575,-0.068894,-0.38761204,-0.7426595,-9.546132,-0.44179225,-0.36164045,2.434421,-4.5390573,-1.5807945,0
0.2900000000000001,16.43312888963027,0.09852768440013727,-2.3504341737138867,0.058148920784479696,15.289739,-2.7323403,1.4117475,0.8974989,13.852651,-11.053139,1.1552739,-0.55494916,-0.08817364,-0.38454336,-0.7323815,-9.458157,-0.36166117,-0.34643242,2.0707123,-4.1972585,-1.5003711,0
0.3000000000000001,16.43312888963027,0.09852768440013727,-2.3504341737138867,0.058148920784479696,15.289739,-2.7323403,1.4117475,0.8974989,13.758531,-11.056379,1.1518847,-0.5670909,-0.10547145,-0.38085273,-0.72265786,-9.364981,-0.28732634,-0.33142552,1.7636286,-3.9088588,-1.4238939,0
0.3100000000000001,16.43312888963027,0.09852768440013727,-2.3504341737138867,0.058148920784479696,15.289739,-2.7323403,1.4117475,0.8974989,13.665366,-11.058905,1.1486448,-0.57831573,-0.121098034,-0.37665802,-0.7134525,-9.267412,-0.2186028,-0.3165715,1.5043571,-3.665511,-1.3511697,0
0.3200000000000001,16.144618345903837,-2.0637030547699933,0.060927973622273174,1.895623976593453,16.917398,-3.8432775,2.1892216,2.133295,13.573196,-11.06077,1.145553,-0.58875555,-0.135317,-0.37205037,-0.7047228,-9.166126,-0.15530606,-0.30181617,1.2854557,-3.460174,-1.282014,0
0.3300000000000001,16.144618345903837,-2.0637030547699933,0.060927973622273174,1.895623976593453,16.917398,-3.8432775,2.1892216,2.133295,13.482053,-11.06203,1.142607,-0.59816474,-0.14725289,-0.36695793,-0.6970344,-9.062268,-0.097476244,-0.28762203,0.7428772,-2.9315474,-1.1280222,0
0.34000000000000014,16.144618345903837,-2.0637030547699933,0.060927973622273174,1.895623976593453,16.917398,-3.8432775,2.1892216,2.133295,13.391953,-11.062737,1.1397965,-0.60633504,-0.15623482,-0.36144093,-0.6908752,-8.957461,-0.04485248,-0.27448574,0.30383244,-2.466461,-0.97983205,0
0.35000000000000014,16.144618345903837,-2.0637030547699933,0.060927973622273174,1.895623976593453,16.917398,-3.8432775,2.1892216,2.133295,13.302908,-11.06294,1.1371186,-0.61343265,-0.1627469,-0.35565728,-0.68609136,-8.851463,0.0038360944,-0.26097152,-0.06493914,-2.072085,-0.83873254,0
0.36000000000000015,17.72414825916003,-4.003908096659553,3.0491624912143966,2.220157982739979,17.100752,-3.8620365,2.4479382,2.7576504,13.214926,-11.062672,1.1345795,-0.6196106,-0.16719808,-0.3496645,-0.6825408,-8.744809,0.049246974,-0.24670321,-0.3763096,-1.7393042,-0.7045569,1
0.37000000000000016,17.72414825916003,-4.003908096659553,3.0491624912143966,2.220157982739979,17.100752,-3.8620365,2.4479382,2.7576504,13.12806,-11.061944,1.1322393,-0.6247833,-0.16887341,-0.3434132,-0.680584,-8.6286335,0.0957409,-0.22139576,-0.96810275,-1.1347353,-0.53907555,1
0.38000000000000017,17.72414825916003,-4.003908096659553,3.0491624912143966,2.220157982739979,17.100752,-3.8620365,2.4479382,2.7576504,13.042345,-11.060765,1.130151,-0.62883425,-0.1672202,-0.33696604,-0.6804839,-8.514812,0.1396006,-0.196288,-1.4435132,-0.6003569,-0.379502,1
0.3900000000000002,17.72414825916003,-4.003908096659553,3.0491624912143966,2.220157982739979,17.100752,-3.8620365,2.4479382,2.7576504,12.957754,-11.059157,1.1283144,-0.63181686,-0.16276924,-0.3305015,-0.6819691,-8.403935,0.18186638,-0.17084609,-1.8234254,-0.12794079,-0.22582826,1
0.4000000000000002,18.795539255946633,-4.820932428827267,4.625090682251849,2.2930177002609087,18.582754,-4.2399063,2.9438863,3.3693671,12.874259,-11.05713,1.1267408,-0.6337931,-0.1559659,-0.3240836,-0.6847994,-8.2954855,0.22379716,-0.14355473,-2.1413102,0.27361012,-0.07942811,0
0.4100000000000002,18.795539255946633,-4.820932428827267,4.625090682251849,2.2930177002609087,18.582754,-4.2399063,2.9438863,3.3693671,12.791887,-11.05466,1.1255141,-0.63465005,-0.14632398,-0.31798208,-0.6889815,-8.179407,0.2704123,-0.1013748,-2.55923,0.95205027,0.036988482,0
0.4200000000000002,18.795539255946633,-4.820932428827267,4.625090682251849,2.2930177002609087,18.582754,-4.2399063,2.9438863,3.3693671,12.710657,-11.051717,1.1247222,-0.63428533,-0.13346551,-0.31239358,-0.69446295,-8.067249,0.31863773,-0.056577988,-2.9120626,1.5246415,0.14769247,0
0.4300000000000002,18.795539255946633,-4.820932428827267,4.625090682251849,2.2930177002609087,18.582754,-4.2399063,2.9438863,3.3693671,12.630526,-11.048278,1.1243918,-0.6327675,-0.11788161,-0.30719182,-0.7009579,-7.9598126,0.3694957,-0.009093974,-3.2099319,2.007907,0.2529642,0
0.4400000000000002,18.795539255946633,-4.820932428827267,4.625090682251849,2.2930177002609087,18.333624,-4.065877,3.5945265,2.841172,12.551442,-11.044314,1.1245496,-0.63014084,-0.0999885,-0.30226526,-0.7082091,-7.8578444,0.42380708,0.041047666,-3.4613898,2.4157884,0.35307023,0
0.45000000000000023,18.795539255946633,-4.820932428827267,4.625090682251849,2.2930177002609087,18.333624,-4.065877,3.5945265,2.841172,12.473348,-11.039788,1.1252215,-0.6264349,-0.08014122,-0.29751775,-0.71598846,-7.762045,0.4822134,0.093722686,-3.6736588,2.760052,0.448264,0
0.46000000000000024,18.795539255946633,-4.820932428827267,4.625090682251849,2.2930177002609087,18.333624,-4.065877,3.5945265,2.841172,12.396177,-11.034655,1.1264321,-0.62167066,-0.058644585,-0.2928678,-0.7240956,-7.673076,0.54519576,0.14872015,-3.8528392,3.0506246,0.5387866,0
0.47000000000000025,18.795539255946633,-4.820932428827267,4.625090682251849,2.2930177002609087,18.333624,-4.065877,3.5945265,2.841172,12.3198595,-11.028868,1.128203,-0.6158646,-0.035761833,-0.28824762,-0.7323556,-7.591562,0.61309177,0.20575173,-4.004083,3.2958848,0.6248672,0
0.48000000000000026,19.53790607308813,-4.742269385746053,5.098831812457395,2.182202889778925,14.707901,-3.275133,3.4256792,2.6152744,12.244318,-11.022377,1.1305529,-0.6090315,-0.011721583,-0.28360158,-0.7406165,-7.518087,0.68611014,0.26446152,-4.1317406,3.5029018,0.7067238,0
0.49000000000000027,19.53790607308813,-4.742269385746053,5.098831812457395,2.182202889778925,14.707901,-3.275133,3.4256792,2.6152744,12.169482,-11.015114,1.1335278,-0.6011415,0.013402335,-0.2790227,-0.748729,-7.450634,0.76744866,0.33067247,-4.2272434,3.7515428,0.7791259,0
0.5000000000000002,19.53790607308813,-4.742269385746053,5.098831812457395,2.182202889778925,14.707901,-3.275133,3.4256792,2.6152744,12.095273,-11.007009,1.1371691,-0.5921737,0.039536674,-0.27458057,-0.7565529,-7.3926396,0.85431004,0.39766303,-4.307845,3.961418,0.8479753,0
0.5100000000000002,19.53790607308813,-4.742269385746053,5.098831812457395,2.182202889778925,14.707901,-3.275133,3.4256792,2.6152744,12.021595,-10.998008,1.1414819,-0.58215517,0.066493705,-0.27020335,-0.7639789,-7.344594,0.9466929,0.46484932,-4.3758674,4.138572,0.91344625,0
0.5200000000000002,19.30990932200444,-3.8855547798298886,4.496989667905056,1.955012266240081,14.30859,-2.839845,4.487368,2.2487044,11.948345,-10.988057,1.1464647,-0.5711123,0.09410711,-0.26583242,-0.7709134,-7.3069386,1.0444846,0.5316152,-4.4332705,4.2881103,0.97570455,0
0.5300000000000002,19.30990932200444,-3.8855547798298886,4.496989667905056,1.955012266240081,14.30859,-2.839845,4.487368,2.2487044,11.875418,-10.977107,1.1521009,-0.5591971,0.121856615,-0.2615487,-0.7772012,-7.280338,1.1462613,0.5954107,-4.34801,4.320603,1.0237595,0
0.5400000000000003,19.30990932200444,-3.8855547798298886,4.496989667905056,1.955012266240081,14.30859,-2.839845,4.487368,2.2487044,11.802703,-10.965116,1.1583673,-0.5465683,0.14932391,-0.25742924,-0.7827487,-7.264446,1.2528093,0.65753347,-4.276038,4.3480306,1.0694563,0
0.5500000000000003,19.30990932200444,-3.8855547798298886,4.496989667905056,1.955012266240081,14.30859,-2.839845,4.487368,2.2487044,11.730093,-10.952036,1.1652439,-0.53325784,0.17650844,-0.25342432,-0.78756386,-7.2592587,1.3637176,0.71738565,-4.215282,4.371184,1.1129109,0
0.5600000000000003,18.171272919443794,-2.5114267856539976,3.1875484269915395,1.6490325158893497,13.023074,-1.1725549,4.8948336,1.3464607,11.657481,-10.937827,1.1727052,-0.5192945,0.20340581,-0.24949211,-0.79165196,-7.2647543,1.47855,0.7743981,-4.163994,4.390728,1.1542331,0
0.5700000000000003,18.171272919443794,-2.5114267856539976,3.1875484269915395,1.6490325158893497,13.023074,-1.1725549,4.8948336,1.3464607,11.584765,-10.922488,1.1806754,-0.5049888,0.22932297,-0.24576023,-0.7949836,-7.279878,1.5898576,0.8190997,-3.9062028,4.203224,1.178513,0
0.5800000000000003,18.171272919443794,-2.5114267856539976,3.1875484269915395,1.6490325158893497,13.023074,-1.1725549,4.8948336,1.3464607,11.511851,-10.906021,1.1890751,-0.49063784,0.25372952,-0.24235076,-0.79759747,-7.304513,1.7038872,0.8602896,-3.6886277,4.0449414,1.2016016,0
0.5900000000000003,18.171272919443794,-2.5114267856539976,3.1875484269915395,1.6490325158893497,13.023074,-1.1725549,4.8948336,1.3464607,11.438645,-10.888403,1.1978681,-0.47624072,0.2768375,-0.2392197,-0.7995808,-7.3381476,1.82014,0.897711,-3.5049953,3.9113247,1.2235571,0
0.6000000000000003,17.165354188119906,-0.9166199246908835,1.5372708178265353,1.2835263427823584,11.094709,-0.8084739,2.992424,0.7224279,11.36506,-10.869613,1.2070156,-0.4617915,0.29882458,-0.23632637,-0.80100065,-7.3803277,1.9381691,0.9311501,-3.3500109,3.7985299,1.2444353,0
0.6100000000000003,17.165354188119906,-0.9166199246908835,1.5372708178265353,1.2835263427823584,11.094709,-0.8084739,2.992424,0.7224279,11.291024,-10.8496685,1.2164415,-0.44767517,0.3190339,-0.23383369,-0.8019512,-7.4277997,2.0509539,0.95340586,-2.9702435,3.4461918,1.2463535,0
0.6200000000000003,17.165354188119906,-0.9166199246908835,1.5372708178265353,1.2835263427823584,11.094709,-0.8084739,2.992424,0.7224279,11.216479,-10.82859,1.2260706,-0.43423608,0.3369807,-0.23188765,-0.8025651,-7.482147,2.1646554,0.9718338,-2.6497443,3.1487534,1.2481776,0
0.6300000000000003,17.165354188119906,-0.9166199246908835,1.5372708178265353,1.2835263427823584,11.094709,-0.8084739,2.992424,0.7224279,11.14136,-10.806372,1.2358655,-0.42140126,0.35303047,-0.23042525,-0.8029285,-7.542611,2.2789733,0.9865913,-2.3792636,2.8976605,1.2499123,0
0.6400000000000003,17.165354188119906,-0.9166199246908835,1.5372708178265353,1.2835263427823584,9.123647,-0.55640197,1.9671707,0.7776153,11.065609,-10.783009,1.2457904,-0.4090991,0.36748803,-0.22938718,-0.8031012,-7.6085525,2.3936768,0.9978385,-2.1509955,2.6856918,1.2515618,0
0.6500000000000004,17.165354188119906,-0.9166199246908835,1.5372708178265353,1.2835263427823584,9.123647,-0.55640197,1.9671707,0.7776153,10.989173,-10.758497,1.2558107,-0.39726186,0.3806073,-0.22871883,-0.80312407,-7.6794314,2.5085866,1.0057299,-1.958352,2.506751,1.2531303,0
0.6600000000000004,17.165354188119906,-0.9166199246908835,1.5372708178265353,1.2835263427823584,9.123647,-0.55640197,1.9671707,0.7776153,10.912005,-10.732837,1.2658939,-0.3858271,0.3926,-0.22837065,-0.8030249,-7.754797,2.623562,1.0104088,-1.7957733,2.355692,1.2546217,0
0.6700000000000004,17.165354188119906,-0.9166199246908835,1.5372708178265353,1.2835263427823584,9.123647,-0.55640197,1.9671707,0.7776153,10.834063,-10.706026,1.2760084,-0.37473837,0.40364248,-0.22829825,-0.802822,-7.834266,2.7384892,1.0120054,-1.6585677,2.2281702,1.2560402,0
0.6800000000000004,16.174259412422433,0.6021086793969235,-0.13195080138657517,0.920852723463991,0.2747945,-0.25583118,-0.099168025,-0.3170183,10.755306,-10.678067,1.2861239,-0.36394525,0.41388184,-0.22846209,-0.8025273,-7.917518,2.8532734,1.0106366,-1.5427752,2.120518,1.257389,0
0.6900000000000004,16.174259412422433,0.6021086793969235,-0.13195080138657517,0.920852723463991,0.2747945,-0.25583118,-0.099168025,-0.3170183,10.675725,-10.648994,1.2961842,-0.353848,0.42269912,-0.2290578,-0.80227727,-7.999219,2.9612303,1.0010222,-1.2079751,1.7695341,1.240875,0
0.7000000000000004,16.174259412422433,0.6021086793969235,-0.13195080138657517,0.920852723463991,0.2747945,-0.25583118,-0.099168025,-0.3170183,10.595312,-10.618843,1.3061364,-0.34478074,0.4296287,-0.2302476,-0.80220366,-8.083616,3.0689948,0.98908293,-0.9254388,1.4732363,1.2251714,0
0.7100000000000004,16.174259412422433,0.6021086793969235,-0.13195080138657517,0.920852723463991,0.2747945,-0.25583118,-0.099168025,-0.3170183,10.514045,-10.587615,1.3159591,-0.33660716,0.43498498,-0.23195033,-0.8022979,-8.170145,3.1766176,0.9751857,-0.687007,1.223105,1.2102386,0
0.7200000000000004,15.608518982255953,1.9520376811048914,-1.734836139918732,0.5622911219928385,0.51518697,-0.27734587,-0.20645438,-0.5150639,10.431903,-10.55531,1.3256344,-0.3292065,0.43902788,-0.23409352,-0.80254406,-8.25834,3.2841618,0.95964676,-0.48579434,1.0119478,1.1960384,0
0.7300000000000004,15.608518982255953,1.9520376811048914,-1.734836139918732,0.5622911219928385,0.51518697,-0.27734587,-0.20645438,-0.5150639,10.348888,-10.521951,1.3351331,-0.32289746,0.44129294,-0.23681864,-0.8030653,-8.344637,3.387946,0.9399313,-0.10527024,0.5838871,1.1649402,0
0.7400000000000004,15.608518982255953,1.9520376811048914,-1.734836139918732,0.5622911219928385,0.51518697,-0.27734587,-0.20645438,-0.5150639,10.265009,-10.487552,1.3444302,-0.31793422,0.44142747,-0.24023558,-0.8039563,-8.431511,3.4918787,0.91937846,0.21584462,0.22252311,1.1353682,0
0.7500000000000004,15.608518982255953,1.9520376811048914,-1.734836139918732,0.5622911219928385,0.51518697,-0.27734587,-0.20645438,-0.5150639,10.18026,-10.452112,1.3535196,-0.3141266,0.4397747,-0.24423888,-0.8051517,-8.518357,3.5961244,0.89843386,0.48682716,-0.0825344,1.1072472,0
0.7600000000000005,15.809696781365089,2.8904042115669415,-3.0228048375652383,0.22543187696792252,0.57832325,-0.5723997,-0.1243744,-0.7952484,10.094645,-10.415628,1.3623989,-0.3113084,0.4366175,-0.2487352,-0.8065868,-8.604669,3.7008326,0.87746483,0.71550596,-0.3400575,1.0805061,0
0.7700000000000005,15.809696781365089,2.8904042115669415,-3.0228048375652383,0.22543187696792252,0.57832325,-0.5723997,-0.1243744,-0.7952484,10.008164,-10.378088,1.3710748,-0.30966064,0.43166694,-0.25376746,-0.80831623,-8.691071,3.8074996,0.8577946,1.0549542,-0.75822026,1.0385473,0
0.7800000000000005,15.809696781365089,2.8904042115669415,-3.0228048375652383,0.22543187696792252,0.57832325,-0.5723997,-0.1243744,-0.7952484,9.920828,-10.339477,1.3795574,-0.3093186,0.42469978,-0.2593597,-0.81036025,-8.775837,3.9149392,0.8388491,1.341402,-1.1112218,0.99864745,0
0.7900000000000005,15.809696781365089,2.8904042115669415,-3.0228048375652383,0.22543187696792252,0.57832325,-0.5723997,-0.1243744,-0.7952484,9.832655,-10.299787,1.3878556,-0.31008357,0.4160168,-0.26540825,-0.81261045,-8.858364,4.023296,0.8210118,1.5831274,-1.409214,0.9607055,0
0.8000000000000005,16.434490020030502,3.315418867563465,-3.685484505887131,-0.015243719208170798,0.097993046,-0.08545835,0.038782474,0.085031934,9.74367,-10.2590065,1.3959824,-0.3117832,0.40586805,-0.27182215,-0.8149688,-8.938115,4.132677,0.8045762,1.7871151,-1.6607667,0.9246254,0
0.8100000000000005,16.434490020030502,3.315418867563465,-3.685484505887131,-0.015243719208170798,0.097993046,-0.08545835,0.038782474,0.085031934,9.653889,-10.217107,1.403969,-0.31443304,0.3942003,-0.2785654,-0.81739736,-9.017622,4.247521,0.79306316,2.0255845,-1.9764372,0.8785057,0
0.8200000000000005,16.434490020030502,3.315418867563465,-3.685484505887131,-0.015243719208170798,0.097993046,-0.08545835,0.038782474,0.085031934,9.563332,-10.174053,1.4118503,-0.31803453,0.38097715,-0.28559875,-0.81984323,-9.093167,4.363555,0.78348655,2.2268221,-2.2429106,0.83464915,0
0.8300000000000005,16.434490020030502,3.315418867563465,-3.685484505887131,-0.015243719208170798,0.097993046,-0.08545835,0.038782474,0.085031934,9.472041,-10.129831,1.4196461,-0.32242918,0.36641437,-0.2928433,-0.8222054,-9.164205,4.4807897,0.77603143,2.3966434,-2.4678516,0.7929446,0
0.8400000000000005,16.434490020030502,3.315418867563465,-3.685484505887131,-0.015243719208170798,0.15578115,0.05371553,0.0074216984,-0.0779566,9.380064,-10.084432,1.4273785,-0.32747993,0.35069478,-0.30023077,-0.8243971,-9.230248,4.5991926,0.77080595,2.5399554,-2.6577325,0.75328654,0
0.8500000000000005,16.434490020030502,3.315418867563465,-3.685484505887131,-0.015243719208170798,0.15578115,0.05371553,0.0074216984,-0.0779566,9.287455,-10.037843,1.4350702,-0.33306834,0.33397424,-0.3077022,-0.8263444,-9.290857,4.7186923,0.76785165,2.660898,-2.8180158,0.7155745,0
0.8600000000000005,16.434490020030502,3.315418867563465,-3.685484505887131,-0.015243719208170798,0.15578115,0.05371553,0.0074216984,-0.0779566,9.194267,-9.990054,1.4427434,-0.33909217,0.3163864,-0.31520694,-0.82798535,-9.34564,4.839182,0.76715344,2.7629645,-2.953314,0.679713,0
0.8700000000000006,16.434490020030502,3.315418867563465,-3.685484505887131,-0.015243719208170798,0.15578115,0.05371553,0.0074216984,-0.0779566,9.100563,-9.941056,1.4504207,-0.3454631,0.29804653,-0.3227016,-0.8292685,-9.394245,4.960525,0.7686475,2.849102,-3.0675209,0.6456113,0
0.8800000000000006,16.982449826937174,3.268689900868006,-3.801493539899861,-0.24325081283569075,-0.08026244,0.27661645,0.01775831,-0.7550625,9.006405,-9.890841,1.4581234,-0.35210466,0.27905437,-0.3301491,-0.8301516,-9.436364,5.0825596,0.7722287,2.9217978,-3.163923,0.61318296,0
0.8900000000000006,16.982449826937174,3.268689900868006,-3.801493539899861,-0.24325081283569075,-0.08026244,0.27661645,0.01775831,-0.7550625,8.911852,-9.839382,1.4658891,-0.3589845,0.2594742,-0.33747807,-0.83060884,-9.472903,5.209183,0.7812149,2.975846,-3.2634118,0.5711575,0
0.9000000000000006,16.982449826937174,3.268689900868006,-3.801493539899861,-0.24325081283569075,-0.08026244,0.27661645,0.01775831,-0.7550625,8.81697,-9.786656,1.473754,-0.36607555,0.23936534,-0.34462884,-0.83061606,-9.502209,5.336101,0.7920595,3.021459,-3.3473868,0.5311942,0
0.9100000000000006,16.982449826937174,3.268689900868006,-3.801493539899861,-0.24325081283569075,-0.08026244,0.27661645,0.01775831,-0.7550625,8.721832,-9.73266,1.4817361,-0.37332323,0.21880282,-0.3515883,-0.8301446,-9.524063,5.463067,0.8045828,3.0599542,-3.418267,0.49319193,0
0.9200000000000006,17.146315081430977,2.739629882419837,-3.4067389592553736,-0.40396734893487135,-0.20384037,0.13722003,-0.014587592,-0.5580269,8.626515,-9.677395,1.4898509,-0.3806795,0.19785237,-0.35834548,-0.8291715,-9.53829,5.589824,0.81857985,3.0924437,-3.4780936,0.45705447,0
0.9300000000000006,17.146315081430977,2.739629882419837,-3.4067389592553736,-0.40396734893487135,-0.20384037,0.13722003,-0.014587592,-0.5580269,8.531094,-9.620859,1.4981176,-0.38802266,0.17679185,-0.36477372,-0.8277212,-9.5448265,5.7173214,0.8349188,3.0373237,-3.467066,0.41480386,0
0.9400000000000006,17.146315081430977,2.739629882419837,-3.4067389592553736,-0.40396734893487135,-0.20384037,0.13722003,-0.014587592,-0.5580269,8.435646,-9.563052,1.5065528,-0.39526507,0.15585205,-0.37078,-0.8258311,-9.543553,5.844056,0.8522801,2.9908054,-3.457749,0.3746265,0
0.9500000000000006,17.146315081430977,2.739629882419837,-3.4067389592553736,-0.40396734893487135,-0.20384037,0.13722003,-0.014587592,-0.5580269,8.34025,-9.503983,1.5151659,-0.40241194,0.1350228,-0.37640086,-0.82350165,-9.534542,5.969756,0.8704263,2.951547,-3.449877,0.33642066,0
0.9600000000000006,16.824725390373526,1.8640949962762199,-2.662462665696456,-0.4909714140743568,14.892625,0.9051951,-1.4590411,-0.30866006,8.244982,-9.443662,1.5239633,-0.40946558,0.11429609,-0.38166735,-0.8207335,-9.517869,6.0941577,0.8891219,2.9184158,-3.4432259,0.3000896,0
0.9700000000000006,16.824725390373526,1.8640949962762199,-2.662462665696456,-0.4909714140743568,14.892625,0.9051951,-1.4590411,-0.30866006,8.149916,-9.382117,1.5329385,-0.41628572,0.094059184,-0.3864425,-0.8176309,-9.494105,6.214706,0.9059401,2.7538874,-3.3215683,0.26127204,0
0.9800000000000006,16.824725390373526,1.8640949962762199,-2.662462665696456,-0.4909714140743568,14.892625,0.9051951,-1.4590411,-0.30866006,8.055123,-9.319374,1.5420825,-0.42277807,0.07462372,-0.3906331,-0.81430626,-9.463248,6.333525,0.9228748,2.6150298,-3.2188678,0.22435923,0
0.9900000000000007,16.824725390373526,1.8640949962762199,-2.662462665696456,-0.4909714140743568,14.892625,0.9051951,-1.4590411,-0.30866006,7.960674,-9.255453,1.5513958,-0.42900196,0.055880845,-0.3943211,-0.81076777,-9.425643,6.4504375,0.9397562,2.4978373,-3.132171,0.18925774,0
1.0000000000000007,16.71410498838708,0.913279281565848,-1.76277447862868,-0.5169233236000077,-0.5367667,-0.4223411,-0.46782956,-0.7046252,7.8666325,-9.190373,1.5608768,-0.43500432,0.037737377,-0.39757472,-0.8070195,-9.381593,6.5652847,0.9564315,2.39893,-3.0589848,0.15587871,0
1.0100000000000007,16.71410498838708,0.913279281565848,-1.76277447862868,-0.5169233236000077,-0.5367667,-0.4223411,-0.46782956,-0.7046252,7.7730613,-9.124161,1.5705193,-0.4406719,0.020571576,-0.40030393,-0.80320656,-9.331737,6.677193,0.9720151,2.1671615,-2.8569121,0.12286413,0
1.0200000000000007,16.71410498838708,0.913279281565848,-1.76277447862868,-0.5169233236000077,-0.5367667,-0.4223411,-0.46782956,-0.7046252,7.6800175,-9.056839,1.5803156,-0.445932,0.0046796845,-0.40245363,-0.79947025,-9.276269,6.7868595,0.9871853,1.9715503,-2.6863382,0.09146958,0
1.0300000000000007,16.71410498838708,0.913279281565848,-1.76277447862868,-0.5169233236000077,-0.5367667,-0.4223411,-0.46782956,-0.7046252,7.5875535,-8.988431,1.5902615,-0.4508699,-0.010123582,-0.4041208,-0.79580086,-9.215673,6.8942604,1.0018991,1.8064554,-2.542354,0.061615553,0
1.0400000000000007,16.71410498838708,0.913279281565848,-1.76277447862868,-0.5169233236000077,-0.15124671,-0.5126706,-0.72991073,-0.955611,7.49572,-8.918961,1.6003519,-0.4555534,-0.023996238,-0.40538496,-0.79218495,-9.150363,6.999385,1.016127,1.6671152,-2.4208157,0.03322647,0
1.0500000000000007,16.71410498838708,0.913279281565848,-1.76277447862868,-0.5169233236000077,-0.15124671,-0.5126706,-0.72991073,-0.955611,7.404561,-8.848451,1.6105822,-0.4600365,-0.037072826,-0.4063115,-0.7886075,-9.080688,7.102225,1.0298475,1.5495119,-2.3182247,0.0062304763,0
1.0600000000000007,16.71410498838708,0.913279281565848,-1.76277447862868,-0.5169233236000077,-0.15124671,-0.5126706,-0.72991073,-0.955611,7.3141193,-8.776924,1.6209471,-0.4643619,-0.049467783,-0.40695417,-0.7850529,-9.00695,7.2027755,1.0430439,1.4502542,-2.2316272,-0.019440833,0
1.0700000000000007,16.71410498838708,0.913279281565848,-1.76277447862868,-0.5169233236000077,-0.15124671,-0.5126706,-0.72991073,-0.955611,7.224435,-8.704404,1.6314412,-0.4685636,-0.061278358,-0.40735725,-0.7815062,-8.929408,7.301033,1.0557019,1.3664798,-2.1585307,-0.043852445,0
1.0800000000000007,16.145096843445238,0.05356937171967009,-1.1045661156246982,-0.44347360435152877,0.045949545,-0.4749746,-0.9193397,-0.7186052,7.135544,-8.630912,1.6420592,-0.4726682,-0.072587155,-0.40755737,-0.77795345,-8.848283,7.3969913,1.0678078,1.2957733,-2.0968306,-0.06706617,0
1.0900000000000007,16.145096843445238,0.05356937171967009,-1.1045661156246982,-0.44347360435152877,0.045949545,-0.4749746,-0.9193397,-0.7186052,7.0474663,-8.556487,1.6527768,-0.4766101,-0.08310054,-0.40744296,-0.77454895,-8.76667,7.4874654,1.0756278,1.1020354,-1.9420925,-0.08553659,0
1.1000000000000008,16.145096843445238,0.05356937171967009,-1.1045661156246982,-0.44347360435152877,0.045949545,-0.4749746,-0.9193397,-0.7186052,6.96022,-8.48117,1.6635702,-0.48034576,-0.09259086,-0.40693375,-0.7714263,-8.682146,7.575782,1.0829854,0.93851435,-1.8114825,-0.103100665,0
1.1100000000000008,16.145096843445238,0.05356937171967009,-1.1045661156246982,-0.44347360435152877,0.045949545,-0.4749746,-0.9193397,-0.7186052,6.873832,-8.404979,1.6744351,-0.4839221,-0.10121193,-0.40609804,-0.76854324,-8.595046,7.6620154,1.0899708,0.8004966,-1.701239,-0.11980286,0
1.1200000000000008,15.488213670768678,-0.7262618324229877,-0.4142388520555082,-0.29916170179226037,0.1406583,-0.43443587,-1.1502603,-0.5885902,6.788327,-8.327936,1.6853685,-0.4873761,-0.10909401,-0.40499178,-0.76586133,-8.505651,7.7462325,1.0966648,0.6840043,-1.6081862,-0.13568546,0
1.1300000000000008,15.488213670768678,-0.7262618324229877,-0.4142388520555082,-0.29916170179226037,0.1406583,-0.43443587,-1.1502603,-0.5885902,6.7037077,-8.250078,1.6963465,-0.49064717,-0.115991026,-0.40355596,-0.7635135,-8.417943,7.8251567,1.0988952,0.46408305,-1.421974,-0.14370729,0
1.1400000000000008,15.488213670768678,-0.7262618324229877,-0.4142388520555082,-0.29916170179226037,0.1406583,-0.43443587,-1.1502603,-0.5885902,6.619974,-8.171439,1.7073463,-0.49369153,-0.12171539,-0.40174934,-0.7616103,-8.32863,7.9023438,1.1010623,0.27845785,-1.2648023,-0.1513355,0
1.1500000000000008,15.488213670768678,-0.7262618324229877,-0.4142388520555082,-0.29916170179226037,0.1406583,-0.43443587,-1.1502603,-0.5885902,6.5371394,-8.092037,1.718368,-0.49655634,-0.12644748,-0.3996365,-0.760087,-8.238048,7.97793,1.1033093,0.121780045,-1.1321423,-0.15858936,0
1.1600000000000008,14.845313474912189,-1.3780414543908277,0.1530447831180656,-0.11348694248723994,16.515436,-3.9253082,-3.004875,3.7501621,6.455216,-8.011887,1.7294133,-0.4992786,-0.13033958,-0.39726993,-0.758886,-8.146473,8.052036,1.105761,-0.010464635,-1.020172,-0.1654873,0
1.1700000000000008,14.845313474912189,-1.3780414543908277,0.1530447831180656,-0.11348694248723994,16.515436,-3.9253082,-3.004875,3.7501621,6.3741937,-7.9310164,1.7404635,-0.5018147,-0.13322678,-0.39460546,-0.7581016,-8.057993,8.121757,1.1043482,-0.2237163,-0.83718693,-0.16293564,0
1.1800000000000008,14.845313474912189,-1.3780414543908277,0.1530447831180656,-0.11348694248723994,16.515436,-3.9253082,-3.004875,3.7501621,6.2940583,-7.849455,1.7515018,-0.50412977,-0.13498598,-0.39161015,-0.7578076,-7.9691124,8.190317,1.1033973,-0.4037154,-0.68274236,-0.16050918,0
1.1900000000000008,14.845313474912189,-1.3780414543908277,0.1530447831180656,-0.11348694248723994,16.515436,-3.9253082,-3.004875,3.7501621,6.2148123,-7.7672133,1.7625335,-0.50626093,-0.13579187,-0.38833728,-0.7579271,-7.8801274,8.257866,1.1030576,-0.55564666,-0.5523867,-0.15820177,0
1.2000000000000008,13.388123421218156,-1.6519476545080314,0.24829788937330874,0.07484024952495309,14.606947,-5.1365905,-3.0484397,4.061509,6.1364555,-7.6843004,1.7735654,-0.5082373,-0.1357917,-0.38483047,-0.758393,-7.7912874,8.32453,1.1034547,-0.6838868,-0.44236276,-0.15600762,0
1.2100000000000009,13.388123421218156,-1.6519476545080314,0.24829788937330874,0.07484024952495309,14.606947,-5.1365905,-3.0484397,4.061509,6.058942,-7.600757,1.7845567,-0.5100646,-0.13503397,-0.3810584,-0.75920576,-7.711495,8.383948,1.0949463,-0.83484185,-0.33464527,-0.14467984,0
1.2200000000000009,13.388123421218156,-1.6519476545080314,0.24829788937330874,0.07484024952495309,14.606947,-5.1365905,-3.0484397,4.061509,5.982224,-7.516623,1.7954674,-0.51174426,-0.13356416,-0.3769965,-0.7603625,-7.632228,8.442751,1.087306,-0.96225864,-0.24373023,-0.13390793,0
1.2300000000000009,13.388123421218156,-1.6519476545080314,0.24829788937330874,0.07484024952495309,14.606947,-5.1365905,-3.0484397,4.061509,5.9062953,-7.4319034,1.8063064,-0.5132916,-0.13149294,-0.37268642,-0.7618038,-7.553667,8.501011,1.0806284,-1.0698074,-0.16699663,-0.12366459,0
1.2400000000000009,13.388123421218156,-1.6519476545080314,0.24829788937330874,0.07484024952495309,14.490194,-5.170936,-3.0297558,4.0016384,5.8311477,-7.346604,1.8170837,-0.5147192,-0.12891367,-0.36816302,-0.7634791,-7.475968,8.558786,1.0749885,-1.160586,-0.10223172,-0.11392389,0
1.2500000000000009,13.388123421218156,-1.6519476545080314,0.24829788937330874,0.07484024952495309,14.490194,-5.170936,-3.0297558,4.0016384,5.7567725,-7.260729,1.82781,-0.51603705,-0.12590513,-0.36345544,-0.7653449,-7.3992662,8.616126,1.0704455,-1.2372092,-0.04756856,-0.10466118,0
1.260000000000001,13.388123421218156,-1.6519476545080314,0.24829788937330874,0.07484024952495309,14.490194,-5.170936,-3.0297558,4.0016384,5.683159,-7.1742826,1.8384966,-0.51725346,-0.12253386,-0.35858816,-0.76736426,-7.3236785,8.673068,1.0670452,-1.3018844,-0.0014315043,-0.09585299,0
1.270000000000001,13.388123421218156,-1.6519476545080314,0.24829788937330874,0.07484024952495309,14.490194,-5.170936,-3.0297558,4.0016384,5.610295,-7.0872693,1.8491551,-0.5183752,-0.11885608,-0.35358182,-0.7695059,-7.2493076,8.729643,1.0648211,-1.3564744,0.037509732,-0.08747701,0
1.280000000000001,11.551481991699529,-1.5415515316094925,-0.2110570901606174,0.25805372965124057,13.184822,-4.75924,-1.1661046,3.8356972,5.538168,-6.9996915,1.8597972,-0.5194081,-0.11491927,-0.34845394,-0.7717433,-7.176244,8.785872,1.0637968,-1.4025518,0.07037751,-0.07951205,0
1.290000000000001,11.551481991699529,-1.5415515316094925,-0.2110570901606174,0.25805372965124057,13.184822,-4.75924,-1.1661046,3.8356972,5.466716,-6.9115915,1.8703679,-0.5203984,-0.11093643,-0.3431554,-0.7740298,-7.1143928,8.834099,1.0505035,-1.4242313,0.026473697,-0.0629476,0
1.300000000000001,11.551481991699529,-1.5415515316094925,-0.2110570901606174,0.25805372965124057,13.184822,-4.75924,-1.1661046,3.8356972,5.395876,-6.823011,1.880811,-0.52138007,-0.10708009,-0.33764824,-0.7763307,-7.053754,8.881992,1.0382675,-1.4425288,-0.010583362,-0.047195967,0
1.310000000000001,11.551481991699529,-1.5415515316094925,-0.2110570901606174,0.25805372965124057,13.184822,-4.75924,-1.1661046,3.8356972,5.3256364,-6.7339535,1.891137,-0.52234155,-0.10333255,-0.33196104,-0.7786415,-6.994337,8.929502,1.0270927,-1.4579719,-0.04186098,-0.032217294,0
1.320000000000001,9.893484198328988,-1.3729073918896972,-0.6448008141099202,0.4517789565265296,13.661163,-4.4824986,-1.1517099,3.7658138,5.2559853,-6.644423,1.9013566,-0.5232735,-0.09967867,-0.3261182,-0.78095776,-6.936152,8.976579,1.0169793,-1.471006,-0.068260275,-0.01797361,0
1.330000000000001,9.893484198328988,-1.3729073918896972,-0.6448008141099202,0.4517789565265296,13.661163,-4.4824986,-1.1517099,3.7658138,5.1868687,-6.5544577,1.9114164,-0.5241996,-0.09628434,-0.32009998,-0.7832492,-6.8873777,9.01649,0.99514276,-1.4557064,-0.15819356,0.0050772806,0
1.340000000000001,9.893484198328988,-1.3729073918896972,-0.6448008141099202,0.4517789565265296,13.661163,-4.4824986,-1.1517099,3.7658138,5.1182346,-6.4640956,1.9212625,-0.52513516,-0.09328169,-0.31389204,-0.78549504,-6.839635,9.055921,0.97420377,-1.4427905,-0.23410022,0.02699705,0
1.350000000000001,9.893484198328988,-1.3729073918896972,-0.6448008141099202,0.4517789565265296,13.661163,-4.4824986,-1.1517099,3.7658138,5.050072,-6.373341,1.9309037,-0.5260629,-0.090613045,-0.30752066,-0.7877038,-6.79289,9.094796,0.95415217,-1.431887,-0.29816812,0.047841225,0
1.360000000000001,8.896025890763717,-1.3658091251287188,-0.9018044727815847,0.656328580517292,-0.93410033,-0.7784115,-0.07973003,-0.35361555,4.9823728,-6.282201,1.9403486,-0.5269684,-0.08822931,-0.30100808,-0.7898817,-6.747117,9.133054,0.9349767,-1.4226831,-0.35224336,0.06766258,0
1.370000000000001,8.896025890763717,-1.3658091251287188,-0.9018044727815847,0.656328580517292,-0.93410033,-0.7784115,-0.07973003,-0.35361555,4.9151034,-6.1907005,1.9495661,-0.5278509,-0.08617907,-0.2943189,-0.7920367,-6.706812,9.166846,0.9086214,-1.4138018,-0.43797338,0.096548595,0
1.380000000000001,8.896025890763717,-1.3658091251287188,-0.9018044727815847,0.656328580517292,-0.93410033,-0.7784115,-0.07973003,-0.35361555,4.848233,-6.0988655,1.9585238,-0.5287054,-0.08449942,-0.28742564,-0.7941764,-6.667331,9.199964,0.8830355,-1.4063038,-0.5103322,0.124017164,0
1.390000000000001,8.896025890763717,-1.3658091251287188,-0.9018044727815847,0.656328580517292,-0.93410033,-0.7784115,-0.07973003,-0.35361555,4.781754,-6.0067034,1.9672294,-0.5295165,-0.08313605,-0.28035626,-0.7963041,-6.6286507,9.232342,0.8582106,-1.3999742,-0.5714055,0.15013786,0
1.400000000000001,8.047204098198472,-1.2889449036641683,-0.8432139398311375,0.8339350707497863,-1.0256575,-0.66789746,-0.24098699,-0.004029996,4.7156577,-5.9142213,1.9756905,-0.530272,-0.0820427,-0.27313456,-0.79842174,-6.5907483,9.263923,0.8341363,-1.394631,-0.6229531,0.17497678,0
1.410000000000001,8.047204098198472,-1.2889449036641683,-0.8432139398311375,0.8339350707497863,-1.0256575,-0.66789746,-0.24098699,-0.004029996,4.649919,-5.8214426,1.983879,-0.530936,-0.08118348,-0.26581597,-0.8005356,-6.557151,9.291727,0.8036662,-1.3781316,-0.65732986,0.20731206,0
1.420000000000001,8.047204098198472,-1.2889449036641683,-0.8432139398311375,0.8339350707497863,-1.0256575,-0.66789746,-0.24098699,-0.004029996,4.5845127,-5.7283897,1.991766,-0.5314781,-0.08052822,-0.2584456,-0.80265266,-6.5242267,9.318735,0.77384645,-1.3642055,-0.68634385,0.23806064,0
1.430000000000001,8.047204098198472,-1.2889449036641683,-0.8432139398311375,0.8339350707497863,-1.0256575,-0.66789746,-0.24098699,-0.004029996,4.519432,-5.6350713,1.9993582,-0.5318975,-0.08004807,-0.25102815,-0.8047742,-6.4919624,9.34492,0.74465877,-1.3524513,-0.7108317,0.26730037,0
1.440000000000001,8.047204098198472,-1.2889449036641683,-0.8432139398311375,0.8339350707497863,-1.0819988,-0.68434274,-0.26193488,0.029609513,4.454671,-5.5414944,2.0066614,-0.5321941,-0.07971829,-0.24356784,-0.80690056,-6.460346,9.370261,0.7160849,-1.3425307,-0.73149925,0.29510528,0
1.450000000000001,8.047204098198472,-1.2889449036641683,-0.8432139398311375,0.8339350707497863,-1.0819988,-0.68434274,-0.26193488,0.029609513,4.3902225,-5.4476686,2.0136821,-0.53236854,-0.07951771,-0.23606817,-0.8090314,-6.4293694,9.394736,0.68810654,-1.3341578,-0.7489425,0.32154584,0
1.460000000000001,8.047204098198472,-1.2889449036641683,-0.8432139398311375,0.8339350707497863,-1.0819988,-0.68434274,-0.26193488,0.029609513,4.3260813,-5.353603,2.0204258,-0.53242207,-0.079428114,-0.22853227,-0.81116605,-6.399025,9.418326,0.6607053,-1.3270912,-0.7636645,0.34668893,0
1.470000000000001,8.047204098198472,-1.2889449036641683,-0.8432139398311375,0.8339350707497863,-1.0819988,-0.68434274,-0.26193488,0.029609513,4.2622395,-5.259306,2.0268981,-0.53235626,-0.07943389,-0.22096285,-0.8133032,-6.369306,9.441015,0.6338631,-1.3211274,-0.7760895,0.37059823,0
1.480000000000001,7.499807398059823,-1.243003825644211,-0.7144712737900364,0.9678530410631172,-0.5371012,-0.86021245,-0.5034728,-0.6410974,4.1986923,-5.1647863,2.0331051,-0.53217304,-0.079521574,-0.21336232,-0.8154412,-6.3402085,9.462787,0.60756147,-1.3160943,-0.78657573,0.3933343,0
1.490000000000001,7.499807398059823,-1.243003825644211,-0.7144712737900364,0.9678530410631172,-0.5371012,-0.86021245,-0.5034728,-0.6410974,4.1354237,-5.0700607,2.0390267,-0.5318487,-0.07965083,-0.20577395,-0.8175875,-6.313666,9.482209,0.57686204,-1.3046844,-0.77535206,0.4215261,0
1.500000000000001,7.499807398059823,-1.243003825644211,-0.7144712737900364,0.9678530410631172,-0.5371012,-0.86021245,-0.5034728,-0.6410974,4.0724173,-4.975146,2.0446436,-0.53136426,-0.07978915,-0.19823222,-0.81974953,-6.2876973,9.500766,0.5466289,-1.2950548,-0.7658779,0.44833452,0
1.5100000000000011,7.499807398059823,-1.243003825644211,-0.7144712737900364,0.9678530410631172,-0.5371012,-0.86021245,-0.5034728,-0.6410974,4.009668,-4.8800488,2.0499606,-0.5307277,-0.07993628,-0.19072731,-0.82192516,-6.262302,9.518457,0.5168422,-1.2869272,-0.7578803,0.47382745,0
1.5200000000000011,7.169552502040029,-1.2642177501997653,-0.31015338066793147,1.0792309181961464,-0.50155866,-0.81464297,-0.48764372,-0.6185228,3.9471693,-4.784779,2.0549822,-0.5299463,-0.080091834,-0.18325101,-0.8241121,-6.2374783,9.535284,0.48748273,-1.2800677,-0.7511287,0.49806944,0
1.5300000000000011,7.169552502040029,-1.2642177501997653,-0.31015338066793147,1.0792309181961464,-0.50155866,-0.81464297,-0.48764372,-0.6185228,3.8849108,-4.6893487,2.059697,-0.5289871,-0.080119826,-0.17587408,-0.82633,-6.214296,9.550547,0.45548686,-1.2776054,-0.6823817,0.5265872,0
1.5400000000000011,7.169552502040029,-1.2642177501997653,-0.31015338066793147,1.0792309181961464,-0.50155866,-0.81464297,-0.48764372,-0.6185228,3.8228812,-4.5937705,2.064093,-0.527825,-0.07991222,-0.16865222,-0.82859564,-6.1916766,9.565017,0.4238635,-1.2755265,-0.62435484,0.5537056,0
1.5500000000000012,7.169552502040029,-1.2642177501997653,-0.31015338066793147,1.0792309181961464,-0.50155866,-0.81464297,-0.48764372,-0.6185228,3.7610753,-4.498051,2.0681748,-0.5264768,-0.07950619,-0.16155879,-0.83090264,-6.1696377,9.578726,0.3925954,-1.2737708,-0.57537615,0.5794933,0
1.5600000000000012,7.478845818566575,-1.4535814395277447,0.2105112479959553,1.2280849497489204,-0.43517658,-0.43164307,-0.5158577,-0.13563626,3.6994867,-4.4021983,2.0719461,-0.5249569,-0.07893299,-0.15457144,-0.8332449,-6.148194,9.591701,0.36166665,-1.2722882,-0.53403455,0.6040156,0
1.5700000000000012,7.478845818566575,-1.4535814395277447,0.2105112479959553,1.2280849497489204,-0.43517658,-0.43164307,-0.5158577,-0.13563626,3.638114,-4.3062167,2.075424,-0.5232364,-0.07800823,-0.14771594,-0.8356542,-6.1264634,9.604497,0.3339745,-1.300598,-0.41796014,0.63463885,0
1.5800000000000012,7.478845818566575,-1.4535814395277447,0.2105112479959553,1.2280849497489204,-0.43517658,-0.43164307,-0.5158577,-0.13563626,3.576955,-4.210111,2.0786266,-0.52129257,-0.07658683,-0.14101098,-0.8381551,-6.1054163,9.616608,0.3066106,-1.3244902,-0.3199854,0.66375947,0
1.5900000000000012,7.478845818566575,-1.4535814395277447,0.2105112479959553,1.2280849497489204,-0.43517658,-0.43164307,-0.5158577,-0.13563626,3.5160031,-4.113887,2.081557,-0.5191446,-0.074746065,-0.13442992,-0.8407319,-6.085101,9.628084,0.27956557,-1.3446534,-0.23728749,0.6914511,0
1.6000000000000012,8.549837851007402,-1.8287112401388999,0.8407733555860494,1.4550281873877506,-0.25791267,-0.35692525,-0.7263614,-0.40280488,3.4552505,-4.017551,2.0842187,-0.5168084,-0.07255115,-0.12795043,-0.84337044,-6.0655584,9.638968,0.25282958,-1.3616691,-0.16748469,0.71778387,0
1.6100000000000012,8.549837851007402,-1.8287112401388999,0.8407733555860494,1.4550281873877506,-0.25791267,-0.35692525,-0.7263614,-0.40280488,3.3947027,-3.9211016,2.086666,-0.5142525,-0.06977021,-0.12155507,-0.846109,-6.0441494,9.650782,0.2366561,-1.434577,-0.010315385,0.75396067,0
1.6200000000000012,8.549837851007402,-1.8287112401388999,0.8407733555860494,1.4550281873877506,-0.25791267,-0.35692525,-0.7263614,-0.40280488,3.334364,-3.824537,2.0889533,-0.5114489,-0.06622202,-0.11522753,-0.848974,-6.0237675,9.662035,0.2208228,-1.4961097,0.12234784,0.78836226,0
1.6300000000000012,8.549837851007402,-1.8287112401388999,0.8407733555860494,1.4550281873877506,-0.25791267,-0.35692525,-0.7263614,-0.40280488,3.2742233,-3.7278624,2.0910838,-0.5084145,-0.062025614,-0.108952485,-0.8519369,-6.0045133,9.672796,0.20532624,-1.5480413,0.23432638,0.82107574,0
1.6400000000000012,8.549837851007402,-1.8287112401388999,0.8407733555860494,1.4550281873877506,-0.30237994,-0.3117928,-0.7402261,-0.30279267,3.2142692,-3.6310823,2.093061,-0.5051632,-0.057281524,-0.102717474,-0.8549724,-5.9864726,9.683118,0.19015877,-1.591869,0.32884577,0.852184,0
1.6500000000000012,8.549837851007402,-1.8287112401388999,0.8407733555860494,1.4550281873877506,-0.30237994,-0.3117928,-0.7402261,-0.30279267,3.1544895,-3.5342014,2.094888,-0.5017064,-0.052074667,-0.096512474,-0.85805833,-5.9697175,9.693044,0.17530888,-1.6288564,0.4086287,0.8817658,0
1.6600000000000013,8.549837851007402,-1.8287112401388999,0.8407733555860494,1.4550281873877506,-0.30237994,-0.3117928,-0.7402261,-0.30279267,3.0948706,-3.4372227,2.0965683,-0.49805418,-0.046476826,-0.09032948,-0.861175,-5.954312,9.702604,0.16076162,-1.6600711,0.47597295,0.90989596,0
1.6700000000000013,8.549837851007402,-1.8287112401388999,0.8407733555860494,1.4550281873877506,-0.30237994,-0.3117928,-0.7402261,-0.30279267,3.0353987,-3.3401504,2.0981045,-0.494215,-0.0405487,-0.0841622,-0.86430544,-5.940308,9.711822,0.1464991,-1.6864134,0.5328185,0.93664575,0
1.6800000000000013,9.779093386817358,-2.194926791287517,1.2351536083952726,1.66602597442701,0.23893164,-0.7181659,-0.9524084,-1.0049186,2.9760594,-3.2429874,2.0994995,-0.4901965,-0.03434164,-0.07800576,-0.86743474,-5.927752,9.720712,0.13250071,-1.7086436,0.580802,0.962083,0
1.6900000000000013,9.779093386817358,-2.194926791287517,1.2351536083952726,1.66602597442701,0.23893164,-0.7181659,-0.9524084,-1.0049186,2.9168465,-3.145731,2.100816,-0.48597494,-0.02769239,-0.07180524,-0.87057763,-5.9150996,9.730521,0.13087097,-1.7845583,0.6827603,0.99662566,0
1.7000000000000013,9.779093386817358,-2.194926791287517,1.2351536083952726,1.66602597442701,0.23893164,-0.7181659,-0.9524084,-1.0049186,2.8577511,-3.0483782,2.1021178,-0.48152632,-0.020474056,-0.06551575,-0.8737395,-5.904254,9.739991,0.12949456,-1.8486272,0.7688247,1.0294733,0
1.7100000000000013,9.779093386817358,-2.194926791287517,1.2351536083952726,1.66602597442701,0.23893164,-0.7181659,-0.9524084,-1.0049186,2.7987547,-2.9509323,2.1034067,-0.4768569,-0.012775844,-0.05914791,-0.8768955,-5.895314,9.74914,0.12834367,-1.9026983,0.8414736,1.0607091,0
1.7200000000000013,11.057680795063947,-2.3540622490878653,1.5967198083570746,1.7548554990946852,0.28167456,-0.74032474,-0.9526812,-0.96091574,2.739838,-2.8533967,2.104685,-0.47197235,-0.0046732845,-0.05271141,-0.88002366,-5.8883657,9.757976,0.12738466,-1.9483309,0.90279853,1.0904123,0
1.7300000000000013,11.057680795063947,-2.3540622490878653,1.5967198083570746,1.7548554990946852,0.28167456,-0.74032474,-0.9526812,-0.96091574,2.6809835,-2.7557685,2.1060183,-0.46686074,0.003926484,-0.046226848,-0.88311297,-5.882847,9.767617,0.13929981,-2.0117025,1.0109274,1.1230167,0
1.7400000000000013,11.057680795063947,-2.3540622490878653,1.5967198083570746,1.7548554990946852,0.28167456,-0.74032474,-0.9526812,-0.96091574,2.6221724,-2.6580455,2.1074712,-0.46151075,0.013093568,-0.039710503,-0.88614863,-5.8797774,9.776932,0.15133858,-2.065182,1.1022006,1.1540213,0
1.7500000000000013,11.057680795063947,-2.3540622490878653,1.5967198083570746,1.7548554990946852,0.28167456,-0.74032474,-0.9526812,-0.96091574,2.563379,-2.560231,2.109045,-0.45592836,0.022737958,-0.033165265,-0.8891076,-5.879264,9.785934,0.16344455,-2.1103132,1.1792463,1.1835045,0
1.7600000000000013,12.08627723591405,-2.438331335161644,1.4664434360796033,1.7875285602703312,0.3326771,-0.5985501,-0.5725945,-0.67054456,2.5045779,-2.4623277,2.11074,-0.4501191,0.032783177,-0.026594391,-0.8919701,-5.881395,9.794636,0.17555535,-2.1483984,1.2442821,1.2115409,0
1.7700000000000014,12.08627723591405,-2.438331335161644,1.4664434360796033,1.7875285602703312,0.3326771,-0.5985501,-0.5725945,-0.67054456,2.44574,-2.364335,2.112607,-0.44408482,0.043132592,-0.019948091,-0.8947236,-5.886695,9.803806,0.19785011,-2.1936643,1.2788521,1.2398049,0
1.7800000000000014,12.08627723591405,-2.438331335161644,1.4664434360796033,1.7875285602703312,0.3326771,-0.5985501,-0.5725945,-0.67054456,2.3868337,-2.266253,2.1146965,-0.43782654,0.053705394,-0.013188141,-0.8973571,-5.8950286,9.812605,0.22000071,-2.2318666,1.3080369,1.2666818,0
1.7900000000000014,12.08627723591405,-2.438331335161644,1.4664434360796033,1.7875285602703312,0.3326771,-0.5985501,-0.5725945,-0.67054456,2.327829,-2.1680846,2.1170063,-0.43134868,0.064462736,-0.0063336347,-0.8998571,-5.9064445,9.820986,0.24192761,-2.2641072,1.3326762,1.2922399,0
1.8000000000000014,12.681126771273343,-2.4846190677813245,0.8544681565896894,1.7393764518233934,-0.8476574,0.016298983,0.04756441,-0.062041115,2.2686944,-2.069835,2.1195338,-0.424656,0.07537144,0.00059871376,-0.90221184,-5.9209805,9.828903,0.26354817,-2.2913163,1.353478,1.3165438,0
1.8100000000000014,12.681126771273343,-2.4846190677813245,0.8544681565896894,1.7393764518233934,-0.8476574,0.016298983,0.04756441,-0.062041115,2.2093942,-1.9715066,2.1223052,-0.41775715,0.08618974,0.0077147232,-0.9044285,-5.9395247,9.836663,0.2906524,-2.3214126,1.2756006,1.3372923,0
1.8200000000000014,12.681126771273343,-2.4846190677813245,0.8544681565896894,1.7393764518233934,-0.8476574,0.016298983,0.04756441,-0.062041115,2.1498926,-1.873104,2.1253452,-0.41066024,0.096723765,0.015095243,-0.90651804,-5.961325,9.843752,0.3172709,-2.346823,1.209873,1.3570228,0
1.8300000000000014,12.681126771273343,-2.4846190677813245,0.8544681565896894,1.7393764518233934,-0.8476574,0.016298983,0.04756441,-0.062041115,2.0901568,-1.7746342,2.1286485,-0.40336984,0.10701193,0.022693308,-0.9084748,-5.986327,9.850033,0.34333062,-2.3682773,1.1543998,1.3757851,0
1.8400000000000014,12.681126771273343,-2.4846190677813245,0.8544681565896894,1.7393764518233934,-0.9480994,-0.040846262,0.08039437,-0.09259479,2.0301552,-1.6761065,2.1322095,-0.395891,0.117086574,0.03046921,-0.91029274,-6.014477,9.855386,0.36875853,-2.3863919,1.1075817,1.3936266,0
1.8500000000000014,12.681126771273343,-2.4846190677813245,0.8544681565896894,1.7393764518233934,-0.9480994,-0.040846262,0.08039437,-0.09259479,1.9698565,-1.57753,2.1360214,-0.38822898,0.12697491,0.03838933,-0.91196615,-6.0457187,9.859703,0.39348164,-2.4016867,1.0680684,1.4105926,0
1.8600000000000014,12.681126771273343,-2.4846190677813245,0.8544681565896894,1.7393764518233934,-0.9480994,-0.040846262,0.08039437,-0.09259479,1.9092302,-1.4789162,2.1400766,-0.38038927,0.13669977,0.046425167,-0.9134891,-6.079997,9.862887,0.41742703,-2.4146001,1.0347204,1.4267262,0
1.8700000000000014,12.681126771273343,-2.4846190677813245,0.8544681565896894,1.7393764518233934,-0.9480994,-0.040846262,0.08039437,-0.09259479,1.8482462,-1.3802766,2.144367,-0.37237757,0.14628023,0.05455253,-0.914856,-6.117255,9.864848,0.440522,-2.4255035,1.0065758,1.4420681,0
1.8800000000000014,12.523012691902967,-2.2699718502203106,-0.05008834756037253,1.5282362978230948,-0.52307737,0.33288276,-0.31464964,0.14813146,1.786875,-1.2816237,2.1488838,-0.36419946,0.15573223,0.06275083,-0.9160617,-6.1574345,9.865504,0.46269414,-2.4347095,0.9828229,1.456657,0
1.8900000000000015,12.523012691902967,-2.2699718502203106,-0.05008834756037253,1.5282362978230948,-0.52307737,0.33288276,-0.31464964,0.14813146,1.7250904,-1.1829712,2.15361,-0.35587534,0.16470471,0.07105859,-0.9171566,-6.1999226,9.864781,0.4823904,-2.4088678,0.82175994,1.4601696,0
1.9000000000000015,12.523012691902967,-2.2699718502203106,-0.05008834756037253,1.5282362978230948,-0.52307737,0.33288276,-0.31464964,0.14813146,1.6628675,-1.0843333,2.158528,-0.3474259,0.17292117,0.0795031,-0.9181902,-6.245049,9.862551,0.5010827,-2.3870792,0.6858111,1.4635096,0
1.9100000000000015,12.523012691902967,-2.2699718502203106,-0.05008834756037253,1.5282362978230948,-0.52307737,0.33288276,-0.31464964,0.14813146,1.600181,-0.9857258,2.163628,-0.338857,0.18049401,0.08805368,-0.9191544,-6.2926245,9.85868,0.51875585,-2.3687084,0.5710607,1.4666857,0
1.9200000000000015,12.070733387432531,-1.8142799774754055,-0.736366123321671,1.1815522165894052,-0.4268483,0.35461557,-0.26899403,0.063331425,1.5370072,-0.8871657,2.1688998,-0.33017412,0.18751793,0.09668502,-0.9200404,-6.342479,9.853052,0.5353934,-2.353219,0.47420293,1.4697059,0
1.9300000000000015,12.070733387432531,-1.8142799774754055,-0.736366123321671,1.1815522165894052,-0.4268483,0.35461557,-0.26899403,0.063331425,1.4733334,-0.7886698,2.1743119,-0.32143006,0.19375649,0.10530622,-0.9208974,-6.392566,9.8458395,0.5468786,-2.2689886,0.28551683,1.4555663,0
1.9400000000000015,12.070733387432531,-1.8142799774754055,-0.736366123321671,1.1815522165894052,-0.4268483,0.35461557,-0.26899403,0.063331425,1.4091496,-0.6902554,2.179834,-0.31267408,0.19902828,0.11384391,-0.9217714,-6.444445,9.836743,0.5573857,-2.197925,0.12624128,1.4421203,0
1.9500000000000015,12.070733387432531,-1.8142799774754055,-0.736366123321671,1.1815522165894052,-0.4268483,0.35461557,-0.26899403,0.063331425,1.3444391,-0.5919417,2.1854563,-0.3039061,0.20348053,0.122302935,-0.92264783,-6.4978747,9.825687,0.5669555,-2.1379697,-0.008207735,1.429334,0
1.9600000000000015,10.99073319862686,-1.4426414423825795,-1.6994419555096674,0.7777111871767796,15.111587,-3.6264503,-3.170417,3.2524078,1.2791876,-0.4937486,2.19117,-0.29512593,0.20723699,0.13068813,-0.923512,-6.5526423,9.812607,0.57562226,-2.0873857,-0.1216999,1.4171753,0
1.9700000000000015,10.99073319862686,-1.4426414423825795,-1.6994419555096674,0.7777111871767796,15.111587,-3.6264503,-3.170417,3.2524078,1.2134074,-0.39569008,2.1969185,-0.28635952,0.20999593,0.13898955,-0.9244361,-6.603541,9.7988,0.5739481,-1.9866183,-0.3676144,1.3857965,0
1.9800000000000015,10.99073319862686,-1.4426414423825795,-1.6994419555096674,0.7777111871767796,15.111587,-3.6264503,-3.170417,3.2524078,1.1471142,-0.2977794,2.2026465,-0.27763173,0.21152352,0.14719804,-0.925479,-6.6552043,9.783026,0.5715626,-1.9016092,-0.5751986,1.3559577,0
1.9900000000000015,10.99073319862686,-1.4426414423825795,-1.6994419555096674,0.7777111871767796,15.111587,-3.6264503,-3.170417,3.2524078,1.0803015,-0.20003659,2.2083476,-0.26894075,0.21200673,0.1553195,-0.9266067,-6.7073674,9.765219,0.56854755,-1.8298924,-0.7504267,1.327583,0
2.0000000000000013,,,,,15.487415,-3.4491954,-3.544223,3.0865963,1.0129657,-0.10248221,2.2140155,-0.26028466,0.21160273,0.16335961,-0.92778766,-6.7597985,9.745328,0.5649708,-1.7693886,-0.8983417,1.3006006,0
2.010000000000001,,,,,15.487415,-3.4491954,-3.544223,3.0865963,0.9451218,-0.005130451,2.2196152,-0.2516861,0.21009804,0.1712937,-0.92907023,-6.808961,9.724709,0.5549503,-1.6658294,-1.1500006,1.2536445,0
2.020000000000001,,,,,15.487415,-3.4491954,-3.544223,3.0865963,0.8767872,0.09200499,2.2251132,-0.24316658,0.20732887,0.17910077,-0.9304879,-6.8579106,9.70206,0.54454935,-1.5784645,-1.362435,1.2089924,0
2.0300000000000007,,,,,15.487415,-3.4491954,-3.544223,3.0865963,0.8079652,0.18890366,2.2305052,-0.23472284,0.20348358,0.18679097,-0.9319919,-6.906391,9.677348,0.5338513,-1.5047594,-1.5417581,1.1665314,0
2.0400000000000005,,,,,15.487415,-3.4491954,-3.544223,3.0865963,0.7386618,0.28554478,2.2357893,-0.22635193,0.1987207,0.19437316,-0.93353844,-6.9541783,9.650552,0.5229205,-1.4425768,-1.6931301,1.1261541,0
2.0500000000000003,,,,,14.710705,-2.6213143,-3.4800203,2.3288217,0.66888475,0.3819075,2.2409632,-0.21805133,0.19317389,0.2018551,-0.9350893,-7.0010767,9.621665,0.51180434,-1.390114,-1.8209078,1.087758,1
2.06,,,,,14.710705,-2.6213143,-3.4800203,2.3288217,0.59854525,0.47790506,2.2462113,-0.20939285,0.18677269,0.20984533,-0.93660855,-7.066558,9.577361,0.53775644,-1.5818536,-2.0798438,1.1486573,1
2.07,,,,,14.710705,-2.6213143,-3.4800203,2.3288217,0.52755976,0.57344335,2.2517173,-0.19999911,0.1794653,0.21881302,-0.93803704,-7.1302295,9.529749,0.5634233,-1.7437074,-2.2983873,1.2065682,1
2.0799999999999996,,,,,14.710705,-2.6213143,-3.4800203,2.3288217,0.45594782,0.6684876,2.2574782,-0.18993822,0.17138208,0.22857612,-0.9393107,-7.1918044,9.478527,0.5887075,-1.8803364,-2.482837,1.2616376,1
2.0899999999999994,,,,,15.308498,-2.9016197,-3.7425337,2.2823186,0.38373178,0.7630006,2.2634897,-0.17927007,0.16263466,0.23898035,-0.9403726,-7.2510104,9.423466,0.6134967,-1.9956739,-2.63851,1.3140045,1
2.099999999999999,,,,,15.308498,-2.9016197,-3.7425337,2.2823186,0.3109251,0.8569312,2.269771,-0.16800953,0.15323791,0.2500192,-0.94115955,-7.309879,9.361995,0.6426316,-2.1367216,-2.8108683,1.36152,1
2.109999999999999,,,,,15.308498,-2.9016197,-3.7425337,2.2823186,0.23754463,0.9502256,2.2763398,-0.15617336,0.14320745,0.2616771,-0.9416085,-7.365711,9.29618,0.67095894,-2.2557917,-2.9563327,1.406704,1
2.1199999999999988,,,,,15.308498,-2.9016197,-3.7425337,2.2823186,0.16362226,1.0428395,2.283187,-0.14381471,0.1326339,0.27382043,-0.9416729,-7.4182177,9.2259,0.69830275,-2.3563097,-3.0790982,1.4496707,1
2.1299999999999986,,,,,15.267509,-2.3296406,-3.5630634,2.126062,0.089192644,1.1347281,2.2903018,-0.13098139,0.121595934,0.28633553,-0.9413131,-7.467121,9.151092,0.724478,-2.4411678,-3.1827056,1.4905288,1
2.1399999999999983,,,,,15.267509,-2.3296406,-3.5630634,2.126062,0.01429373,1.2258469,2.2976704,-0.117783256,0.11019567,0.29890397,-0.9405533,-7.5120397,9.071974,0.74897283,-2.4236517,-3.2420547,1.5217146,1
2.149999999999998,,,,,15.267509,-2.3296406,-3.5630634,2.126062,-0.061034106,1.3161525,2.3052762,-0.104314476,0.09852308,0.3112724,-0.939426,-7.552871,8.988477,0.7719833,-2.4088778,-3.2921476,1.55137,1
2.159999999999998,,,,,15.267509,-2.3296406,-3.5630634,2.126062,-0.13674891,1.405602,2.3131044,-0.09059529,0.08662503,0.3234387,-0.93791044,-7.5894046,8.90078,0.7933867,-2.396417,-3.3344283,1.5795704,1
2.1699999999999977,,,,,16.529108,-2.176543,-2.7739458,2.4565203,-0.21280676,1.4941543,2.3211381,-0.07664547,0.074541934,0.3354005,-0.935989,-7.6214485,8.809074,0.8130574,-2.3859076,-3.3701148,1.6063869,1
