time-since-start [s],throttle_mpc,roll_mpc,pitch_mpc,yaw_mpc,throttle_nw,roll_nw,pitch_nw,yaw_nw,position_x [m],position_y [m],position_z [m],rotation_w [quaternion],rotation_x [quaternion],rotation_y [quaternion],rotation_z [quaternion],velocity_x [m/s],velocity_y [m/s],velocity_z [m/s],omega_x [rad/s],omega_y [rad/s],omega_z [rad/s],network_used
0.0,10.508050599804339,5.99999975679498,-5.999999936532271,-4.399881376705345,13.117865,-3.1479692,-4.738237,2.4297917,15.654562,-11.459228,1.4821949,0.038883213,-0.44004184,0.3999778,0.80303735,-11.633496,-3.421769,0.05460716,1.8413004,-0.3097791,-0.07397731,0
0.01,10.508050599804339,5.99999975679498,-5.999999936532271,-4.399881376705345,10.163717,-0.7888282,-6.497331,1.7280802,15.537647,-11.492861,1.4825008,0.044292286,-0.43833548,0.40684307,0.80023676,-11.748844,-3.3047614,0.0062235165,1.7963189,-0.50386953,-0.22424138,0
0.02,10.508050599804339,5.99999975679498,-5.999999936532271,-4.399881376705345,10.163717,-0.7888282,-6.497331,1.7280802,15.419597,-11.525322,1.4823124,0.050619066,-0.43612728,0.413195,0.79780984,-11.860669,-3.1872454,-0.04417303,1.785154,-0.6945218,-0.36953044,0
0.03,10.508050599804339,5.99999975679498,-5.999999936532271,-4.399881376705345,10.163717,-0.7888282,-6.497331,1.7280802,15.300447,-11.556605,1.4816113,0.05791015,-0.43341622,0.41916236,0.7956755,-11.968774,-3.0692832,-0.0963123,1.8029159,-0.8826621,-0.5101228,0
0.04,10.508050599804339,5.99999975679498,-5.999999936532271,-4.399881376705345,15.87751,0.3843241,-6.503949,-0.24078806,15.180236,-11.586706,1.480381,0.06620355,-0.43019477,0.4248515,0.79375726,-12.072957,-2.9509103,-0.14996132,1.8453857,-1.0689787,-0.6462749,0
0.05,10.508050599804339,5.99999975679498,-5.999999936532271,-4.399881376705345,15.87751,0.3843241,-6.503949,-0.24078806,15.059002,-11.615622,1.4786077,0.07552941,-0.42644995,0.4303493,0.7919817,-12.173012,-2.8321447,-0.20491813,1.9089192,-1.2539682,-0.77822334,0
0.060000000000000005,10.508050599804339,5.99999975679498,-5.999999936532271,-4.399881376705345,15.87751,0.3843241,-6.503949,-0.24078806,14.9367895,-11.643347,1.4762789,0.08591066,-0.42216438,0.43572542,0.79027826,-12.268729,-2.7129958,-0.26100647,1.990366,-1.4379739,-0.9061862,0
0.07,10.508050599804339,5.99999975679498,-5.999999936532271,-4.399881376705345,15.87751,0.3843241,-6.503949,-0.24078806,14.813643,-11.66988,1.4733843,0.09736351,-0.41731694,0.44103432,0.78857815,-12.359896,-2.5934722,-0.31807113,2.087,-1.6212175,-1.0303651,0
0.08,13.784675575189535,5.99999989536753,-5.9999999767407175,-4.385606325138686,16.123434,-0.092175916,-7.5963397,0.54042095,14.689608,-11.695215,1.4699147,0.1098978,-0.41188362,0.44631687,0.7868135,-12.446295,-2.4735878,-0.37597388,2.196459,-1.803825,-1.1509464,0
0.09,13.784675575189535,5.99999989536753,-5.9999999767407175,-4.385606325138686,16.123434,-0.092175916,-7.5963397,0.54042095,14.564667,-11.719254,1.4658942,0.123727575,-0.40563878,0.45174626,0.78490376,-12.540728,-2.334106,-0.42826608,2.4071007,-2.0764222,-1.2754834,0
0.09999999999999999,13.784675575189535,5.99999989536753,-5.9999999767407175,-4.385606325138686,16.123434,-0.092175916,-7.5963397,0.54042095,14.438814,-11.741896,1.4613469,0.13904186,-0.39836514,0.45745912,0.7827538,-12.628797,-2.194457,-0.48132366,2.6205342,-2.342215,-1.3970985,0
0.10999999999999999,13.784675575189535,5.99999989536753,-5.9999999767407175,-4.385606325138686,16.123434,-0.092175916,-7.5963397,0.54042095,14.312114,-11.763142,1.4562658,0.15580413,-0.39004692,0.4634252,0.78027266,-12.710117,-2.0546088,-0.5349972,2.8357637,-2.6017,-1.515885,0
0.11999999999999998,13.784675575189535,5.99999989536753,-5.9999999767407175,-4.385606325138686,16.123434,-0.092175916,-7.5963397,0.54042095,14.184636,-11.782988,1.4506453,0.17397249,-0.38066497,0.46960568,0.77736616,-12.784317,-1.9145902,-0.5891495,3.051945,-2.855293,-1.631931,0
0.12999999999999998,18.425438811182914,5.999999946078507,-5.999999993726848,-4.057462840021557,15.943214,0.37858036,-6.9389052,0.7092852,14.056454,-11.801433,1.4444816,0.19349933,-0.37019774,0.4759539,0.7739376,-12.851042,-1.774494,-0.64365375,3.268362,-3.1033418,-1.7453201,0
0.13999999999999999,18.425438811182914,5.999999946078507,-5.999999993726848,-4.057462840021557,15.943214,0.37858036,-6.9389052,0.7092852,13.927586,-11.818344,1.4378129,0.2146929,-0.35819536,0.48265973,0.76983273,-12.9211,-1.6078731,-0.6901532,3.6553488,-3.5174866,-1.8553164,0
0.15,18.425438811182914,5.999999946078507,-5.999999993726848,-4.057462840021557,15.943214,0.37858036,-6.9389052,0.7092852,13.798066,-11.833592,1.4306782,0.23779601,-0.34424162,0.48983833,0.7648588,-12.9812,-1.4412594,-0.73668486,4.017892,-3.9029872,-1.963155,0
0.16,20.999999511110328,5.999999930781001,-5.999999983648225,-3.633219034629803,16.801702,0.32722238,-7.007971,0.6419954,13.6679945,-11.847161,1.4230831,0.2625442,-0.3284804,0.49726528,0.7588796,-13.031496,-1.2720143,-0.78218013,4.3262997,-4.2306986,-2.0659232,0
0.17,20.999999511110328,5.999999930781001,-5.999999983648225,-3.633219034629803,16.801702,0.32722238,-7.007971,0.6419954,13.537444,-11.858906,1.4150765,0.28858003,-0.31109184,0.504719,0.75179917,-13.076629,-1.0763594,-0.8188884,4.586716,-4.5071993,-2.1428306,0
0.18000000000000002,20.999999511110328,5.999999930781001,-5.999999983648225,-3.633219034629803,16.801702,0.32722238,-7.007971,0.6419954,13.406507,-11.868682,1.4067109,0.31558082,-0.29223496,0.5120114,0.7435399,-13.108623,-0.87863356,-0.85401154,4.8065667,-4.740536,-2.2159646,0
0.19000000000000003,20.999999511110328,5.999999930781001,-5.999999983648225,-3.633219034629803,16.801702,0.32722238,-7.007971,0.6419954,13.275319,-11.876474,1.3980023,0.3432935,-0.27207604,0.51896805,0.7340274,-13.126687,-0.6797021,-0.8874302,4.9921746,-4.9374423,-2.2855096,0
0.20000000000000004,21.0,5.459322897336932,-5.999999732355883,-3.2620854843544067,16.069515,0.48531845,-6.669609,0.21135752,13.144022,-11.882276,1.3889685,0.37148952,-0.25076556,0.5254422,0.723203,-13.130199,-0.4805763,-0.91905344,5.1488776,-5.103602,-2.3516421,0
0.21000000000000005,21.0,5.459322897336932,-5.999999732355883,-3.2620854843544067,16.069515,0.48531845,-6.669609,0.21135752,13.012765,-11.88609,1.3796277,0.39987743,-0.22850034,0.53116906,0.7111575,-13.118716,-0.28238887,-0.94880515,5.1969247,-5.2436194,-2.396318,0
0.22000000000000006,21.0,5.459322897336932,-5.999999732355883,-3.2620854843544067,16.069515,0.48531845,-6.669609,0.21135752,12.881699,-11.887932,1.3699993,0.42821065,-0.20546067,0.5359467,0.6979846,-13.092056,-0.086370796,-0.97656935,5.2375126,-5.361785,-2.4388013,0
0.23000000000000007,21.0,5.459322897336932,-5.999999732355883,-3.2620854843544067,16.069515,0.48531845,-6.669609,0.21135752,12.750976,-11.88783,1.3601035,0.456353,-0.18175392,0.53974795,0.68365145,-13.0502205,0.106202826,-1.0022427,5.271802,-5.4615073,-2.4792,0
0.24000000000000007,21.0,5.459322897336932,-5.999999732355883,-3.2620854843544067,16.137924,-0.10442753,-6.093406,0.58188194,12.620746,-11.885823,1.3499619,0.48417893,-0.15747844,0.54255223,0.6681378,-12.993354,0.29404137,-1.0257583,5.3007708,-5.545665,-2.5176165,0
0.25000000000000006,21.0,5.459322897336932,-5.999999732355883,-3.2620854843544067,16.137924,-0.10442753,-6.093406,0.58188194,12.4911585,-11.8819685,1.339596,0.51157206,-0.13272502,0.5443451,0.651434,-12.921741,0.47585595,-1.047082,5.325247,-5.6166854,-2.554148,0
0.26000000000000006,21.0,5.459322897336932,-5.999999732355883,-3.2620854843544067,16.137924,-0.10442753,-6.093406,0.58188194,12.36236,-11.87633,1.3290279,0.53842455,-0.10757789,0.54511714,0.63354,-12.835801,0.6503755,-1.06621,5.3459277,-5.6766186,-2.5888865,0
0.2700000000000001,21.0,5.459322897336932,-5.999999732355883,-3.2620854843544067,16.137924,-0.10442753,-6.093406,0.58188194,12.23449,-11.868989,1.3182794,0.56463647,-0.08211579,0.5448635,0.61446404,-12.736085,0.81636155,-1.0831665,5.3634033,-5.7271943,-2.6219206,0
0.2800000000000001,21.0,2.2552691695280975,-5.473671619008984,0.8992336458735525,16.418856,-0.22929545,-5.1949334,0.45718947,12.107683,-11.860035,1.3073719,0.5901148,-0.056412704,0.543583,0.59422165,-12.623267,0.9726222,-1.0980004,5.378171,-5.7698736,-2.6533337,0
0.2900000000000001,21.0,2.2552691695280975,-5.473671619008984,0.8992336458735525,16.418856,-0.22929545,-5.1949334,0.45718947,11.982069,-11.849571,1.2963277,0.6143051,-0.031152774,0.54071397,0.5738352,-12.498022,1.1183321,-1.1105863,4.8954315,-5.718749,-2.4793372,0
0.3000000000000001,21.0,2.2552691695280975,-5.473671619008984,0.8992336458735525,16.418856,-0.22929545,-5.1949334,0.45718947,11.857759,-11.837708,1.2851682,0.6368521,-0.0068815798,0.5358707,0.5542691,-12.362252,1.2523067,-1.1209466,4.484377,-5.6793785,-2.3135498,0
0.3100000000000001,21.0,2.2552691695280975,-5.473671619008984,0.8992336458735525,16.418856,-0.22929545,-5.1949334,0.45718947,11.734856,-11.824567,1.273918,0.6579198,0.016530225,0.5293246,0.53542805,-12.217316,1.3743724,-1.128627,4.1373787,-5.6463485,-2.1558976,0
0.3200000000000001,20.999999943173698,0.6647321661577253,-3.2198952625431336,1.8958488661990047,16.177523,-1.600106,-3.8654096,1.0408472,11.61344,-11.810266,1.2626057,0.6776378,0.039196827,0.5212992,0.5172206,-12.064645,1.484214,-1.1334012,3.8444526,-5.6186304,-2.0059814,0
0.3300000000000001,20.999999943173698,0.6647321661577253,-3.2198952625431336,1.8958488661990047,16.177523,-1.600106,-3.8654096,1.0408472,11.493584,-11.794927,1.2512605,0.6956248,0.060386576,0.5122764,0.50003177,-11.905595,1.581694,-1.1351393,3.3497236,-5.2434807,-1.8145175,0
0.34000000000000014,20.999999943173698,0.6647321661577253,-3.2198952625431336,1.8958488661990047,16.177523,-1.600106,-3.8654096,1.0408472,11.375344,-11.778672,1.2399132,0.7116638,0.07954632,0.5027167,0.4842337,-11.741614,1.667281,-1.1338784,2.9319613,-4.927059,-1.6324488,0
0.35000000000000014,20.999999943173698,0.6647321661577253,-3.2198952625431336,1.8958488661990047,16.177523,-1.600106,-3.8654096,1.0408472,11.258764,-11.761619,1.2285931,0.72605836,0.097009994,0.4927413,0.46971655,-11.573987,1.7416334,-1.1296961,2.5791993,-4.6601596,-1.4593142,0
0.36000000000000015,20.99999964244053,-0.7090226602712656,-0.5093701411001078,2.501516660839817,15.584326,-2.353943,-1.982983,0.9315755,11.143874,-11.7438755,1.217329,0.7390527,0.113061294,0.4824345,0.45637104,-11.403766,1.8053718,-1.1226648,2.2813303,-4.4350214,-1.2946754,0
0.37000000000000016,20.99999964244053,-0.7090226602712656,-0.5093701411001078,2.501516660839817,15.584326,-2.353943,-1.982983,0.9315755,11.030701,-11.725543,1.2061528,0.7503921,0.12706724,0.47236896,0.4445589,-11.231056,1.8594301,-1.1123888,1.806354,-3.8318045,-1.1092783,0
0.38000000000000017,20.99999964244053,-0.7090226602712656,-0.5093701411001078,2.501516660839817,15.584326,-2.353943,-1.982983,0.9315755,10.919253,-11.706717,1.1950885,0.7599079,0.1385789,0.4631119,0.43458328,-11.058225,1.904537,-1.1000847,1.4148431,-3.3132238,-0.93209565,0
0.3900000000000002,20.99999964244053,-0.7090226602712656,-0.5093701411001078,2.501516660839817,15.584326,-2.353943,-1.982983,0.9315755,10.809537,-11.687477,1.1841589,0.7679262,0.14803706,0.45460138,0.42627615,-10.885082,1.9422547,-1.0855113,1.0842116,-2.8756423,-0.76360726,0
0.4000000000000002,20.99999919832326,-1.8135009943662952,1.8204319596029344,2.7211355973823834,15.037203,-2.9318597,-0.14619862,1.1231021,10.701551,-11.667892,1.1733856,0.7747091,0.15580526,0.44675013,0.41948092,-10.712051,1.973713,-1.0688602,0.8050052,-2.506399,-0.6033867,0
0.4100000000000002,20.99999919832326,-1.8135009943662952,1.8204319596029344,2.7211355973823834,15.037203,-2.9318597,-0.14619862,1.1231021,10.595295,-11.648021,1.1627884,0.7801123,0.16146721,0.44000998,0.4144198,-10.539429,1.9999751,-1.0502998,0.39711457,-1.8314271,-0.4402514,0
0.4200000000000002,20.99999919832326,-1.8135009943662952,1.8204319596029344,2.7211355973823834,15.037203,-2.9318597,-0.14619862,1.1231021,10.490762,-11.627905,1.1523852,0.7840464,0.16471297,0.43474212,0.41126582,-10.367398,2.0224886,-1.0300884,0.052664578,-1.2618157,-0.28512126,0
0.4300000000000002,20.99999919832326,-1.8135009943662952,1.8204319596029344,2.7211355973823834,15.037203,-2.9318597,-0.14619862,1.1231021,10.387945,-11.607578,1.1421915,0.7867558,0.16596027,0.4307322,0.40980697,-10.196053,2.0426676,-1.0084676,-0.2381958,-0.78110844,-0.1376034,0
0.4400000000000002,20.99999919832326,-1.8135009943662952,1.8204319596029344,2.7211355973823834,14.873989,-3.2009616,2.1869795,1.1469793,10.286839,-11.587056,1.1322203,0.7884248,0.16555542,0.42778558,0.40984964,-10.025434,2.0617077,-0.985627,-0.4837911,-0.37542054,0.002675742,0
0.45000000000000023,20.99999919832326,-1.8135009943662952,1.8204319596029344,2.7211355973823834,14.873989,-3.2009616,2.1869795,1.1469793,10.187434,-11.566344,1.1224829,0.7891937,0.16378592,0.42572922,0.4112196,-9.85556,2.0806177,-0.9617208,-0.6911548,-0.03303788,0.13607135,0
0.46000000000000024,20.99999919832326,-1.8135009943662952,1.8204319596029344,2.7211355973823834,14.873989,-3.2009616,2.1869795,1.1469793,10.0897255,-11.545441,1.1129893,0.7891704,0.16089083,0.4244112,0.41376168,-9.686447,2.100248,-0.9368778,-0.86622953,0.2559237,0.26292118,0
0.47000000000000025,20.99999919832326,-1.8135009943662952,1.8204319596029344,2.7211355973823834,14.873989,-3.2009616,2.1869795,1.1469793,9.993704,-11.524334,1.1037483,0.78843886,0.15706922,0.4236998,0.41733834,-9.518111,2.1213143,-0.9112085,-1.0140362,0.49980363,0.38354647,0
0.48000000000000026,20.999999376392097,-3.0140864523518633,3.432490548647975,2.994459147205461,15.814356,-2.8955479,3.3424547,0.8263542,9.899362,-11.503007,1.0947677,0.787065,0.15248707,0.42348158,0.42182818,-9.350582,2.1444173,-0.88481003,-1.1388154,0.7056392,0.49825263,0
0.49000000000000027,20.999999376392097,-3.0140864523518633,3.432490548647975,2.994459147205461,15.814356,-2.8955479,3.3424547,0.8263542,9.806689,-11.481436,1.0860542,0.7848835,0.14664544,0.42395633,0.4274499,-9.183912,2.170136,-0.8577753,-1.4314893,1.1306825,0.62074226,0
0.5000000000000002,20.999999376392097,-3.0140864523518633,3.432490548647975,2.994459147205461,15.814356,-2.8955479,3.3424547,0.8263542,9.715679,-11.459592,1.0776138,0.781742,0.13915123,0.42526314,0.43435818,-9.018216,2.1993835,-0.8302249,-1.678551,1.4894221,0.73722124,0
0.5100000000000002,20.999999376392097,-3.0140864523518633,3.432490548647975,2.994459147205461,15.814356,-2.8955479,3.3424547,0.8263542,9.62632,-11.437434,1.069451,0.7777012,0.13027424,0.42722806,0.44236284,-8.853661,2.2330682,-0.80229056,-1.8871002,1.792207,0.84798455,0
0.5200000000000002,20.999999699751562,-3.708136082150818,4.130251590224862,2.965262720472476,17.295422,-3.1518576,4.6522617,0.6271104,9.5386,-11.414914,1.0615689,0.7728061,0.12024176,0.42970163,0.4512962,-8.690449,2.2719433,-0.77410585,-2.0631337,2.04777,0.95331264,0
0.5300000000000002,20.999999699751562,-3.708136082150818,4.130251590224862,2.965262720472476,17.295422,-3.1518576,4.6522617,0.6271104,9.452505,-11.391975,1.0539693,0.76700187,0.10890277,0.43264383,0.461158,-8.528831,2.3166618,-0.7458076,-2.320024,2.3722243,1.0520396,0
0.5400000000000003,20.999999699751562,-3.708136082150818,4.130251590224862,2.965262720472476,17.295422,-3.1518576,4.6522617,0.6271104,9.368017,-11.368558,1.0466526,0.760227,0.09614493,0.4360028,0.47192338,-8.369156,2.367955,-0.7175396,-2.5368478,2.6460848,1.1459221,0
0.5500000000000003,20.999999699751562,-3.708136082150818,4.130251590224862,2.965262720472476,17.295422,-3.1518576,4.6522617,0.6271104,9.285114,-11.344591,1.0396179,0.75250316,0.08219896,0.43964455,0.48341906,-8.211836,2.4264739,-0.6894602,-2.7198489,2.8772457,1.2351977,0
0.5600000000000003,20.999999753070917,-3.7326874906404504,3.9614330971072067,2.763035405576076,17.622288,-2.7136884,5.1563,0.7755582,9.203771,-11.320001,1.0328622,0.7438479,0.06726197,0.44345522,0.49549225,-8.05732,2.4927256,-0.66174245,-2.8742979,3.0723684,1.3200923,0
0.5700000000000003,20.999999753070917,-3.7326874906404504,3.9614330971072067,2.763035405576076,17.622288,-2.7136884,5.1563,0.7755582,9.123957,-11.294708,1.0263811,0.7343202,0.051518504,0.44728568,0.5079903,-7.906089,2.567083,-0.63456726,-3.00843,3.210764,1.390898,0
0.5800000000000003,20.999999753070917,-3.7326874906404504,3.9614330971072067,2.763035405576076,17.622288,-2.7136884,5.1563,0.7755582,9.045635,-11.26863,1.0201684,0.72397405,0.035125848,0.45101485,0.5207805,-7.7586513,2.6497765,-0.6080999,-3.121629,3.3275912,1.4582292,0
0.5900000000000003,20.999999753070917,-3.7326874906404504,3.9614330971072067,2.763035405576076,17.622288,-2.7136884,5.1563,0.7755582,8.968768,-11.241684,1.0142162,0.71281826,0.0182045,0.45459214,0.53376365,-7.6155286,2.740928,-0.58250666,-3.2171597,3.4262137,1.5222565,0
0.6000000000000003,20.999999773588243,-3.9697590269751393,3.220757197226051,1.8207237625085702,17.936678,-1.9982624,5.5658016,1.061508,8.893308,-11.213782,1.0085146,0.70086336,0.00085878,0.45797566,0.546852,-7.4772477,2.8405704,-0.5579609,-3.2977774,3.5094702,1.5831419,0
0.6100000000000003,20.999999773588243,-3.9697590269751393,3.220757197226051,1.8207237625085702,17.936678,-1.9982624,5.5658016,1.061508,8.819203,-11.184843,1.0030527,0.68832314,-0.01677668,0.46087313,0.55993277,-7.3443394,2.9486392,-0.53461766,-3.4025524,3.464312,1.5948001,0
0.6200000000000003,20.999999773588243,-3.9697590269751393,3.220757197226051,1.8207237625085702,17.936678,-1.9982624,5.5658016,1.061508,8.7464,-11.154781,0.997818,0.6753895,-0.034590643,0.46305794,0.5729125,-7.2173553,3.0648985,-0.51250696,-3.490993,3.4262125,1.6058862,0
0.6300000000000003,20.999999773588243,-3.9697590269751393,3.220757197226051,1.8207237625085702,17.936678,-1.9982624,5.5658016,1.061508,8.674834,-11.123518,0.99279827,0.66204476,-0.052531213,0.46458656,0.5857434,-7.096826,3.1890352,-0.49163416,-3.5656462,3.3940694,1.6164284,0
0.6400000000000003,20.999999773588243,-3.9697590269751393,3.220757197226051,1.8207237625085702,17.786398,-2.0651357,5.0174313,0.9190101,8.60444,-11.090976,0.98798096,0.64827645,-0.07055355,0.46550724,0.5983826,-6.983248,3.3207033,-0.4720268,-3.6286607,3.3669517,1.6264533,0
0.6500000000000004,20.999999773588243,-3.9697590269751393,3.220757197226051,1.8207237625085702,17.786398,-2.0651357,5.0174313,0.9190101,8.535144,-11.05708,0.98335326,0.6340767,-0.08861866,0.46586117,0.610791,-6.877082,3.4595268,-0.45373023,-3.6818514,3.3440738,1.6359862,0
0.6600000000000004,20.999999773588243,-3.9697590269751393,3.220757197226051,1.8207237625085702,17.786398,-2.0651357,5.0174313,0.9190101,8.466871,-11.021762,0.9789017,0.61944157,-0.10669238,0.4656839,0.62293357,-6.778754,3.6051018,-0.43680412,-3.7267494,3.3247726,1.6450514,0
0.6700000000000004,20.999999773588243,-3.9697590269751393,3.220757197226051,1.8207237625085702,17.786398,-2.0651357,5.0174313,0.9190101,8.399541,-10.984956,0.9746122,0.6043702,-0.12474452,0.4650059,0.6347785,-6.6886597,3.756999,-0.42131928,-3.7646475,3.30849,1.6536716,0
0.6800000000000004,20.999999654141618,-3.041901570708857,2.017650843300999,1.3772164565210065,17.829248,-2.5101552,4.0582843,0.8343851,8.333069,-10.946601,0.97047,0.58886456,-0.14274815,0.46385354,0.64629734,-6.607158,3.914766,-0.407355,-3.7966373,3.2947536,1.661869,0
0.6900000000000004,20.999999654141618,-3.041901570708857,2.017650843300999,1.3772164565210065,17.829248,-2.5101552,4.0582843,0.8343851,8.267367,-10.906642,0.9664596,0.57324857,-0.1601764,0.46220714,0.65733784,-6.534535,4.077899,-0.3949781,-3.6786933,3.0957513,1.647901,0
0.7000000000000004,20.999999654141618,-3.041901570708857,2.017650843300999,1.3772164565210065,17.829248,-2.5101552,4.0582843,0.8343851,8.202347,-10.865027,0.9625651,0.5578162,-0.17662013,0.4600821,0.6678097,-6.4707856,4.245717,-0.3841498,-3.5791802,2.92776,1.6346185,0
0.7100000000000004,20.999999654141618,-3.041901570708857,2.017650843300999,1.3772164565210065,17.829248,-2.5101552,4.0582843,0.8343851,8.13792,-10.821713,0.95877147,0.5425273,-0.19221613,0.45754275,0.6777689,-6.415809,4.417545,-0.37479907,-3.495218,2.7859468,1.6219877,0
0.7200000000000004,20.99999892036136,-1.9736749728218281,0.34097529731971205,0.8902119990014798,17.29366,-2.3540354,2.400995,0.41334525,8.074001,-10.776664,0.95506424,0.5273456,-0.2070801,0.45464006,0.6872597,-6.3695083,4.592776,-0.36686373,-3.4243762,2.666233,1.6099768,0
0.7300000000000004,20.99999892036136,-1.9736749728218281,0.34097529731971205,0.8902119990014798,17.29366,-2.3540354,2.400995,0.41334525,8.010501,-10.729847,0.95142955,0.51268107,-0.22065264,0.45135212,0.6962405,-6.331731,4.7708306,-0.36025825,-3.197707,2.3039215,1.5746577,0
0.7400000000000004,20.99999892036136,-1.9736749728218281,0.34097529731971205,0.8902119990014798,17.29366,-2.3540354,2.400995,0.41334525,7.947338,-10.681239,0.9478554,0.49888626,-0.23250853,0.44769242,0.70471466,-6.301988,4.951023,-0.3547199,-3.006462,1.9980628,1.5410718,0
0.7500000000000004,20.99999892036136,-1.9736749728218281,0.34097529731971205,0.8902119990014798,17.29366,-2.3540354,2.400995,0.41334525,7.884435,-10.630822,0.94433254,0.48584807,-0.24291769,0.44373864,0.71276754,-6.279723,5.132731,-0.34994975,-2.8451037,1.7398622,1.5091339,0
0.7600000000000005,20.579932376237043,-0.8051285617694933,-1.5763772766850983,0.2305283308295612,16.204653,-2.296657,0.7486836,0.19876234,7.8217196,-10.578582,0.94085467,0.47346467,-0.25210732,0.43954915,0.7204641,-6.264444,5.315444,-0.34568447,-2.7089603,1.521894,1.4787633,0
0.7700000000000005,20.579932376237043,-0.8051285617694933,-1.5763772766850983,0.2305283308295612,16.204653,-2.296657,0.7486836,0.19876234,7.759123,-10.524529,0.9374078,0.46216375,-0.25953197,0.4351289,0.72781146,-6.2558236,5.4950514,-0.34369856,-2.4115515,1.0391034,1.417512,0
0.7800000000000005,20.579932376237043,-0.8051285617694933,-1.5763772766850983,0.2305283308295612,16.204653,-2.296657,0.7486836,0.19876234,7.696584,-10.46868,0.9339815,0.4522974,-0.2647798,0.4305012,0.7348376,-6.252726,5.6747203,-0.3414958,-2.1606297,0.63153476,1.3592665,0
0.7900000000000005,20.579932376237043,-0.8051285617694933,-1.5763772766850983,0.2305283308295612,16.204653,-2.296657,0.7486836,0.19876234,7.6340528,-10.4110365,0.93058026,0.44367337,-0.26820412,0.42572236,0.7416062,-6.254292,5.8540306,-0.33861512,-1.9489243,0.28747013,1.303879,0
0.8000000000000005,18.18558334853269,1.5261382172029123,-4.1894673496035955,-4.652010774243754,15.716999,-2.205941,-0.5459393,0.1261727,7.5714855,-10.351602,0.9272129,0.4361222,-0.2701001,0.42083043,0.7481603,-6.2597804,6.032658,-0.33466488,-1.7703029,-0.00298322,1.2512094,0
0.8100000000000005,18.18558334853269,1.5261382172029123,-4.1894673496035955,-4.652010774243754,15.716999,-2.205941,-0.5459393,0.1261727,7.508838,-10.290216,0.92399025,0.4295052,-0.27147093,0.41550416,0.75444275,-6.270255,6.2434444,-0.31006745,-1.8337591,-0.078053504,1.0195141,0
0.8200000000000005,18.18558334853269,1.5261382172029123,-4.1894673496035955,-4.652010774243754,15.716999,-2.205941,-0.5459393,0.1261727,7.446069,-10.226756,0.9210076,0.4237691,-0.2731503,0.40945336,0.7603653,-6.2842035,6.447865,-0.28658107,-1.8852774,-0.14346813,0.7937274,0
0.8300000000000005,18.18558334853269,1.5261382172029123,-4.1894673496035955,-4.652010774243754,15.716999,-2.205941,-0.5459393,0.1261727,7.3831425,-10.161275,0.9182595,0.418929,-0.2750611,0.4027676,0.7659092,-6.301615,6.6477413,-0.2629527,-1.9032519,-0.2241846,0.57569206,0
0.8400000000000005,18.18558334853269,1.5261382172029123,-4.1894673496035955,-4.652010774243754,15.281317,-2.3778453,-1.1229671,-0.69954664,7.320025,-10.093817,0.91575015,0.4150493,-0.27702826,0.39555702,0.7710531,-6.3223505,6.8433547,-0.23885025,-1.8861616,-0.32458755,0.3654714,0
0.8500000000000005,18.18558334853269,1.5261382172029123,-4.1894673496035955,-4.652010774243754,15.281317,-2.3778453,-1.1229671,-0.69954664,7.256685,-10.024424,0.9134843,0.4121878,-0.2788882,0.38792205,0.77578217,-6.3461485,7.034508,-0.21424901,-1.8385319,-0.44257128,0.16259684,0
0.8600000000000005,18.18558334853269,1.5261382172029123,-4.1894673496035955,-4.652010774243754,15.281317,-2.3778453,-1.1229671,-0.69954664,7.1930923,-9.953142,0.91146696,0.410392,-0.28049505,0.379952,0.78008735,-6.372675,7.2210417,-0.18912673,-1.7643535,-0.5761819,-0.033361644,0
0.8700000000000006,18.18558334853269,1.5261382172029123,-4.1894673496035955,-4.652010774243754,15.281317,-2.3778453,-1.1229671,-0.69954664,7.1292224,-9.880018,0.9097036,0.40969986,-0.28171873,0.37172568,0.7839639,-6.40154,7.4028287,-0.16346139,-1.6671494,-0.72361296,-0.22279915,0
0.8800000000000006,16.192532170098662,2.155267163391216,-5.408588446494339,-4.599936943323127,13.8183365,-2.2650952,-2.830946,0.0579013,7.065055,-9.805101,0.9081997,0.41014037,-0.28244287,0.3633119,0.7874098,-6.432312,7.579773,-0.13722949,-1.5500301,-0.8831974,-0.40607896,0
0.8900000000000006,16.192532170098662,2.155267163391216,-5.408588446494339,-4.599936943323127,13.8183365,-2.2650952,-2.830946,0.0579013,7.0005784,-9.728474,0.9069358,0.41176206,-0.28242216,0.35466418,0.7905073,-6.463219,7.7448087,-0.11546354,-1.4343348,-1.1268462,-0.5705498,0
0.9000000000000006,16.192532170098662,2.155267163391216,-5.408588446494339,-4.599936943323127,13.8183365,-2.2650952,-2.830946,0.0579013,6.935787,-9.650222,0.9058925,0.4145929,-0.2814468,0.3457492,0.79332,-6.494995,7.9048862,-0.093089774,-1.3007854,-1.3684789,-0.7301628,0
0.9100000000000006,16.192532170098662,2.155267163391216,-5.408588446494339,-4.599936943323127,13.8183365,-2.2650952,-2.830946,0.0579013,6.870676,-9.570394,0.9050765,0.41861975,-0.27946678,0.3366386,0.7958197,-6.5271416,8.059924,-0.06996909,-1.1522567,-1.6083199,-0.88514835,0
0.9200000000000006,14.505265088544999,3.083976692485694,-5.999999460484006,-5.230245862691609,13.274107,-2.315012,-3.8080454,0.58878845,6.8052444,-9.489041,0.904496,0.42382383,-0.27643552,0.3273912,0.797979,-6.5591693,8.209855,-0.045984935,-0.9912341,-1.8464979,-1.0357199,0
0.9300000000000006,14.505265088544999,3.083976692485694,-5.999999460484006,-5.230245862691609,13.274107,-2.315012,-3.8080454,0.58878845,6.7394934,-9.40621,0.9041646,0.43009478,-0.27257305,0.31805903,0.7997247,-6.59086,8.355739,-0.02011194,-0.86619425,-1.9840397,-1.195916,0
0.9400000000000006,14.505265088544999,3.083976692485694,-5.999999460484006,-5.230245862691609,13.274107,-2.315012,-3.8080454,0.58878845,6.6734295,-9.321944,0.9040979,0.43733603,-0.2680662,0.30868098,0.8009947,-6.6216917,8.496691,0.006952984,-0.72898936,-2.1318674,-1.3510845,0
0.9500000000000006,14.505265088544999,3.083976692485694,-5.999999460484006,-5.230245862691609,13.274107,-2.315012,-3.8080454,0.58878845,6.6070633,-9.236293,0.9043076,0.4455395,-0.2628269,0.29928252,0.80177635,-6.6513577,8.63267,0.03516485,-0.58134913,-2.2885447,-1.5014869,0
0.9600000000000006,13.384182388673723,4.114255175836549,-5.999999698842633,-5.868803968940831,15.822384,1.3591037,-5.9053044,-3.5727756,6.540407,-9.149307,0.904805,0.45468944,-0.25677496,0.28988314,0.802054,-6.679551,8.763636,0.06448349,-0.42481843,-2.4527752,-1.6473645,0
0.9700000000000006,13.384182388673723,4.114255175836549,-5.999999698842633,-5.868803968940831,15.822384,1.3591037,-5.9053044,-3.5727756,6.4734755,-9.061024,0.9056148,0.46468484,-0.2501722,0.28067836,0.8016859,-6.706563,8.892313,0.097664714,-0.2583252,-2.4650102,-1.8061205,0
0.9800000000000006,13.384182388673723,4.114255175836549,-5.999999698842633,-5.868803968940831,15.822384,1.3591037,-5.9053044,-3.5727756,6.406283,-8.9714775,0.90676236,0.47544262,-0.24323553,0.27182436,0.80056304,-6.731622,9.016157,0.13200594,-0.08911481,-2.5040853,-1.9596522,0
0.9900000000000007,13.384182388673723,4.114255175836549,-5.999999698842633,-5.868803968940831,15.822384,1.3591037,-5.9053044,-3.5727756,6.3388505,-8.880716,0.9082582,0.48696083,-0.23583344,0.2632793,0.79870814,-6.7545333,9.13521,0.16729443,0.0827951,-2.566223,-2.1082525,0
1.0000000000000007,13.266493701449841,4.886507398066828,-5.99999935800143,-5.9999977695039535,17.1485,3.4804602,-6.141189,-5.494305,6.2712007,-8.78879,0.91011095,0.49922758,-0.22784846,0.25500458,0.79613346,-6.775097,9.249485,0.20335649,0.25728086,-2.6481247,-2.2521904,0
1.0100000000000007,13.266493701449841,4.886507398066828,-5.99999935800143,-5.9999977695039535,17.1485,3.4804602,-6.141189,-5.494305,6.2033553,-8.695732,0.9123418,0.5122335,-0.219191,0.24717082,0.7927658,-6.7934875,9.361293,0.24288419,0.5040104,-2.696379,-2.3936229,0
1.0200000000000007,13.266493701449841,4.886507398066828,-5.99999935800143,-5.9999977695039535,17.1485,3.4804602,-6.141189,-5.494305,6.1353407,-8.60158,0.91497004,0.5259623,-0.20977175,0.23991029,0.7885438,-6.8090086,9.468217,0.28281105,0.7433347,-2.768252,-2.5308962,0
1.0300000000000007,13.266493701449841,4.886507398066828,-5.99999935800143,-5.9999977695039535,17.1485,3.4804602,-6.141189,-5.494305,6.0671864,-8.506384,0.91799885,0.54037786,-0.19949353,0.23313482,0.78348017,-6.821406,9.570276,0.32297426,0.976423,-2.8600726,-2.6642158,0
1.0400000000000007,13.266493701449841,4.886507398066828,-5.99999935800143,-5.9999977695039535,16.165634,4.626321,-5.158921,-5.3262124,5.9989243,-8.410192,0.92142993,0.5554353,-0.18827182,0.22676438,0.7775746,-6.830448,9.667444,0.36323738,1.204194,-2.9686742,-2.7937708,0
1.0500000000000007,13.266493701449841,4.886507398066828,-5.99999935800143,-5.9999977695039535,16.165634,4.626321,-5.158921,-5.3262124,5.9305897,-8.313052,0.9252636,0.57108146,-0.17603378,0.2207257,0.77081597,-6.83593,9.759648,0.40348017,1.427364,-3.0913227,-2.9197357,0
1.0600000000000007,13.266493701449841,4.886507398066828,-5.99999935800143,-5.9999977695039535,16.165634,4.626321,-5.158921,-5.3262124,5.8622184,-8.215015,0.92949915,0.58725536,-0.16271731,0.21495117,0.76318365,-6.837674,9.846773,0.44358963,1.6464856,-3.2256603,-3.042272,0
1.0700000000000007,13.266493701449841,4.886507398066828,-5.99999935800143,-5.9999977695039535,16.165634,4.626321,-5.158921,-5.3262124,5.7938495,-8.116135,0.9341346,0.60388803,-0.14827043,0.20937791,0.754649,-6.8355374,9.928667,0.4834525,1.8619803,-3.3696513,-3.161529,0
1.0800000000000007,13.942663073041075,5.999999503011359,-5.651157372302809,-5.999999548165435,16.148378,5.034217,-4.740593,-4.287731,5.7255216,-8.016461,0.93916696,0.6209031,-0.13265076,0.20394702,0.74517643,-6.8294125,10.005145,0.5229485,2.0741653,-3.521538,-3.2776456,0
1.0900000000000007,13.942663073041075,5.999999503011359,-5.651157372302809,-5.999999548165435,16.148378,5.034217,-4.740593,-4.287731,5.6572776,-7.916033,0.9446265,0.6382332,-0.11568718,0.19901757,0.7346197,-6.818692,10.07956,0.5688131,2.4467354,-3.6154282,-3.3898225,0
1.1000000000000008,13.942663073041075,5.999999503011359,-5.651157372302809,-5.999999548165435,16.148378,5.034217,-4.740593,-4.287731,5.5891633,-7.8148913,0.9505397,0.6557948,-0.09721411,0.19486333,0.7228486,-6.803503,10.147785,0.6136533,2.7955177,-3.729039,-3.4995673,0
1.1100000000000008,13.942663073041075,5.999999503011359,-5.651157372302809,-5.999999548165435,16.148378,5.034217,-4.740593,-4.287731,5.5212235,-7.713099,0.95689523,0.6734745,-0.07721558,0.19131334,0.7098368,-6.78367,10.209657,0.65723866,3.1236188,-3.858688,-3.6069448,0
1.1200000000000008,13.88850924692665,5.582668564905019,-5.203103931647849,-5.99999978890884,17.236612,5.152853,-4.250317,-2.5587025,5.4535065,-7.6107206,0.96367925,0.69115025,-0.05568921,0.1882147,0.6955462,-6.7591014,10.2649555,0.69932514,3.433659,-4.0012655,-3.712017,0
1.1300000000000008,13.88850924692665,5.582668564905019,-5.203103931647849,-5.99999978890884,17.236612,5.152853,-4.250317,-2.5587025,5.3860545,-7.5078287,0.97085893,0.70867586,-0.03277429,0.18543977,0.679938,-6.7304893,10.312276,0.7363566,3.6942327,-4.1155725,-3.8176494,0
1.1400000000000008,13.88850924692665,5.582668564905019,-5.203103931647849,-5.99999978890884,17.236612,5.152853,-4.250317,-2.5587025,5.3189116,-7.404498,0.9783999,0.72590905,-0.008607428,0.18287829,0.66297567,-6.697322,10.35274,0.7715185,3.943742,-4.2416654,-3.9207454,0
1.1500000000000008,13.88850924692665,5.582668564905019,-5.203103931647849,-5.99999978890884,17.236612,5.152853,-4.250317,-2.5587025,5.2521224,-7.300798,0.98628175,0.74272215,0.016797822,0.18042369,0.64461476,-6.659782,10.386095,0.8044878,4.183515,-4.3773046,-4.021394,0
1.1600000000000008,14.127773710693825,4.571556719307008,-4.783714063062974,-5.999999817166833,18.399923,3.7749944,-4.247544,-0.7773941,5.185731,-7.1968,0.9944849,0.7589762,0.043383047,0.17798205,0.62481564,-6.6177306,10.412314,0.836109,4.4010887,-4.506935,-4.1184845,0
1.1700000000000008,14.127773710693825,4.571556719307008,-4.783714063062974,-5.999999817166833,18.399923,3.7749944,-4.247544,-0.7773941,5.1197877,-7.0925746,1.003014,0.7745131,0.07054129,0.17536353,0.60365564,-6.570149,10.431591,0.869605,4.427283,-4.550436,-4.2108107,0
1.1800000000000008,14.127773710693825,4.571556719307008,-4.783714063062974,-5.999999817166833,18.399923,3.7749944,-4.247544,-0.7773941,5.0543427,-6.988195,1.0118746,0.789225,0.09773227,0.17244032,0.5812365,-6.5181646,10.443106,0.90234107,4.449419,-4.587131,-4.298607,0
1.1900000000000008,14.127773710693825,4.571556719307008,-4.783714063062974,-5.999999817166833,18.399923,3.7749944,-4.247544,-0.7773941,4.989438,-6.8837404,1.021057,0.8030348,0.12488291,0.1692294,0.557584,-6.4622784,10.446574,0.9339242,4.4681287,-4.618084,-4.382095,0
1.2000000000000008,13.863344596907323,3.2188937940064966,-4.429124482011727,-5.999999726500341,18.798285,2.4259355,-4.2970614,1.3468658,4.925109,-6.7792926,1.0305479,0.81587076,0.15192425,0.16574721,0.53272957,-6.403033,10.441764,0.9639637,4.4839435,-4.6441917,-4.461486,0
1.2100000000000009,13.863344596907323,3.2188937940064966,-4.429124482011727,-5.999999726500341,18.798285,2.4259355,-4.2970614,1.3468658,4.861381,-6.674934,1.0403179,0.827738,0.17827399,0.16184518,0.50682676,-6.342188,10.428766,0.9897267,4.286531,-4.610291,-4.536981,0
1.2200000000000009,13.863344596907323,3.2188937940064966,-4.429124482011727,-5.999999726500341,18.798285,2.4259355,-4.2970614,1.3468658,4.7982717,-6.570746,1.050335,0.8386812,0.2034656,0.157433,0.48003063,-6.279373,10.407516,1.013348,4.119903,-4.5817394,-4.608772,0
1.2300000000000009,13.863344596907323,3.2188937940064966,-4.429124482011727,-5.999999726500341,18.798285,2.4259355,-4.2970614,1.3468658,4.7357974,-6.4668117,1.0605768,0.84868544,0.2275954,0.1526004,0.4523775,-6.2153406,10.378122,1.0346195,3.9792602,-4.557695,-4.6770396,0
1.2400000000000009,13.863344596907323,3.2188937940064966,-4.429124482011727,-5.999999726500341,18.50522,0.39403012,-4.3983,4.335635,4.6739664,-6.363211,1.0710187,0.85772914,0.25074282,0.1474209,0.42390415,-6.150804,10.3407345,1.0533566,3.8605509,-4.537447,-4.7419577,0
1.2500000000000009,13.863344596907323,3.2188937940064966,-4.429124482011727,-5.999999726500341,18.50522,0.39403012,-4.3983,4.335635,4.61278,-6.260023,1.0816346,0.86578643,0.2729725,0.14195488,0.3946486,-6.086442,10.295529,1.0693969,3.7603552,-4.520396,-4.80369,0
1.260000000000001,13.863344596907323,3.2188937940064966,-4.429124482011727,-5.999999726500341,18.50522,0.39403012,-4.3983,4.335635,4.5522337,-6.157326,1.0923969,0.872829,0.29433623,0.13625193,0.36465046,-6.022903,10.242717,1.0825971,3.675787,-4.506039,-4.8623934,0
1.270000000000001,13.863344596907323,3.2188937940064966,-4.429124482011727,-5.999999726500341,18.50522,0.39403012,-4.3983,4.335635,4.4923167,-6.0551944,1.1032765,0.87882745,0.31487465,0.13035282,0.33395112,-5.960805,10.18254,1.0928332,3.6044095,-4.49395,-4.918216,0
1.280000000000001,12.962145886917462,1.6136618334655979,-4.425064672458515,-5.999999501509628,18.56862,-0.35739252,-3.5579784,5.2146807,4.4330106,-5.9537,1.114243,0.88375217,0.3346189,0.12429128,0.3025939,-5.9007387,10.11527,1.0999992,3.5441658,-4.4837704,-4.9712996,0
1.290000000000001,12.962145886917462,1.6136618334655979,-4.425064672458515,-5.999999501509628,18.56862,-0.35739252,-3.5579784,5.2146807,4.374274,-5.8528886,1.1252323,0.8877993,0.353025,0.11791159,0.2707059,-5.8470197,10.046043,1.0973953,3.2429888,-4.473748,-5.0217786,0
1.300000000000001,12.962145886917462,1.6136618334655979,-4.425064672458515,-5.999999501509628,18.56862,-0.35739252,-3.5579784,5.2146807,4.3160596,-5.7527995,1.1361814,0.8911578,0.36966786,0.11111869,0.23840137,-5.7963376,9.970943,1.091973,2.988783,-4.465419,-5.06978,0
1.310000000000001,12.962145886917462,1.6136618334655979,-4.425064672458515,-5.999999501509628,18.56862,-0.35739252,-3.5579784,5.2146807,4.258334,-5.653488,1.1470628,0.89378303,0.38472936,0.10401467,0.20570688,-5.7492447,9.8904705,1.0838978,2.774223,-4.4585004,-5.1154256,0
1.320000000000001,12.353743279488366,-1.098022308171447,-5.043658586729758,-5.999999684644545,17.922806,-0.80506986,-1.980533,4.80695,4.2010603,-5.5550065,1.1578509,0.89562875,0.39836228,0.09668076,0.1726519,-5.706222,9.80512,1.0733348,2.5931268,-4.452757,-5.158832,0
1.330000000000001,12.353743279488366,-1.098022308171447,-5.043658586729758,-5.999999684644545,17.922806,-0.80506986,-1.980533,4.80695,4.144185,-5.45738,1.1685015,0.8971136,0.40976325,0.08878749,0.13927376,-5.6695204,9.719629,1.0564924,2.0170667,-4.5430293,-5.2001085,0
1.340000000000001,12.353743279488366,-1.098022308171447,-5.043658586729758,-5.999999684644545,17.922806,-0.80506986,-1.980533,4.80695,4.0876536,-5.3606257,1.1789747,0.89858586,0.41829723,0.08011711,0.10560005,-5.6376123,9.630675,1.0379384,1.5308914,-4.619497,-5.23936,0
1.350000000000001,12.353743279488366,-1.098022308171447,-5.043658586729758,-5.999999684644545,17.922806,-0.80506986,-1.980533,4.80695,4.0314145,-5.2647758,1.1892561,0.8998914,0.42430916,0.0708695,0.071651615,-5.6109247,9.538978,1.0181835,1.1205773,-4.6842737,-5.2766843,0
1.360000000000001,13.381356493656762,-5.9999902166200485,-5.361167051941292,-5.999999874381141,17.236052,-1.1444299,-0.94870055,4.0363874,3.9754152,-5.1698537,1.1993358,0.9008825,0.42809013,0.06120309,0.037455607,-5.5897713,9.445228,0.99768543,0.77428824,-4.7391486,-5.312177,0
1.370000000000001,13.381356493656762,-5.9999902166200485,-5.361167051941292,-5.999999874381141,17.236052,-1.1444299,-0.94870055,4.0363874,3.919606,-5.075916,1.2092409,0.90227026,0.4281219,0.051083025,0.00310749,-5.5730953,9.342248,0.98337,-0.28259027,-4.8324933,-5.3459287,0
1.380000000000001,13.381356493656762,-5.9999902166200485,-5.361167051941292,-5.999999874381141,17.236052,-1.1444299,-0.94870055,4.0363874,3.8639314,-4.9830093,1.2190057,0.9045838,0.42320305,0.040558502,-0.031327575,-5.5628138,9.239019,0.9697724,-1.1745981,-4.9118123,-5.378024,0
1.390000000000001,13.381356493656762,-5.9999902166200485,-5.361167051941292,-5.999999874381141,17.236052,-1.1444299,-0.94870055,4.0363874,3.8083274,-4.8911314,1.2286423,0.9074105,0.41397935,0.02983861,-0.06584833,-5.558927,9.1367855,0.957902,-1.9274536,-4.979216,-5.408545,0
1.400000000000001,12.21645240842459,-5.999998555755276,-5.1772201706559,-5.999999828468314,16.92016,-1.4391874,0.34094086,3.3834548,3.752731,-4.800266,1.2381725,0.9103593,0.4009915,0.019079851,-0.100432836,-5.5612803,9.036711,0.94857866,-2.562863,-5.036496,-5.4375677,0
1.410000000000001,12.21645240842459,-5.999998555755276,-5.1772201706559,-5.999999828468314,16.92016,-1.4391874,0.34094086,3.3834548,3.6970844,-4.710343,1.247585,0.9130715,0.3847072,0.008465817,-0.13501152,-5.56886,8.948313,0.9344349,-3.0990465,-5.056489,-5.465167,0
1.420000000000001,12.21645240842459,-5.999998555755276,-5.1772201706559,-5.999999828468314,16.92016,-1.4391874,0.34094086,3.3834548,3.6413364,-4.6212854,1.2568728,0.91523147,0.36553293,-0.0018641262,-0.16950709,-5.581483,8.863808,0.9236249,-3.5515983,-5.0736465,-5.491411,0
1.430000000000001,12.21645240842459,-5.999998555755276,-5.1772201706559,-5.999999828468314,16.92016,-1.4391874,0.34094086,3.3834548,3.585439,-4.53305,1.2660701,0.91656417,0.3438153,-0.011865962,-0.20386137,-5.5986676,8.784056,0.916431,-3.9335623,-5.08837,-5.516368,0
1.440000000000001,12.21645240842459,-5.999998555755276,-5.1772201706559,-5.999999828468314,15.357641,-0.61848825,0.751546,2.2350907,3.5293493,-4.4455853,1.2752142,0.91683173,0.31985885,-0.021510668,-0.23800474,-5.6198626,8.709847,0.9130052,-4.2559476,-5.1010027,-5.5401,0
1.450000000000001,12.21645240842459,-5.999998555755276,-5.1772201706559,-5.999999828468314,15.357641,-0.61848825,0.751546,2.2350907,3.47303,-4.358832,1.284343,0.9158314,0.29393405,-0.030780258,-0.271859,-5.6444554,8.641901,0.91337997,-4.5280476,-5.111841,-5.5626674,0
1.460000000000001,12.21645240842459,-5.999998555755276,-5.1772201706559,-5.999999828468314,15.357641,-0.61848825,0.751546,2.2350907,3.4164507,-4.2727237,1.2934945,0.9133929,0.2662835,-0.039664745,-0.30533955,-5.671787,8.5808525,0.91748,-4.757704,-5.1211395,-5.5841274,0
1.470000000000001,12.21645240842459,-5.999998555755276,-5.1772201706559,-5.999999828468314,15.357641,-0.61848825,0.751546,2.2350907,3.359587,-4.187189,1.3027048,0.90937585,0.23712702,-0.04815981,-0.33835775,-5.701156,8.527262,0.925133,-4.951537,-5.1291146,-5.6045346,0
1.480000000000001,11.207628528990043,-4.9594831086414155,-4.102362642328009,-5.999999786141697,15.247313,-0.23982711,0.54664123,1.6300286,3.3024228,-4.1021514,1.3120084,0.90366673,0.20666519,-0.05626507,-0.37082228,-5.731835,8.481593,0.9360804,-5.115135,-5.135956,-5.62394,0
1.490000000000001,11.207628528990043,-4.9594831086414155,-4.102362642328009,-5.999999786141697,15.247313,-0.23982711,0.54664123,1.6300286,3.2449613,-4.017513,1.3213905,0.89613247,0.17562535,-0.0637565,-0.4025376,-5.7604938,8.44728,0.94072944,-5.0903316,-4.9747963,-5.642393,0
1.500000000000001,11.207628528990043,-4.9594831086414155,-4.102362642328009,-5.999999786141697,15.247313,-0.23982711,0.54664123,1.6300286,3.1872134,-3.9331791,1.3308309,0.8867403,0.14462847,-0.07048209,-0.43336535,-5.7889757,8.420619,0.94767314,-5.069482,-4.838759,-5.6599407,0
1.5100000000000011,11.207628528990043,-4.9594831086414155,-4.102362642328009,-5.999999786141697,15.247313,-0.23982711,0.54664123,1.6300286,3.1291845,-3.8490741,1.3403505,0.875542,0.11369946,-0.07653881,-0.46329206,-5.8166213,8.401552,0.95647746,-5.051956,-4.723927,-5.676627,0
1.5200000000000011,8.53716890252052,-2.05910171830026,-2.579924720894062,-5.999999814285108,14.058355,0.8249906,1.2746459,1.4082505,3.070886,-3.7651222,1.3499653,0.8625845,0.082863614,-0.08200776,-0.4922961,-5.8428097,8.389973,0.9667126,-5.0372243,-4.6269965,-5.692495,0
1.5300000000000011,8.53716890252052,-2.05910171830026,-2.579924720894062,-5.999999814285108,14.058355,0.8249906,1.2746459,1.4082505,3.0123644,-3.681243,1.359558,0.847902,0.053450253,-0.08702279,-0.5202223,-5.8612294,8.386691,0.95189387,-4.5716515,-4.3094354,-5.7075844,0
1.5400000000000011,8.53716890252052,-2.05910171830026,-2.579924720894062,-5.999999814285108,14.058355,0.8249906,1.2746459,1.4082505,2.9536674,-3.5973709,1.3690047,0.83166134,0.0265208,-0.091749445,-0.54700744,-5.8778954,8.388524,0.9374903,-4.17886,-4.041138,-5.7219334,0
1.5500000000000012,8.53716890252052,-2.05910171830026,-2.579924720894062,-5.999999814285108,14.058355,0.8249906,1.2746459,1.4082505,2.8948128,-3.513457,1.3783082,0.8140602,0.0017300793,-0.09628085,-0.5727408,-5.892676,8.3949995,0.9232121,-3.8474731,-3.8144615,-5.7355776,0
1.5600000000000012,7.806884353663289,-1.02922507973429,-0.5224710022453259,-5.999999865452921,13.584654,1.635686,1.6145929,0.45413402,2.8358204,-3.429457,1.3874686,0.7952487,-0.021219673,-0.10068423,-0.5974872,-5.905467,8.405695,0.90883017,-3.567892,-3.6229484,-5.748553,0
1.5700000000000012,7.806884353663289,-1.02922507973429,-0.5224710022453259,-5.999999865452921,13.584654,1.635686,1.6145929,0.45413402,2.7767153,-3.3453362,1.3964483,0.7754487,-0.041758873,-0.10461091,-0.62128186,-5.9152737,8.418958,0.8870292,-3.170208,-3.1408906,-5.7608914,0
1.5800000000000012,7.806884353663289,-1.02922507973429,-0.5224710022453259,-5.999999865452921,13.584654,1.635686,1.6145929,0.45413402,2.7175217,-3.2610676,1.4052081,0.75488555,-0.05944167,-0.107814744,-0.6441968,-5.9231787,8.435192,0.8648754,-2.8348155,-2.7337832,-5.7726245,0
1.5900000000000012,7.806884353663289,-1.02922507973429,-0.5224710022453259,-5.999999865452921,13.584654,1.635686,1.6145929,0.45413402,2.6582582,-3.176624,1.4137443,0.7336542,-0.074675776,-0.1104676,-0.6663114,-5.929212,8.453898,0.84232485,-2.5519588,-2.389973,-5.783782,0
1.6000000000000012,8.19686950279499,-3.8756560376567046,0.7961895067255768,-5.9999999373529596,14.528954,0.1476144,1.9433247,0.2509772,2.5989435,-3.0919828,1.4220531,0.71181834,-0.08781096,-0.11270255,-0.6876778,-5.933422,8.474652,0.8193629,-2.3134098,-2.0996175,-5.7943916,0
1.6100000000000012,8.19686950279499,-3.8756560376567046,0.7961895067255768,-5.9999999373529596,14.528954,0.1476144,1.9433247,0.2509772,2.539595,-3.00712,1.4301488,0.68937296,-0.09957755,-0.11345676,-0.7085024,-5.9359484,8.4981985,0.7997333,-2.5553465,-1.6470864,-5.804481,0
1.6200000000000012,8.19686950279499,-3.8756560376567046,0.7961895067255768,-5.9999999373529596,14.528954,0.1476144,1.9433247,0.2509772,2.4802315,-2.9220142,1.4380465,0.66627735,-0.11052666,-0.11186998,-0.72893226,-5.9363794,8.523045,0.77974147,-2.7598143,-1.2652671,-5.814075,0
1.6300000000000012,8.19686950279499,-3.8756560376567046,0.7961895067255768,-5.9999999373529596,14.528954,0.1476144,1.9433247,0.2509772,2.4208753,-2.8366559,1.4457425,0.6425234,-0.120700285,-0.10831172,-0.7489075,-5.934494,8.548733,0.75945497,-2.9326165,-0.943111,-5.8231983,0
1.6400000000000012,8.19686950279499,-3.8756560376567046,0.7961895067255768,-5.9999999373529596,15.837929,-1.8118705,1.7612611,0.0800542,2.3615503,-2.7510383,1.4532346,0.6181036,-0.13014093,-0.10309339,-0.76836306,-5.9301395,8.574836,0.7389308,-3.0786572,-0.67129576,-5.8318744,0
1.6500000000000012,8.19686950279499,-3.8756560376567046,0.7961895067255768,-5.9999999373529596,15.837929,-1.8118705,1.7612611,0.0800542,2.3022814,-2.6651592,1.4605204,0.59301406,-0.1388904,-0.0964779,-0.7872322,-5.9232216,8.600955,0.7182145,-3.2020812,-0.44195527,-5.840124,0
1.6600000000000013,8.19686950279499,-3.8756560376567046,0.7961895067255768,-5.9999999373529596,15.837929,-1.8118705,1.7612611,0.0800542,2.243095,-2.5790205,1.4675982,0.56725556,-0.14698882,-0.08868761,-0.80544937,-5.9136953,8.62672,0.69733953,-3.3063912,-0.24845286,-5.8479695,0
1.6700000000000013,8.19686950279499,-3.8756560376567046,0.7961895067255768,-5.9999999373529596,15.837929,-1.8118705,1.7612611,0.0800542,2.1840165,-2.4926274,1.4744666,0.5408341,-0.1544742,-0.07991102,-0.8229515,-5.901558,8.651786,0.6763282,-3.3945472,-0.08518848,-5.8554296,0
1.6800000000000013,10.366863765987809,-5.329883501192783,2.0923958711681134,-5.999999949388956,15.797834,-2.83594,1.2744113,0.05827371,2.1250725,-2.4059882,1.4811243,0.51376104,-0.16138197,-0.070308335,-0.83967906,-5.886845,8.675834,0.65519255,-3.469051,0.05256254,-5.8625236,0
1.6900000000000013,10.366863765987809,-5.329883501192783,2.0923958711681134,-5.999999949388956,15.797834,-2.83594,1.2744113,0.05827371,2.0663104,-2.319085,1.4876719,0.48598883,-0.16759655,-0.05926261,-0.8556944,-5.8650527,8.704554,0.6542851,-3.7580285,0.37179428,-5.8692694,0
1.7000000000000013,10.366863765987809,-5.329883501192783,2.0923958711681134,-5.999999949388956,15.797834,-2.83594,1.2744113,0.05827371,2.0077822,-2.231905,1.4942098,0.45746177,-0.17299691,-0.046298895,-0.8710086,-5.8401237,8.731013,0.65326405,-4.002128,0.641072,-5.8756843,0
1.7100000000000013,10.366863765987809,-5.329883501192783,2.0923958711681134,-5.999999949388956,15.797834,-2.83594,1.2744113,0.05827371,1.9495186,-2.144474,1.500737,0.42818886,-0.17761227,-0.031736758,-0.885494,-5.812156,8.754633,0.6521469,-4.2083197,0.8682116,-5.8817844,0
1.7200000000000013,14.131658297906698,-5.74014466122115,5.999998770978293,-5.999999914682124,15.814426,-3.7936177,1.1828138,0.12872522,1.8915489,-2.0568235,1.5072523,0.39818725,-0.18147379,-0.015850358,-0.8990337,-5.7813234,8.774892,0.6509204,-4.38249,1.0598067,-5.887585,0
1.7300000000000013,14.131658297906698,-5.74014466122115,5.999998770978293,-5.999999914682124,15.814426,-3.7936177,1.1828138,0.12872522,1.833961,-1.9689585,1.5139306,0.36746597,-0.18326057,0.001874723,-0.91180015,-5.735763,8.797222,0.6847015,-4.5912547,1.8310474,-5.8931017,0
1.7400000000000013,14.131658297906698,-5.74014466122115,5.999998770978293,-5.999999914682124,15.814426,-3.7936177,1.1828138,0.12872522,1.7768432,-1.8809007,1.5209461,0.33599576,-0.18189773,0.021774083,-0.9238748,-5.6874604,8.813235,0.7184226,-4.7679195,2.4818902,-5.898347,0
1.7500000000000013,14.131658297906698,-5.74014466122115,5.999998770978293,-5.999999914682124,15.814426,-3.7936177,1.1828138,0.12872522,1.720218,-1.7927188,1.5282992,0.303756,-0.1777559,0.043393113,-0.93501383,-5.63739,8.821958,0.7521652,-4.91742,3.03113,-5.903335,0
1.7600000000000013,15.644300569646257,-5.999999781570279,5.999999581301697,-5.999999851758983,15.854305,-4.298446,1.7701024,1.1228545,1.6640979,-1.7044892,1.5359895,0.2707457,-0.17116122,0.0663462,-0.94498545,-5.586573,8.822635,0.7859063,-5.0439324,3.4946277,-5.908078,0
1.7700000000000014,15.644300569646257,-5.999999781570279,5.999999581301697,-5.999999851758983,15.854305,-4.298446,1.7701024,1.1228545,1.6085124,-1.6162989,1.5440874,0.23696536,-0.16242902,0.090402365,-0.9535672,-5.530653,8.81387,0.8336249,-5.1915154,3.8859239,-5.912589,0
1.7800000000000014,15.644300569646257,-5.999999781570279,5.999999581301697,-5.999999851758983,15.854305,-4.298446,1.7701024,1.1228545,1.5534796,-1.5282459,1.5526608,0.20243673,-0.15183285,0.11535614,-0.9605508,-5.476232,8.79516,0.88097036,-5.316316,4.2161098,-5.9168787,0
1.7900000000000014,15.644300569646257,-5.999999781570279,5.999999581301697,-5.999999851758983,15.854305,-4.298446,1.7701024,1.1228545,1.4989785,-1.4404308,1.5617044,0.16721721,-0.13959068,0.14093313,-0.96575844,-5.424473,8.766273,0.9276176,-5.4218516,4.4947286,-5.9209576,0
1.8000000000000014,16.939560721815226,-5.999999809216049,5.999999437042667,-5.999999856840686,13.361349,-4.1791344,1.1511074,1.5078831,1.4449769,-1.3529555,1.5712094,0.13137771,-0.12590095,0.16689332,-0.9690377,-5.3765264,8.727172,0.97317344,-5.5110955,4.7298336,-5.924836,0
1.8100000000000014,16.939560721815226,-5.999999809216049,5.999999437042667,-5.999999856840686,13.361349,-4.1791344,1.1511074,1.5078831,1.3914492,-1.2659415,1.5812217,0.095000505,-0.110945195,0.19302556,-0.9702607,-5.3299546,8.673945,1.0289587,-5.586563,4.9282207,-5.928524,0
1.8200000000000014,16.939560721815226,-5.999999809216049,5.999999437042667,-5.999999856840686,13.361349,-4.1791344,1.1511074,1.5078831,1.3383555,-1.1795127,1.5917813,0.058177017,-0.09489016,0.21914288,-0.96932256,-5.2898884,8.61019,1.0825564,-5.650381,5.095624,-5.932031,0
1.8300000000000014,16.939560721815226,-5.999999809216049,5.999999437042667,-5.999999856840686,13.361349,-4.1791344,1.1511074,1.5078831,1.2856253,-1.093772,1.6028634,0.021005895,-0.077889666,0.24507888,-0.9661402,-5.2574205,8.536449,1.1334188,-5.704347,5.236882,-5.935366,0
1.8400000000000014,16.939560721815226,-5.999999809216049,5.999999437042667,-5.999999856840686,11.482899,-3.652483,1.051613,2.5220575,1.2331775,-1.0088158,1.6144383,-0.016408749,-0.060085963,0.27068472,-0.9606502,-5.233557,8.453429,1.1809876,-5.7499824,5.3560786,-5.9385376,0
1.8500000000000014,16.939560721815226,-5.999999809216049,5.999999437042667,-5.999999856840686,11.482899,-3.652483,1.051613,2.5220575,1.1809216,-0.92473245,1.62647,-0.05395886,-0.041611142,0.29582655,-0.95280755,-5.2192054,8.361985,1.2247078,-5.7885733,5.456659,-5.9415536,0
1.8600000000000014,16.939560721815226,-5.999999809216049,5.999999437042667,-5.999999856840686,11.482899,-3.652483,1.051613,2.5220575,1.1287581,-0.84160155,1.6389173,-0.091533765,-0.022588171,0.3203836,-0.94258386,-5.21516,8.263109,1.2640404,-5.821207,5.54153,-5.9444213,0
1.8700000000000014,16.939560721815226,-5.999999809216049,5.999999437042667,-5.999999856840686,11.482899,-3.652483,1.051613,2.5220575,1.0765805,-0.759492,1.6517339,-0.12902129,-0.003131871,0.34424642,-0.929966,-5.2220926,8.1579075,1.2984731,-5.848802,5.613146,-5.947149,0
1.8800000000000014,16.797115495209642,-5.770870643167033,5.360639245150377,-5.99999992633481,11.337608,-1.7161294,1.4609188,1.6939777,1.0242766,-0.678461,1.6648684,-0.16630864,0.016650237,0.36731544,-0.9149547,-5.2405467,8.047588,1.3275305,-5.8721375,5.6735764,-5.949742,0
1.8900000000000015,16.797115495209642,-5.770870643167033,5.360639245150377,-5.99999992633481,11.337608,-1.7161294,1.4609188,1.6939777,0.97173,-0.59854865,1.6782594,-0.20319073,0.036408253,0.38946563,-0.89760965,-5.2706523,7.9343944,1.3497653,-5.8565254,5.624723,-5.952208,0
1.9000000000000015,16.797115495209642,-5.770870643167033,5.360639245150377,-5.99999992633481,11.337608,-1.7161294,1.4609188,1.6939777,0.9188225,-0.5197817,1.6918426,-0.23948407,0.055853136,0.41061038,-0.8780236,-5.312698,7.8187103,1.365898,-5.843319,5.583497,-5.954553,0
1.9100000000000015,16.797115495209642,-5.770870643167033,5.360639245150377,-5.99999992633481,11.337608,-1.7161294,1.4609188,1.6939777,0.865435,-0.4421785,1.7055554,-0.27510992,0.074971646,0.43071324,-0.85625845,-5.3666663,7.701855,1.3756511,-5.832147,5.548707,-5.956783,0
1.9200000000000015,13.500308946308957,-4.332201745208848,5.99999942958877,-5.999999854887684,10.829,-1.2151895,1.183597,1.4001077,0.81144863,-0.36574408,1.7193329,-0.3099905,0.09374642,0.449737,-0.8323778,-5.432437,7.58515,1.3788134,-5.8226967,5.5193496,-5.958904,0
1.9300000000000015,13.500308946308957,-4.332201745208848,5.99999942958877,-5.999999854887684,10.829,-1.2151895,1.183597,1.4001077,0.7568207,-0.29035696,1.7330147,-0.3442245,0.11218127,0.4670908,-0.8066906,-5.494599,7.492544,1.3567188,-5.589959,5.593412,-5.9609203,0
1.9400000000000015,13.500308946308957,-4.332201745208848,5.99999942958877,-5.999999854887684,10.829,-1.2151895,1.183597,1.4001077,0.70152575,-0.21588501,1.7464492,-0.37790114,0.13024451,0.48231947,-0.77948296,-5.5657687,7.402304,1.3293889,-5.3935614,5.6560636,-5.962838,0
1.9500000000000015,13.500308946308957,-4.332201745208848,5.99999942958877,-5.999999854887684,10.829,-1.2151895,1.183597,1.4001077,0.6454757,-0.14229883,1.7595853,-0.41092828,0.14787325,0.49557078,-0.75078607,-5.6455584,7.315564,1.2970694,-5.2278295,5.709063,-5.9646616,0
1.9600000000000015,12.65701053668692,-3.020973163649145,5.999998465103038,-5.999999826566974,10.308186,-1.2749739,0.8937396,1.2667595,0.58858657,-0.06955809,1.7723744,-0.4432142,0.16501555,0.50696754,-0.7206342,-5.7334943,7.2333713,1.260034,-5.0879755,5.7538977,-5.9663954,0
1.9700000000000015,12.65701053668692,-3.020973163649145,5.999998465103038,-5.999999826566974,10.308186,-1.2749739,0.8937396,1.2667595,0.53080916,0.002411766,1.784753,-0.47476104,0.18139014,0.51624423,-0.6893404,-5.823048,7.1614723,1.2150686,-4.7654753,5.79103,-5.9680443,0
1.9800000000000015,12.65701053668692,-3.020973163649145,5.999998465103038,-5.999999826566974,10.308186,-1.2749739,0.8937396,1.2667595,0.47210342,0.07369189,1.7966632,-0.50557953,0.19675945,0.5232317,-0.65719277,-5.91905,7.0955424,1.1664639,-4.4932914,5.8225656,-5.9696126,0
1.9900000000000015,12.65701053668692,-3.020973163649145,5.999998465103038,-5.999999826566974,10.308186,-1.2749739,0.8937396,1.2667595,0.41240844,0.14434552,1.8080714,-0.53559065,0.21114741,0.5281496,-0.62419236,-6.020783,7.036274,1.1147436,-4.2635736,5.849347,-5.971104,0
2.0000000000000013,,,,,11.355289,-0.6053596,0.29998007,0.22234146,0.3516706,0.21444225,1.818949,-0.564715,0.22457911,0.53118,-0.5903453,-6.127508,6.9842443,1.0604175,-4.0696964,5.8720913,-5.972522,0
2.010000000000001,,,,,11.355289,-0.6053596,0.29998007,0.22234146,0.28983116,0.28405172,1.8292774,-0.5930055,0.23676012,0.5321562,-0.55596536,-6.2409925,6.9389067,1.004959,-3.6887572,5.8905606,-5.97387,0
2.020000000000001,,,,,11.355289,-0.6053596,0.29998007,0.22234146,0.22683887,0.3532486,1.8390433,-0.6205135,0.24745056,0.53098965,-0.52132493,-6.3579416,6.9017673,0.9480455,-3.3672364,5.9063797,-5.975152,0
2.0300000000000007,,,,,11.355289,-0.6053596,0.29998007,0.22234146,0.1626634,0.42211592,1.8482356,-0.64715785,0.2567527,0.52791905,-0.48637912,-6.477495,6.8730164,0.8903598,-3.0958657,5.919926,-5.976371,0
2.0400000000000005,,,,,11.355289,-0.6053596,0.29998007,0.22234146,0.09728289,0.49073806,1.8568499,-0.6728581,0.2647598,0.5231406,-0.4510948,-6.5988235,6.8527393,0.8325277,-2.8668232,5.9315243,-5.97753,0
2.0500000000000003,,,,,11.685204,0.4688801,-0.029243333,-0.119244896,0.030683592,0.5591998,1.8648875,-0.6975364,0.27155647,0.5168163,-0.41545087,-6.721126,6.840931,0.7751211,-2.6735065,5.9414525,-5.9786325,1
2.06,,,,,11.685204,0.4688801,-0.029243333,-0.119244896,-0.037529074,0.6275699,1.8724872,-0.7206496,0.27565628,0.50933427,-0.38112316,-6.9205704,6.8351226,0.7448751,-1.8338203,5.3594055,-5.7785816,1
2.07,,,,,11.685204,0.4688801,-0.029243333,-0.119244896,-0.10770763,0.6959423,1.8797884,-0.74189144,0.27600768,0.50120753,-0.34958023,-7.1141543,6.8409715,0.71560043,-1.130089,4.8633614,-5.5834856,1
2.0799999999999996,,,,,11.685204,0.4688801,-0.029243333,-0.119244896,-0.17978945,0.764421,1.8868053,-0.76149285,0.27325922,0.49267742,-0.32050812,-7.3011394,6.8560367,0.68814826,-0.5403565,4.440607,-5.3932214,1
2.0899999999999994,,,,,14.15485,3.069389,-2.469958,2.1387253,-0.2537063,0.8330874,1.8935593,-0.7796315,0.26795286,0.48390168,-0.29362178,-7.4811187,6.8781996,0.6630781,-0.04622066,4.0802956,-5.207669,1
2.099999999999999,,,,,14.15485,3.069389,-2.469958,2.1387253,-0.3297117,0.90205264,1.9002165,-0.796185,0.25955242,0.47545686,-0.2695575,-7.7184253,6.9157176,0.668996,0.7547302,3.3742025,-4.95918,1
2.109999999999999,,,,,14.15485,3.069389,-2.469958,2.1387253,-0.4080415,0.97141516,1.9069526,-0.8110613,0.24770665,0.4678819,-0.24880931,-7.9460497,6.9571514,0.678879,1.4171678,2.7647624,-4.7168455,1
2.1199999999999988,,,,,14.15485,3.069389,-2.469958,2.1387253,-0.48860085,1.0411992,1.9138075,-0.8244104,0.23307133,0.46118096,-0.23094575,-8.164402,6.999617,0.6926767,1.964118,2.2382803,-4.4805126,1
2.1299999999999986,,,,,14.662325,4.55652,-2.4932287,2.7627115,-0.5712994,1.1114032,1.9208188,-0.8363414,0.21618856,0.45531598,-0.21559541,-8.373985,7.0408125,0.7101033,2.4148378,1.7830294,-4.2500324,1
2.1399999999999983,,,,,14.662325,4.55652,-2.4932287,2.7627115,-0.65613264,1.1820201,1.9280676,-0.84685266,0.197212,0.45040816,-0.20267937,-8.591325,7.0819044,0.7401241,2.9018335,1.2698822,-4.0074215,1
2.149999999999998,,,,,14.662325,4.55652,-2.4932287,2.7627115,-0.7430975,1.2530233,1.9356309,-0.8559276,0.17628965,0.44654328,-0.19211324,-8.800415,7.1178145,0.77292275,3.3016467,0.8255448,-3.770819,1
2.159999999999998,,,,,14.662325,4.55652,-2.4932287,2.7627115,-0.8321145,1.3243535,1.943533,-0.86362106,0.15382591,0.44360608,-0.18359831,-9.001851,7.147092,0.80774575,3.6290843,0.44047844,-3.5400763,1
2.1699999999999977,,,,,16.901789,4.7001586,-3.422934,2.9356673,-0.9231099,1.3959386,1.9517899,-0.8699785,0.13015807,0.44148284,-0.17688304,-9.196146,7.1686764,0.8437857,3.8965232,0.10651536,-3.315048,1
2.1799999999999975,,,,,16.901789,4.7001586,-3.422934,2.9356673,-1.0160781,1.4677027,1.9604553,-0.87496257,0.10536027,0.44021088,-0.17190838,-9.3963995,7.1826878,0.8892873,4.1973124,-0.2676789,-3.0807817,1
2.1899999999999973,,,,,16.901789,4.7001586,-3.422934,2.9356673,-1.1110148,1.5395588,1.969574,-0.8785303,0.07950894,0.43980777,-0.16861306,-9.589919,7.186971,0.9342593,4.4430184,-0.5917197,-2.852317,1
2.199999999999997,,,,,16.901789,4.7001586,-3.422934,2.9356673,-1.2078545,1.6114069,1.9791356,-0.88071334,0.052866884,0.44014266,-0.16679944,-9.7770405,7.1810555,0.9777672,4.6433015,-0.87236494,-2.6295109,1
2.209999999999997,,,,,15.49984,4.552978,-2.9747353,1.4554461,-1.3065344,1.683144,1.9891212,-0.8815425,0.025655415,0.44109756,-0.16630095,-9.958005,7.1647205,1.0189178,4.8062296,-1.1154027,-2.4122229,1
2.2199999999999966,,,,,15.49984,4.552978,-2.9747353,1.4554461,-1.4068145,1.754691,1.9993635,-0.8811191,-0.0018618479,0.442485,-0.16682702,-10.097259,7.1434255,1.0291104,4.8920965,-1.2794816,-2.2435672,1
2.2299999999999964,,,,,15.49984,4.552978,-2.9747353,1.4554461,-1.5084634,1.8259845,2.0096927,-0.879543,-0.029474337,0.4441474,-0.16812754,-10.231795,7.114029,1.0361935,4.9599066,-1.4226693,-2.0790884,1
2.239999999999996,,,,,15.49984,4.552978,-2.9747353,1.4554461,-1.6114342,1.8969448,2.0200748,-0.87684435,-0.057080686,0.4460282,-0.17012665,-10.361636,7.076833,1.039662,5.0130334,-1.5476652,-1.9186833,1
