t,px,py,pz,qx,qy,qz,qw,vx,vy,vz,wx,wy,wz,throttle_mpc,roll_mpc,pitch_mpc,yaw_mpc,throttle_nw,roll_nw,pitch_nw,yaw_nw,network_used
-2.0,14.639783,-11.364639,2.5943658,0.32165623,-0.36064142,-0.8317831,-0.2731518,-9.353744500000001,-1.5256376,1.1111474,1.1815052,-0.41592979999999996,-0.28763238,10.268194143669119,5.999999549813318,-5.9999998178828164,-2.4552501119794896,14.442001999999999,-0.47471592,-1.7101741999999998,-0.36168444,0
-1.99,14.546005,-11.379337,2.6053693,0.31770770000000004,-0.36483994,-0.8299234000000001,-0.2778144,-9.401432000000002,-1.4143803999999998,1.0891844,1.5132151000000003,-0.8672824,-0.35645702,10.268194143669119,5.999999549813318,-5.9999998178828164,-2.4552501119794896,10.347211999999999,-1.2004068,-2.7731812000000002,-0.11092069999999998,0
-1.98,14.451767000000002,-11.392934,2.6161425,0.31159970000000003,-0.36964518,-0.8279992,-0.28405192,-9.445717,-1.3051306999999999,1.0651553999999999,1.8324863,-1.2875968,-0.42542085,10.268194143669119,5.999999549813318,-5.9999998178828164,-2.4552501119794896,10.347211999999999,-1.2004068,-2.7731812000000002,-0.11092069999999998,0
-1.97,14.357104999999999,-11.405447,2.6266662999999997,0.30345204,-0.37501422,-0.8259224000000001,-0.29177612,-9.486072,-1.1977440000000001,1.0393603,2.1396217,-1.6800714,-0.49437028,10.268194143669119,5.999999549813318,-5.9999998178828164,-2.4552501119794896,10.347211999999999,-1.2004068,-2.7731812000000002,-0.11092069999999998,0
-1.96,14.262061,-11.416894000000001,2.6369245,0.29336774,-0.38089663,-0.8235979999999999,-0.30089757,-9.5220375,-1.0921252000000001,1.0120398000000002,2.4349906000000003,-2.0475202,-0.5631695999999999,10.268194143669119,5.999999549813318,-5.9999998178828164,-2.4552501119794896,10.530924,-0.7994595999999999,-3.3637345,0.019751396,0
-1.95,14.16668,-11.427294,2.6469028,0.28143585,-0.38723585,-0.8209253000000001,-0.3113257,-9.553211,-0.98823035,0.9833806,2.7190092,-2.3924223999999996,-0.63169885,10.268194143669119,5.999999549813318,-5.9999998178828164,-2.4552501119794896,10.530924,-0.7994595999999999,-3.3637345,0.019751396,0
-1.94,14.071014000000002,-11.436665,2.656588,0.26773447,-0.39397028,-0.8178,-0.32296840000000004,-9.5792465,-0.8860677,0.9535203000000001,2.9921231,-2.7169659999999998,-0.69985276,10.268194143669119,5.999999549813318,-5.9999998178828164,-2.4552501119794896,10.530924,-0.7994595999999999,-3.3637345,0.019751396,0
-1.93,13.975114999999999,-11.445022999999999,2.6659694,0.25233310000000003,-0.40103418,-0.81411505,-0.33573195,-9.599844000000001,-0.78569674,0.92255104,3.2547941000000002,-3.0230825,-0.7675387,10.268194143669119,5.999999549813318,-5.9999998178828164,-2.4552501119794896,10.530924,-0.7994595999999999,-3.3637345,0.019751396,0
-1.92,13.879037,-11.452386,2.6750355,0.23529495,-0.40835822,-0.8097622,-0.3495208,-9.614754,-0.68722653,0.8905242,3.5074913999999997,-3.3124837999999994,-0.83467585,12.116800660847238,5.999999660844059,-5.999999848858743,-2.603464877332102,10.2215,-0.7089181,-3.0221019,0.26040432,0
-1.91,13.782832999999998,-11.458708999999999,2.6838202,0.21660317,-0.415897,-0.8046089,-0.36430353,-9.624977000000001,-0.5778499,0.8661979999999999,3.7798796,-3.6159635000000003,-0.91107684,12.116800660847238,5.999999660844059,-5.999999848858743,-2.603464877332102,10.2215,-0.7089181,-3.0221019,0.26040432,0
-1.9,13.686561,-11.46395,2.6923556,0.1962395,-0.42359665,-0.79851466,-0.38003963,-9.628292,-0.47101304,0.840685,4.042264,-3.9046279999999998,-0.9866343000000001,12.116800660847238,5.999999660844059,-5.999999848858743,-2.603464877332102,10.2215,-0.7089181,-3.0221019,0.26040432,0
-1.89,13.590291,-11.468138,2.7006295,0.17426117,-0.4313706,-0.7913587,-0.3966153,-9.624523,-0.36700000000000005,0.81392825,4.295147,-4.1797266,-1.0612948,12.116800660847238,5.999999660844059,-5.999999848858743,-2.603464877332102,10.2215,-0.7089181,-3.0221019,0.26040432,0
-1.8800000000000001,13.494095999999999,-11.471300999999999,2.7086296,0.15072607,-0.43912983,-0.7830215,-0.41391279999999997,-9.613559,-0.26614293,0.78583616,4.539013,-4.4423733,-1.1350129,12.116800660847238,5.999999660844059,-5.999999848858743,-2.603464877332102,10.2215,-0.7089181,-3.0221019,0.26040432,0
-1.87,13.398045999999999,-11.473472000000001,2.7163427,0.12570786,-0.44677925,-0.7733899999999999,-0.43180272,-9.595221,-0.16817066,0.75674284,4.7656517,-4.684872599999999,-1.2069951,15.144165619092233,5.422724846688925,-5.999999618736732,-2.551179349734888,12.2644825,-0.63885903,-3.0453525000000004,0.18642625,0
-1.8599999999999999,13.302248,-11.47455,2.7238502999999996,0.0994841,-0.45402107,-0.7625,-0.45006815,-9.562521,-0.048018157,0.7447851,4.867751,-4.8902555,-1.2729546,15.144165619092233,5.422724846688925,-5.999999618736732,-2.551179349734888,12.2644825,-0.63885903,-3.0453525000000004,0.18642625,0
-1.85,13.206826999999999,-11.4744425,2.7312374,0.07235269999999999,-0.46060598,-0.75040925,-0.46850073,-9.519855999999999,0.06916262,0.73255855,4.9539485,-5.063593,-1.3356775,15.144165619092233,5.422724846688925,-5.999999618736732,-2.551179349734888,12.2644825,-0.63885903,-3.0453525000000004,0.18642625,0
-1.84,13.111884,-11.473181,2.7384999,0.04448452,-0.46649525,-0.7370769,-0.48695037,-9.467199,0.18258673,0.71982616,5.0267243,-5.209884,-1.3953226,14.974447964781305,3.274187078094545,-4.964172341661227,-1.0088054507443525,12.581205,-0.3903207,-1.4963083000000001,0.24245307,0
-1.83,13.017513000000001,-11.470813,2.7456264,0.016672112,-0.47125074,-0.72297436,-0.50492823,-9.405393,0.29025885,0.70539904,4.7535157,-5.171258,-1.3763561000000002,14.974447964781305,3.274187078094545,-4.964172341661227,-1.0088054507443525,12.581205,-0.3903207,-1.4963083000000001,0.24245307,0
-1.82,12.923807,-11.467394,2.752605,-0.01044335,-0.47458429999999996,-0.7085802,-0.5220865,-9.334399000000001,0.39280403,0.690121,4.522905000000001,-5.138703,-1.3583204,14.974447964781305,3.274187078094545,-4.964172341661227,-1.0088054507443525,12.581205,-0.3903207,-1.4963083000000001,0.24245307,0
-1.81,12.830853,-11.462976,2.7594258999999997,-0.03692878,-0.47666472,-0.69387305,-0.53848565,-9.254881,0.48967767,0.67392176,4.3282495,-5.111264,-1.3411696000000002,14.974447964781305,3.274187078094545,-4.964172341661227,-1.0088054507443525,12.581205,-0.3903207,-1.4963083000000001,0.24245307,0
-1.8,12.738736,-11.457621000000001,2.76608,-0.06284195,-0.47763202,-0.6788320999999999,-0.55417067,-9.167474,0.5803999,0.65672386,4.1639433,-5.0881376,-1.3248605,13.722961368567764,1.8313576048886364,-3.2740669570483947,-0.7432940402031909,13.090996,-1.0866076,-0.5232377,0.52200186,0
-1.79,12.64749,-11.451426,2.7725232,-0.08747052,-0.47759917,-0.66379386,-0.56888086,-9.080745,0.65755117,0.6317792,3.8005114,-4.8048496,-1.2963228,13.722961368567764,1.8313576048886364,-3.2740669570483947,-0.7432940402031909,13.090996,-1.0866076,-0.5232377,0.52200186,0
-1.7799999999999998,12.557139999999999,-11.4444895,2.778712,-0.110264525,-0.47671488,-0.64909315,-0.5824625,-8.988176,0.72863185,0.6058268,3.4937057,-4.5658035,-1.2691854999999999,13.722961368567764,1.8313576048886364,-3.2740669570483947,-0.7432940402031909,13.090996,-1.0866076,-0.5232377,0.52200186,0
-1.77,12.467742999999999,-11.436873,2.7846365,-0.13149078,-0.47512513,-0.6346986,-0.59508306,-8.890528999999999,0.79367375,0.5788731,3.2347037999999997,-4.3640885,-1.2433798,13.722961368567764,1.8313576048886364,-3.2740669570483947,-0.7432940402031909,13.090996,-1.0866076,-0.5232377,0.52200186,0
-1.7599999999999998,12.379344999999999,-11.428637,2.7902862999999996,-0.15137714,-0.47294430000000004,-0.6205724,-0.606876,-8.788461,0.85272753,0.55093235,3.0160577,-4.1938743999999994,-1.2188405,13.722961368567764,1.8313576048886364,-3.2740669570483947,-0.7432940402031909,14.05812,-1.7083611,1.4704073999999998,0.775358,0
-1.75,12.291986999999999,-11.419839,2.795652,-0.17011741,-0.47026193,-0.60667443,-0.61794806,-8.682544,0.9058530999999999,0.5220217,2.83148,-4.050241000000001,-1.1955053,13.722961368567764,1.8313576048886364,-3.2740669570483947,-0.7432940402031909,14.05812,-1.7083611,1.4704073999999998,0.775358,0
-1.7399999999999998,12.205706,-11.410539,2.8007232999999996,-0.18787585,-0.46714836,-0.59296536,-0.6283845,-8.573278,0.9531132999999999,0.49215788,2.6756627999999996,-3.9290369,-1.1733149999999999,13.722961368567764,1.8313576048886364,-3.2740669570483947,-0.7432940402031909,14.05812,-1.7083611,1.4704073999999998,0.775358,0
-1.73,12.120532,-11.400796000000001,2.8054917,-0.20479132,-0.46365893,-0.5794076,-0.63825357,-8.461113000000001,0.9945705,0.46135506,2.5441246,-3.8267589999999996,-1.1522138000000002,13.722961368567764,1.8313576048886364,-3.2740669570483947,-0.7432940402031909,14.05812,-1.7083611,1.4704073999999998,0.775358,0
-1.72,12.036491999999999,-11.390667,2.8099475,-0.22098085,-0.45983726,-0.56596667,-0.64760995,-8.346446,1.0302844,0.42962414,2.4330827999999998,-3.7404516000000005,-1.1321481000000002,12.62276338883258,0.2808543469513954,-1.3138382693267825,-0.34829378182129034,13.592487,-2.7844182999999996,1.9939601000000002,0.45968184,0
-1.71,11.953563,-11.380221,2.8140552000000003,-0.23572446,-0.4558759,-0.55311286,-0.65625983,-8.239023,1.0579549,0.3917382,2.097808,-3.3617222,-1.0936841999999998,12.62276338883258,0.2808543469513954,-1.3138382693267825,-0.34829378182129034,13.592487,-2.7844182999999996,1.9939601000000002,0.45968184,0
-1.7,11.8717165,-11.369525,2.81778,-0.24847779,-0.45196557,-0.54125994,-0.66409576,-8.13007,1.080835,0.35311416,1.8147556,-3.0421104,-1.0571077,12.62276338883258,0.2808543469513954,-1.3138382693267825,-0.34829378182129034,13.592487,-2.7844182999999996,1.9939601000000002,0.45968184,0
-1.69,11.790965,-11.358621000000001,2.8211155,-0.25956595,-0.4481263,-0.5302927,-0.6712656,-8.019958500000001,1.0993699,0.31387055,1.5757933000000002,-2.7723868,-1.022326,12.62276338883258,0.2808543469513954,-1.3138382693267825,-0.34829378182129034,13.592487,-2.7844182999999996,1.9939601000000002,0.45968184,0
-1.68,11.711319999999999,-11.347551,2.8240557,-0.26926120000000003,-0.44436592,-0.52010405,-0.67788535,-7.9089837,1.1139476000000001,0.2741165,1.3740548000000001,-2.5447626,-0.9892511,12.102952896176893,-1.8388909035134524,0.9746420568292912,0.3656974102362619,13.97666,-2.9491754,2.7694612000000003,0.2518678,0
-1.67,11.632764,-11.336357000000001,2.8265842999999995,-0.27678326,-0.44085,-0.5112872,-0.68383265,-7.8019905,1.1245145,0.23158696,0.87343925,-1.9955518,-0.9227634,12.102952896176893,-1.8388909035134524,0.9746420568292912,0.3656974102362619,13.97666,-2.9491754,2.7694612000000003,0.2518678,0
-1.66,11.555280999999999,-11.325071000000001,2.828687,-0.28154197,-0.43772984,-0.5043326,-0.6890390000000001,-7.694689299999999,1.1323558,0.18891734,0.45079544,-1.5320784,-0.85953826,12.102952896176893,-1.8388909035134524,0.9746420568292912,0.3656974102362619,13.97666,-2.9491754,2.7694612000000003,0.2518678,0
-1.65,11.47887,-11.313717,2.830363,-0.28399688,-0.43497333,-0.49899858,-0.6936452,-7.5873137,1.1381799,0.14635558,0.093984544,-1.1409525,-0.7994155,12.102952896176893,-1.8388909035134524,0.9746420568292912,0.3656974102362619,13.97666,-2.9491754,2.7694612000000003,0.2518678,0
-1.64,11.403533,-11.302313,2.831615,-0.2845287,-0.43253988,-0.49506766,-0.6977535,-7.480036699999999,1.1425916,0.10411449,-0.2072437,-0.81087697,-0.7422430999999999,13.139695166050089,-4.050389790391821,3.2568418860171104,0.5839960456967469,14.4585495,-2.7334402,3.8226294999999997,-0.57082117,0
-1.63,11.329314,-11.290867,2.8324711,-0.2823953,-0.43058,-0.49300724,-0.70128226,-7.363834,1.1464752,0.067226656,-0.8062643,-0.1762618,-0.67716414,13.139695166050089,-4.050389790391821,3.2568418860171104,0.5839960456967469,14.4585495,-2.7334402,3.8226294999999997,-0.57082117,0
-1.6199999999999999,11.256255,-11.279383000000001,2.8329625,-0.27701813,-0.42920467,-0.4931647,-0.7041534,-7.2481084000000005,1.15038,0.031234216000000002,-1.3119610000000002,0.35930002,-0.61527866,13.139695166050089,-4.050389790391821,3.2568418860171104,0.5839960456967469,14.4585495,-2.7334402,3.8226294999999997,-0.57082117,0
-1.6099999999999999,11.184349000000001,-11.267856,2.8330998,-0.26890185,-0.42830804,-0.49518734,-0.70642245,-7.133075,1.155229,-0.0035519619,-1.7388668,0.8112755,-0.5564299,13.139695166050089,-4.050389790391821,3.2568418860171104,0.5839960456967469,14.4585495,-2.7334402,3.8226294999999997,-0.57082117,0
-1.5999999999999999,11.11359,-11.256272000000001,2.8328962000000004,-0.25846496,-0.42778710000000003,-0.49876332,-0.7081161,-7.018936999999999,1.1618042,-0.036892675,-2.0992522,1.1927148,-0.50046885,16.26757075688796,-5.781848897105705,5.075381239861841,1.0092064200228854,17.519029999999997,-2.951019,4.6201425,-0.53960633,0
-1.5899999999999999,11.044101,-11.2446,2.8324458999999997,-0.24522203,-0.42769775,-0.5041338,-0.7090763000000001,-6.8790073000000005,1.1729673999999999,-0.052792367,-2.6734392999999996,1.7982740000000002,-0.42638862,16.26757075688796,-5.781848897105705,5.075381239861841,1.0092064200228854,17.519029999999997,-2.951019,4.6201425,-0.53960633,0
-1.5799999999999998,10.976003,-11.232797999999999,2.8318477000000004,-0.22879227,-0.42804983,-0.51144,-0.7091233,-6.7408529999999995,1.1882873999999999,-0.066396825,-3.1581569,2.3093276,-0.35594356,16.26757075688796,-5.781848897105705,5.075381239861841,1.0092064200228854,17.519029999999997,-2.951019,4.6201425,-0.53960633,0
-1.5699999999999998,10.909276,-11.220817,2.8311262000000004,-0.20963879,-0.42868477,-0.52028507,-0.7082257,-6.604945,1.2088428999999998,-0.077511676,-3.567339,2.7406322999999997,-0.28895524,16.26757075688796,-5.781848897105705,5.075381239861841,1.0092064200228854,17.519029999999997,-2.951019,4.6201425,-0.53960633,0
-1.5599999999999998,10.843895,-11.2086,2.8303065,-0.18815465,-0.42945959999999994,-0.5303208,-0.70634377,-6.471801,1.2355236,-0.086059816,-3.9127502,3.1046383,-0.22525412,16.26757075688796,-5.781848897105705,5.075381239861841,1.0092064200228854,19.47746,-3.3617146,4.3340855000000005,-0.14052179999999997,0
-1.5499999999999998,10.779829,-11.196082,2.8294137000000004,-0.16467717,-0.43024823,-0.54124284,-0.7034369,-6.3419795,1.2690469,-0.09207013,-4.204324,3.4118519999999997,-0.16467878,16.26757075688796,-5.781848897105705,5.075381239861841,1.0092064200228854,19.47746,-3.3617146,4.3340855000000005,-0.14052179999999997,0
-1.5399999999999998,10.717042,-11.183192,2.828473,-0.13949873,-0.43094137,-0.5527863000000001,-0.6994686,-6.2160788,1.3099726,-0.09566591,-4.4504475999999995,3.6711383,-0.107075885,16.26757075688796,-5.781848897105705,5.075381239861841,1.0092064200228854,19.47746,-3.3617146,4.3340855000000005,-0.14052179999999997,0
-1.5299999999999998,10.655492,-11.169853999999999,2.8275077,-0.112874985,-0.43144578,-0.5647213000000001,-0.69440836,-6.0947237,1.3587148,-0.09705351,-4.658201999999999,3.8899777,-0.052299596,16.26757075688796,-5.781848897105705,5.075381239861841,1.0092064200228854,19.47746,-3.3617146,4.3340855000000005,-0.14052179999999997,0
-1.5199999999999998,10.595130000000001,-11.15599,2.8265382999999997,-0.08503133,-0.4316828,-0.57684875,-0.68823296,-5.978557,1.4155514999999999,-0.09651123,-4.833566,4.074683,-0.0002111923,18.743418064010232,-5.99999589926052,5.7137722383745215,1.590172523857297,17.739132,-3.4163566,4.099443,-0.09720841,0
-1.5099999999999998,10.535986,-11.141466000000001,2.825659,-0.055990208,-0.43170366,-0.5890994,-0.6807776999999999,-5.8514422999999995,1.49056,-0.07913038,-5.01569,4.3300433,0.07782940599999999,18.743418064010232,-5.99999589926052,5.7137722383745215,1.590172523857297,17.739132,-3.4163566,4.099443,-0.09720841,0
-1.4999999999999998,10.478076,-11.126145,2.8249605,-0.025790547999999996,-0.43153626,-0.6013911,-0.67189246,-5.731855,1.5752586000000002,-0.06042247,-5.169422,4.5455775,0.15204051,18.743418064010232,-5.99999589926052,5.7137722383745215,1.590172523857297,17.739132,-3.4163566,4.099443,-0.09720841,0
-1.4899999999999998,10.421321,-11.109929,2.8244534,0.005354094300000001,-0.43108967,-0.61354506,-0.66158515,-5.620597,1.6696925999999999,-0.040955096,-5.299185,4.7275004,0.22261007,18.743418064010232,-5.99999589926052,5.7137722383745215,1.590172523857297,17.739132,-3.4163566,4.099443,-0.09720841,0
-1.4799999999999998,10.365633,-11.092718,2.8241419999999997,0.037251316,-0.43028906,-0.6254064,-0.64986926,-5.5184526,1.7737460999999999,-0.021339998,-5.408711,4.881057,0.28971675,19.45635979367554,-5.5668754385379975,4.747596707332395,1.224389045275661,18.149288000000002,-3.4059725,3.6866155,0.26313564,0
-1.4699999999999998,10.310936,-11.074399,2.8240472999999997,0.06939166,-0.42893496,-0.63676137,-0.6369726,-5.422646,1.8914394,0.002250827,-5.433518,4.8600769999999995,0.33558142,19.45635979367554,-5.5668754385379975,4.747596707332395,1.224389045275661,18.149288000000002,-3.4059725,3.6866155,0.26313564,0
-1.4599999999999997,10.257143,-11.054857,2.8241837000000003,0.101355,-0.42689124,-0.64746654,-0.62311924,-5.337665599999999,2.0182203999999997,0.024749652999999996,-5.454448999999999,4.842376,0.37919545,19.45635979367554,-5.5668754385379975,4.747596707332395,1.224389045275661,18.149288000000002,-3.4059725,3.6866155,0.26313564,0
-1.4499999999999997,10.204144,-11.034005,2.824537,0.13309973,-0.42418674,-0.65749025,-0.60832244,-5.2640142,2.1533740000000003,0.04559584,-5.472109,4.8274436,0.42066935,19.45635979367554,-5.5668754385379975,4.747596707332395,1.224389045275661,18.149288000000002,-3.4059725,3.6866155,0.26313564,0
-1.4399999999999997,10.151822,-11.011763,2.825088,0.16458525,-0.42084748,-0.6668024,-0.5925986999999999,-5.2021337,2.2961397,0.06423495,-5.487008,4.8148465,0.4601081,18.022473459652236,-4.128828535528785,3.1172775337943066,1.0149361773773629,18.974894,-3.0778809,2.771241,-0.27339187,0
-1.4299999999999997,10.100039500000001,-10.988113,2.8257701,0.19501159,-0.41690373,-0.6752463000000001,-0.5763712,-5.1560106,2.4346572999999996,0.07174456,-5.275201999999999,4.550081,0.48733370000000004,18.022473459652236,-4.128828535528785,3.1172775337943066,1.0149361773773629,18.974894,-3.0778809,2.771241,-0.27339187,0
-1.4199999999999997,10.048663000000001,-10.963051,2.8265133,0.22376116,-0.41243172,-0.6827724000000001,-0.56004685,-5.1209903,2.578473,0.07640412,-5.096428400000001,4.3266067999999995,0.51322323,18.022473459652236,-4.128828535528785,3.1172775337943066,1.0149361773773629,18.974894,-3.0778809,2.771241,-0.27339187,0
-1.4099999999999997,9.9975815,-10.936528,2.8272877,0.25104487,-0.40750879999999995,-0.6894908000000001,-0.54361296,-5.096843700000001,2.7266345000000003,0.07797891,-4.945535,4.137983999999999,0.53784245,18.022473459652236,-4.128828535528785,3.1172775337943066,1.0149361773773629,18.974894,-3.0778809,2.771241,-0.27339187,0
-1.3999999999999997,9.946689,-10.908506,2.8280616000000003,0.27704135,-0.40219522,-0.6954861999999999,-0.5270538,-5.0833416,2.8782834999999998,0.07626865,-4.8181753,3.9787760000000003,0.56125355,15.419560072678435,-2.332826331225358,1.1429936433494658,0.7262095399310832,18.958975,-2.6701328999999996,2.18547,0.013154473,0
-1.3899999999999997,9.895875,-10.8790655,2.8287337000000004,0.30099595,-0.3966258,-0.700757,-0.5109097,-5.0806379999999995,3.010327,0.057709284000000007,-4.4304440000000005,3.5366553999999994,0.569348,15.419560072678435,-2.332826331225358,1.1429936433494658,0.7262095399310832,18.958975,-2.6701328999999996,2.18547,0.013154473,0
-1.3799999999999997,9.845048,-10.848295,2.8292057999999995,0.32235345,-0.39095414,-0.70537984,-0.4956632,-5.086171599999999,3.1439548,0.036314834,-4.103199,3.1634657,0.5770451999999999,15.419560072678435,-2.332826331225358,1.1429936433494658,0.7262095399310832,18.958975,-2.6701328999999996,2.18547,0.013154473,0
-1.3699999999999997,9.794127,-10.816183,2.8294506,0.34151953,-0.38523766,-0.7095037,-0.4812073,-5.099276000000001,3.2785562999999995,0.012257199,-3.8270056000000006,2.8484597000000003,0.5843647,15.419560072678435,-2.332826331225358,1.1429936433494658,0.7262095399310832,18.958975,-2.6701328999999996,2.18547,0.013154473,0
-1.3599999999999997,9.743039999999999,-10.782722,2.8294422999999997,0.35883456,-0.37951332,-0.7132379,-0.46743850000000003,-5.1193705000000005,3.4136457,-0.0142930355,-3.5939,2.5825652999999997,0.59132504,15.419560072678435,-2.332826331225358,1.1429936433494658,0.7262095399310832,17.78678,-2.2171627999999997,1.2116427,0.1451411,0
-1.3499999999999996,9.691719,-10.747910000000001,2.8291564,0.37458372,-0.3738037,-0.7166626,-0.45426009999999994,-5.145949400000001,3.5488312000000004,-0.04317417,-3.3971602999999995,2.358126,0.5979439000000001,15.419560072678435,-2.332826331225358,1.1429936433494658,0.7262095399310832,17.78678,-2.2171627999999997,1.2116427,0.1451411,0
-1.3399999999999996,9.6401005,-10.711746,2.8285709999999997,0.38900587,-0.36812153,-0.71983606,-0.44158423,-5.1785765,3.6837934999999997,-0.07423747,-3.2311132000000002,2.1686783,0.6042379,15.419560072678435,-2.332826331225358,1.1429936433494658,0.7262095399310832,17.78678,-2.2171627999999997,1.2116427,0.1451411,0
-1.3299999999999996,9.588128,-10.674236,2.8276649,0.40230092,-0.36247277,-0.7228007,-0.42933226,-5.2168730000000005,3.8182685,-0.10734902,-3.0909708,2.0087667000000002,0.61022305,15.419560072678435,-2.332826331225358,1.1429936433494658,0.7262095399310832,17.78678,-2.2171627999999997,1.2116427,0.1451411,0
-1.3199999999999996,9.535746000000001,-10.635385000000001,2.8264177000000004,0.41463622,-0.3568588,-0.725587,-0.41743472,-5.2605124000000005,3.9520334999999998,-0.14239012,-2.972692,1.8737856,0.6159145,13.583424082196656,-0.655881984165676,-0.6783616992761328,0.44008318715724,16.345778,-2.0478490000000003,0.43465790000000004,0.31334344,0
-1.3099999999999996,9.482928999999999,-10.595279,2.8247743,0.42536179999999996,-0.35145316,-0.7282761999999999,-0.40640068,-5.303361,4.069081,-0.18651527,-2.6112187000000002,1.4759395,0.6072864,13.583424082196656,-0.655881984165676,-0.6783616992761328,0.44008318715724,16.345778,-2.0478490000000003,0.43465790000000004,0.31334344,0
-1.2999999999999996,9.429666000000001,-10.554008,2.8226828999999998,0.43399283,-0.34641278,-0.7309691999999999,-0.3966511,-5.3500705,4.185230000000001,-0.23191372,-2.3061461,1.1401106,0.5990816999999999,13.583424082196656,-0.655881984165676,-0.6783616992761328,0.44008318715724,16.345778,-2.0478490000000003,0.43465790000000004,0.31334344,0
-1.2899999999999996,9.375917,-10.511579,2.8201325,0.44087529999999997,-0.34170637,-0.7337013000000001,-0.38800478,-5.400087,4.300423,-0.27825442,-2.0486734,0.8566319,0.5912795999999999,13.583424082196656,-0.655881984165676,-0.6783616992761328,0.44008318715724,16.345778,-2.0478490000000003,0.43465790000000004,0.31334344,0
-1.2799999999999996,9.321653999999999,-10.468002,2.8171152999999998,0.44629565,-0.33730015,-0.7364906999999999,-0.38030222,-5.4529457,4.414636,-0.32524967,-1.8313733,0.61734295,0.5838604000000001,12.487094890619268,1.0053256139322655,-2.123832331233689,0.1850350364818993,14.699825,-1.3874881000000001,-0.39230672,0.24493632,0
-1.2699999999999996,9.266872,-10.423333999999999,2.8136053,0.4498263,-0.33341950000000004,-0.73937136,-0.37392145,-5.5037518,4.5187364,-0.37671950000000004,-1.3888265,0.19004449,0.5642899,12.487094890619268,1.0053256139322655,-2.123832331233689,0.1850350364818993,14.699825,-1.3874881000000001,-0.39230672,0.24493632,0
-1.2599999999999996,9.211574,-10.377628999999999,2.8095803,0.45114747,-0.33024558,-0.7423774000000001,-0.36915997,-5.556197,4.6220193,-0.42818642,-1.0153291,-0.17065346,0.54567975,12.487094890619268,1.0053256139322655,-2.123832331233689,0.1850350364818993,14.699825,-1.3874881000000001,-0.39230672,0.24493632,0
-1.2499999999999996,9.155744,-10.330895,2.8050427000000004,0.4506165,-0.32768148,-0.7455046,-0.36577582,-5.6097183,4.72459,-0.47930333,-0.7001063,-0.47513053,0.5279828000000001,12.487094890619268,1.0053256139322655,-2.123832331233689,0.1850350364818993,14.699825,-1.3874881000000001,-0.39230672,0.24493632,0
-1.2399999999999995,9.099376,-10.283139,2.7999968999999996,0.44852766,-0.32563832,-0.74873686,-0.36355898,-5.6638402999999995,4.826547,-0.5297775,-0.43406469999999997,-0.73214823,0.51115423,11.918056661246087,2.164706865895736,-3.326197677337898,-0.05789653119554755,14.9744835,-0.35798648,-1.1680142,-0.18405703,0
-1.2299999999999995,9.0424795,-10.234389,2.7944392999999996,0.44460420000000006,-0.32419590000000004,-0.75210476,-0.36271456,-5.715657,4.9233623,-0.58155626,-0.02867335,-1.1365530000000001,0.48323069999999996,11.918056661246087,2.164706865895736,-3.326197677337898,-0.05789653119554755,14.9744835,-0.35798648,-1.1680142,-0.18405703,0
-1.2199999999999995,8.985064999999999,-10.184673,2.7883697,0.43863204,-0.32340759999999996,-0.75561625,-0.36339062,-5.767114,5.0197945,-0.6321511,0.31346518,-1.4779243,0.45667747,11.918056661246087,2.164706865895736,-3.326197677337898,-0.05789653119554755,14.9744835,-0.35798648,-1.1680142,-0.18405703,0
-1.2099999999999995,8.927141,-10.133992999999998,2.7818012000000003,0.43091592,-0.32316044,-0.7592131999999999,-0.36534,-5.817705999999999,5.1159434,-0.68126553,0.6022221999999999,-1.7660855,0.43142718,11.918056661246087,2.164706865895736,-3.326197677337898,-0.05789653119554755,14.9744835,-0.35798648,-1.1680142,-0.18405703,0
-1.1999999999999995,8.868716000000001,-10.082353999999999,2.7747502,0.42170858,-0.3233545,-0.76283747,-0.36835018,-5.8669934,5.211878,-0.7286621,0.845928,-2.0093288,0.40741593,12.019300663275535,2.651091269258912,-3.8335474528959286,-0.23356799309854898,13.911636999999999,0.41340962,-0.9179316999999999,-0.33646079999999995,0
-1.1899999999999995,8.809805,-10.029752,2.7672367,0.41100016,-0.32396626,-0.7664466999999999,-0.37240204,-5.914985700000001,5.308453599999999,-0.7737006999999999,1.127471,-2.2937627,0.37596264,12.019300663275535,2.651091269258912,-3.8335474528959286,-0.23356799309854898,13.911636999999999,0.41340962,-0.9179316999999999,-0.33646079999999995,0
-1.1799999999999995,8.750423,-9.976185000000001,2.7592833,0.39878815,-0.32496613,-0.76998943,-0.37746575,-5.9608407,5.4048805,-0.8166220000000001,1.3650883,-2.5338592999999996,0.34605283,12.019300663275535,2.651091269258912,-3.8335474528959286,-0.23356799309854898,13.911636999999999,0.41340962,-0.9179316999999999,-0.33646079999999995,0
-1.1699999999999995,8.690596000000001,-9.921656,2.7509122,0.38527718,-0.32626432,-0.773401,-0.38335749999999996,-6.004158,5.5011535,-0.8572725,1.565635,-2.7365286,0.31761065,12.019300663275535,2.651091269258912,-3.8335474528959286,-0.23356799309854898,13.911636999999999,0.41340962,-0.9179316999999999,-0.33646079999999995,0
-1.1599999999999995,8.630349,-9.866164999999999,2.742146,0.37064058,-0.3277833,-0.7766241,-0.38992015,-6.044585,5.597235700000001,-0.89554745,1.7348956999999998,-2.9076035,0.29056412,12.019300663275535,2.651091269258912,-3.8335474528959286,-0.23356799309854898,13.277325,0.04957334,-0.9503548,-0.28348348,0
-1.1499999999999995,8.5697155,-9.809713,2.7330092999999995,0.3550259,-0.32945666,-0.7796085,-0.39701948,-6.08181,5.693061,-0.9313841999999999,1.8777523,-3.0520084,0.2648448,12.019300663275535,2.651091269258912,-3.8335474528959286,-0.23356799309854898,13.277325,0.04957334,-0.9503548,-0.28348348,0
-1.1399999999999995,8.508726,-9.752305,2.7235267000000003,0.33855963,-0.33122787,-0.7823114000000001,-0.40454087,-6.1155577,5.788541,-0.9647573,1.9983246,-3.1739,0.24038753,12.019300663275535,2.651091269258912,-3.8335474528959286,-0.23356799309854898,13.277325,0.04957334,-0.9503548,-0.28348348,0
-1.1299999999999994,8.447417,-9.693944,2.7137225,0.3213507,-0.3330489,-0.7846964,-0.41238648,-6.145585,5.883564,-0.99567354,2.1000896,-3.2767873,0.2171304,12.019300663275535,2.651091269258912,-3.8335474528959286,-0.23356799309854898,13.277325,0.04957334,-0.9503548,-0.28348348,0
-1.1199999999999994,8.385828,-9.634637,2.7036214,0.30349338,-0.33487928,-0.78673327,-0.42047274,-6.1716805,5.9780025000000006,-1.0241678,2.185982,-3.3636332,0.1950145,12.128262119330985,2.3231924682152343,-3.669617627802389,-0.3090410077965881,12.012684,-0.6181829000000001,-0.8545203000000001,-0.085917145,0
-1.1099999999999994,8.3239975,-9.574384,2.6932504,0.28518045,-0.33660707,-0.7884188,-0.42867523,-6.1938653,6.0725636,-1.0496477,2.2073312,-3.4113843,0.17028035,12.128262119330985,2.3231924682152343,-3.669617627802389,-0.3090410077965881,12.012684,-0.6181829000000001,-0.8545203000000001,-0.085917145,0
-1.0999999999999994,8.261966000000001,-9.513188000000001,2.6826363,0.26657509999999995,-0.33814463,-0.78975654,-0.43689758,-6.2117944000000005,6.1662292,-1.0728287,2.225351,-3.4516876000000005,0.14675991,12.128262119330985,2.3231924682152343,-3.669617627802389,-0.3090410077965881,12.012684,-0.6181829000000001,-0.8545203000000001,-0.085917145,0
-1.0899999999999994,8.199777000000001,-9.451062,2.6718015999999998,0.24771343,-0.3394934,-0.79073226,-0.44511086,-6.225391,6.2588334,-1.0938107,2.2405619999999997,-3.4857050000000003,0.12439363,12.128262119330985,2.3231924682152343,-3.669617627802389,-0.3090410077965881,12.012684,-0.6181829000000001,-0.8545203000000001,-0.085917145,0
-1.0799999999999994,8.137473,-9.388017,2.6607673,0.22862755,-0.34065503,-0.7913349000000001,-0.4532897,-6.2345924,6.3502073,-1.1127048000000002,2.2534018,-3.5144157,0.10312486,12.2921503475755,1.4661696381021507,-2.9851421125078015,-0.28021214108997056,11.831552499999999,-1.0139499,-0.45324042,-0.009244951999999999,0
-1.0699999999999994,8.075099,-9.324057,2.6495595,0.20971929999999997,-0.34148753,-0.79161805,-0.46124170000000003,-6.2394357000000005,6.4414024,-1.1285385,2.130586,-3.4319102999999997,0.08431439,12.2921503475755,1.4661696381021507,-2.9851421125078015,-0.28021214108997056,11.831552499999999,-1.0139499,-0.45324042,-0.009244951999999999,0
-1.0599999999999994,8.012699000000001,-9.259193,2.6382027000000003,0.19131745,-0.34188905,-0.7916485,-0.46882948,-6.239917299999999,6.5310326,-1.1425319,2.0269275,-3.3622665,0.06642696,12.2921503475755,1.4661696381021507,-2.9851421125078015,-0.28021214108997056,11.831552499999999,-1.0139499,-0.45324042,-0.009244951999999999,0
-1.0499999999999994,7.9503155,-9.193441,2.6267145,0.17334856,-0.34191465,-0.7914342,-0.4761045,-6.236191000000001,6.618966599999999,-1.1548319,1.9394384999999998,-3.3034794,0.049417283,12.2921503475755,1.4661696381021507,-2.9851421125078015,-0.28021214108997056,11.831552499999999,-1.0139499,-0.45324042,-0.009244951999999999,0
-1.0399999999999994,7.887989500000001,-9.12682,2.6151114,0.15574984,-0.34161052,-0.7909804,-0.48310792,-6.2283916,6.705082400000001,-1.1655751,1.8655965,-3.2538571,0.033242278,11.996941035856633,0.2672270726092774,-2.1253169592061614,-0.12979092084975613,11.348261,-1.4537913,0.3215228,-0.06423333,0
-1.0299999999999994,7.825760400000001,-9.059357,2.6033974,0.13896732,-0.34080803,-0.7904168,-0.48967165,-6.2169557,6.7872520000000005,-1.1770233,1.6163117,-3.077876,0.025242204,11.996941035856633,0.2672270726092774,-2.1253169592061614,-0.12979092084975613,11.348261,-1.4537913,0.3215228,-0.06423333,0
-1.0199999999999994,7.763663,-8.991081,2.5915754,0.12335687,-0.33938670000000004,-0.7898722,-0.49568199999999996,-6.2020063,6.8674789999999994,-1.1871936,1.4059058,-2.9293354,0.017634683999999998,11.996941035856633,0.2672270726092774,-2.1253169592061614,-0.12979092084975613,11.348261,-1.4537913,0.3215228,-0.06423333,0
-1.0099999999999993,7.701731,-8.922014,2.5796576,0.1087455,-0.337445,-0.78934413,-0.5012386999999999,-6.1838737,6.9457216,-1.1961826999999998,1.2283151,-2.803957,0.010400454,11.996941035856633,0.2672270726092774,-2.1253169592061614,-0.12979092084975613,11.348261,-1.4537913,0.3215228,-0.06423333,0
-0.9999999999999991,7.639995599999999,-8.852175,2.5676553,0.09498496,-0.33506435,-0.78882563,-0.5064217000000001,-6.1628375,7.0219507,-1.2040708,1.0784209999999999,-2.6981292000000003,0.0035212121,11.748398301567596,-0.9625699131517792,-1.0801252185735013,0.1168343368919892,11.18038,-2.1078153,0.9229122999999999,0.40450987,0
-0.9899999999999991,7.578481699999999,-8.7815895,2.5555701,0.08251873,-0.33214113,-0.78845406,-0.51108927,-6.1396604,7.094614999999999,-1.2128158000000002,0.7601379,-2.4458,0.009081523000000001,11.748398301567596,-0.9625699131517792,-1.0801252185735013,0.1168343368919892,11.18038,-2.1078153,0.9229122999999999,0.40450987,0
-0.9799999999999991,7.51721,-8.710287,2.5434023999999997,0.07169291400000001,-0.3286039,-0.7883560000000001,-0.5151441,-6.114319,7.165341400000001,-1.2205976,0.49148914,-2.2328236,0.014368984,11.748398301567596,-0.9625699131517792,-1.0801252185735013,0.1168343368919892,11.18038,-2.1078153,0.9229122999999999,0.40450987,0
-0.9699999999999993,7.456200999999999,-8.638288000000001,2.5311615,0.06225788,-0.32455555,-0.78850317,-0.5186997999999999,-6.087225,7.234198599999999,-1.2274476,0.26473454,-2.0530622,0.01939698,11.748398301567596,-0.9625699131517792,-1.0801252185735013,0.1168343368919892,11.18038,-2.1078153,0.9229122999999999,0.40450987,0
-0.9599999999999993,7.3954705999999995,-8.565610000000001,2.5188565,0.05400101,-0.32008013,-0.7888649999999999,-0.5218465999999999,-6.0587254,7.30125,-1.2333853000000001,0.07334125,-1.9013354,0.024178243999999998,11.748398301567596,-0.9625699131517792,-1.0801252185735013,0.1168343368919892,10.856306,-2.7947283,1.8484102,0.7785004,0
-0.9499999999999993,7.335030000000001,-8.49227,2.5064967,0.046741622999999996,-0.31524650000000004,-0.78941107,-0.5246563,-6.029111,7.366553999999999,-1.2384236000000002,-0.08820525,-1.7732706999999999,0.02872492,11.748398301567596,-0.9625699131517792,-1.0801252185735013,0.1168343368919892,10.856306,-2.7947283,1.8484102,0.7785004,0
-0.9399999999999993,7.2748914000000005,-8.418285000000001,2.494091,0.04032634,-0.31011134,-0.7901130000000001,-0.5271863,-5.9986267,7.4301604999999995,-1.2425716,-0.22455934,-1.6651783,0.033048477,11.748398301567596,-0.9625699131517792,-1.0801252185735013,0.1168343368919892,10.856306,-2.7947283,1.8484102,0.7785004,0
-0.9299999999999993,7.2150607,-8.343672999999999,2.4816482000000004,0.03462509,-0.30472156,-0.79094446,-0.52948254,-5.96748,7.4921145000000005,-1.2458363000000001,-0.33964935,-1.5739428999999998,0.037159886,11.748398301567596,-0.9625699131517792,-1.0801252185735013,0.1168343368919892,10.856306,-2.7947283,1.8484102,0.7785004,0
-0.9199999999999993,7.155544,-8.268449,2.4691772000000003,0.029527658999999998,-0.29911616,-0.791882,-0.5315821,-5.935847,7.552453,-1.2482243999999998,-0.43679166,-1.4969357,0.041069537,11.772688468530399,-1.988787475457558,-0.06793579370296213,0.4449347591119132,11.894306,-2.8267546,2.5131087000000005,0.85002446,0
-0.9099999999999993,7.0963454,-8.192628,2.4566877000000003,0.02546813,-0.29321927,-0.79303783,-0.5333515999999999,-5.9038353,7.6113405,-1.2495416000000001,-0.6788138000000001,-1.2740989,0.06088733,11.772688468530399,-1.988787475457558,-0.06793579370296213,0.4449347591119132,11.894306,-2.8267546,2.5131087000000005,0.85002446,0
-0.8999999999999992,7.0374675,-8.116225,2.4441895000000002,0.022785432999999997,-0.28697315,-0.79450375,-0.53468704,-5.87182,7.6687574000000005,-1.2499803,-0.8830973,-1.0860171,0.07973265,11.772688468530399,-1.988787475457558,-0.06793579370296213,0.4449347591119132,11.894306,-2.8267546,2.5131087000000005,0.85002446,0
-0.8899999999999992,6.9789080000000006,-8.039256,2.4316914,0.021264933,-0.28043088,-0.7962294,-0.53565305,-5.8401155,7.7248163,-1.2495329,-1.0555263000000001,-0.92726916,0.09765322,11.772688468530399,-1.988787475457558,-0.06793579370296213,0.4449347591119132,11.894306,-2.8267546,2.5131087000000005,0.85002446,0
-0.8799999999999992,6.9206634000000005,-7.9617333,2.419202,0.02072506,-0.27363616,-0.7981691999999999,-0.536301,-5.808987999999999,7.779611,-1.2481946000000002,-1.2010674,-0.7932791,0.11469443,12.136299194570675,-2.8889483572799137,0.8293416720897281,0.7638830300868054,12.511687,-3.2778339999999995,3.2178857000000005,1.2709264,0
-0.8699999999999992,6.8627305,-7.8836603,2.4067461,0.021481617999999997,-0.26653045,-0.8003932,-0.53653514,-5.7777514000000005,7.834885000000001,-1.2428646,-1.464299,-0.5402819999999999,0.14655028,12.136299194570675,-2.8889483572799137,0.8293416720897281,0.7638830300868054,12.511687,-3.2778339999999995,3.2178857000000005,1.2709264,0
-0.8599999999999992,6.805104300000001,-7.805039999999999,2.3943480999999998,0.023776425,-0.25906694,-0.8029489000000001,-0.5362753,-5.7477303,7.8890815000000005,-1.2366087,-1.6864859,-0.32674414,0.17684297,12.136299194570675,-2.8889483572799137,0.8293416720897281,0.7638830300868054,12.511687,-3.2778339999999995,3.2178857000000005,1.2709264,0
-0.8499999999999992,6.747770299999999,-7.725881599999999,2.3820171,0.027367854,-0.25129372,-0.80576545,-0.53557783,-5.7192836,7.94233,-1.2294281999999999,-1.874027,-0.14650993,0.20564920000000003,12.136299194570675,-2.8889483572799137,0.8293416720897281,0.7638830300868054,12.511687,-3.2778339999999995,3.2178857000000005,1.2709264,0
-0.8399999999999992,6.6907119999999995,-7.646196000000001,2.3697627,0.03205148,-0.24325089,-0.8087795,-0.5344871999999999,-5.6927166,7.994732000000001,-1.221336,-2.0323236000000002,0.005616285,0.23304188,12.938322441545179,-3.5177185443264163,1.3573624264056572,1.066991606359237,13.691854500000002,-3.6509733,3.6514699999999998,1.5768528999999998,0
-0.8299999999999992,6.6339164,-7.565973,2.3576287999999996,0.03795068,-0.23488192,-0.81200707,-0.53294826,-5.6666946,8.049782,-1.2052795,-2.2640078,0.21632515,0.27396405,12.938322441545179,-3.5177185443264163,1.3573624264056572,1.066991606359237,13.691854500000002,-3.6509733,3.6514699999999998,1.5768528999999998,0
-0.8199999999999992,6.577368300000001,-7.485203299999999,2.3456602,0.045152895,-0.22614105,-0.81544834,-0.5309092,-5.643330000000001,8.104114,-1.1883081,-2.459565,0.39417237,0.31287813,12.938322441545179,-3.5177185443264163,1.3573624264056572,1.066991606359237,13.691854500000002,-3.6509733,3.6514699999999998,1.5768528999999998,0
-0.8099999999999992,6.5210395,-7.4038935,2.333866,0.05344964,-0.21707407,-0.8190288,-0.52840614,-5.6229629999999995,8.157803999999999,-1.1704698999999998,-2.6246269,0.54428464,0.34988266,12.938322441545179,-3.5177185443264163,1.3573624264056572,1.066991606359237,13.691854500000002,-3.6509733,3.6514699999999998,1.5768528999999998,0
-0.7999999999999992,6.464898000000001,-7.3220496,2.3222537,0.06266409,-0.20772026,-0.8226832000000001,-0.5254684000000001,-5.6058845999999996,8.210901,-1.1518309,-2.763948,0.6709887,0.38507140000000006,13.874388977694547,-3.765951900820102,1.5559121204194266,1.2880763568683449,15.895053,-3.5922015,3.6695184999999997,1.4191958,0
-0.7899999999999991,6.408915,-7.239658400000001,2.310874,0.07275798,-0.19807495,-0.8263838,-0.5220742,-5.5913687,8.267233000000001,-1.1239763,-2.9202678,0.80886877,0.42938212,13.874388977694547,-3.765951900820102,1.5559121204194266,1.2880763568683449,15.895053,-3.5922015,3.6695184999999997,1.4191958,0
-0.7799999999999991,6.353057,-7.156707000000001,2.2997763,0.083691455,-0.1881361,-0.83010054,-0.5182015,-5.5809274,8.322973,-1.0954572,-3.0522093999999997,0.9252493,0.47151850000000006,13.874388977694547,-3.765951900820102,1.5559121204194266,1.2880763568683449,15.895053,-3.5922015,3.6695184999999997,1.4191958,0
-0.7699999999999991,6.2972813,-7.073200999999999,2.2889667,0.095323354,-0.17793939,-0.83377784,-0.51387215,-5.574808,8.378117999999999,-1.0663958999999998,-3.163574,1.0234843,0.5115872,13.874388977694547,-3.765951900820102,1.5559121204194266,1.2880763568683449,15.895053,-3.5922015,3.6695184999999997,1.4191958,0
-0.7599999999999991,6.2415447,-6.989147,2.2784497999999997,0.107533455,-0.16751622,-0.8373681999999999,-0.50910544,-5.573217,8.432639,-1.0369306,-3.2575696,1.1064041999999998,0.54968977,13.874388977694547,-3.765951900820102,1.5559121204194266,1.2880763568683449,16.60853,-3.5804207000000003,3.3100872000000003,1.47375,0
-0.7499999999999991,6.185800599999999,-6.904550599999999,2.2682292,0.120219275,-0.15689449,-0.8408309000000002,-0.50391847,-5.5763245,8.486497,-1.0072116,-3.336904,1.1763976,0.5859226,13.874388977694547,-3.765951900820102,1.5559121204194266,1.2880763568683449,16.60853,-3.5804207000000003,3.3100872000000003,1.47375,0
-0.7399999999999989,6.1300015,-6.819419,2.2583062999999997,0.13329329,-0.14609909,-0.84413123,-0.49832666,-5.584268,8.539634,-0.9774,-3.4038641000000003,1.2354808000000002,0.6203774999999999,13.874388977694547,-3.765951900820102,1.5559121204194266,1.2880763568683449,16.60853,-3.5804207000000003,3.3100872000000003,1.47375,0
-0.7299999999999989,6.074098,-6.73376,2.2486808,0.14668067,-0.13515234,-0.84723955,-0.49234426,-5.5971565000000005,8.591978999999998,-0.9476651,-3.4603791,1.2853552,0.6531416999999999,13.874388977694547,-3.765951900820102,1.5559121204194266,1.2880763568683449,16.60853,-3.5804207000000003,3.3100872000000003,1.47375,0
-0.7199999999999989,6.0180407,-6.647582000000001,2.2393520000000002,0.16031727,-0.12407435,-0.8501306999999999,-0.48598456,-5.6150723,8.643453,-0.9181828000000002,-3.5080779000000004,1.3274571000000002,0.68429804,14.264159083207392,-3.5828746600469685,1.4311655570319466,1.3292897051367891,16.631563,-3.3155157999999996,2.288434,1.8621116000000002,0
-0.7099999999999989,5.961776,-6.560887299999999,2.2303338,0.17406967,-0.112922505,-0.85278577,-0.47927427,-5.6387134,8.695387,-0.8855605,-3.5197773,1.3435525,0.7159479999999999,14.264159083207392,-3.5828746600469685,1.4311655570319466,1.3292897051367891,16.631563,-3.3155157999999996,2.288434,1.8621116000000002,0
-0.6999999999999991,5.905248,-6.473679,2.221639,0.18782955,-0.10174563,-0.8551946,-0.47223845,-5.6675777,8.746238,-0.853563,-3.5296504,1.3571419,0.7460449,14.264159083207392,-3.5828746600469685,1.4311655570319466,1.3292897051367891,16.631563,-3.3155157999999996,2.288434,1.8621116000000002,0
-0.6899999999999991,5.848407,-6.3859673,2.2132597,0.20157965,-0.09054922,-0.85734814,-0.46488687,-5.70164,8.795907000000001,-0.82236826,-3.537982,1.3686156999999999,0.77466476,14.264159083207392,-3.5828746600469685,1.4311655570319466,1.3292897051367891,16.631563,-3.3155157999999996,2.288434,1.8621116000000002,0
-0.679999999999999,5.7911983,-6.2977653,2.205188,0.21530461,-0.07933871,-0.85923815,-0.45722896,-5.7408633,8.844291,-0.79215276,-3.5450125,1.3783039,0.80188036,14.743156349152393,-3.1105547116936463,0.8120742794034027,1.3012852272489417,16.815360000000002,-2.9640138,1.4318961000000001,1.7718412000000001,0
-0.669999999999999,5.7335644,-6.209078,2.1974342,0.22869289,-0.06816889999999999,-0.86089873,-0.44933864,-5.786671,8.89286,-0.75881314,-3.4772334000000003,1.2899805,0.82638633,14.743156349152393,-3.1105547116936463,0.8120742794034027,1.3012852272489417,16.815360000000002,-2.9640138,1.4318961000000001,1.7718412000000001,0
-0.659999999999999,5.675447,-6.1199129999999995,2.1900074000000003,0.24150056,-0.05708748,-0.8623734000000001,-0.44128212,-5.8375673,8.939850999999999,-0.72677803,-3.4200287000000005,1.21543,0.8496896999999999,14.743156349152393,-3.1105547116936463,0.8120742794034027,1.3012852272489417,16.815360000000002,-2.9640138,1.4318961000000001,1.7718412000000001,0
-0.649999999999999,5.616796,-6.030286299999999,2.1828939999999997,0.25380594,-0.046089116,-0.86366606,-0.43305730000000003,-5.8933516,8.985127,-0.69614565,-3.3717482000000003,1.1525048,0.87184966,14.743156349152393,-3.1105547116936463,0.8120742794034027,1.3012852272489417,16.815360000000002,-2.9640138,1.4318961000000001,1.7718412000000001,0
-0.639999999999999,5.557564,-5.9402165,2.1760792999999996,0.26567474,-0.035169,-0.8647778,-0.42466307,-5.953837,9.028566,-0.6670111999999999,-3.3310000000000004,1.0993921999999998,0.89292216,14.49157743956207,-2.3396017704759515,-0.19078702184080767,1.1125647318242329,15.700703,-2.5724077000000003,1.1810391000000002,1.5299648000000001,0
-0.629999999999999,5.4977098,-5.8497257000000005,2.1695375,0.27668673,-0.024414638,-0.8658007,-0.41621729999999996,-6.017712599999999,9.069339,-0.6415953000000001,-3.1762817,0.89825696,0.90370005,14.49157743956207,-2.3396017704759515,-0.19078702184080767,1.1125647318242329,15.700703,-2.5724077000000003,1.1810391000000002,1.5299648000000001,0
-0.619999999999999,5.4371953,-5.7588367,2.163242,0.28651896,-0.013898383,-0.8668294,-0.40782338,-6.085671,9.108048,-0.61770284,-3.045707,0.7284776,0.9139491,14.49157743956207,-2.3396017704759515,-0.19078702184080767,1.1125647318242329,15.700703,-2.5724077000000003,1.1810391000000002,1.5299648000000001,0
-0.6099999999999992,5.375983,-5.6675724999999995,2.1571784,0.29535216,-0.0035945891999999997,-0.86786234,-0.39946035,-6.1573606,9.144568,-0.5952789,-2.935509,0.58516556,0.9236951999999999,14.49157743956207,-2.3396017704759515,-0.19078702184080767,1.1125647318242329,15.700703,-2.5724077000000003,1.1810391000000002,1.5299648000000001,0
-0.5999999999999992,5.3140364,-5.575954,2.1513313999999997,0.30333796,0.0065197125,-0.8688935,-0.39111,-6.232476,9.178791,-0.5742757,-2.8425078,0.4641948,0.93296313,14.159451180140524,-1.4953222842964164,-1.2008856813851088,0.8082714006624895,16.072716,-1.8074987,0.17288278,1.1746421999999999,0
-0.5899999999999992,5.2513312999999995,-5.4840083,2.1456742,0.3101219,0.0163395,-0.87002975,-0.38289037,-6.308930999999999,9.209894,-0.5573319999999999,-2.6322563,0.20466457,0.9268445,14.159451180140524,-1.4953222842964164,-1.2008856813851088,0.8082714006624895,16.072716,-1.8074987,0.17288278,1.1746421999999999,0
-0.5799999999999992,5.1878486,-5.3917637,2.1401806,0.31543526,0.025781434,-0.8713690000000001,-0.37490186,-6.388039,9.238572999999999,-0.5415579,-2.4548197,-0.014413957,0.921026,14.159451180140524,-1.4953222842964164,-1.2008856813851088,0.8082714006624895,16.072716,-1.8074987,0.17288278,1.1746421999999999,0
-0.5699999999999992,5.1235633,-5.299245,2.1348395,0.3195093,0.03489484,-0.8728857,-0.36710495,-6.469402,9.264753,-0.52677417,-2.3050766,-0.19934547,0.9154931000000001,14.159451180140524,-1.4953222842964164,-1.2008856813851088,0.8082714006624895,16.072716,-1.8074987,0.17288278,1.1746421999999999,0
-0.5599999999999992,5.0584545,-5.206477,2.1296422,0.32253724,0.043722786,-0.87455255,-0.3594651,-6.552678,9.288378,-0.5128246,-2.1787042999999997,-0.3554522,0.9102316999999999,14.159451180140524,-1.4953222842964164,-1.2008856813851088,0.8082714006624895,16.133785,-1.2279723,-0.33106473,0.85284096,0
-0.5499999999999992,4.992504599999999,-5.1134863,2.1245806000000003,0.324681,0.052302755,-0.87634206,-0.3519525,-6.637575,9.309401,-0.49957523,-2.0720546000000004,-0.48722709999999997,0.9052285,14.159451180140524,-1.4953222842964164,-1.2008856813851088,0.8082714006624895,16.133785,-1.2279723,-0.33106473,0.85284096,0
-0.5399999999999991,4.9256988,-5.020298,2.1196485000000003,0.32607606,0.06066727,-0.8782279000000001,-0.34454176,-6.723841,9.327788,-0.48691258,-1.9820497,-0.5984625,0.90047085,14.159451180140524,-1.4953222842964164,-1.2008856813851088,0.8082714006624895,16.133785,-1.2279723,-0.33106473,0.85284096,0
-0.5299999999999991,4.8580239999999995,-4.9269395,2.1148407000000002,0.32683605,0.068844475,-0.8801853999999999,-0.3372115,-6.811256,9.3435135,-0.47474173,-1.9060917000000002,-0.6923600000000001,0.89594656,14.159451180140524,-1.4953222842964164,-1.2008856813851088,0.8082714006624895,16.133785,-1.2279723,-0.33106473,0.85284096,0
-0.5199999999999991,4.78947,-4.8334374,2.1101525000000003,0.3270563,0.07685868,-0.8821924000000001,-0.3299437,-6.8996277,9.356555,-0.46298432,-1.8419881999999999,-0.7716215,0.8916443000000002,14.185715338010828,-0.6711201643819139,-1.7548668441190156,0.4741832755898573,16.103863,-0.74738157,-0.8967755,0.54681027,0
-0.5099999999999991,4.7200284,-4.7398176,2.105581,0.32651037,0.08452572,-0.8843151,-0.32285064,-6.9889339999999995,9.366925,-0.45135862,-1.6593153000000003,-0.9248296999999999,0.8711593000000001,14.185715338010828,-0.6711201643819139,-1.7548668441190156,0.4741832755898573,16.103863,-0.74738157,-0.8967755,0.54681027,0
-0.4999999999999991,4.6496906,-4.646108,2.1011245,0.32502562,0.09170085,-0.88660955,-0.31602547,-7.0787354,9.374637,-0.43991846,-1.5051466999999998,-1.0541669,0.85167956,14.185715338010828,-0.6711201643819139,-1.7548668441190156,0.4741832755898573,16.103863,-0.74738157,-0.8967755,0.54681027,0
-0.4899999999999989,4.578453,-4.5523343,2.0967824,0.32274708,0.09845692,-0.8890411,-0.3094281,-7.168760300000001,9.379743,-0.42850864,-1.3750342,-1.1633518999999999,0.8331556999999998,14.185715338010828,-0.6711201643819139,-1.7548668441190156,0.4741832755898573,16.103863,-0.74738157,-0.8967755,0.54681027,0
-0.47999999999999887,4.506315,-4.458522299999999,2.0925548,0.31979603,0.10485593,-0.8915780000000001,-0.30302432,-7.2587733,9.38229,-0.41699982,-1.2652236000000001,-1.255524,0.8155408000000001,13.2388727518771,0.08381150884466093,-2.3306205058784344,0.11213608173704052,15.185501,-0.303669,-1.5617913,0.21857217,0
-0.46999999999999886,4.433308,-4.3646970000000005,2.0884066000000003,0.31597292,0.11076451,-0.894284,-0.2968969,-7.3425617,9.382328,-0.41260153,-1.0547851000000001,-1.4230491000000003,0.78102446,13.2388727518771,0.08381150884466093,-2.3306205058784344,0.11213608173704052,15.185501,-0.303669,-1.5617913,0.21857217,0
-0.45999999999999885,4.359466,-4.270883,2.084304,0.31112483,0.11607927,-0.89720654,-0.29111278,-7.425857499999999,9.380105,-0.40782690000000005,-0.8771831,-1.564475,0.7482019,13.2388727518771,0.08381150884466093,-2.3306205058784344,0.11213608173704052,15.185501,-0.303669,-1.5617913,0.21857217,0
-0.44999999999999885,4.284794000000001,-4.1771025999999996,2.080252,0.30540714,0.120889485,-0.9002948000000001,-0.28562355,-7.508391400000001,9.375709,-0.40250936,-0.72729254,-1.6838671000000003,0.71698993,13.2388727518771,0.08381150884466093,-2.3306205058784344,0.11213608173704052,15.185501,-0.303669,-1.5617913,0.21857217,0
-0.43999999999999884,4.2093015,-4.0833764,2.0762563000000003,0.29894996,0.12527078,-0.9035032,-0.28038794,-7.589929,9.369212,-0.39651456,-0.60078865,-1.7846571,0.6873096,12.391114095193595,0.6830453049465889,-2.7348802260334724,-0.24877662102618486,14.437085999999999,0.38273838,-1.8847618000000002,-0.23519626,0
-0.4299999999999988,4.133025,-3.9897225,2.072291,0.29164365,0.12912847,-0.9068571,-0.27546185,-7.6651106,9.361239999999999,-0.39644286,-0.40056682,-1.9327419999999997,0.64137566,12.391114095193595,0.6830453049465889,-2.7348802260334724,-0.24877662102618486,14.437085999999999,0.38273838,-1.8847618000000002,-0.23519626,0
-0.4199999999999988,4.056004,-3.8961574999999997,2.0683305,0.28340548,0.13239023,-0.91036904,-0.27089009999999997,-7.738912599999999,9.351473,-0.39549106,-0.23158431,-2.0577576,0.59769565,12.391114095193595,0.6830453049465889,-2.7348802260334724,-0.24877662102618486,14.437085999999999,0.38273838,-1.8847618000000002,-0.23519626,0
-0.4099999999999988,3.9782526,-3.8026989,2.0643845,0.27437207,0.13514532,-0.9139835,-0.26662508,-7.8110990000000005,9.340009,-0.39353547,-0.08896573,-2.1632965,0.5561590000000001,12.391114095193595,0.6830453049465889,-2.7348802260334724,-0.24877662102618486,14.437085999999999,0.38273838,-1.8847618000000002,-0.23519626,0
-0.3999999999999988,3.8997884,-3.7093629999999997,2.0604633999999997,0.26465836,0.13746913,-0.91765165,-0.26262647,-7.8814616,9.326937,-0.39048377,0.03140346,-2.2523918,0.51666063,11.864098740220356,0.9666841153248849,-2.940196217168681,-0.5882855499852337,13.228197,0.30945644,-2.2323787,-0.31039467,0
-0.3899999999999988,3.8206449,-3.6161623,2.0565572,0.25425026,0.13935333,-0.921357,-0.25891662,-7.946903,9.312963,-0.39061853,0.17721279,-2.3596112999999996,0.4624406,11.864098740220356,0.9666841153248849,-2.940196217168681,-0.5882855499852337,13.228197,0.30945644,-2.2323787,-0.31039467,0
-0.3799999999999988,3.7408576,-3.5231084999999998,2.0526555,0.24314027,0.14079443,-0.92507887,-0.25551474,-8.010223,9.297616,-0.38957176,0.30027553,-2.450126,0.41088116,11.864098740220356,0.9666841153248849,-2.940196217168681,-0.5882855499852337,13.228197,0.30945644,-2.2323787,-0.31039467,0
-0.3699999999999988,3.6604486000000005,-3.4302144,2.0487702000000003,0.23142704,0.14185749,-0.9287728000000001,-0.25238466,-8.071239,9.280982,-0.38729566,0.40414134,-2.526537,0.36185172,11.864098740220356,0.9666841153248849,-2.940196217168681,-0.5882855499852337,13.228197,0.30945644,-2.2323787,-0.31039467,0
-0.35999999999999877,3.5794413,-3.337493,2.044914,0.21919428,0.14259732,-0.93240064,-0.24949539999999998,-8.129788000000001,9.263135,-0.3837664,0.491806,-2.591041,0.3152282,11.864098740220356,0.9666841153248849,-2.940196217168681,-0.5882855499852337,12.901669,0.57069343,-2.2781092999999997,-0.5010677,0
-0.34999999999999876,3.4978614,-3.2449555,2.0410993000000004,0.2065132,0.14305998,-0.93592995,-0.24682035,-8.185724,9.244144,-0.3789809,0.5657978,-2.6454926,0.27089253,11.864098740220356,0.9666841153248849,-2.940196217168681,-0.5882855499852337,12.901669,0.57069343,-2.2781092999999997,-0.5010677,0
-0.33999999999999875,3.415736,-3.1526136,2.0373384999999997,0.19344462,0.14328423,-0.93933356,-0.2443366,-8.238917,9.224071499999999,-0.37295386,0.62825,-2.6914575000000003,0.22873244,11.864098740220356,0.9666841153248849,-2.940196217168681,-0.5882855499852337,12.901669,0.57069343,-2.2781092999999997,-0.5010677,0
-0.32999999999999874,3.3330925000000002,-3.0604777000000003,2.033644,0.18004066,0.1433026,-0.94258845,-0.24202439,-8.289251,9.202975,-0.3657152,0.680963,-2.7302582,0.18864115,11.864098740220356,0.9666841153248849,-2.940196217168681,-0.5882855499852337,12.901669,0.57069343,-2.2781092999999997,-0.5010677,0
-0.31999999999999873,3.2499607000000004,-2.9685576,2.0300279999999997,0.16634597,0.14314239,-0.9456756,-0.23986651,-8.336621000000001,9.180907000000001,-0.35730785,0.7254565,-2.7630105,0.15051714,11.472895626211441,1.1412570252392713,-2.4058870218892148,-0.8077346040014206,12.110742,0.46329609999999993,-2.083479,-0.60838777,1
-0.3099999999999987,3.1663656000000002,-2.8768651000000003,2.0265129,0.15277207,0.14293613,-0.9484978000000001,-0.23786758,-8.381876,9.157437,-0.34555656,0.6844975999999999,-2.6570582000000003,0.11327745,11.472895626211441,1.1412570252392713,-2.4058870218892148,-0.8077346040014206,12.110742,0.46329609999999993,-2.083479,-0.60838777,1
-0.2999999999999987,3.0823336,-2.7854118,2.0231204,0.13965037,0.14279336,-0.95099604,-0.23603678,-8.424078999999999,9.133072,-0.33278957,0.64993554,-2.5676265,0.07786514,11.472895626211441,1.1412570252392713,-2.4058870218892148,-0.8077346040014206,12.110742,0.46329609999999993,-2.083479,-0.60838777,1
-0.2899999999999987,2.9978945,-2.6942065,2.01986,0.12690815,0.14270367,-0.9532061,-0.2343652,-8.463306,9.107847999999999,-0.31912568,0.62077075,-2.492139,0.044190504000000005,11.472895626211441,1.1412570252392713,-2.4058870218892148,-0.8077346040014206,12.110742,0.46329609999999993,-2.083479,-0.60838777,1
-0.2799999999999987,2.9130776000000003,-2.6032577,2.0167406000000003,0.11448392,0.14265773,-0.9551569999999999,-0.2328439,-8.499628,9.081800999999999,-0.30467093,0.5961601,-2.4284220000000003,0.012168293,10.992391349328676,1.107436690106426,-1.7731944891079805,-0.9654425474666941,11.867975,0.4001418,-1.8474867,-0.67022234,1
-0.2699999999999989,2.8279153999999997,-2.5125706,2.0137577,0.10242089999999998,0.14265037,-0.9568572,-0.23148231,-8.5324335,9.0555,-0.29179233,0.5655393,-2.3378382,-0.021316815,10.992391349328676,1.107436690106426,-1.7731944891079805,-0.9654425474666941,11.867975,0.4001418,-1.8474867,-0.67022234,1
-0.2599999999999989,2.7424386000000003,-2.4221504,2.010907,0.090751,0.14267737,-0.9583181000000001,-0.23028839,-8.5625305,9.028455000000001,-0.2783261,0.5396996999999999,-2.2613790000000003,-0.053158805,10.992391349328676,1.107436690106426,-1.7731944891079805,-0.9654425474666941,11.867975,0.4001418,-1.8474867,-0.67022234,1
-0.2499999999999989,2.6566737000000002,-2.332004,2.0081933000000003,0.079411045,0.14273205,-0.95956457,-0.22925141,-8.589996000000001,9.0007,-0.26435688,0.51789445,-2.1968422000000003,-0.08343829,10.992391349328676,1.107436690106426,-1.7731944891079805,-0.9654425474666941,11.867975,0.4001418,-1.8474867,-0.67022234,1
-0.23999999999999888,2.5706472000000002,-2.2421386,2.0056214,0.06834769,0.14280844,-0.9606167,-0.22836125,-8.614897000000001,8.9722595,-0.24996069,0.49949375,-2.1423688,-0.11223195,10.498409620188015,1.0815002236348144,-1.1012025465461537,-1.0630069149588384,11.150506,0.6297351999999999,-1.5124158,-0.81322604,1
-0.22999999999999865,2.4843915,-2.1525526000000004,2.0031613999999998,0.057621405,0.14278354,-0.96149194,-0.22765046,-8.635939,8.944924,-0.24202812,0.5197659,-2.0441413,-0.14662993,10.498409620188015,1.0815002236348144,-1.1012025465461537,-1.0630069149588384,11.150506,0.6297351999999999,-1.5124158,-0.81322604,1
-0.21999999999999864,2.3979362999999996,-2.0632424,2.000782,0.047277883,0.14255981,-0.96220857,-0.22714539,-8.654699,8.917039,-0.23381053,0.5368815,-1.9612322,-0.17934,10.498409620188015,1.0815002236348144,-1.1012025465461537,-1.0630069149588384,11.150506,0.6297351999999999,-1.5124158,-0.81322604,1
-0.20999999999999863,2.3113048,-1.9742134999999998,1.998486,0.037255734,0.14216638,-0.96278167,-0.22682819,-8.671244999999999,8.888672999999999,-0.22535288,0.5513318,-1.8912523999999997,-0.21044497,10.498409620188015,1.0815002236348144,-1.1012025465461537,-1.0630069149588384,11.150506,0.6297351999999999,-1.5124158,-0.81322604,1
-0.19999999999999862,2.2245185000000003,-1.8854703999999998,1.9962758000000003,0.027503178,0.14162762,-0.96322316,-0.22668302,-8.685636,8.859881,-0.21669617,0.5635316,-1.8321855,-0.24002361,10.195394758553329,1.0424431895121993,-0.5181159908929435,-1.1108633274544222,10.710165,0.5965881,-1.300904,-0.7298939999999999,1
-0.18999999999999884,2.1376016,-1.7970113999999997,1.9941316000000002,0.018062612,0.14095737,-0.96354127,-0.2266975,-8.697439,8.831868,-0.2121007,0.5686722,-1.7493421999999998,-0.2640617,10.195394758553329,1.0424431895121993,-0.5181159908929435,-1.1108633274544222,10.710165,0.5965881,-1.300904,-0.7298939999999999,1
-0.17999999999999883,2.0505763999999997,-1.708834,1.992034,0.008965753,0.14016789,-0.9637459,-0.22685947,-8.707291,8.803542,-0.20738496,0.57301265,-1.6794177,-0.28692022,10.195394758553329,1.0424431895121993,-0.5181159908929435,-1.1108633274544222,10.710165,0.5965881,-1.300904,-0.7298939999999999,1
-0.16999999999999882,1.9634622,-1.6209415,1.989984,0.00015798095,0.13927586,-0.9638471,-0.22715577,-8.715254,8.774946,-0.20258033,0.5766772,-1.6203973999999999,-0.30865708,10.195394758553329,1.0424431895121993,-0.5181159908929435,-1.1108633274544222,10.710165,0.5965881,-1.300904,-0.7298939999999999,1
-0.1599999999999988,1.8762776999999997,-1.5333358999999998,1.9879825,-0.008406738,0.1382953,-0.9638528000000001,-0.22757472,-8.721383,8.746116,-0.19771552,0.5797711,-1.5705811,-0.32932732,10.195394758553329,1.0424431895121993,-0.5181159908929435,-1.1108633274544222,10.662916000000001,0.5373431,-0.87402457,-0.67296284,1
-0.1499999999999988,1.7890408,-1.4460191999999998,1.9860276000000001,-0.016596155,0.1372221,-0.96377033,-0.22812308,-8.725714,8.717211,-0.19327126,0.5731616,-1.4619582,-0.3461896,10.195394758553329,1.0424431895121993,-0.5181159908929435,-1.1108633274544222,10.662916000000001,0.5373431,-0.87402457,-0.67296284,1
-0.1399999999999988,1.7017691000000001,-1.3589921999999999,1.9841171999999998,-0.024307316000000002,0.13605395,-0.9636107,-0.22880499,-8.728363,8.688147,-0.18881486,0.5675819999999999,-1.3702748,-0.36222446,10.195394758553329,1.0424431895121993,-0.5181159908929435,-1.1108633274544222,10.662916000000001,0.5373431,-0.87402457,-0.67296284,1
-0.12999999999999878,1.6144791,-1.2722567,1.9822513,-0.03161545,0.13480423,-0.9633835,-0.22960688,-8.729424,8.658963,-0.18436377,0.56287163,-1.2928893999999997,-0.37747246,10.195394758553329,1.0424431895121993,-0.5181159908929435,-1.1108633274544222,10.662916000000001,0.5373431,-0.87402457,-0.67296284,1
-0.11999999999999877,1.5271858999999999,-1.1858133,1.9804298999999999,-0.038584027,0.13348411,-0.9630960999999999,-0.23051684,-8.728974000000001,8.629692,-0.17993292,0.5588948,-1.2275719999999999,-0.39197227,9.999817963651687,0.9513304010297844,0.53618163316638,-1.054104284034588,11.004095,0.7205979,-0.23437579,-0.7513572,0
-0.10999999999999877,1.439904,-1.0996538,1.9786206000000002,-0.04476776,0.13181144,-0.9627898000000001,-0.2316384,-8.727217,8.602202,-0.18190435,0.6201445,-0.95254433,-0.42446324,9.999817963651687,0.9513304010297844,0.53618163316638,-1.054104284034588,11.004095,0.7205979,-0.23437579,-0.7513572,0
