time-since-start [s],throttle_mpc,roll_mpc,pitch_mpc,yaw_mpc,throttle_nw,roll_nw,pitch_nw,yaw_nw,position_x [m],position_y [m],position_z [m],rotation_w [quaternion],rotation_x [quaternion],rotation_y [quaternion],rotation_z [quaternion],velocity_x [m/s],velocity_y [m/s],velocity_z [m/s],omega_x [rad/s],omega_y [rad/s],omega_z [rad/s],network_used
0.0,11.291227071716818,5.999999676685037,-5.999999976199988,-5.9999991721812265,10.239132,-2.5455723,-3.9163442,-1.1194321,19.901653,-9.35168,1.5990416,-0.2066909,-0.42921388,0.26341152,0.8388496,-11.105378,-6.9167957,-0.10720107,1.8078179,0.038872417,-0.37456557,0
0.01,11.291227071716818,5.999999676685037,-5.999999976199988,-5.9999991721812265,15.085371,-6.4742727,-5.8885245,-0.55091065,19.789757,-9.420576,1.597978,-0.2009353,-0.43146002,0.2697027,0.8370948,-11.273587,-6.8621387,-0.10622809,1.6659216,-0.10744482,-0.56696993,0
0.02,11.291227071716818,5.999999676685037,-5.999999976199988,-5.9999991721812265,15.085371,-6.4742727,-5.8885245,-0.55091065,19.676195,-9.488917,1.5969018,-0.19446744,-0.43323264,0.2751539,0.83593196,-11.437887,-6.806158,-0.10968025,1.5469122,-0.23169886,-0.75460905,0
0.03,11.291227071716818,5.999999676685037,-5.999999976199988,-5.9999991721812265,15.085371,-6.4742727,-5.8885245,-0.55091065,19.561012,-9.556694,1.5957707,-0.18728909,-0.4346419,0.2798382,0.8352843,-11.598158,-6.7490005,-0.11711219,1.4470869,-0.33719608,-0.93760103,0
0.04,11.291227071716818,5.999999676685037,-5.999999976199988,-5.9999991721812265,6.5693626,-4.103772,-5.1295815,-0.81055516,19.444244,-9.623893,1.5945477,-0.17939876,-0.43577215,0.283826,0.83508176,-11.754825,-6.6906075,-0.1278626,1.3700315,-0.43344867,-1.1154901,0
0.05,11.291227071716818,5.999999676685037,-5.999999976199988,-5.9999991721812265,6.5693626,-4.103772,-5.1295815,-0.81055516,19.325924,-9.6905,1.5932055,-0.17074893,-0.43664047,0.28725466,0.8352692,-11.909091,-6.6305785,-0.14091589,1.3295977,-0.5393311,-1.2870097,0
0.060000000000000005,11.291227071716818,5.999999676685037,-5.999999976199988,-5.9999991721812265,6.5693626,-4.103772,-5.1295815,-0.81055516,19.206072,-9.756499,1.5917221,-0.16127218,-0.43722638,0.2902842,0.8357987,-12.060807,-6.5689435,-0.15605855,1.3218162,-0.6550951,-1.45247,0
0.07,11.291227071716818,5.999999676685037,-5.999999976199988,-5.9999991721812265,6.5693626,-4.103772,-5.1295815,-0.81055516,19.084717,-9.821874,1.5900776,-0.15090933,-0.43750337,0.29305202,0.83662283,-12.209762,-6.5057077,-0.17313957,1.3423377,-0.7799496,-1.6122347,0
0.08,13.996862424648313,5.999999932105999,-6.0,-5.999997280496865,13.473173,-4.8904357,-8.072505,0.5626431,18.961885,-9.886608,1.588253,-0.13960916,-0.43744037,0.29567504,0.8376942,-12.355743,-6.440837,-0.19202395,1.3873565,-0.913091,-1.7666379,0
0.09,13.996862424648313,5.999999932105999,-6.0,-5.999997280496865,13.473173,-4.8904357,-8.072505,0.5626431,18.837528,-9.950646,1.5862757,-0.12717852,-0.43687668,0.29842392,0.8389921,-12.514843,-6.366644,-0.20373431,1.5265187,-1.1268895,-1.9225129,0
0.09999999999999999,13.996862424648313,5.999999932105999,-6.0,-5.999997280496865,13.473173,-4.8904357,-8.072505,0.5626431,18.711603,-10.013933,1.5841719,-0.11344112,-0.43565428,0.30153158,0.8404853,-12.669839,-6.2904305,-0.21731913,1.6789918,-1.3424428,-2.0738723,0
0.10999999999999999,13.996862424648313,5.999999932105999,-6.0,-5.999997280496865,13.473173,-4.8904357,-8.072505,0.5626431,18.584146,-10.0764475,1.5819235,-0.0983808,-0.43374005,0.30503434,0.8421076,-12.820435,-6.2119317,-0.23263389,1.8426433,-1.5594182,-2.2209332,0
0.11999999999999998,13.996862424648313,5.999999932105999,-6.0,-5.999997280496865,13.473173,-4.8904357,-8.072505,0.5626431,18.45521,-10.138164,1.5795139,-0.08198653,-0.43109685,0.30895662,0.843789,-12.966322,-6.1309075,-0.24953942,2.0156121,-1.7774742,-2.3638954,0
0.12999999999999998,18.220348078218894,5.999999997863775,-6.0,-5.170601993638075,11.6855345,-1.6586583,-7.406083,1.7386185,18.324839,-10.199056,1.5769278,-0.064252526,-0.4276839,0.3133118,0.845455,-13.107181,-6.0471473,-0.26790014,2.1962738,-1.9962677,-2.5029445,0
0.13999999999999999,18.220348078218894,5.999999997863775,-6.0,-5.170601993638075,11.6855345,-1.6586583,-7.406083,1.7386185,18.193008,-10.259047,1.5741961,-0.04478907,-0.42297748,0.31864893,0.84708154,-13.257925,-5.950639,-0.27872744,2.6126919,-2.4456656,-2.6180868,0
0.15,18.220348078218894,5.999999997863775,-6.0,-5.170601993638075,11.6855345,-1.6586583,-7.406083,1.7386185,18.059708,-10.318057,1.5713474,-0.023256809,-0.4164789,0.32541427,0.8485931,-13.401216,-5.8508377,-0.29129618,3.01298,-2.8738492,-2.7319455,0
0.16,20.999999771447094,6.0,-6.0,-4.150351036808881,12.521019,0.36104712,-7.9792137,0.3064011,17.925013,-10.376051,1.5683652,0.00026760576,-0.40817702,0.33345613,0.8498227,-13.536401,-5.747254,-0.30537874,3.3980682,-3.2825358,-2.8444421,0
0.17,20.999999771447094,6.0,-6.0,-4.150351036808881,12.521019,0.36104712,-7.9792137,0.3064011,17.788927,-10.4329195,1.5652884,0.025682969,-0.39792177,0.34275734,0.8505976,-13.679458,-5.6253457,-0.3098575,3.8028986,-3.7072308,-2.9085233,0
0.18000000000000002,20.999999771447094,6.0,-6.0,-4.150351036808881,12.521019,0.36104712,-7.9792137,0.3064011,17.651447,-10.48853,1.5621711,0.052750304,-0.3857017,0.35315508,0.8507252,-13.814841,-5.4956207,-0.31344548,4.1446967,-4.065598,-2.9694602,0
0.19000000000000003,20.999999771447094,6.0,-6.0,-4.150351036808881,12.521019,0.36104712,-7.9792137,0.3064011,17.51266,-10.542803,1.5590231,0.08120213,-0.37169343,0.36431462,0.85001487,-13.941281,-5.357879,-0.31600592,4.4332814,-4.3679924,-3.0274072,0
0.20000000000000004,21.0,5.999999981867225,-6.0,-3.3798572878882673,15.609285,0.60431206,-8.643222,0.3242627,17.372656,-10.595659,1.5558549,0.11079637,-0.356055,0.37594953,0.84829897,-14.057553,-5.212197,-0.31744394,4.676942,-4.6231513,-3.0825105,0
0.21000000000000005,21.0,5.999999981867225,-6.0,-3.3798572878882673,15.609285,0.60431206,-8.643222,0.3242627,17.231546,-10.64702,1.5526783,0.14123158,-0.3388945,0.38784897,0.84544516,-14.162489,-5.058897,-0.31770533,4.882795,-4.83833,-3.0971014,0
0.22000000000000006,21.0,5.999999981867225,-6.0,-3.3798572878882673,15.609285,0.60431206,-8.643222,0.3242627,17.089449,-10.696814,1.5495051,0.17223066,-0.32031116,0.39983508,0.84134984,-14.254997,-4.8985267,-0.3167765,5.056611,-5.019888,-3.1109765,0
0.23000000000000007,21.0,5.999999981867225,-6.0,-3.3798572878882673,15.609285,0.60431206,-8.643222,0.3242627,16.946493,-10.74497,1.546347,0.20361614,-0.30043197,0.41172525,0.8359209,-14.334081,-4.731826,-0.3146838,5.2033777,-5.1730776,-3.1241705,0
0.24000000000000007,21.0,5.999999981867225,-6.0,-3.3798572878882673,16.573086,0.3009201,-8.657551,0.1627644,16.802818,-10.791431,1.5432153,0.23522444,-0.27937645,0.4233634,0.82908505,-14.398853,-4.5597057,-0.3114903,5.327305,-5.302332,-3.136717,0
0.25000000000000006,21.0,5.999999981867225,-6.0,-3.3798572878882673,16.573086,0.3009201,-8.657551,0.1627644,16.65857,-10.83615,1.5401206,0.26690426,-0.2572576,0.43461606,0.8207861,-14.448549,-4.3832245,-0.30729216,5.4319468,-5.411389,-3.148648,0
0.26000000000000006,21.0,5.999999981867225,-6.0,-3.3798572878882673,16.573086,0.3009201,-8.657551,0.1627644,16.5139,-10.8790865,1.5370724,0.29851526,-0.23418291,0.44536933,0.810983,-14.482536,-4.203562,-0.302215,5.5203056,-5.503405,-3.1599936,0
0.2700000000000001,21.0,5.999999981867225,-6.0,-3.3798572878882673,16.573086,0.3009201,-8.657551,0.1627644,16.368975,-10.920215,1.5340788,0.32992685,-0.21025488,0.455526,0.79964834,-14.500325,-4.0219965,-0.29640964,5.594915,-5.581042,-3.1707823,0
0.2800000000000001,21.0,5.229713847436357,-5.999999676900077,-1.79914414484653,17.039377,0.87872374,-8.670632,0.5558894,16.223953,-10.959524,1.5311462,0.36101744,-0.18557154,0.46500325,0.7867667,-14.501576,-3.839885,-0.29004845,5.657915,-5.6465464,-3.181042,0
0.2900000000000001,21.0,5.229713847436357,-5.999999676900077,-1.79914414484653,17.039377,0.87872374,-8.670632,0.5558894,16.079002,-10.997015,1.5282793,0.39146835,-0.16025198,0.473529,0.7725557,-14.486124,-3.6586478,-0.28330448,5.591276,-5.7012815,-3.113232,0
0.3000000000000001,21.0,5.229713847436357,-5.999999676900077,-1.79914414484653,17.039377,0.87872374,-8.670632,0.5558894,15.934288,-11.032704,1.5254812,0.4210149,-0.13440664,0.4809031,0.7572409,-14.45408,-3.4797688,-0.27626878,5.535038,-5.7475195,-3.0487492,0
0.3100000000000001,21.0,5.229713847436357,-5.999999676900077,-1.79914414484653,17.039377,0.87872374,-8.670632,0.5558894,15.789975,-11.066624,1.5227547,0.4496228,-0.10811245,0.48715702,0.7408301,-14.405732,-3.3047144,-0.26902825,5.4875765,-5.7865796,-2.9874308,0
0.3200000000000001,21.0,2.737430009325518,-4.9231981311032245,1.9005696873029545,17.746912,0.7276966,-7.4496484,0.738591,15.646227,-11.098817,1.5201011,0.47725794,-0.08144134,0.49231777,0.72333646,-14.341489,-3.134903,-0.2617009,5.44752,-5.819577,-2.9291213,0
0.3300000000000001,21.0,2.737430009325518,-4.9231981311032245,1.9005696873029545,17.746912,0.7276966,-7.4496484,0.738591,15.503236,-11.129262,1.5175731,0.5032631,-0.05508886,0.49611878,0.7053778,-14.254401,-2.9560604,-0.24434806,5.0801682,-5.6242476,-2.7107828,0
0.34000000000000014,21.0,2.737430009325518,-4.9231981311032245,1.9005696873029545,17.746912,0.7276966,-7.4496484,0.738591,15.361182,-11.157981,1.515204,0.52715576,-0.029592939,0.49842355,0.68760836,-14.154411,-2.7897694,-0.22992073,4.767057,-5.4625087,-2.4978516,0
0.35000000000000014,21.0,2.737430009325518,-4.9231981311032245,1.9005696873029545,17.746912,0.7276966,-7.4496484,0.738591,15.220184,-11.1851015,1.5129648,0.549139,-0.0047977082,0.49941763,0.6700788,-14.043569,-2.6363525,-0.2183383,4.500024,-5.3288107,-2.290194,0
0.36000000000000015,21.0,1.5889421872891478,-2.5212422169663116,2.9037682289551947,16.448273,0.3393654,-4.113114,1.2115271,15.080342,-11.210752,1.5108284,0.5693891,0.01943175,0.4992382,0.65282464,-13.923326,-2.4955332,-0.20922026,4.2652054,-5.225426,-2.0882764,0
0.37000000000000016,21.0,1.5889421872891478,-2.5212422169663116,2.9037682289551947,16.448273,0.3393654,-4.113114,1.2115271,14.94182,-11.234979,1.5088346,0.58769596,0.042373538,0.49794436,0.63629377,-13.780086,-2.3520193,-0.19002275,3.795886,-4.8556848,-1.865917,0
0.38000000000000017,21.0,1.5889421872891478,-2.5212422169663116,2.9037682289551947,16.448273,0.3393654,-4.113114,1.2115271,14.804763,-11.257841,1.5070179,0.6039339,0.06346826,0.49571466,0.62088895,-13.630652,-2.2224636,-0.17376973,3.4013157,-4.54209,-1.6490645,0
0.3900000000000002,21.0,1.5889421872891478,-2.5212422169663116,2.9037682289551947,16.448273,0.3393654,-4.113114,1.2115271,14.669222,-11.279473,1.5053495,0.61837494,0.08304735,0.49273002,0.60657483,-13.4768715,-2.1060467,-0.16033939,3.06971,-4.276002,-1.4375829,0
0.4000000000000002,21.0,0.5321800616267124,0.01045123470164266,3.3449596378822526,16.805468,0.5845194,-1.2198448,1.4888686,14.535234,-11.300004,1.5038018,0.6312416,0.10139405,0.48912552,0.5933041,-13.320233,-2.0019476,-0.14962289,2.7911947,-4.0500584,-1.2313387,0
0.4100000000000002,21.0,0.5321800616267124,0.01045123470164266,3.3449596378822526,16.805468,0.5845194,-1.2198448,1.4888686,14.402868,-11.319526,1.5023785,0.6424263,0.11788511,0.48506188,0.5814695,-13.152644,-1.9038291,-0.1352419,2.2897234,-3.566165,-1.0202181,0
0.4200000000000002,21.0,0.5321800616267124,0.01045123470164266,3.3449596378822526,16.805468,0.5845194,-1.2198448,1.4888686,14.272191,-11.338115,1.5010922,0.65184236,0.13205247,0.4808295,0.57137275,-12.982797,-1.8154749,-0.12219803,1.8980837,-3.126141,-0.8166155,0
0.4300000000000002,21.0,0.5321800616267124,0.01045123470164266,3.3449596378822526,16.805468,0.5845194,-1.2198448,1.4888686,14.143216,-11.355864,1.4999299,0.65966886,0.14433059,0.47668505,0.5628297,-12.811872,-1.7357302,-0.11047227,1.5999174,-2.7223468,-0.62009555,0
0.4400000000000002,21.0,0.5321800616267124,0.01045123470164266,3.3449596378822526,17.972094,-0.32497624,0.47633907,1.2588553,14.015954,-11.372855,1.4988781,0.66603863,0.15508991,0.47283265,0.55567,-12.640747,-1.663531,-0.10011762,1.381301,-2.3484554,-0.43025404,0
0.45000000000000023,21.0,0.5321800616267124,0.01045123470164266,3.3449596378822526,17.972094,-0.32497624,0.47633907,1.2588553,13.890401,-11.389159,1.4979225,0.67104995,0.1646451,0.469436,0.54974,-12.47007,-1.597909,-0.09124976,1.2303717,-1.9992437,-0.24671629,0
0.46000000000000024,21.0,0.5321800616267124,0.01045123470164266,3.3449596378822526,17.972094,-0.32497624,0.47633907,1.2588553,13.766553,-11.404834,1.4970498,0.6747918,0.17325856,0.46659732,0.5449079,-12.299141,-1.5375874,-0.08331736,1.1217352,-1.6856859,-0.0704717,0
0.47000000000000025,21.0,0.5321800616267124,0.01045123470164266,3.3449596378822526,17.972094,-0.32497624,0.47633907,1.2588553,13.6444235,-11.419925,1.4962555,0.67740875,0.18113177,0.46426195,0.541082,-12.126725,-1.4813393,-0.07555099,1.0299634,-1.421057,0.09712451,0
0.48000000000000026,20.999999990913267,-0.4158872247031745,2.202836150039663,3.260810724410504,19.16501,-1.3904165,1.9969358,0.59850585,13.524024,-11.434472,1.4955375,0.67904174,0.18842556,0.46233827,0.5381836,-11.953013,-1.428606,-0.068092115,0.952446,-1.1977196,0.25649673,0
0.49000000000000027,20.999999990913267,-0.4158872247031745,2.202836150039663,3.260810724410504,19.16501,-1.3904165,1.9969358,0.59850585,13.405367,-11.448507,1.494892,0.6794828,0.19453868,0.4611414,0.536476,-11.778173,-1.3788226,-0.06106429,0.7390335,-0.6673682,0.40391925,0
0.5000000000000002,20.999999990913267,-0.4158872247031745,2.202836150039663,3.260810724410504,19.16501,-1.3904165,1.9969358,0.59850585,13.288464,-11.462056,1.4943141,0.678583,0.19900139,0.4609212,0.53616726,-11.602443,-1.3310038,-0.054608636,0.55882907,-0.21975681,0.54410774,0
0.5100000000000002,20.999999990913267,-0.4158872247031745,2.202836150039663,3.260810724410504,19.16501,-1.3904165,1.9969358,0.59850585,13.173321,-11.475132,1.4937974,0.6765205,0.20210914,0.46150944,0.53710437,-11.426045,-1.2841393,-0.048844747,0.40667686,0.1580275,0.67741716,0
0.5200000000000002,20.99999993970344,-1.4813458318125243,3.971951995984602,2.946755646368069,19.498472,-2.943136,3.7544465,0.07645854,13.059944,-11.48774,1.4933347,0.6734367,0.2041066,0.46275815,0.5391462,-11.249166,-1.2373719,-0.043861788,0.27821997,0.4768812,0.80418503,0
0.5300000000000002,20.99999993970344,-1.4813458318125243,3.971951995984602,2.946755646368069,19.498472,-2.943136,3.7544465,0.07645854,12.948338,-11.499876,1.4929174,0.6692245,0.20450911,0.4647913,0.5424794,-11.071984,-1.1899021,-0.039722007,0.00346338,1.0217931,0.90932167,0
0.5400000000000003,20.99999993970344,-1.4813458318125243,3.971951995984602,2.946755646368069,19.498472,-2.943136,3.7544465,0.07645854,12.838505,-11.51153,1.4925373,0.66379553,0.20293462,0.46768928,0.5472294,-10.8948,-1.1406299,-0.03644556,-0.228459,1.4817176,1.0092992,0
0.5500000000000003,20.99999993970344,-1.4813458318125243,3.971951995984602,2.946755646368069,19.498472,-2.943136,3.7544465,0.07645854,12.730442,-11.522678,1.4921856,0.6572724,0.1997057,0.4712707,0.5531861,-10.717944,-1.0884888,-0.03403502,-0.42421564,1.869914,1.1043707,0
0.5600000000000003,20.99999994274097,-2.494349002573316,5.040841049701507,2.5127949873508015,19.011778,-3.3804677,4.9222875,-0.47606006,12.624144,-11.533288,1.4918535,0.64975065,0.1950913,0.47537765,0.5601605,-10.541748,-1.032591,-0.032491203,-0.5894385,2.1975732,1.1947771,0
0.5700000000000003,20.99999994274097,-2.494349002573316,5.040841049701507,2.5127949873508015,19.011778,-3.3804677,4.9222875,-0.47606006,12.519603,-11.543316,1.4915327,0.64120877,0.18878698,0.47993076,0.56822306,-10.366572,-0.97215664,-0.03180263,-0.8869631,2.6407113,1.2594527,0
0.5800000000000003,20.99999994274097,-2.494349002573316,5.040841049701507,2.5127949873508015,19.011778,-3.3804677,4.9222875,-0.47606006,12.416807,-11.552712,1.4912149,0.63161826,0.18055435,0.4848421,0.5773965,-10.192935,-0.906279,-0.031885557,-1.1380608,3.014759,1.3209544,0
0.5900000000000003,20.99999994274097,-2.494349002573316,5.040841049701507,2.5127949873508015,19.011778,-3.3804677,4.9222875,-0.47606006,12.315738,-11.5614195,1.4908928,0.6210381,0.17068972,0.48997286,0.5874551,-10.021418,-0.8341389,-0.032653894,-1.349971,3.3304923,1.3794384,0
0.6000000000000003,20.99999997341422,-3.1182956997295417,5.1262889566196215,1.9170178384494592,19.6415,-3.9293106,5.643089,-0.31188592,12.21637,-11.569371,1.4905597,0.60951585,0.15944344,0.49520355,0.59819883,-9.852611,-0.75509435,-0.03405046,-1.5288055,3.5970047,1.4350526,0
0.6100000000000003,20.99999997341422,-3.1182956997295417,5.1262889566196215,1.9170178384494592,19.6415,-3.9293106,5.643089,-0.31188592,12.118674,-11.576496,1.4902097,0.59715754,0.14681955,0.50031346,0.6095355,-9.687134,-0.668653,-0.036027126,-1.7769672,3.8352365,1.4587028,0
0.6200000000000003,20.99999997341422,-3.1182956997295417,5.1262889566196215,1.9170178384494592,19.6415,-3.9293106,5.643089,-0.31188592,12.0226145,-11.582718,1.4898374,0.58405066,0.13283058,0.5051159,0.62136865,-9.525695,-0.57442063,-0.038464844,-1.9863967,4.036348,1.4811925,0
0.6300000000000003,20.99999997341422,-3.1182956997295417,5.1262889566196215,1.9170178384494592,19.6415,-3.9293106,5.643089,-0.31188592,11.928144,-11.587957,1.4894389,0.57020974,0.11768532,0.5095632,0.63352716,-9.369027,-0.47213006,-0.041253075,-2.163138,4.2061234,1.5025785,0
0.6400000000000003,20.99999997341422,-3.1182956997295417,5.1262889566196215,1.9170178384494592,20.48787,-4.070107,5.721301,-0.4333776,11.835215,-11.592132,1.4890112,0.5556502,0.10156266,0.51361555,0.64586157,-9.217849,-0.36164618,-0.044323437,-2.3122919,4.349446,1.5229151,0
0.6500000000000004,20.99999997341422,-3.1182956997295417,5.1262889566196215,1.9170178384494592,20.48787,-4.070107,5.721301,-0.4333776,11.743765,-11.595161,1.4885516,0.5403891,0.08461662,0.51724046,0.6582416,-9.0728655,-0.24295214,-0.047643606,-2.4381642,4.470439,1.5422539,0
0.6600000000000004,20.99999997341422,-3.1182956997295417,5.1262889566196215,1.9170178384494592,20.48787,-4.070107,5.721301,-0.4333776,11.653732,-11.596963,1.4880576,0.5244455,0.06698042,0.52041173,0.67055374,-8.934761,-0.11613739,-0.051211737,-2.5443878,4.572582,1.5606438,0
0.6700000000000004,20.99999997341422,-3.1182956997295417,5.1262889566196215,1.9170178384494592,20.48787,-4.070107,5.721301,-0.4333776,11.565044,-11.597456,1.4875264,0.5078396,0.04876979,0.52310836,0.6826992,-8.804194,0.018613096,-0.05505147,-2.6340292,4.658811,1.5781311,0
0.6800000000000004,20.999999960400057,-3.0669356863319615,4.4231246409634535,1.3632719055199263,21.074451,-3.5875788,5.0400257,-0.2141889,11.47762,-11.596562,1.4869555,0.49059346,0.03008572,0.5253143,0.69459194,-8.681792,0.16102883,-0.05920744,-2.7096765,4.7316074,1.5947604,0
0.6900000000000004,20.999999960400057,-3.0669356863319615,4.4231246409634535,1.3632719055199263,21.074451,-3.5875788,5.0400257,-0.2141889,11.391378,-11.59421,1.4863412,0.4729278,0.011187466,0.5268996,0.70610976,-8.568133,0.31074446,-0.06373034,-2.765306,4.6834626,1.5834013,0
0.7000000000000004,20.999999960400057,-3.0669356863319615,4.4231246409634535,1.3632719055199263,21.074451,-3.5875788,5.0400257,-0.2141889,11.306228,-11.590324,1.4856797,0.45504153,-0.00771383,0.52777743,0.71716714,-8.463666,0.4672315,-0.06862029,-2.8122702,4.6428347,1.5725995,0
0.7100000000000004,20.999999960400057,-3.0669356863319615,4.4231246409634535,1.3632719055199263,21.074451,-3.5875788,5.0400257,-0.2141889,11.222073,-11.584844,1.4849676,0.43692675,-0.026601244,0.5279935,0.7277434,-8.368765,0.62990576,-0.073872715,-2.8519194,4.6085496,1.5623277,0
0.7200000000000004,20.99999992071734,-2.646136921472354,3.2641456303958627,0.8044310204222797,21.232586,-3.4612162,4.276431,-0.1897695,11.138818,-11.577707,1.484201,0.41857937,-0.045459036,0.5275867,0.7378193,-8.283768,0.7981738,-0.07950043,-2.8853927,4.5796165,1.5525599,0
0.7300000000000004,20.99999992071734,-2.646136921472354,3.2641456303958627,0.8044310204222797,21.232586,-3.4612162,4.276431,-0.1897695,11.056362,-11.568863,1.4833761,0.40030664,-0.063896075,0.5265253,0.74729055,-8.208934,0.97141135,-0.085520186,-2.8477685,4.3745756,1.515849,0
0.7400000000000004,20.99999992071734,-2.646136921472354,3.2641456303958627,0.8044310204222797,21.232586,-3.4612162,4.276431,-0.1897695,10.974604,-11.558265,1.4824893,0.38237903,-0.08160645,0.5248144,0.7561064,-8.1442585,1.1488795,-0.09189707,-2.8160574,4.2015004,1.4809395,0
0.7500000000000004,20.99999992071734,-2.646136921472354,3.2641456303958627,0.8044310204222797,21.232586,-3.4612162,4.276431,-0.1897695,10.893442,-11.545874,1.4815372,0.3647438,-0.09869202,0.5225302,0.76431954,-8.089648,1.3298575,-0.098585665,-2.7893295,4.055406,1.447743,0
0.7600000000000005,20.99999982881427,-1.9397836024943138,1.877257698525012,0.2435408180245063,20.564476,-3.4087875,3.7082725,-0.78294283,10.812776,-11.531658,1.4805168,0.34735522,-0.11523897,0.5197343,0.77197206,-8.045005,1.5136876,-0.10555259,-2.7668014,3.9320877,1.4161756,0
0.7700000000000005,20.99999982881427,-1.9397836024943138,1.877257698525012,0.2435408180245063,20.564476,-3.4087875,3.7082725,-0.78294283,10.732508,-11.515593,1.4794253,0.3305527,-0.1308307,0.5165033,0.7790012,-8.010175,1.6997497,-0.11276659,-2.637397,3.6118562,1.358634,0
0.7800000000000005,20.99999982881427,-1.9397836024943138,1.877257698525012,0.2435408180245063,20.564476,-3.4087875,3.7082725,-0.78294283,10.652539,-11.497658,1.4782609,0.31462595,-0.14515178,0.51292837,0.7853955,-7.9846897,1.8874053,-0.12015099,-2.5282457,3.3415334,1.3039161,0
0.7900000000000005,20.99999982881427,-1.9397836024943138,1.877257698525012,0.2435408180245063,20.564476,-3.4087875,3.7082725,-0.78294283,10.572782,-11.477841,1.477022,0.29946724,-0.1584053,0.5090695,0.7912493,-7.968019,2.0760903,-0.12761854,-2.4361753,3.1133413,1.2518831,0
0.8000000000000005,20.999999646504158,-1.0823998702274802,0.5474537480395557,-0.2827384645284555,19.168089,-3.8150659,1.6685576,-0.4918739,10.493149,-11.456136,1.4757085,0.2849815,-0.17076254,0.50497127,0.79663646,-7.959694,2.2653317,-0.13509223,-2.3585117,2.9207141,1.2024034,0
0.8100000000000005,20.999999646504158,-1.0823998702274802,0.5474537480395557,-0.2827384645284555,19.168089,-3.8150659,1.6685576,-0.4918739,10.41356,-11.432535,1.4743204,0.27146724,-0.18188085,0.5007846,0.80152327,-7.9592447,2.4547262,-0.14250024,-2.159091,2.5508647,1.1295271,0
0.8200000000000005,20.999999646504158,-1.0823998702274802,0.5474537480395557,-0.2827384645284555,19.168089,-3.8150659,1.6685576,-0.4918739,10.33394,-11.407042,1.4728589,0.2591714,-0.19150764,0.49664894,0.8059124,-7.9659204,2.6439292,-0.14974791,-1.99085,2.238648,1.0602267,0
0.8300000000000005,20.999999646504158,-1.0823998702274802,0.5474537480395557,-0.2827384645284555,19.168089,-3.8150659,1.6685576,-0.4918739,10.25422,-11.379658,1.4713262,0.24794336,-0.19989568,0.49257323,0.80989957,-7.978959,2.8326778,-0.15673761,-1.8489102,1.9750849,0.99432695,0
0.8400000000000005,20.999999646504158,-1.0823998702274802,0.5474537480395557,-0.2827384645284555,17.696476,-3.92642,0.78855395,-0.5036152,10.17434,-11.35039,1.4697254,0.23765136,-0.20725653,0.48855808,0.8135586,-7.9977098,3.0207784,-0.16338155,-1.7291571,1.7525951,0.931661,0
0.8500000000000005,20.999999646504158,-1.0823998702274802,0.5474537480395557,-0.2827384645284555,17.696476,-3.92642,0.78855395,-0.5036152,10.094247,-11.319245,1.4680601,0.22818072,-0.21376708,0.48459905,0.8169461,-8.021619,3.2080872,-0.16960222,-1.6281204,1.5647787,0.87207,0
0.8600000000000005,20.999999646504158,-1.0823998702274802,0.5474537480395557,-0.2827384645284555,17.696476,-3.92642,0.78855395,-0.5036152,10.013891,-11.286232,1.4663352,0.21943188,-0.2195752,0.48068884,0.82010645,-8.050215,3.3944964,-0.17533228,-1.5428735,1.406233,0.8154032,0
0.8700000000000006,20.999999646504158,-1.0823998702274802,0.5474537480395557,-0.2827384645284555,17.696476,-3.92642,0.78855395,-0.5036152,9.9332285,-11.251359,1.4645555,0.21131861,-0.22480433,0.47681865,0.8230744,-8.083096,3.5799248,-0.18051389,-1.4709468,1.2723969,0.7615171,0
0.8800000000000006,20.999998404686856,-0.31933507024706054,-0.590282190007081,-0.6703196063714452,17.712278,-4.08983,0.2827184,-0.5894577,9.852217,-11.214637,1.4627271,0.20376642,-0.22955751,0.47297922,0.8258773,-8.119919,3.764309,-0.18509793,-1.410258,1.1594195,0.71027523,0
0.8900000000000006,20.999998404686856,-0.31933507024706054,-0.590282190007081,-0.6703196063714452,17.712278,-4.08983,0.2827184,-0.5894577,9.770818,-11.176077,1.4608558,0.1970364,-0.23350622,0.46931276,0.82849085,-8.160344,3.9476082,-0.18903828,-1.2399632,0.88668853,0.642529,0
0.9000000000000006,20.999998404686856,-0.31933507024706054,-0.590282190007081,-0.6703196063714452,17.712278,-4.08983,0.2827184,-0.5894577,9.688999,-11.135689,1.4589487,0.19133809,-0.23640002,0.46593806,0.83090705,-8.2037945,4.129847,-0.19226801,-1.0962672,0.65646243,0.5781072,0
0.9100000000000006,20.999998404686856,-0.31933507024706054,-0.590282190007081,-0.6703196063714452,17.712278,-4.08983,0.2827184,-0.5894577,9.606733,-11.093483,1.4570132,0.18654099,-0.23842199,0.4628122,0.83316404,-8.249681,4.3110795,-0.1947194,-0.975013,0.4621181,0.51684654,0
0.9200000000000006,19.99298367750456,0.40802670003898805,-1.612785579529804,-0.9277381626299661,16.657679,-3.8124795,0.1315857,-0.7190239,9.523997,-11.04947,1.4550573,0.18253277,-0.23972471,0.45989606,0.8352901,-8.297511,4.4913645,-0.19633435,-0.8726937,0.29806462,0.45859197,0
0.9300000000000006,19.99298367750456,0.40802670003898805,-1.612785579529804,-0.9277381626299661,16.657679,-3.8124795,0.1315857,-0.7190239,9.440788,-11.003701,1.4530663,0.17950131,-0.24005544,0.45731676,0.83726585,-8.344459,4.6621675,-0.20172986,-0.67287636,0.00015856326,0.39056435,0
0.9400000000000006,19.99298367750456,0.40802670003898805,-1.612785579529804,-0.9277381626299661,16.657679,-3.8124795,0.1315857,-0.7190239,9.357105,-10.956229,1.4510258,0.17759213,-0.23922174,0.45517385,0.83907735,-8.392197,4.8322554,-0.20621975,-0.5042564,-0.25131458,0.3258749,0
0.9500000000000006,19.99298367750456,0.40802670003898805,-1.612785579529804,-0.9277381626299661,16.657679,-3.8124795,0.1315857,-0.7190239,9.2729435,-10.90706,1.4489453,0.1766578,-0.23742063,0.4533957,0.8407472,-8.44012,5.00176,-0.20974924,-0.3619594,-0.4635902,0.2643597,0
0.9600000000000006,18.61436349699413,0.962424522332731,-2.391577035587355,-1.1501623371190963,15.121561,-3.528904,0.2074679,-1.1539277,9.188304,-10.856196,1.4468344,0.17657197,-0.23481643,0.4519191,0.84229016,-8.487713,5.170793,-0.2122748,-0.24187383,-0.6427766,0.20586313,0
0.9700000000000006,18.61436349699413,0.962424522332731,-2.391577035587355,-1.1501623371190963,15.121561,-3.528904,0.2074679,-1.1539277,9.103209,-10.803704,1.4446702,0.17744198,-0.23125674,0.45081455,0.84368294,-8.531284,5.3278265,-0.2204232,-0.05406676,-0.9154731,0.13932255,0
0.9800000000000006,18.61436349699413,0.962424522332731,-2.391577035587355,-1.1501623371190963,15.121561,-3.528904,0.2074679,-1.1539277,9.017684,-10.749641,1.4424294,0.17934725,-0.22662675,0.4501312,0.84490055,-8.573569,5.4846344,-0.22757062,0.10442862,-1.1456604,0.07604715,0
0.9900000000000007,18.61436349699413,0.962424522332731,-2.391577035587355,-1.1501623371190963,15.121561,-3.528904,0.2074679,-1.1539277,8.931745,-10.694012,1.4401222,0.18214914,-0.22110282,0.44978896,0.8459464,-8.614045,5.6413207,-0.2336923,0.23819008,-1.3399631,0.0158767,0
1.0000000000000007,17.517892502729357,1.2181128060911448,-2.7465592566211083,-1.2417424388427538,14.547055,-3.121422,-0.27756873,-1.1429878,8.845411,-10.636815,1.4377592,0.18572894,-0.21483251,0.44971868,0.8468205,-8.652269,5.7979593,-0.23877558,0.35108003,-1.5039734,-0.041341174,0
1.0100000000000007,17.517892502729357,1.2181128060911448,-2.7465592566211083,-1.2417424388427538,14.547055,-3.121422,-0.27756873,-1.1429878,8.7587185,-10.578098,1.4353228,0.1900799,-0.20780508,0.44991854,0.8475023,-8.685751,5.945373,-0.24835852,0.48622334,-1.697776,-0.10024521,0
1.0200000000000007,17.517892502729357,1.2181128060911448,-2.7465592566211083,-1.2417424388427538,14.547055,-3.121422,-0.27756873,-1.1429878,8.671705,-10.517907,1.4327954,0.19518979,-0.20001706,0.45038092,0.84796894,-8.716351,6.092824,-0.25696707,0.60028297,-1.8613625,-0.1562588,0
1.0300000000000007,17.517892502729357,1.2181128060911448,-2.7465592566211083,-1.2417424388427538,14.547055,-3.121422,-0.27756873,-1.1429878,8.584402,-10.456242,1.4301869,0.20095643,-0.19159245,0.45104343,0.8482151,-8.743707,6.240326,-0.26461557,0.6965498,-1.9994422,-0.2095238,0
1.0400000000000007,17.517892502729357,1.2181128060911448,-2.7465592566211083,-1.2417424388427538,13.758575,-2.989969,-0.2326801,-1.0667042,8.496843,-10.393101,1.4275066,0.20729204,-0.18263572,0.4518532,0.84823525,-8.767513,6.387866,-0.27132753,0.7778015,-2.1159914,-0.26017505,0
1.0500000000000007,17.517892502729357,1.2181128060911448,-2.7465592566211083,-1.2417424388427538,13.758575,-2.989969,-0.2326801,-1.0667042,8.409065,-10.328485,1.4247636,0.21412103,-0.173235,0.45276567,0.84802425,-8.787507,6.535408,-0.27713406,0.8463818,-2.2143662,-0.30834085,0
1.0600000000000007,17.517892502729357,1.2181128060911448,-2.7465592566211083,-1.2417424388427538,13.758575,-2.989969,-0.2326801,-1.0667042,8.321107,-10.262393,1.4219668,0.22137822,-0.16346468,0.45374352,0.84757763,-8.803468,6.682895,-0.28207263,0.90426785,-2.2974002,-0.35414314,0
1.0700000000000007,17.517892502729357,1.2181128060911448,-2.7465592566211083,-1.2417424388427538,13.758575,-2.989969,-0.2326801,-1.0667042,8.23301,-10.194827,1.4191248,0.22900718,-0.1533877,0.4547555,0.8468916,-8.8152075,6.8302546,-0.28618592,0.9531284,-2.3674846,-0.3976979,0
1.0800000000000007,16.762580546156464,0.9844349921559606,-2.7128139791627235,-1.2785294789014758,12.894339,-2.5521173,-0.5290104,-0.93830216,8.144818,-10.125789,1.4162457,0.23695894,-0.1430573,0.4557757,0.8459631,-8.822569,6.977399,-0.28952083,0.99437183,-2.4266386,-0.43911538,0
1.0900000000000007,16.762580546156464,0.9844349921559606,-2.7128139791627235,-1.2785294789014758,12.894339,-2.5521173,-0.5290104,-0.93830216,8.056575,-10.055312,1.4133164,0.24517559,-0.13255458,0.45670626,0.8448299,-8.825303,7.1178946,-0.29624036,0.9927432,-2.4712937,-0.48030567,0
1.1000000000000008,16.762580546156464,0.9844349921559606,-2.7128139791627235,-1.2785294789014758,12.894339,-2.5521173,-0.5290104,-0.93830216,7.968326,-9.983433,1.4103233,0.25360984,-0.12194763,0.45746997,0.84352356,-8.823655,7.2579618,-0.30227914,0.9913717,-2.5089836,-0.51947474,0
1.1100000000000008,16.762580546156464,0.9844349921559606,-2.7128139791627235,-1.2785294789014758,12.894339,-2.5521173,-0.5290104,-0.93830216,7.8801165,-9.910155,1.407273,0.26223588,-0.111260444,0.45807487,0.84203374,-8.817577,7.397468,-0.3076544,0.9902176,-2.5407944,-0.5567217,0
1.1200000000000008,16.051026316028274,0.41545403650410834,-2.4000542587505973,-1.1962561888453966,12.422621,-2.7540443,-0.48267475,-0.6615978,7.79199,-9.8354845,1.4041724,0.27103055,-0.100513086,0.458528,0.84035206,-8.8070345,7.536279,-0.31238925,0.9892469,-2.5676434,-0.59214103,0
1.1300000000000008,16.051026316028274,0.41545403650410834,-2.4000542587505973,-1.1962561888453966,12.422621,-2.7540443,-0.48267475,-0.6615978,7.703988,-9.75946,1.4010075,0.2798853,-0.089885496,0.45868078,0.8385682,-8.792656,7.6684003,-0.3204926,0.8997251,-2.541491,-0.62178516,0
1.1400000000000008,16.051026316028274,0.41545403650410834,-2.4000542587505973,-1.1962561888453966,12.422621,-2.7540443,-0.48267475,-0.6615978,7.616151,-9.682121,1.3977647,0.28871536,-0.079523,0.45842105,0.83676136,-8.77409,7.7995734,-0.32797727,0.8241659,-2.5194187,-0.6499746,0
1.1500000000000008,16.051026316028274,0.41545403650410834,-2.4000542587505973,-1.1962561888453966,12.422621,-2.7540443,-0.48267475,-0.6615978,7.5285196,-9.603474,1.3944503,0.29753235,-0.0693939,0.4578034,0.8349101,-8.751455,7.9296513,-0.33481148,0.76039165,-2.5007904,-0.6767808,0
1.1600000000000008,15.302138922833416,-0.3977385945814913,-1.885937570285852,-0.9517563820056134,11.656145,-3.4769714,0.2314422,-0.7273851,7.441135,-9.523532,1.3910708,0.30634457,-0.059470735,0.45687371,0.8329961,-8.724858,8.0585,-0.34097266,0.7065643,-2.4850688,-0.7022716,0
1.1700000000000008,15.302138922833416,-0.3977385945814913,-1.885937570285852,-0.9517563820056134,11.656145,-3.4769714,0.2314422,-0.7273851,7.354029,-9.442338,1.3876116,0.3150209,-0.04998801,0.45546636,0.8311517,-8.695842,8.180042,-0.35075668,0.53437257,-2.3915603,-0.7145139,0
1.1800000000000008,15.302138922833416,-0.3977385945814913,-1.885937570285852,-0.9517563820056134,11.656145,-3.4769714,0.2314422,-0.7273851,7.2672305,-9.359936,1.3840582,0.32345968,-0.04113109,0.4534587,0.82949203,-8.663407,8.300167,-0.35979325,0.38902968,-2.3126442,-0.7261554,0
1.1900000000000008,15.302138922833416,-0.3977385945814913,-1.885937570285852,-0.9517563820056134,11.656145,-3.4769714,0.2314422,-0.7273851,7.180772,-9.2763405,1.3804185,0.33170447,-0.032810874,0.45094296,0.82797694,-8.627811,8.418765,-0.36799347,0.2663487,-2.2460437,-0.7372257,0
1.2000000000000008,15.067356641776469,-1.260031709129879,-1.3130270706112417,-0.6309083483312942,12.813823,-3.34479,-0.45029548,-0.25184575,7.0946846,-9.191566,1.3767015,0.33979014,-0.024951039,0.44799578,0.82657105,-8.589278,8.535742,-0.3752837,0.16279663,-2.1898365,-0.7477528,0
1.2100000000000009,15.067356641776469,-1.260031709129879,-1.3130270706112417,-0.6309083483312942,12.813823,-3.34479,-0.45029548,-0.25184575,7.0089927,-9.105641,1.3729093,0.34760222,-0.017776215,0.44447634,0.8254073,-8.54866,8.649244,-0.38300014,-0.05901841,-2.0529907,-0.7420192,0
1.2200000000000009,15.067356641776469,-1.260031709129879,-1.3130270706112417,-0.6309083483312942,12.813823,-3.34479,-0.45029548,-0.25184575,6.9237194,-9.018589,1.3690451,0.35505146,-0.011460798,0.44028062,0.8245968,-8.505702,8.760997,-0.38962498,-0.246253,-1.9375042,-0.7365669,0
1.2300000000000009,15.067356641776469,-1.260031709129879,-1.3130270706112417,-0.6309083483312942,12.813823,-3.34479,-0.45029548,-0.25184575,6.838886,-8.930428,1.3651209,0.36219603,-0.0058760345,0.43551534,0.8240787,-8.46074,8.870942,-0.39503166,-0.40429828,-1.8400427,-0.7313822,0
1.2400000000000009,15.067356641776469,-1.260031709129879,-1.3130270706112417,-0.6309083483312942,13.090013,-3.8536851,0.0005829148,0.3044866,6.7545104,-8.841177,1.3611491,0.36908305,-0.00091222976,0.4302688,0.8237994,-8.4140625,8.979035,-0.39911547,-0.5377045,-1.7577931,-0.7264519,0
1.2500000000000009,15.067356641776469,-1.260031709129879,-1.3130270706112417,-0.6309083483312942,13.090013,-3.8536851,0.0005829148,0.3044866,6.6706095,-8.750854,1.3571435,0.37575063,0.0035239966,0.42461416,0.8237121,-8.36592,9.085236,-0.40179113,-0.650313,-1.6883807,-0.72176355,0
1.260000000000001,15.067356641776469,-1.260031709129879,-1.3130270706112417,-0.6309083483312942,13.090013,-3.8536851,0.0005829148,0.3044866,6.587197,-8.659478,1.3531184,0.38222983,0.0075120856,0.41861242,0.82377625,-8.316528,9.1895075,-0.4029905,-0.7453661,-1.629802,-0.71730524,0
1.270000000000001,15.067356641776469,-1.260031709129879,-1.3130270706112417,-0.6309083483312942,13.090013,-3.8536851,0.0005829148,0.3044866,6.504283,-8.567069,1.3490889,0.3885459,0.0111195855,0.4123142,0.823957,-8.266075,9.291821,-0.40266016,-0.8256005,-1.580366,-0.7130657,0
1.280000000000001,14.6645503288209,-2.016376913752225,-0.815371962787526,-0.24218571689413096,11.89941,-4.6660585,0.7541591,0.6314332,6.421878,-8.473648,1.3450706,0.39471942,0.014403903,0.40576196,0.8242246,-8.2147255,9.392144,-0.4007597,-0.8933264,-1.5386455,-0.70903414,0
1.290000000000001,14.6645503288209,-2.016376913752225,-0.815371962787526,-0.24218571689413096,11.89941,-4.6660585,0.7541591,0.6314332,6.3399835,-8.379246,1.3410656,0.40065172,0.017148925,0.39882004,0.8246978,-8.164036,9.487826,-0.39996642,-1.068392,-1.4257863,-0.6861258,0
1.300000000000001,14.6645503288209,-2.016376913752225,-0.815371962787526,-0.24218571689413096,11.89941,-4.6660585,0.7541591,0.6314332,6.258598,-8.283897,1.3370768,0.40626192,0.019186353,0.39138362,0.8254706,-8.112902,9.581534,-0.39752522,-1.2161683,-1.3305435,-0.66434157,0
1.310000000000001,14.6645503288209,-2.016376913752225,-0.815371962787526,-0.24218571689413096,11.89941,-4.6660585,0.7541591,0.6314332,6.1777253,-8.187622,1.333121,0.41158837,0.020625941,0.38352576,0.8264849,-8.061596,9.673257,-0.39335543,-1.3409086,-1.2501669,-0.6436263,0
1.320000000000001,14.274645673416748,-2.627894061423259,-0.406506829558668,0.17035998497410032,11.87161,-5.083423,1.0452838,1.0594643,6.097366,-8.090439,1.3292158,0.41666237,0.021560721,0.3753075,0.82769054,-8.010358,9.762983,-0.38739705,-1.446204,-1.1823353,-0.6239275,0
1.330000000000001,14.274645673416748,-2.627894061423259,-0.406506829558668,0.17035998497410032,11.87161,-5.083423,1.0452838,1.0594643,6.01751,-7.99238,1.3253653,0.4214116,0.021850642,0.36664438,0.82916003,-7.9607644,9.84837,-0.38241637,-1.6304115,-1.0613116,-0.5849516,0
1.340000000000001,14.274645673416748,-2.627894061423259,-0.406506829558668,0.17035998497410032,11.87161,-5.083423,1.0452838,1.0594643,5.938148,-7.893478,1.3215739,0.42577404,0.02138952,0.35747123,0.83094704,-7.9117427,9.931798,-0.37557572,-1.7859061,-0.9591788,-0.5478883,0
1.350000000000001,14.274645673416748,-2.627894061423259,-0.406506829558668,0.17035998497410032,11.87161,-5.083423,1.0452838,1.0594643,5.859272,-7.7937512,1.3178604,0.42978656,0.020295897,0.34786043,0.8329852,-7.8635783,10.013263,-0.36681396,-1.9171627,-0.8729871,-0.51264364,0
1.360000000000001,14.129410372914734,-3.0590066145132884,-0.1915080192679074,0.5728930248801671,14.327042,-5.0738816,0.5705701,1.4365911,5.780872,-7.693219,1.3142443,0.43347967,0.018670065,0.3378727,0.83521765,-7.816519,10.092756,-0.35609293,-2.027959,-0.8002468,-0.47912848,0
1.370000000000001,14.129410372914734,-3.0590066145132884,-0.1915080192679074,0.5728930248801671,14.327042,-5.0738816,0.5705701,1.4365911,5.7029343,-7.591906,1.3107398,0.43681103,0.016466612,0.32745123,0.8376756,-7.771256,10.169475,-0.34451714,-2.1886969,-0.7053375,-0.4275055,0
1.380000000000001,14.129410372914734,-3.0590066145132884,-0.1915080192679074,0.5728930248801671,14.327042,-5.0738816,0.5705701,1.4365911,5.625441,-7.489836,1.3073609,0.43974096,0.013654828,0.31655216,0.8403784,-7.7275715,10.244206,-0.3309483,-2.3243787,-0.6252423,-0.3784156,0
1.390000000000001,14.129410372914734,-3.0590066145132884,-0.1915080192679074,0.5728930248801671,14.327042,-5.0738816,0.5705701,1.4365911,5.5483766,-7.387029,1.3041276,0.4422963,0.010332863,0.30524042,0.8432646,-7.685713,10.316925,-0.31536928,-2.4389098,-0.55764765,-0.33173463,0
1.400000000000001,13.834522883338051,-3.231740239702511,-0.17155172666190754,0.9006985645629482,14.732737,-5.407528,1.107596,1.776639,5.4717197,-7.283505,1.3010602,0.4444998,0.006583641,0.293571,0.8462815,-7.6458964,10.3876,-0.2977853,-2.5355868,-0.50060076,-0.2873443,0
1.410000000000001,13.834522883338051,-3.231740239702511,-0.17155172666190754,0.9006985645629482,14.732737,-5.407528,1.107596,1.776639,5.3954463,-7.1792917,1.2981664,0.44633433,0.002451457,0.28153545,0.8494217,-7.6090975,10.4547615,-0.28067434,-2.644125,-0.44936568,-0.22904673,0
1.420000000000001,13.834522883338051,-3.231740239702511,-0.17155172666190754,0.9006985645629482,14.732737,-5.407528,1.107596,1.776639,5.31953,-7.074417,1.2954533,0.44778144,-0.0020240573,0.26912937,0.8526763,-7.5746694,10.519836,-0.26164946,-2.735742,-0.40612584,-0.17360982,0
1.430000000000001,13.834522883338051,-3.231740239702511,-0.17155172666190754,0.9006985645629482,14.732737,-5.407528,1.107596,1.776639,5.2439446,-6.9689026,1.2929398,0.44885772,-0.006784646,0.25640196,0.85600144,-7.542778,10.58277,-0.24075197,-2.8130758,-0.36963186,-0.12089321,0
1.440000000000001,13.834522883338051,-3.231740239702511,-0.17155172666190754,0.9006985645629482,15.520128,-5.207302,0.48361537,2.2796042,5.168665,-6.862769,1.2906445,0.44957805,-0.011781248,0.24339554,0.8593597,-7.513567,10.643509,-0.21803911,-2.8783529,-0.3388303,-0.070763394,0
1.450000000000001,13.834522883338051,-3.231740239702511,-0.17155172666190754,0.9006985645629482,15.520128,-5.207302,0.48361537,2.2796042,5.093663,-6.756039,1.2885852,0.44995588,-0.016972568,0.23014656,0.8627189,-7.4871607,10.701994,-0.19358179,-2.9334526,-0.31283182,-0.02309349,0
1.460000000000001,13.834522883338051,-3.231740239702511,-0.17155172666190754,0.9006985645629482,15.520128,-5.207302,0.48361537,2.2796042,5.0189114,-6.648736,1.2867787,0.45000347,-0.022323862,0.21668667,0.8660514,-7.463667,10.758168,-0.16746236,-2.9799614,-0.29088646,0.022237241,0
1.470000000000001,13.834522883338051,-3.231740239702511,-0.17155172666190754,0.9006985645629482,15.520128,-5.207302,0.48361537,2.2796042,4.94438,-6.5408835,1.2852414,0.44973212,-0.027805911,0.20304331,0.86933357,-7.4431753,10.811975,-0.13977294,-3.0192187,-0.27236158,0.065343566,0
1.480000000000001,13.735395603494098,-3.1707438651309756,-0.2576147440949131,1.1260629757676182,17.229517,-5.2344007,-0.5564213,2.6799366,4.870037,-6.432505,1.2839884,0.44915238,-0.033394147,0.18924055,0.8725449,-7.425763,10.863355,-0.11061388,-3.0523548,-0.25672328,0.10633467,0
1.490000000000001,13.735395603494098,-3.1707438651309756,-0.2576147440949131,1.1260629757676182,17.229517,-5.2344007,-0.5564213,2.6799366,4.7958527,-6.3236265,1.2830292,0.44825706,-0.039021682,0.1753062,0.875677,-7.411595,10.9119005,-0.08101406,-3.0708094,-0.2569637,0.15637304,0
1.500000000000001,13.735395603494098,-3.1707438651309756,-0.2576147440949131,1.1260629757676182,17.229517,-5.2344007,-0.5564213,2.6799366,4.721794,-6.214275,1.2823725,0.44703832,-0.044634216,0.16126485,0.87872505,-7.400582,10.957918,-0.050173294,-3.0863862,-0.2571626,0.20395601,0
1.5100000000000011,13.735395603494098,-3.1707438651309756,-0.2576147440949131,1.1260629757676182,17.229517,-5.2344007,-0.5564213,2.6799366,4.64783,-6.1044765,1.2820297,0.44550502,-0.05022979,0.14713165,0.8816769,-7.392747,11.001348,-0.01820715,-3.099534,-0.25732625,0.24920405,0
1.5200000000000011,13.607506715007124,-2.9302123620465297,-0.4392185031487667,1.256210813235109,17.949938,-5.131689,-1.3460858,3.1150804,4.573929,-5.9942575,1.2820117,0.44366586,-0.055806942,0.13292007,0.88452137,-7.388106,11.042129,0.014765486,-3.110632,-0.2574603,0.29223177,0
1.5300000000000011,13.607506715007124,-2.9302123620465297,-0.4392185031487667,1.256210813235109,17.949938,-5.131689,-1.3460858,3.1150804,4.5000577,-5.8836455,1.2823218,0.44153038,-0.061255563,0.11869621,0.8872483,-7.3866744,11.07985,0.04739434,-3.0824814,-0.28589508,0.33953446,0
1.5400000000000011,13.607506715007124,-2.9302123620465297,-0.4392185031487667,1.256210813235109,17.949938,-5.131689,-1.3460858,3.1150804,4.426185,-5.7726693,1.2829622,0.43910667,-0.06648873,0.10451481,0.88985443,-7.3883634,11.114839,0.08077813,-3.0587206,-0.3098903,0.38451603,0
1.5500000000000012,13.607506715007124,-2.9302123620465297,-0.4392185031487667,1.256210813235109,17.949938,-5.131689,-1.3460858,3.1150804,4.35228,-5.6613574,1.2839397,0.43640122,-0.07153679,0.09037165,0.8923391,-7.393115,11.147044,0.11479668,-3.0386653,-0.33013877,0.42729032,0
1.5600000000000012,13.377733424920264,-2.524072025603357,-0.688782395252367,1.2811747636200106,18.043758,-5.027953,-2.0429015,3.7279966,4.278312,-5.5497375,1.2852601,0.43342072,-0.07642558,0.07626355,0.8947006,-7.4008737,11.176417,0.14933158,-3.021738,-0.34722504,0.4679657,0
1.5700000000000012,13.377733424920264,-2.524072025603357,-0.688782395252367,1.2811747636200106,18.043758,-5.027953,-2.0429015,3.7279966,4.204253,-5.437841,1.2869165,0.43018985,-0.08101729,0.062290862,0.89693505,-7.4113946,11.202471,0.18201998,-2.9441009,-0.40054378,0.5078701,0
1.5800000000000012,13.377733424920264,-2.524072025603357,-0.688782395252367,1.2811747636200106,18.043758,-5.027953,-2.0429015,3.7279966,4.130075,-5.3256984,1.2889013,0.4267309,-0.08520484,0.04853451,0.89904666,-7.424683,11.22567,0.2149939,-2.8785717,-0.44554406,0.5458164,0
1.5900000000000012,13.377733424920264,-2.524072025603357,-0.688782395252367,1.2811747636200106,18.043758,-5.027953,-2.0429015,3.7279966,4.0557504,-5.213338,1.291217,0.4230476,-0.08904996,0.03496585,0.90104264,-7.4406047,11.24599,0.24815245,-2.823263,-0.4835239,0.58190066,0
1.6000000000000012,13.328144152728699,-2.103996275749072,-0.9213583382620343,1.2337926454668602,18.227987,-4.1915855,-2.7955966,3.6508267,3.981254,-5.1007886,1.2938646,0.41914415,-0.09260482,0.021560663,0.90292704,-7.459039,11.263407,0.28139937,-2.7765806,-0.51557827,0.6162142,0
1.6100000000000012,13.328144152728699,-2.103996275749072,-0.9213583382620343,1.2337926454668602,18.227987,-4.1915855,-2.7955966,3.6508267,3.9065616,-4.9880795,1.2968425,0.41504842,-0.09575953,0.008411035,0.9047064,-7.4797907,11.277851,0.3141567,-2.6716547,-0.57887024,0.646519,0
1.6200000000000012,13.328144152728699,-2.103996275749072,-0.9213583382620343,1.2337926454668602,18.227987,-4.1915855,-2.7955966,3.6508267,3.8316507,-4.875241,1.3001475,0.41078573,-0.09843035,-0.004410391,0.90639204,-7.502755,11.289382,0.34683356,-2.5830944,-0.6322921,0.67533666,0
1.6300000000000012,13.328144152728699,-2.103996275749072,-0.9213583382620343,1.2337926454668602,18.227987,-4.1915855,-2.7955966,3.6508267,3.7564995,-4.762302,1.3037786,0.40635732,-0.10069313,-0.016948951,0.9079906,-7.5277605,11.298003,0.37936047,-2.5083475,-0.6773839,0.7027403,0
1.6400000000000012,13.328144152728699,-2.103996275749072,-0.9213583382620343,1.2337926454668602,18.714804,-3.7223763,-3.376553,3.5864472,3.681089,-4.649291,1.307734,0.40176508,-0.10261185,-0.029243153,0.9095054,-7.5546536,11.303719,0.41167176,-2.4452596,-0.7154442,0.7287992,0
1.6500000000000012,13.328144152728699,-2.103996275749072,-0.9213583382620343,1.2337926454668602,18.714804,-3.7223763,-3.376553,3.5864472,3.6054006,-4.5362372,1.3120111,0.3970114,-0.1042404,-0.04132564,0.91093785,-7.5833006,11.306529,0.44370443,-2.3920124,-0.74756986,0.75357944,0
1.6600000000000013,13.328144152728699,-2.103996275749072,-0.9213583382620343,1.2337926454668602,18.714804,-3.7223763,-3.376553,3.5864472,3.5294173,-4.4231706,1.3166069,0.39209908,-0.105624214,-0.053224057,0.9122876,-7.613581,11.3064375,0.4753973,-2.3470712,-0.7746861,0.7771436,0
1.6700000000000013,13.328144152728699,-2.103996275749072,-0.9213583382620343,1.2337926454668602,18.714804,-3.7223763,-3.376553,3.5864472,3.4531236,-4.310119,1.3215176,0.38703135,-0.10680153,-0.06496176,0.91355336,-7.6453857,11.303447,0.5066906,-2.3091407,-0.7975742,0.7995515,0
1.6800000000000013,13.160923033895163,-1.6166474517941627,-0.87590241152801,1.1364087014450626,18.612288,-3.7380717,-3.7703924,3.595976,3.3765044,-4.197112,1.326739,0.38181168,-0.10780457,-0.07655845,0.914733,-7.678616,11.29756,0.5375255,-2.277127,-0.8168934,0.82085985,0
1.6900000000000013,13.160923033895163,-1.6166474517941627,-0.87590241152801,1.1364087014450626,18.612288,-3.7380717,-3.7703924,3.595976,3.2995486,-4.0841775,1.3322582,0.3764779,-0.108602256,-0.08784671,0.91583437,-7.7127414,11.2888975,0.5662351,-2.174112,-0.8260628,0.8363439,0
1.7000000000000013,13.160923033895163,-1.6166474517941627,-0.87590241152801,1.1364087014450626,18.612288,-3.7380717,-3.7703924,3.595976,3.2222455,-3.9713435,1.3380618,0.37106517,-0.109172866,-0.098695315,0.9168702,-7.7480497,11.277449,0.5943989,-2.0871634,-0.83380806,0.8510682,0
1.7100000000000013,13.160923033895163,-1.6166474517941627,-0.87590241152801,1.1364087014450626,18.612288,-3.7380717,-3.7703924,3.595976,3.1445842,-3.8586378,1.3441441,0.36557308,-0.109553635,-0.10916838,0.91784334,-7.784415,11.263284,0.6219861,-2.0137753,-0.84035045,0.8650699,0
1.7200000000000013,13.061198946031231,-1.0668848801297695,-0.734687180981336,1.0194302250853546,19.036863,-3.4566913,-4.003551,3.4386685,3.0665543,-3.746087,1.3504994,0.36000162,-0.10977567,-0.11932012,0.91875494,-7.8217254,11.246465,0.64896756,-1.9518331,-0.84587675,0.87838465,0
1.7300000000000013,13.061198946031231,-1.0668848801297695,-0.734687180981336,1.0194302250853546,19.036863,-3.4566913,-4.003551,3.4386685,2.9881482,-3.6337168,1.3571166,0.35439602,-0.10983659,-0.12897566,0.91962194,-7.8595877,11.227202,0.6743759,-1.8138323,-0.828466,0.8853058,0
1.7400000000000013,13.061198946031231,-1.0668848801297695,-0.734687180981336,1.0194302250853546,19.036863,-3.4566913,-4.003551,3.4386685,2.90936,-3.5215516,1.3639847,0.3487971,-0.10973732,-0.138,0.9204641,-7.898161,11.205489,0.6991567,-1.6973513,-0.8137813,0.8918873,0
1.7500000000000013,13.061198946031231,-1.0668848801297695,-0.734687180981336,1.0194302250853546,19.036863,-3.4566913,-4.003551,3.4386685,2.830183,-3.409615,1.3710974,0.34319887,-0.10950575,-0.14648911,0.9212839,-7.937326,11.181453,0.7233161,-1.5990342,-0.8013961,0.89814585,0
1.7600000000000013,12.986185983349172,-0.5387818892117852,-0.5102483895754986,0.8631102600078073,19.703194,-3.6083844,-4.7384763,3.8094718,2.7506118,-3.2979302,1.3784488,0.3375959,-0.10916485,-0.15452403,0.92208153,-7.9769826,11.1552,0.74685997,-1.5160489,-0.7909501,0.90409726,0
1.7700000000000014,12.986185983349172,-0.5387818892117852,-0.5102483895754986,0.8631102600078073,19.703194,-3.6083844,-4.7384763,3.8094718,2.670643,-3.1865177,1.3860292,0.33203906,-0.10874269,-0.16195035,0.92287433,-8.016809,11.126998,0.7691021,-1.3636714,-0.7470833,0.902086,0
1.7800000000000014,12.986185983349172,-0.5387818892117852,-0.5102483895754986,0.8631102600078073,19.703194,-3.6083844,-4.7384763,3.8094718,2.5902746,-3.075397,1.3938291,0.32657322,-0.10826346,-0.16865079,0.9236806,-8.056939,11.096857,0.79077226,-1.235053,-0.71007186,0.9001734,0
1.7900000000000014,12.986185983349172,-0.5387818892117852,-0.5102483895754986,0.8631102600078073,19.703194,-3.6083844,-4.7384763,3.8094718,2.5095036,-2.9645867,1.401843,0.32118547,-0.107738875,-0.17473817,0.9244992,-8.097284,11.064936,0.8119074,-1.1264888,-0.6788447,0.89835465,0
1.8000000000000014,12.870366779885524,-0.09759229006164963,-0.29298185938792887,0.6795055475164316,18.930178,-2.6676848,-4.704744,2.9007294,2.4283285,-2.854104,1.4100655,0.31586438,-0.10717818,-0.18030758,0.92532796,-8.137774,11.031368,0.8325411,-1.0348523,-0.6524973,0.89662516,0
1.8100000000000014,12.870366779885524,-0.09759229006164963,-0.29298185938792887,0.6795055475164316,18.930178,-2.6676848,-4.704744,2.9007294,2.3467498,-2.7439632,1.4184868,0.31065586,-0.1066098,-0.18525104,0.92617995,-8.177983,10.996593,0.8516521,-0.88872427,-0.5963396,0.88597107,0
1.8200000000000014,12.870366779885524,-0.09759229006164963,-0.29298185938792887,0.6795055475164316,18.930178,-2.6676848,-4.704744,2.9007294,2.2647688,-2.634177,1.4270971,0.30559987,-0.106056914,-0.18948826,0.9270678,-8.218211,10.960477,0.8703504,-0.7653786,-0.54895484,0.87583977,0
1.8300000000000014,12.870366779885524,-0.09759229006164963,-0.29298185938792887,0.6795055475164316,18.930178,-2.6676848,-4.704744,2.9007294,2.1823857,-2.5247576,1.4358926,0.30067846,-0.105518825,-0.19313025,0.9279864,-8.258406,10.9231825,0.8886893,-0.66126364,-0.50897247,0.8662057,0
1.8400000000000014,12.870366779885524,-0.09759229006164963,-0.29298185938792887,0.6795055475164316,19.456877,-2.589815,-5.157761,3.1521456,2.0996008,-2.4157166,1.4448699,0.29587576,-0.1049944,-0.19627047,0.9289302,-8.298524,10.884844,0.9067153,-0.57338136,-0.4752359,0.8570443,0
1.8500000000000014,12.870366779885524,-0.09759229006164963,-0.29298185938792887,0.6795055475164316,19.456877,-2.589815,-5.157761,3.1521456,2.0164154,-2.3070638,1.4540259,0.29117787,-0.10448228,-0.19898759,0.9298938,-8.3385315,10.845578,0.9244694,-0.49920076,-0.44676927,0.84833235,0
1.8600000000000014,12.870366779885524,-0.09759229006164963,-0.29298185938792887,0.6795055475164316,19.456877,-2.589815,-5.157761,3.1521456,1.9328306,-2.198808,1.4633584,0.28657266,-0.103980996,-0.20134789,0.93087196,-8.378399,10.805482,0.9419873,-0.43658566,-0.4227491,0.84004796,0
1.8700000000000014,12.870366779885524,-0.09759229006164963,-0.29298185938792887,0.6795055475164316,19.456877,-2.589815,-5.157761,3.1521456,1.848848,-2.0909567,1.4728649,0.28204957,-0.103489034,-0.20340718,0.9318601,-8.418102,10.764638,0.9592997,-0.38373315,-0.40248114,0.8321701,0
1.8800000000000014,12.993085862790988,0.2180735835681644,0.08931746366393498,0.5021514965889742,18.389635,-1.4208342,-4.9090614,2.6732833,1.7644691,-1.9835174,1.4825437,0.27759925,-0.103004925,-0.20521253,0.9328537,-8.457623,10.723116,0.97643304,-0.33912078,-0.38537893,0.82467884,0
1.8900000000000015,12.993085862790988,0.2180735835681644,0.08931746366393498,0.5021514965889742,18.389635,-1.4208342,-4.9090614,2.6732833,1.6796943,-1.8764985,1.4923986,0.2732788,-0.102630764,-0.20664576,0.9338537,-8.497321,10.680585,0.9945101,-0.2522698,-0.3113012,0.8088523,0
1.9000000000000015,12.993085862790988,0.2180735835681644,0.08931746366393498,0.5021514965889742,18.389635,-1.4208342,-4.9090614,2.6732833,1.5945234,-1.7699074,1.5024337,0.26913622,-0.1024475,-0.20761645,0.93486106,-8.536836,10.637563,1.0124688,-0.17895542,-0.24878456,0.7938024,0
1.9100000000000015,12.993085862790988,0.2180735835681644,0.08931746366393498,0.5021514965889742,18.389635,-1.4208342,-4.9090614,2.6732833,1.5089581,-1.6637485,1.5126477,0.2651516,-0.102425136,-0.2081982,0.9358722,-8.576185,10.594168,1.0303456,-0.117068075,-0.19602457,0.77949095,0
1.9200000000000015,12.839152148357925,0.48785549471766476,0.4740288330794086,0.32635270269269984,18.299688,-1.2019324,-5.0056167,2.4879503,1.4230001,-1.5580249,1.5230404,0.26130757,-0.10253814,-0.20845288,0.9368838,-8.615387,10.550506,1.0481715,-0.06482667,-0.15149851,0.7658819,0
1.9300000000000015,12.839152148357925,0.48785549471766476,0.4740288330794086,0.32635270269269984,18.299688,-1.2019324,-5.0056167,2.4879503,1.3366531,-1.4527363,1.5336043,0.2576526,-0.10287654,-0.20829356,0.93789387,-8.654001,10.507192,1.0646019,0.021314332,-0.053905144,0.7443141,0
1.9400000000000015,12.839152148357925,0.48785549471766476,0.4740288330794086,0.32635270269269984,18.299688,-1.2019324,-5.0056167,2.4879503,1.2499202,-1.3478811,1.5443325,0.25422695,-0.10351045,-0.20765479,0.9389001,-8.692537,10.463842,1.0810453,0.09403138,0.028459936,0.7238046,0
1.9500000000000015,12.839152148357925,0.48785549471766476,0.4740288330794086,0.32635270269269984,18.299688,-1.2019324,-5.0056167,2.4879503,1.1628023,-1.2434591,1.5552254,0.25100508,-0.10439281,-0.2066132,0.9398985,-8.731047,10.42059,1.0975347,0.15541656,0.09797312,0.7043015,0
1.9600000000000015,12.55591455629533,0.6335813464089877,0.7284136223456972,0.1634760263374442,19.40869,-1.4285476,-5.689059,2.833295,1.0752994,-1.1394684,1.5662835,0.2479648,-0.10548374,-0.2052331,0.94088554,-8.769571,10.377546,1.1140971,0.20723523,0.15664014,0.68575543,0
1.9700000000000015,12.55591455629533,0.6335813464089877,0.7284136223456972,0.1634760263374442,19.40869,-1.4285476,-5.689059,2.833295,0.987415,-1.0359023,1.5774949,0.24513274,-0.10682677,-0.20349067,0.94185406,-8.807303,10.3357525,1.1282232,0.27368796,0.2458331,0.660127,0
1.9800000000000015,12.55591455629533,0.6335813464089877,0.7284136223456972,0.1634760263374442,19.40869,-1.4285476,-5.689059,2.833295,0.8991529,-0.93275195,1.5888482,0.24253103,-0.10845425,-0.2013702,0.9427969,-8.845148,10.294373,1.1424645,0.32978565,0.32111016,0.6357562,0
1.9900000000000015,12.55591455629533,0.6335813464089877,0.7284136223456972,0.1634760263374442,19.40869,-1.4285476,-5.689059,2.833295,0.8105115,-0.8300129,1.6003447,0.24013536,-0.11031996,-0.19893219,0.9437108,-8.883161,10.253513,1.1568396,0.37714198,0.3846428,0.6125813,0
2.0000000000000013,,,,,18.559334,-1.4930847,-5.7008953,2.7088797,0.72148895,-0.7276796,1.6119857,0.23792449,-0.112384796,-0.19622758,0.944593,-8.921389,10.213264,1.1713614,0.41711846,0.43826357,0.5905436,0
2.010000000000001,,,,,18.559334,-1.4930847,-5.7008953,2.7088797,0.63208956,-0.6257384,1.6237528,0.23590265,-0.11463486,-0.19328779,0.94543546,-8.958533,10.175081,1.1821102,0.4538456,0.49358287,0.5625388,0
2.020000000000001,,,,,18.559334,-1.4930847,-5.7008953,2.7088797,0.54231733,-0.5241754,1.6356283,0.23407397,-0.11705702,-0.1901402,0.9462312,-8.995968,10.13763,1.193014,0.48484975,0.5402725,0.53590816,0
2.0300000000000007,,,,,18.559334,-1.4930847,-5.7008953,2.7088797,0.4521691,-0.42298305,1.6476136,0.23242092,-0.1196219,-0.1868187,0.9469792,-9.033729,10.100971,1.2040743,0.51102227,0.5796785,0.51058424,0
2.0400000000000005,,,,,18.559334,-1.4930847,-5.7008953,2.7088797,0.36164153,-0.32215312,1.6597104,0.23092811,-0.12230481,-0.18335183,0.94767904,-9.071846,10.065154,1.2152901,0.533116,0.6129375,0.48650298,0
2.0500000000000003,,,,,18.286316,-1.179004,-5.8016934,2.3142412,0.27073085,-0.22167693,1.6719201,0.22958189,-0.12508494,-0.17976356,0.9483305,-9.110348,10.030225,1.2266581,0.55176616,0.6410085,0.46360344,1
2.06,,,,,18.286316,-1.179004,-5.8016934,2.3142412,0.17932175,-0.12164404,1.6845595,0.22762164,-0.12581164,-0.17708737,0.94921005,-9.171223,9.976745,1.3005242,0.35684136,-0.28907228,0.5476921,1
2.07,,,,,18.286316,-1.179004,-5.8016934,2.3142412,0.087313965,-0.022135532,1.6979156,0.2243438,-0.12265348,-0.17634383,0.95054126,-9.229899,9.925159,1.3700393,0.13852622,-1.1279919,0.6324706,1
2.0799999999999996,,,,,18.286316,-1.179004,-5.8016934,2.3142412,-0.005268229,0.07685879,1.7119559,0.21983,-0.11606618,-0.17745021,0.9522157,-9.2861805,9.873531,1.4380878,-0.06654415,-1.8569404,0.71499556,1
2.0899999999999994,,,,,17.130106,-2.0175455,-6.0308743,2.872748,-0.09840003,0.17532974,1.7266788,0.21420634,-0.10655352,-0.18012755,0.95410484,-9.339666,9.820357,1.5065702,-0.23962058,-2.4722147,0.79347104,1
2.099999999999999,,,,,17.130106,-2.0175455,-6.0308743,2.872748,-0.19203797,0.2732698,1.7420529,0.20750806,-0.09464212,-0.18431456,0.95603937,-9.387135,9.767452,1.5677031,-0.48488802,-2.9909892,0.8926468,1
2.109999999999999,,,,,17.130106,-2.0175455,-6.0308743,2.872748,-0.28612527,0.37067243,1.7580237,0.19971526,-0.080680974,-0.19009101,0.95784634,-9.42959,9.712607,1.6263719,-0.72213036,-3.4591398,0.98969066,1
2.1199999999999988,,,,,17.130106,-2.0175455,-6.0308743,2.872748,-0.380613,0.46751028,1.7745802,0.19090246,-0.06493406,-0.19724774,0.959392,-9.467154,9.654384,1.6849239,-0.92366344,-3.8555706,1.0820929,1
2.1299999999999986,,,,,13.426321,-2.0327795,-4.7742214,2.068389,-0.47544956,0.5637468,1.7917212,0.18115707,-0.047676757,-0.20552963,0.9605553,-9.499265,9.592286,1.7431983,-1.0937792,-4.1901755,1.1699609,1
2.1399999999999983,,,,,13.426321,-2.0327795,-4.7742214,2.068389,-0.5705485,0.65941256,1.8092736,0.1707544,-0.029599622,-0.21464336,0.9611945,-9.519765,9.540341,1.7671856,-1.2400233,-4.2814045,1.214047,1
2.149999999999998,,,,,13.426321,-2.0327795,-4.7742214,2.068389,-0.6658282,0.7545421,1.8270622,0.1599439,-0.011264691,-0.22435452,0.96122634,-9.535404,9.48503,1.7904109,-1.3634733,-4.3583937,1.2559698,1
2.159999999999998,,,,,13.426321,-2.0327795,-4.7742214,2.068389,-0.7612395,0.8491016,1.8450782,0.14876129,0.007279986,-0.2345401,0.960629,-9.5460615,9.426339,1.8125833,-1.4676833,-4.4233646,1.2958354,1
2.1699999999999977,,,,,14.785246,-2.6486304,-4.0391793,2.9006398,-0.85673195,0.9430574,1.8633094,0.13723823,0.02599035,-0.24509488,0.95938456,-9.551627,9.364302,1.8334112,-1.5556529,-4.4781938,1.3337448,1
2.1799999999999975,,,,,14.785246,-2.6486304,-4.0391793,2.9006398,-0.9522549,1.0363436,1.8818003,0.12538591,0.044485755,-0.25612977,0.95744294,-9.552066,9.29237,1.8644705,-1.7259402,-4.409963,1.4106327,1
2.1899999999999973,,,,,14.785246,-2.6486304,-4.0391793,2.9006398,-1.0477538,1.1288927,1.9005914,0.11321282,0.062459018,-0.26773536,0.9547772,-9.54687,9.216881,1.8933775,-1.8696785,-4.3523602,1.483748,1
2.199999999999997,,,,,14.785246,-2.6486304,-4.0391793,2.9006398,-1.1431732,1.2206693,1.9196593,0.100741416,0.079970285,-0.2797994,0.95140326,-9.536134,9.137909,1.9197952,-1.9910073,-4.303727,1.5532753,1
2.209999999999997,,,,,13.987789,-2.1281574,-2.6754012,2.049496,-1.2384577,1.3116392,1.9389775,0.08799165,0.09706765,-0.2922247,0.94733316,-9.519931,9.055565,1.9434059,-2.0934212,-4.2626643,1.6193907,1
2.2199999999999966,,,,,13.987789,-2.1281574,-2.6754012,2.049496,-1.3335588,1.4017925,1.9584844,0.07522259,0.11332222,-0.304677,0.9426938,-9.499521,8.974622,1.9575288,-2.0990438,-4.0151663,1.6404961,1
2.2299999999999964,,,,,13.987789,-2.1281574,-2.6754012,2.049496,-1.4284315,1.4911221,1.9781172,0.062662035,0.12840447,-0.3169022,0.9376347,-9.474281,8.890876,1.9685732,-2.1037571,-3.8062632,1.660566,1
