time-since-start [s],throttle_mpc,roll_mpc,pitch_mpc,yaw_mpc,throttle_nw,roll_nw,pitch_nw,yaw_nw,position_x [m],position_y [m],position_z [m],rotation_w [quaternion],rotation_x [quaternion],rotation_y [quaternion],rotation_z [quaternion],velocity_x [m/s],velocity_y [m/s],velocity_z [m/s],omega_x [rad/s],omega_y [rad/s],omega_z [rad/s],network_used
0.0,6.032144364855361,5.854139940999628,-5.999999846727628,-3.3449934267550088,12.493143,0.69942343,-3.559893,-0.47180527,17.151487,-10.2737,1.7575412,-0.0010578381,-0.32650837,0.14685762,0.93371516,-10.417338,-1.7883329,0.8938862,1.4521333,-0.3916349,0.09032289,0
0.01,6.032144364855361,5.854139940999628,-5.999999846727628,-3.3449934267550088,11.051969,0.8437152,-4.896848,-1.4812018,17.047134,-10.291496,1.7662151,0.028512415,-0.3006603,0.16860206,0.938277,-10.4529085,-1.7704566,0.8410841,5.85414,-6.0,-3.3449934,0
0.02,6.032144364855361,5.854139940999628,-5.999999846727628,-3.3449934267550088,11.051969,0.8437152,-4.896848,-1.4812018,16.942442,-10.309096,1.7743664,0.058024608,-0.27420005,0.19000322,0.9409284,-10.485014,-1.7490534,0.78932875,5.85414,-6.0,-3.3449934,0
0.03,6.032144364855361,5.854139940999628,-5.999999846727628,-3.3449934267550088,11.051969,0.8437152,-4.896848,-1.4812018,16.837446,-10.326467,1.7820044,0.08741866,-0.2471815,0.21101749,0.94166386,-10.513353,-1.7243834,0.73839825,5.85414,-6.0,-3.3449934,0
0.04,6.032144364855361,5.854139940999628,-5.999999846727628,-3.3449934267550088,10.923491,-1.0420871,-3.15113,-0.25849098,16.732187,-10.343575,1.7891363,0.11663471,-0.21965966,0.23160209,0.940482,-10.537656,-1.6967332,0.6880639,5.85414,-6.0,-3.3449934,0
0.05,6.032144364855361,5.854139940999628,-5.999999846727628,-3.3449934267550088,10.923491,-1.0420871,-3.15113,-0.25849098,16.626709,-10.360393,1.7957668,0.14561327,-0.19169055,0.25171512,0.9373852,-10.557682,-1.6664138,0.6380923,5.85414,-6.0,-3.3449934,0
0.060000000000000005,6.032144364855361,5.854139940999628,-5.999999846727628,-3.3449934267550088,10.923491,-1.0420871,-3.15113,-0.25849098,16.521051,-10.376896,1.8018985,0.17429535,-0.16333112,0.27131563,0.9323798,-10.57323,-1.6337575,0.58824694,5.85414,-6.0,-3.3449934,0
0.07,6.032144364855361,5.854139940999628,-5.999999846727628,-3.3449934267550088,10.923491,-1.0420871,-3.15113,-0.25849098,16.41526,-10.393063,1.8075314,0.20262253,-0.13463913,0.2903637,0.92547584,-10.584132,-1.5991162,0.5382905,5.85414,-6.0,-3.3449934,0
0.08,11.857051362918975,4.782242110930787,-5.999999793703447,-1.3376336425269613,13.127603,-1.3576124,1.270148,0.11550635,16.309383,-10.408874,1.8126631,0.23053715,-0.10567299,0.30882055,0.9166874,-10.59026,-1.5628575,0.4879862,5.85414,-6.0,-3.3449934,0
0.09,11.857051362918975,4.782242110930787,-5.999999793703447,-1.3376336425269613,13.127603,-1.3576124,1.270148,0.11550635,16.20346,-10.424136,1.8175182,0.24828017,-0.0746531,0.32287905,0.9102379,-10.59298,-1.4894638,0.48293704,4.7822423,-6.0,-1.3376336,0
0.09999999999999999,11.857051362918975,4.782242110930787,-5.999999793703447,-1.3376336425269613,13.127603,-1.3576124,1.270148,0.11550635,16.097553,-10.43866,1.8223184,0.26564673,-0.043520004,0.33644795,0.90240824,-10.586712,-1.4150879,0.4769318,4.7822423,-6.0,-1.3376336,0
0.10999999999999999,11.857051362918975,4.782242110930787,-5.999999793703447,-1.3376336425269613,13.127603,-1.3576124,1.270148,0.11550635,15.9917555,-10.452436,1.8270518,0.2826105,-0.012320924,0.34950674,0.8932103,-10.571474,-1.3402617,0.46950355,4.7822423,-6.0,-1.3376336,0
0.11999999999999998,11.857051362918975,4.782242110930787,-5.999999793703447,-1.3376336425269613,13.127603,-1.3576124,1.270148,0.11550635,15.886155,-10.465466,1.8317019,0.29914576,0.018896837,0.36203554,0.88265795,-10.54734,-1.2655197,0.46019387,4.7822423,-6.0,-1.3376336,0
0.12999999999999998,16.34057512556718,2.0039158068211296,-5.999999333075379,0.09987252643216254,13.109812,-2.4558682,1.0441662,0.008081619,15.780839,-10.477749,1.8362476,0.31522745,0.050085947,0.3740154,0.8707673,-10.51444,-1.1913962,0.4485559,4.7822423,-6.0,-1.3376336,0
0.13999999999999999,16.34057512556718,2.0039158068211296,-5.999999333075379,0.09987252643216254,13.109812,-2.4558682,1.0441662,0.008081619,15.675969,-10.4891615,1.840826,0.3253518,0.079524204,0.3730713,0.86523986,-10.458123,-1.0916789,0.46698073,2.0039158,-5.9999995,0.09987253,0
0.15,16.34057512556718,2.0039158068211296,-5.999999333075379,0.09987252643216254,13.109812,-2.4558682,1.0441662,0.008081619,15.57171,-10.4995985,1.8455831,0.33515066,0.1088829,0.37175393,0.8588467,-10.392526,-0.9963443,0.48421228,2.0039158,-5.9999995,0.09987253,0
0.16,17.03297836462541,0.174491611121157,-5.334455944645397,0.3494698499145168,14.906499,-3.0444143,1.208803,-0.83284646,15.46815,-10.509105,1.8505044,0.34461415,0.13813263,0.37006462,0.85159427,-10.317907,-0.9057669,0.49978197,2.0039158,-5.9999995,0.09987253,0
0.17,17.03297836462541,0.174491611121157,-5.334455944645397,0.3494698499145168,14.906499,-3.0444143,1.208803,-0.83284646,15.3653965,-10.517714,1.8555974,0.35275185,0.16174167,0.36124328,0.84788513,-10.231894,-0.81694597,0.5188067,0.17449161,-5.334456,0.34946984,0
0.18000000000000002,17.03297836462541,0.174491611121157,-5.334455944645397,0.3494698499145168,14.906499,-3.0444143,1.208803,-0.83284646,15.263535,-10.525467,1.8608792,0.3606373,0.18523504,0.35216358,0.8435696,-10.1393585,-0.7344466,0.53748363,0.17449161,-5.334456,0.34946984,0
0.19000000000000003,17.03297836462541,0.174491611121157,-5.334455944645397,0.3494698499145168,14.906499,-3.0444143,1.208803,-0.83284646,15.16263,-10.532427,1.8663446,0.36826482,0.20859593,0.34283203,0.83865076,-10.040551,-0.6584874,0.5554572,0.17449161,-5.334456,0.34946984,0
0.20000000000000004,15.42447687691394,-0.47628073388155046,-1.427404124219295,0.03414924702212048,15.761063,-2.42697,2.6899228,-0.9909795,15.062744,-10.538661,1.8719846,0.37562892,0.23180763,0.3332553,0.8331321,-9.935739,-0.58926827,0.5723736,0.17449161,-5.334456,0.34946984,0
0.21000000000000005,15.42447687691394,-0.47628073388155046,-1.427404124219295,0.03414924702212048,15.761063,-2.42697,2.6899228,-0.9909795,14.963879,-10.544261,1.877735,0.3784065,0.23690948,0.3285414,0.8323118,-9.8371725,-0.5312611,0.5777674,-0.47628072,-1.4274042,0.03414925,0
0.22000000000000006,15.42447687691394,-0.47628073388155046,-1.427404124219295,0.03414924702212048,15.761063,-2.42697,2.6899228,-0.9909795,14.866004,-10.549292,1.8835405,0.38116264,0.2419979,0.3238089,0.83144444,-9.737628,-0.47534752,0.58337677,-0.47628072,-1.4274042,0.03414925,0
0.23000000000000007,15.42447687691394,-0.47628073388155046,-1.427404124219295,0.03414924702212048,15.761063,-2.42697,2.6899228,-0.9909795,14.76913,-10.553774,1.8894032,0.3838972,0.24707262,0.3190581,0.8305299,-9.637127,-0.42154008,0.58917767,-0.47628072,-1.4274042,0.03414925,0
0.24000000000000007,15.42447687691394,-0.47628073388155046,-1.427404124219295,0.03414924702212048,14.738076,-1.368456,5.5958443,-0.8725937,14.6732645,-10.55773,1.8953247,0.38661,0.25213337,0.31428918,0.8295684,-9.535692,-0.36985078,0.5951461,-0.47628072,-1.4274042,0.03414925,0
0.25000000000000006,15.42447687691394,-0.47628073388155046,-1.427404124219295,0.03414924702212048,14.738076,-1.368456,5.5958443,-0.8725937,14.578418,-10.561179,1.9013066,0.3893009,0.25717983,0.3095025,0.8285599,-9.433346,-0.32029116,0.6012579,-0.47628072,-1.4274042,0.03414925,0
0.26000000000000006,15.42447687691394,-0.47628073388155046,-1.427404124219295,0.03414924702212048,14.738076,-1.368456,5.5958443,-0.8725937,14.4846,-10.564143,1.9073504,0.39196977,0.2622117,0.3046983,0.82750446,-9.330111,-0.27287224,0.60748893,-0.47628072,-1.4274042,0.03414925,0
0.2700000000000001,15.42447687691394,-0.47628073388155046,-1.427404124219295,0.03414924702212048,14.738076,-1.368456,5.5958443,-0.8725937,14.391819,-10.566644,1.9134569,0.39461643,0.26722875,0.2998768,0.8264021,-9.226009,-0.22760452,0.61381483,-0.47628072,-1.4274042,0.03414925,0
0.2800000000000001,14.151492872166067,-0.6861621382183146,1.0097548374986882,-0.1533962138445577,15.293141,-0.14907178,5.0067377,-1.3058624,14.300082,-10.568703,1.919627,0.39724076,0.27223065,0.29503834,0.82525307,-9.121065,-0.18449813,0.6202114,-0.47628072,-1.4274042,0.03414925,0
0.2900000000000001,14.151492872166067,-0.6861621382183146,1.0097548374986882,-0.1533962138445577,15.293141,-0.14907178,5.0067377,-1.3058624,14.209354,-10.570355,1.9258192,0.39731058,0.26646987,0.29441583,0.8273194,-9.024778,-0.14594162,0.61838365,-0.6861621,1.0097549,-0.15339622,0
0.3000000000000001,14.151492872166067,-0.6861621382183146,1.0097548374986882,-0.1533962138445577,15.293141,-0.14907178,5.0067377,-1.3058624,14.119582,-10.57162,1.931998,0.39736536,0.260699,0.2937822,0.8293544,-8.9297495,-0.10671716,0.61753213,-0.6861621,1.0097549,-0.15339622,0
0.3100000000000001,14.151492872166067,-0.6861621382183146,1.0097548374986882,-0.1533962138445577,15.293141,-0.14907178,5.0067377,-1.3058624,14.030754,-10.572489,1.9381732,0.39740512,0.25491825,0.29313743,0.83135796,-8.835994,-0.06682831,0.6176412,-0.6861621,1.0097549,-0.15339622,0
0.3200000000000001,12.801356693635299,-1.0913468919988685,5.369247971497768,-0.411438632525583,15.793541,0.20113221,4.6436954,-1.2878141,13.942857,-10.572955,1.9443542,0.39742982,0.2491279,0.29248157,0.83333004,-8.743525,-0.026278684,0.6186951,-0.6861621,1.0097549,-0.15339622,0
0.3300000000000001,12.801356693635299,-1.0913468919988685,5.369247971497768,-0.411438632525583,15.793541,0.20113221,4.6436954,-1.2878141,13.855832,-10.573028,1.950504,0.39250216,0.22389491,0.29900512,0.8404812,-8.662352,0.01257802,0.6116148,-1.0913469,5.369248,-0.41143864,0
0.34000000000000014,12.801356693635299,-1.0913468919988685,5.369247971497768,-0.411438632525583,15.793541,0.20113221,4.6436954,-1.2878141,13.769595,-10.572688,1.956593,0.3872783,0.19849296,0.30530304,0.84699804,-8.58595,0.056185182,0.60649216,-1.0913469,5.369248,-0.41143864,0
0.35000000000000014,12.801356693635299,-1.0913468919988685,5.369247971497768,-0.411438632525583,15.793541,0.20113221,4.6436954,-1.2878141,13.684096,-10.571889,1.9626393,0.38176215,0.17294122,0.31137052,0.8528757,-8.514538,0.10443096,0.6030298,-1.0913469,5.369248,-0.41143864,0
0.36000000000000015,12.303597851929375,-0.9542465973458643,5.731309966517768,-0.5749557952692722,15.212791,-0.21972665,5.3431897,-0.9447718,13.599286,-10.570585,1.9686582,0.37595788,0.14725897,0.31720302,0.8581097,-8.4483185,0.1571895,0.6009252,-1.0913469,5.369248,-0.41143864,0
0.37000000000000016,12.303597851929375,-0.9542465973458643,5.731309966517768,-0.5749557952692722,15.212791,-0.21972665,5.3431897,-0.9447718,13.515099,-10.568741,1.9746425,0.36987805,0.11990397,0.3241696,0.862396,-8.389923,0.21225454,0.5960546,-0.9542466,5.73131,-0.5749558,0
0.38000000000000017,12.303597851929375,-0.9542465973458643,5.731309966517768,-0.5749557952692722,15.212791,-0.21972665,5.3431897,-0.9447718,13.431468,-10.566324,1.9805812,0.36348304,0.09244679,0.33085993,0.8659474,-8.337083,0.27178016,0.59175456,-0.9542466,5.73131,-0.5749558,0
0.3900000000000002,12.303597851929375,-0.9542465973458643,5.731309966517768,-0.5749557952692722,15.212791,-0.21972665,5.3431897,-0.9447718,13.348338,-10.563291,1.9864783,0.35677826,0.06491083,0.3372683,0.8687608,-8.289956,0.33559123,0.58768207,-0.9542466,5.73131,-0.5749558,0
0.4000000000000002,12.156887268671579,-0.8068455713132049,5.108180187649469,-0.6826887627871168,13.793684,-1.0112351,4.3448925,-1.212203,13.265651,-10.559599,1.9923344,0.34976947,0.037319556,0.3433893,0.87083393,-8.248685,0.40349787,0.58349323,-0.9542466,5.73131,-0.5749558,0
0.4100000000000002,12.156887268671579,-0.8068455713132049,5.108180187649469,-0.6826887627871168,13.793684,-1.0112351,4.3448925,-1.212203,13.183345,-10.555212,1.998141,0.34400377,0.012484605,0.34881955,0.87168217,-8.213555,0.47430038,0.5777451,-0.80684555,5.10818,-0.6826888,0
0.4200000000000002,12.156887268671579,-0.8068455713132049,5.108180187649469,-0.6826887627871168,13.793684,-1.0112351,4.3448925,-1.212203,13.101363,-10.550101,2.003887,0.33800408,-0.012358839,0.35401252,0.8719375,-8.183734,0.5483915,0.5712811,-0.80684555,5.10818,-0.6826888,0
0.4300000000000002,12.156887268671579,-0.8068455713132049,5.108180187649469,-0.6826887627871168,13.793684,-1.0112351,4.3448925,-1.212203,13.019652,-10.544233,2.0095634,0.33177447,-0.037193872,0.35896468,0.8715997,-8.159282,0.62559927,0.5638285,-0.80684555,5.10818,-0.6826888,0
0.4400000000000002,12.156887268671579,-0.8068455713132049,5.108180187649469,-0.6826887627871168,12.689018,-0.6861268,3.3862307,-1.177375,12.938159,-10.53758,2.0151594,0.32531917,-0.062003613,0.36367267,0.870669,-8.140243,0.7057431,0.55511767,-0.80684555,5.10818,-0.6826888,0
0.45000000000000023,12.156887268671579,-0.8068455713132049,5.108180187649469,-0.6826887627871168,12.689018,-0.6861268,3.3862307,-1.177375,12.85683,-10.530109,2.0206606,0.3186426,-0.08677117,0.36813328,0.86914605,-8.126647,0.78863436,0.54488176,-0.80684555,5.10818,-0.6826888,0
0.46000000000000024,12.156887268671579,-0.8068455713132049,5.108180187649469,-0.6826887627871168,12.689018,-0.6861268,3.3862307,-1.177375,12.775608,-10.521797,2.0260508,0.31174922,-0.11147971,0.37234348,0.86703193,-8.11851,0.8740772,0.53285867,-0.80684555,5.10818,-0.6826888,0
0.47000000000000025,12.156887268671579,-0.8068455713132049,5.108180187649469,-0.6826887627871168,12.689018,-0.6861268,3.3862307,-1.177375,12.694441,-10.512619,2.0313108,0.3046438,-0.13611242,0.3763004,0.86432797,-8.115834,0.9618686,0.5187908,-0.80684555,5.10818,-0.6826888,0
0.48000000000000026,11.890071527676358,-0.3984714766663967,2.4226700627141873,-0.7446953979739147,13.324099,-1.6483446,2.688768,-0.67638,12.613274,-10.502552,2.0364187,0.29733118,-0.16065253,0.38000134,0.86103606,-8.118604,1.0517993,0.50242627,-0.80684555,5.10818,-0.6826888,0
0.49000000000000027,11.890071527676358,-0.3984714766663967,2.4226700627141873,-0.7446953979739147,13.324099,-1.6483446,2.688768,-0.67638,12.532055,-10.491588,2.0413435,0.29558966,-0.17307632,0.38125804,0.8586692,-8.125575,1.1412876,0.48230046,-0.39847147,2.4226701,-0.7446954,0
0.5000000000000002,11.890071527676358,-0.3984714766663967,2.4226700627141873,-0.7446953979739147,13.324099,-1.6483446,2.688768,-0.67638,12.450753,-10.479724,2.0460608,0.2937995,-0.18547162,0.382452,0.85616106,-8.135055,1.2316097,0.46093848,-0.39847147,2.4226701,-0.7446954,0
0.5100000000000002,11.890071527676358,-0.3984714766663967,2.4226700627141873,-0.7446953979739147,13.324099,-1.6483446,2.688768,-0.67638,12.369345,-10.466953,2.0505579,0.29196098,-0.19783641,0.38358304,0.853512,-8.147027,1.3227243,0.4382805,-0.39847147,2.4226701,-0.7446954,0
0.5200000000000002,11.958671251806926,-0.03303533396768399,0.663683678562819,-0.711595607914495,12.932547,-2.2117589,2.4417317,-0.5074585,12.287805,-10.453267,2.0548217,0.2900744,-0.21016864,0.38465092,0.8507225,-8.161474,1.414589,0.41426736,-0.39847147,2.4226701,-0.7446954,0
0.5300000000000002,11.958671251806926,-0.03303533396768399,0.663683678562819,-0.711595607914495,12.932547,-2.2117589,2.4417317,-0.5074585,12.206109,-10.438657,2.0588417,0.29178667,-0.21440567,0.38472065,0.84904647,-8.177781,1.5075258,0.3896367,-0.033035334,0.66368365,-0.7115956,0
0.5400000000000003,11.958671251806926,-0.03303533396768399,0.663683678562819,-0.711595607914495,12.932547,-2.2117589,2.4417317,-0.5074585,12.124248,-10.423117,2.0626132,0.29349202,-0.21863763,0.38478127,0.84735024,-8.194699,1.600704,0.36456054,-0.033035334,0.66368365,-0.7115956,0
0.5500000000000003,11.958671251806926,-0.03303533396768399,0.663683678562819,-0.711595607914495,12.932547,-2.2117589,2.4417317,-0.5074585,12.042213,-10.406643,2.0661316,0.2951904,-0.22286442,0.38483277,0.845634,-8.212227,1.6941224,0.33903253,-0.033035334,0.66368365,-0.7115956,0
0.5600000000000003,11.755385551461913,0.32598968433978215,-1.0934404780332263,-0.6778619181263185,13.292657,-1.982617,1.3160105,-0.46734148,11.960001,-10.389234,2.0693922,0.2968818,-0.2270859,0.38487515,0.8438977,-8.230358,1.7877802,0.31304637,-0.033035334,0.66368365,-0.7115956,0
0.5700000000000003,11.755385551461913,0.32598968433978215,-1.0934404780332263,-0.6778619181263185,13.292657,-1.982617,1.3160105,-0.46734148,11.877608,-10.370894,2.0723858,0.3022098,-0.22328773,0.3838494,0.843487,-8.248105,1.879909,0.2857705,0.3259897,-1.0934405,-0.6778619,0
0.5800000000000003,11.755385551461913,0.32598968433978215,-1.0934404780332263,-0.6778619181263185,13.292657,-1.982617,1.3160105,-0.46734148,11.795044,-10.351636,2.0751095,0.30752447,-0.21947974,0.38280678,0.8430393,-8.264668,1.9718055,0.259081,0.3259897,-1.0934405,-0.6778619,0
0.5900000000000003,11.755385551461913,0.32598968433978215,-1.0934404780332263,-0.6778619181263185,13.292657,-1.982617,1.3160105,-0.46734148,11.712318,-10.33146,2.0775692,0.31282562,-0.21566208,0.38174728,0.84255445,-8.28005,2.063452,0.23297463,0.3259897,-1.0934405,-0.6778619,0
0.6000000000000003,11.891165541638753,0.40924600263416616,-0.5072434978801962,-0.6107982175064979,12.906594,-1.9808193,1.3592871,-0.32188994,11.629447,-10.310369,2.0797708,0.31811297,-0.21183491,0.380671,0.84203243,-8.294252,2.1548312,0.20744799,0.3259897,-1.0934405,-0.6778619,0
0.6100000000000003,11.891165541638753,0.40924600263416616,-0.5072434978801962,-0.6107982175064979,12.906594,-1.9808193,1.3592871,-0.32188994,11.546437,-10.28836,2.0817237,0.32208025,-0.21020886,0.38093647,0.84081084,-8.307587,2.2470958,0.1831676,0.409246,-0.5072435,-0.61079824,0
0.6200000000000003,11.891165541638753,0.40924600263416616,-0.5072434978801962,-0.6107982175064979,12.906594,-1.9808193,1.3592871,-0.32188994,11.463298,-10.265428,2.0834343,0.32604113,-0.20857862,0.38119432,0.8395725,-8.320154,2.3393757,0.15900256,0.409246,-0.5072435,-0.61079824,0
0.6300000000000003,11.891165541638753,0.40924600263416616,-0.5072434978801962,-0.6107982175064979,12.906594,-1.9808193,1.3592871,-0.32188994,11.380036,-10.241572,2.0849044,0.3299955,-0.20694421,0.38144454,0.83831733,-8.331956,2.431664,0.13495332,0.409246,-0.5072435,-0.61079824,0
0.6400000000000003,11.891165541638753,0.40924600263416616,-0.5072434978801962,-0.6107982175064979,12.406203,-1.9820718,1.544877,-0.30264503,11.296661,-10.216794,2.0861342,0.3339433,-0.20530568,0.38168713,0.8370455,-8.342992,2.5239537,0.11102039,0.409246,-0.5072435,-0.61079824,0
0.6500000000000004,11.891165541638753,0.40924600263416616,-0.5072434978801962,-0.6107982175064979,12.406203,-1.9820718,1.544877,-0.30264503,11.21318,-10.1910925,2.0871253,0.3378845,-0.20366307,0.3819222,0.83575696,-8.353261,2.6162376,0.087204255,0.409246,-0.5072435,-0.61079824,0
0.6600000000000004,11.891165541638753,0.40924600263416616,-0.5072434978801962,-0.6107982175064979,12.406203,-1.9820718,1.544877,-0.30264503,11.1296,-10.164469,2.0878787,0.34181887,-0.2020164,0.38214964,0.83445174,-8.362764,2.7085094,0.063505374,0.409246,-0.5072435,-0.61079824,0
0.6700000000000004,11.891165541638753,0.40924600263416616,-0.5072434978801962,-0.6107982175064979,12.406203,-1.9820718,1.544877,-0.30264503,11.045928,-10.136923,2.0883956,0.34574643,-0.20036568,0.38236946,0.83312994,-8.371502,2.800762,0.0399242,0.409246,-0.5072435,-0.61079824,0
0.6800000000000004,11.798176389729079,0.48298766629077367,-1.0510508696866756,-0.5814785048473013,12.239875,-1.1351418,0.9698159,-0.43746406,10.9621725,-10.108454,2.0886774,0.3496671,-0.19871096,0.38258165,0.83179146,-8.379475,2.8929882,0.016461195,0.409246,-0.5072435,-0.61079824,0
0.6900000000000004,11.798176389729079,0.48298766629077367,-1.0510508696866756,-0.5814785048473013,12.239875,-1.1351418,0.9698159,-0.43746406,10.878343,-10.079066,2.0887225,0.35456854,-0.19460343,0.38216704,0.83087784,-8.386438,2.9843712,-0.007340633,0.48298767,-1.0510509,-0.5814785,0
0.7000000000000004,11.798176389729079,0.48298766629077367,-1.0510508696866756,-0.5814785048473013,12.239875,-1.1351418,0.9698159,-0.43746406,10.794448,-10.048767,2.088532,0.35945508,-0.19048774,0.3817364,0.8299293,-8.392147,3.0754702,-0.030688088,0.48298767,-1.0510509,-0.5814785,0
0.7100000000000004,11.798176389729079,0.48298766629077367,-1.0510508696866756,-0.5814785048473013,12.239875,-1.1351418,0.9698159,-0.43746406,10.710504,-10.017558,2.0881104,0.36432657,-0.18636408,0.38128978,0.82894605,-8.396603,3.1662683,-0.053585622,0.48298767,-1.0510509,-0.5814785,0
0.7200000000000004,11.90545374079402,0.480911286149617,-0.6723848154390023,-0.5176392377827166,12.085536,-1.1274676,0.9349066,-0.33501536,10.62652,-9.985442,2.0874617,0.3691828,-0.18223262,0.3808272,0.82792807,-8.399808,3.2567487,-0.076037765,0.48298767,-1.0510509,-0.5814785,0
0.7300000000000004,11.90545374079402,0.480911286149617,-0.6723848154390023,-0.5176392377827166,12.085536,-1.1274676,0.9349066,-0.33501536,10.542511,-9.952419,2.086594,0.37303975,-0.17954499,0.3811006,0.8266597,-8.401896,3.3477943,-0.097455,0.48091128,-0.6723848,-0.5176392,0
0.7400000000000004,11.90545374079402,0.480911286149617,-0.6723848154390023,-0.5176392377827166,12.085536,-1.1274676,0.9349066,-0.33501536,10.458486,-9.918487,2.085513,0.37688783,-0.17685306,0.38136494,0.82537156,-8.403028,3.4387038,-0.11869087,0.48091128,-0.6723848,-0.5176392,0
0.7500000000000004,11.90545374079402,0.480911286149617,-0.6723848154390023,-0.5176392377827166,12.085536,-1.1274676,0.9349066,-0.33501536,10.374454,-9.883645,2.0842206,0.3807269,-0.17415693,0.38162023,0.82406384,-8.403202,3.5294676,-0.13974684,0.48091128,-0.6723848,-0.5176392,0
0.7600000000000005,12.012251280285428,0.41270353058139614,-0.7802235878419794,-0.47723670467918367,11.530866,-0.907614,0.49955297,-0.20208377,10.290425,-9.847898,2.0827186,0.38455692,-0.17145666,0.38186646,0.82273656,-8.402421,3.6200767,-0.16062441,0.48091128,-0.6723848,-0.5176392,0
0.7700000000000005,12.012251280285428,0.41270353058139614,-0.7802235878419794,-0.47723670467918367,11.530866,-0.907614,0.49955297,-0.20208377,10.2064085,-9.81124,2.0810122,0.38835877,-0.16836259,0.38165006,0.8216895,-8.400662,3.7112958,-0.18058768,0.41270354,-0.7802236,-0.47723672,0
0.7800000000000005,12.012251280285428,0.41270353058139614,-0.7802235878419794,-0.47723670467918367,11.530866,-0.907614,0.49955297,-0.20208377,10.122415,-9.773672,2.0791078,0.39215085,-0.16526428,0.38142404,0.8206217,-8.397922,3.8022404,-0.2002596,0.41270354,-0.7802236,-0.47723672,0
0.7900000000000005,12.012251280285428,0.41270353058139614,-0.7802235878419794,-0.47723670467918367,11.530866,-0.907614,0.49955297,-0.20208377,10.038453,-9.735196,2.0770082,0.39593306,-0.1621618,0.38118842,0.8195333,-8.394202,3.8929,-0.2196427,0.41270354,-0.7802236,-0.47723672,0
0.8000000000000005,12.148277851322499,0.336483818428888,-0.46924259294031523,-0.4097633065008787,11.657561,-0.33770987,0.16781916,-0.32982188,9.954535,-9.695815,2.074716,0.39970526,-0.15905523,0.3809432,0.8184242,-8.389506,3.9832647,-0.23873955,0.41270354,-0.7802236,-0.47723672,1
0.8100000000000005,12.148277851322499,0.336483818428888,-0.46924259294031523,-0.4097633065008787,11.657561,-0.33770987,0.16781916,-0.32982188,9.870665,-9.655544,2.0722225,0.40046546,-0.1610446,0.37963316,0.8182723,-8.384517,4.0707593,-0.25996512,-0.33770987,0.16781916,-0.32982188,1
0.8200000000000005,12.148277851322499,0.336483818428888,-0.46924259294031523,-0.4097633065008787,11.657561,-0.33770987,0.16781916,-0.32982188,9.786842,-9.614399,2.069517,0.40122315,-0.16303296,0.37832072,0.8181152,-8.379955,4.158204,-0.28110766,-0.33770987,0.16781916,-0.32982188,1
0.8300000000000005,12.148277851322499,0.336483818428888,-0.46924259294031523,-0.4097633065008787,11.657561,-0.33770987,0.16781916,-0.32982188,9.703064,-9.57238,2.0666003,0.4019783,-0.16502032,0.3770059,0.817953,-8.375824,4.245599,-0.3021693,-0.33770987,0.16781916,-0.32982188,1
0.8400000000000005,12.148277851322499,0.336483818428888,-0.46924259294031523,-0.4097633065008787,11.602678,-0.070764154,0.3184598,-0.26939613,9.619325,-9.529488,2.0634737,0.40273097,-0.16700661,0.3756887,0.8177856,-8.372122,4.3329434,-0.32315218,-0.33770987,0.16781916,-0.32982188,1
0.8500000000000005,12.148277851322499,0.336483818428888,-0.46924259294031523,-0.4097633065008787,11.602678,-0.070764154,0.3184598,-0.26939613,9.53562,-9.4857235,2.0601358,0.4031743,-0.16895694,0.37581483,0.8171083,-8.368814,4.419907,-0.3445153,-0.070764154,0.3184598,-0.26939613,1
0.8600000000000005,12.148277851322499,0.336483818428888,-0.46924259294031523,-0.4097633065008787,11.602678,-0.070764154,0.3184598,-0.26939613,9.451948,-9.44109,2.0565832,0.40361586,-0.17090651,0.37593928,0.81642735,-8.3658,4.5070357,-0.366053,-0.070764154,0.3184598,-0.26939613,1
0.8700000000000006,12.148277851322499,0.336483818428888,-0.46924259294031523,-0.4097633065008787,11.602678,-0.070764154,0.3184598,-0.26939613,9.368303,-9.395582,2.0528142,0.4040556,-0.17285532,0.37606204,0.81574273,-8.363078,4.5943274,-0.3877667,-0.070764154,0.3184598,-0.26939613,1
0.8800000000000006,12.553450295879971,0.5097381609981411,-1.0519800408316833,-0.35824240047026124,11.770259,-0.1424968,-0.28246456,-0.069051325,9.284685,-9.349202,2.0488272,0.4044935,-0.17480335,0.3761831,0.8150544,-8.360647,4.681783,-0.4096578,-0.070764154,0.3184598,-0.26939613,1
0.8900000000000006,12.553450295879971,0.5097381609981411,-1.0519800408316833,-0.35824240047026124,11.770259,-0.1424968,-0.28246456,-0.069051325,9.20109,-9.301941,2.0446262,0.40518114,-0.17407009,0.37497026,0.8154286,-8.358339,4.770515,-0.4304583,-0.1424968,-0.28246456,-0.069051325,1
0.9000000000000006,12.553450295879971,0.5097381609981411,-1.0519800408316833,-0.35824240047026124,11.770259,-0.1424968,-0.28246456,-0.069051325,9.117518,-9.253792,2.0402186,0.4058677,-0.17333636,0.37375647,0.81580067,-8.355962,4.859005,-0.45098445,-0.1424968,-0.28246456,-0.069051325,1
0.9100000000000006,12.553450295879971,0.5097381609981411,-1.0519800408316833,-0.35824240047026124,11.770259,-0.1424968,-0.28246456,-0.069051325,9.033971,-9.204761,2.035607,0.40655318,-0.17260216,0.3725417,0.8161706,-8.353514,4.9472523,-0.47123688,-0.1424968,-0.28246456,-0.069051325,1
0.9200000000000006,12.915516228764304,0.6689471259865254,-1.748957154633276,-0.28000351403998797,12.055086,0.11059716,-0.38869408,-0.07519227,8.950449,-9.154847,2.0307944,0.40723762,-0.17186753,0.37132588,0.81653833,-8.350996,5.035257,-0.4912164,-0.1424968,-0.28246456,-0.069051325,0
0.9300000000000006,12.915516228764304,0.6689471259865254,-1.748957154633276,-0.28000351403998797,12.055086,0.11059716,-0.38869408,-0.07519227,8.866955,-9.104014,2.0258224,0.4121845,-0.16387726,0.37023854,0.81619257,-8.347412,5.1313243,-0.5030679,0.6689471,-1.7489572,-0.28000352,0
0.9400000000000006,12.915516228764304,0.6689471259865254,-1.748957154633276,-0.28000351403998797,12.055086,0.11059716,-0.38869408,-0.07519227,8.783506,-9.052224,2.0207362,0.41709444,-0.15587232,0.36911803,0.81577367,-8.341773,5.226484,-0.51402795,0.6689471,-1.7489572,-0.28000352,0
0.9500000000000006,12.915516228764304,0.6689471259865254,-1.748957154633276,-0.28000351403998797,12.055086,0.11059716,-0.38869408,-0.07519227,8.700127,-8.999487,2.0155447,0.42196697,-0.14785339,0.36796442,0.8152816,-8.334083,5.320699,-0.5241227,0.6689471,-1.7489572,-0.28000352,0
0.9600000000000006,13.391266268274657,0.43164999818208116,-1.2011620919533608,-0.24723774774525992,12.320289,-0.12530789,-0.5070861,-0.09758788,8.616834,-8.945812,2.0102568,0.4268017,-0.13982122,0.36677787,0.8147166,-8.3243475,5.4139323,-0.5333786,0.6689471,-1.7489572,-0.28000352,0
0.9700000000000006,13.391266268274657,0.43164999818208116,-1.2011620919533608,-0.24723774774525992,12.320289,-0.12530789,-0.5070861,-0.09758788,8.5336485,-8.891193,2.0048964,0.4303044,-0.13445753,0.36579236,0.81421995,-8.312398,5.509667,-0.53861016,0.43165,-1.2011621,-0.24723774,0
0.9800000000000006,13.391266268274657,0.43164999818208116,-1.2011620919533608,-0.24723774774525992,12.320289,-0.12530789,-0.5070861,-0.09758788,8.45059,-8.835622,1.9994866,0.4337889,-0.12908815,0.3647914,0.8136889,-8.299032,5.604644,-0.543259,0.43165,-1.2011621,-0.24723774,0
0.9900000000000007,13.391266268274657,0.43164999818208116,-1.2011620919533608,-0.24723774774525992,12.320289,-0.12530789,-0.5070861,-0.09758788,8.367672,-8.779104,1.9940332,0.43725505,-0.123713315,0.363775,0.81312335,-8.284254,5.6988454,-0.5473377,0.43165,-1.2011621,-0.24723774,0
1.0000000000000007,13.374898396459688,0.1593470854562211,-0.9542527630195512,-0.15906622920818178,12.70377,-0.72313154,0.9972669,0.20760125,8.284908,-8.721648,1.9885418,0.44070277,-0.118333265,0.36274326,0.8125235,-8.268068,5.792254,-0.55085903,0.43165,-1.2011621,-0.24723774,0
1.0100000000000007,13.374898396459688,0.1593470854562211,-0.9542527630195512,-0.15906622920818178,12.70377,-0.72313154,0.9972669,0.20760125,8.202314,-8.663263,1.9830173,0.4431687,-0.114392474,0.36118945,0.81243885,-8.250681,5.884771,-0.55394846,0.15934709,-0.9542528,-0.15906623,0
1.0200000000000007,13.374898396459688,0.1593470854562211,-0.9542527630195512,-0.15906622920818178,12.70377,-0.72313154,0.9972669,0.20760125,8.119898,-8.603956,1.9774648,0.445624,-0.110448934,0.35962698,0.81233466,-8.232382,5.976549,-0.55649453,0.15934709,-0.9542528,-0.15906623,0
1.0300000000000007,13.374898396459688,0.1593470854562211,-0.9542527630195512,-0.15906622920818178,12.70377,-0.72313154,0.9972669,0.20760125,8.037669,-8.543735,1.9718894,0.44806856,-0.10650274,0.35805583,0.8122109,-8.213173,6.0675793,-0.5585051,0.15934709,-0.9542528,-0.15906623,0
1.0400000000000007,13.374898396459688,0.1593470854562211,-0.9542527630195512,-0.15906622920818178,12.978657,-0.8751105,1.2586082,0.26130742,7.955637,-8.482607,1.9662966,0.45050237,-0.10255398,0.35647607,0.8120676,-8.193057,6.1578517,-0.55998796,0.15934709,-0.9542528,-0.15906623,0
1.0500000000000007,13.374898396459688,0.1593470854562211,-0.9542527630195512,-0.15906622920818178,12.978657,-0.8751105,1.2586082,0.26130742,7.873811,-8.42058,1.9606913,0.45292535,-0.098602764,0.35488772,0.8119049,-8.172037,6.247357,-0.56095105,0.15934709,-0.9542528,-0.15906623,0
1.0600000000000007,13.374898396459688,0.1593470854562211,-0.9542527630195512,-0.15906622920818178,12.978657,-0.8751105,1.2586082,0.26130742,7.792199,-8.357661,1.9550791,0.4553375,-0.09464917,0.35329092,0.81172264,-8.150118,6.3360863,-0.56140226,0.15934709,-0.9542528,-0.15906623,0
1.0700000000000007,13.374898396459688,0.1593470854562211,-0.9542527630195512,-0.15906622920818178,12.978657,-0.8751105,1.2586082,0.26130742,7.710811,-8.29386,1.9494649,0.45773867,-0.0906933,0.35168558,0.8115208,-8.127302,6.4240303,-0.5613496,0.15934709,-0.9542528,-0.15906623,0
1.0800000000000007,13.645857084443433,-0.23561389330434207,0.10949644799224552,-0.12568905884968978,13.221667,-0.33126435,0.91704816,-0.19162828,7.6296563,-8.229184,1.9438539,0.46012884,-0.086735256,0.35007182,0.81129956,-8.103594,6.5111794,-0.560801,0.15934709,-0.9542528,-0.15906623,1
1.0900000000000007,13.645857084443433,-0.23561389330434207,0.10949644799224552,-0.12568905884968978,13.221667,-0.33126435,0.91704816,-0.19162828,7.5487394,-8.163643,1.9382441,0.4591517,-0.09155171,0.35075042,0.81103075,-8.079995,6.5970917,-0.5612115,-0.33126435,0.91704816,-0.19162828,1
1.1000000000000008,13.645857084443433,-0.23561389330434207,0.10949644799224552,-0.12568905884968978,13.221667,-0.33126435,0.91704816,-0.19162828,7.4680533,-8.0972395,1.9326284,0.4581632,-0.09636591,0.35142037,0.8107419,-8.057431,6.6836843,-0.5619789,-0.33126435,0.91704816,-0.19162828,1
1.1100000000000008,13.645857084443433,-0.23561389330434207,0.10949644799224552,-0.12568905884968978,13.221667,-0.33126435,0.91704816,-0.19162828,7.3875875,-8.029967,1.9270031,0.4571634,-0.10117772,0.35208163,0.81043303,-8.035905,6.770951,-0.5631139,-0.33126435,0.91704816,-0.19162828,1
1.1200000000000008,13.511555937690575,-0.4752505103400658,-0.4720106169568413,-0.02142423233114901,13.512735,-0.5437654,0.57390183,-0.26402694,7.3073316,-7.9618187,1.9213648,0.45615232,-0.10598704,0.3527342,0.81010413,-8.015412,6.8588843,-0.5646274,-0.33126435,0.91704816,-0.19162828,0
1.1300000000000008,13.511555937690575,-0.4752505103400658,-0.4720106169568413,-0.02142423233114901,13.512735,-0.5437654,0.57390183,-0.26402694,7.227278,-7.892779,1.9157209,0.45681715,-0.10519627,0.34971932,0.811139,-7.995196,6.9489284,-0.56403816,-0.4752505,-0.4720106,-0.021424232,0
1.1400000000000008,13.511555937690575,-0.4752505103400658,-0.4720106169568413,-0.02142423233114901,13.512735,-0.5437654,0.57390183,-0.26402694,7.1474266,-7.8228416,1.9100862,0.45747685,-0.10440433,0.3467005,0.8121648,-7.975145,7.0383296,-0.5628331,-0.4752505,-0.4720106,-0.021424232,0
1.1500000000000008,13.511555937690575,-0.4752505103400658,-0.4720106169568413,-0.02142423233114901,13.512735,-0.5437654,0.57390183,-0.26402694,7.067775,-7.7520146,1.9044664,0.45813143,-0.10361121,0.34367782,0.81318146,-7.9552608,7.127085,-0.5610167,-0.4752505,-0.4720106,-0.021424232,0
1.1600000000000008,13.815612616335263,-0.7536014753055137,0.07665910820361549,0.0058153679731382645,13.475064,-0.55471504,0.83268005,-0.04543,6.9883204,-7.6803026,1.8988677,0.45878085,-0.10281693,0.3406512,0.814189,-7.9355445,7.2151904,-0.5585935,-0.4752505,-0.4720106,-0.021424232,1
1.1700000000000008,13.815612616335263,-0.7536014753055137,0.07665910820361549,0.0058153679731382645,13.475064,-0.55471504,0.83268005,-0.04543,6.9090614,-7.607713,1.8932942,0.45725664,-0.10755526,0.34027547,0.81459135,-7.91645,7.3028374,-0.5561397,-0.55471504,0.83268005,-0.04543,1
1.1800000000000008,13.815612616335263,-0.7536014753055137,0.07665910820361549,0.0058153679731382645,13.475064,-0.55471504,0.83268005,-0.04543,6.829987,-7.5342445,1.8877442,0.455721,-0.1122909,0.33989117,0.8149733,-7.898594,7.390977,-0.5538895,-0.55471504,0.83268005,-0.04543,1
1.1900000000000008,13.815612616335263,-0.7536014753055137,0.07665910820361549,0.0058153679731382645,13.475064,-0.55471504,0.83268005,-0.04543,6.7510853,-7.4598923,1.8822157,0.4541739,-0.117023714,0.33949837,0.81533474,-7.8819776,7.479601,-0.55185336,-0.55471504,0.83268005,-0.04543,1
1.2000000000000008,13.531731950957411,-0.8831092862625787,-1.306163971667622,0.09851064800328435,13.353202,-0.58350515,-0.22801507,-0.14351517,6.6723437,-7.384651,1.8767065,0.45261535,-0.121753596,0.33909705,0.81567574,-7.8666024,7.568701,-0.5500417,-0.55471504,0.83268005,-0.04543,0
1.2100000000000009,13.531731950957411,-0.8831092862625787,-1.306163971667622,0.09851064800328435,13.353202,-0.58350515,-0.22801507,-0.14351517,6.593751,-7.308517,1.871218,0.45387644,-0.11825432,0.33258894,0.81816566,-7.8519387,7.6578717,-0.54742485,-0.8831093,-1.306164,0.098510645,0
1.2200000000000009,13.531731950957411,-0.8831092862625787,-1.306163971667622,0.09851064800328435,13.353202,-0.58350515,-0.22801507,-0.14351517,6.515305,-7.2314997,1.8657627,0.45510918,-0.11474767,0.32606003,0.82060456,-7.8372664,7.745434,-0.5434071,-0.8831093,-1.306164,0.098510645,0
1.2300000000000009,13.531731950957411,-0.8831092862625787,-1.306163971667622,0.09851064800328435,13.353202,-0.58350515,-0.22801507,-0.14351517,6.4370055,-7.1536145,1.8603545,0.45631352,-0.11123386,0.3195108,0.82299227,-7.8225875,7.8313646,-0.53801405,-0.8831093,-1.306164,0.098510645,0
1.2400000000000009,13.531731950957411,-0.8831092862625787,-1.306163971667622,0.09851064800328435,13.142268,-0.48257288,-0.27996436,0.0028714575,6.358853,-7.0748777,1.8550069,0.4574894,-0.10771311,0.3129416,0.8253285,-7.807903,7.9156437,-0.5312717,-0.8831093,-1.306164,0.098510645,0
1.2500000000000009,13.531731950957411,-0.8831092862625787,-1.306163971667622,0.09851064800328435,13.142268,-0.48257288,-0.27996436,0.0028714575,6.280847,-6.9953074,1.8497335,0.4586368,-0.10418564,0.3063529,0.8276133,-7.793215,7.998248,-0.52320623,-0.8831093,-1.306164,0.098510645,0
1.260000000000001,13.531731950957411,-0.8831092862625787,-1.306163971667622,0.09851064800328435,13.142268,-0.48257288,-0.27996436,0.0028714575,6.2029886,-6.9149194,1.8445472,0.45975554,-0.10065167,0.29974508,0.8298465,-7.7785244,8.079159,-0.51384413,-0.8831093,-1.306164,0.098510645,0
1.270000000000001,13.531731950957411,-0.8831092862625787,-1.306163971667622,0.09851064800328435,13.142268,-0.48257288,-0.27996436,0.0028714575,6.125277,-6.83373,1.839461,0.4608456,-0.09711143,0.29311857,0.8320279,-7.763834,8.158354,-0.5032124,-0.8831093,-1.306164,0.098510645,0
1.280000000000001,13.80767150793736,-0.9881791597243259,0.2502756127121286,0.11657943558747663,14.115033,-0.3944535,0.043562956,0.029403154,6.0477123,-6.751758,1.8344873,0.46190688,-0.093565114,0.28647375,0.83415747,-7.7491436,8.235814,-0.4913382,-0.8831093,-1.306164,0.098510645,1
1.290000000000001,13.80767150793736,-0.9881791597243259,0.2502756127121286,0.11657943558747663,14.115033,-0.3944535,0.043562956,0.029403154,5.970297,-6.6690016,1.8296614,0.46153638,-0.09461551,0.28494236,0.8347683,-7.7340064,8.315404,-0.47385502,-0.3944535,0.043562956,0.029403154,1
1.300000000000001,13.80767150793736,-0.9881791597243259,0.2502756127121286,0.11657943558747663,14.115033,-0.3944535,0.043562956,0.029403154,5.8930306,-6.58545,1.8250111,0.4611641,-0.09566553,0.28340986,0.8353759,-7.7193623,8.394811,-0.4561813,-0.3944535,0.043562956,0.029403154,1
1.310000000000001,13.80767150793736,-0.9881791597243259,0.2502756127121286,0.11657943558747663,14.115033,-0.3944535,0.043562956,0.029403154,5.815908,-6.501106,1.8205385,0.46078995,-0.09671517,0.2818762,0.8359802,-7.7052116,8.4740305,-0.43831873,-0.3944535,0.043562956,0.029403154,1
1.320000000000001,13.378330664704157,-1.1025963466666129,0.11917643577478707,0.2061450880160441,14.447714,-0.68423736,-1.4825397,0.034759704,5.738925,-6.4159703,1.8162454,0.46041396,-0.097764425,0.28034145,0.8365811,-7.6915545,8.553062,-0.42026907,-0.3944535,0.043562956,0.029403154,0
1.330000000000001,13.378330664704157,-1.1025963466666129,0.11917643577478707,0.2061450880160441,14.447714,-0.68423736,-1.4825397,0.034759704,5.662071,-6.330066,1.8121037,0.45883834,-0.100510664,0.27610007,0.8385297,-7.6793923,8.627667,-0.40798843,-1.1025964,0.11917643,0.2061451,0
1.340000000000001,13.378330664704157,-1.1025963466666129,0.11917643577478707,0.2061450880160441,14.447714,-0.68423736,-1.4825397,0.034759704,5.5853324,-6.243418,1.8080873,0.45724812,-0.10325371,0.27184993,0.8404516,-7.668536,8.70176,-0.3952266,-1.1025964,0.11917643,0.2061451,0
1.350000000000001,13.378330664704157,-1.1025963466666129,0.11917643577478707,0.2061450880160441,14.447714,-0.68423736,-1.4825397,0.034759704,5.5086956,-6.156032,1.8042009,0.45564336,-0.105993465,0.26759118,0.8423468,-7.658986,8.775328,-0.38199577,-1.1025964,0.11917643,0.2061451,0
1.360000000000001,13.546514642021059,-1.306519394335045,0.8211196369770192,0.20423807204361752,13.778818,-0.6997303,0.5640709,0.13437241,5.4321485,-6.067913,1.800449,0.45402408,-0.10872985,0.26332387,0.84421504,-7.6507416,8.848358,-0.36830825,-1.1025964,0.11917643,0.2061451,1
1.370000000000001,13.546514642021059,-1.306519394335045,0.8211196369770192,0.20423807204361752,13.778818,-0.6997303,0.5640709,0.13437241,5.3556776,-5.9790554,1.7968525,0.45232913,-0.11252125,0.2617211,0.845126,-7.643553,8.923266,-0.35098538,-0.6997303,0.5640709,0.13437241,1
1.380000000000001,13.546514642021059,-1.306519394335045,0.8211196369770192,0.20423807204361752,13.778818,-0.6997303,0.5640709,0.13437241,5.2792726,-5.8894477,1.7934293,0.45062485,-0.116310336,0.26011294,0.84601945,-7.637597,8.998288,-0.3336649,-0.6997303,0.5640709,0.13437241,1
1.390000000000001,13.546514642021059,-1.306519394335045,0.8211196369770192,0.20423807204361752,13.778818,-0.6997303,0.5640709,0.13437241,5.202921,-5.799089,1.7901791,0.44891128,-0.12009702,0.25849938,0.84689546,-7.6328754,9.073413,-0.31635526,-0.6997303,0.5640709,0.13437241,1
1.400000000000001,13.0131273720748,-1.4769855311534508,-0.28229561303844647,0.2629872114636539,13.117537,-0.97372794,0.58396095,0.36071056,5.1266103,-5.7079787,1.7871021,0.4471884,-0.12388121,0.2568805,0.847754,-7.629389,9.148635,-0.29906487,-0.6997303,0.5640709,0.13437241,1
1.410000000000001,13.0131273720748,-1.4769855311534508,-0.28229561303844647,0.2629872114636539,13.117537,-0.97372794,0.58396095,0.36071056,5.0503283,-5.616134,1.7841703,0.44429836,-0.12806816,0.25427765,0.84943444,-7.627361,9.220275,-0.2872996,-0.97372794,0.58396095,0.36071056,1
1.420000000000001,13.0131273720748,-1.4769855311534508,-0.28229561303844647,0.2629872114636539,13.117537,-0.97372794,0.58396095,0.36071056,4.9740586,-5.5235734,1.7813565,0.44139257,-0.13225058,0.25166583,0.8510847,-7.6268187,9.291838,-0.27546623,-0.97372794,0.58396095,0.36071056,1
1.430000000000001,13.0131273720748,-1.4769855311534508,-0.28229561303844647,0.2629872114636539,13.117537,-0.97372794,0.58396095,0.36071056,4.8977866,-5.4302974,1.7786611,0.43847108,-0.1364283,0.24904506,0.8527048,-7.6277623,9.363309,-0.26357606,-0.97372794,0.58396095,0.36071056,1
1.440000000000001,13.0131273720748,-1.4769855311534508,-0.28229561303844647,0.2629872114636539,13.359245,-1.1632851,0.44561926,0.50684255,4.821498,-5.3363075,1.776085,0.43553406,-0.14060117,0.24641545,0.85429466,-7.6301904,9.434674,-0.25164032,-0.97372794,0.58396095,0.36071056,1
1.450000000000001,13.0131273720748,-1.4769855311534508,-0.28229561303844647,0.2629872114636539,13.359245,-1.1632851,0.44561926,0.50684255,4.7451777,-5.241598,1.7736388,0.4319924,-0.14441018,0.24276768,0.8564991,-7.634212,9.507139,-0.23758236,-1.1632851,0.44561926,0.50684255,1
1.460000000000001,13.0131273720748,-1.4769855311534508,-0.28229561303844647,0.2629872114636539,13.359245,-1.1632851,0.44561926,0.50684255,4.6688085,-5.146166,1.7713342,0.42843124,-0.14821269,0.23910893,0.8586647,-7.639841,9.579214,-0.22334254,-1.1632851,0.44561926,0.50684255,1
1.470000000000001,13.0131273720748,-1.4769855311534508,-0.28229561303844647,0.2629872114636539,13.359245,-1.1632851,0.44561926,0.50684255,4.592375,-5.0500145,1.7691727,0.42485073,-0.15200847,0.2354394,0.8607915,-7.6470747,9.650882,-0.20893382,-1.1632851,0.44561926,0.50684255,1
1.480000000000001,13.151998724373406,-1.6327495611870626,-0.2675914097505869,0.2182626980965678,13.507611,-1.0568442,-0.3207808,0.22021931,4.515861,-4.9531493,1.767156,0.42125097,-0.15579739,0.2317592,0.86287946,-7.655909,9.722123,-0.19436918,-1.1632851,0.44561926,0.50684255,1
1.490000000000001,13.151998724373406,-1.6327495611870626,-0.2675914097505869,0.2182626980965678,13.507611,-1.0568442,-0.3207808,0.22021931,4.439251,-4.8555703,1.7652924,0.41984263,-0.15638174,0.22669181,0.86480415,-7.6661825,9.793483,-0.17824307,-1.0568442,-0.3207808,0.22021931,1
1.500000000000001,13.151998724373406,-1.6327495611870626,-0.2675914097505869,0.2182626980965678,13.507611,-1.0568442,-0.3207808,0.22021931,4.362534,-4.757283,1.7635931,0.41842097,-0.15696113,0.22161724,0.8667014,-7.6773357,9.863783,-0.16154341,-1.0568442,-0.3207808,0.22021931,1
1.5100000000000011,13.151998724373406,-1.6327495611870626,-0.2675914097505869,0.2182626980965678,13.507611,-1.0568442,-0.3207808,0.22021931,4.2857018,-4.658299,1.7620635,0.41698605,-0.15753554,0.21653563,0.8685712,-7.689363,9.933012,-0.14428304,-1.0568442,-0.3207808,0.22021931,1
1.5200000000000011,12.574507885812324,-1.7058202585643893,-1.6831173859483313,0.2494916516285964,13.317543,-1.294161,-0.5166525,0.29035705,4.2087445,-4.558627,1.7607092,0.41553792,-0.15810497,0.21144715,0.8704135,-7.7022614,10.00116,-0.1264748,-1.0568442,-0.3207808,0.22021931,0
1.5300000000000011,12.574507885812324,-1.7058202585643893,-1.6831173859483313,0.2494916516285964,13.317543,-1.294161,-0.5166525,0.29035705,4.131659,-4.4583044,1.7594966,0.41485295,-0.15404893,0.20070845,0.87400264,-7.7149277,10.062989,-0.115818754,-1.7058202,-1.6831174,0.24949165,0
1.5400000000000011,12.574507885812324,-1.7058202585643893,-1.6831173859483313,0.2494916516285964,13.317543,-1.294161,-0.5166525,0.29035705,4.054445,-4.3573766,1.7583976,0.41410777,-0.14997056,0.18994063,0.87746495,-7.7279963,10.122185,-0.10375431,-1.7058202,-1.6831174,0.24949165,0
1.5500000000000012,12.574507885812324,-1.7058202585643893,-1.6831173859483313,0.2494916516285964,13.317543,-1.294161,-0.5166525,0.29035705,3.9770977,-4.2558703,1.7574261,0.4133025,-0.14587042,0.17914525,0.8807999,-7.741452,10.178713,-0.09034358,-1.7058202,-1.6831174,0.24949165,0
1.5600000000000012,12.555916090727575,-1.6008251008358514,-0.6171559792779934,0.2748361342598525,13.52538,-1.6774497,-0.73186576,0.4023685,3.8996143,-4.153812,1.7565953,0.41243723,-0.14174911,0.16832386,0.88400704,-7.755281,10.23254,-0.07564946,-1.7058202,-1.6831174,0.24949165,1
1.5700000000000012,12.555916090727575,-1.6008251008358514,-0.6171559792779934,0.2748361342598525,13.52538,-1.6774497,-0.73186576,0.4023685,3.8219845,-4.0512085,1.75596,0.41006774,-0.1416286,0.15967815,0.88672847,-7.770828,10.287837,-0.05130108,-1.6774497,-0.73186576,0.4023685,1
1.5800000000000012,12.555916090727575,-1.6008251008358514,-0.6171559792779934,0.2748361342598525,13.52538,-1.6774497,-0.73186576,0.4023685,3.7441938,-3.9480627,1.755572,0.40766227,-0.14149563,0.15101841,0.889372,-7.7875113,10.341071,-0.026190707,-1.6774497,-0.73186576,0.4023685,1
1.5900000000000012,12.555916090727575,-1.6008251008358514,-0.6171559792779934,0.2748361342598525,13.52538,-1.6774497,-0.73186576,0.4023685,3.6662304,-3.8443944,1.7554387,0.40522102,-0.14135025,0.14234543,0.8919374,-7.805318,10.392222,-0.000356799,-1.6774497,-0.73186576,0.4023685,1
1.6000000000000012,11.81185730842421,-1.297985503510268,-1.417540621944008,0.33175187083122815,13.30347,-1.6081809,-1.5323755,0.44288963,3.5880835,-3.7402253,1.7555672,0.40274417,-0.14119248,0.13365994,0.89442456,-7.8242326,10.441269,0.026161944,-1.6774497,-0.73186576,0.4023685,0
1.6100000000000012,11.81185730842421,-1.297985503510268,-1.417540621944008,0.33175187083122815,13.30347,-1.6081809,-1.5323755,0.44288963,3.5097558,-3.6356065,1.7558851,0.40127242,-0.13723849,0.12522864,0.89691824,-7.841385,10.482146,0.03754465,-1.2979856,-1.4175407,0.33175188,0
1.6200000000000012,11.81185730842421,-1.297985503510268,-1.417540621944008,0.33175187083122815,13.30347,-1.6081809,-1.5323755,0.44288963,3.4312558,-3.5305896,1.7563206,0.3997625,-0.13327144,0.11678544,0.8993266,-7.858623,10.520886,0.0496883,-1.2979856,-1.4175407,0.33175188,0
1.6300000000000012,11.81185730842421,-1.297985503510268,-1.417540621944008,0.33175187083122815,13.30347,-1.6081809,-1.5323755,0.44288963,3.3525832,-3.425196,1.7568812,0.39821458,-0.12929171,0.108331114,0.9016495,-7.8759327,10.557475,0.06255329,-1.2979856,-1.4175407,0.33175188,0
1.6400000000000012,11.81185730842421,-1.297985503510268,-1.417540621944008,0.33175187083122815,13.194759,-1.6249667,-1.9840244,0.58480614,3.2737372,-3.3194475,1.7575741,0.39662877,-0.12529968,0.099866495,0.90388656,-7.8933015,10.591898,0.07609974,-1.2979856,-1.4175407,0.33175188,0
1.6500000000000012,11.81185730842421,-1.297985503510268,-1.417540621944008,0.33175187083122815,13.194759,-1.6249667,-1.9840244,0.58480614,3.1947172,-3.2133658,1.7584056,0.3950052,-0.12129574,0.091392376,0.9060377,-7.910714,10.6241455,0.09028752,-1.2979856,-1.4175407,0.33175188,0
1.6600000000000013,11.81185730842421,-1.297985503510268,-1.417540621944008,0.33175187083122815,13.194759,-1.6249667,-1.9840244,0.58480614,3.1155229,-3.1069722,1.7593819,0.3933441,-0.11728027,0.08290956,0.90810263,-7.9281573,10.654203,0.10507626,-1.2979856,-1.4175407,0.33175188,0
1.6700000000000013,11.81185730842421,-1.297985503510268,-1.417540621944008,0.33175187083122815,13.194759,-1.6249667,-1.9840244,0.58480614,3.036154,-3.0002892,1.760509,0.3916456,-0.11325363,0.074418865,0.9100812,-7.9456177,10.682061,0.120425336,-1.2979856,-1.4175407,0.33175188,0
1.6800000000000013,11.810571050918801,-1.0283787314343023,0.07745219467429967,0.346411879639961,12.976917,-1.5611176,-1.405187,0.5968346,2.9566104,-2.8933387,1.7617922,0.38990983,-0.109216236,0.06592109,0.9119732,-7.96308,10.707709,0.13629393,-1.2979856,-1.4175407,0.33175188,0
1.6900000000000013,11.810571050918801,-1.0283787314343023,0.07745219467429967,0.346411879639961,12.976917,-1.5611176,-1.405187,0.5968346,2.8768911,-2.7861412,1.7632359,0.38773736,-0.11145847,0.061571028,0.9129317,-7.980889,10.731678,0.15246174,-1.0283787,0.0774522,0.34641188,0
1.7000000000000013,11.810571050918801,-1.0283787314343023,0.07745219467429967,0.346411879639961,12.976917,-1.5611176,-1.405187,0.5968346,2.7969894,-2.6787076,1.7648414,0.38555345,-0.11369741,0.057219148,0.9138632,-7.9996367,10.754873,0.16863951,-1.0283787,0.0774522,0.34641188,0
1.7100000000000013,11.810571050918801,-1.0283787314343023,0.07745219467429967,0.346411879639961,12.976917,-1.5611176,-1.405187,0.5968346,2.7168953,-2.571046,1.7666087,0.3833581,-0.115932986,0.052865576,0.9147676,-8.019319,10.777286,0.18481615,-1.0283787,0.0774522,0.34641188,0
1.7200000000000013,11.33910198412197,-0.7418920858337141,-0.6715657698685558,0.37566507302003876,13.097925,-1.8897567,-2.2026024,0.6861244,2.6365998,-2.4631643,1.7685378,0.3811514,-0.118165135,0.04851044,0.915645,-8.03993,10.798911,0.20098059,-1.0283787,0.0774522,0.34641188,0
1.7300000000000013,11.33910198412197,-0.7418920858337141,-0.6715657698685558,0.37566507302003876,13.097925,-1.8897567,-2.2026024,0.6861244,2.5560987,-2.3550751,1.7706057,0.37915066,-0.11641163,0.04405533,0.9169246,-8.060303,10.81878,0.21264221,-0.7418921,-0.6715658,0.37566507,0
1.7400000000000013,11.33910198412197,-0.7418920858337141,-0.6715657698685558,0.37566507302003876,13.097925,-1.8897567,-2.2026024,0.6861244,2.4753935,-2.2467928,1.7727911,0.3771391,-0.11465479,0.039598964,0.91817796,-8.080748,10.837531,0.22448681,-0.7418921,-0.6715658,0.37566507,0
1.7500000000000013,11.33910198412197,-0.7418920858337141,-0.6715657698685558,0.37566507302003876,13.097925,-1.8897567,-2.2026024,0.6861244,2.3944836,-2.1383286,1.7750959,0.37511674,-0.11289468,0.035141464,0.9194051,-8.101259,10.855163,0.2365042,-0.7418921,-0.6715658,0.37566507,0
1.7600000000000013,11.14512467728319,-0.48890168022897906,-0.06595031042831583,0.3650059063465777,14.009256,-1.7268744,-2.7417097,0.9667887,2.3133678,-2.0296934,1.7775217,0.37308368,-0.11113135,0.030682964,0.920606,-8.12183,10.871673,0.24868411,-0.7418921,-0.6715658,0.37566507,0
1.7700000000000014,11.14512467728319,-0.48890168022897906,-0.06595031042831583,0.3650059063465777,14.009256,-1.7268744,-2.7417097,0.9667887,2.232048,-1.9208995,1.7800605,0.37114024,-0.111683264,0.028512185,0.9213942,-8.142205,10.887044,0.25907326,-0.48890167,-0.06595031,0.3650059,0
1.7800000000000014,11.14512467728319,-0.48890168022897906,-0.06595031042831583,0.3650059063465777,14.009256,-1.7268744,-2.7417097,0.9667887,2.1505227,-1.8119541,1.7827032,0.36919332,-0.11223412,0.026341138,0.92217374,-8.162906,10.901973,0.2694628,-0.48890167,-0.06595031,0.3650059,0
1.7900000000000014,11.14512467728319,-0.48890168022897906,-0.06595031042831583,0.3650059063465777,14.009256,-1.7268744,-2.7417097,0.9667887,2.0687885,-1.7028617,1.7854497,0.3672429,-0.11278393,0.024169846,0.92294466,-8.183929,10.916456,0.2798506,-0.48890167,-0.06595031,0.3650059,0
1.8000000000000014,10.720128167834346,-0.38904579093821023,-1.296876173380335,0.36159520646290055,13.952857,-1.4088091,-3.8090365,0.58711046,1.9868428,-1.5936265,1.7883002,0.36528903,-0.11333267,0.021998324,0.92370677,-8.205275,10.930493,0.29023445,-0.48890167,-0.06595031,0.3650059,0
1.8100000000000014,10.720128167834346,-0.38904579093821023,-1.296876173380335,0.36159520646290055,13.952857,-1.4088091,-3.8090365,0.58711046,1.9046872,-1.4842567,1.791234,0.36353225,-0.10801105,0.018037224,0.9251222,-8.225733,10.943263,0.29658702,-0.3890458,-1.2968762,0.3615952,0
1.8200000000000014,10.720128167834346,-0.38904579093821023,-1.296876173380335,0.36159520646290055,13.952857,-1.4088091,-3.8090365,0.58711046,1.8223305,-1.3747655,1.7942327,0.36175758,-0.10268415,0.014075239,0.9264922,-8.245485,10.954797,0.30321917,-0.3890458,-1.2968762,0.3615952,0
1.8300000000000014,10.720128167834346,-0.38904579093821023,-1.296876173380335,0.36159520646290055,13.952857,-1.4088091,-3.8090365,0.58711046,1.7397798,-1.265165,1.7972993,0.35996518,-0.09735219,0.010112564,0.92781675,-8.264522,10.965095,0.31011224,-0.3890458,-1.2968762,0.3615952,0
1.8400000000000014,10.720128167834346,-0.38904579093821023,-1.296876173380335,0.36159520646290055,13.702992,-1.2216305,-4.0155144,0.75109226,1.6570426,-1.1554677,1.8004359,0.35815504,-0.09201546,0.006149392,0.9290957,-8.282835,10.974156,0.3172475,-0.3890458,-1.2968762,0.3615952,0
1.8500000000000014,10.720128167834346,-0.38904579093821023,-1.296876173380335,0.36159520646290055,13.702992,-1.2216305,-4.0155144,0.75109226,1.5741258,-1.0456861,1.803645,0.35632738,-0.086674206,0.0021859172,0.930329,-8.300417,10.981985,0.32460624,-0.3890458,-1.2968762,0.3615952,0
1.8600000000000014,10.720128167834346,-0.38904579093821023,-1.296876173380335,0.36159520646290055,13.702992,-1.2216305,-4.0155144,0.75109226,1.4910368,-0.93583244,1.8069288,0.3544822,-0.081328705,-0.0017776645,0.93151665,-8.31726,10.988581,0.3321696,-0.3890458,-1.2968762,0.3615952,0
1.8700000000000014,10.720128167834346,-0.38904579093821023,-1.296876173380335,0.36159520646290055,13.702992,-1.2216305,-4.0155144,0.75109226,1.407783,-0.82591885,1.810289,0.35261962,-0.0759792,-0.0057411585,0.9326587,-8.333356,10.993945,0.3399188,-0.3890458,-1.2968762,0.3615952,0
1.8800000000000014,10.548113622237357,-0.26718003017520275,-0.027255619855445053,0.3571841536161658,13.235541,-1.4836946,-4.302329,0.69382054,1.3243722,-0.71595776,1.8137277,0.35073972,-0.07062597,-0.009704372,0.9337548,-8.3487,10.99808,0.34783494,-0.3890458,-1.2968762,0.3615952,0
1.8900000000000015,10.548113622237357,-0.26718003017520275,-0.027255619855445053,0.3571841536161658,13.235541,-1.4836946,-4.302329,0.69382054,1.240812,-0.6059606,1.8172375,0.34897557,-0.070984416,-0.010873416,0.9343755,-8.363391,11.0013075,0.35413808,-0.26718003,-0.027255619,0.35718414,0
1.9000000000000015,10.548113622237357,-0.26718003017520275,-0.027255619855445053,0.3571841536161658,13.235541,-1.4836946,-4.302329,0.69382054,1.157104,-0.49593243,1.8208102,0.34720966,-0.071342506,-0.012042405,0.93499154,-8.378244,11.004303,0.36042514,-0.26718003,-0.027255619,0.35718414,0
1.9100000000000015,10.548113622237357,-0.26718003017520275,-0.027255619855445053,0.3571841536161658,13.235541,-1.4836946,-4.302329,0.69382054,1.0732466,-0.38587537,1.8244458,0.34544203,-0.07170024,-0.013211334,0.93560296,-8.393259,11.007066,0.3666956,-0.26718003,-0.027255619,0.35718414,0
1.9200000000000015,10.259195342955822,-0.22092692928213328,-0.21892137320340993,0.37077693216475244,13.239923,-1.8125888,-5.205812,1.2000623,0.9892383,-0.2757919,1.8281441,0.34367266,-0.07205761,-0.014380197,0.9362096,-8.408434,11.009596,0.3729488,-0.26718003,-0.027255619,0.35718414,0
1.9300000000000015,10.259195342955822,-0.22092692928213328,-0.21892137320340993,0.37077693216475244,13.239923,-1.8125888,-5.205812,1.2000623,0.9050797,-0.16568471,1.8318905,0.34184068,-0.071438916,-0.015656924,0.936907,-8.423281,11.011795,0.37633687,-0.22092693,-0.21892138,0.37077692,0
1.9400000000000015,10.259195342955822,-0.22092692928213328,-0.21892137320340993,0.37077693216475244,13.239923,-1.8125888,-5.205812,1.2000623,0.82077277,-0.055557095,1.8356708,0.3400067,-0.0708198,-0.016933559,0.9375989,-8.438103,11.013678,0.37973502,-0.22092693,-0.21892138,0.37077692,0
1.9500000000000015,10.259195342955822,-0.22092692928213328,-0.21892137320340993,0.37077693216475244,13.239923,-1.8125888,-5.205812,1.2000623,0.7363177,0.05458775,1.8394852,0.33817077,-0.07020027,-0.018210093,0.9382853,-8.452898,11.015242,0.38314238,-0.22092693,-0.21892138,0.37077692,0
1.9600000000000015,10.169105204216583,-0.19355270010110082,0.6765584178297889,0.36030971339014223,12.758587,-1.7154778,-4.3048635,1.230183,0.65171486,0.16474664,1.8433337,0.3363328,-0.069580324,-0.019486522,0.9389662,-8.467666,11.016487,0.38655815,-0.22092693,-0.21892138,0.37077692,0
1.9700000000000015,10.169105204216583,-0.19355270010110082,0.6765584178297889,0.36030971339014223,12.758587,-1.7154778,-4.3048635,1.230183,0.56696445,0.27491704,1.847212,0.3346371,-0.0731167,-0.019131972,0.93931055,-8.48253,11.017632,0.38905028,-0.1935527,0.67655843,0.36030972,0
1.9800000000000015,10.169105204216583,-0.19355270010110082,0.6765584178297889,0.36030971339014223,12.758587,-1.7154778,-4.3048635,1.230183,0.4820621,0.38510028,1.8511145,0.3329363,-0.07665193,-0.018777123,0.9396402,-8.498044,11.019058,0.39144063,-0.1935527,0.67655843,0.36030972,0
1.9900000000000015,10.169105204216583,-0.19355270010110082,0.6765584178297889,0.36030971339014223,12.758587,-1.7154778,-4.3048635,1.230183,0.39700133,0.49529916,1.8550403,0.33123022,-0.080185965,-0.01842198,0.9399552,-8.514208,11.020764,0.3937241,-0.1935527,0.67655843,0.36030972,0
2.0000000000000013,,,,,13.064201,-1.3795305,-4.7370834,1.9460348,0.3117757,0.6055165,1.8589885,0.32951897,-0.08371874,-0.01806655,0.94025546,-8.531022,11.022748,0.3958957,-0.1935527,0.67655843,0.36030972,0
2.010000000000001,,,,,13.064201,-1.3795305,-4.7370834,1.9460348,0.22638087,0.71575415,1.8629496,0.32748526,-0.082952544,-0.019727323,0.9410003,-8.547944,11.024717,0.39631897,-0.293177,-0.2733539,0.40095162,0
2.020000000000001,,,,,13.064201,-1.3795305,-4.7370834,1.9460348,0.14081697,0.8260095,1.866915,0.32544893,-0.082185686,-0.021387937,0.9417375,-8.564833,11.026288,0.39675477,-0.293177,-0.2733539,0.40095162,0
2.0300000000000007,,,,,13.064201,-1.3795305,-4.7370834,1.9460348,0.05508434,0.9362786,1.8708848,0.32340997,-0.08141817,-0.02304838,0.94246703,-8.581689,11.027459,0.39720175,-0.293177,-0.2733539,0.40095162,0
2.0400000000000005,,,,,13.064201,-1.3795305,-4.7370834,1.9460348,-0.030816682,1.0465573,1.874859,0.3213684,-0.08065,-0.024708636,0.94318914,-8.598511,11.028231,0.3976586,-0.293177,-0.2733539,0.40095162,0
2.0500000000000003,,,,,13.153707,-1.4256974,-3.8505616,2.2456954,-0.116885744,1.1568419,1.878838,0.31932425,-0.079881184,-0.026368696,0.9439037,-8.615295,11.0286045,0.39812395,-0.293177,-0.2733539,0.40095162,1
2.06,,,,,13.153707,-1.4256974,-3.8505616,2.2456954,-0.20314582,1.2671238,1.8829775,0.30756217,-0.06426031,-0.038339935,0.9485803,-8.636265,11.027062,0.42986092,-1.4256974,-3.8505616,2.2456954,1
2.07,,,,,13.153707,-1.4256974,-3.8505616,2.2456954,-0.28960085,1.3773677,1.8874362,0.29563168,-0.048604265,-0.05029018,0.95273757,-8.654271,11.021017,0.4619106,-1.4256974,-3.8505616,2.2456954,1
2.0799999999999996,,,,,13.153707,-1.4256974,-3.8505616,2.2456954,-0.3762206,1.4875289,1.892216,0.28353935,-0.032921605,-0.062212892,0.95637316,-8.669186,11.010547,0.4940705,-1.4256974,-3.8505616,2.2456954,1
2.0899999999999994,,,,,13.804146,-0.9425223,-2.6126351,2.117454,-0.46297354,1.5975636,1.8973172,0.27129176,-0.017220916,-0.07410153,0.9594851,-8.680885,10.995739,0.5261378,-1.4256974,-3.8505616,2.2456954,1
2.099999999999999,,,,,13.804146,-0.9425223,-2.6126351,2.117454,-0.5498303,1.707426,1.9027699,0.2600435,-0.0067479266,-0.08197312,0.9620866,-8.69009,10.976289,0.5643876,-0.9425223,-2.6126351,2.117454,1
2.109999999999999,,,,,13.804146,-0.9425223,-2.6126351,2.117454,-0.63676685,1.8170793,1.9086038,0.24871592,0.003727121,-0.089819714,0.96439475,-8.696835,10.953914,0.60233235,-0.9425223,-2.6126351,2.117454,1
2.1199999999999988,,,,,13.804146,-0.9425223,-2.6126351,2.117454,-0.72375834,1.9264945,1.9148152,0.2373125,0.014201031,-0.09763892,0.96640885,-8.701052,10.928683,0.6398787,-0.9425223,-2.6126351,2.117454,1
2.1299999999999986,,,,,15.723988,-1.094145,-4.677374,2.1118956,-0.810779,2.0356433,1.9213997,0.22583671,0.024670612,-0.10542835,0.96812826,-8.702679,10.90067,0.6769338,-0.9425223,-2.6126351,2.117454,1
2.1399999999999983,,,,,15.723988,-1.094145,-4.677374,2.1118956,-0.8977993,2.1444757,1.9284451,0.21320681,0.044952523,-0.11622931,0.9690259,-8.700458,10.865085,0.7319634,-1.094145,-4.677374,2.1118956,1
2.149999999999998,,,,,15.723988,-1.094145,-4.677374,2.1118956,-0.9847679,2.2529294,1.9360344,0.20043015,0.065203495,-0.12695026,0.9692566,-8.692321,10.824995,0.7856741,-1.094145,-4.677374,2.1118956,1
2.159999999999998,,,,,15.723988,-1.094145,-4.677374,2.1118956,-1.0716252,2.3609607,1.9441528,0.18751554,0.08540959,-0.13758384,0.96882004,-8.678189,10.780615,0.83774287,-1.094145,-4.677374,2.1118956,1
2.1699999999999977,,,,,13.310372,-1.4625199,-2.220261,2.1317973,-1.1583109,2.4685276,1.9527824,0.17447186,0.10555688,-0.1481227,0.9677166,-8.658,10.732174,0.88785136,-1.094145,-4.677374,2.1118956,1
