time-since-start [s],throttle_mpc,roll_mpc,pitch_mpc,yaw_mpc,throttle_nw,roll_nw,pitch_nw,yaw_nw,position_x [m],position_y [m],position_z [m],rotation_w [quaternion],rotation_x [quaternion],rotation_y [quaternion],rotation_z [quaternion],velocity_x [m/s],velocity_y [m/s],velocity_z [m/s],omega_x [rad/s],omega_y [rad/s],omega_z [rad/s],network_used
0.0,6.0321443648553235,5.854139940999585,-5.999999846727628,-3.3449934267549954,12.514011,0.7531828,-3.5498374,-0.44478124,17.151487,-10.2737,1.7575412,-0.0010578381,-0.32650837,0.14685762,0.93371516,-10.417338,-1.7883329,0.8938862,1.4521333,-0.3916349,0.09032289,0
0.01,6.0321443648553235,5.854139940999585,-5.999999846727628,-3.3449934267549954,11.0768385,0.7125339,-4.787459,-1.3624108,17.047134,-10.291496,1.7662151,0.028512415,-0.3006603,0.16860206,0.938277,-10.4529085,-1.7704566,0.8410841,5.85414,-6.0,-3.3449934,0
0.02,6.0321443648553235,5.854139940999585,-5.999999846727628,-3.3449934267549954,11.0768385,0.7125339,-4.787459,-1.3624108,16.942442,-10.309096,1.7743664,0.058024608,-0.27420005,0.19000322,0.9409284,-10.485014,-1.7490534,0.78932875,5.85414,-6.0,-3.3449934,0
0.03,6.0321443648553235,5.854139940999585,-5.999999846727628,-3.3449934267549954,11.0768385,0.7125339,-4.787459,-1.3624108,16.837446,-10.326467,1.7820044,0.08741866,-0.2471815,0.21101749,0.94166386,-10.513353,-1.7243834,0.73839825,5.85414,-6.0,-3.3449934,0
0.04,6.0321443648553235,5.854139940999585,-5.999999846727628,-3.3449934267549954,10.851919,-1.0791998,-3.1131208,-0.17794997,16.732187,-10.343575,1.7891363,0.11663471,-0.21965966,0.23160209,0.940482,-10.537656,-1.6967332,0.6880639,5.85414,-6.0,-3.3449934,0
0.05,6.0321443648553235,5.854139940999585,-5.999999846727628,-3.3449934267549954,10.851919,-1.0791998,-3.1131208,-0.17794997,16.626709,-10.360393,1.7957668,0.14561327,-0.19169055,0.25171512,0.9373852,-10.557682,-1.6664138,0.6380923,5.85414,-6.0,-3.3449934,0
0.060000000000000005,6.0321443648553235,5.854139940999585,-5.999999846727628,-3.3449934267549954,10.851919,-1.0791998,-3.1131208,-0.17794997,16.521051,-10.376896,1.8018985,0.17429535,-0.16333112,0.27131563,0.9323798,-10.57323,-1.6337575,0.58824694,5.85414,-6.0,-3.3449934,0
0.07,6.0321443648553235,5.854139940999585,-5.999999846727628,-3.3449934267549954,10.851919,-1.0791998,-3.1131208,-0.17794997,16.41526,-10.393063,1.8075314,0.20262253,-0.13463913,0.2903637,0.92547584,-10.584132,-1.5991162,0.5382905,5.85414,-6.0,-3.3449934,0
0.08,11.857051362918984,4.782242110930809,-5.999999793703447,-1.337633642526981,12.956016,-1.3094591,1.1277629,0.09143895,16.309383,-10.408874,1.8126631,0.23053715,-0.10567299,0.30882055,0.9166874,-10.59026,-1.5628575,0.4879862,5.85414,-6.0,-3.3449934,0
0.09,11.857051362918984,4.782242110930809,-5.999999793703447,-1.337633642526981,12.956016,-1.3094591,1.1277629,0.09143895,16.20346,-10.424136,1.8175182,0.24828017,-0.0746531,0.32287905,0.9102379,-10.59298,-1.4894638,0.48293704,4.7822423,-6.0,-1.3376336,0
0.09999999999999999,11.857051362918984,4.782242110930809,-5.999999793703447,-1.337633642526981,12.956016,-1.3094591,1.1277629,0.09143895,16.097553,-10.43866,1.8223184,0.26564673,-0.043520004,0.33644795,0.90240824,-10.586712,-1.4150879,0.4769318,4.7822423,-6.0,-1.3376336,0
0.10999999999999999,11.857051362918984,4.782242110930809,-5.999999793703447,-1.337633642526981,12.956016,-1.3094591,1.1277629,0.09143895,15.9917555,-10.452436,1.8270518,0.2826105,-0.012320924,0.34950674,0.8932103,-10.571474,-1.3402617,0.46950355,4.7822423,-6.0,-1.3376336,0
0.11999999999999998,11.857051362918984,4.782242110930809,-5.999999793703447,-1.337633642526981,12.956016,-1.3094591,1.1277629,0.09143895,15.886155,-10.465466,1.8317019,0.29914576,0.018896837,0.36203554,0.88265795,-10.54734,-1.2655197,0.46019387,4.7822423,-6.0,-1.3376336,0
0.12999999999999998,16.340575125567185,2.0039158068211345,-5.999999333075379,0.09987252643215831,12.948129,-2.4542542,0.96264344,-0.0062664114,15.780839,-10.477749,1.8362476,0.31522745,0.050085947,0.3740154,0.8707673,-10.51444,-1.1913962,0.4485559,4.7822423,-6.0,-1.3376336,0
0.13999999999999999,16.340575125567185,2.0039158068211345,-5.999999333075379,0.09987252643215831,12.948129,-2.4542542,0.96264344,-0.0062664114,15.675969,-10.4891615,1.840826,0.3253518,0.079524204,0.3730713,0.86523986,-10.458123,-1.0916789,0.46698073,2.0039158,-5.9999995,0.09987253,0
0.15,16.340575125567185,2.0039158068211345,-5.999999333075379,0.09987252643215831,12.948129,-2.4542542,0.96264344,-0.0062664114,15.57171,-10.4995985,1.8455831,0.33515066,0.1088829,0.37175393,0.8588467,-10.392526,-0.9963443,0.48421228,2.0039158,-5.9999995,0.09987253,0
0.16,17.03297836462542,0.1744916111211639,-5.334455944645398,0.3494698499145198,14.642166,-3.210197,1.4284508,-0.7943812,15.46815,-10.509105,1.8505044,0.34461415,0.13813263,0.37006462,0.85159427,-10.317907,-0.9057669,0.49978197,2.0039158,-5.9999995,0.09987253,0
0.17,17.03297836462542,0.1744916111211639,-5.334455944645398,0.3494698499145198,14.642166,-3.210197,1.4284508,-0.7943812,15.3653965,-10.517714,1.8555974,0.35275185,0.16174167,0.36124328,0.84788513,-10.231894,-0.81694597,0.5188067,0.17449161,-5.334456,0.34946984,0
0.18000000000000002,17.03297836462542,0.1744916111211639,-5.334455944645398,0.3494698499145198,14.642166,-3.210197,1.4284508,-0.7943812,15.263535,-10.525467,1.8608792,0.3606373,0.18523504,0.35216358,0.8435696,-10.1393585,-0.7344466,0.53748363,0.17449161,-5.334456,0.34946984,0
0.19000000000000003,17.03297836462542,0.1744916111211639,-5.334455944645398,0.3494698499145198,14.642166,-3.210197,1.4284508,-0.7943812,15.16263,-10.532427,1.8663446,0.36826482,0.20859593,0.34283203,0.83865076,-10.040551,-0.6584874,0.5554572,0.17449161,-5.334456,0.34946984,0
0.20000000000000004,15.42447687691394,-0.47628073388155495,-1.427404124219293,0.03414924702211639,15.734932,-2.3442276,2.6362882,-0.994355,15.062744,-10.538661,1.8719846,0.37562892,0.23180763,0.3332553,0.8331321,-9.935739,-0.58926827,0.5723736,0.17449161,-5.334456,0.34946984,0
0.21000000000000005,15.42447687691394,-0.47628073388155495,-1.427404124219293,0.03414924702211639,15.734932,-2.3442276,2.6362882,-0.994355,14.963879,-10.544261,1.877735,0.3784065,0.23690948,0.3285414,0.8323118,-9.8371725,-0.5312611,0.5777674,-0.47628072,-1.4274042,0.03414925,0
0.22000000000000006,15.42447687691394,-0.47628073388155495,-1.427404124219293,0.03414924702211639,15.734932,-2.3442276,2.6362882,-0.994355,14.866004,-10.549292,1.8835405,0.38116264,0.2419979,0.3238089,0.83144444,-9.737628,-0.47534752,0.58337677,-0.47628072,-1.4274042,0.03414925,0
0.23000000000000007,15.42447687691394,-0.47628073388155495,-1.427404124219293,0.03414924702211639,15.734932,-2.3442276,2.6362882,-0.994355,14.76913,-10.553774,1.8894032,0.3838972,0.24707262,0.3190581,0.8305299,-9.637127,-0.42154008,0.58917767,-0.47628072,-1.4274042,0.03414925,0
0.24000000000000007,15.42447687691394,-0.47628073388155495,-1.427404124219293,0.03414924702211639,14.654337,-1.2779366,5.586351,-0.85902244,14.6732645,-10.55773,1.8953247,0.38661,0.25213337,0.31428918,0.8295684,-9.535692,-0.36985078,0.5951461,-0.47628072,-1.4274042,0.03414925,0
0.25000000000000006,15.42447687691394,-0.47628073388155495,-1.427404124219293,0.03414924702211639,14.654337,-1.2779366,5.586351,-0.85902244,14.578418,-10.561179,1.9013066,0.3893009,0.25717983,0.3095025,0.8285599,-9.433346,-0.32029116,0.6012579,-0.47628072,-1.4274042,0.03414925,0
0.26000000000000006,15.42447687691394,-0.47628073388155495,-1.427404124219293,0.03414924702211639,14.654337,-1.2779366,5.586351,-0.85902244,14.4846,-10.564143,1.9073504,0.39196977,0.2622117,0.3046983,0.82750446,-9.330111,-0.27287224,0.60748893,-0.47628072,-1.4274042,0.03414925,0
0.2700000000000001,15.42447687691394,-0.47628073388155495,-1.427404124219293,0.03414924702211639,14.654337,-1.2779366,5.586351,-0.85902244,14.391819,-10.566644,1.9134569,0.39461643,0.26722875,0.2998768,0.8264021,-9.226009,-0.22760452,0.61381483,-0.47628072,-1.4274042,0.03414925,0
0.2800000000000001,14.151492872166058,-0.6861621382183212,1.0097548374986829,-0.15339621384455387,15.157776,0.0013491185,4.938242,-1.2317305,14.300082,-10.568703,1.919627,0.39724076,0.27223065,0.29503834,0.82525307,-9.121065,-0.18449813,0.6202114,-0.47628072,-1.4274042,0.03414925,0
0.2900000000000001,14.151492872166058,-0.6861621382183212,1.0097548374986829,-0.15339621384455387,15.157776,0.0013491185,4.938242,-1.2317305,14.209354,-10.570355,1.9258192,0.39731058,0.26646987,0.29441583,0.8273194,-9.024778,-0.14594162,0.61838365,-0.6861621,1.0097549,-0.15339622,0
0.3000000000000001,14.151492872166058,-0.6861621382183212,1.0097548374986829,-0.15339621384455387,15.157776,0.0013491185,4.938242,-1.2317305,14.119582,-10.57162,1.931998,0.39736536,0.260699,0.2937822,0.8293544,-8.9297495,-0.10671716,0.61753213,-0.6861621,1.0097549,-0.15339622,0
0.3100000000000001,14.151492872166058,-0.6861621382183212,1.0097548374986829,-0.15339621384455387,15.157776,0.0013491185,4.938242,-1.2317305,14.030754,-10.572489,1.9381732,0.39740512,0.25491825,0.29313743,0.83135796,-8.835994,-0.06682831,0.6176412,-0.6861621,1.0097549,-0.15339622,0
0.3200000000000001,12.801356693635293,-1.0913468919988776,5.369247971497777,-0.41143863252558227,15.529638,0.40222612,4.6259847,-1.251456,13.942857,-10.572955,1.9443542,0.39742982,0.2491279,0.29248157,0.83333004,-8.743525,-0.026278684,0.6186951,-0.6861621,1.0097549,-0.15339622,0
0.3300000000000001,12.801356693635293,-1.0913468919988776,5.369247971497777,-0.41143863252558227,15.529638,0.40222612,4.6259847,-1.251456,13.855832,-10.573028,1.950504,0.39250216,0.22389491,0.29900512,0.8404812,-8.662352,0.01257802,0.6116148,-1.0913469,5.369248,-0.41143864,0
0.34000000000000014,12.801356693635293,-1.0913468919988776,5.369247971497777,-0.41143863252558227,15.529638,0.40222612,4.6259847,-1.251456,13.769595,-10.572688,1.956593,0.3872783,0.19849296,0.30530304,0.84699804,-8.58595,0.056185182,0.60649216,-1.0913469,5.369248,-0.41143864,0
0.35000000000000014,12.801356693635293,-1.0913468919988776,5.369247971497777,-0.41143863252558227,15.529638,0.40222612,4.6259847,-1.251456,13.684096,-10.571889,1.9626393,0.38176215,0.17294122,0.31137052,0.8528757,-8.514538,0.10443096,0.6030298,-1.0913469,5.369248,-0.41143864,0
0.36000000000000015,12.30359785192938,-0.9542465973458665,5.731309966517762,-0.5749557952692783,14.405188,-0.6694523,5.850191,-0.7108081,13.599286,-10.570585,1.9686582,0.37595788,0.14725897,0.31720302,0.8581097,-8.4483185,0.1571895,0.6009252,-1.0913469,5.369248,-0.41143864,0
0.37000000000000016,12.30359785192938,-0.9542465973458665,5.731309966517762,-0.5749557952692783,14.405188,-0.6694523,5.850191,-0.7108081,13.515099,-10.568741,1.9746425,0.36987805,0.11990397,0.3241696,0.862396,-8.389923,0.21225454,0.5960546,-0.9542466,5.73131,-0.5749558,0
0.38000000000000017,12.30359785192938,-0.9542465973458665,5.731309966517762,-0.5749557952692783,14.405188,-0.6694523,5.850191,-0.7108081,13.431468,-10.566324,1.9805812,0.36348304,0.09244679,0.33085993,0.8659474,-8.337083,0.27178016,0.59175456,-0.9542466,5.73131,-0.5749558,0
0.3900000000000002,12.30359785192938,-0.9542465973458665,5.731309966517762,-0.5749557952692783,14.405188,-0.6694523,5.850191,-0.7108081,13.348338,-10.563291,1.9864783,0.35677826,0.06491083,0.3372683,0.8687608,-8.289956,0.33559123,0.58768207,-0.9542466,5.73131,-0.5749558,0
0.4000000000000002,12.156887268671582,-0.8068455713132064,5.1081801876494675,-0.6826887627871191,13.350527,-0.9713253,4.287523,-1.115268,13.265651,-10.559599,1.9923344,0.34976947,0.037319556,0.3433893,0.87083393,-8.248685,0.40349787,0.58349323,-0.9542466,5.73131,-0.5749558,0
0.4100000000000002,12.156887268671582,-0.8068455713132064,5.1081801876494675,-0.6826887627871191,13.350527,-0.9713253,4.287523,-1.115268,13.183345,-10.555212,1.998141,0.34400377,0.012484605,0.34881955,0.87168217,-8.213555,0.47430038,0.5777451,-0.80684555,5.10818,-0.6826888,0
0.4200000000000002,12.156887268671582,-0.8068455713132064,5.1081801876494675,-0.6826887627871191,13.350527,-0.9713253,4.287523,-1.115268,13.101363,-10.550101,2.003887,0.33800408,-0.012358839,0.35401252,0.8719375,-8.183734,0.5483915,0.5712811,-0.80684555,5.10818,-0.6826888,0
0.4300000000000002,12.156887268671582,-0.8068455713132064,5.1081801876494675,-0.6826887627871191,13.350527,-0.9713253,4.287523,-1.115268,13.019652,-10.544233,2.0095634,0.33177447,-0.037193872,0.35896468,0.8715997,-8.159282,0.62559927,0.5638285,-0.80684555,5.10818,-0.6826888,0
0.4400000000000002,12.156887268671582,-0.8068455713132064,5.1081801876494675,-0.6826887627871191,12.011341,-0.74559295,3.554204,-1.0414411,12.938159,-10.53758,2.0151594,0.32531917,-0.062003613,0.36367267,0.870669,-8.140243,0.7057431,0.55511767,-0.80684555,5.10818,-0.6826888,0
0.45000000000000023,12.156887268671582,-0.8068455713132064,5.1081801876494675,-0.6826887627871191,12.011341,-0.74559295,3.554204,-1.0414411,12.85683,-10.530109,2.0206606,0.3186426,-0.08677117,0.36813328,0.86914605,-8.126647,0.78863436,0.54488176,-0.80684555,5.10818,-0.6826888,0
0.46000000000000024,12.156887268671582,-0.8068455713132064,5.1081801876494675,-0.6826887627871191,12.011341,-0.74559295,3.554204,-1.0414411,12.775608,-10.521797,2.0260508,0.31174922,-0.11147971,0.37234348,0.86703193,-8.11851,0.8740772,0.53285867,-0.80684555,5.10818,-0.6826888,0
0.47000000000000025,12.156887268671582,-0.8068455713132064,5.1081801876494675,-0.6826887627871191,12.011341,-0.74559295,3.554204,-1.0414411,12.694441,-10.512619,2.0313108,0.3046438,-0.13611242,0.3763004,0.86432797,-8.115834,0.9618686,0.5187908,-0.80684555,5.10818,-0.6826888,0
0.48000000000000026,11.890071527676358,-0.398471476666398,2.422670062714191,-0.744695397973916,12.559651,-1.6108845,2.1813536,-0.5903453,12.613274,-10.502552,2.0364187,0.29733118,-0.16065253,0.38000134,0.86103606,-8.118604,1.0517993,0.50242627,-0.80684555,5.10818,-0.6826888,0
0.49000000000000027,11.890071527676358,-0.398471476666398,2.422670062714191,-0.744695397973916,12.559651,-1.6108845,2.1813536,-0.5903453,12.532055,-10.491588,2.0413435,0.29558966,-0.17307632,0.38125804,0.8586692,-8.125575,1.1412876,0.48230046,-0.39847147,2.4226701,-0.7446954,0
0.5000000000000002,11.890071527676358,-0.398471476666398,2.422670062714191,-0.744695397973916,12.559651,-1.6108845,2.1813536,-0.5903453,12.450753,-10.479724,2.0460608,0.2937995,-0.18547162,0.382452,0.85616106,-8.135055,1.2316097,0.46093848,-0.39847147,2.4226701,-0.7446954,0
0.5100000000000002,11.890071527676358,-0.398471476666398,2.422670062714191,-0.744695397973916,12.559651,-1.6108845,2.1813536,-0.5903453,12.369345,-10.466953,2.0505579,0.29196098,-0.19783641,0.38358304,0.853512,-8.147027,1.3227243,0.4382805,-0.39847147,2.4226701,-0.7446954,0
0.5200000000000002,11.958671251806928,-0.03303533396768122,0.663683678562831,-0.7115956079144939,12.201272,-2.1065881,2.052423,-0.36221272,12.287805,-10.453267,2.0548217,0.2900744,-0.21016864,0.38465092,0.8507225,-8.161474,1.414589,0.41426736,-0.39847147,2.4226701,-0.7446954,0
0.5300000000000002,11.958671251806928,-0.03303533396768122,0.663683678562831,-0.7115956079144939,12.201272,-2.1065881,2.052423,-0.36221272,12.206109,-10.438657,2.0588417,0.29178667,-0.21440567,0.38472065,0.84904647,-8.177781,1.5075258,0.3896367,-0.033035334,0.66368365,-0.7115956,0
0.5400000000000003,11.958671251806928,-0.03303533396768122,0.663683678562831,-0.7115956079144939,12.201272,-2.1065881,2.052423,-0.36221272,12.124248,-10.423117,2.0626132,0.29349202,-0.21863763,0.38478127,0.84735024,-8.194699,1.600704,0.36456054,-0.033035334,0.66368365,-0.7115956,0
0.5500000000000003,11.958671251806928,-0.03303533396768122,0.663683678562831,-0.7115956079144939,12.201272,-2.1065881,2.052423,-0.36221272,12.042213,-10.406643,2.0661316,0.2951904,-0.22286442,0.38483277,0.845634,-8.212227,1.6941224,0.33903253,-0.033035334,0.66368365,-0.7115956,0
0.5600000000000003,11.75538555146191,0.3259896843397817,-1.093440478033227,-0.6778619181263109,12.744663,-2.324369,1.5402898,-0.42590624,11.960001,-10.389234,2.0693922,0.2968818,-0.2270859,0.38487515,0.8438977,-8.230358,1.7877802,0.31304637,-0.033035334,0.66368365,-0.7115956,0
0.5700000000000003,11.75538555146191,0.3259896843397817,-1.093440478033227,-0.6778619181263109,12.744663,-2.324369,1.5402898,-0.42590624,11.877608,-10.370894,2.0723858,0.3022098,-0.22328773,0.3838494,0.843487,-8.248105,1.879909,0.2857705,0.3259897,-1.0934405,-0.6778619,0
0.5800000000000003,11.75538555146191,0.3259896843397817,-1.093440478033227,-0.6778619181263109,12.744663,-2.324369,1.5402898,-0.42590624,11.795044,-10.351636,2.0751095,0.30752447,-0.21947974,0.38280678,0.8430393,-8.264668,1.9718055,0.259081,0.3259897,-1.0934405,-0.6778619,0
0.5900000000000003,11.75538555146191,0.3259896843397817,-1.093440478033227,-0.6778619181263109,12.744663,-2.324369,1.5402898,-0.42590624,11.712318,-10.33146,2.0775692,0.31282562,-0.21566208,0.38174728,0.84255445,-8.28005,2.063452,0.23297463,0.3259897,-1.0934405,-0.6778619,0
0.6000000000000003,11.89116554163875,0.40924600263416233,-0.5072434978802046,-0.6107982175065005,12.523379,-2.0570881,1.5797671,-0.29711848,11.629447,-10.310369,2.0797708,0.31811297,-0.21183491,0.380671,0.84203243,-8.294252,2.1548312,0.20744799,0.3259897,-1.0934405,-0.6778619,0
0.6100000000000003,11.89116554163875,0.40924600263416233,-0.5072434978802046,-0.6107982175065005,12.523379,-2.0570881,1.5797671,-0.29711848,11.546437,-10.28836,2.0817237,0.32208025,-0.21020886,0.38093647,0.84081084,-8.307587,2.2470958,0.1831676,0.409246,-0.5072435,-0.61079824,0
0.6200000000000003,11.89116554163875,0.40924600263416233,-0.5072434978802046,-0.6107982175065005,12.523379,-2.0570881,1.5797671,-0.29711848,11.463298,-10.265428,2.0834343,0.32604113,-0.20857862,0.38119432,0.8395725,-8.320154,2.3393757,0.15900256,0.409246,-0.5072435,-0.61079824,0
0.6300000000000003,11.89116554163875,0.40924600263416233,-0.5072434978802046,-0.6107982175065005,12.523379,-2.0570881,1.5797671,-0.29711848,11.380036,-10.241572,2.0849044,0.3299955,-0.20694421,0.38144454,0.83831733,-8.331956,2.431664,0.13495332,0.409246,-0.5072435,-0.61079824,0
0.6400000000000003,11.89116554163875,0.40924600263416233,-0.5072434978802046,-0.6107982175065005,12.008588,-2.1266682,1.9819101,-0.29841906,11.296661,-10.216794,2.0861342,0.3339433,-0.20530568,0.38168713,0.8370455,-8.342992,2.5239537,0.11102039,0.409246,-0.5072435,-0.61079824,0
0.6500000000000004,11.89116554163875,0.40924600263416233,-0.5072434978802046,-0.6107982175065005,12.008588,-2.1266682,1.9819101,-0.29841906,11.21318,-10.1910925,2.0871253,0.3378845,-0.20366307,0.3819222,0.83575696,-8.353261,2.6162376,0.087204255,0.409246,-0.5072435,-0.61079824,0
0.6600000000000004,11.89116554163875,0.40924600263416233,-0.5072434978802046,-0.6107982175065005,12.008588,-2.1266682,1.9819101,-0.29841906,11.1296,-10.164469,2.0878787,0.34181887,-0.2020164,0.38214964,0.83445174,-8.362764,2.7085094,0.063505374,0.409246,-0.5072435,-0.61079824,0
0.6700000000000004,11.89116554163875,0.40924600263416233,-0.5072434978802046,-0.6107982175065005,12.008588,-2.1266682,1.9819101,-0.29841906,11.045928,-10.136923,2.0883956,0.34574643,-0.20036568,0.38236946,0.83312994,-8.371502,2.800762,0.0399242,0.409246,-0.5072435,-0.61079824,0
0.6800000000000004,11.798176389729067,0.4829876662907703,-1.051050869686691,-0.5814785048473033,11.528048,-1.1495038,0.9071812,-0.2734626,10.9621725,-10.108454,2.0886774,0.3496671,-0.19871096,0.38258165,0.83179146,-8.379475,2.8929882,0.016461195,0.409246,-0.5072435,-0.61079824,0
0.6900000000000004,11.798176389729067,0.4829876662907703,-1.051050869686691,-0.5814785048473033,11.528048,-1.1495038,0.9071812,-0.2734626,10.878343,-10.079066,2.0887225,0.35456854,-0.19460343,0.38216704,0.83087784,-8.386438,2.9843712,-0.007340633,0.48298767,-1.0510509,-0.5814785,0
0.7000000000000004,11.798176389729067,0.4829876662907703,-1.051050869686691,-0.5814785048473033,11.528048,-1.1495038,0.9071812,-0.2734626,10.794448,-10.048767,2.088532,0.35945508,-0.19048774,0.3817364,0.8299293,-8.392147,3.0754702,-0.030688088,0.48298767,-1.0510509,-0.5814785,0
0.7100000000000004,11.798176389729067,0.4829876662907703,-1.051050869686691,-0.5814785048473033,11.528048,-1.1495038,0.9071812,-0.2734626,10.710504,-10.017558,2.0881104,0.36432657,-0.18636408,0.38128978,0.82894605,-8.396603,3.1662683,-0.053585622,0.48298767,-1.0510509,-0.5814785,0
0.7200000000000004,11.905453740794005,0.480911286149613,-0.672384815438991,-0.5176392377827135,11.434788,-1.1569465,0.9268562,-0.13787657,10.62652,-9.985442,2.0874617,0.3691828,-0.18223262,0.3808272,0.82792807,-8.399808,3.2567487,-0.076037765,0.48298767,-1.0510509,-0.5814785,0
0.7300000000000004,11.905453740794005,0.480911286149613,-0.672384815438991,-0.5176392377827135,11.434788,-1.1569465,0.9268562,-0.13787657,10.542511,-9.952419,2.086594,0.37303975,-0.17954499,0.3811006,0.8266597,-8.401896,3.3477943,-0.097455,0.48091128,-0.6723848,-0.5176392,0
0.7400000000000004,11.905453740794005,0.480911286149613,-0.672384815438991,-0.5176392377827135,11.434788,-1.1569465,0.9268562,-0.13787657,10.458486,-9.918487,2.085513,0.37688783,-0.17685306,0.38136494,0.82537156,-8.403028,3.4387038,-0.11869087,0.48091128,-0.6723848,-0.5176392,0
0.7500000000000004,11.905453740794005,0.480911286149613,-0.672384815438991,-0.5176392377827135,11.434788,-1.1569465,0.9268562,-0.13787657,10.374454,-9.883645,2.0842206,0.3807269,-0.17415693,0.38162023,0.82406384,-8.403202,3.5294676,-0.13974684,0.48091128,-0.6723848,-0.5176392,0
0.7600000000000005,12.012251280285422,0.4127035305813898,-0.7802235878419784,-0.477236704679182,11.156224,-0.89665604,0.47245967,-0.19677788,10.290425,-9.847898,2.0827186,0.38455692,-0.17145666,0.38186646,0.82273656,-8.402421,3.6200767,-0.16062441,0.48091128,-0.6723848,-0.5176392,0
0.7700000000000005,12.012251280285422,0.4127035305813898,-0.7802235878419784,-0.477236704679182,11.156224,-0.89665604,0.47245967,-0.19677788,10.2064085,-9.81124,2.0810122,0.38835877,-0.16836259,0.38165006,0.8216895,-8.400662,3.7112958,-0.18058768,0.41270354,-0.7802236,-0.47723672,0
0.7800000000000005,12.012251280285422,0.4127035305813898,-0.7802235878419784,-0.477236704679182,11.156224,-0.89665604,0.47245967,-0.19677788,10.122415,-9.773672,2.0791078,0.39215085,-0.16526428,0.38142404,0.8206217,-8.397922,3.8022404,-0.2002596,0.41270354,-0.7802236,-0.47723672,0
0.7900000000000005,12.012251280285422,0.4127035305813898,-0.7802235878419784,-0.477236704679182,11.156224,-0.89665604,0.47245967,-0.19677788,10.038453,-9.735196,2.0770082,0.39593306,-0.1621618,0.38118842,0.8195333,-8.394202,3.8929,-0.2196427,0.41270354,-0.7802236,-0.47723672,0
0.8000000000000005,12.148277851322522,0.3364838184288982,-0.4692425929402954,-0.4097633065008789,11.382938,-0.4434465,0.30622348,-0.25881332,9.954535,-9.695815,2.074716,0.39970526,-0.15905523,0.3809432,0.8184242,-8.389506,3.9832647,-0.23873955,0.41270354,-0.7802236,-0.47723672,1
0.8100000000000005,12.148277851322522,0.3364838184288982,-0.4692425929402954,-0.4097633065008789,11.382938,-0.4434465,0.30622348,-0.25881332,9.870663,-9.655555,2.0722134,0.39982662,-0.16168684,0.37953302,0.81850445,-8.384707,4.068712,-0.2617872,-0.4434465,0.30622348,-0.25881332,1
0.8200000000000005,12.148277851322522,0.3364838184288982,-0.4692425929402954,-0.4097633065008789,11.382938,-0.4434465,0.30622348,-0.25881332,9.786837,-9.61444,2.0694804,0.3999444,-0.164317,0.3781195,0.81857735,-8.380519,4.1541467,-0.28478414,-0.4434465,0.30622348,-0.25881332,1
0.8300000000000005,12.148277851322522,0.3364838184288982,-0.4692425929402954,-0.4097633065008789,11.382938,-0.4434465,0.30622348,-0.25881332,9.70305,-9.572471,2.0665178,0.40005863,-0.16694568,0.37670252,0.818643,-8.376941,4.2395673,-0.30773368,-0.4434465,0.30622348,-0.25881332,1
0.8400000000000005,12.148277851322522,0.3364838184288982,-0.4692425929402954,-0.4097633065008789,11.395691,-0.14178202,0.35888922,-0.17011303,9.619294,-9.529647,2.063326,0.4001693,-0.16957286,0.3752822,0.81870127,-8.373976,4.3249726,-0.33063927,-0.4434465,0.30622348,-0.25881332,1
0.8500000000000005,12.148277851322522,0.3364838184288982,-0.4692425929402954,-0.4097633065008789,11.395691,-0.14178202,0.35888922,-0.17011303,9.535567,-9.485969,2.059905,0.40007114,-0.17164448,0.3752748,0.8183208,-8.371532,4.4105206,-0.35349447,-0.14178202,0.35888922,-0.17011303,1
0.8600000000000005,12.148277851322522,0.3364838184288982,-0.4692425929402954,-0.4097633065008789,11.395691,-0.14178202,0.35888922,-0.17011303,9.451862,-9.441436,2.056255,0.3999712,-0.17371534,0.37526575,0.8179367,-8.369471,4.496219,-0.3765101,-0.14178202,0.35888922,-0.17011303,1
0.8700000000000006,12.148277851322522,0.3364838184288982,-0.4692425929402954,-0.4097633065008789,11.395691,-0.14178202,0.35888922,-0.17011303,9.368177,-9.396045,2.0523741,0.39986947,-0.17578542,0.37525502,0.81754905,-8.367788,4.582068,-0.3996878,-0.14178202,0.35888922,-0.17011303,1
0.8800000000000006,12.628120865348542,0.559347244830221,-1.1535580581956626,-0.3669616275255667,11.93869,-0.023137305,-0.772034,-0.040090617,9.284507,-9.349794,2.0482605,0.39976597,-0.17785473,0.37524262,0.8171577,-8.366486,4.6680655,-0.42302918,-0.14178202,0.35888922,-0.17011303,1
0.8900000000000006,12.628120865348542,0.559347244830221,-1.1535580581956626,-0.3669616275255667,11.93869,-0.023137305,-0.772034,-0.040090617,9.200849,-9.302662,2.0439312,0.4013547,-0.17482053,0.37356648,0.8178014,-8.365165,4.758074,-0.44270772,-0.023137305,-0.772034,-0.040090617,1
0.9000000000000006,12.628120865348542,0.559347244830221,-1.1535580581956626,-0.3669616275255667,11.93869,-0.023137305,-0.772034,-0.040090617,9.117206,-9.254634,2.0394082,0.40293744,-0.1717837,0.37188473,0.81843287,-8.3632965,4.8475866,-0.46183276,-0.023137305,-0.772034,-0.040090617,1
0.9100000000000006,12.628120865348542,0.559347244830221,-1.1535580581956626,-0.3669616275255667,11.93869,-0.023137305,-0.772034,-0.040090617,9.033585,-9.205712,2.0346968,0.40451413,-0.1687443,0.37019742,0.81905216,-8.360882,4.936599,-0.48040885,-0.023137305,-0.772034,-0.040090617,1
0.9200000000000006,13.017885835574475,0.7225809859014642,-1.746171244755057,-0.30091858680276373,12.214231,0.24535623,-0.77017325,-0.074237645,8.949989,-9.155904,2.0298023,0.4060848,-0.16570237,0.36850458,0.8196592,-8.357922,5.025106,-0.49844053,-0.023137305,-0.772034,-0.040090617,1
0.9300000000000006,13.017885835574475,0.7225809859014642,-1.746171244755057,-0.30091858680276373,12.214231,0.24535623,-0.77017325,-0.074237645,8.866428,-9.105201,2.024739,0.408008,-0.16218324,0.3678818,0.8196877,-8.354239,5.115182,-0.5141303,0.24535623,-0.77017325,-0.074237645,1
0.9400000000000006,13.017885835574475,0.7225809859014642,-1.746171244755057,-0.30091858680276373,12.214231,0.24535623,-0.77017325,-0.074237645,8.7829075,-9.0536,2.0195208,0.40992454,-0.15866141,0.36725298,0.81970274,-8.349742,5.20486,-0.529428,0.24535623,-0.77017325,-0.074237645,1
0.9500000000000006,13.017885835574475,0.7225809859014642,-1.746171244755057,-0.30091858680276373,12.214231,0.24535623,-0.77017325,-0.074237645,8.699436,-9.001104,2.0141516,0.4118343,-0.15513697,0.3666181,0.8197043,-8.344432,5.294135,-0.5443386,0.24535623,-0.77017325,-0.074237645,1
0.9600000000000006,13.596782247437863,0.5948554154014543,-1.4726589352328094,-0.28155422959165394,11.65819,-0.3823255,0.116266124,0.0021342672,8.616021,-8.947719,2.0086355,0.4137373,-0.15160999,0.3659772,0.8196924,-8.338308,5.383,-0.5588671,0.24535623,-0.77017325,-0.074237645,0
0.9700000000000006,13.596782247437863,0.5948554154014543,-1.4726589352328094,-0.28155422959165394,11.65819,-0.3823255,0.116266124,0.0021342672,8.532677,-8.893395,2.0030236,0.41802347,-0.14485414,0.3651434,0.8191111,-8.330229,5.4813237,-0.5634048,0.5948554,-1.472659,-0.28155422,0
0.9800000000000006,13.596782247437863,0.5948554154014543,-1.4726589352328094,-0.28155422959165394,11.65819,-0.3823255,0.116266124,0.0021342672,8.449423,-8.838094,1.9973698,0.42228246,-0.13808888,0.36428583,0.81847656,-8.32029,5.578803,-0.5672395,0.5948554,-1.472659,-0.28155422,0
0.9900000000000007,13.596782247437863,0.5948554154014543,-1.4726589352328094,-0.28155422959165394,11.65819,-0.3823255,0.116266124,0.0021342672,8.366278,-8.781822,1.9916811,0.42651397,-0.13131462,0.36340457,0.8177888,-8.308498,5.6754084,-0.57039106,0.5948554,-1.472659,-0.28155422,0
1.0000000000000007,13.608257970789568,0.3315952753044534,-1.2928203136476497,-0.19461856571033664,12.350868,-0.8093035,0.9596867,0.13526052,8.28326,-8.724589,1.9859643,0.43071774,-0.12453183,0.36249968,0.8170478,-8.29486,5.7711124,-0.5728795,0.5948554,-1.472659,-0.28155422,0
1.0100000000000007,13.608257970789568,0.3315952753044534,-1.2928203136476497,-0.19461856571033664,12.350868,-0.8093035,0.9596867,0.13526052,8.200387,-8.666404,1.9802263,0.43405268,-0.11888619,0.36094072,0.816814,-8.27953,5.8659754,-0.5746252,0.33159527,-1.2928203,-0.19461857,0
1.0200000000000007,13.608257970789568,0.3315952753044534,-1.2928203136476497,-0.19461856571033664,12.350868,-0.8093035,0.9596867,0.13526052,8.117675,-8.607274,1.9744742,0.4373679,-0.11323514,0.35936534,0.81654304,-8.2627945,5.9599085,-0.5756957,0.33159527,-1.2928203,-0.19461857,0
1.0300000000000007,13.608257970789568,0.3315952753044534,-1.2928203136476497,-0.19461856571033664,12.350868,-0.8093035,0.9596867,0.13526052,8.035136,-8.54721,1.9687147,0.4406632,-0.10757894,0.3577736,0.81623507,-8.2446575,6.052892,-0.576106,0.33159527,-1.2928203,-0.19461857,0
1.0400000000000007,13.608257970789568,0.3315952753044534,-1.2928203136476497,-0.19461856571033664,12.644274,-1.0488262,1.1785595,0.19359487,7.952786,-8.48622,1.9629544,0.44393846,-0.10191785,0.3561656,0.81588995,-8.225125,6.1449084,-0.57587147,0.33159527,-1.2928203,-0.19461857,0
1.0500000000000007,13.608257970789568,0.3315952753044534,-1.2928203136476497,-0.19461856571033664,12.644274,-1.0488262,1.1785595,0.19359487,7.870638,-8.424316,1.9571995,0.44719353,-0.09625212,0.35454136,0.81550765,-8.204204,6.235939,-0.5750075,0.33159527,-1.2928203,-0.19461857,0
1.0600000000000007,13.608257970789568,0.3315952753044534,-1.2928203136476497,-0.19461856571033664,12.644274,-1.0488262,1.1785595,0.19359487,7.7887063,-8.3615055,1.9514562,0.45042828,-0.09058202,0.35290104,0.81508833,-8.181897,6.3259664,-0.57352966,0.33159527,-1.2928203,-0.19461857,0
1.0700000000000007,13.608257970789568,0.3315952753044534,-1.2928203136476497,-0.19461856571033664,12.644274,-1.0488262,1.1785595,0.19359487,7.7070045,-8.297801,1.9457308,0.45364255,-0.0849078,0.3512447,0.8146319,-8.158214,6.414972,-0.57145363,0.33159527,-1.2928203,-0.19461857,0
1.0800000000000007,13.833326303636152,-0.12199115720586,-0.021251108551936515,-0.16310512221651888,11.031063,-1.1366458,2.2876005,-0.7187237,7.625547,-8.2332115,1.940029,0.45683616,-0.079229705,0.34957233,0.8141385,-8.13316,6.502939,-0.56879497,0.33159527,-1.2928203,-0.19461857,0
1.0900000000000007,13.833326303636152,-0.12199115720586,-0.021251108551936515,-0.16310512221651888,11.031063,-1.1366458,2.2876005,-0.7187237,7.544347,-8.167739,1.9343646,0.45748866,-0.07970689,0.3489624,0.8139872,-8.106867,6.5916634,-0.564071,-0.12199116,-0.021251108,-0.16310512,0
1.1000000000000008,13.833326303636152,-0.12199115720586,-0.021251108551936515,-0.16310512221651888,11.031063,-1.1366458,2.2876005,-0.7187237,7.4634094,-8.101378,1.9287479,0.45814067,-0.080184,0.3483521,0.81383497,-8.080692,6.6803107,-0.5592502,-0.12199116,-0.021251108,-0.16310512,0
1.1100000000000008,13.833326303636152,-0.12199115720586,-0.021251108551936515,-0.16310512221651888,11.031063,-1.1366458,2.2876005,-0.7187237,7.3827324,-8.034133,1.9231799,0.4587922,-0.08066101,0.34774145,0.8136819,-8.054637,6.7688804,-0.5543329,-0.12199116,-0.021251108,-0.16310512,0
1.1200000000000008,13.608292095578006,-0.4578306770792993,-0.12624426626196672,-0.05709513655991202,11.427486,-1.2827306,2.2121978,-0.5390999,7.3023167,-7.9660025,1.9176615,0.45944327,-0.08113795,0.34713045,0.813528,-8.028701,6.857373,-0.5493193,-0.12199116,-0.021251108,-0.16310512,0
1.1300000000000008,13.608292095578006,-0.4578306770792993,-0.12624426626196672,-0.05709513655991202,11.427486,-1.2827306,2.2121978,-0.5390999,7.2221565,-7.8969946,1.9121857,0.45970756,-0.08177503,0.34495398,0.81424034,-8.003411,6.944256,-0.54578066,-0.45783067,-0.12624426,-0.057095136,0
1.1400000000000008,13.608292095578006,-0.4578306770792993,-0.12624426626196672,-0.05709513655991202,11.427486,-1.2827306,2.2121978,-0.5390999,7.1422467,-7.827119,1.9067472,0.45996922,-0.08241164,0.34277555,0.8149481,-7.978525,7.030808,-0.5418612,-0.45783067,-0.12624426,-0.057095136,0
1.1500000000000008,13.608292095578006,-0.4578306770792993,-0.12624426626196672,-0.05709513655991202,11.427486,-1.2827306,2.2121978,-0.5390999,7.0625844,-7.75638,1.9013498,0.46022826,-0.083047785,0.3405952,0.81565106,-7.9540453,7.117028,-0.5375634,-0.45783067,-0.12624426,-0.057095136,0
1.1600000000000008,13.815345777198374,-0.8012263552287925,0.7416485539811424,-0.03169968682804391,13.683415,-0.97590816,1.1199859,-0.102859795,6.9831643,-7.68478,1.8959972,0.46048468,-0.08368347,0.33841282,0.8163495,-7.929971,7.2029147,-0.5328896,-0.45783067,-0.12624426,-0.057095136,1
1.1700000000000008,13.815345777198374,-0.8012263552287925,0.7416485539811424,-0.03169968682804391,13.683415,-0.97590816,1.1199859,-0.102859795,6.903982,-7.61232,1.8906957,0.45858836,-0.09067358,0.3369557,0.8172727,-7.906749,7.289289,-0.52743554,-0.97590816,1.1199859,-0.102859795,1
1.1800000000000008,13.815345777198374,-0.8012263552287925,0.7416485539811424,-0.03169968682804391,13.683415,-0.97590816,1.1199859,-0.102859795,6.8250227,-7.5389924,1.8854483,0.45666662,-0.09765867,0.3354799,0.81815064,-7.8854704,7.3762503,-0.52205473,-0.97590816,1.1199859,-0.102859795,1
1.1900000000000008,13.815345777198374,-0.8012263552287925,0.7416485539811424,-0.03169968682804391,13.683415,-0.97590816,1.1199859,-0.102859795,6.746267,-7.4647927,1.8802544,0.4547195,-0.104638346,0.33398548,0.8189832,-7.8661413,7.463781,-0.5167715,-0.97590816,1.1199859,-0.102859795,1
1.2000000000000008,13.43900109044763,-0.774115997041081,-0.6900104473719585,0.06329046253951226,13.110456,-0.7901932,-0.28190634,-0.27111095,6.667694,-7.3897147,1.8751124,0.45274726,-0.11161222,0.33247256,0.81977034,-7.848765,7.5518622,-0.51160985,-0.97590816,1.1199859,-0.102859795,1
1.2100000000000009,13.43900109044763,-0.774115997041081,-0.6900104473719585,0.06329046253951226,13.110456,-0.7901932,-0.28190634,-0.27111095,6.589283,-7.313773,1.8700007,0.45388177,-0.11269511,0.32844102,0.8206196,-7.833526,7.636341,-0.510617,-0.7901932,-0.28190634,-0.27111095,1
1.2200000000000009,13.43900109044763,-0.774115997041081,-0.6900104473719585,0.06329046253951226,13.110456,-0.7901932,-0.28190634,-0.27111095,6.511021,-7.2369895,1.8649021,0.45500746,-0.11377582,0.32440308,0.82145286,-7.8189273,7.7201867,-0.5089922,-0.7901932,-0.28190634,-0.27111095,1
1.2300000000000009,13.43900109044763,-0.774115997041081,-0.6900104473719585,0.06329046253951226,13.110456,-0.7901932,-0.28190634,-0.27111095,6.432902,-7.159371,1.859823,0.4561243,-0.11485431,0.32035884,0.82227015,-7.804972,7.803395,-0.5067433,-0.7901932,-0.28190634,-0.27111095,1
1.2400000000000009,13.43900109044763,-0.774115997041081,-0.6900104473719585,0.06329046253951226,12.990439,-0.64961827,-0.55480146,-0.28503996,6.354919,-7.0809236,1.8547695,0.45723227,-0.11593057,0.3163084,0.8230715,-7.7916636,7.8859615,-0.50387836,-0.7901932,-0.28190634,-0.27111095,1
1.2500000000000009,13.43900109044763,-0.774115997041081,-0.6900104473719585,0.06329046253951226,12.990439,-0.64961827,-0.55480146,-0.28503996,6.2770658,-7.001658,1.8497431,0.45890155,-0.11558213,0.3121982,0.8237605,-7.7789907,7.967068,-0.50129974,-0.64961827,-0.55480146,-0.28503996,1
1.260000000000001,13.43900109044763,-0.774115997041081,-0.6900104473719585,0.06329046253951226,12.990439,-0.64961827,-0.55480146,-0.28503996,6.199338,-6.921585,1.8447459,0.46056154,-0.11523134,0.30808166,0.82443285,-7.7666187,8.0473585,-0.4980319,-0.64961827,-0.55480146,-0.28503996,1
1.270000000000001,13.43900109044763,-0.774115997041081,-0.6900104473719585,0.06329046253951226,12.990439,-0.64961827,-0.55480146,-0.28503996,6.121732,-6.8407135,1.8397847,0.46221218,-0.114878215,0.30395886,0.8250884,-7.754551,8.126826,-0.49408257,-0.64961827,-0.55480146,-0.28503996,1
1.280000000000001,13.83449693428545,-0.9300480580583703,0.15653424620229858,0.11900683746144801,14.239289,-0.8861302,-0.6159915,0.0046998896,6.044246,-6.7590513,1.8348665,0.46385345,-0.11452276,0.29982993,0.8257272,-7.7427917,8.205469,-0.48945946,-0.64961827,-0.55480146,-0.28503996,1
1.290000000000001,13.83449693428545,-0.9300480580583703,0.15653424620229858,0.11900683746144801,14.239289,-0.8861302,-0.6159915,0.0046998896,5.9668813,-6.67657,1.8300476,0.46424335,-0.11402602,0.29474112,0.82740724,-7.7303314,8.290689,-0.47416705,-0.8861302,-0.6159915,0.0046998896,1
1.300000000000001,13.83449693428545,-0.9300480580583703,0.15653424620229858,0.11900683746144801,14.239289,-0.8861302,-0.6159915,0.0046998896,5.8896375,-6.593242,1.8253862,0.46461973,-0.11352596,0.28964373,0.8290632,-7.7184486,8.374797,-0.45798564,-0.8861302,-0.6159915,0.0046998896,1
1.310000000000001,13.83449693428545,-0.9300480580583703,0.15653424620229858,0.11900683746144801,14.239289,-0.8861302,-0.6159915,0.0046998896,5.81251,-6.509078,1.8208908,0.46498257,-0.11302259,0.2845379,0.830695,-7.7071457,8.457782,-0.44092846,-0.8861302,-0.6159915,0.0046998896,1
1.320000000000001,13.479079390278077,-1.01419607886073,-0.27310459162919687,0.24296619472830677,14.48502,-1.0819179,-1.0425665,0.11229056,5.735493,-6.42409,1.8165704,0.46533188,-0.112515934,0.2794238,0.83230263,-7.6964226,8.539636,-0.42300895,-0.8861302,-0.6159915,0.0046998896,0
1.330000000000001,13.479079390278077,-1.01419607886073,-0.27310459162919687,0.24296619472830677,14.48502,-1.0819179,-1.0425665,0.11229056,5.658577,-6.3383107,1.8124021,0.46412504,-0.11339801,0.27470043,0.83442646,-7.6869698,8.616136,-0.41053402,-1.014196,-0.27310458,0.24296619,0
1.340000000000001,13.479079390278077,-1.01419607886073,-0.27310459162919687,0.24296619472830677,14.48502,-1.0819179,-1.0425665,0.11229056,5.5817504,-6.25177,1.8083619,0.4629047,-0.11427678,0.2699691,0.836526,-7.6784616,8.691802,-0.39741138,-1.014196,-0.27310458,0.24296619,0
1.350000000000001,13.479079390278077,-1.01419607886073,-0.27310459162919687,0.24296619472830677,14.48502,-1.0819179,-1.0425665,0.11229056,5.5050044,-6.164477,1.8044561,0.46167088,-0.115152225,0.2652299,0.8386012,-7.670896,8.766626,-0.38365212,-1.014196,-0.27310458,0.24296619,0
1.360000000000001,13.613451413501123,-1.1226736517733844,0.6840653187897522,0.24443537412884145,14.5379715,-0.7383386,-0.52791387,0.22752756,5.4283295,-6.0764403,1.800691,0.46042368,-0.11602433,0.260483,0.84065205,-7.664271,8.840597,-0.36926746,-1.014196,-0.27310458,0.24296619,0
1.370000000000001,13.613451413501123,-1.1226736517733844,0.6840653187897522,0.24443537412884145,14.5379715,-0.7383386,-0.52791387,0.22752756,5.351715,-5.9876637,1.797078,0.45784378,-0.12116317,0.2574749,0.8422613,-7.658843,8.914757,-0.353336,-1.1226736,0.68406534,0.24443537,0
1.380000000000001,13.613451413501123,-1.1226736517733844,0.6840653187897522,0.24443537412884145,14.5379715,-0.7383386,-0.52791387,0.22752756,5.2751465,-5.898145,1.7936248,0.4552434,-0.12629661,0.25445533,0.84383297,-7.655203,8.988894,-0.33731866,-1.1226736,0.68406534,0.24443537,0
1.390000000000001,13.613451413501123,-1.1226736517733844,0.6840653187897522,0.24443537412884145,14.5379715,-0.7383386,-0.52791387,0.22752756,5.198605,-5.8078856,1.790332,0.45262268,-0.1314244,0.25142434,0.84536684,-7.6533504,9.062993,-0.32123286,-1.1226736,0.68406534,0.24443537,0
1.400000000000001,13.09644534249049,-1.0821020272081754,-0.485867820032234,0.2949496049930601,14.207244,-0.8388479,-1.4534098,0.102627456,5.1220737,-5.716885,1.7872003,0.4499817,-0.13654631,0.24838214,0.846863,-7.6532865,9.137035,-0.30509585,-1.1226736,0.68406534,0.24443537,0
1.410000000000001,13.09644534249049,-1.0821020272081754,-0.485867820032234,0.2949496049930601,14.207244,-0.8388479,-1.4534098,0.102627456,5.045535,-5.62516,1.7842093,0.44858903,-0.13655478,0.24290378,0.84918636,-7.6546073,9.207808,-0.29300913,-1.0821021,-0.48586783,0.2949496,0
1.420000000000001,13.09644534249049,-1.0821020272081754,-0.485867820032234,0.2949496049930601,14.207244,-0.8388479,-1.4534098,0.102627456,4.968979,-5.5327334,1.7813425,0.44717956,-0.13655813,0.23741636,0.85147804,-7.6567464,9.277459,-0.2802234,-1.0821021,-0.48586783,0.2949496,0
1.430000000000001,13.09644534249049,-1.0821020272081754,-0.485867820032234,0.2949496049930601,14.207244,-0.8388479,-1.4534098,0.102627456,4.892397,-5.4396152,1.7786071,0.4457534,-0.1365564,0.23192006,0.8537379,-7.6596985,9.345979,-0.26675293,-1.0821021,-0.48586783,0.2949496,0
1.440000000000001,13.09644534249049,-1.0821020272081754,-0.485867820032234,0.2949496049930601,14.275235,-1.0753249,-1.3410388,0.18028253,4.8157816,-5.345818,1.7760098,0.4443106,-0.13654956,0.2264151,0.8559659,-7.66346,9.413354,-0.25261202,-1.0821021,-0.48586783,0.2949496,0
1.450000000000001,13.09644534249049,-1.0821020272081754,-0.485867820032234,0.2949496049930601,14.275235,-1.0753249,-1.3410388,0.18028253,4.7391253,-5.2513523,1.7735571,0.44285122,-0.13653763,0.2209017,0.85816187,-7.668026,9.479573,-0.23781522,-1.0821021,-0.48586783,0.2949496,0
1.460000000000001,13.09644534249049,-1.0821020272081754,-0.485867820032234,0.2949496049930601,14.275235,-1.0753249,-1.3410388,0.18028253,4.6624184,-5.1562304,1.7712556,0.4413753,-0.13652058,0.21538004,0.8603258,-7.6733923,9.544626,-0.22237703,-1.0821021,-0.48586783,0.2949496,0
1.470000000000001,13.09644534249049,-1.0821020272081754,-0.485867820032234,0.2949496049930601,14.275235,-1.0753249,-1.3410388,0.18028253,4.5856543,-5.060464,1.7691118,0.43988287,-0.13649845,0.20985033,0.86245763,-7.6795545,9.6085005,-0.2063122,-1.0821021,-0.48586783,0.2949496,0
1.480000000000001,13.22536779924072,-1.1123265326693919,0.30731532172815623,0.28362633224081535,14.41191,-1.0936725,-1.3250842,0.23111242,4.508825,-4.9640646,1.7671316,0.43837404,-0.13647121,0.20431279,0.8645572,-7.686507,9.671186,-0.1896354,-1.0821021,-0.48586783,0.2949496,0
1.490000000000001,13.22536779924072,-1.1123265326693919,0.30731532172815623,0.28362633224081535,14.41191,-1.0936725,-1.3250842,0.23111242,4.431921,-4.8670406,1.7653264,0.4360673,-0.13994557,0.20036797,0.86609024,-7.6945615,9.733546,-0.17138539,-1.1123265,0.30731532,0.28362632,0
1.500000000000001,13.22536779924072,-1.1123265326693919,0.30731532172815623,0.28362633224081535,14.41191,-1.0936725,-1.3250842,0.23111242,4.354929,-4.7693954,1.7637045,0.4337452,-0.143415,0.19641611,0.86759275,-7.704046,9.795397,-0.1529722,-1.1123265,0.30731532,0.28362632,0
1.5100000000000011,13.22536779924072,-1.1123265326693919,0.30731532172815623,0.28362633224081535,14.41191,-1.0936725,-1.3250842,0.23111242,4.2778354,-4.6711345,1.7622675,0.43140775,-0.14687936,0.19245729,0.8690645,-7.714957,9.856729,-0.1344094,-1.1123265,0.30731532,0.28362632,0
1.5200000000000011,12.66562966386124,-1.0721813833559395,-0.6669251910111089,0.34645534585238813,14.9506235,-1.1843073,-2.2488112,0.17739719,4.2006254,-4.572263,1.7610167,0.42905506,-0.15033852,0.18849169,0.87050563,-7.727293,9.917529,-0.11571047,-1.1123265,0.30731532,0.28362632,0
1.5300000000000011,12.66562966386124,-1.0721813833559395,-0.6669251910111089,0.34645534585238813,14.9506235,-1.1843073,-2.2488112,0.17739719,4.1232886,-4.4728,1.7599295,0.4273605,-0.14940609,0.18265067,0.872742,-7.7401805,9.974928,-0.10164567,-1.0721813,-0.6669252,0.34645534,0
1.5400000000000011,12.66562966386124,-1.0721813833559395,-0.6669251910111089,0.34645534585238813,14.9506235,-1.1843073,-2.2488112,0.17739719,4.0458193,-4.3727694,1.7589859,0.42564765,-0.14846726,0.17680183,0.874941,-7.753658,10.030972,-0.086967126,-1.0721813,-0.6669252,0.34645534,0
1.5500000000000012,12.66562966386124,-1.0721813833559395,-0.6669251910111089,0.34645534585238813,14.9506235,-1.1843073,-2.2488112,0.17739719,3.9682126,-4.272186,1.7581922,0.42391655,-0.14752206,0.17094542,0.8771025,-7.767717,10.085651,-0.071691416,-1.0721813,-0.6669252,0.34645534,0
1.5600000000000012,12.625475276723307,-1.0496829452834766,-0.07353661173443181,0.3261239677485592,13.577445,-1.27648,-1.0840396,0.4103467,3.8904629,-4.171062,1.7575542,0.42216727,-0.14657055,0.1650817,0.8792263,-7.782351,10.138956,-0.055835232,-1.0721813,-0.6669252,0.34645534,0
1.5700000000000012,12.625475276723307,-1.0496829452834766,-0.07353661173443181,0.3261239677485592,13.577445,-1.27648,-1.0840396,0.4103467,3.8125637,-4.0694118,1.7570753,0.4200186,-0.14819157,0.16054845,0.8808216,-7.797665,10.190913,-0.03989112,-1.049683,-0.07353661,0.32612395,0
1.5800000000000012,12.625475276723307,-1.0496829452834766,-0.07353661173443181,0.3261239677485592,13.577445,-1.27648,-1.0840396,0.4103467,3.7345064,-3.9672465,1.7567571,0.41785723,-0.14980808,0.15601033,0.88239014,-7.8139677,10.242018,-0.02369903,-1.049683,-0.07353661,0.32612395,0
1.5900000000000012,12.625475276723307,-1.0496829452834766,-0.07353661173443181,0.3261239677485592,13.577445,-1.27648,-1.0840396,0.4103467,3.6562808,-3.8645742,1.7566022,0.41568315,-0.15142006,0.15146747,0.883932,-7.831254,10.292261,-0.007269957,-1.049683,-0.07353661,0.32612395,0
1.6000000000000012,12.037571291429778,-0.9865392394124564,-1.4242392896912808,0.37835224565280756,13.623924,-1.0304613,-2.1169944,0.37350065,3.5778778,-3.761404,1.7566125,0.41349646,-0.15302743,0.14692003,0.885447,-7.849519,10.341636,0.00938508,-1.049683,-0.07353661,0.32612395,0
1.6100000000000012,12.037571291429778,-0.9865392394124564,-1.4242392896912808,0.37835224565280756,13.623924,-1.0304613,-2.1169944,0.37350065,3.4992926,-3.657757,1.7567645,0.4120966,-0.14847776,0.13989161,0.8880089,-7.867466,10.387471,0.021134619,-0.98653924,-1.4242393,0.37835225,0
1.6200000000000012,12.037571291429778,-0.9865392394124564,-1.4242392896912808,0.37835224565280756,13.623924,-1.0304613,-2.1169944,0.37350065,3.4205287,-3.5536613,1.757038,0.4106643,-0.14391641,0.13285218,0.8905009,-7.8852773,10.431388,0.03368766,-0.98653924,-1.4242393,0.37835225,0
1.6300000000000012,12.037571291429778,-0.9865392394124564,-1.4242392896912808,0.37835224565280756,13.623924,-1.0304613,-2.1169944,0.37350065,3.3415875,-3.4491363,1.7574409,0.4091997,-0.13934374,0.12580231,0.8929229,-7.902939,10.473372,0.047011852,-0.98653924,-1.4242393,0.37835225,0
1.6400000000000012,12.037571291429778,-0.9865392394124564,-1.4242392896912808,0.37835224565280756,13.665078,-1.1077789,-2.1952858,0.4975831,3.2624707,-3.3442006,1.7579808,0.40770295,-0.13476011,0.118742555,0.8952747,-7.9204373,10.513413,0.061074644,-0.98653924,-1.4242393,0.37835225,0
1.6500000000000012,12.037571291429778,-0.9865392394124564,-1.4242392896912808,0.37835224565280756,13.665078,-1.1077789,-2.1952858,0.4975831,3.1831794,-3.2388744,1.7586648,0.40617415,-0.13016587,0.11167346,0.8975561,-7.93776,10.551499,0.075843215,-0.98653924,-1.4242393,0.37835225,0
1.6600000000000013,12.037571291429778,-0.9865392394124564,-1.4242392896912808,0.37835224565280756,13.665078,-1.1077789,-2.1952858,0.4975831,3.103716,-3.1331773,1.7594998,0.4046134,-0.12556142,0.104595594,0.899767,-7.954894,10.587622,0.09128453,-0.98653924,-1.4242393,0.37835225,0
1.6700000000000013,12.037571291429778,-0.9865392394124564,-1.4242392896912808,0.37835224565280756,13.665078,-1.1077789,-2.1952858,0.4975831,3.0240822,-3.0271287,1.7604926,0.40302086,-0.120947085,0.0975095,0.9019071,-7.9718266,10.621769,0.107365355,-0.98653924,-1.4242393,0.37835225,0
1.6800000000000013,11.984880156098829,-0.8930148395968369,-0.05353424231377269,0.3725099881691398,13.153096,-1.0714248,-3.6254196,0.39787668,2.9442801,-2.920749,1.7616491,0.40139666,-0.116323255,0.09041573,0.9039763,-7.988545,10.653932,0.12405225,-0.98653924,-1.4242393,0.37835225,0
1.6900000000000013,11.984880156098829,-0.8930148395968369,-0.05353424231377269,0.3725099881691398,13.153096,-1.0714248,-3.6254196,0.39787668,2.8643112,-2.8140566,1.7629726,0.39921308,-0.11770377,0.08648758,0.9051482,-8.005335,10.684432,0.14063221,-0.89301485,-0.053534243,0.37251,0
1.7000000000000013,11.984880156098829,-0.8930148395968369,-0.05353424231377269,0.3725099881691398,13.153096,-1.0714248,-3.6254196,0.39787668,2.7841706,-2.707063,1.7644622,0.3970201,-0.119081534,0.082557395,0.9062988,-8.022879,10.714175,0.15729825,-0.89301485,-0.053534243,0.37251,0
1.7100000000000013,11.984880156098829,-0.8930148395968369,-0.05353424231377269,0.3725099881691398,13.153096,-1.0714248,-3.6254196,0.39787668,2.703851,-2.5997756,1.7661189,0.39481783,-0.120456494,0.07862528,0.90742815,-8.041172,10.7431555,0.17404231,-0.89301485,-0.053534243,0.37251,0
1.7200000000000013,11.435855717689554,-0.7664605087404127,-0.8558356737208105,0.41019910460496994,13.519113,-1.7201074,-4.658471,0.4305976,2.6233447,-2.4922023,1.7679433,0.39260626,-0.12182862,0.0746913,0.9085362,-8.06021,10.771368,0.19085632,-0.89301485,-0.053534243,0.37251,0
1.7300000000000013,11.435855717689554,-0.7664605087404127,-0.8558356737208105,0.41019910460496994,13.519113,-1.7201074,-4.658471,0.4305976,2.5426495,-2.3843575,1.7699101,0.39058828,-0.11928998,0.069777995,0.91013205,-8.078815,10.797349,0.2025587,-0.76646054,-0.8558357,0.4101991,0
1.7400000000000013,11.435855717689554,-0.7664605087404127,-0.8558356737208105,0.41019910460496994,13.519113,-1.7201074,-4.658471,0.4305976,2.4617684,-2.2762594,1.7719955,0.3885558,-0.1167469,0.06486209,0.91169405,-8.097406,10.822049,0.2145583,-0.76646054,-0.8558357,0.4101991,0
1.7500000000000013,11.435855717689554,-0.7664605087404127,-0.8558356737208105,0.41019910460496994,13.519113,-1.7201074,-4.658471,0.4305976,2.3807013,-2.1679208,1.7742025,0.38650885,-0.114199474,0.05994377,0.9132222,-8.115977,10.845468,0.22684143,-0.76646054,-0.8558357,0.4101991,0
1.7600000000000013,11.215132377128219,-0.6246001383243984,-0.2532002754949059,0.39555924407284554,13.853397,-1.8304605,-3.451468,0.92461866,2.2994487,-2.0593545,1.7765334,0.3844475,-0.1116478,0.05502322,0.9147163,-8.13452,10.867601,0.23939437,-0.76646054,-0.8558357,0.4101991,0
1.7700000000000014,11.215132377128219,-0.6246001383243984,-0.2532002754949059,0.39555924407284554,13.853397,-1.8304605,-3.451468,0.92461866,2.2180126,-1.9505749,1.7789803,0.3823564,-0.11158072,0.051900253,0.9157828,-8.152797,10.88826,0.2500003,-0.6246001,-0.25320026,0.39555925,0
1.7800000000000014,11.215132377128219,-0.6246001383243984,-0.2532002754949059,0.39555924407284554,13.853397,-1.8304605,-3.451468,0.92461866,2.1363919,-1.8415918,1.7815337,0.3802595,-0.11151194,0.048776496,0.91683537,-8.171379,10.908232,0.26068285,-0.6246001,-0.25320026,0.39555925,0
1.7900000000000014,11.215132377128219,-0.6246001383243984,-0.2532002754949059,0.39555924407284554,13.853397,-1.8304605,-3.451468,0.92461866,2.0545838,-1.7324126,1.7841942,0.37815678,-0.11144145,0.04565199,0.9178739,-8.190264,10.927515,0.27143782,-0.6246001,-0.25320026,0.39555925,0
1.8000000000000014,10.768122301122888,-0.5520774557326121,-1.428327035779629,0.4073383491515002,13.619993,-1.3109351,-4.952583,0.591566,1.9725856,-1.623044,1.7869626,0.37604833,-0.11136926,0.042526793,0.91889846,-8.209446,10.946107,0.2822609,-0.6246001,-0.25320026,0.39555925,0
1.8100000000000014,10.768122301122888,-0.5520774557326121,-1.428327035779629,0.4073383491515002,13.619993,-1.3109351,-4.952583,0.591566,1.8903989,-1.5134974,1.7898183,0.37416133,-0.10575481,0.03753022,0.9205482,-8.227797,10.962991,0.28891408,-0.5520775,-1.4283271,0.40733835,0
1.8200000000000014,10.768122301122888,-0.5520774557326121,-1.428327035779629,0.4073383491515002,13.619993,-1.3109351,-4.952583,0.591566,1.8080319,-1.4037893,1.7927421,0.37225083,-0.10013372,0.03253129,0.9221402,-8.24549,10.9784,0.29590693,-0.5520775,-1.4283271,0.40733835,0
1.8300000000000014,10.768122301122888,-0.5520774557326121,-1.428327035779629,0.4073383491515002,13.619993,-1.3109351,-4.952583,0.591566,1.7254913,-1.2939343,1.7957374,0.37031695,-0.094506346,0.02753032,0.9236743,-8.262515,10.992335,0.30321544,-0.5520775,-1.4283271,0.40733835,0
1.8400000000000014,10.768122301122888,-0.5520774557326121,-1.428327035779629,0.4073383491515002,13.46607,-1.3939499,-4.9057217,1.2038537,1.6427839,-1.1839476,1.7988074,0.36835986,-0.088873036,0.02252762,0.92515045,-8.278863,11.004795,0.31081545,-0.5520775,-1.4283271,0.40733835,0
1.8500000000000014,10.768122301122888,-0.5520774557326121,-1.428327035779629,0.4073383491515002,13.46607,-1.3939499,-4.9057217,1.2038537,1.5599165,-1.0738435,1.8019547,0.36637962,-0.08323415,0.017523507,0.92656845,-8.294523,11.015781,0.31868282,-0.5520775,-1.4283271,0.40733835,0
1.8600000000000014,10.768122301122888,-0.5520774557326121,-1.428327035779629,0.4073383491515002,13.46607,-1.3939499,-4.9057217,1.2038537,1.4768958,-0.963637,1.805182,0.36437643,-0.07759005,0.012518294,0.92792827,-8.309488,11.025292,0.32679322,-0.5520775,-1.4283271,0.40733835,0
1.8700000000000014,10.768122301122888,-0.5520774557326121,-1.428327035779629,0.4073383491515002,13.46607,-1.3939499,-4.9057217,1.2038537,1.3937291,-0.8533428,1.8084913,0.36235034,-0.07194107,0.0075122956,0.9292299,-8.323745,11.03333,0.3351224,-0.5520775,-1.4283271,0.40733835,0
1.8800000000000014,10.58975610188102,-0.44321350173507634,-0.12323207370199424,0.4007143712018352,12.389496,-1.625077,-3.8718226,0.75075585,1.3104233,-0.74297553,1.811885,0.3603015,-0.06628758,0.0025058254,0.93047327,-8.337285,11.039895,0.34364593,-0.5520775,-1.4283271,0.40733835,0
1.8900000000000015,10.58975610188102,-0.44321350173507634,-0.12323207370199424,0.4007143712018352,12.389496,-1.625077,-3.8718226,0.75075585,1.2269858,-0.63254935,1.8153559,0.35829026,-0.066507384,0.0003546339,0.9312373,-8.350239,11.045283,0.35050985,-0.4432135,-0.123232074,0.40071437,0
1.9000000000000015,10.58975610188102,-0.44321350173507634,-0.12323207370199424,0.4007143712018352,12.389496,-1.625077,-3.8718226,0.75075585,1.1434177,-0.52207136,1.8188955,0.35627568,-0.066726565,-0.0017965611,0.93199253,-8.363411,11.050237,0.35736814,-0.4432135,-0.123232074,0.40071437,0
1.9100000000000015,10.58975610188102,-0.44321350173507634,-0.12323207370199424,0.4007143712018352,12.389496,-1.625077,-3.8718226,0.75075585,1.0597169,-0.41154608,1.8225033,0.35425776,-0.06694513,-0.003947739,0.93273914,-8.376797,11.054753,0.3642189,-0.4432135,-0.123232074,0.40071437,0
1.9200000000000015,10.293540178135181,-0.38573492821997696,-0.25926891179767914,0.42024145096764015,13.0758505,-1.9157346,-4.856323,1.4790683,0.97588104,-0.30097783,1.8261797,0.3522365,-0.067163065,-0.0060988804,0.9334771,-8.390396,11.058832,0.37106007,-0.4432135,-0.123232074,0.40071437,0
1.9300000000000015,10.293540178135181,-0.38573492821997696,-0.25926891179767914,0.42024145096764015,13.0758505,-1.9157346,-4.856323,1.4790683,0.89191025,-0.19037154,1.8299098,0.35013592,-0.06664479,-0.008214717,0.93428797,-8.4037695,11.062351,0.37496233,-0.38573492,-0.2592689,0.42024145,0
1.9400000000000015,10.293540178135181,-0.38573492821997696,-0.25926891179767914,0.42024145096764015,13.0758505,-1.9157346,-4.856323,1.4790683,0.8078054,-0.07973243,1.833679,0.34803188,-0.06612586,-0.010330473,0.93508965,-8.417202,11.065397,0.3788719,-0.38573492,-0.2592689,0.42024145,0
1.9500000000000015,10.293540178135181,-0.38573492821997696,-0.25926891179767914,0.42024145096764015,13.0758505,-1.9157346,-4.856323,1.4790683,0.723566,0.03093477,1.8374872,0.34592444,-0.06560629,-0.012446128,0.93588215,-8.430694,11.067968,0.38278684,-0.38573492,-0.2592689,0.42024145,0
1.9600000000000015,10.197157112536656,-0.34529612427370604,0.673676424754795,0.40175641036974097,12.326832,-1.585647,-3.6308923,0.7109658,0.6391913,0.1416253,1.8413347,0.34381357,-0.06508607,-0.014561661,0.9366655,-8.444242,11.070065,0.38670525,-0.38573492,-0.2592689,0.42024145,0
1.9700000000000015,10.197157112536656,-0.34529612427370604,0.673676424754795,0.40175641036974097,12.326832,-1.585647,-3.6308923,0.7109658,0.55468076,0.25233504,1.8452165,0.34186554,-0.06886335,-0.014889821,0.9371032,-8.457975,11.071912,0.38963065,-0.3452961,0.67367643,0.4017564,0
1.9800000000000015,10.197157112536656,-0.34529612427370604,0.673676424754795,0.40175641036974097,12.326832,-1.585647,-3.6308923,0.7109658,0.4700292,0.36306414,1.849127,0.33991125,-0.07263936,-0.015217708,0.9375237,-8.472454,11.073932,0.3924487,-0.3452961,0.67367643,0.4017564,0
1.9900000000000015,10.197157112536656,-0.34529612427370604,0.673676424754795,0.40175641036974097,12.326832,-1.585647,-3.6308923,0.7109658,0.38522914,0.47381428,1.8530651,0.33795068,-0.07641404,-0.015545316,0.9379269,-8.487677,11.076119,0.3951536,-0.3452961,0.67367643,0.4017564,0
2.0000000000000013,,,,,12.390843,-1.667465,-4.0982556,1.4312656,0.30027315,0.5845871,1.8570298,0.3359839,-0.08018731,-0.015872639,0.9383129,-8.503644,11.078474,0.39773953,-0.3452961,0.67367643,0.4017564,0
2.010000000000001,,,,,12.390843,-1.667465,-4.0982556,1.4312656,0.21515585,0.6953834,1.8610111,0.33373666,-0.07968598,-0.018099945,0.9391169,-8.519818,11.080706,0.39853442,-0.41778323,-0.2637789,0.43843755,0
2.020000000000001,,,,,12.390843,-1.667465,-4.0982556,1.4312656,0.12987654,0.80619955,1.8650004,0.3314858,-0.07918377,-0.020327054,0.93991065,-8.536054,11.082445,0.39932945,-0.41778323,-0.2637789,0.43843755,0
2.0300000000000007,,,,,12.390843,-1.667465,-4.0982556,1.4312656,0.044434585,0.9170306,1.8689977,0.32923132,-0.0786807,-0.022553943,0.94069415,-8.552345,11.083693,0.40012252,-0.41778323,-0.2637789,0.43843755,0
2.0400000000000005,,,,,12.390843,-1.667465,-4.0982556,1.4312656,-0.041170556,1.0278716,1.8730029,0.32697326,-0.078176774,-0.024780586,0.9414674,-8.568691,11.084448,0.40091163,-0.41778323,-0.2637789,0.43843755,0
2.0500000000000003,,,,,12.845005,-1.5319905,-3.1671598,1.8397912,-0.12693942,1.1387178,1.877016,0.32471162,-0.077672,-0.027006958,0.9422304,-8.58509,11.08471,0.40169466,-0.41778323,-0.2637789,0.43843755,1
2.06,,,,,12.845005,-1.5319905,-3.1671598,1.8397912,-0.21289341,1.2495601,1.8811762,0.3149581,-0.06547223,-0.03864588,0.94605464,-8.605396,11.083135,0.43041342,-1.5319905,-3.1671598,1.8397912,1
2.07,,,,,12.845005,-1.5319905,-3.1671598,1.8397912,-0.29904026,1.3603665,1.8856249,0.30508047,-0.053246666,-0.050269566,0.9495061,-8.623651,11.077539,0.45933017,-1.5319905,-3.1671598,1.8397912,1
2.0799999999999996,,,,,12.845005,-1.5319905,-3.1671598,1.8397912,-0.38535902,1.4710971,1.8903631,0.29508263,-0.04100012,-0.06187345,0.9525834,-8.639759,11.067968,0.48829985,-1.5319905,-3.1671598,1.8397912,1
2.0899999999999994,,,,,13.320059,-0.44959292,-1.9459049,1.8101407,-0.47182778,1.5817124,1.8953905,0.2849685,-0.028737418,-0.07345295,0.9552853,-8.65363,11.054471,0.5171773,-1.5319905,-3.1671598,1.8397912,1
2.099999999999999,,,,,13.320059,-0.44959292,-1.9459049,1.8101407,-0.5584265,1.6921725,1.9007294,0.27551764,-0.020745978,-0.0781061,0.9578921,-8.665825,11.037246,0.5505931,-0.44959292,-1.9459049,1.8101407,1
2.109999999999999,,,,,13.320059,-0.44959292,-1.9459049,1.8101407,-0.6451378,1.802451,1.906402,0.26601675,-0.01275077,-0.08274506,0.96032494,-8.676143,11.018138,0.5839095,-0.44959292,-1.9459049,1.8101407,1
2.1199999999999988,,,,,13.320059,-0.44959292,-1.9459049,1.8101407,-0.7319428,1.9125291,1.9124072,0.25646755,-0.004753246,-0.087368995,0.96258336,-8.684545,10.9971895,0.61708176,-0.44959292,-1.9459049,1.8101407,1
2.1299999999999986,,,,,15.422359,-0.30786952,-4.092657,1.9090531,-0.818822,2.0223887,1.9187431,0.24687174,0.0032451411,-0.09197706,0.9646669,-8.690995,10.9744425,0.6500649,-0.44959292,-1.9459049,1.8101407,1
2.1399999999999983,,,,,15.422359,-0.30786952,-4.092657,1.9090531,-0.9057563,2.1319914,1.9255108,0.2357243,0.021725021,-0.09852068,0.9665681,-8.695032,10.945565,0.70339656,-0.30786952,-4.092657,1.9090531,1
2.149999999999998,,,,,15.422359,-0.30786952,-4.092657,1.9090531,-0.9927042,2.2412887,1.9328089,0.22445613,0.040193774,-0.10501384,0.96797425,-8.693691,10.913407,0.75611377,-0.30786952,-4.092657,1.9090531,1
2.159999999999998,,,,,15.422359,-0.30786952,-4.092657,1.9090531,-1.0796115,2.3502488,1.9406302,0.213073,0.058641933,-0.111453205,0.9688845,-8.686914,10.878123,0.8079834,-0.30786952,-4.092657,1.9090531,1
2.1699999999999977,,,,,13.347428,-1.1551387,-2.3478708,1.9969745,-1.1664237,2.458841,1.948965,0.20158072,0.07706006,-0.1178355,0.96929866,-8.67465,10.839876,0.8587743,-0.30786952,-4.092657,1.9090531,1
