time-since-start [s],throttle_mpc,roll_mpc,pitch_mpc,yaw_mpc,throttle_nw,roll_nw,pitch_nw,yaw_nw,position_x [m],position_y [m],position_z [m],rotation_w [quaternion],rotation_x [quaternion],rotation_y [quaternion],rotation_z [quaternion],velocity_x [m/s],velocity_y [m/s],velocity_z [m/s],omega_x [rad/s],omega_y [rad/s],omega_z [rad/s],network_used
0.0,6.232789902895742,1.3855775029040687,-5.999993405205783,0.23824245925564733,11.4027605,-0.026529163,1.8439447,0.29223013,11.269273,-7.075402,1.7777624,0.37744662,-0.13045914,0.036251187,0.91607875,-2.0270457,0.429316,1.3014181,-0.0896947,-0.9398634,-0.97604316,0
0.01,6.232789902895742,1.3855775029040687,-5.999993405205783,0.23824245925564733,10.214239,0.8732145,0.20211785,0.011576071,11.24894,-7.071059,1.7905873,0.37816742,-0.10026157,0.031413257,0.9197555,-2.03905,0.43886486,1.2637194,1.3855776,-5.9999933,0.23824246,0
0.02,6.232789902895742,1.3855775029040687,-5.999993405205783,0.23824245925564733,10.214239,0.8732145,0.20211785,0.011576071,11.228502,-7.0666313,1.8030396,0.37852922,-0.069968805,0.0265455,0.92255914,-2.0478597,0.44645432,1.2268438,1.3855776,-5.9999933,0.23824246,0
0.03,6.232789902895742,1.3855775029040687,-5.999993405205783,0.23824245925564733,10.214239,0.8732145,0.20211785,0.011576071,11.207993,-7.062137,1.8151261,0.37853166,-0.039609622,0.021652542,0.92448694,-2.0534365,0.45206335,1.1905584,1.3855776,-5.9999933,0.23824246,0
0.04,6.232789902895742,1.3855775029040687,-5.999993405205783,0.23824245925564733,10.05909,0.17145549,0.2514234,-0.27658916,11.187444,-7.057597,1.8268517,0.37817475,-0.009212835,0.01673903,0.92553705,-2.0557544,0.45567852,1.1546289,1.3855776,-5.9999933,0.23824246,0
0.05,6.232789902895742,1.3855775029040687,-5.999993405205783,0.23824245925564733,10.05909,0.17145549,0.2514234,-0.27658916,11.166889,-7.0530305,1.8382189,0.3774588,0.0211927,0.011809623,0.92570853,-2.0548,0.45729393,1.1188194,1.3855776,-5.9999933,0.23824246,0
0.060000000000000005,6.232789902895742,1.3855775029040687,-5.999993405205783,0.23824245925564733,10.05909,0.17145549,0.2514234,-0.27658916,11.146359,-7.048458,1.8492275,0.37638453,0.051578116,0.0068690074,0.9250012,-2.0505722,0.45691118,1.0828934,1.3855776,-5.9999933,0.23824246,0
0.07,6.232789902895742,1.3855775029040687,-5.999993405205783,0.23824245925564733,10.05909,0.17145549,0.2514234,-0.27658916,11.125889,-7.0438995,1.8598756,0.37495294,0.08191457,0.00192187,0.9234158,-2.0430822,0.45453954,1.0466148,1.3855776,-5.9999933,0.23824246,0
0.08,7.200560360126326,0.9451362827762879,-4.602842446640614,0.0747176566453818,10.556706,-0.14130378,2.1998467,-0.6194835,11.105509,-7.039374,1.870158,0.3731654,0.11217326,-0.0030270917,0.9209537,-2.0323539,0.45019582,1.009749,1.3855776,-5.9999933,0.23824246,0
0.09,7.200560360126326,0.9451362827762879,-4.602842446640614,0.0747176566453818,10.556706,-0.14130378,2.1998467,-0.6194835,11.085261,-7.0349064,1.880115,0.37211865,0.13509753,-0.0073037427,0.9182718,-2.0166018,0.44309872,0.9815448,0.9451363,-4.6028423,0.074717656,0
0.09999999999999999,7.200560360126326,0.9451362827762879,-4.602842446640614,0.0747176566453818,10.556706,-0.14130378,2.1998467,-0.6194835,11.065186,-7.030518,1.8897858,0.37086648,0.15794723,-0.011576361,0.9150829,-1.9981039,0.43423295,0.9524602,0.9451363,-4.6028423,0.074717656,0
0.10999999999999999,7.200560360126326,0.9451362827762879,-4.602842446640614,0.0747176566453818,10.556706,-0.14130378,2.1998467,-0.6194835,11.045308,-7.0262275,1.8991606,0.36940953,0.18070972,-0.01584259,0.91138875,-1.9768993,0.4236202,0.9223429,0.9451363,-4.6028423,0.074717656,0
0.11999999999999998,7.200560360126326,0.9451362827762879,-4.602842446640614,0.0747176566453818,10.556706,-0.14130378,2.1998467,-0.6194835,11.025656,-7.0220513,1.9082286,0.36774865,0.20337242,-0.020100072,0.90719146,-1.9530337,0.41128606,0.8910427,0.9451363,-4.6028423,0.074717656,0
0.12999999999999998,7.786062879174634,0.2592877061545718,1.936314001108824,-0.019648093501491513,10.217116,0.20686296,2.6493185,-0.482504,11.006257,-7.0180073,1.9169769,0.36588472,0.22592285,-0.024346458,0.9024933,-1.9265583,0.3972599,0.858412,0.9451363,-4.6028423,0.074717656,0
0.13999999999999999,7.786062879174634,0.2592877061545718,1.936314001108824,-0.019648093501491513,10.217116,0.20686296,2.6493185,-0.482504,10.987143,-7.014115,1.9254203,0.36589873,0.21765138,-0.019610813,0.9046331,-1.8965014,0.3813893,0.83036065,0.25928771,1.936314,-0.019648094,0
0.15,7.786062879174634,0.2592877061545718,1.936314001108824,-0.019648093501491513,10.217116,0.20686296,2.6493185,-0.482504,10.968325,-7.010375,1.9335862,0.36587784,0.20935915,-0.014873296,0.9066866,-1.8672689,0.3666508,0.80290294,0.25928771,1.936314,-0.019648094,0
0.16,8.134265147270145,-0.1264397289727323,5.7220535377080015,-0.034774985919472944,11.873521,-0.8201712,2.9928007,-0.30839536,10.949794,-7.0067773,1.9414803,0.36582202,0.20104696,-0.010134359,0.9086536,-1.8388717,0.35305014,0.7760118,0.25928771,1.936314,-0.019648094,0
0.17,8.134265147270145,-0.1264397289727323,5.7220535377080015,-0.034774985919472944,11.873521,-0.8201712,2.9928007,-0.30839536,10.931547,-7.0033107,1.9491256,0.36624718,0.1747419,-0.00020479062,0.9139628,-1.8109281,0.34071675,0.7532907,-0.12643974,5.7220535,-0.034774985,0
0.18000000000000002,8.134265147270145,-0.1264397289727323,5.7220535377080015,-0.034774985919472944,11.873521,-0.8201712,2.9928007,-0.30839536,10.913564,-6.999953,1.9565516,0.3663724,0.1482937,0.009724944,0.9185235,-1.7861634,0.33141845,0.732101,-0.12643974,5.7220535,-0.034774985,0
0.19000000000000003,8.134265147270145,-0.1264397289727323,5.7220535377080015,-0.034774985919472944,11.873521,-0.8201712,2.9928007,-0.30839536,10.895812,-6.996672,1.9637722,0.36619762,0.12172409,0.019646715,0.922332,-1.7646579,0.32518697,0.71219057,-0.12643974,5.7220535,-0.034774985,0
0.20000000000000004,8.190996267664532,-0.29447419793978685,5.999786385718304,-0.07482850086623734,11.128209,-0.023916766,3.818367,-0.61311644,10.878259,-6.9934382,1.9707989,0.36572292,0.0950548,0.029552396,0.9253852,-1.7464808,0.3220439,0.6933032,-0.12643974,5.7220535,-0.034774985,0
0.21000000000000005,8.190996267664532,-0.29447419793978685,5.999786385718304,-0.07482850086623734,11.128209,-0.023916766,3.818367,-0.61311644,10.86087,-6.9902196,1.9776436,0.36515766,0.066706076,0.03918197,0.92772555,-1.7316834,0.3220211,0.6757537,-0.29447418,5.9997864,-0.0748285,0
0.22000000000000006,8.190996267664532,-0.29447419793978685,5.999786385718304,-0.07482850086623734,11.128209,-0.023916766,3.818367,-0.61311644,10.843612,-6.9869857,1.9843159,0.36426297,0.038297173,0.048776194,0.92922896,-1.7206017,0.32517707,0.6587375,-0.29447418,5.9997864,-0.0748285,0
0.23000000000000007,8.190996267664532,-0.29447419793978685,5.999786385718304,-0.07482850086623734,11.128209,-0.023916766,3.818367,-0.61311644,10.826446,-6.983705,1.9908195,0.36303964,0.009853717,0.058326412,0.92989403,-1.7132734,0.33150324,0.64196175,-0.29447418,5.9997864,-0.0748285,0
0.24000000000000007,8.190996267664532,-0.29447419793978685,5.999786385718304,-0.07482850086623734,11.275584,0.6713485,1.2938907,-0.5795544,10.809333,-6.9803452,1.9971551,0.3614888,-0.018598627,0.067824006,0.92972016,-1.7097225,0.34097955,0.6251326,-0.29447418,5.9997864,-0.0748285,0
0.25000000000000006,8.190996267664532,-0.29447419793978685,5.999786385718304,-0.07482850086623734,11.275584,0.6713485,1.2938907,-0.5795544,10.792237,-6.976875,2.003321,0.3596118,-0.047034197,0.07726042,0.92870754,-1.7099596,0.35357463,0.6079564,-0.29447418,5.9997864,-0.0748285,0
0.26000000000000006,8.190996267664532,-0.29447419793978685,5.999786385718304,-0.07482850086623734,11.275584,0.6713485,1.2938907,-0.5795544,10.775122,-6.9732633,2.0093122,0.35741037,-0.07542733,0.08662712,0.926857,-1.7139815,0.36924586,0.5901409,-0.29447418,5.9997864,-0.0748285,0
0.2700000000000001,8.190996267664532,-0.29447419793978685,5.999786385718304,-0.07482850086623734,11.275584,0.6713485,1.2938907,-0.5795544,10.757945,-6.96948,2.0151207,0.35488653,-0.10375241,0.09591567,0.9241703,-1.7217712,0.38793948,0.57139593,-0.29447418,5.9997864,-0.0748285,0
0.2800000000000001,8.294042048138998,-0.4296629062050539,5.459486625613497,-0.12451619457323523,10.88825,0.40423983,1.3474481,-0.26562884,10.740672,-6.9654946,2.020736,0.35204247,-0.13198389,0.10511769,0.9206499,-1.7332983,0.4095909,0.5514348,-0.29447418,5.9997864,-0.0748285,0
0.2900000000000001,8.294042048138998,-0.4296629062050539,5.459486625613497,-0.12451619457323523,10.88825,0.40423983,1.3474481,-0.26562884,10.723266,-6.961277,2.0261493,0.34933093,-0.15788426,0.112627156,0.9167089,-1.7486192,0.4343003,0.53100216,-0.4296629,5.4594865,-0.1245162,0
0.3000000000000001,8.294042048138998,-0.4296629062050539,5.459486625613497,-0.12451619457323523,10.88825,0.40423983,1.3474481,-0.26562884,10.7056875,-6.9568,2.0313506,0.3463574,-0.1836662,0.120052144,0.9120802,-1.7673844,0.46149707,0.50896597,-0.4296629,5.4594865,-0.1245162,0
0.3100000000000001,8.294042048138998,-0.4296629062050539,5.459486625613497,-0.12451619457323523,10.88825,0.40423983,1.3474481,-0.26562884,10.687906,-6.9520392,2.0363226,0.34312406,-0.20931037,0.12738709,0.9067674,-1.789534,0.49110407,0.4850975,-0.4296629,5.4594865,-0.1245162,0
0.3200000000000001,8.3899560083193,-0.5225222917660228,4.145555642024089,-0.1798347323708525,8.644472,0.15746042,0.9782475,-0.20490178,10.669887,-6.9469705,2.0410457,0.33963332,-0.23479754,0.13462648,0.90077454,-1.8149979,0.52303684,0.4591735,-0.4296629,5.4594865,-0.1245162,0
0.3300000000000001,8.3899560083193,-0.5225222917660228,4.145555642024089,-0.1798347323708525,8.644472,0.15746042,0.9782475,-0.20490178,10.651595,-6.94157,2.045503,0.33696526,-0.2544242,0.13907206,0.8957575,-1.8437798,0.5573558,0.43201002,-0.5225223,4.1455555,-0.17983474,0
0.34000000000000014,8.3899560083193,-0.5225222917660228,4.145555642024089,-0.1798347323708525,8.644472,0.15746042,0.9782475,-0.20490178,10.633003,-6.935818,2.0496795,0.33414987,-0.27393964,0.14345685,0.89034873,-1.875102,0.59321326,0.40298492,-0.5225223,4.1455555,-0.17983474,0
0.35000000000000014,8.3899560083193,-0.5225222917660228,4.145555642024089,-0.1798347323708525,8.644472,0.15746042,0.9782475,-0.20490178,10.614085,-6.9297004,2.053556,0.33118835,-0.2933353,0.14777888,0.88455063,-1.9089061,0.6305516,0.37197667,-0.5225223,4.1455555,-0.17983474,0
0.36000000000000015,8.495065643248925,-0.5728148145385576,2.473223599717297,-0.20535356974978494,8.805458,-0.51990044,-4.2700243,-0.045895435,10.594816,-6.9232025,2.057112,0.32808203,-0.31260267,0.1520363,0.87836576,-1.9451295,0.6693106,0.33886728,-0.5225223,4.1455555,-0.17983474,0
0.37000000000000016,8.495065643248925,-0.5728148145385576,2.473223599717297,-0.20535356974978494,8.805458,-0.51990044,-4.2700243,-0.045895435,10.575171,-6.9163084,2.0603306,0.32618192,-0.3245347,0.15324436,0.8745276,-1.9838899,0.7096668,0.30468324,-0.5728148,2.4732237,-0.20535357,0
0.38000000000000017,8.495065643248925,-0.5728148145385576,2.473223599717297,-0.20535356974978494,8.805458,-0.51990044,-4.2700243,-0.045895435,10.555132,-6.909007,2.0632007,0.3242289,-0.33641416,0.15442757,0.87054753,-2.0241911,0.7506552,0.26912928,-0.5728148,2.4732237,-0.20535357,0
0.3900000000000002,8.495065643248925,-0.5728148145385576,2.473223599717297,-0.20535356974978494,8.805458,-0.51990044,-4.2700243,-0.045895435,10.534682,-6.901293,2.0657082,0.32222334,-0.34823903,0.15558575,0.8664263,-2.066005,0.79225314,0.23216408,-0.5728148,2.4732237,-0.20535357,0
0.4000000000000002,8.576123086618532,-0.5664580660431541,1.3760188378723022,-0.20765910748719746,8.451476,-0.55333936,-0.9894953,0.34934255,10.513807,-6.89316,2.067839,0.32016551,-0.36000744,0.15671869,0.8621645,-2.1093023,0.8344375,0.19374743,-0.5728148,2.4732237,-0.20535357,0
0.4100000000000002,8.576123086618532,-0.5664580660431541,1.3760188378723022,-0.20765910748719746,8.451476,-0.55333936,-0.9894953,0.34934255,10.492491,-6.8846006,2.0695815,0.31895378,-0.36699852,0.15610133,0.8597747,-2.1542912,0.87744087,0.15465231,-0.56645805,1.3760189,-0.20765911,0
0.4200000000000002,8.576123086618532,-0.5664580660431541,1.3760188378723022,-0.20765910748719746,8.451476,-0.55333936,-0.9894953,0.34934255,10.470719,-6.8756104,2.0709293,0.31772405,-0.3739689,0.15547517,0.85733646,-2.2002256,0.92059386,0.11471336,-0.56645805,1.3760189,-0.20765911,0
0.4300000000000002,8.576123086618532,-0.5664580660431541,1.3760188378723022,-0.20765910748719746,8.451476,-0.55333936,-0.9894953,0.34934255,10.448483,-6.866188,2.071873,0.3164764,-0.38091812,0.15484025,0.8548498,-2.2470944,0.96388924,0.07391688,-0.56645805,1.3760189,-0.20765911,0
0.4400000000000002,8.576123086618532,-0.5664580660431541,1.3760188378723022,-0.20765910748719746,8.544607,-1.1377081,-0.77056,0.42479077,10.425775,-6.856332,2.0724044,0.31521088,-0.38784587,0.15419658,0.85231495,-2.2948859,1.0073196,0.032249376,-0.56645805,1.3760189,-0.20765911,0
0.45000000000000023,8.576123086618532,-0.5664580660431541,1.3760188378723022,-0.20765910748719746,8.544607,-1.1377081,-0.77056,0.42479077,10.402582,-6.8460407,2.0725148,0.31392756,-0.39475176,0.1535442,0.849732,-2.3435886,1.0508777,-0.010302471,-0.56645805,1.3760189,-0.20765911,0
0.46000000000000024,8.576123086618532,-0.5664580660431541,1.3760188378723022,-0.20765910748719746,8.544607,-1.1377081,-0.77056,0.42479077,10.378899,-6.835314,2.072195,0.31262657,-0.40163532,0.15288317,0.84710103,-2.3931906,1.094556,-0.053751763,-0.56645805,1.3760189,-0.20765911,0
0.47000000000000025,8.576123086618532,-0.5664580660431541,1.3760188378723022,-0.20765910748719746,8.544607,-1.1377081,-0.77056,0.42479077,10.354715,-6.8241496,2.0714366,0.31130794,-0.40849626,0.15221351,0.8444222,-2.44368,1.1383473,-0.0981114,-0.56645805,1.3760189,-0.20765911,0
0.48000000000000026,8.781006061334082,-0.563596009324597,1.0183083838019917,-0.19179971175940908,8.763208,-1.3300308,-0.18920855,-0.08550662,10.330022,-6.8125467,2.0702298,0.3099717,-0.41533414,0.15153527,0.84169585,-2.495044,1.1822441,-0.1433941,-0.56645805,1.3760189,-0.20765911,0
0.49000000000000027,8.781006061334082,-0.563596009324597,1.0183083838019917,-0.19179971175940908,8.763208,-1.3300308,-0.18920855,-0.08550662,10.304805,-6.800499,2.068572,0.30883154,-0.42063123,0.15034068,0.8396963,-2.5484638,1.2272444,-0.18827896,-0.563596,1.0183084,-0.19179972,0
0.5000000000000002,8.781006061334082,-0.563596009324597,1.0183083838019917,-0.19179971175940908,8.763208,-1.3300308,-0.18920855,-0.08550662,10.27905,-6.788001,2.0664618,0.30768064,-0.4259137,0.14914086,0.8376675,-2.6026106,1.2722179,-0.23388113,-0.563596,1.0183084,-0.19179972,0
0.5100000000000002,8.781006061334082,-0.563596009324597,1.0183083838019917,-0.19179971175940908,8.763208,-1.3300308,-0.18920855,-0.08550662,10.252751,-6.7750545,2.063892,0.30651903,-0.43118134,0.14793587,0.8356096,-2.6574771,1.3171599,-0.28020844,-0.563596,1.0183084,-0.19179972,0
0.5200000000000002,8.986057977077426,-0.5173616124863931,0.1444159017956978,-0.16828271486462773,9.155436,-1.3548577,-0.15940794,-0.17086153,10.225899,-6.761658,2.060855,0.3053468,-0.436434,0.14672571,0.8335226,-2.7130547,1.3620663,-0.32726875,-0.563596,1.0183084,-0.19179972,1
0.5300000000000002,8.986057977077426,-0.5173616124863931,0.1444159017956978,-0.16828271486462773,9.155436,-1.3548577,-0.15940794,-0.17086153,10.198475,-6.7478046,2.0573554,0.3032121,-0.4379532,0.14045955,0.8345839,-2.7717333,1.4084818,-0.3726007,-1.3548577,-0.15940794,-0.17086153,1
0.5400000000000003,8.986057977077426,-0.5173616124863931,0.1444159017956978,-0.16828271486462773,9.155436,-1.3548577,-0.15940794,-0.17086153,10.170462,-6.733492,2.0534031,0.30106312,-0.43945166,0.13418674,0.83560574,-2.8311305,1.4538794,-0.41785076,-1.3548577,-0.15940794,-0.17086153,1
0.5500000000000003,8.986057977077426,-0.5173616124863931,0.1444159017956978,-0.16828271486462773,9.155436,-1.3548577,-0.15940794,-0.17086153,10.14185,-6.7187304,2.0489986,0.29889986,-0.44092938,0.1279076,0.836588,-2.8912365,1.4982507,-0.46303046,-1.3548577,-0.15940794,-0.17086153,1
0.5600000000000003,9.33950110131723,-0.2333505899293644,0.0156816006558184,-0.14061260520868482,9.194866,-0.48625386,-0.91162735,-0.2139128,10.112634,-6.7035303,2.0441427,0.2967225,-0.44238627,0.12162241,0.83753085,-2.9520407,1.5415883,-0.50815135,-1.3548577,-0.15940794,-0.17086153,1
0.5700000000000003,9.33950110131723,-0.2333505899293644,0.0156816006558184,-0.14061260520868482,9.194866,-0.48625386,-0.91162735,-0.2139128,10.082806,-6.687901,2.0388377,0.29709297,-0.43941405,0.11775881,0.839514,-3.0135052,1.5842037,-0.55276763,-0.48625386,-0.91162735,-0.2139128,1
0.5800000000000003,9.33950110131723,-0.2333505899293644,0.0156816006558184,-0.14061260520868482,9.194866,-0.48625386,-0.91162735,-0.2139128,10.052364,-6.671849,2.0330896,0.29745516,-0.4364296,0.11389194,0.8414738,-3.0748732,1.6261327,-0.59673434,-0.48625386,-0.91162735,-0.2139128,1
0.5900000000000003,9.33950110131723,-0.2333505899293644,0.0156816006558184,-0.14061260520868482,9.194866,-0.48625386,-0.91162735,-0.2139128,10.021309,-6.6553807,2.0269053,0.2978091,-0.433433,0.1100219,0.84341013,-3.1361394,1.6673698,-0.6400581,-0.48625386,-0.91162735,-0.2139128,1
0.6000000000000003,9.657860430124183,-0.004484102986090274,0.28490568667563726,-0.10138104006547287,10.781285,0.43530932,-0.8706674,-0.390829,9.989643,-6.6385036,2.0202909,0.29815474,-0.43042433,0.10614879,0.84532297,-3.1972988,1.7079096,-0.6827457,-0.48625386,-0.91162735,-0.2139128,0
0.6100000000000003,9.657860430124183,-0.004484102986090274,0.28490568667563726,-0.10138104006547287,10.781285,0.43530932,-0.8706674,-0.390829,9.957348,-6.621214,2.0132658,0.29842204,-0.43168855,0.10633626,0.84456,-3.261513,1.7500713,-0.7223106,-0.004484103,0.28490567,-0.10138104,0
0.6200000000000003,9.657860430124183,-0.004484102986090274,0.28490568667563726,-0.10138104006547287,10.781285,0.43530932,-0.8706674,-0.390829,9.924412,-6.6035023,2.005844,0.29868865,-0.43295175,0.10652348,0.8437952,-3.325853,1.792343,-0.76209384,-0.004484103,0.28490567,-0.10138104,0
0.6300000000000003,9.657860430124183,-0.004484102986090274,0.28490568667563726,-0.10138104006547287,10.781285,0.43530932,-0.8706674,-0.390829,9.890831,-6.585367,1.9980235,0.29895458,-0.43421394,0.10671046,0.8430284,-3.390319,1.8347245,-0.802096,-0.004484103,0.28490567,-0.10138104,0
0.6400000000000003,9.657860430124183,-0.004484102986090274,0.28490568667563726,-0.10138104006547287,11.682437,0.5504264,-0.4113974,-0.26409483,9.856605,-6.5668077,1.9898016,0.29921982,-0.43547517,0.1068972,0.84225976,-3.4549098,1.877216,-0.84231746,-0.004484103,0.28490567,-0.10138104,0
0.6500000000000004,9.657860430124183,-0.004484102986090274,0.28490568667563726,-0.10138104006547287,11.682437,0.5504264,-0.4113974,-0.26409483,9.8217325,-6.5478225,1.9811765,0.29948437,-0.4367354,0.1070837,0.8414892,-3.5196247,1.919817,-0.8827586,-0.004484103,0.28490567,-0.10138104,0
0.6600000000000004,9.657860430124183,-0.004484102986090274,0.28490568667563726,-0.10138104006547287,11.682437,0.5504264,-0.4113974,-0.26409483,9.786212,-6.5284114,1.9721458,0.29974824,-0.4379946,0.10726996,0.8407167,-3.5844634,1.9625274,-0.92341995,-0.004484103,0.28490567,-0.10138104,0
0.6700000000000004,9.657860430124183,-0.004484102986090274,0.28490568667563726,-0.10138104006547287,11.682437,0.5504264,-0.4113974,-0.26409483,9.750043,-6.508572,1.9627074,0.30001146,-0.43925285,0.107455954,0.83994234,-3.6494248,2.0053473,-0.96430194,-0.004484103,0.28490567,-0.10138104,0
0.6800000000000004,10.111984512559419,-0.040491906488866775,0.09881297873511331,-0.0816940638576435,11.40423,0.35491103,-0.52159745,-0.4663748,9.713223,-6.488304,1.952859,0.30027395,-0.44051003,0.10764171,0.83916605,-3.7145083,2.0482764,-1.0054051,-0.004484103,0.28490567,-0.10138104,0
0.6900000000000004,10.111984512559419,-0.040491906488866775,0.09881297873511331,-0.0816940638576435,11.40423,0.35491103,-0.52159745,-0.4663748,9.675737,-6.467597,1.942612,0.3004743,-0.4410293,0.10744021,0.8388474,-3.782757,2.0932987,-1.0440046,-0.040491905,0.09881298,-0.08169407,0
0.7000000000000004,10.111984512559419,-0.040491906488866775,0.09881297873511331,-0.0816940638576435,11.40423,0.35491103,-0.52159745,-0.4663748,9.637568,-6.4464397,1.9319787,0.3006745,-0.44154838,0.10723866,0.83852834,-3.8510733,2.1383293,-1.0826875,-0.040491905,0.09881298,-0.08169407,0
0.7100000000000004,10.111984512559419,-0.040491906488866775,0.09881297873511331,-0.0816940638576435,11.40423,0.35491103,-0.52159745,-0.4663748,9.598716,-6.4248304,1.920958,0.30087456,-0.44206724,0.10703706,0.8382089,-3.919457,2.1833682,-1.1214545,-0.040491905,0.09881298,-0.08169407,0
0.7200000000000004,10.536250274071168,-0.04401159873383019,-0.42501794178451413,-0.06441805283204444,11.665478,0.28704846,-0.46288994,-0.46943274,9.559178,-6.402771,1.9095494,0.3010745,-0.44258592,0.10683541,0.8378891,-3.9879081,2.2284155,-1.1603057,-0.040491905,0.09881298,-0.08169407,0
0.7300000000000004,10.536250274071168,-0.04401159873383019,-0.42501794178451413,-0.06441805283204444,11.665478,0.28704846,-0.46288994,-0.46943274,9.518943,-6.3802524,1.8977644,0.30147332,-0.44090497,0.105868414,0.83875424,-4.059213,2.2752752,-1.196592,-0.0440116,-0.42501795,-0.064418055,0
0.7400000000000004,10.536250274071168,-0.04401159873383019,-0.42501794178451413,-0.06441805283204444,11.665478,0.28704846,-0.46288994,-0.46943274,9.477995,-6.357266,1.8856186,0.3018707,-0.43922195,0.10490092,0.8396154,-4.1303544,2.3219137,-1.2325224,-0.0440116,-0.42501795,-0.064418055,0
0.7500000000000004,10.536250274071168,-0.04401159873383019,-0.42501794178451413,-0.06441805283204444,11.665478,0.28704846,-0.46288994,-0.46943274,9.4363365,-6.333814,1.8731153,0.30226666,-0.43753687,0.10393294,0.84047276,-4.2013297,2.3683295,-1.2680981,-0.0440116,-0.42501795,-0.064418055,0
0.7600000000000005,11.042649442447976,-0.030864946238004443,-0.5392377163376905,-0.04910397125652504,12.906036,0.26258358,-0.6391958,-0.5182089,9.393969,-6.3099,1.8602579,0.30266127,-0.43584976,0.10296448,0.84132606,-4.272138,2.414522,-1.3033204,-0.0440116,-0.42501795,-0.064418055,0
0.7700000000000005,11.042649442447976,-0.030864946238004443,-0.5392377163376905,-0.04910397125652504,12.906036,0.26258358,-0.6391958,-0.5182089,9.350878,-6.2855134,1.8470654,0.30307707,-0.43365178,0.101911224,0.8424397,-4.3461504,2.4626834,-1.3351133,-0.030864947,-0.53923774,-0.04910397,0
0.7800000000000005,11.042649442447976,-0.030864946238004443,-0.5392377163376905,-0.04910397125652504,12.906036,0.26258358,-0.6391958,-0.5182089,9.307048,-6.260647,1.8335572,0.30349064,-0.4314506,0.10085722,0.84354717,-4.419921,2.5105667,-1.3664372,-0.030864947,-0.53923774,-0.04910397,0
0.7900000000000005,11.042649442447976,-0.030864946238004443,-0.5392377163376905,-0.04910397125652504,12.906036,0.26258358,-0.6391958,-0.5182089,9.262481,-6.235303,1.8197381,0.303902,-0.42924628,0.09980247,0.8446484,-4.4934487,2.5581698,-1.397294,-0.030864947,-0.53923774,-0.04910397,0
0.8000000000000005,11.393924014747926,0.021343199490791945,-0.7099133005618893,-0.03910699150915374,13.152494,0.16765529,-0.6509751,-0.4115623,9.217181,-6.209485,1.8056128,0.3043111,-0.42703876,0.09874699,0.8457435,-4.5667305,2.6054912,-1.4276861,-0.030864947,-0.53923774,-0.04910397,0
0.8100000000000005,11.393924014747926,0.021343199490791945,-0.7099133005618893,-0.03910699150915374,13.152494,0.16765529,-0.6509751,-0.4115623,9.171137,-6.1831875,1.791197,0.30487067,-0.4240209,0.097672954,0.8471839,-4.642042,2.6540122,-1.4553876,0.0213432,-0.7099133,-0.03910699,0
0.8200000000000005,11.393924014747926,0.021343199490791945,-0.7099133005618893,-0.03910699150915374,13.152494,0.16765529,-0.6509751,-0.4115623,9.124341,-6.156406,1.7765073,0.3054263,-0.42099765,0.09659768,0.84861356,-4.716972,2.7022018,-1.482457,0.0213432,-0.7099133,-0.03910699,0
0.8300000000000005,11.393924014747926,0.021343199490791945,-0.7099133005618893,-0.03910699150915374,13.152494,0.16765529,-0.6509751,-0.4115623,9.0767975,-6.129144,1.7615501,0.30597812,-0.41796908,0.09552118,0.8500325,-4.791517,2.750058,-1.508898,0.0213432,-0.7099133,-0.03910699,0
0.8400000000000005,11.393924014747926,0.021343199490791945,-0.7099133005618893,-0.03910699150915374,13.825451,0.17660855,-0.44509593,-0.34161896,9.028511,-6.101406,1.7463316,0.30652604,-0.41493526,0.09444347,0.8514407,-4.8656726,2.7975776,-1.5347143,0.0213432,-0.7099133,-0.03910699,0
0.8500000000000005,11.393924014747926,0.021343199490791945,-0.7099133005618893,-0.03910699150915374,13.825451,0.17660855,-0.44509593,-0.34161896,8.9794855,-6.0731945,1.730858,0.3070701,-0.4118962,0.09336457,0.85283816,-4.939436,2.844758,-1.5599093,0.0213432,-0.7099133,-0.03910699,0
0.8600000000000005,11.393924014747926,0.021343199490791945,-0.7099133005618893,-0.03910699150915374,13.825451,0.17660855,-0.44509593,-0.34161896,8.929723,-6.0445123,1.7151356,0.30761027,-0.4088519,0.092284486,0.8542248,-5.012803,2.8915968,-1.5844871,0.0213432,-0.7099133,-0.03910699,0
0.8700000000000006,11.393924014747926,0.021343199490791945,-0.7099133005618893,-0.03910699150915374,13.825451,0.17660855,-0.44509593,-0.34161896,8.87923,-6.015363,1.6991704,0.30814657,-0.4058024,0.091203235,0.85560066,-5.0857706,2.9380908,-1.6084511,0.0213432,-0.7099133,-0.03910699,0
0.8800000000000006,11.86764552440427,0.07468311287460623,-0.45055752504497215,-0.029257347658674892,13.614216,0.24866614,-0.43649763,-0.21243182,8.828009,-5.9857516,1.6829686,0.30867895,-0.40274778,0.09012083,0.85696566,-5.1583347,2.984238,-1.6318053,0.0213432,-0.7099133,-0.03910699,0
0.8900000000000006,11.86764552440427,0.07468311287460623,-0.45055752504497215,-0.029257347658674892,13.614216,0.24866614,-0.43649763,-0.21243182,8.776049,-5.9556704,1.6665518,0.30915692,-0.4007141,0.08968628,0.8577919,-5.233535,3.032011,-1.6515042,0.074683115,-0.45055753,-0.029257348,0
0.9000000000000006,11.86764552440427,0.07468311287460623,-0.45055752504497215,-0.029257347658674892,13.614216,0.24866614,-0.43649763,-0.21243182,8.723339,-5.925112,1.64994,0.30963328,-0.3986783,0.08925129,0.85861367,-5.308421,3.0796099,-1.6707971,0.074683115,-0.45055753,-0.029257348,0
0.9100000000000006,11.86764552440427,0.07468311287460623,-0.45055752504497215,-0.029257347658674892,13.614216,0.24866614,-0.43649763,-0.21243182,8.669882,-5.8940783,1.6331372,0.310108,-0.39664042,0.088815816,0.85943097,-5.382992,3.1270325,-1.689686,0.074683115,-0.45055753,-0.029257348,0
0.9200000000000006,12.252883683771207,0.18355371193935233,-0.5721141448398692,-0.028078684407356082,14.073684,0.41553977,-0.16314737,-0.1832695,8.61568,-5.8625712,1.6161475,0.31058112,-0.39460045,0.088379875,0.86024374,-5.457246,3.174278,-1.7081723,0.074683115,-0.45055753,-0.029257348,0
0.9300000000000006,12.252883683771207,0.18355371193935233,-0.5721141448398692,-0.028078684407356082,14.073684,0.41553977,-0.16314737,-0.1832695,8.560725,-5.8305855,1.598988,0.31131545,-0.39186525,0.08822514,0.8612439,-5.533523,3.222887,-1.723615,0.18355371,-0.57211417,-0.028078685,0
0.9400000000000006,12.252883683771207,0.18355371193935233,-0.5721141448398692,-0.028078684407356082,14.073684,0.41553977,-0.16314737,-0.1832695,8.505011,-5.798114,1.5816771,0.31204695,-0.3891265,0.08806961,0.86223626,-5.609315,3.2713466,-1.738525,0.18355371,-0.57211417,-0.028078685,0
0.9500000000000006,12.252883683771207,0.18355371193935233,-0.5721141448398692,-0.028078684407356082,14.073684,0.41553977,-0.16314737,-0.1832695,8.448541,-5.7651587,1.5642195,0.31277567,-0.38638425,0.08791328,0.8632209,-5.6846185,3.319655,-1.7529052,0.18355371,-0.57211417,-0.028078685,0
0.9600000000000006,12.811784998855188,0.2902958519497016,-0.4565446176259706,-0.02638562545745754,14.511752,0.7850418,-0.047273204,-0.14496449,8.391319,-5.7317214,1.5466207,0.31350154,-0.3836385,0.08775616,0.8641977,-5.759431,3.3678098,-1.7667587,0.18355371,-0.57211417,-0.028078685,0
0.9700000000000006,12.811784998855188,0.2902958519497016,-0.4565446176259706,-0.02638562545745754,14.511752,0.7850418,-0.047273204,-0.14496449,8.333336,-5.6977916,1.5289054,0.3143716,-0.38122094,0.08824395,0.8649015,-5.8371367,3.4180655,-1.776257,0.29029584,-0.4565446,-0.026385626,0
0.9800000000000006,12.811784998855188,0.2902958519497016,-0.4565446176259706,-0.02638562545745754,14.511752,0.7850418,-0.047273204,-0.14496449,8.274578,-5.66336,1.5110973,0.3152393,-0.37880054,0.088731095,0.865599,-5.9143167,3.4683356,-1.7853043,0.29029584,-0.4565446,-0.026385626,0
0.9900000000000007,12.811784998855188,0.2902958519497016,-0.4565446176259706,-0.02638562545745754,14.511752,0.7850418,-0.047273204,-0.14496449,8.215051,-5.628425,1.4932009,0.3161047,-0.37637737,0.08921759,0.86629015,-5.9909678,3.5186183,-1.7939034,0.29029584,-0.4565446,-0.026385626,0
1.0000000000000007,13.182221633052459,0.3958633453688572,-0.6515054811479476,-0.035398996024015396,14.5066595,1.1104846,-0.20638478,-0.14237309,8.154759,-5.5929875,1.4752207,0.31696782,-0.37395146,0.089703426,0.86697495,-6.067088,3.5689116,-1.8020566,0.29029584,-0.4565446,-0.026385626,0
1.0100000000000007,13.182221633052459,0.3958633453688572,-0.6515054811479476,-0.035398996024015396,14.5066595,1.1104846,-0.20638478,-0.14237309,8.093699,-5.5570397,1.4571744,0.31815135,-0.37051305,0.09032008,0.8679531,-6.1447787,3.6206627,-1.8070813,0.39586335,-0.6515055,-0.035398997,0
1.0200000000000007,13.182221633052459,0.3958633453688572,-0.6515054811479476,-0.035398996024015396,14.5066595,1.1104846,-0.20638478,-0.14237309,8.031867,-5.5205746,1.4390813,0.31933025,-0.36706924,0.09093542,0.86891866,-6.2216973,3.6724052,-1.8114623,0.39586335,-0.6515055,-0.035398997,0
1.0300000000000007,13.182221633052459,0.3958633453688572,-0.6515054811479476,-0.035398996024015396,14.5066595,1.1104846,-0.20638478,-0.14237309,7.9692683,-5.4835916,1.4209474,0.3205045,-0.3636201,0.09154942,0.86987156,-6.2978406,3.7241359,-1.8152051,0.39586335,-0.6515055,-0.035398997,0
1.0400000000000007,13.182221633052459,0.3958633453688572,-0.6515054811479476,-0.035398996024015396,14.454744,1.450393,-0.31823364,-0.17095535,7.905913,-5.4460917,1.4027793,0.32167405,-0.36016566,0.09216209,0.8708118,-6.373203,3.7758508,-1.818315,0.39586335,-0.6515055,-0.035398997,0
1.0500000000000007,13.182221633052459,0.3958633453688572,-0.6515054811479476,-0.035398996024015396,14.454744,1.450393,-0.31823364,-0.17095535,7.8418074,-5.408075,1.3845832,0.32283896,-0.35670596,0.09277342,0.8717393,-6.4477806,3.8275468,-1.8207976,0.39586335,-0.6515055,-0.035398997,0
1.0600000000000007,13.182221633052459,0.3958633453688572,-0.6515054811479476,-0.035398996024015396,14.454744,1.450393,-0.31823364,-0.17095535,7.7769604,-5.369541,1.3663654,0.32399914,-0.3532411,0.0933834,0.8726542,-6.5215693,3.8792212,-1.8226581,0.39586335,-0.6515055,-0.035398997,0
1.0700000000000007,13.182221633052459,0.3958633453688572,-0.6515054811479476,-0.035398996024015396,14.454744,1.450393,-0.31823364,-0.17095535,7.711379,-5.3304906,1.3481321,0.32515463,-0.34977105,0.093992025,0.8735564,-6.594565,3.9308698,-1.8239019,0.39586335,-0.6515055,-0.035398997,0
1.0800000000000007,13.804278624470511,0.471667284581721,-0.5487416835376301,-0.04308555912239983,14.5062685,1.7973957,-0.37835655,-0.13675316,7.6450715,-5.2909236,1.3298895,0.32630536,-0.34629595,0.09459928,0.87444586,-6.666763,3.9824898,-1.8245347,0.39586335,-0.6515055,-0.035398997,0
1.0900000000000007,13.804278624470511,0.471667284581721,-0.5487416835376301,-0.04308555912239983,14.5062685,1.7973957,-0.37835655,-0.13675316,7.578029,-5.2508283,1.3116665,0.32756785,-0.3431453,0.095690995,0.87509686,-6.741533,4.036569,-1.8199673,0.4716673,-0.5487417,-0.04308556,0
1.1000000000000008,13.804278624470511,0.471667284581721,-0.5487416835376301,-0.04308555912239983,14.5062685,1.7973957,-0.37835655,-0.13675316,7.5102434,-5.2101912,1.2934918,0.32882604,-0.33999017,0.09678146,0.8757363,-6.8154707,4.0907636,-1.8148594,0.4716673,-0.5487417,-0.04308556,0
1.1100000000000008,13.804278624470511,0.471667284581721,-0.5487416835376301,-0.04308555912239983,14.5062685,1.7973957,-0.37835655,-0.13675316,7.4417224,-5.1690125,1.2753711,0.33007988,-0.33683053,0.097870655,0.8763643,-6.8885727,4.1450706,-1.8092164,0.4716673,-0.5487417,-0.04308556,0
1.1200000000000008,14.349871993361331,0.5731891544541988,-0.698638514759318,-0.05836910559782679,14.677219,1.8040516,-0.10026275,-0.081094876,7.372474,-5.12729,1.2573094,0.33132938,-0.33366647,0.09895857,0.87698084,-6.960835,4.1994867,-1.8030434,0.4716673,-0.5487417,-0.04308556,0
1.1300000000000008,14.349871993361331,0.5731891544541988,-0.698638514759318,-0.05836910559782679,14.677219,1.8040516,-0.10026275,-0.081094876,7.3024945,-5.0850115,1.239333,0.33288386,-0.32967892,0.10021615,0.8777571,-7.034996,4.256163,-1.7921491,0.57318914,-0.6986385,-0.058369104,0
1.1400000000000008,14.349871993361331,0.5731891544541988,-0.698638514759318,-0.05836910559782679,14.677219,1.8040516,-0.10026275,-0.081094876,7.231778,-5.0421658,1.2214689,0.33443153,-0.32568458,0.101471685,0.87851536,-7.1080604,4.3129435,-1.7805709,0.57318914,-0.6986385,-0.058369104,0
1.1500000000000008,14.349871993361331,0.5731891544541988,-0.698638514759318,-0.05836910559782679,14.677219,1.8040516,-0.10026275,-0.081094876,7.160337,-4.998752,1.203724,0.33597234,-0.32168356,0.10272513,0.8792556,-7.180022,4.3698235,-1.7683173,0.57318914,-0.6986385,-0.058369104,0
1.1600000000000008,15.018999409324664,0.619750920463642,-0.690626382844944,-0.06636181764426542,14.480163,1.773731,-0.30413687,-0.07382792,7.0881815,-4.954769,1.186105,0.33750626,-0.31767598,0.10397647,0.8799779,-7.250875,4.426798,-1.7553971,0.57318914,-0.6986385,-0.058369104,0
1.1700000000000008,15.018999409324664,0.619750920463642,-0.690626382844944,-0.06636181764426542,14.480163,1.773731,-0.30413687,-0.07382792,7.0153065,-4.9102025,1.1686444,0.33913803,-0.31362253,0.10543132,0.88063115,-7.3238516,4.4865437,-1.7366135,0.6197509,-0.6906264,-0.066361815,0
1.1800000000000008,15.018999409324664,0.619750920463642,-0.690626382844944,-0.06636181764426542,14.480163,1.773731,-0.30413687,-0.07382792,6.941708,-4.8650374,1.151375,0.34076247,-0.3095623,0.10688388,0.88126534,-7.3956165,4.546435,-1.7171565,0.6197509,-0.6906264,-0.066361815,0
1.1900000000000008,15.018999409324664,0.619750920463642,-0.690626382844944,-0.06636181764426542,14.480163,1.773731,-0.30413687,-0.07382792,6.8673983,-4.819273,1.1343036,0.34237954,-0.30549535,0.10833414,0.88188046,-7.4661636,4.606467,-1.6970358,0.6197509,-0.6906264,-0.066361815,0
1.2000000000000008,15.343518879543575,0.6560387131303795,-1.1141316861883686,-0.08710659915007568,14.5866165,1.629689,-0.45490235,-0.005530162,6.792389,-4.7729077,1.1174364,0.3439892,-0.30142182,0.10978205,0.8824765,-7.535488,4.666632,-1.6762612,0.6197509,-0.6906264,-0.066361815,1
1.2100000000000009,15.343518879543575,0.6560387131303795,-1.1141316861883686,-0.08710659915007568,14.5866165,1.629689,-0.45490235,-0.005530162,6.7167034,-4.7259474,1.100763,0.34670705,-0.29660395,0.11617812,0.88222647,-7.6013246,4.725666,-1.6583565,1.629689,-0.45490235,-0.005530162,1
1.2200000000000009,15.343518879543575,0.6560387131303795,-1.1141316861883686,-0.08710659915007568,14.5866165,1.629689,-0.45490235,-0.005530162,6.64037,-4.67839,1.0842706,0.3494001,-0.2917649,0.122565866,0.88191324,-7.6651573,4.7860837,-1.6400456,1.629689,-0.45490235,-0.005530162,1
1.2300000000000009,15.343518879543575,0.6560387131303795,-1.1141316861883686,-0.08710659915007568,14.5866165,1.629689,-0.45490235,-0.005530162,6.5634074,-4.630221,1.0679632,0.35206816,-0.2869049,0.12894486,0.88153696,-7.7269692,4.8478675,-1.6213615,1.629689,-0.45490235,-0.005530162,1
1.2400000000000009,15.343518879543575,0.6560387131303795,-1.1141316861883686,-0.08710659915007568,14.033266,1.5424805,-1.2014183,-0.024949867,6.4858375,-4.5814276,1.0518444,0.35471097,-0.28202438,0.13531461,0.88109756,-7.786742,4.9109993,-1.6023375,1.629689,-0.45490235,-0.005530162,0
1.2500000000000009,15.343518879543575,0.6560387131303795,-1.1141316861883686,-0.08710659915007568,14.033266,1.5424805,-1.2014183,-0.024949867,6.4076643,-4.5319815,1.0359486,0.35676613,-0.27600563,0.13610312,0.88205177,-7.847624,4.9782004,-1.5766654,0.6560387,-1.1141317,-0.0871066,0
1.260000000000001,15.343518879543575,0.6560387131303795,-1.1141316861883686,-0.08710659915007568,14.033266,1.5424805,-1.2014183,-0.024949867,6.3288913,-4.4818645,1.0203145,0.35880634,-0.2699753,0.13688591,0.88296896,-7.9067836,5.045168,-1.5500358,0.6560387,-1.1141317,-0.0871066,0
1.270000000000001,15.343518879543575,0.6560387131303795,-1.1141316861883686,-0.08710659915007568,14.033266,1.5424805,-1.2014183,-0.024949867,6.2495356,-4.431079,1.0049512,0.3608315,-0.26393363,0.13766298,0.8838491,-7.9642124,5.11189,-1.5224692,0.6560387,-1.1141317,-0.0871066,0
1.280000000000001,16.044664814227684,0.14080461261593416,-1.3268607307491276,-0.11014218965404965,14.434066,1.1980652,-1.1795688,-0.1068093,6.169614,-4.379627,0.9898683,0.3628415,-0.25788084,0.13843425,0.884692,-8.019901,5.178354,-1.4939858,0.6560387,-1.1141317,-0.0871066,0
1.290000000000001,16.044664814227684,0.14080461261593416,-1.3268607307491276,-0.11014218965404965,14.434066,1.1980652,-1.1795688,-0.1068093,6.089131,-4.327498,0.975104,0.36442053,-0.25182655,0.13650478,0.88608575,-8.076448,5.247282,-1.458692,0.14080462,-1.3268608,-0.11014219,0
1.300000000000001,16.044664814227684,0.14080461261593416,-1.3268607307491276,-0.11014218965404965,14.434066,1.1980652,-1.1795688,-0.1068093,6.00809,-4.274685,0.96069837,0.36598322,-0.24576102,0.13456921,0.8874398,-8.131543,5.3151407,-1.4222465,0.14080462,-1.3268608,-0.11014219,0
1.310000000000001,16.044664814227684,0.14080461261593416,-1.3268607307491276,-0.11014218965404965,14.434066,1.1980652,-1.1795688,-0.1068093,5.9265056,-4.2211986,0.9466629,0.36752954,-0.23968446,0.13262762,0.88875407,-8.185176,5.381917,-1.3846731,0.14080462,-1.3268608,-0.11014219,0
1.320000000000001,16.28418802405093,0.10834776375214335,-1.6836140373693025,-0.11882909732625728,15.30521,1.0353364,-0.95412785,-0.26665223,5.844392,-4.16705,0.9330087,0.36905938,-0.23359716,0.13068007,0.89002854,-8.237338,5.4475965,-1.3459957,0.14080462,-1.3268608,-0.11014219,1
1.330000000000001,16.28418802405093,0.10834776375214335,-1.6836140373693025,-0.11882909732625728,15.30521,1.0353364,-0.95412785,-0.26665223,5.7617764,-4.1122637,0.9197145,0.37206918,-0.22760893,0.13321199,0.8899515,-8.285449,5.5096726,-1.3127322,1.0353364,-0.95412785,-0.26665223,1
1.340000000000001,16.28418802405093,0.10834776375214335,-1.6836140373693025,-0.11882909732625728,15.30521,1.0353364,-0.95412785,-0.26665223,5.6786904,-4.0568557,0.9067562,0.3750599,-0.22160903,0.13573705,0.88982886,-8.331512,5.5719614,-1.2788367,1.0353364,-0.95412785,-0.26665223,1
1.350000000000001,16.28418802405093,0.10834776375214335,-1.6836140373693025,-0.11882909732625728,15.30521,1.0353364,-0.95412785,-0.26665223,5.5951543,-4.0008235,0.8941399,0.37803137,-0.21559775,0.13825516,0.88966054,-8.375517,5.6344466,-1.244333,1.0353364,-0.95412785,-0.26665223,1
1.360000000000001,16.890987824903778,-0.08851526823676822,-1.6632827970341972,-0.1032329917994903,15.457299,0.8221659,-0.51927775,-0.24488692,5.511188,-3.9441657,0.8818715,0.3809834,-0.2095754,0.14076619,0.8894465,-8.417455,5.69711,-1.2092452,1.0353364,-0.95412785,-0.26665223,0
1.370000000000001,16.890987824903778,-0.08851526823676822,-1.6632827970341972,-0.1032329917994903,15.457299,0.8221659,-0.51927775,-0.24488692,5.4267907,-3.8868504,0.8700269,0.38250715,-0.20241246,0.13709109,0.891024,-8.461694,5.765688,-1.1594604,-0.08851527,-1.6632828,-0.103232995,0
1.380000000000001,16.890987824903778,-0.08851526823676822,-1.6632827970341972,-0.1032329917994903,15.457299,0.8221659,-0.51927775,-0.24488692,5.34196,-3.8288584,0.85868686,0.3840043,-0.19523542,0.13340645,0.8925395,-8.504288,5.8324094,-1.1083493,-0.08851527,-1.6632828,-0.103232995,0
1.390000000000001,16.890987824903778,-0.08851526823676822,-1.6632827970341972,-0.1032329917994903,15.457299,0.8221659,-0.51927775,-0.24488692,5.2567115,-3.7702088,0.8478644,0.38547465,-0.18804479,0.12971252,0.8939929,-8.545227,5.897254,-1.0559528,-0.08851527,-1.6632828,-0.103232995,0
1.400000000000001,16.979276967152032,-0.021437237270035357,-1.7874648390935628,-0.08836932984949722,15.93757,0.61957556,-0.34632722,-0.13910016,5.1710615,-3.7109199,0.8375721,0.3869182,-0.18084106,0.12600957,0.8953841,-8.584501,5.9602013,-1.0023125,-0.08851527,-1.6632828,-0.103232995,0
1.410000000000001,16.979276967152032,-0.021437237270035357,-1.7874648390935628,-0.08836932984949722,15.93757,0.61957556,-0.34632722,-0.13910016,5.0850263,-3.6510096,0.8278264,0.3884051,-0.17292874,0.122370675,0.896807,-8.622217,6.0215282,-0.94664204,-0.021437237,-1.7874649,-0.08836933,0
1.420000000000001,16.979276967152032,-0.021437237270035357,-1.7874648390935628,-0.08836932984949722,15.93757,0.61957556,-0.34632722,-0.13910016,4.9986234,-3.590496,0.8186435,0.38986093,-0.16500255,0.11872199,0.89815813,-8.658024,6.080848,-0.8897326,-0.021437237,-1.7874649,-0.08836933,0
1.430000000000001,16.979276967152032,-0.021437237270035357,-1.7874648390935628,-0.08836932984949722,15.93757,0.61957556,-0.34632722,-0.13910016,4.911872,-3.5293996,0.81003577,0.39128554,-0.15706317,0.115063794,0.89943725,-8.69191,6.1381397,-0.8316333,-0.021437237,-1.7874649,-0.08836933,0
1.440000000000001,16.979276967152032,-0.021437237270035357,-1.7874648390935628,-0.08836932984949722,16.050898,0.70658696,-0.35361013,-0.22014928,4.8247914,-3.4677405,0.80201477,0.3926788,-0.14911121,0.11139639,0.90064436,-8.723869,6.193383,-0.772394,-0.021437237,-1.7874649,-0.08836933,0
1.450000000000001,16.979276967152032,-0.021437237270035357,-1.7874648390935628,-0.08836932984949722,16.050898,0.70658696,-0.35361013,-0.22014928,4.7374015,-3.4055393,0.7945916,0.39404064,-0.1411473,0.10772006,0.90177935,-8.753893,6.2465587,-0.7120647,-0.021437237,-1.7874649,-0.08836933,0
1.460000000000001,16.979276967152032,-0.021437237270035357,-1.7874648390935628,-0.08836932984949722,16.050898,0.70658696,-0.35361013,-0.22014928,4.6497207,-3.3428166,0.787777,0.3953709,-0.1331721,0.1040351,0.90284216,-8.781972,6.2976475,-0.6506958,-0.021437237,-1.7874649,-0.08836933,0
1.470000000000001,16.979276967152032,-0.021437237270035357,-1.7874648390935628,-0.08836932984949722,16.050898,0.70658696,-0.35361013,-0.22014928,4.561769,-3.2795935,0.78158104,0.3966695,-0.12518623,0.10034181,0.9038327,-8.808102,6.346632,-0.5883381,-0.021437237,-1.7874649,-0.08836933,0
1.480000000000001,17.17784386982553,0.1084982168514977,-1.2922270382252923,-0.07111479891489088,17.063236,0.6671758,-0.5874221,-0.26256594,4.473566,-3.2158911,0.7760134,0.39793634,-0.11719034,0.09664049,0.9047508,-8.8322735,6.393494,-0.52504265,-0.021437237,-1.7874649,-0.08836933,1
1.490000000000001,17.17784386982553,0.1084982168514977,-1.2922270382252923,-0.07111479891489088,17.063236,0.6671758,-0.5874221,-0.26256594,4.3851295,-3.151727,0.7710864,0.39979458,-0.11333115,0.09833495,0.9042405,-8.854769,6.439268,-0.46031177,0.6671758,-0.5874221,-0.26256594,1
1.500000000000001,17.17784386982553,0.1084982168514977,-1.2922270382252923,-0.07111479891489088,17.063236,0.6671758,-0.5874221,-0.26256594,4.2964754,-3.087105,0.7668077,0.40164423,-0.10946951,0.10002731,0.9037108,-8.87576,6.4850936,-0.3953945,0.6671758,-0.5874221,-0.26256594,1
1.5100000000000011,17.17784386982553,0.1084982168514977,-1.2922270382252923,-0.07111479891489088,17.063236,0.6671758,-0.5874221,-0.26256594,4.207619,-3.0220249,0.7631791,0.4034853,-0.105605535,0.10171751,0.90316164,-8.895246,6.530962,-0.3303026,0.6671758,-0.5874221,-0.26256594,1
1.5200000000000011,17.102218945742326,0.14238180562752253,-1.4006955652049426,-0.05028800070735894,16.81413,0.2986721,-0.77032536,-0.22579363,4.1185756,-2.9564857,0.7602023,0.4053177,-0.10173929,0.10340553,0.90259314,-8.913223,6.576867,-0.26504785,0.6671758,-0.5874221,-0.26256594,1
1.5300000000000011,17.102218945742326,0.14238180562752253,-1.4006955652049426,-0.05028800070735894,16.81413,0.2986721,-0.77032536,-0.22579363,4.029361,-2.8904915,0.7578669,0.40688318,-0.09777337,0.10307648,0.90236473,-8.92955,6.621897,-0.20197397,0.2986721,-0.77032536,-0.22579363,1
1.5400000000000011,17.102218945742326,0.14238180562752253,-1.4006955652049426,-0.05028800070735894,16.81413,0.2986721,-0.77032536,-0.22579363,3.9399886,-2.82405,0.7561637,0.40844122,-0.09380566,0.10274555,0.90211976,-8.944656,6.666328,-0.13861507,0.2986721,-0.77032536,-0.22579363,1
1.5500000000000012,17.102218945742326,0.14238180562752253,-1.4006955652049426,-0.05028800070735894,16.81413,0.2986721,-0.77032536,-0.22579363,3.8504715,-2.757167,0.75509554,0.40999174,-0.08983623,0.10241273,0.9018582,-8.958546,6.7101545,-0.074981555,0.2986721,-0.77032536,-0.22579363,1
1.5600000000000012,17.17685607559526,-0.014299839028380714,-1.6111378294496228,-0.009637637517781836,16.737406,0.17881382,-1.0460123,-0.122776225,3.7608218,-2.689849,0.7546651,0.41153476,-0.085865155,0.102078035,0.90158015,-8.971214,6.7533703,-0.011083856,0.2986721,-0.77032536,-0.22579363,1
1.5700000000000012,17.17685607559526,-0.014299839028380714,-1.6111378294496228,-0.009637637517781836,16.737406,0.17881382,-1.0460123,-0.122776225,3.6710517,-2.6221032,0.75487125,0.412693,-0.08084336,0.1006776,0.90167254,-8.982557,6.795602,0.052376233,0.17881382,-1.0460123,-0.122776225,1
1.5800000000000012,17.17685607559526,-0.014299839028380714,-1.6111378294496228,-0.009637637517781836,16.737406,0.17881382,-1.0460123,-0.122776225,3.581175,-2.5539405,0.7557139,0.41383946,-0.075819254,0.0992743,0.9017392,-8.99254,6.836751,0.11620492,0.17881382,-1.0460123,-0.122776225,1
1.5900000000000012,17.17685607559526,-0.014299839028380714,-1.6111378294496228,-0.009637637517781836,16.737406,0.17881382,-1.0460123,-0.122776225,3.4912055,-2.4853718,0.7571966,0.41497412,-0.07079299,0.09786815,0.90178007,-9.0011635,6.876812,0.1803843,0.17881382,-1.0460123,-0.122776225,1
1.6000000000000012,17.07685144831747,-0.008930917107624883,-2.1057198427363124,0.015550655971941565,16.698532,0.17626859,-2.2752633,-0.19569224,3.4011567,-2.416408,0.75932276,0.41609693,-0.065764695,0.09645922,0.9017952,-9.008429,6.915777,0.2448964,0.17881382,-1.0460123,-0.122776225,1
1.6100000000000012,17.07685144831747,-0.008930917107624883,-2.1057198427363124,0.015550655971941565,16.698532,0.17626859,-2.2752633,-0.19569224,3.311043,-2.3470623,0.7620942,0.41810727,-0.05522916,0.09244978,0.90199214,-9.013827,6.952983,0.30949095,0.17626859,-2.2752633,-0.19569224,1
1.6200000000000012,17.07685144831747,-0.008930917107624883,-2.1057198427363124,0.015550655971941565,16.698532,0.17626859,-2.2752633,-0.19569224,3.2208889,-2.2773576,0.76551485,0.42006278,-0.04468638,0.08842821,0.90207076,-9.016553,6.9875517,0.37473273,0.17626859,-2.2752633,-0.19569224,1
1.6300000000000012,17.07685144831747,-0.008930917107624883,-2.1057198427363124,0.015550655971941565,16.698532,0.17626859,-2.2752633,-0.19569224,3.1307209,-2.2073205,0.76959074,0.4219632,-0.034137744,0.08439503,0.90203094,-9.016609,7.0194592,0.4405377,0.17626859,-2.2752633,-0.19569224,1
1.6400000000000012,17.07685144831747,-0.008930917107624883,-2.1057198427363124,0.015550655971941565,16.52226,0.613796,-2.3012433,-0.08127674,3.0405657,-2.1369777,0.77432716,0.4238083,-0.02358463,0.080350794,0.9018729,-9.014002,7.0486856,0.50682145,0.17626859,-2.2752633,-0.19569224,1
1.6500000000000012,17.07685144831747,-0.008930917107624883,-2.1057198427363124,0.015550655971941565,16.52226,0.613796,-2.3012433,-0.08127674,2.9504504,-2.0663571,0.77971965,0.4251416,-0.01193808,0.078226954,0.9016614,-9.0085745,7.0750866,0.57172704,0.613796,-2.3012433,-0.08127674,1
1.6600000000000013,17.07685144831747,-0.008930917107624883,-2.1057198427363124,0.015550655971941565,16.52226,0.613796,-2.3012433,-0.08127674,2.8604054,-1.9954841,0.78576237,0.42641455,-0.00028983597,0.07609201,0.9013219,-8.999941,7.099217,0.63684607,0.613796,-2.3012433,-0.08127674,1
1.6700000000000013,17.07685144831747,-0.008930917107624883,-2.1057198427363124,0.015550655971941565,16.52226,0.613796,-2.3012433,-0.08127674,2.770463,-1.924381,0.7924569,0.42762697,0.011358449,0.07394627,0.9008544,-8.988107,7.1210604,0.70208657,0.613796,-2.3012433,-0.08127674,1
1.6800000000000013,16.936659517382022,-0.08133519083164804,-0.9317832885661329,0.056614323356561726,15.972884,0.65047073,-1.7273668,-0.10429858,2.6806545,-1.853071,0.79980415,0.42877865,0.02300512,0.071790025,0.9002591,-8.973081,7.1406026,0.7673562,0.613796,-2.3012433,-0.08127674,1
1.6900000000000013,16.936659517382022,-0.08133519083164804,-0.9317832885661329,0.056614323356561726,15.972884,0.65047073,-1.7273668,-0.10429858,2.591009,-1.781579,0.8077767,0.42977503,0.032136496,0.07102364,0.8995648,-8.955679,7.1575375,0.82712644,0.65047073,-1.7273668,-0.10429858,1
1.7000000000000013,16.936659517382022,-0.08133519083164804,-0.9317832885661329,0.056614323356561726,15.972884,0.65047073,-1.7273668,-0.10429858,2.50155,-1.7099254,0.8163462,0.4307347,0.041265123,0.07025119,0.8987937,-8.935743,7.172972,0.8867508,0.65047073,-1.7273668,-0.10429858,1
1.7100000000000013,16.936659517382022,-0.08133519083164804,-0.9317832885661329,0.056614323356561726,15.972884,0.65047073,-1.7273668,-0.10429858,2.4123027,-1.638125,0.82551104,0.43165752,0.050390225,0.06947272,0.89794576,-8.913282,7.1868978,0.94617605,0.65047073,-1.7273668,-0.10429858,1
1.7200000000000013,16.575264109253325,-0.36087847429615216,-0.04735318534610877,0.08841894834112103,15.980228,0.4456987,-0.9337265,-0.08949068,2.3232927,-1.5661929,0.83526886,0.4325435,0.05951103,0.068688326,0.8970211,-8.888306,7.199308,1.0053489,0.65047073,-1.7273668,-0.10429858,1
1.7300000000000013,16.575264109253325,-0.36087847429615216,-0.04735318534610877,0.08841894834112103,15.980228,0.4456987,-0.9337265,-0.08949068,2.2345438,-1.4941432,0.8456175,0.43312708,0.06463125,0.068693645,0.89638454,-8.861197,7.2104983,1.0643364,0.4456987,-0.9337265,-0.08949068,1
1.7400000000000013,16.575264109253325,-0.36087847429615216,-0.04735318534610877,0.08841894834112103,15.980228,0.4456987,-0.9337265,-0.08949068,2.1460733,-1.4219854,0.85655487,0.43369898,0.06974973,0.06869712,0.8957238,-8.832622,7.220956,1.1231142,0.4456987,-0.9337265,-0.08949068,1
1.7500000000000013,16.575264109253325,-0.36087847429615216,-0.04735318534610877,0.08841894834112103,15.980228,0.4456987,-0.9337265,-0.08949068,2.0578961,-1.3497264,0.86807895,0.4342592,0.07486633,0.068698734,0.89503896,-8.802584,7.2306776,1.1816658,0.4456987,-0.9337265,-0.08949068,1
1.7600000000000013,16.155955813956634,-0.6479650515073537,0.6966123767103771,0.13721544939876051,15.769911,0.1285287,-0.64037836,-0.0046453867,1.9700266,-1.277374,0.88018733,0.43480772,0.07998091,0.068698496,0.89432997,-8.771086,7.2396617,1.2399747,0.4456987,-0.9337265,-0.08949068,0
1.7700000000000014,16.155955813956634,-0.6479650515073537,0.6966123767103771,0.13721544939876051,15.769911,0.1285287,-0.64037836,-0.0046453867,1.882478,-1.2049341,0.8928867,0.434209,0.075503424,0.067259826,0.8951191,-8.73888,7.2483687,1.2999516,-0.6479651,0.69661236,0.13721545,0
1.7800000000000014,16.155955813956634,-0.6479650515073537,0.6966123767103771,0.13721544939876051,15.769911,0.1285287,-0.64037836,-0.0046453867,1.7952437,-1.1324059,0.90618724,0.43360025,0.0710242,0.0658196,0.89588755,-8.708165,7.25732,1.3602113,-0.6479651,0.69661236,0.13721545,0
1.7900000000000014,16.155955813956634,-0.6479650515073537,0.6966123767103771,0.13721544939876051,15.769911,0.1285287,-0.64037836,-0.0046453867,1.7083094,-1.0597869,0.92009175,0.4329815,0.06654333,0.06437785,0.8966353,-8.678945,7.2665124,1.4207395,-0.6479651,0.69661236,0.13721545,0
1.8000000000000014,15.360875286478542,-0.4131396827244098,0.24891777078583738,0.13404445133454346,16.108896,0.67948014,-1.0499495,-0.0038346779,1.6216598,-0.9870749,0.9346028,0.43235272,0.06206093,0.06293462,0.89736235,-8.65122,7.2759433,1.4815223,-0.6479651,0.69661236,0.13721545,0
1.8100000000000014,15.360875286478542,-0.4131396827244098,0.24891777078583738,0.13404445133454346,16.108896,0.67948014,-1.0499495,-0.0038346779,1.5352743,-0.9142701,0.94968367,0.4317998,0.06009296,0.061577253,0.8978566,-8.626023,7.285015,1.5346785,-0.41313967,0.24891777,0.13404445,0
1.8200000000000014,15.360875286478542,-0.4131396827244098,0.24891777078583738,0.13404445133454346,16.108896,0.67948014,-1.0499495,-0.0038346779,1.449137,-0.84137505,0.96529675,0.4312442,0.058124613,0.060219496,0.8983451,-8.60155,7.2939935,1.5879592,-0.41313967,0.24891777,0.13404445,0
1.8300000000000014,15.360875286478542,-0.4131396827244098,0.24891777078583738,0.13404445133454346,16.108896,0.67948014,-1.0499495,-0.0038346779,1.3632407,-0.76839066,0.9814432,0.43068588,0.0561559,0.058861364,0.8988281,-8.577802,7.302877,1.6413608,-0.41313967,0.24891777,0.13404445,0
1.8400000000000014,15.360875286478542,-0.4131396827244098,0.24891777078583738,0.13404445133454346,16.309807,0.79055715,-1.3925309,0.0743556,1.2775785,-0.69531786,0.99812436,0.43012485,0.05418684,0.057502862,0.8993054,-8.554778,7.311664,1.6948797,-0.41313967,0.24891777,0.13404445,0
1.8500000000000014,15.360875286478542,-0.4131396827244098,0.24891777078583738,0.13404445133454346,16.309807,0.79055715,-1.3925309,0.0743556,1.1921426,-0.62215763,1.0153413,0.42956114,0.052217435,0.056143995,0.89977705,-8.532481,7.3203545,1.7485126,-0.41313967,0.24891777,0.13404445,0
1.8600000000000014,15.360875286478542,-0.4131396827244098,0.24891777078583738,0.13404445133454346,16.309807,0.79055715,-1.3925309,0.0743556,1.1069261,-0.54891104,1.033095,0.42899472,0.050247706,0.054784786,0.90024316,-8.51091,7.328946,1.8022562,-0.41313967,0.24891777,0.13404445,0
1.8700000000000014,15.360875286478542,-0.4131396827244098,0.24891777078583738,0.13404445133454346,16.309807,0.79055715,-1.3925309,0.0743556,1.0219219,-0.47557905,1.0513867,0.42842564,0.04827766,0.05342523,0.90070355,-8.490065,7.337438,1.8561068,-0.41313967,0.24891777,0.13404445,0
1.8800000000000014,14.441220887254433,-0.09074731199908773,-0.30973087801228155,0.1276961960596959,15.897742,0.5005195,-0.13988388,0.10175525,0.93712246,-0.40216264,1.0702174,0.42785385,0.046307318,0.05206534,0.9011583,-8.469947,7.345829,1.910061,-0.41313967,0.24891777,0.13404445,0
1.8900000000000015,14.441220887254433,-0.09074731199908773,-0.30973087801228155,0.1276961960596959,15.897742,0.5005195,-0.13988388,0.10175525,0.85251564,-0.32866567,1.0895426,0.4273795,0.047541942,0.050964206,0.901382,-8.451392,7.353497,1.9549708,-0.09074731,-0.3097309,0.1276962,0
1.9000000000000015,14.441220887254433,-0.09074731199908773,-0.30973087801228155,0.1276961960596959,15.897742,0.5005195,-0.13988388,0.10175525,0.76809525,-0.25509414,1.1093168,0.42690384,0.04877642,0.04986292,0.90160304,-8.432655,7.360736,1.9998792,-0.09074731,-0.3097309,0.1276962,0
1.9100000000000015,14.441220887254433,-0.09074731199908773,-0.30973087801228155,0.1276961960596959,15.897742,0.5005195,-0.13988388,0.10175525,0.6838632,-0.18145238,1.1295402,0.4264269,0.050010752,0.048761487,0.9018213,-8.413738,7.3675456,2.0447848,-0.09074731,-0.3097309,0.1276962,0
1.9200000000000015,13.267792456455222,0.2658383264392967,-0.859467598270294,0.12534981905918063,15.964414,0.5668887,-0.59153426,0.056687925,0.5998212,-0.10774468,1.1502125,0.42594865,0.051244933,0.047659907,0.9020369,-8.394638,7.373926,2.089686,-0.09074731,-0.3097309,0.1276962,0
1.9300000000000015,13.267792456455222,0.2658383264392967,-0.859467598270294,0.12534981905918063,15.964414,0.5668887,-0.59153426,0.056687925,0.51596415,-0.03397806,1.1712757,0.42551562,0.055716783,0.046995834,0.90201104,-8.376615,7.379295,2.1229236,0.26583833,-0.8594676,0.12534982,0
1.9400000000000015,13.267792456455222,0.2658383264392967,-0.859467598270294,0.12534981905918063,15.964414,0.5668887,-0.59153426,0.056687925,0.43229228,0.039838955,1.1926707,0.4250738,0.06018749,0.046330795,0.9019666,-8.357601,7.384006,2.156047,0.26583833,-0.8594676,0.12534982,0
1.9500000000000015,13.267792456455222,0.2658383264392967,-0.859467598270294,0.12534981905918063,15.964414,0.5668887,-0.59153426,0.056687925,0.3488155,0.113699794,1.2143961,0.42462322,0.06465695,0.045664802,0.9019035,-8.337599,7.388059,2.1890457,0.26583833,-0.8594676,0.12534982,0
1.9600000000000015,12.071185505582136,0.47112360114506097,-1.2847766882968579,0.126949919905788,15.587685,0.7024686,-0.42005563,-0.18968204,0.2655437,0.1875979,1.236451,0.42416388,0.06912508,0.044997863,0.9018218,-8.316609,7.391456,2.2219083,0.26583833,-0.8594676,0.12534982,0
1.9700000000000015,12.071185505582136,0.47112360114506097,-1.2847766882968579,0.126949919905788,15.587685,0.7024686,-0.42005563,-0.18968204,0.18247744,0.26152515,1.2587748,0.42370766,0.07594433,0.044352494,0.9015197,-8.296423,7.393862,2.242795,0.4711236,-1.2847767,0.12694992,0
1.9800000000000015,12.071185505582136,0.47112360114506097,-1.2847766882968579,0.126949919905788,15.587685,0.7024686,-0.42005563,-0.18968204,0.09962008,0.3354723,1.2813061,0.42323142,0.082759984,0.04370503,0.901175,-8.274829,7.3954344,2.2634485,0.4711236,-1.2847767,0.12694992,0
1.9900000000000015,12.071185505582136,0.47112360114506097,-1.2847766882968579,0.126949919905788,15.587685,0.7024686,-0.42005563,-0.18968204,0.016985688,0.40943098,1.3040429,0.4227352,0.08957174,0.04305551,0.90078783,-8.251831,7.3961754,2.2838461,0.4711236,-1.2847767,0.12694992,0
2.0000000000000013,,,,,14.242164,1.1430414,-1.7580236,-0.4607982,-0.06541173,0.48339292,1.3269823,0.42221904,0.09637925,0.042403955,0.9003581,-8.227433,7.396086,2.3039658,0.4711236,-1.2847767,0.12694992,0
2.010000000000001,,,,,14.242164,1.1430414,-1.7580236,-0.4607982,-0.14756854,0.55734926,1.3500692,0.4220451,0.10819486,0.03994569,0.89920896,-8.203603,7.3949356,2.3133333,0.5682023,-2.3559725,0.081871495,0
2.020000000000001,,,,,14.242164,1.1430414,-1.7580236,-0.4607982,-0.22947665,0.6312862,1.3732471,0.4218092,0.11999457,0.037481558,0.8979277,-8.177693,7.3921943,2.3221893,0.5682023,-2.3559725,0.081871495,0
2.0300000000000007,,,,,14.242164,1.1430414,-1.7580236,-0.4607982,-0.31111532,0.70518774,1.3965108,0.4215113,0.13177663,0.03501191,0.8965144,-8.149718,7.3878655,2.3304708,0.5682023,-2.3559725,0.081871495,0
2.0400000000000005,,,,,14.242164,1.1430414,-1.7580236,-0.4607982,-0.39246395,0.77903813,1.4198542,0.4211514,0.14353934,0.032537114,0.8949693,-8.119692,7.381954,2.338115,0.5682023,-2.3559725,0.081871495,0
2.0500000000000003,,,,,13.055447,1.4944927,-2.8211956,-0.8045366,-0.47350216,0.85282147,1.4432707,0.42072958,0.15528093,0.030057536,0.8932926,-8.087631,7.374465,2.3450596,0.5682023,-2.3559725,0.081871495,1
2.06,,,,,13.055447,1.4944927,-2.8211956,-0.8045366,-0.5541769,0.92651415,1.4668493,0.42352954,0.17088294,0.031418342,0.88906425,-8.046747,7.363835,2.3704855,1.4944927,-2.8211956,-0.8045366,1
2.07,,,,,13.055447,1.4944927,-2.8211956,-0.8045366,-0.63442475,1.0000927,1.4906754,0.42621472,0.18643863,0.032770634,0.88459504,-8.002262,7.3516417,2.3945146,1.4944927,-2.8211956,-0.8045366,1
2.0799999999999996,,,,,13.055447,1.4944927,-2.8211956,-0.8045366,-0.7142099,1.0735415,1.5147343,0.4287844,0.20194378,0.034114048,0.87988603,-7.954233,7.3378663,2.4170237,1.4944927,-2.8211956,-0.8045366,1
2.0899999999999994,,,,,12.485467,2.0139227,-3.8217447,-1.3702916,-0.7934973,1.1468445,1.5390102,0.4312379,0.21739423,0.035448212,0.8749386,-7.9027224,7.3224926,2.437892,1.4944927,-2.8211956,-0.8045366,1
2.099999999999999,,,,,12.485467,2.0139227,-3.8217447,-1.3702916,-0.87226313,1.2199888,1.5634598,0.43560973,0.23815513,0.03749829,0.8672489,-7.8497715,7.3060355,2.451648,2.0139227,-3.8217447,-1.3702916,1
2.109999999999999,,,,,12.485467,2.0139227,-3.8217447,-1.3702916,-0.95047796,1.2929579,1.5880346,0.43975788,0.25879374,0.039529115,0.85911393,-7.7925296,7.2874455,2.462929,2.0139227,-3.8217447,-1.3702916,1
2.1199999999999988,,,,,12.485467,2.0139227,-3.8217447,-1.3702916,-1.0280995,1.3657304,1.6127092,0.44368023,0.27929944,0.041539643,0.85053784,-7.7311354,7.2666907,2.4715362,2.0139227,-3.8217447,-1.3702916,1
2.1299999999999986,,,,,12.913539,2.034072,-2.49292,-1.5428329,-1.1050868,1.4382844,1.6374556,0.44737476,0.29966173,0.04352884,0.841525,-7.665735,7.2437434,2.4772756,2.0139227,-3.8217447,-1.3702916,1
2.1399999999999983,,,,,12.913539,2.034072,-2.49292,-1.5428329,-1.1813898,1.510595,1.6622624,0.4512899,0.31431672,0.048815537,0.8337625,-7.5943637,7.2182226,2.4837193,2.034072,-2.49292,-1.5428329,1
2.149999999999998,,,,,12.913539,2.034072,-2.49292,-1.5428329,-1.256963,1.5826455,1.6871213,0.4550614,0.3288716,0.054086696,0.8257346,-7.5198126,7.191729,2.4876723,2.034072,-2.49292,-1.5428329,1
