time-since-start [s],throttle_mpc,roll_mpc,pitch_mpc,yaw_mpc,throttle_nw,roll_nw,pitch_nw,yaw_nw,position_x [m],position_y [m],position_z [m],rotation_w [quaternion],rotation_x [quaternion],rotation_y [quaternion],rotation_z [quaternion],velocity_x [m/s],velocity_y [m/s],velocity_z [m/s],omega_x [rad/s],omega_y [rad/s],omega_z [rad/s],network_used
0.0,6.232789902895834,1.3855775029040516,-5.999993405205789,0.23824245925566953,11.402439,-0.02702123,1.8454423,0.29189196,11.269273,-7.075402,1.7777624,0.37744662,-0.13045914,0.036251187,0.91607875,-2.0270457,0.429316,1.3014181,-0.0896947,-0.9398634,-0.97604316,0
0.01,6.232789902895834,1.3855775029040516,-5.999993405205789,0.23824245925566953,10.212806,0.8735677,0.20337214,0.011087805,11.24894,-7.071059,1.7905873,0.37816742,-0.10026157,0.031413257,0.9197555,-2.03905,0.43886486,1.2637194,1.3855776,-5.9999933,0.23824246,0
0.02,6.232789902895834,1.3855775029040516,-5.999993405205789,0.23824245925566953,10.212806,0.8735677,0.20337214,0.011087805,11.228502,-7.0666313,1.8030396,0.37852922,-0.069968805,0.0265455,0.92255914,-2.0478597,0.44645432,1.2268438,1.3855776,-5.9999933,0.23824246,0
0.03,6.232789902895834,1.3855775029040516,-5.999993405205789,0.23824245925566953,10.212806,0.8735677,0.20337214,0.011087805,11.207993,-7.062137,1.8151261,0.37853166,-0.039609622,0.021652542,0.92448694,-2.0534365,0.45206335,1.1905584,1.3855776,-5.9999933,0.23824246,0
0.04,6.232789902895834,1.3855775029040516,-5.999993405205789,0.23824245925566953,10.057959,0.17177968,0.2532702,-0.27755037,11.187444,-7.057597,1.8268517,0.37817475,-0.009212835,0.01673903,0.92553705,-2.0557544,0.45567852,1.1546289,1.3855776,-5.9999933,0.23824246,0
0.05,6.232789902895834,1.3855775029040516,-5.999993405205789,0.23824245925566953,10.057959,0.17177968,0.2532702,-0.27755037,11.166889,-7.0530305,1.8382189,0.3774588,0.0211927,0.011809623,0.92570853,-2.0548,0.45729393,1.1188194,1.3855776,-5.9999933,0.23824246,0
0.060000000000000005,6.232789902895834,1.3855775029040516,-5.999993405205789,0.23824245925566953,10.057959,0.17177968,0.2532702,-0.27755037,11.146359,-7.048458,1.8492275,0.37638453,0.051578116,0.0068690074,0.9250012,-2.0505722,0.45691118,1.0828934,1.3855776,-5.9999933,0.23824246,0
0.07,6.232789902895834,1.3855775029040516,-5.999993405205789,0.23824245925566953,10.057959,0.17177968,0.2532702,-0.27755037,11.125889,-7.0438995,1.8598756,0.37495294,0.08191457,0.00192187,0.9234158,-2.0430822,0.45453954,1.0466148,1.3855776,-5.9999933,0.23824246,0
0.08,7.20056036012633,0.9451362827762988,-4.602842446640612,0.07471765664539023,10.557981,-0.14029448,2.2000642,-0.6200931,11.105509,-7.039374,1.870158,0.3731654,0.11217326,-0.0030270917,0.9209537,-2.0323539,0.45019582,1.009749,1.3855776,-5.9999933,0.23824246,0
0.09,7.20056036012633,0.9451362827762988,-4.602842446640612,0.07471765664539023,10.557981,-0.14029448,2.2000642,-0.6200931,11.085261,-7.0349064,1.880115,0.37211865,0.13509753,-0.0073037427,0.9182718,-2.0166018,0.44309872,0.9815448,0.9451363,-4.6028423,0.074717656,0
0.09999999999999999,7.20056036012633,0.9451362827762988,-4.602842446640612,0.07471765664539023,10.557981,-0.14029448,2.2000642,-0.6200931,11.065186,-7.030518,1.8897858,0.37086648,0.15794723,-0.011576361,0.9150829,-1.9981039,0.43423295,0.9524602,0.9451363,-4.6028423,0.074717656,0
0.10999999999999999,7.20056036012633,0.9451362827762988,-4.602842446640612,0.07471765664539023,10.557981,-0.14029448,2.2000642,-0.6200931,11.045308,-7.0262275,1.8991606,0.36940953,0.18070972,-0.01584259,0.91138875,-1.9768993,0.4236202,0.9223429,0.9451363,-4.6028423,0.074717656,0
0.11999999999999998,7.20056036012633,0.9451362827762988,-4.602842446640612,0.07471765664539023,10.557981,-0.14029448,2.2000642,-0.6200931,11.025656,-7.0220513,1.9082286,0.36774865,0.20337242,-0.020100072,0.90719146,-1.9530337,0.41128606,0.8910427,0.9451363,-4.6028423,0.074717656,0
0.12999999999999998,7.786062879174635,0.2592877061545658,1.9363140011088495,-0.01964809350150086,10.220797,0.20835257,2.6497755,-0.48282152,11.006257,-7.0180073,1.9169769,0.36588472,0.22592285,-0.024346458,0.9024933,-1.9265583,0.3972599,0.858412,0.9451363,-4.6028423,0.074717656,0
0.13999999999999999,7.786062879174635,0.2592877061545658,1.9363140011088495,-0.01964809350150086,10.220797,0.20835257,2.6497755,-0.48282152,10.987143,-7.014115,1.9254203,0.36589873,0.21765138,-0.019610813,0.9046331,-1.8965014,0.3813893,0.83036065,0.25928771,1.936314,-0.019648094,0
0.15,7.786062879174635,0.2592877061545658,1.9363140011088495,-0.01964809350150086,10.220797,0.20835257,2.6497755,-0.48282152,10.968325,-7.010375,1.9335862,0.36587784,0.20935915,-0.014873296,0.9066866,-1.8672689,0.3666508,0.80290294,0.25928771,1.936314,-0.019648094,0
0.16,8.134265147270137,-0.12643972897272962,5.722053537708002,-0.03477498591948863,11.879482,-0.8174711,2.9908273,-0.31106478,10.949794,-7.0067773,1.9414803,0.36582202,0.20104696,-0.010134359,0.9086536,-1.8388717,0.35305014,0.7760118,0.25928771,1.936314,-0.019648094,0
0.17,8.134265147270137,-0.12643972897272962,5.722053537708002,-0.03477498591948863,11.879482,-0.8174711,2.9908273,-0.31106478,10.931547,-7.0033107,1.9491256,0.36624718,0.1747419,-0.00020479062,0.9139628,-1.8109281,0.34071675,0.7532907,-0.12643974,5.7220535,-0.034774985,0
0.18000000000000002,8.134265147270137,-0.12643972897272962,5.722053537708002,-0.03477498591948863,11.879482,-0.8174711,2.9908273,-0.31106478,10.913564,-6.999953,1.9565516,0.3663724,0.1482937,0.009724944,0.9185235,-1.7861634,0.33141845,0.732101,-0.12643974,5.7220535,-0.034774985,0
0.19000000000000003,8.134265147270137,-0.12643972897272962,5.722053537708002,-0.03477498591948863,11.879482,-0.8174711,2.9908273,-0.31106478,10.895812,-6.996672,1.9637722,0.36619762,0.12172409,0.019646715,0.922332,-1.7646579,0.32518697,0.71219057,-0.12643974,5.7220535,-0.034774985,0
0.20000000000000004,8.190996267664532,-0.29447419793978363,5.999786385718304,-0.0748285008662308,11.126349,-0.027202476,3.81491,-0.6169406,10.878259,-6.9934382,1.9707989,0.36572292,0.0950548,0.029552396,0.9253852,-1.7464808,0.3220439,0.6933032,-0.12643974,5.7220535,-0.034774985,0
0.21000000000000005,8.190996267664532,-0.29447419793978363,5.999786385718304,-0.0748285008662308,11.126349,-0.027202476,3.81491,-0.6169406,10.86087,-6.9902196,1.9776436,0.36515766,0.066706076,0.03918197,0.92772555,-1.7316834,0.3220211,0.6757537,-0.29447418,5.9997864,-0.0748285,0
0.22000000000000006,8.190996267664532,-0.29447419793978363,5.999786385718304,-0.0748285008662308,11.126349,-0.027202476,3.81491,-0.6169406,10.843612,-6.9869857,1.9843159,0.36426297,0.038297173,0.048776194,0.92922896,-1.7206017,0.32517707,0.6587375,-0.29447418,5.9997864,-0.0748285,0
0.23000000000000007,8.190996267664532,-0.29447419793978363,5.999786385718304,-0.0748285008662308,11.126349,-0.027202476,3.81491,-0.6169406,10.826446,-6.983705,1.9908195,0.36303964,0.009853717,0.058326412,0.92989403,-1.7132734,0.33150324,0.64196175,-0.29447418,5.9997864,-0.0748285,0
0.24000000000000007,8.190996267664532,-0.29447419793978363,5.999786385718304,-0.0748285008662308,11.278356,0.6688989,1.2948852,-0.5789243,10.809333,-6.9803452,1.9971551,0.3614888,-0.018598627,0.067824006,0.92972016,-1.7097225,0.34097955,0.6251326,-0.29447418,5.9997864,-0.0748285,0
0.25000000000000006,8.190996267664532,-0.29447419793978363,5.999786385718304,-0.0748285008662308,11.278356,0.6688989,1.2948852,-0.5789243,10.792237,-6.976875,2.003321,0.3596118,-0.047034197,0.07726042,0.92870754,-1.7099596,0.35357463,0.6079564,-0.29447418,5.9997864,-0.0748285,0
0.26000000000000006,8.190996267664532,-0.29447419793978363,5.999786385718304,-0.0748285008662308,11.278356,0.6688989,1.2948852,-0.5789243,10.775122,-6.9732633,2.0093122,0.35741037,-0.07542733,0.08662712,0.926857,-1.7139815,0.36924586,0.5901409,-0.29447418,5.9997864,-0.0748285,0
0.2700000000000001,8.190996267664532,-0.29447419793978363,5.999786385718304,-0.0748285008662308,11.278356,0.6688989,1.2948852,-0.5789243,10.757945,-6.96948,2.0151207,0.35488653,-0.10375241,0.09591567,0.9241703,-1.7217712,0.38793948,0.57139593,-0.29447418,5.9997864,-0.0748285,0
0.2800000000000001,8.294042048138996,-0.42966290620505504,5.459486625613578,-0.12451619457322487,10.884555,0.40062234,1.3509569,-0.26515543,10.740672,-6.9654946,2.020736,0.35204247,-0.13198389,0.10511769,0.9206499,-1.7332983,0.4095909,0.5514348,-0.29447418,5.9997864,-0.0748285,0
0.2900000000000001,8.294042048138996,-0.42966290620505504,5.459486625613578,-0.12451619457322487,10.884555,0.40062234,1.3509569,-0.26515543,10.723266,-6.961277,2.0261493,0.34933093,-0.15788426,0.112627156,0.9167089,-1.7486192,0.4343003,0.53100216,-0.4296629,5.4594865,-0.1245162,0
0.3000000000000001,8.294042048138996,-0.42966290620505504,5.459486625613578,-0.12451619457322487,10.884555,0.40062234,1.3509569,-0.26515543,10.7056875,-6.9568,2.0313506,0.3463574,-0.1836662,0.120052144,0.9120802,-1.7673844,0.46149707,0.50896597,-0.4296629,5.4594865,-0.1245162,0
0.3100000000000001,8.294042048138996,-0.42966290620505504,5.459486625613578,-0.12451619457322487,10.884555,0.40062234,1.3509569,-0.26515543,10.687906,-6.9520392,2.0363226,0.34312406,-0.20931037,0.12738709,0.9067674,-1.789534,0.49110407,0.4850975,-0.4296629,5.4594865,-0.1245162,0
0.3200000000000001,8.389956008319299,-0.5225222917660108,4.145555642024012,-0.17983473237085523,8.640832,0.16137369,0.9855808,-0.2066515,10.669887,-6.9469705,2.0410457,0.33963332,-0.23479754,0.13462648,0.90077454,-1.8149979,0.52303684,0.4591735,-0.4296629,5.4594865,-0.1245162,0
0.3300000000000001,8.389956008319299,-0.5225222917660108,4.145555642024012,-0.17983473237085523,8.640832,0.16137369,0.9855808,-0.2066515,10.651595,-6.94157,2.045503,0.33696526,-0.2544242,0.13907206,0.8957575,-1.8437798,0.5573558,0.43201002,-0.5225223,4.1455555,-0.17983474,0
0.34000000000000014,8.389956008319299,-0.5225222917660108,4.145555642024012,-0.17983473237085523,8.640832,0.16137369,0.9855808,-0.2066515,10.633003,-6.935818,2.0496795,0.33414987,-0.27393964,0.14345685,0.89034873,-1.875102,0.59321326,0.40298492,-0.5225223,4.1455555,-0.17983474,0
0.35000000000000014,8.389956008319299,-0.5225222917660108,4.145555642024012,-0.17983473237085523,8.640832,0.16137369,0.9855808,-0.2066515,10.614085,-6.9297004,2.053556,0.33118835,-0.2933353,0.14777888,0.88455063,-1.9089061,0.6305516,0.37197667,-0.5225223,4.1455555,-0.17983474,0
0.36000000000000015,8.495065643248921,-0.5728148145385581,2.4732235997172025,-0.2053535697497812,8.81538,-0.51959956,-4.2654176,-0.04291473,10.594816,-6.9232025,2.057112,0.32808203,-0.31260267,0.1520363,0.87836576,-1.9451295,0.6693106,0.33886728,-0.5225223,4.1455555,-0.17983474,0
0.37000000000000016,8.495065643248921,-0.5728148145385581,2.4732235997172025,-0.2053535697497812,8.81538,-0.51959956,-4.2654176,-0.04291473,10.575171,-6.9163084,2.0603306,0.32618192,-0.3245347,0.15324436,0.8745276,-1.9838899,0.7096668,0.30468324,-0.5728148,2.4732237,-0.20535357,0
0.38000000000000017,8.495065643248921,-0.5728148145385581,2.4732235997172025,-0.2053535697497812,8.81538,-0.51959956,-4.2654176,-0.04291473,10.555132,-6.909007,2.0632007,0.3242289,-0.33641416,0.15442757,0.87054753,-2.0241911,0.7506552,0.26912928,-0.5728148,2.4732237,-0.20535357,0
0.3900000000000002,8.495065643248921,-0.5728148145385581,2.4732235997172025,-0.2053535697497812,8.81538,-0.51959956,-4.2654176,-0.04291473,10.534682,-6.901293,2.0657082,0.32222334,-0.34823903,0.15558575,0.8664263,-2.066005,0.79225314,0.23216408,-0.5728148,2.4732237,-0.20535357,0
0.4000000000000002,8.576123086618537,-0.5664580660431628,1.3760188378722122,-0.2076591074871947,8.44202,-0.55700547,-0.9907892,0.35406545,10.513807,-6.89316,2.067839,0.32016551,-0.36000744,0.15671869,0.8621645,-2.1093023,0.8344375,0.19374743,-0.5728148,2.4732237,-0.20535357,0
0.4100000000000002,8.576123086618537,-0.5664580660431628,1.3760188378722122,-0.2076591074871947,8.44202,-0.55700547,-0.9907892,0.35406545,10.492491,-6.8846006,2.0695815,0.31895378,-0.36699852,0.15610133,0.8597747,-2.1542912,0.87744087,0.15465231,-0.56645805,1.3760189,-0.20765911,0
0.4200000000000002,8.576123086618537,-0.5664580660431628,1.3760188378722122,-0.2076591074871947,8.44202,-0.55700547,-0.9907892,0.35406545,10.470719,-6.8756104,2.0709293,0.31772405,-0.3739689,0.15547517,0.85733646,-2.2002256,0.92059386,0.11471336,-0.56645805,1.3760189,-0.20765911,0
0.4300000000000002,8.576123086618537,-0.5664580660431628,1.3760188378722122,-0.2076591074871947,8.44202,-0.55700547,-0.9907892,0.35406545,10.448483,-6.866188,2.071873,0.3164764,-0.38091812,0.15484025,0.8548498,-2.2470944,0.96388924,0.07391688,-0.56645805,1.3760189,-0.20765911,0
0.4400000000000002,8.576123086618537,-0.5664580660431628,1.3760188378722122,-0.2076591074871947,8.528013,-1.1469781,-0.7683682,0.4307549,10.425775,-6.856332,2.0724044,0.31521088,-0.38784587,0.15419658,0.85231495,-2.2948859,1.0073196,0.032249376,-0.56645805,1.3760189,-0.20765911,0
0.45000000000000023,8.576123086618537,-0.5664580660431628,1.3760188378722122,-0.2076591074871947,8.528013,-1.1469781,-0.7683682,0.4307549,10.402582,-6.8460407,2.0725148,0.31392756,-0.39475176,0.1535442,0.849732,-2.3435886,1.0508777,-0.010302471,-0.56645805,1.3760189,-0.20765911,0
0.46000000000000024,8.576123086618537,-0.5664580660431628,1.3760188378722122,-0.2076591074871947,8.528013,-1.1469781,-0.7683682,0.4307549,10.378899,-6.835314,2.072195,0.31262657,-0.40163532,0.15288317,0.84710103,-2.3931906,1.094556,-0.053751763,-0.56645805,1.3760189,-0.20765911,0
0.47000000000000025,8.576123086618537,-0.5664580660431628,1.3760188378722122,-0.2076591074871947,8.528013,-1.1469781,-0.7683682,0.4307549,10.354715,-6.8241496,2.0714366,0.31130794,-0.40849626,0.15221351,0.8444222,-2.44368,1.1383473,-0.0981114,-0.56645805,1.3760189,-0.20765911,0
0.48000000000000026,8.78100606133408,-0.563596009324594,1.018308383802011,-0.19179971175941013,8.767336,-1.3270915,-0.1857831,-0.09278329,10.330022,-6.8125467,2.0702298,0.3099717,-0.41533414,0.15153527,0.84169585,-2.495044,1.1822441,-0.1433941,-0.56645805,1.3760189,-0.20765911,0
0.49000000000000027,8.78100606133408,-0.563596009324594,1.018308383802011,-0.19179971175941013,8.767336,-1.3270915,-0.1857831,-0.09278329,10.304805,-6.800499,2.068572,0.30883154,-0.42063123,0.15034068,0.8396963,-2.5484638,1.2272444,-0.18827896,-0.563596,1.0183084,-0.19179972,0
0.5000000000000002,8.78100606133408,-0.563596009324594,1.018308383802011,-0.19179971175941013,8.767336,-1.3270915,-0.1857831,-0.09278329,10.27905,-6.788001,2.0664618,0.30768064,-0.4259137,0.14914086,0.8376675,-2.6026106,1.2722179,-0.23388113,-0.563596,1.0183084,-0.19179972,0
0.5100000000000002,8.78100606133408,-0.563596009324594,1.018308383802011,-0.19179971175941013,8.767336,-1.3270915,-0.1857831,-0.09278329,10.252751,-6.7750545,2.063892,0.30651903,-0.43118134,0.14793587,0.8356096,-2.6574771,1.3171599,-0.28020844,-0.563596,1.0183084,-0.19179972,0
0.5200000000000002,8.986057977077417,-0.5173616124863955,0.14441590179561276,-0.16828271486461913,9.166374,-1.3498846,-0.1499573,-0.1799568,10.225899,-6.761658,2.060855,0.3053468,-0.436434,0.14672571,0.8335226,-2.7130547,1.3620663,-0.32726875,-0.563596,1.0183084,-0.19179972,1
0.5300000000000002,8.986057977077417,-0.5173616124863955,0.14441590179561276,-0.16828271486461913,9.166374,-1.3498846,-0.1499573,-0.1799568,10.198475,-6.747804,2.0573559,0.30325395,-0.43799177,0.14047487,0.8345458,-2.7718039,1.4085399,-0.37254032,-1.3498846,-0.1499573,-0.1799568,1
0.5400000000000003,8.986057977077417,-0.5173616124863955,0.14441590179561276,-0.16828271486461913,9.166374,-1.3498846,-0.1499573,-0.1799568,10.170461,-6.7334905,2.0534043,0.3011469,-0.4395289,0.13421744,0.83552986,-2.8312733,1.4540011,-0.41773683,-1.3498846,-0.1499573,-0.1799568,1
0.5500000000000003,8.986057977077417,-0.5173616124863955,0.14441590179561276,-0.16828271486461913,9.166374,-1.3498846,-0.1499573,-0.1799568,10.141848,-6.7187276,2.0490015,0.2990257,-0.44104546,0.12795372,0.8364747,-2.8914533,1.4984418,-0.46286988,-1.3498846,-0.1499573,-0.1799568,1
0.5600000000000003,9.337724287622798,-0.23472986464294243,0.011523615865259329,-0.13986250404891998,9.196144,-0.48033258,-0.8923637,-0.20285046,10.11263,-6.703525,2.0441473,0.29689053,-0.4425413,0.121683985,0.83738035,-2.9523337,1.5418546,-0.507951,-1.3498846,-0.1499573,-0.1799568,1
0.5700000000000003,9.337724287622798,-0.23472986464294243,0.011523615865259329,-0.13986250404891998,9.196144,-0.48033258,-0.8923637,-0.20285046,10.082799,-6.6878924,2.0388439,0.29721597,-0.4396356,0.11789775,0.8393348,-3.0138133,1.5845085,-0.552593,-0.48033258,-0.8923637,-0.20285046,1
0.5800000000000003,9.337724287622798,-0.23472986464294243,0.011523615865259329,-0.13986250404891998,9.196144,-0.48033258,-0.8923637,-0.20285046,10.052354,-6.6718373,2.0330977,0.29753345,-0.4367182,0.11410837,0.8412668,-3.0752013,1.6264875,-0.5965991,-0.48033258,-0.8923637,-0.20285046,1
0.5900000000000003,9.337724287622798,-0.23472986464294243,0.011523615865259329,-0.13986250404891998,9.196144,-0.48033258,-0.8923637,-0.20285046,10.021295,-6.6553655,2.0269144,0.297843,-0.4337891,0.11031595,0.8431764,-3.1364925,1.667786,-0.63997567,-0.48033258,-0.8923637,-0.20285046,1
0.6000000000000003,9.65514668433422,-0.008857855423961168,0.2652211601885076,-0.10167298149819456,10.76658,0.4269394,-0.8704757,-0.3898439,9.989625,-6.6384845,2.0203004,0.2981446,-0.43084845,0.10652057,0.8450635,-3.1976824,1.7083988,-0.6827291,-0.48033258,-0.8923637,-0.20285046,0
0.6100000000000003,9.65514668433422,-0.008857855423961168,0.2652211601885076,-0.10167298149819456,10.76658,0.4269394,-0.8704757,-0.3898439,9.957326,-6.621189,2.0132747,0.29841357,-0.432036,0.10665938,0.84434444,-3.2619026,1.7506233,-0.7223908,-0.008857856,0.26522115,-0.101672985,0
0.6200000000000003,9.65514668433422,-0.008857855423961168,0.2652211601885076,-0.10167298149819456,10.76658,0.4269394,-0.8704757,-0.3898439,9.924386,-6.6034718,2.0058517,0.29868194,-0.4332227,0.10679798,0.8436237,-3.3262427,1.7929466,-0.76225626,-0.008857856,0.26522115,-0.101672985,0
0.6300000000000003,9.65514668433422,-0.008857855423961168,0.2652211601885076,-0.10167298149819456,10.76658,0.4269394,-0.8704757,-0.3898439,9.890801,-6.58533,1.9980291,0.2989497,-0.43440852,0.10693635,0.84290123,-3.3907022,1.8353683,-0.80232584,-0.008857856,0.26522115,-0.101672985,0
0.6400000000000003,9.65514668433422,-0.008857855423961168,0.2652211601885076,-0.10167298149819456,11.639219,0.54056644,-0.4198841,-0.27061006,9.856571,-6.566764,1.9898047,0.29921684,-0.43559346,0.107074514,0.8421771,-3.4552808,1.8778884,-0.8425999,-0.008857856,0.26522115,-0.101672985,0
0.6500000000000004,9.65514668433422,-0.008857855423961168,0.2652211601885076,-0.10167298149819456,11.639219,0.54056644,-0.4198841,-0.27061006,9.821695,-6.5477724,1.9811765,0.2994834,-0.43677753,0.10721246,0.8414512,-3.5199776,1.920507,-0.883079,-0.008857856,0.26522115,-0.101672985,0
0.6600000000000004,9.65514668433422,-0.008857855423961168,0.2652211601885076,-0.10167298149819456,11.639219,0.54056644,-0.4198841,-0.27061006,9.786171,-6.5283537,1.9721425,0.29974934,-0.43796068,0.10735019,0.84072363,-3.584792,1.9632237,-0.92376333,-0.008857856,0.26522115,-0.101672985,0
0.6700000000000004,9.65514668433422,-0.008857855423961168,0.2652211601885076,-0.10167298149819456,11.639219,0.54056644,-0.4198841,-0.27061006,9.749998,-6.5085077,1.9627005,0.30001467,-0.439143,0.1074877,0.8399944,-3.6497233,2.0060387,-0.9646534,-0.008857856,0.26522115,-0.101672985,0
0.6800000000000004,10.109793403482058,-0.04365803315185721,0.08929593666973379,-0.08195847052150841,11.420536,0.35007274,-0.5854986,-0.45221964,9.713176,-6.4882326,1.9528487,0.3002794,-0.4403244,0.107625,0.8392634,-3.714771,2.0489516,-1.0057496,-0.008857856,0.26522115,-0.101672985,0
0.6900000000000004,10.109793403482058,-0.04365803315185721,0.08929593666973379,-0.08195847052150841,11.420536,0.35007274,-0.5854986,-0.45221964,9.675687,-6.467518,1.9425983,0.3004791,-0.44080868,0.1073954,0.8389671,-3.782982,2.0939503,-1.0443252,-0.043658033,0.08929594,-0.08195847,0
0.7000000000000004,10.109793403482058,-0.04365803315185721,0.08929593666973379,-0.08195847052150841,11.420536,0.35007274,-0.5854986,-0.45221964,9.637516,-6.446353,1.9319619,0.30067867,-0.44129276,0.10716576,0.8386704,-3.8512588,2.1389508,-1.0829772,-0.043658033,0.08929594,-0.08195847,0
0.7100000000000004,10.109793403482058,-0.04365803315185721,0.08929593666973379,-0.08195847052150841,11.420536,0.35007274,-0.5854986,-0.45221964,9.598661,-6.424738,1.9209386,0.3008781,-0.4417767,0.106936075,0.83837336,-3.9196005,2.1839533,-1.1217054,-0.043658033,0.08929594,-0.08195847,0
0.7200000000000004,10.53455899451368,-0.04576599101657797,-0.42275444825031655,-0.0646289120939971,11.6736355,0.28697148,-0.52838695,-0.45514962,9.559124,-6.402673,1.9095275,0.30107743,-0.4422604,0.10670634,0.838076,-3.988007,2.2289572,-1.1605103,-0.043658033,0.08929594,-0.08195847,0
0.7300000000000004,10.53455899451368,-0.04576599101657797,-0.42275444825031655,-0.0646289120939971,11.6736355,0.28697148,-0.52838695,-0.45514962,9.5188875,-6.380149,1.8977411,0.30147192,-0.44059128,0.105735,0.838936,-4.05927,2.2757702,-1.196741,-0.045765992,-0.42275444,-0.064628914,0
0.7400000000000004,10.53455899451368,-0.04576599101657797,-0.42275444825031655,-0.0646289120939971,11.6736355,0.28697148,-0.52838695,-0.45514962,9.47794,-6.3571587,1.885594,0.301865,-0.43892008,0.10476317,0.83979213,-4.13037,2.3223615,-1.232618,-0.045765992,-0.42275444,-0.064628914,0
0.7500000000000004,10.53455899451368,-0.04576599101657797,-0.42275444825031655,-0.0646289120939971,11.6736355,0.28697148,-0.52838695,-0.45514962,9.436281,-6.333703,1.87309,0.30225667,-0.43724686,0.10379084,0.8406445,-4.2013063,2.3687296,-1.2681426,-0.045765992,-0.42275444,-0.064628914,0
0.7600000000000005,11.041249026408364,-0.03154208303455652,-0.532017821735285,-0.049251378309677275,12.84722,0.2408905,-0.639254,-0.5290845,9.393914,-6.309785,1.8602325,0.30264693,-0.4355716,0.102818035,0.8414928,-4.272078,2.4148736,-1.3033161,-0.045765992,-0.42275444,-0.064628914,0
0.7700000000000005,11.041249026408364,-0.03154208303455652,-0.532017821735285,-0.049251378309677275,12.84722,0.2408905,-0.639254,-0.5290845,9.350823,-6.285395,1.8470403,0.30305788,-0.43340468,0.10177263,0.8425901,-4.3460574,2.4629865,-1.3350599,-0.03154208,-0.5320178,-0.049251378,0
0.7800000000000005,11.041249026408364,-0.03154208303455652,-0.532017821735285,-0.049251378309677275,12.84722,0.2408905,-0.639254,-0.5290845,9.306994,-6.2605257,1.8335329,0.30346665,-0.43123463,0.100726485,0.8436814,-4.4197984,2.5108237,-1.3663414,-0.03154208,-0.5320178,-0.049251378,0
0.7900000000000005,11.041249026408364,-0.03154208303455652,-0.532017821735285,-0.049251378309677275,12.84722,0.2408905,-0.639254,-0.5290845,9.262428,-6.2351794,1.819715,0.30387327,-0.4290615,0.09967962,0.8447666,-4.4933,2.558384,-1.3971624,-0.03154208,-0.5320178,-0.049251378,0
0.8000000000000005,11.392744987815096,0.021282982079683772,-0.704523661600781,-0.03923168726923287,13.122467,0.16370396,-0.6870145,-0.42017242,9.217129,-6.2093596,1.8055912,0.3042777,-0.42688528,0.09863204,0.8458458,-4.56656,2.6056652,-1.427525,-0.03154208,-0.5320178,-0.049251378,0
0.8100000000000005,11.392744987815096,0.021282982079683772,-0.704523661600781,-0.03923168726923287,13.122467,0.16370396,-0.6870145,-0.42017242,9.171086,-6.18306,1.791177,0.3048346,-0.42388996,0.097565845,0.84727407,-4.641854,2.6541483,-1.4552006,0.021282982,-0.7045237,-0.039231688,0
0.8200000000000005,11.392744987815096,0.021282982079683772,-0.704523661600781,-0.03923168726923287,13.122467,0.16370396,-0.6870145,-0.42017242,9.124293,-6.156278,1.7764893,0.30538774,-0.4208894,0.096498445,0.8486918,-4.7167687,2.702303,-1.4822491,0.021282982,-0.7045237,-0.039231688,0
0.8300000000000005,11.392744987815096,0.021282982079683772,-0.704523661600781,-0.03923168726923287,13.122467,0.16370396,-0.6870145,-0.42017242,9.076753,-6.129016,1.7615341,0.30593705,-0.4178836,0.09542982,0.850099,-4.7913013,2.7501264,-1.5086743,0.021282982,-0.7045237,-0.039231688,0
0.8400000000000005,11.392744987815096,0.021282982079683772,-0.704523661600781,-0.03923168726923287,13.786607,0.17068736,-0.4687721,-0.34786126,9.028469,-6.101277,1.7463179,0.30648255,-0.4148726,0.09436002,0.85149556,-4.865447,2.7976155,-1.5344795,0.021282982,-0.7045237,-0.039231688,0
0.8500000000000005,11.392744987815096,0.021282982079683772,-0.704523661600781,-0.03923168726923287,13.786607,0.17068736,-0.4687721,-0.34786126,8.979445,-6.073065,1.7308466,0.30702424,-0.4118564,0.09328904,0.85288155,-4.9392033,2.8447685,-1.5596685,0.021282982,-0.7045237,-0.039231688,0
0.8600000000000005,11.392744987815096,0.021282982079683772,-0.704523661600781,-0.03923168726923287,13.786607,0.17068736,-0.4687721,-0.34786126,8.929687,-6.0443826,1.7151266,0.3075621,-0.4088351,0.0922169,0.85425687,-5.0125666,2.8915825,-1.5842448,0.021282982,-0.7045237,-0.039231688,0
0.8700000000000006,11.392744987815096,0.021282982079683772,-0.704523661600781,-0.03923168726923287,13.786607,0.17068736,-0.4687721,-0.34786126,8.879195,-6.015234,1.6991639,0.30809614,-0.40580872,0.091143616,0.8556216,-5.085533,2.9380548,-1.6082122,0.021282982,-0.7045237,-0.039231688,0
0.8800000000000006,11.866704416605002,0.07492584100348108,-0.44760229019632986,-0.029354191424250484,13.589226,0.26394492,-0.49195355,-0.21173619,8.827977,-5.9856224,1.6829646,0.30862626,-0.40277725,0.0900692,0.8569756,-5.1580997,2.9841826,-1.6315745,0.021282982,-0.7045237,-0.039231688,0
0.8900000000000006,11.866704416605002,0.07492584100348108,-0.44760229019632986,-0.029354191424250484,13.589226,0.26394492,-0.49195355,-0.21173619,8.77602,-5.9555416,1.6665498,0.3091037,-0.40075588,0.08964019,0.8577958,-5.233306,3.0319395,-1.6512839,0.07492584,-0.4476023,-0.029354192,0
0.9000000000000006,11.866704416605002,0.07492584100348108,-0.44760229019632986,-0.029354191424250484,13.589226,0.26394492,-0.49195355,-0.21173619,8.723311,-5.9249845,1.64994,0.30957955,-0.39873245,0.08921071,0.85861146,-5.3082004,3.0795236,-1.67059,0.07492584,-0.4476023,-0.029354192,0
0.9100000000000006,11.866704416605002,0.07492584100348108,-0.44760229019632986,-0.029354191424250484,13.589226,0.26394492,-0.49195355,-0.21173619,8.669856,-5.893952,1.6331393,0.3100538,-0.39670694,0.08878078,0.85942274,-5.3827806,3.1269336,-1.6894947,0.07492584,-0.4476023,-0.029354192,0
0.9200000000000006,12.252215598318942,0.1840648109385706,-0.5721073667032279,-0.028169800748832057,14.048087,0.42931283,-0.2120454,-0.18416837,8.615657,-5.8624463,1.6161515,0.31052646,-0.3946794,0.088350385,0.86022955,-5.4570456,3.1741688,-1.7079993,0.07492584,-0.4476023,-0.029354192,0
0.9300000000000006,12.252215598318942,0.1840648109385706,-0.5721073667032279,-0.028169800748832057,14.048087,0.42931283,-0.2120454,-0.18416837,8.560706,-5.8304615,1.5989938,0.31126222,-0.39194354,0.08819781,0.8612296,-5.5333376,3.2227695,-1.7234604,0.1840648,-0.5721074,-0.028169801,0
0.9400000000000006,12.252215598318942,0.1840648109385706,-0.5721073667032279,-0.028169800748832057,14.048087,0.42931283,-0.2120454,-0.18416837,8.504993,-5.7979918,1.5816842,0.31199512,-0.38920414,0.08804444,0.8622219,-5.6091433,3.2712212,-1.7383887,0.1840648,-0.5721074,-0.028169801,0
0.9500000000000006,12.252215598318942,0.1840648109385706,-0.5721073667032279,-0.028169800748832057,14.048087,0.42931283,-0.2120454,-0.18416837,8.448524,-5.765038,1.5642279,0.31272516,-0.38646123,0.087890275,0.8632063,-5.6844606,3.3195224,-1.752787,0.1840648,-0.5721074,-0.028169801,0
0.9600000000000006,12.81138685084675,0.29092411657205386,-0.45779488125782575,-0.02646969562954079,14.45201,0.7670684,-0.06646881,-0.15186901,8.391306,-5.7316017,1.5466303,0.31345245,-0.38371482,0.08773531,0.86418295,-5.7592864,3.367671,-1.7666585,0.1840648,-0.5721074,-0.028169801,0
0.9700000000000006,12.81138685084675,0.29092411657205386,-0.45779488125782575,-0.02646969562954079,14.45201,0.7670684,-0.06646881,-0.15186901,8.333324,-5.697674,1.5289158,0.31432465,-0.38129094,0.08822377,0.86488897,-5.837008,3.417922,-1.776173,0.2909241,-0.45779487,-0.026469696,0
0.9800000000000006,12.81138685084675,0.29092411657205386,-0.45779488125782575,-0.02646969562954079,14.45201,0.7670684,-0.06646881,-0.15186901,8.274569,-5.6632433,1.5111084,0.31519455,-0.37886432,0.08871159,0.8655886,-5.9142017,3.4681869,-1.7852354,0.2909241,-0.45779487,-0.026469696,0
0.9900000000000007,12.81138685084675,0.29092411657205386,-0.45779488125782575,-0.02646969562954079,14.45201,0.7670684,-0.06646881,-0.15186901,8.215043,-5.62831,1.4932126,0.3160621,-0.37643486,0.08919875,0.86628187,-5.9908657,3.518464,-1.7938483,0.2909241,-0.45779487,-0.026469696,0
1.0000000000000007,13.182011357828625,0.3964308247690011,-0.6524492142987122,-0.035487213037780754,14.590658,1.1272978,-0.17702946,-0.1504524,8.154753,-5.5928736,1.4752328,0.31692734,-0.37400264,0.08968526,0.86696875,-6.0669975,3.5687523,-1.8020142,0.2909241,-0.45779487,-0.026469696,0
1.0100000000000007,13.182011357828625,0.3964308247690011,-0.6524492142987122,-0.035487213037780754,14.590658,1.1272978,-0.17702946,-0.1504524,8.093693,-5.5569277,1.457187,0.31811276,-0.37055936,0.09030281,0.8679485,-6.1447,3.6204987,-1.8070494,0.39643082,-0.6524492,-0.035487212,0
1.0200000000000007,13.182011357828625,0.3964308247690011,-0.6524492142987122,-0.035487213037780754,14.590658,1.1272978,-0.17702946,-0.1504524,8.03186,-5.520464,1.439094,0.31929353,-0.36711067,0.09091905,0.86891556,-6.22163,3.6722364,-1.8114399,0.39643082,-0.6524492,-0.035487212,0
1.0300000000000007,13.182011357828625,0.3964308247690011,-0.6524492142987122,-0.035487213037780754,14.590658,1.1272978,-0.17702946,-0.1504524,7.969262,-5.483483,1.4209603,0.32046965,-0.36365664,0.09153395,0.86986995,-6.297783,3.7239623,-1.8151911,0.39643082,-0.6524492,-0.035487212,0
1.0400000000000007,13.182011357828625,0.3964308247690011,-0.6524492142987122,-0.035487213037780754,14.535142,1.4635804,-0.30180296,-0.18973039,7.905907,-5.4459844,1.4027923,0.3216411,-0.36019725,0.09214752,0.87081164,-6.373154,3.7756727,-1.8183086,0.39643082,-0.6524492,-0.035487212,0
1.0500000000000007,13.182011357828625,0.3964308247690011,-0.6524492142987122,-0.035487213037780754,14.535142,1.4635804,-0.30180296,-0.18973039,7.8418016,-5.407969,1.3845962,0.3228078,-0.3567326,0.09275975,0.8717406,-6.4477396,3.827364,-1.8207974,0.39643082,-0.6524492,-0.035487212,0
1.0600000000000007,13.182011357828625,0.3964308247690011,-0.6524492142987122,-0.035487213037780754,14.535142,1.4635804,-0.30180296,-0.18973039,7.776955,-5.369437,1.3663784,0.32396984,-0.35326278,0.09337062,0.8726568,-6.521535,3.8790336,-1.8226633,0.39643082,-0.6524492,-0.035487212,0
1.0700000000000007,13.182011357828625,0.3964308247690011,-0.6524492142987122,-0.035487213037780754,14.535142,1.4635804,-0.30180296,-0.18973039,7.711374,-5.3303885,1.348145,0.32512712,-0.3497878,0.09398012,0.8735603,-6.594536,3.9306777,-1.8239118,0.39643082,-0.6524492,-0.035487212,0
1.0800000000000007,13.804174453300996,0.47217420579183944,-0.5492565150414828,-0.043179743336411815,14.462622,1.8140545,-0.4016656,-0.13029635,7.6450667,-5.2908235,1.3299023,0.32627964,-0.34630772,0.09458825,0.87445104,-6.6667376,3.9822934,-1.8245482,0.39643082,-0.6524492,-0.035487212,0
1.0900000000000007,13.804174453300996,0.47217420579183944,-0.5492565150414828,-0.043179743336411815,14.462622,1.8140545,-0.4016656,-0.13029635,7.5780253,-5.25073,1.3116792,0.32754368,-0.3431541,0.095681265,0.87510264,-6.741512,4.036369,-1.819983,0.4721742,-0.5492565,-0.043179743,0
1.1000000000000008,13.804174453300996,0.47217420579183944,-0.5492565150414828,-0.043179743336411815,14.462622,1.8140545,-0.4016656,-0.13029635,7.5102396,-5.210095,1.2935045,0.32880336,-0.33999595,0.09677302,0.8757427,-6.815453,4.0905595,-1.8148768,0.4721742,-0.5492565,-0.043179743,0
1.1100000000000008,13.804174453300996,0.47217420579183944,-0.5492565150414828,-0.043179743336411815,14.462622,1.8140545,-0.4016656,-0.13029635,7.4417186,-5.168918,1.2753835,0.3300587,-0.33683333,0.0978635,0.87637115,-6.888558,4.1448627,-1.8092351,0.4721742,-0.5492565,-0.043179743,0
1.1200000000000008,14.349865540503888,0.5735548047456186,-0.6986356493087187,-0.058463796652322805,14.646643,1.8109068,-0.10800799,-0.07660479,7.3724713,-5.1271973,1.2573215,0.33130974,-0.33366627,0.0989527,0.8769882,-6.9608216,4.199275,-1.8030628,0.4721742,-0.5492565,-0.043179743,0
1.1300000000000008,14.349865540503888,0.5735548047456186,-0.6986356493087187,-0.058463796652322805,14.646643,1.8109068,-0.10800799,-0.07660479,7.3024917,-5.0849214,1.2393447,0.33286524,-0.32967818,0.10021183,0.8777641,-7.034984,4.255948,-1.7921681,0.5735548,-0.69863564,-0.058463797,0
1.1400000000000008,14.349865540503888,0.5735548047456186,-0.6986356493087187,-0.058463796652322805,14.646643,1.8109068,-0.10800799,-0.07660479,7.2317753,-5.042078,1.2214804,0.33441392,-0.32568336,0.1014689,0.87852204,-7.10805,4.312726,-1.7805896,0.5735548,-0.69863564,-0.058463797,0
1.1500000000000008,14.349865540503888,0.5735548047456186,-0.6986356493087187,-0.058463796652322805,14.646643,1.8109068,-0.10800799,-0.07660479,7.160334,-4.998667,1.2037352,0.3359557,-0.32168186,0.10272389,0.879262,-7.1800127,4.369604,-1.7683356,0.5735548,-0.69863564,-0.058463797,0
1.1600000000000008,15.01906589903586,0.6199908521425952,-0.6904247231205508,-0.06645094139055606,14.508961,1.7692392,-0.28367844,-0.07308662,7.0881786,-4.9546857,1.186116,0.33749065,-0.31767374,0.10397677,0.8799838,-7.2508664,4.4265766,-1.755415,0.5735548,-0.69863564,-0.058463797,0
1.1700000000000008,15.01906589903586,0.6199908521425952,-0.6904247231205508,-0.06645094139055606,14.508961,1.7692392,-0.28367844,-0.07308662,7.0153036,-4.9101214,1.1686552,0.3391231,-0.31362084,0.10543294,0.88063645,-7.3238435,4.4863214,-1.7366307,0.6199908,-0.69042474,-0.06645094,0
1.1800000000000008,15.01906589903586,0.6199908521425952,-0.6904247231205508,-0.06645094139055606,14.508961,1.7692392,-0.28367844,-0.07308662,6.941705,-4.8649592,1.1513858,0.3407482,-0.30956116,0.106886834,0.8812702,-7.3956094,4.5462127,-1.717173,0.6199908,-0.69042474,-0.06645094,0
1.1900000000000008,15.01906589903586,0.6199908521425952,-0.6904247231205508,-0.06645094139055606,14.508961,1.7692392,-0.28367844,-0.07308662,6.8673954,-4.8191967,1.1343141,0.34236592,-0.30549482,0.108338416,0.8818848,-7.466158,4.6062446,-1.6970518,0.6199908,-0.69042474,-0.06645094,0
1.2000000000000008,15.34361231062566,0.6561852431093682,-1.1139896625998382,-0.08718369300856077,14.57914,1.6265604,-0.45800534,-9.5073134e-05,6.792386,-4.772834,1.1174469,0.34397626,-0.30142182,0.10978764,0.8824804,-7.535483,4.6664104,-1.6762768,0.6199908,-0.69042474,-0.06645094,1
1.2100000000000009,15.34361231062566,0.6561852431093682,-1.1139896625998382,-0.08718369300856077,14.57914,1.6265604,-0.45800534,-9.5073134e-05,6.716701,-4.7258754,1.100773,0.3466672,-0.29659277,0.11617283,0.882246,-7.6012855,4.7254124,-1.658431,1.6265604,-0.45800534,-9.5073134e-05,1
1.2200000000000009,15.34361231062566,0.6561852431093682,-1.1139896625998382,-0.08718369300856077,14.57914,1.6265604,-0.45800534,-9.5073134e-05,6.6403675,-4.6783204,1.0842798,0.3493334,-0.29174253,0.12254972,0.8819487,-7.6650867,4.785792,-1.6401764,1.6265604,-0.45800534,-9.5073134e-05,1
1.2300000000000009,15.34361231062566,0.6561852431093682,-1.1139896625998382,-0.08718369300856077,14.57914,1.6265604,-0.45800534,-9.5073134e-05,6.563406,-4.630155,1.0679709,0.35197467,-0.2868715,0.12891786,0.88158846,-7.7268686,4.847531,-1.621546,1.6265604,-0.45800534,-9.5073134e-05,1
1.2400000000000009,15.34361231062566,0.6561852431093682,-1.1139896625998382,-0.08718369300856077,14.009061,1.5433679,-1.2155148,-0.019690484,6.4858365,-4.5813656,1.0518501,0.35459077,-0.28197998,0.1352768,0.88116527,-7.7866135,4.910612,-1.6025735,1.6265604,-0.45800534,-9.5073134e-05,0
1.2500000000000009,15.34361231062566,0.6561852431093682,-1.1139896625998382,-0.08718369300856077,14.009061,1.5433679,-1.2155148,-0.019690484,6.4076643,-4.5319233,1.035952,0.35664606,-0.27596164,0.13606703,0.882119,-7.847499,4.9777904,-1.5768901,0.65618527,-1.1139897,-0.08718369,0
1.260000000000001,15.34361231062566,0.6561852431093682,-1.1139896625998382,-0.08718369300856077,14.009061,1.5433679,-1.2155148,-0.019690484,6.328892,-4.4818106,1.0203155,0.3586864,-0.26993167,0.13685155,0.88303566,-7.9066625,5.044737,-1.5502496,0.65618527,-1.1139897,-0.08718369,0
1.270000000000001,15.34361231062566,0.6561852431093682,-1.1139896625998382,-0.08718369300856077,14.009061,1.5433679,-1.2155148,-0.019690484,6.2495365,-4.4310293,1.0049502,0.36071166,-0.26389042,0.13763031,0.8839153,-7.964094,5.1114388,-1.5226723,0.65618527,-1.1139897,-0.08718369,0
1.280000000000001,16.046533716127254,0.14209839952121428,-1.3247431659746203,-0.11086253609839646,14.427624,1.2035701,-1.1953559,-0.10807842,6.1696157,-4.3795824,0.9898652,0.36272177,-0.2578381,0.1384033,0.88475776,-8.019786,5.177883,-1.4941785,0.65618527,-1.1139897,-0.08718369,0
1.290000000000001,16.046533716127254,0.14209839952121428,-1.3247431659746203,-0.11086253609839646,14.427624,1.2035701,-1.1953559,-0.10807842,6.0891337,-4.327459,0.9750991,0.36430404,-0.251791,0.13648334,0.8861464,-8.0763445,5.2468,-1.4588602,0.1420984,-1.3247432,-0.11086254,0
1.300000000000001,16.046533716127254,0.14209839952121428,-1.3247431659746203,-0.11086253609839646,14.427624,1.2035701,-1.1953559,-0.10807842,6.008094,-4.274651,0.9606919,0.36587,-0.24573265,0.13455728,0.8874955,-8.131448,5.3146515,-1.4223922,0.1420984,-1.3247432,-0.11086254,0
1.310000000000001,16.046533716127254,0.14209839952121428,-1.3247431659746203,-0.11086253609839646,14.427624,1.2035701,-1.1953559,-0.10807842,5.9265094,-4.22117,0.9466551,0.36741963,-0.23966333,0.13262522,0.888805,-8.18509,5.3814235,-1.3847982,0.1420984,-1.3247432,-0.11086254,0
1.320000000000001,16.285931229679072,0.10942436950194726,-1.6816321975825956,-0.11951729182123265,15.308324,1.0346624,-0.9654311,-0.26618364,5.8443966,-4.1670265,0.93299973,0.36895284,-0.23358332,0.13068724,0.8900747,-8.237262,5.4471025,-1.3461021,0.1420984,-1.3247432,-0.11086254,1
1.330000000000001,16.285931229679072,0.10942436950194726,-1.6816321975825956,-0.11951729182123265,15.308324,1.0346624,-0.9654311,-0.26618364,5.7617817,-4.1122456,0.9197047,0.3719671,-0.22754602,0.13319659,0.890012,-8.285383,5.5091825,-1.3128072,1.0346624,-0.9654311,-0.26618364,1
1.340000000000001,16.285931229679072,0.10942436950194726,-1.6816321975825956,-0.11951729182123265,15.308324,1.0346624,-0.9654311,-0.26618364,5.678696,-4.0568423,0.90674585,0.37496212,-0.22149691,0.13569905,0.88990325,-8.331446,5.5714645,-1.2788717,1.0346624,-0.9654311,-0.26618364,1
1.350000000000001,16.285931229679072,0.10942436950194726,-1.6816321975825956,-0.11951729182123265,15.308324,1.0346624,-0.9654311,-0.26618364,5.5951605,-4.000816,0.8941294,0.37793764,-0.21543632,0.13819446,0.88974833,-8.37544,5.6339316,-1.2443196,1.0346624,-0.9654311,-0.26618364,1
1.360000000000001,16.89187005422875,-0.08748423268511674,-1.6563418637796539,-0.10390999670218924,15.455794,0.8268705,-0.5407806,-0.24395214,5.511195,-3.9441636,0.8818615,0.38089362,-0.20936458,0.1406827,0.8895473,-8.417356,5.6965656,-1.2091751,1.0346624,-0.9654311,-0.26618364,0
1.370000000000001,16.89187005422875,-0.08748423268511674,-1.6563418637796539,-0.10390999670218924,15.455794,0.8268705,-0.5407806,-0.24395214,5.4267993,-3.8868537,0.8700179,0.38241613,-0.20223016,0.13702555,0.89111406,-8.461558,5.7650967,-1.1593477,-0.08748423,-1.6563419,-0.10391,0
1.380000000000001,16.89187005422875,-0.08748423268511674,-1.6563418637796539,-0.10390999670218924,15.455794,0.8268705,-0.5407806,-0.24395214,5.3419695,-3.8288677,0.8586791,0.38391224,-0.19508179,0.13335894,0.8926193,-8.504121,5.831779,-1.1082003,-0.08748423,-1.6563419,-0.10391,0
1.390000000000001,16.89187005422875,-0.08748423268511674,-1.6563418637796539,-0.10390999670218924,15.455794,0.8268705,-0.5407806,-0.24395214,5.256723,-3.770224,0.84785825,0.38538182,-0.18791994,0.12968312,0.89406294,-8.5450325,5.896593,-1.0557737,-0.08748423,-1.6563419,-0.10391,0
1.400000000000001,16.979328019087365,-0.020830056139322577,-1.7813337514448138,-0.08900285174774285,15.941837,0.6160288,-0.34453854,-0.14111161,5.171075,-3.7109418,0.8375679,0.38682482,-0.18074512,0.12599833,0.89544487,-8.584286,5.959519,-1.0021093,-0.08748423,-1.6563419,-0.10391,0
1.410000000000001,16.979328019087365,-0.020830056139322577,-1.7813337514448138,-0.08900285174774285,15.941837,0.6160288,-0.34453854,-0.14111161,5.0850415,-3.6510386,0.8278243,0.3883113,-0.17285895,0.122374356,0.89686006,-8.621984,6.0208297,-0.94642746,-0.020830056,-1.7813338,-0.089002855,0
1.420000000000001,16.979328019087365,-0.020830056139322577,-1.7813337514448138,-0.08900285174774285,15.941837,0.6160288,-0.34453854,-0.14111161,4.9986415,-3.5905323,0.8186436,0.3897669,-0.16495903,0.11874065,0.8982039,-8.657778,6.080141,-0.88951135,-0.020830056,-1.7813338,-0.089002855,0
1.430000000000001,16.979328019087365,-0.020830056139322577,-1.7813337514448138,-0.08900285174774285,15.941837,0.6160288,-0.34453854,-0.14111161,4.911893,-3.5294425,0.81003815,0.3911915,-0.15704599,0.11509749,0.89947623,-8.691658,6.137432,-0.8314099,-0.020830056,-1.7813338,-0.089002855,0
1.440000000000001,16.979328019087365,-0.020830056139322577,-1.7813337514448138,-0.08900285174774285,16.056606,0.70825195,-0.34982112,-0.22078563,4.8248153,-3.4677904,0.8020194,0.39258498,-0.14912048,0.11144518,0.900677,-8.723616,6.1926827,-0.7721724,-0.020830056,-1.7813338,-0.089002855,0
1.450000000000001,16.979328019087365,-0.020830056139322577,-1.7813337514448138,-0.08900285174774285,16.056606,0.70825195,-0.34982112,-0.22078563,4.7374277,-3.4055958,0.7945985,0.39394724,-0.14118311,0.107784,0.9018063,-8.753642,6.2458735,-0.7118486,-0.020830056,-1.7813338,-0.089002855,0
1.460000000000001,16.979328019087365,-0.020830056139322577,-1.7813337514448138,-0.08900285174774285,16.056606,0.70825195,-0.34982112,-0.22078563,4.6497493,-3.3428798,0.78778607,0.3952782,-0.1332345,0.10411426,0.9028638,-8.781731,6.296986,-0.6504886,-0.020830056,-1.7813338,-0.089002855,0
1.470000000000001,16.979328019087365,-0.020830056139322577,-1.7813337514448138,-0.08900285174774285,16.056606,0.70825195,-0.34982112,-0.22078563,4.5618,-3.2796633,0.7815922,0.3965777,-0.1252753,0.10043623,0.9038495,-8.807875,6.346003,-0.5881427,-0.020830056,-1.7813338,-0.089002855,0
1.480000000000001,17.177687371725852,0.10869091831148021,-1.2901786360192118,-0.07167628838376953,17.059738,0.66388893,-0.60024637,-0.26521266,4.473599,-3.2159672,0.7760264,0.39784563,-0.11730613,0.096750215,0.9047633,-8.8320675,6.392906,-0.5248617,-0.020830056,-1.7813338,-0.089002855,1
1.490000000000001,17.177687371725852,0.10869091831148021,-1.2901786360192118,-0.07167628838376953,17.059738,0.66388893,-0.60024637,-0.26521266,4.3851643,-3.1518087,0.771101,0.39972082,-0.11339713,0.09840289,0.9042568,-8.85458,6.4387097,-0.46017814,0.66388893,-0.60024637,-0.26521266,1
1.500000000000001,17.177687371725852,0.10869091831148021,-1.2901786360192118,-0.07167628838376953,17.059738,0.66388893,-0.60024637,-0.26521266,4.296512,-3.0871925,0.7668234,0.4015873,-0.10948566,0.100053415,0.90373063,-8.875577,6.484546,-0.39530143,0.66388893,-0.60024637,-0.26521266,1
1.5100000000000011,17.177687371725852,0.10869091831148021,-1.2901786360192118,-0.07167628838376953,17.059738,0.66388893,-0.60024637,-0.26521266,4.207658,-3.0221179,0.7631956,0.40344504,-0.10557181,0.101701766,0.9031847,-8.895059,6.530407,-0.33024353,0.66388893,-0.60024637,-0.26521266,1
1.5200000000000011,17.102260827103887,0.1429640147746158,-1.3980999275571342,-0.05061107879772916,16.823,0.30018565,-0.7797736,-0.22564368,4.118616,-2.9565845,0.76021916,0.40529397,-0.10165565,0.1033479,0.9026191,-8.913023,6.5762854,-0.2650164,0.66388893,-0.60024637,-0.26521266,1
1.5300000000000011,17.102260827103887,0.1429640147746158,-1.3980999275571342,-0.05061107879772916,16.823,0.30018565,-0.7797736,-0.22564368,4.029403,-2.890596,0.7578846,0.40686408,-0.09764379,0.10300682,0.90239465,-8.92934,6.621307,-0.2018464,0.30018565,-0.7797736,-0.22564368,1
1.5400000000000011,17.102260827103887,0.1429640147746158,-1.3980999275571342,-0.05061107879772916,16.823,0.30018565,-0.7797736,-0.22564368,3.9400332,-2.8241603,0.7561832,0.40842655,-0.09363012,0.102663815,0.90215325,-8.944424,6.665719,-0.1383877,0.30018565,-0.7797736,-0.22564368,1
1.5500000000000012,17.102260827103887,0.1429640147746158,-1.3980999275571342,-0.05061107879772916,16.823,0.30018565,-0.7797736,-0.22564368,3.8505187,-2.7572837,0.7551178,0.4099814,-0.08961469,0.10231888,0.901895,-8.958274,6.7095165,-0.07465096,0.30018565,-0.7797736,-0.22564368,1
1.5600000000000012,17.1752299720774,-0.01339876481928138,-1.5994124163621357,-0.009776946270074183,16.750778,0.17928529,-1.0485517,-0.123239994,3.7608721,-2.6899722,0.75469106,0.4115285,-0.08559758,0.10197204,0.9016198,-8.970891,6.752693,-0.010646878,0.30018565,-0.7797736,-0.22564368,1
1.5700000000000012,17.1752299720774,-0.01339876481928138,-1.5994124163621357,-0.009776946270074183,16.750778,0.17928529,-1.0485517,-0.123239994,3.6711056,-2.6222334,0.7549023,0.41268954,-0.080563344,0.10056854,0.9017106,-8.982176,6.7948895,0.052964874,0.17928529,-1.0485517,-0.123239994,1
1.5800000000000012,17.1752299720774,-0.01339876481928138,-1.5994124163621357,-0.009776946270074183,16.750778,0.17928529,-1.0485517,-0.123239994,3.5812328,-2.5540783,0.75575155,0.41383874,-0.07552678,0.09916214,0.9017756,-8.992098,6.8360004,0.11694534,0.17928529,-1.0485517,-0.123239994,1
1.5900000000000012,17.1752299720774,-0.01339876481928138,-1.5994124163621357,-0.009776946270074183,16.750778,0.17928529,-1.0485517,-0.123239994,3.491268,-2.4855175,0.7572424,0.41497606,-0.07048806,0.0977529,0.9018148,-9.000655,6.8760185,0.18127654,0.17928529,-1.0485517,-0.123239994,1
1.6000000000000012,17.070164362210473,-0.008406028019355099,-2.0886945427696406,0.015475485817015367,16.673975,0.1816291,-2.2124221,-0.19600616,3.4012244,-2.4165616,0.75937825,0.41610146,-0.06544731,0.09634086,0.90182805,-9.00785,6.914939,0.24594042,0.17928529,-1.0485517,-0.123239994,1
1.6100000000000012,17.070164362210473,-0.008406028019355099,-2.0886945427696406,0.015475485817015367,16.673975,0.1816291,-2.2124221,-0.19600616,3.3111174,-2.347225,0.76215905,0.41808456,-0.055183876,0.09248685,0.9020008,-9.013185,6.952043,0.31030858,0.1816291,-2.2124221,-0.19600616,1
1.6200000000000012,17.070164362210473,-0.008406028019355099,-2.0886945427696406,0.015475485817015367,16.673975,0.1816291,-2.2124221,-0.19600616,3.22097,-2.2775297,0.7655866,0.42001578,-0.04491359,0.08862136,0.9020615,-9.015911,6.9865966,0.37530258,0.1816291,-2.2124221,-0.19600616,1
1.6300000000000012,17.070164362210473,-0.008406028019355099,-2.0886945427696406,0.015475485817015367,16.673975,0.1816291,-2.2124221,-0.19600616,3.1308084,-2.207502,0.76966697,0.42189485,-0.034637723,0.08474486,0.90201026,-9.016033,7.0185785,0.44084305,0.1816291,-2.2124221,-0.19600616,1
1.6400000000000012,17.070164362210473,-0.008406028019355099,-2.0886945427696406,0.015475485817015367,16.48062,0.6270439,-2.2428954,-0.087285176,3.0406585,-2.137167,0.7744052,0.4237215,-0.024357561,0.08085784,0.901847,-9.013555,7.0479674,0.50685036,0.1816291,-2.2124221,-0.19600616,1
1.6500000000000012,17.070164362210473,-0.008406028019355099,-2.0886945427696406,0.015475485817015367,16.48062,0.6270439,-2.2428954,-0.087285176,2.9505467,-2.0665526,0.7797957,0.42506945,-0.012949253,0.078917444,0.9016205,-9.008319,7.0745926,0.5713038,0.6270439,-2.2428954,-0.087285176,1
1.6600000000000013,17.070164362210473,-0.008406028019355099,-2.0886945427696406,0.015475485817015367,16.48062,0.6270439,-2.2428954,-0.087285176,2.8605027,-1.9956827,0.785832,0.42635968,-0.001539185,0.07696632,0.9012716,-8.999928,7.099041,0.6359668,0.6270439,-2.2428954,-0.087285176,1
1.6700000000000013,17.070164362210473,-0.008406028019355099,-2.0886945427696406,0.015475485817015367,16.48062,0.6270439,-2.2428954,-0.087285176,2.7705586,-1.9245794,0.7925155,0.427592,0.009871092,0.07500476,0.9008003,-8.988389,7.1212974,0.7007516,0.6270439,-2.2428954,-0.087285176,1
1.6800000000000013,16.938584190132712,-0.08507661446990937,-0.9631629454115623,0.05654840354564965,15.95442,0.63191783,-1.682945,-0.099487096,2.6807458,-1.8532645,0.7998471,0.42876628,0.021280028,0.07303301,0.9002067,-8.973711,7.1413465,0.7655704,0.6270439,-2.2428954,-0.087285176,1
1.6900000000000013,16.938584190132712,-0.08507661446990937,-0.9631629454115623,0.05654840354564965,15.95442,0.63191783,-1.682945,-0.099487096,2.591092,-1.7817622,0.8078007,0.42974398,0.030172434,0.07227698,0.8995471,-8.95668,7.1588674,0.8251305,0.63191783,-1.682945,-0.099487096,1
1.7000000000000013,16.938584190132712,-0.08507661446990937,-0.9631629454115623,0.05654840354564965,15.95442,0.63191783,-1.682945,-0.099487096,2.5016208,-1.7100922,0.81634927,0.43068686,0.039062392,0.0715151,0.8988146,-8.937186,7.174927,0.88456076,0.63191783,-1.682945,-0.099487096,1
1.7100000000000013,16.938584190132712,-0.08507661446990937,-0.9631629454115623,0.05654840354564965,15.95442,0.63191783,-1.682945,-0.099487096,2.4123566,-1.6382688,0.82549125,0.43159485,0.047949187,0.07074741,0.8980093,-8.9152355,7.1895175,0.94381064,0.63191783,-1.682945,-0.099487096,1
1.7200000000000013,16.588435103294643,-0.36633096864368614,-0.13293930123725242,0.08807788228577652,15.940247,0.40825775,-0.9018229,-0.08074172,2.3233244,-1.566307,0.8352247,0.43246788,0.056832097,0.06997399,0.8971312,-8.890837,7.202632,1.0028297,0.63191783,-1.682945,-0.099487096,1
1.7300000000000013,16.588435103294643,-0.36633096864368614,-0.13293930123725242,0.08807788228577652,15.940247,0.40825775,-0.9018229,-0.08074172,2.2345471,-1.4942206,0.84554636,0.43302423,0.061731186,0.06987733,0.8965465,-8.864414,7.214537,1.0614749,0.40825775,-0.9018229,-0.08074172,1
1.7400000000000013,16.588435103294643,-0.36633096864368614,-0.13293930123725242,0.08807788228577652,15.940247,0.40825775,-0.9018229,-0.08074172,2.1460412,-1.4220188,0.85645354,0.4335699,0.066628754,0.06977894,0.8959396,-8.836603,7.225714,1.1199335,0.40825775,-0.9018229,-0.08074172,1
1.7500000000000013,16.588435103294643,-0.36633096864368614,-0.13293930123725242,0.08807788228577652,15.940247,0.40825775,-0.9018229,-0.08074172,2.05782,-1.3497088,0.86794436,0.4341049,0.07152467,0.069678836,0.89531064,-8.807408,7.2361608,1.1781904,0.40825775,-0.9018229,-0.08074172,1
1.7600000000000013,16.17999222196809,-0.6367901641876332,0.5560513515772425,0.13429962448634478,15.808826,0.17038308,-0.7231819,0.00062021613,1.9698977,-1.2772982,0.8800166,0.43462917,0.07641884,0.069577016,0.89465964,-8.776833,7.2458754,1.2362304,0.40825775,-0.9018229,-0.08074172,0
1.7700000000000014,16.17999222196809,-0.6367901641876332,0.5560513515772425,0.13429962448634478,15.808826,0.17038308,-0.7231819,0.00062021613,1.8822875,-1.2047924,0.8926804,0.43407428,0.07259365,0.0678849,0.8953773,-8.745426,7.2552996,1.2965722,-0.63679016,0.5560514,0.13429962,0
1.7800000000000014,16.17999222196809,-0.6367901641876332,0.5560513515772425,0.13429962448634478,15.808826,0.17038308,-0.7231819,0.00062021613,1.7949846,-1.132192,0.90594894,0.43351147,0.06876714,0.06619154,0.8960785,-8.715359,7.2648,1.3571696,-0.63679016,0.5560514,0.13429962,0
1.7900000000000014,16.17999222196809,-0.6367901641876332,0.5560513515772425,0.13429962448634478,15.808826,0.17038308,-0.7231819,0.00062021613,1.7079756,-1.0594962,0.91982466,0.4329407,0.064939365,0.06449696,0.8967634,-8.686638,7.274374,1.4180113,-0.63679016,0.5560514,0.13429962,0
1.8000000000000014,15.384335032786028,-0.3991120522837317,0.1581374620580593,0.13212867865338696,16.215662,0.6509208,-1.0298805,-0.0022947937,1.6212472,-0.9867043,0.93430996,0.43236202,0.061110396,0.062801205,0.8974318,-8.659262,7.2840185,1.4790859,-0.63679016,0.5560514,0.13429962,0
1.8100000000000014,15.384335032786028,-0.3991120522837317,0.1581374620580593,0.13212867865338696,16.215662,0.6509208,-1.0298805,-0.0022947937,1.5347799,-0.91381824,0.9493678,0.43184036,0.05957934,0.06131166,0.8978888,-8.634266,7.293159,1.5325097,-0.39911205,0.15813746,0.13212869,0
1.8200000000000014,15.384335032786028,-0.3991120522837317,0.1581374620580593,0.13212867865338696,16.215662,0.6509208,-1.0298805,-0.0022947937,1.4485595,-0.8408417,0.9649606,0.4313165,0.058047984,0.059821803,0.89834124,-8.609893,7.3021092,1.586046,-0.39911205,0.15813746,0.13212869,0
1.8300000000000014,15.384335032786028,-0.3991120522837317,0.1581374620580593,0.13212867865338696,16.215662,0.6509208,-1.0298805,-0.0022947937,1.3625798,-0.76777667,0.9810892,0.43079045,0.056516334,0.05833165,0.89878917,-8.586143,7.3108687,1.6396922,-0.39911205,0.15813746,0.13212869,0
1.8400000000000014,15.384335032786028,-0.3991120522837317,0.1581374620580593,0.13212867865338696,16.382847,0.8237833,-1.3473518,0.06144877,1.2768346,-0.69462496,0.99775475,0.43026224,0.054984402,0.0568412,0.89923257,-8.563015,7.319437,1.6934456,-0.39911205,0.15813746,0.13212869,0
1.8500000000000014,15.384335032786028,-0.3991120522837317,0.1581374620580593,0.13212867865338696,16.382847,0.8237833,-1.3473518,0.06144877,1.1913174,-0.62138855,1.0149584,0.42973188,0.05345219,0.05535046,0.89967144,-8.54051,7.327812,1.7473034,-0.39911205,0.15813746,0.13212869,0
1.8600000000000014,15.384335032786028,-0.3991120522837317,0.1581374620580593,0.13212867865338696,16.382847,0.8237833,-1.3473518,0.06144877,1.1060224,-0.5480694,1.0327013,0.42919934,0.05191971,0.053859446,0.9001058,-8.518629,7.335994,1.8012626,-0.39911205,0.15813746,0.13212869,0
1.8700000000000014,15.384335032786028,-0.3991120522837317,0.1581374620580593,0.13212867865338696,16.382847,0.8237833,-1.3473518,0.06144877,1.0209428,-0.47466943,1.0509841,0.42866462,0.05038697,0.05236816,0.9005356,-8.497372,7.343981,1.8553205,-0.39911205,0.15813746,0.13212869,0
1.8800000000000014,14.461183126592061,-0.08142920897126285,-0.3431386360584176,0.1265822154528017,15.884056,0.41939804,-0.058777675,0.13551995,0.93607277,-0.40119052,1.0698081,0.42812777,0.04885397,0.050876606,0.90096086,-8.476736,7.351772,1.9094743,-0.39911205,0.15813746,0.13212869,0
1.8900000000000015,14.461183126592061,-0.08142920897126285,-0.3431386360584176,0.1265822154528017,15.884056,0.41939804,-0.058777675,0.13551995,0.85140085,-0.32763726,1.0891283,0.42766398,0.05025755,0.049744245,0.90116715,-8.457623,7.358808,1.9545447,-0.081429206,-0.34313864,0.12658222,0
1.9000000000000015,14.461183126592061,-0.08142920897126285,-0.3431386360584176,0.1265822154528017,15.884056,0.41939804,-0.058777675,0.13551995,0.76692116,-0.25401592,1.108899,0.42719865,0.051660948,0.048611704,0.9013703,-8.438288,7.3653846,1.9996068,-0.081429206,-0.34313864,0.12658222,0
1.9100000000000015,14.461183126592061,-0.08142920897126285,-0.3431386360584176,0.1265822154528017,15.884056,0.41939804,-0.058777675,0.13551995,0.6826359,-0.18033114,1.1291203,0.42673185,0.053064167,0.047478992,0.90157026,-8.41873,7.3715024,2.0446594,-0.081429206,-0.34313864,0.12658222,0
1.9200000000000015,13.284322085393775,0.27068519031354377,-0.8354806798449281,0.12434524820309156,15.937723,0.5020963,-0.48404548,0.06645174,0.5985473,-0.10658747,1.1497922,0.42626354,0.054467198,0.046346113,0.901767,-8.39895,7.3771615,2.0897002,-0.081429206,-0.34313864,0.12658222,0
1.9300000000000015,13.284322085393775,0.27068519031354377,-0.8354806798449281,0.12434524820309156,15.937723,0.5020963,-0.48404548,0.06645174,0.51465034,-0.032791868,1.170856,0.4258186,0.058839425,0.045751594,0.9017329,-8.380285,7.3818603,2.1230414,0.2706852,-0.8354807,0.12434525,0
1.9400000000000015,13.284322085393775,0.27068519031354377,-0.8354806798449281,0.12434524820309156,15.937723,0.5020963,-0.48404548,0.06645174,0.4309449,0.041047566,1.1922526,0.42536527,0.063210495,0.04515618,0.90168107,-8.360647,7.385928,2.1562617,0.2706852,-0.8354807,0.12434525,0
1.9500000000000015,13.284322085393775,0.27068519031354377,-0.8354806798449281,0.12434524820309156,15.937723,0.5020963,-0.48404548,0.06645174,0.3474407,0.114924535,1.2139808,0.42490357,0.06758032,0.044559874,0.90161145,-8.340036,7.389366,2.1893508,0.2706852,-0.8354807,0.12434525,0
1.9600000000000015,12.08293747196543,0.4732742485444686,-1.2436913127005513,0.12579682845819337,15.649963,0.6996347,-0.447492,-0.19849373,0.2641475,0.18883273,1.2360392,0.42443353,0.07194882,0.04396269,0.9015241,-8.318453,7.392175,2.2222984,0.2706852,-0.8354807,0.12434525,0
1.9700000000000015,12.08293747196543,0.4732742485444686,-1.2436913127005513,0.12579682845819337,15.649963,0.6996347,-0.447492,-0.19849373,0.18106538,0.2627646,1.258367,0.42396012,0.078585275,0.04341048,0.9012195,-8.297751,7.394075,2.243225,0.47327426,-1.2436913,0.12579682,0
1.9800000000000015,12.08293747196543,0.4732742485444686,-1.2436913127005513,0.12579682845819337,15.649963,0.6996347,-0.447492,-0.19849373,0.09819717,0.3367115,1.2809029,0.4234678,0.08521821,0.04285633,0.9008746,-8.275673,7.3951797,2.263914,0.47327426,-1.2436913,0.12579682,0
1.9900000000000015,12.08293747196543,0.4732742485444686,-1.2436913127005513,0.12579682845819337,15.649963,0.6996347,-0.447492,-0.19849373,0.01555663,0.41066548,1.3036444,0.42295656,0.09184735,0.04230026,0.9004895,-8.25222,7.395492,2.2843444,0.47327426,-1.2436913,0.12579682,0
2.0000000000000013,,,,,14.304984,1.1238705,-1.6287792,-0.48148343,-0.06684252,0.48461863,1.3265887,0.4224264,0.09847238,0.041742306,0.9000642,-8.227396,7.3950124,2.3044944,0.47327426,-1.2436913,0.12579682,0
2.010000000000001,,,,,14.304984,1.1238705,-1.6287792,-0.48148343,-0.14899714,0.5585626,1.349681,0.4222362,0.110139325,0.0393527,0.8989082,-8.203206,7.393538,2.3138723,0.56893635,-2.323323,0.081046335,0
2.020000000000001,,,,,14.304984,1.1238705,-1.6287792,-0.48148343,-0.23089957,0.632484,1.3728645,0.42198554,0.121790506,0.036957458,0.89762354,-8.176958,7.390499,2.3227334,0.56893635,-2.323323,0.081046335,0
2.0300000000000007,,,,,14.304984,1.1238705,-1.6287792,-0.48148343,-0.31252927,0.70636725,1.3961338,0.42167443,0.13342424,0.034556925,0.8962104,-8.148667,7.3858995,2.3310165,0.56893635,-2.323323,0.081046335,0
2.0400000000000005,,,,,14.304984,1.1238705,-1.6287792,-0.48148343,-0.39386594,0.78019667,1.4194828,0.42130297,0.14503887,0.032151442,0.8946689,-8.118349,7.3797436,2.3386602,0.56893635,-2.323323,0.081046335,0
2.0500000000000003,,,,,13.100227,1.4929831,-2.7341077,-0.829988,-0.47488934,0.8539568,1.4429047,0.42087117,0.15663274,0.029741356,0.89299923,-8.086019,7.372037,2.345604,0.56893635,-2.323323,0.081046335,1
2.06,,,,,13.100227,1.4929831,-2.7341077,-0.829988,-0.55554605,0.9276241,1.4664905,0.42375958,0.17183785,0.03130007,0.8887735,-8.044752,7.3611712,2.3713555,1.4929831,-2.7341077,-0.829988,1
2.07,,,,,13.100227,1.4929831,-2.7341077,-0.829988,-0.6357723,1.0011753,1.4903271,0.42653793,0.18699832,0.032850653,0.88431686,-7.9999423,7.3488216,2.3957293,1.4929831,-2.7341077,-0.829988,1
2.0799999999999996,,,,,13.100227,1.4929831,-2.7341077,-0.829988,-0.71553296,1.0745953,1.5144001,0.42920542,0.20211019,0.034392696,0.8796305,-7.9516463,7.334968,2.4186082,1.4929831,-2.7341077,-0.829988,1
2.0899999999999994,,,,,12.543829,2.0457835,-3.7252245,-1.3540764,-0.7947935,1.1478693,1.5386938,0.4317614,0.21716957,0.0359258,0.8747156,-7.899924,7.3195934,2.4398758,1.4929831,-2.7341077,-0.829988,1
2.099999999999999,,,,,12.543829,2.0457835,-3.7252245,-1.3540764,-0.87353027,1.2209849,1.563166,0.4360236,0.23757964,0.038292345,0.867163,-7.846744,7.3032,2.4541843,2.0457835,-3.7252245,-1.3540764,1
2.109999999999999,,,,,12.543829,2.0457835,-3.7252245,-1.3540764,-0.9517137,1.2939264,1.5877692,0.44006884,0.25787157,0.04063984,0.8591791,-7.7892857,7.284775,2.466046,2.0457835,-3.7252245,-1.3540764,1
2.1199999999999988,,,,,12.543829,2.0457835,-3.7252245,-1.3540764,-1.0293018,1.3666732,1.612478,0.44389522,0.27803522,0.042967122,0.8507678,-7.7276826,7.264286,2.4752672,2.0457835,-3.7252245,-1.3540764,1
2.1299999999999986,,,,,13.021051,2.0826423,-2.4804513,-1.4959037,-1.1062535,1.4392048,1.637265,0.44750082,0.2980606,0.04527304,0.8419333,-7.6620755,7.241706,2.4816587,2.0457835,-3.7252245,-1.3540764,1
2.1399999999999983,,,,,13.021051,2.0826423,-2.4804513,-1.4959037,-1.1825175,1.5114969,1.662121,0.45118442,0.31277555,0.050712105,0.83428466,-7.590208,7.216553,2.4891796,2.0826423,-2.4804513,-1.4959037,1
2.149999999999998,,,,,13.021051,2.0826423,-2.4804513,-1.4959037,-1.2580465,1.5835327,1.6870399,0.45472443,0.327391,0.056135036,0.82637054,-7.5150905,7.1904645,2.494182,2.0826423,-2.4804513,-1.4959037,1
