time-since-start [s],throttle_mpc,roll_mpc,pitch_mpc,yaw_mpc,throttle_nw,roll_nw,pitch_nw,yaw_nw,position_x [m],position_y [m],position_z [m],rotation_w [quaternion],rotation_x [quaternion],rotation_y [quaternion],rotation_z [quaternion],velocity_x [m/s],velocity_y [m/s],velocity_z [m/s],omega_x [rad/s],omega_y [rad/s],omega_z [rad/s],network_used
0.0,9.922295171925153,5.999999445130826,-5.999999845456134,-1.0418615954044887,12.335655,2.4584239,-3.3071349,-0.8785236,16.53893,-10.474135,1.6953297,-0.1829532,0.36969206,-0.22754997,-0.8820867,-10.438031,-1.9447523,-0.1489834,1.1956745,0.0007719337,0.13728422,0
0.01,9.922295171925153,5.999999445130826,-5.999999845456134,-1.0418615954044887,13.715474,2.214153,-1.9566364,-0.75649315,16.434183,-10.493234,1.6937522,-0.18539646,0.36684293,-0.23373593,-0.88114804,-10.510891,-1.8751562,-0.16698499,1.6382221,-0.62830865,0.106879264,0
0.02,9.922295171925153,5.999999445130826,-5.999999845456134,-1.0418615954044887,13.715474,2.214153,-1.9566364,-0.75649315,16.328728,-10.5116415,1.6919806,-0.1894573,0.36095005,-0.24118331,-0.88071084,-10.579878,-1.8063834,-0.18771729,2.0566933,-1.2042751,0.07394447,0
0.03,9.922295171925153,5.999999445130826,-5.999999845456134,-1.0418615954044887,13.715474,2.214153,-1.9566364,-0.75649315,16.2226,-10.529364,1.6899902,-0.19504026,0.35223076,-0.2498036,-0.88061965,-10.644478,-1.7381188,-0.2106841,2.4522548,-1.7328207,0.038835645,0
0.04,9.922295171925153,5.999999445130826,-5.999999845456134,-1.0418615954044887,12.416981,2.977897,-4.10879,-0.6609567,16.115852,-10.546404,1.6877605,-0.20204793,0.3408695,-0.25950268,-0.880706,-10.704256,-1.6701189,-0.23549938,2.826103,-2.2189631,0.001872099,0
0.05,9.922295171925153,5.999999445130826,-5.999999845456134,-1.0418615954044887,12.416981,2.977897,-4.10879,-0.6609567,16.008532,-10.562765,1.6852748,-0.21038131,0.32702422,-0.27018237,-0.8807931,-10.758838,-1.6022108,-0.26187682,3.1794424,-2.6671302,-0.036659766,0
0.060000000000000005,9.922295171925153,5.999999445130826,-5.999999845456134,-1.0418615954044887,12.416981,2.977897,-4.10879,-0.6609567,15.900694,-10.578447,1.6825184,-0.21994005,0.3108324,-0.28174123,-0.88069946,-10.807898,-1.53429,-0.28961977,3.5134642,-3.0812352,-0.07650336,0
0.07,9.922295171925153,5.999999445130826,-5.999999845456134,-1.0418615954044887,12.416981,2.977897,-4.10879,-0.6609567,15.792395,-10.593451,1.679478,-0.23062234,0.29241592,-0.29407534,-0.88024205,-10.8511505,-1.4663187,-0.3186119,3.8293343,-3.4647396,-0.11742889,0
0.08,12.054545336713405,5.999999522155005,-5.999999874091466,-1.3098586894977347,13.1464205,2.6530356,-5.5140753,-0.8843767,15.683692,-10.607774,1.6761419,-0.24232495,0.27188513,-0.30707878,-0.8792382,-10.888352,-1.3983223,-0.34880814,4.128181,-3.8207102,-0.15923084,0
0.09,12.054545336713405,5.999999522155005,-5.999999874091466,-1.3098586894977347,13.1464205,2.6530356,-5.5140753,-0.8843767,15.574617,-10.621349,1.6725644,-0.25499383,0.24931596,-0.3206551,-0.8774965,-10.9256115,-1.316484,-0.36658508,4.41949,-4.1603484,-0.21565385,0
0.09999999999999999,12.054545336713405,5.999999522155005,-5.999999874091466,-1.3098586894977347,13.1464205,2.6530356,-5.5140753,-0.8843767,15.465203,-10.634096,1.6688126,-0.2685053,0.22489172,-0.33464622,-0.87483746,-10.955964,-1.2325592,-0.3836778,4.6657743,-4.4474382,-0.26934677,0
0.10999999999999999,12.054545336713405,5.999999522155005,-5.999999874091466,-1.3098586894977347,13.1464205,2.6530356,-5.5140753,-0.8843767,15.355523,-10.645993,1.6648926,-0.28266335,0.19886287,-0.34886727,-0.8711181,-10.978853,-1.1467626,-0.40028363,4.8736477,-4.689758,-0.32040498,0
0.11999999999999998,12.054545336713405,5.999999522155005,-5.999999874091466,-1.3098586894977347,13.1464205,2.6530356,-5.5140753,-0.8843767,15.245654,-10.657025,1.6608075,-0.29729345,0.17145278,-0.36315733,-0.8662202,-10.993794,-1.0594194,-0.41669047,5.0491047,-4.8942857,-0.3689578,0
0.12999999999999998,17.719775746967517,5.999992206267269,-5.999999780797135,-1.1484911664959614,14.375347,1.7560366,-4.516425,-1.037826,15.135676,-10.667176,1.656558,-0.31224036,0.14286222,-0.37737662,-0.8600484,-11.000384,-0.9709256,-0.43323746,5.1972027,-5.0669136,-0.41512808,0
0.13999999999999999,17.719775746967517,5.999992206267269,-5.999999780797135,-1.1484911664959614,14.375347,1.7560366,-4.516425,-1.037826,15.025678,-10.676231,1.6523315,-0.3273484,0.113265455,-0.39140633,-0.85253453,-10.99733,-0.83982277,-0.4122217,5.3222356,-5.212586,-0.45111442,0
0.15,17.719775746967517,5.999992206267269,-5.999999780797135,-1.1484911664959614,14.375347,1.7560366,-4.516425,-1.037826,14.915775,-10.683971,1.6483088,-0.34247792,0.0828208,-0.40514264,-0.8436286,-10.981199,-0.70844346,-0.39257422,5.427776,-5.335535,-0.4853349,0
0.16,19.93852574005082,3.2030730820474784,-5.999999655128959,-0.2059638087901614,15.143995,1.0263455,-4.540967,-1.3244851,14.8061,-10.6904,1.6444731,-0.35751975,0.051680505,-0.4184924,-0.83329046,-10.951786,-0.57758844,-0.37493122,5.516865,-5.439303,-0.5178762,0
0.17,19.93852574005082,3.2030730820474784,-5.999999655128959,-0.2059638087901614,15.143995,1.0263455,-4.540967,-1.3244851,14.696811,-10.695446,1.6408722,-0.37224033,0.020342382,-0.4304602,-0.82202643,-10.90372,-0.43192407,-0.34572142,5.156056,-5.5265703,-0.50257057,0
0.18000000000000002,19.93852574005082,3.2030730820474784,-5.999999655128959,-0.2059638087901614,15.143995,1.0263455,-4.540967,-1.3244851,14.588075,-10.699048,1.6375476,-0.38650262,-0.010770519,-0.4402978,-0.8103318,-10.841149,-0.28902632,-0.31971592,4.8515186,-5.6002555,-0.48801598,0
0.19000000000000003,19.93852574005082,3.2030730820474784,-5.999999655128959,-0.2059638087901614,15.143995,1.0263455,-4.540967,-1.3244851,14.480035,-10.701241,1.6344664,-0.40033728,-0.041634064,-0.4482611,-0.79815954,-10.764705,-0.15005088,-0.29706928,4.5944757,-5.6624722,-0.47417563,0
0.20000000000000004,20.04792770579448,0.776687730219167,-5.9999990986573195,0.5785750430736603,15.27464,-1.1764784,-0.7619362,-0.8906995,14.372826,-10.702066,1.6315942,-0.4137599,-0.07222816,-0.4545646,-0.7854661,-10.675035,-0.016038299,-0.2779596,4.37752,-5.7150044,-0.46101442,0
0.21000000000000005,20.04792770579448,0.776687730219167,-5.9999990986573195,0.5785750430736603,15.27464,-1.1764784,-0.7619362,-0.8906995,14.26658,-10.701578,1.6288977,-0.42678404,-0.102174334,-0.45862818,-0.772707,-10.572296,0.11275405,-0.26189536,3.8161502,-5.7591524,-0.4100015,0
0.22000000000000006,20.04792770579448,0.776687730219167,-5.9999990986573195,0.5785750430736603,15.27464,-1.1764784,-0.7619362,-0.8906995,14.161419,-10.699837,1.6263443,-0.4394587,-0.13116856,-0.46003345,-0.7602895,-10.457988,0.23462275,-0.24927542,3.342321,-5.7964797,-0.36149174,0
0.23000000000000007,20.04792770579448,0.776687730219167,-5.9999990986573195,0.5785750430736603,15.27464,-1.1764784,-0.7619362,-0.8906995,14.057456,-10.696914,1.6239015,-0.45182255,-0.15929817,-0.45915744,-0.7481009,-10.333147,0.34870812,-0.23977615,2.9423795,-5.8280354,-0.31536236,0
0.24000000000000007,20.04792770579448,0.776687730219167,-5.9999990986573195,0.5785750430736603,14.658462,-2.9204593,1.3089278,-0.5893012,13.954789,-10.692892,1.6215391,-0.4638932,-0.18663916,-0.45631242,-0.73603535,-10.19874,0.45428064,-0.23314774,2.6048028,-5.854708,-0.27149656,0
0.25000000000000006,20.04792770579448,0.776687730219167,-5.9999990986573195,0.5785750430736603,14.658462,-2.9204593,1.3089278,-0.5893012,13.853511,-10.68786,1.6192293,-0.47567356,-0.21325646,-0.45175758,-0.7239969,-10.055675,0.5507169,-0.22921045,2.3198652,-5.877252,-0.2297833,0
0.26000000000000006,20.04792770579448,0.776687730219167,-5.9999990986573195,0.5785750430736603,14.658462,-2.9204593,1.3089278,-0.5893012,13.753703,-10.6819105,1.6169461,-0.48715633,-0.2392047,-0.44570905,-0.7119012,-9.904816,0.6374824,-0.22784877,2.0793574,-5.896304,-0.19011693,0
0.2700000000000001,20.04792770579448,0.776687730219167,-5.9999990986573195,0.5785750430736603,14.658462,-2.9204593,1.3089278,-0.5893012,13.655438,-10.675144,1.6146637,-0.49832752,-0.26452908,-0.43834755,-0.69967526,-9.746992,0.7141197,-0.2290046,1.8763502,-5.9124036,-0.15239698,0
0.2800000000000001,18.73331124866282,-1.8603731686923897,-3.704413839732755,0.7927119031166305,13.142635,-3.5093794,4.3576493,-0.3707446,13.558784,-10.667665,1.6123573,-0.50916904,-0.28926626,-0.42982486,-0.6872572,-9.58301,0.7802395,-0.23267034,1.7049954,-5.926007,-0.11652797,0
0.2900000000000001,18.73331124866282,-1.8603731686923897,-3.704413839732755,0.7927119031166305,13.142635,-3.5093794,4.3576493,-0.3707446,13.463741,-10.6595955,1.6099714,-0.5195756,-0.31229538,-0.42002115,-0.67534804,-9.424821,0.8319541,-0.24483073,1.1491673,-5.579474,-0.07191129,0
0.3000000000000001,18.73331124866282,-1.8603731686923897,-3.704413839732755,0.7927119031166305,13.142635,-3.5093794,4.3576493,-0.3707446,13.370301,-10.651059,1.6074542,-0.5295387,-0.33275735,-0.40890712,-0.66457224,-9.262758,0.8737807,-0.25883782,0.6799917,-5.287018,-0.029483987,0
0.3100000000000001,18.73331124866282,-1.8603731686923897,-3.704413839732755,0.7927119031166305,13.142635,-3.5093794,4.3576493,-0.3707446,13.278497,-10.642153,1.6047902,-0.53915316,-0.3510305,-0.3967096,-0.65476173,-9.097859,0.90603423,-0.27414697,0.28396118,-5.040196,0.010861394,0
0.3200000000000001,16.694511467900696,-4.32039482839318,2.15608521137482,1.1827194436755621,12.710241,-4.560998,5.566914,-0.6008396,13.188351,-10.632971,1.6019684,-0.5484821,-0.3674324,-0.38360795,-0.6457598,-8.930998,0.9290095,-0.29029432,-0.050326757,-4.831885,0.04922702,0
0.3300000000000001,16.694511467900696,-4.32039482839318,2.15608521137482,1.1827194436755621,12.710241,-4.560998,5.566914,-0.6008396,13.099789,-10.623612,1.5989385,-0.5570303,-0.3802093,-0.37039974,-0.63871914,-8.781262,0.9416223,-0.31568545,-0.71613836,-3.7421606,0.1048478,0
0.34000000000000014,16.694511467900696,-4.32039482839318,2.15608521137482,1.1827194436755621,12.710241,-4.560998,5.566914,-0.6008396,13.012726,-10.6141615,1.5956564,-0.56450224,-0.3880373,-0.35778365,-0.6346299,-8.631351,0.9476886,-0.34058636,-1.2781837,-2.822414,0.15773925,0
0.35000000000000014,16.694511467900696,-4.32039482839318,2.15608521137482,1.1827194436755621,12.710241,-4.560998,5.566914,-0.6008396,12.927158,-10.604676,1.5921315,-0.57115823,-0.39171743,-0.34572485,-0.63309556,-8.4819975,0.94865894,-0.36411345,-1.7526261,-2.0461252,0.20803533,0
0.36000000000000015,15.708953811101955,-5.912158399945362,5.99999880005326,1.444455241789232,12.41441,-5.4248667,5.70939,-0.78808725,12.8430805,-10.5952015,1.5883815,-0.5771711,-0.39190233,-0.33416218,-0.63373625,-8.333758,0.9457608,-0.38549405,-2.1531124,-1.3909136,0.25586337,0
0.37000000000000016,15.708953811101955,-5.912158399945362,5.99999880005326,1.444455241789232,12.41441,-5.4248667,5.70939,-0.78808725,12.760434,-10.585769,1.584408,-0.5823722,-0.38779166,-0.32349646,-0.6370322,-8.19577,0.9404684,-0.40871158,-2.7395136,-0.23850563,0.31418788,0
0.38000000000000017,15.708953811101955,-5.912158399945362,5.99999880005326,1.444455241789232,12.41441,-5.4248667,5.70939,-0.78808725,12.679158,-10.576396,1.5802195,-0.58660626,-0.3787493,-0.31402433,-0.6432966,-8.059816,0.9341013,-0.42838028,-3.2345095,0.73416835,0.36965045,0
0.3900000000000002,15.708953811101955,-5.912158399945362,5.99999880005326,1.444455241789232,12.41441,-5.4248667,5.70939,-0.78808725,12.59923,-10.567084,1.5758554,-0.5899572,-0.3654724,-0.3055207,-0.6519488,-7.92645,0.9281129,-0.44370338,-3.6523366,1.5551463,0.42239144,0
0.4000000000000002,14.641438937239641,-5.999998873029504,5.999999731161288,0.27834990664670556,10.61126,-6.7229505,5.2646947,-0.26449364,12.520618,-10.557827,1.5713625,-0.5924526,-0.34853345,-0.29777572,-0.6624604,-7.7962346,0.9237224,-0.45406267,-4.0050173,2.2480912,0.47254443,0
0.4100000000000002,14.641438937239641,-5.999998873029504,5.999999731161288,0.27834990664670556,10.61126,-6.7229505,5.2646947,-0.26449364,12.443249,-10.5486,1.5667614,-0.59419376,-0.3283467,-0.2906268,-0.6742834,-7.6783667,0.92206895,-0.46534246,-4.3162966,2.8331304,0.46301523,0
0.4200000000000002,14.641438937239641,-5.999998873029504,5.999999731161288,0.27834990664670556,10.61126,-6.7229505,5.2646947,-0.26449364,12.367037,-10.539374,1.5620738,-0.5952553,-0.3052623,-0.2839319,-0.68692684,-7.5646048,0.9236417,-0.4713112,-4.5789986,3.3269496,0.45395362,0
0.4300000000000002,14.641438937239641,-5.999998873029504,5.999999731161288,0.27834990664670556,10.61126,-6.7229505,5.2646947,-0.26449364,12.29194,-10.530114,1.5573537,-0.59559196,-0.27964145,-0.27754435,-0.7000284,-7.455594,0.9290878,-0.47184852,-4.800705,3.7437713,0.44533667,0
0.4400000000000002,14.641438937239641,-5.999998873029504,5.999999731161288,0.27834990664670556,12.33988,-6.4983716,5.280175,-0.2810682,12.217906,-10.520778,1.5526555,-0.595157,-0.25180072,-0.27133876,-0.7132738,-7.3520045,0.9389296,-0.4669777,-4.9878144,4.095601,0.4371426,0
0.45000000000000023,14.641438937239641,-5.999998873029504,5.999999731161288,0.27834990664670556,12.33988,-6.4983716,5.280175,-0.2810682,12.144879,-10.511319,1.5480323,-0.59390664,-0.22202076,-0.26520935,-0.7263921,-7.254519,0.95357573,-0.4568555,-5.1457267,4.392572,0.4293506,0
0.46000000000000024,14.641438937239641,-5.999998873029504,5.999999731161288,0.27834990664670556,12.33988,-6.4983716,5.280175,-0.2810682,12.072793,-10.501688,1.5435355,-0.59180146,-0.19055347,-0.259068,-0.7391508,-7.1638207,0.97332996,-0.44176123,-5.2789974,4.643237,0.42194098,0
0.47000000000000025,14.641438937239641,-5.999998873029504,5.999999731161288,0.27834990664670556,12.33988,-6.4983716,5.280175,-0.2810682,12.001577,-10.491834,1.5392128,-0.58880824,-0.15762673,-0.25284213,-0.75135165,-7.08058,0.99839854,-0.42208508,-5.3914733,4.8548174,0.4148949,0
0.48000000000000026,16.1599368349488,-5.999992712057791,5.9999997211823075,-0.18853817996255373,15.186145,-6.9959297,5.383408,-2.2367253,11.931153,-10.4817,1.5351079,-0.5848999,-0.12344842,-0.24647276,-0.7628261,-7.0054393,1.0288967,-0.39831656,-5.4863987,5.0334063,0.40819463,0
0.49000000000000027,16.1599368349488,-5.999992712057791,5.9999997211823075,-0.18853817996255373,15.186145,-6.9959297,5.383408,-2.2367253,11.861474,-10.471219,1.5313234,-0.5801,-0.08819517,-0.23991948,-0.7733978,-6.932114,1.0685836,-0.35802883,-5.5664344,5.1842313,0.37891278,0
0.5000000000000002,16.1599368349488,-5.999992712057791,5.9999997211823075,-0.18853817996255373,15.186145,-6.9959297,5.383408,-2.2367253,11.792477,-10.460311,1.5279583,-0.57443607,-0.0520304,-0.23314911,-0.782916,-6.8690104,1.1142427,-0.31458175,-5.6339827,5.311535,0.3510678,0
0.5100000000000002,16.1599368349488,-5.999992712057791,5.9999997211823075,-0.18853817996255373,15.186145,-6.9959297,5.383408,-2.2367253,11.724057,-10.4489155,1.52504,-0.567896,-0.015119484,-0.22612919,-0.79128444,-6.8166776,1.1657403,-0.2687677,-5.690993,5.4189854,0.32458922,0
0.5200000000000002,17.980890402011287,-4.039645776047609,5.999999609413036,0.2756225014258394,17.046875,-5.789908,5.8266993,-1.9795269,11.656104,-10.436977,1.5225881,-0.5604728,0.02238356,-0.2188351,-0.79842377,-6.775591,1.222869,-0.2214379,-5.73911,5.5096784,0.29940993,0
0.5300000000000002,17.980890402011287,-4.039645776047609,5.999999609413036,0.2756225014258394,17.046875,-5.789908,5.8266993,-1.9795269,11.588523,-10.424406,1.5206957,-0.5521533,0.059885446,-0.21188183,-0.8041434,-6.742771,1.292413,-0.15705109,-5.47409,5.5861998,0.29824266,0
0.5400000000000003,17.980890402011287,-4.039645776047609,5.999999609413036,0.2756225014258394,17.046875,-5.789908,5.8266993,-1.9795269,11.521206,-10.41111,1.5194455,-0.54298925,0.09690675,-0.20577773,-0.80834854,-6.7228107,1.3676895,-0.093129545,-5.2503977,5.650779,0.29713267,0
0.5500000000000003,17.980890402011287,-4.039645776047609,5.999999609413036,0.2756225014258394,17.046875,-5.789908,5.8266993,-1.9795269,11.454023,-10.397034,1.5188276,-0.53305775,0.13346614,-0.20035918,-0.8111057,-6.715517,1.448438,-0.030783884,-5.0615883,5.7052794,0.29607716,0
0.5600000000000003,18.905542254378116,-1.481989248252308,5.999999225556162,0.6192254476646168,18.442171,-1.7866837,5.5427876,-0.5439378,11.386852,-10.382124,1.5188209,-0.5224185,0.16957246,-0.19548588,-0.8124712,-6.7206707,1.5343487,0.028943311,-4.902222,5.7512746,0.2950734,0
0.5700000000000003,18.905542254378116,-1.481989248252308,5.999999225556162,0.6192254476646168,18.442171,-1.7866837,5.5427876,-0.5439378,11.319565,-10.366307,1.5194339,-0.5112774,0.20469002,-0.1918805,-0.81232965,-6.7388377,1.6297661,0.092991404,-4.368906,5.790119,0.31097963,0
0.5800000000000003,18.905542254378116,-1.481989248252308,5.999999225556162,0.6192254476646168,18.442171,-1.7866837,5.5427876,-0.5439378,11.252034,-10.349511,1.5206641,-0.4998632,0.23841332,-0.19012131,-0.8106478,-6.7689457,1.7300954,0.1522292,-3.918757,5.8229017,0.3261054,0
0.5900000000000003,18.905542254378116,-1.481989248252308,5.999999225556162,0.6192254476646168,18.442171,-1.7866837,5.5427876,-0.5439378,11.184147,-10.331689,1.5224588,-0.48823413,0.270915,-0.18989836,-0.8075711,-6.810098,1.8351943,0.20575082,-3.538805,5.850567,0.34048885,0
0.6000000000000003,18.89873572100389,0.7510524479779049,5.370390792936827,0.669389370698125,17.837309,0.5937749,4.8081226,0.5306144,11.115796,-10.312793,1.5247567,-0.4764232,0.30233485,-0.19094509,-0.8032151,-6.861482,1.9448812,0.2527632,-3.2181034,5.8739133,0.3541665,0
0.6100000000000003,18.89873572100389,0.7510524479779049,5.370390792936827,0.669389370698125,17.837309,0.5937749,4.8081226,0.5306144,11.046885,-10.292778,1.527489,-0.4647752,0.33216402,-0.19363493,-0.79759425,-6.922257,2.0589159,0.29252815,-2.5991564,5.795505,0.36963457,0
0.6200000000000003,18.89873572100389,0.7510524479779049,5.370390792936827,0.669389370698125,17.837309,0.5937749,4.8081226,0.5306144,10.977323,-10.271601,1.5305808,-0.45360795,0.36003017,-0.1982564,-0.7907671,-6.9912786,2.1772454,0.32458013,-2.0767322,5.7293143,0.38434362,0
0.6300000000000003,18.89873572100389,0.7510524479779049,5.370390792936827,0.669389370698125,17.837309,0.5937749,4.8081226,0.5306144,10.907035,-10.249219,1.5339527,-0.44288346,0.38621452,-0.20448075,-0.7828667,-7.067387,2.299803,0.34851804,-1.6357784,5.6734357,0.39833087,0
0.6400000000000003,18.89873572100389,0.7510524479779049,5.370390792936827,0.669389370698125,17.667894,1.8343974,4.896751,0.5951292,10.835954,-10.225591,1.5375221,-0.4325513,0.41094628,-0.21202633,-0.7739945,-7.1495724,2.4264934,0.36400443,-1.2635902,5.6262608,0.4116318,0
0.6500000000000004,18.89873572100389,0.7510524479779049,5.370390792936827,0.669389370698125,17.667894,1.8343974,4.896751,0.5951292,10.764025,-10.200676,1.5412027,-0.42255518,0.43441167,-0.2206526,-0.7642292,-7.2369466,2.5571864,0.37074772,-0.94944316,5.5864344,0.42428002,0
0.6600000000000004,18.89873572100389,0.7510524479779049,5.370390792936827,0.669389370698125,17.667894,1.8343974,4.896751,0.5951292,10.6912,-10.174434,1.5449059,-0.4128375,0.45676157,-0.23015451,-0.7536333,-7.3287263,2.6917152,0.36849082,-0.68428606,5.5528097,0.43630758,0
0.6700000000000004,18.89873572100389,0.7510524479779049,5.370390792936827,0.669389370698125,17.667894,1.8343974,4.896751,0.5951292,10.617438,-10.146828,1.5485407,-0.40334216,0.47811773,-0.24035744,-0.74225813,-7.4242086,2.8298774,0.35700455,-0.46047887,5.524421,0.44774497,0
0.6800000000000004,17.644270202532624,2.355825952502507,1.3076943018262561,0.7678423577636108,16.64739,1.9280794,3.4171379,0.22335726,10.542706,-10.117824,1.5520135,-0.3940162,0.4985782,-0.25111276,-0.73014635,-7.5227613,2.971434,0.3360842,-0.2715733,5.500454,0.45862117,0
0.6900000000000004,17.644270202532624,2.355825952502507,1.3076943018262561,0.7678423577636108,16.64739,1.9280794,3.4171379,0.22335726,10.467009,-10.087437,1.5552067,-0.38555187,0.51680154,-0.26213852,-0.7180179,-7.6170387,3.1065004,0.3011843,0.1383149,4.8467183,0.47379476,0
0.7000000000000004,17.644270202532624,2.355825952502507,1.3076943018262561,0.7678423577636108,16.64739,1.9280794,3.4171379,0.22335726,10.390361,-10.055686,1.558009,-0.3785641,0.5318094,-0.2732401,-0.70654666,-7.712689,3.2441657,0.25809467,0.48426384,4.294921,0.48822373,0
0.7100000000000004,17.644270202532624,2.355825952502507,1.3076943018262561,0.7678423577636108,16.64739,1.9280794,3.4171379,0.22335726,10.312753,-10.022547,1.5603431,-0.37288424,0.5441481,-0.28441247,-0.6956796,-7.808861,3.3841934,0.20765032,0.77624637,3.8291638,0.5019447,0
0.7200000000000004,16.674478777665264,3.1559465231317096,-3.9871568017074526,1.136042147676747,15.058875,2.1779401,-2.4796703,0.2755709,10.234183,-9.987995,1.5621392,-0.3683511,0.5542635,-0.29564583,-0.68534917,-7.904862,3.5264223,0.15057907,1.02268,3.4360313,0.5149924,0
0.7300000000000004,16.674478777665264,3.1559465231317096,-3.9871568017074526,1.136042147676747,15.058875,2.1779401,-2.4796703,0.2755709,10.154683,-9.95205,1.5633246,-0.36560363,0.560954,-0.30640012,-0.6765974,-7.994852,3.6627944,0.0857367,1.3557032,2.2785273,0.5454675,0
0.7400000000000004,16.674478777665264,3.1559465231317096,-3.9871568017074526,1.136042147676747,15.058875,2.1779401,-2.4796703,0.2755709,10.07429,-9.914732,1.5638403,-0.36517406,0.5633276,-0.31626895,-0.6702868,-8.083435,3.8009927,0.016909266,1.6367716,1.3015275,0.57444715,0
0.7500000000000004,16.674478777665264,3.1559465231317096,-3.9871568017074526,1.136042147676747,15.058875,2.1779401,-2.4796703,0.2755709,9.993021,-9.876023,1.5636548,-0.36675295,0.562102,-0.32540408,-0.6660678,-8.17,3.9409435,-0.05429642,1.8739849,0.47688216,0.6020048,0
0.7600000000000005,16.25365758814377,3.142017425447533,-5.9999991449456935,1.075183458632878,14.496648,2.9512033,-5.436469,0.58165777,9.910898,-9.835906,1.5627508,-0.37005007,0.55784595,-0.3339161,-0.66360486,-8.254037,4.082617,-0.12652528,2.074182,-0.21916834,0.6282102,0
0.7700000000000005,16.25365758814377,3.142017425447533,-5.9999991449456935,1.075183458632878,14.496648,2.9512033,-5.436469,0.58165777,9.82796,-9.794382,1.5611213,-0.37507215,0.5504835,-0.34157807,-0.6630337,-8.333053,4.2223635,-0.19924018,2.2410944,-1.1205857,0.65014327,0
0.7800000000000005,16.25365758814377,3.142017425447533,-5.9999991449456935,1.075183458632878,14.496648,2.9512033,-5.436469,0.58165777,9.744247,-9.751452,1.5587711,-0.3817973,0.53995365,-0.34819502,-0.6644107,-8.408738,4.363669,-0.27048674,2.3819396,-1.8814354,0.67100006,0
0.7900000000000005,16.25365758814377,3.142017425447533,-5.9999991449456935,1.075183458632878,14.496648,2.9512033,-5.436469,0.58165777,9.659798,-9.707103,1.5557209,-0.38992974,0.52668494,-0.35387686,-0.6673301,-8.480673,4.506394,-0.33907247,2.5007863,-2.523639,0.69083345,0
0.8000000000000005,16.372842953590744,2.5799954160138805,-5.999999634352928,0.6202929399953093,13.149688,2.9636075,-5.34903,0.81525666,9.574649,-9.661321,1.5520022,-0.39920244,0.51102537,-0.35870695,-0.6714316,-8.548449,4.650347,-0.40401754,2.601067,-3.0656984,0.7096936,0
0.8100000000000005,16.372842953590744,2.5799954160138805,-5.999999634352928,0.6202929399953093,13.149688,2.9636075,-5.34903,0.81525666,9.488842,-9.614088,1.5476571,-0.40930167,0.493374,-0.36257032,-0.6764596,-8.612145,4.7963347,-0.46425158,2.5979822,-3.5233097,0.7053067,0
0.8200000000000005,16.372842953590744,2.5799954160138805,-5.999999634352928,0.6202929399953093,13.149688,2.9636075,-5.34903,0.81525666,9.402423,-9.5653925,1.5427347,-0.41996998,0.47407052,-0.36537433,-0.682191,-8.67097,4.942948,-0.51937383,2.5953438,-3.9095564,0.70113504,0
0.8300000000000005,16.372842953590744,2.5799954160138805,-5.999999634352928,0.6202929399953093,13.149688,2.9636075,-5.34903,0.81525666,9.31544,-9.515229,1.5372889,-0.43105894,0.45330155,-0.3672093,-0.6883777,-8.724656,5.0897775,-0.5688818,2.5930882,-4.2355676,0.69716805,0
0.8400000000000005,16.372842953590744,2.5799954160138805,-5.999999634352928,0.6202929399953093,13.138226,2.136789,-5.621222,0.64745414,9.227947,-9.463597,1.5313777,-0.4424361,0.43122762,-0.3681517,-0.6948079,-8.772935,5.2363787,-0.61240166,2.59116,-4.510737,0.6933958,0
0.8500000000000005,16.372842953590744,2.5799954160138805,-5.999999634352928,0.6202929399953093,13.138226,2.136789,-5.621222,0.64745414,9.140001,-9.410502,1.5250623,-0.45398352,0.40798885,-0.36826715,-0.70130163,-8.815545,5.382275,-0.649675,2.5895126,-4.7429934,0.6898086,0
0.8600000000000005,16.372842953590744,2.5799954160138805,-5.999999634352928,0.6202929399953093,13.138226,2.136789,-5.621222,0.64745414,9.051659,-9.355955,1.5184062,-0.46559682,0.38370872,-0.36761245,-0.70770675,-8.852233,5.5269656,-0.6805474,2.5881054,-4.939029,0.6863975,0
0.8700000000000006,16.372842953590744,2.5799954160138805,-5.999999634352928,0.6202929399953093,13.138226,2.136789,-5.621222,0.64745414,8.96298,-9.299969,1.5114737,-0.4771836,0.35849744,-0.36623743,-0.713895,-8.882764,5.6699286,-0.70495886,2.5869038,-5.1044927,0.6831537,0
0.8800000000000006,17.116971646305174,1.4716807833393224,-5.99999958098993,0.7321145184381658,13.699545,1.3681669,-5.8734565,0.81862867,8.874027,-9.242564,1.5043293,-0.4886624,0.33245412,-0.36418596,-0.7197586,-8.9069195,5.8106284,-0.72293454,2.5858781,-5.244152,0.6800691,0
0.8900000000000006,17.116971646305174,1.4716807833393224,-5.99999958098993,0.7321145184381658,13.699545,1.3681669,-5.8734565,0.81862867,8.784861,-9.183735,1.4970562,-0.49980956,0.30588305,-0.36118287,-0.72537816,-8.925342,5.954784,-0.7306404,2.4121807,-5.3620987,0.68262297,0
0.9000000000000006,17.116971646305174,1.4716807833393224,-5.99999958098993,0.7321145184381658,13.699545,1.3681669,-5.8734565,0.81862867,8.695543,-9.123481,1.4897388,-0.51046085,0.27904528,-0.3570169,-0.73082346,-8.936968,6.0953813,-0.731847,2.265563,-5.4616404,0.6850515,0
0.9100000000000006,17.116971646305174,1.4716807833393224,-5.99999958098993,0.7321145184381658,13.699545,1.3681669,-5.8734565,0.81862867,8.606144,-9.061842,1.4824411,-0.5206262,0.2519657,-0.35181177,-0.7359965,-8.941895,6.2318115,-0.7267305,2.1418035,-5.5456486,0.6873609,0
0.9200000000000006,17.843920748881096,0.16668194078268922,-5.999999314190914,0.8230154591002475,13.72963,0.21015337,-5.6943374,0.6676433,8.516727,-8.998861,1.4752252,-0.53030914,0.2246685,-0.34567463,-0.7408143,-8.940209,6.363494,-0.71552414,2.037338,-5.616548,0.6895569,0
0.9300000000000006,17.843920748881096,0.16668194078268922,-5.999999314190914,0.8230154591002475,13.72963,0.21015337,-5.6943374,0.6676433,8.427363,-8.934564,1.4681749,-0.53939,0.19745284,-0.3383145,-0.7453956,-8.931687,6.4952364,-0.6936122,1.7456615,-5.6764708,0.6961058,0
0.9400000000000006,17.843920748881096,0.16668194078268922,-5.999999314190914,0.8230154591002475,13.72963,0.21015337,-5.6943374,0.6676433,8.338117,-8.868978,1.461373,-0.54779214,0.17056765,-0.3295098,-0.7498362,-8.916743,6.620855,-0.6659003,1.4994667,-5.7270303,0.7023333,0
0.9500000000000006,17.843920748881096,0.16668194078268922,-5.999999314190914,0.8230154591002475,13.72963,0.21015337,-5.6943374,0.6676433,8.249049,-8.802169,1.454876,-0.5555672,0.14396651,-0.3194412,-0.7540403,-8.8957615,6.739786,-0.6326723,1.2916614,-5.7696896,0.70825523,0
0.9600000000000006,17.87712708317974,-0.7878107433195635,-5.999996664273186,0.8057964718643394,16.341528,-0.75737464,-5.412838,1.0668019,8.16022,-8.734207,1.4487374,-0.56275237,0.11761136,-0.30826402,-0.75792575,-8.869081,6.851515,-0.59425604,1.1162592,-5.805683,0.71388656,0
0.9700000000000006,17.87712708317974,-0.7878107433195635,-5.999996664273186,0.8057964718643394,16.341528,-0.75737464,-5.412838,1.0668019,8.071685,-8.665164,1.4430087,-0.56933403,0.091688305,-0.29582244,-0.76153916,-8.836973,6.9557567,-0.5507465,0.81935173,-5.836122,0.7183966,0
0.9800000000000006,17.87712708317974,-0.7878107433195635,-5.999996664273186,0.8057964718643394,16.341528,-0.75737464,-5.412838,1.0668019,7.983496,-8.5951185,1.437738,-0.5753122,0.06634853,-0.28200266,-0.7649111,-8.799955,7.0518365,-0.5027341,0.5687441,-5.8617935,0.72268534,0
0.9900000000000007,17.87712708317974,-0.7878107433195635,-5.999996664273186,0.8057964718643394,16.341528,-0.75737464,-5.412838,1.0668019,7.8957005,-8.524156,1.4329684,-0.58072394,0.041517083,-0.26698658,-0.767955,-8.758496,7.1393228,-0.45057476,0.35721588,-5.8834453,0.72676367,0
1.0000000000000007,17.0650310672866,-1.5048411261473993,-2.9467113289109736,0.8139067126460169,15.757592,-1.2413903,-5.138203,0.48054278,7.8083396,-8.452362,1.4287393,-0.5855939,0.0171321,-0.25093105,-0.77059764,-8.713013,7.2178264,-0.3946651,0.17867298,-5.9017057,0.73064184,0
1.0100000000000007,17.0650310672866,-1.5048411261473993,-2.9467113289109736,0.8139067126460169,15.757592,-1.2413903,-5.138203,0.48054278,7.7214413,-8.379846,1.4250507,-0.58964795,-0.005745736,-0.23447315,-0.77285546,-8.666162,7.28394,-0.34260467,-0.084074624,-5.4410014,0.7347277,0
1.0200000000000007,17.0650310672866,-1.5048411261473993,-2.9467113289109736,0.8139067126460169,15.757592,-1.2413903,-5.138203,0.48054278,7.635026,-8.306713,1.4218962,-0.5927487,-0.026274428,-0.21815273,-0.77483475,-8.616519,7.3414826,-0.28793183,-0.30581567,-5.052125,0.73861307,0
1.0300000000000007,17.0650310672866,-1.5048411261473993,-2.9467113289109736,0.8139067126460169,15.757592,-1.2413903,-5.138203,0.48054278,7.549118,-8.233047,1.4192995,-0.595081,-0.044800118,-0.20195831,-0.7765857,-8.564718,7.390851,-0.2311275,-0.49294952,-4.723878,0.7423077,0
1.0400000000000007,17.0650310672866,-1.5048411261473993,-2.9467113289109736,0.8139067126460169,15.545117,-1.6159884,-1.6910877,0.9263149,7.4637365,-8.158924,1.4172798,-0.59678704,-0.0616192,-0.18587591,-0.77813846,-8.511292,7.4324,-0.17258818,-0.6508771,-4.4468074,0.7458211,0
1.0500000000000007,17.0650310672866,-1.5048411261473993,-2.9467113289109736,0.8139067126460169,15.545117,-1.6159884,-1.6910877,0.9263149,7.378896,-8.084424,1.4158525,-0.5979763,-0.076984525,-0.16989097,-0.77950996,-8.45669,7.4664454,-0.112648286,-0.7841567,-4.212934,0.74916214,0
1.0600000000000007,17.0650310672866,-1.5048411261473993,-2.9467113289109736,0.8139067126460169,15.545117,-1.6159884,-1.6910877,0.9263149,7.294606,-8.00962,1.4150306,-0.5987331,-0.09111121,-0.15398954,-0.78070843,-8.40129,7.493262,-0.051596798,-0.896635,-4.0155244,0.7523392,0
1.0700000000000007,17.0650310672866,-1.5048411261473993,-2.9467113289109736,0.8139067126460169,15.545117,-1.6159884,-1.6910877,0.9263149,7.2108727,-7.9345827,1.4148235,-0.5991222,-0.10418188,-0.13815895,-0.7817365,-8.345411,7.5130887,0.010310214,-0.99155843,-3.848892,0.7553603,0
1.0800000000000007,16.012493815686142,-1.5313786969927667,0.9456658417045851,0.9295086057997376,14.282372,-1.299587,-0.3950498,0.9958754,7.127699,-7.859381,1.415239,-0.5991934,-0.11635124,-0.12238806,-0.78259313,-8.289324,7.5261345,0.07284044,-1.0716667,-3.7082386,0.7582332,0
1.0900000000000007,16.012493815686142,-1.5313786969927667,0.9456658417045851,0.9295086057997376,14.282372,-1.299587,-0.3950498,0.9958754,7.0450687,-7.784085,1.4162322,-0.5988029,-0.12652795,-0.107592136,-0.7834863,-8.236744,7.532291,0.12585275,-1.1437,-2.9825063,0.76663774,0
1.1000000000000008,16.012493815686142,-1.5313786969927667,0.9456658417045851,0.9295086057997376,14.282372,-1.299587,-0.3950498,0.9958754,6.9629626,-7.7087536,1.417757,-0.5978976,-0.13386095,-0.09450076,-0.7846467,-8.184581,7.5332203,0.17913403,-1.2044513,-2.3699462,0.7746299,0
1.1100000000000008,16.012493815686142,-1.5313786969927667,0.9456658417045851,0.9295086057997376,14.282372,-1.299587,-0.3950498,0.9958754,6.8813744,-7.6334352,1.4198158,-0.59661543,-0.13879393,-0.08285118,-0.78608084,-8.133188,7.5298586,0.23264594,-1.2556869,-1.8529103,0.7822299,0
1.1200000000000008,15.105303044489537,-1.1734620981469182,5.4132793749494645,0.9783313926246162,13.443895,-1.109409,3.2893207,0.9814509,6.800295,-7.5581694,1.4224108,-0.595054,-0.1417003,-0.07241838,-0.78777444,-8.082857,7.522995,0.2863971,-1.2988963,-1.4165018,0.78945696,0
1.1300000000000008,15.105303044489537,-1.1734620981469182,5.4132793749494645,0.9783313926246162,13.443895,-1.109409,3.2893207,0.9814509,6.7196984,-7.4829826,1.4255017,-0.59313655,-0.1415706,-0.06418543,-0.78995454,-8.036632,7.5139575,0.33181712,-1.2798797,-0.35139894,0.7987251,0
1.1400000000000008,15.105303044489537,-1.1734620981469182,5.4132793749494645,0.9783313926246162,13.443895,-1.109409,3.2893207,0.9814509,6.639557,-7.407894,1.4290485,-0.5908164,-0.13761659,-0.058917243,-0.79279727,-7.9919977,7.503656,0.37765592,-1.2637542,0.5476005,0.8075384,0
1.1500000000000008,15.105303044489537,-1.1734620981469182,5.4132793749494645,0.9783313926246162,13.443895,-1.109409,3.2893207,0.9814509,6.5598516,-7.332909,1.4330567,-0.5881678,-0.13042174,-0.056141507,-0.7961771,-7.9492965,7.4934125,0.42408362,-1.2500789,1.3064009,0.8159192,0
1.1600000000000008,14.408209368826844,-0.46513734674593044,5.999998041517147,0.7601549659097891,12.295218,-0.49892256,5.3630576,1.1674052,6.480563,-7.258022,1.4375328,-0.58522314,-0.12047469,-0.055458117,-0.7999532,-7.9088383,7.484336,0.4712317,-1.2384806,1.946866,0.82388884,0
1.1700000000000008,14.408209368826844,-0.46513734674593044,5.999998041517147,0.7601549659097891,12.295218,-0.49892256,5.3630576,1.1674052,6.4016576,-7.1832137,1.4424506,-0.581964,-0.10816237,-0.056896128,-0.8039792,-7.8726487,7.477699,0.5124332,-1.118212,2.5790164,0.8207614,0
1.1800000000000008,14.408209368826844,-0.46513734674593044,5.999998041517147,0.7601549659097891,12.295218,-0.49892256,5.3630576,1.1674052,6.3231006,-7.108458,1.4477843,-0.57836646,-0.09381076,-0.060460713,-0.8081072,-7.8390403,7.473958,0.5543856,-1.0166444,3.1125731,0.81778747,0
1.1900000000000008,14.408209368826844,-0.46513734674593044,5.999998041517147,0.7601549659097891,12.295218,-0.49892256,5.3630576,1.1674052,6.244867,-7.0337214,1.4535408,-0.5744236,-0.0777191,-0.06580656,-0.8121993,-7.8081703,7.4738874,0.59701496,-0.93087035,3.5629127,0.81495947,0
1.2000000000000008,14.097075067391835,0.13635696081516568,5.999998300720325,0.5626385481864487,12.424071,0.16032222,5.809434,1.2942362,6.1669273,-6.9589653,1.4597265,-0.5701209,-0.060143705,-0.07264053,-0.81613064,-7.780201,7.4781337,0.6401841,-0.85843426,3.9430146,0.81227016,0
1.2100000000000009,14.097075067391835,0.13635696081516568,5.999998300720325,0.5626385481864487,12.424071,0.16032222,5.809434,1.2942362,6.0892496,-6.884143,1.4663303,-0.5654479,-0.041440513,-0.08091158,-0.8197594,-7.755822,7.4870377,0.6806354,-0.7034328,4.263888,0.80002064,0
1.2200000000000009,14.097075067391835,0.13635696081516568,5.999998300720325,0.5626385481864487,12.424071,0.16032222,5.809434,1.2942362,6.011801,-6.809206,1.4733393,-0.5604021,-0.021906275,-0.090565056,-0.8229631,-7.734498,7.50115,0.72115654,-0.57257473,4.5347056,0.7883722,0
1.2300000000000009,14.097075067391835,0.13635696081516568,5.999998300720325,0.5626385481864487,12.424071,0.16032222,5.809434,1.2942362,5.9345493,-6.7341003,1.4807526,-0.5549759,-0.0016677524,-0.10136454,-0.8256663,-7.71628,7.5208488,0.76143795,-0.46210024,4.7632775,0.77729535,0
1.2400000000000009,14.097075067391835,0.13635696081516568,5.999998300720325,0.5626385481864487,12.192562,0.8828623,5.6554246,1.1527284,5.8574643,-6.6587687,1.488566,-0.54916114,0.019162875,-0.11310763,-0.8278056,-7.701229,7.5464296,0.8011356,-0.3688348,4.9561934,0.7667621,0
1.2500000000000009,14.097075067391835,0.13635696081516568,5.999998300720325,0.5626385481864487,12.192562,0.8828623,5.6554246,1.1527284,5.7805133,-6.583151,1.4967719,-0.54294986,0.040485825,-0.12562071,-0.82932895,-7.689412,7.5781107,0.8398767,-0.29009825,5.1190157,0.75674564,0
1.260000000000001,14.097075067391835,0.13635696081516568,5.999998300720325,0.5626385481864487,12.192562,0.8828623,5.6554246,1.1527284,5.7036643,-6.507185,1.5053588,-0.53633535,0.062211923,-0.13875449,-0.83019394,-7.680897,7.616043,0.8772655,-0.22362791,5.2564387,0.74722075,0
1.270000000000001,14.097075067391835,0.13635696081516568,5.999998300720325,0.5626385481864487,12.192562,0.8828623,5.6554246,1.1527284,5.6268835,-6.4308085,1.5143111,-0.5293124,0.08426111,-0.15238035,-0.830367,-7.6757503,7.6603136,0.9128893,-0.16751325,5.3724246,0.73816323,0
1.280000000000001,13.873798853891595,0.5189935496630211,5.999994744323603,0.43634238638553335,12.348773,0.75939256,4.1203523,0.71035236,5.5501375,-6.353957,1.523609,-0.52187735,0.10656122,-0.16638713,-0.8298221,-7.674031,7.710949,0.94632345,-0.12014119,5.470318,0.7295502,0
1.290000000000001,13.873798853891595,0.5189935496630211,5.999994744323603,0.43634238638553335,12.348773,0.75939256,4.1203523,0.71035236,5.4733915,-6.276572,1.5332183,-0.51405853,0.12897012,-0.1808039,-0.8285054,-7.675757,7.7670274,0.97509325,-0.020455655,5.552968,0.71516234,0
1.300000000000001,13.873798853891595,0.5189935496630211,5.999994744323603,0.43634238638553335,12.348773,0.75939256,4.1203523,0.71035236,5.3966107,-6.1985955,1.5431005,-0.50588554,0.15136974,-0.1956453,-0.826372,-7.6808887,7.8293014,1.0008446,0.0636888,5.6227202,0.70148057,0
1.310000000000001,13.873798853891595,0.5189935496630211,5.999994744323603,0.43634238638553335,12.348773,0.75939256,4.1203523,0.71035236,5.3197618,-6.1199656,1.5532233,-0.49735737,0.17373008,-0.21080177,-0.82341784,-7.6893954,7.897682,1.02314,0.13471466,5.6815877,0.6884702,0
1.320000000000001,13.384589336232585,0.675980102100124,4.132021448857731,0.38296770088078497,12.1379385,0.44032547,1.4632419,0.66999555,5.242811,-6.0406218,1.56355,-0.48847368,0.19602183,-0.22617824,-0.81964207,-7.7012463,7.972037,1.0415487,0.19466665,5.7312684,0.6760982,0
1.330000000000001,13.384589336232585,0.675980102100124,4.132021448857731,0.38296770088078497,12.1379385,0.44032547,1.4632419,0.66999555,5.1657276,-5.960519,1.5740198,-0.47943258,0.21757856,-0.24138285,-0.81519264,-7.715849,8.049334,1.0517185,0.26988852,5.4818974,0.66171426,0
1.340000000000001,13.384589336232585,0.675980102100124,4.132021448857731,0.38296770088078497,12.1379385,0.44032547,1.4632419,0.66999555,5.088484,-5.8796167,1.5845696,-0.47043315,0.23788485,-0.2561195,-0.81025124,-7.733432,8.131804,1.0575408,0.33335608,5.2714095,0.6480361,0
1.350000000000001,13.384589336232585,0.675980102100124,4.132021448857731,0.38296770088078497,12.1379385,0.44032547,1.4632419,0.66999555,5.0110497,-5.7978663,1.5951551,-0.46147093,0.25711784,-0.27043968,-0.8048591,-7.7537813,8.219038,1.0588751,0.38690627,5.093742,0.63502914,0
1.360000000000001,12.50890143953883,0.5567796189999689,-0.15607008925550342,0.4162104600080581,13.0676985,0.32030034,-1.3643903,0.45744812,4.9333987,-5.7152214,1.6057311,-0.4525375,0.27542606,-0.28438526,-0.79904705,-7.776711,8.310657,1.0555987,0.4320892,4.9437776,0.62266046,0
1.370000000000001,12.50890143953883,0.5567796189999689,-0.15607008925550342,0.4162104600080581,13.0676985,0.32030034,-1.3643903,0.45744812,4.855515,-5.631671,1.6162213,-0.44411308,0.29159355,-0.29718992,-0.7933573,-7.8003573,8.400003,1.0417758,0.45188466,4.148464,0.61252993,0
1.380000000000001,12.50890143953883,0.5567796189999689,-0.15607008925550342,0.4162104600080581,13.0676985,0.32030034,-1.3643903,0.45744812,4.777385,-5.5472107,1.626553,-0.43663996,0.30470172,-0.30829337,-0.7883264,-7.8258295,8.492446,1.0239936,0.46853277,3.477178,0.6028965,0
1.390000000000001,12.50890143953883,0.5567796189999689,-0.15607008925550342,0.4162104600080581,13.0676985,0.32030034,-1.3643903,0.45744812,4.6989937,-5.461813,1.6366893,-0.43003792,0.31525895,-0.31799528,-0.78393817,-7.852722,8.587392,1.0027573,0.48253465,2.9105778,0.59373575,0
1.400000000000001,11.995991638005686,0.06333228288254776,-4.631074744243293,0.4925702719775194,12.830808,0.26751885,-4.694108,0.28672886,4.6203275,-5.375456,1.6465979,-0.42422053,0.32368723,-0.32653952,-0.7801515,-7.8807,8.684379,0.9785296,0.49431187,2.4323373,0.58502454,1
1.410000000000001,11.995991638005686,0.06333228288254776,-4.631074744243293,0.4925702719775194,12.830808,0.26751885,-4.694108,0.28672886,4.5413733,-5.2881074,1.6562605,-0.4196793,0.32897973,-0.33326676,-0.7775446,-7.910185,8.785537,0.9536426,0.45937994,1.3209544,0.5703871,1
1.420000000000001,11.995991638005686,0.06333228288254776,-4.631074744243293,0.4925702719775194,12.830808,0.26751885,-4.694108,0.28672886,4.462122,-5.199742,1.6656651,-0.41681644,0.3303672,-0.337678,-0.7765925,-7.939961,8.887771,0.9271287,0.42981145,0.382894,0.5564679,1
1.430000000000001,11.995991638005686,0.06333228288254776,-4.631074744243293,0.4925702719775194,12.830808,0.26751885,-4.694108,0.28672886,4.382574,-5.1103506,1.6748008,-0.4154092,0.32847655,-0.34015518,-0.77706724,-7.9695325,8.990517,0.8999629,0.40478563,-0.40887427,0.5432318,1
1.440000000000001,11.995991638005686,0.06333228288254776,-4.631074744243293,0.4925702719775194,11.917583,-0.3210172,-5.249723,0.21157567,4.3027334,-5.0199313,1.683665,-0.41524512,0.3238196,-0.3410023,-0.7787365,-7.998476,9.093318,0.872975,0.3836067,-1.0771648,0.5306452,1
1.450000000000001,11.995991638005686,0.06333228288254776,-4.631074744243293,0.4925702719775194,11.917583,-0.3210172,-5.249723,0.21157567,4.222618,-4.9285216,1.6922377,-0.4161351,0.31674436,-0.34018373,-0.78152436,-8.02444,9.188484,0.8417475,0.2739286,-1.7279137,0.51498836,1
1.460000000000001,11.995991638005686,0.06333228288254776,-4.631074744243293,0.4925702719775194,11.917583,-0.3210172,-5.249723,0.21157567,4.1422486,-4.836164,1.7005049,-0.41790792,0.30753925,-0.3376724,-0.78533477,-8.049219,9.282945,0.8119535,0.18130954,-2.277171,0.50009984,1
1.470000000000001,11.995991638005686,0.06333228288254776,-4.631074744243293,0.4925702719775194,11.917583,-0.3210172,-5.249723,0.21157567,4.061638,-4.7428665,1.7084836,-0.42040247,0.29651073,-0.3337021,-0.7899284,-8.072589,9.376326,0.7841113,0.10309773,-2.740765,0.4859419,1
1.480000000000001,11.632784771841042,-0.6980980116162381,-5.999995597347052,0.4674013581016606,11.5898485,-0.16558185,-5.5684237,-0.46321446,3.980802,-4.648642,1.7161953,-0.42347485,0.28391486,-0.32846606,-0.7950925,-8.09434,9.468279,0.7586295,0.037053704,-3.132057,0.4724787,1
1.490000000000001,11.632784771841042,-0.6980980116162381,-5.999995597347052,0.4674013581016606,11.5898485,-0.16558185,-5.5684237,-0.46321446,3.89976,-4.553519,1.7236551,-0.4271232,0.26986632,-0.3220971,-0.8006198,-8.113731,9.555993,0.7337524,0.0054651867,-3.5120168,0.42656395,1
1.500000000000001,11.632784771841042,-0.6980980116162381,-5.999995597347052,0.4674013581016606,11.5898485,-0.16558185,-5.5684237,-0.46321446,3.818534,-4.457528,1.7308801,-0.43134108,0.25446883,-0.31470436,-0.8063202,-8.131153,9.641675,0.71172005,-0.021229064,-3.8327193,0.3829023,1
1.5100000000000011,11.632784771841042,-0.6980980116162381,-5.999995597347052,0.4674013581016606,11.5898485,-0.16558185,-5.5684237,-0.46321446,3.7371445,-4.360693,1.7378999,-0.43600395,0.23790802,-0.30640578,-0.8120447,-8.146406,9.725007,0.69270176,-0.04378396,-4.103406,0.34138313,1
1.5200000000000011,11.481550177868748,-1.3975711464785385,-5.999997836414202,0.4739310376298241,11.173252,-1.4113542,-5.841052,-0.06501073,3.655614,-4.263037,1.7447449,-0.44100353,0.22034304,-0.2973024,-0.8176655,-8.159316,9.805682,0.6767939,-0.06283868,-4.331877,0.30190128,1
1.5300000000000011,11.481550177868748,-1.3975711464785385,-5.999997836414202,0.4739310376298241,11.173252,-1.4113542,-5.841052,-0.06501073,3.5739686,-4.1646037,1.7514313,-0.4461301,0.20202747,-0.28703487,-0.82326466,-8.169373,9.880592,0.6609715,-0.2731461,-4.5672703,0.2838968,1
1.5400000000000011,11.481550177868748,-1.3975711464785385,-5.999997836414202,0.4739310376298241,11.173252,-1.4113542,-5.841052,-0.06501073,3.4922347,-4.0654364,1.757975,-0.45120978,0.18317145,-0.2753199,-0.8288895,-8.17703,9.952264,0.6482335,-0.45066535,-4.7659435,0.26677582,1
1.5500000000000012,11.481550177868748,-1.3975711464785385,-5.999997836414202,0.4739310376298241,11.173252,-1.4113542,-5.841052,-0.06501073,3.4104362,-3.965571,1.7644066,-0.45620137,0.16384442,-0.2623428,-0.8343935,-8.182311,10.020314,0.63858134,-0.6005075,-4.9336257,0.25049496,1
1.5600000000000012,11.540214664752584,-1.9345389717816652,-5.999997686820296,0.613885466548007,11.709704,-2.2365775,-6.068249,0.52420956,3.3285964,-3.865044,1.770757,-0.4610662,0.14410791,-0.2482638,-0.83965284,-8.185236,10.084388,0.6319563,-0.72698665,-5.0751524,0.235013,1
1.5700000000000012,11.540214664752584,-1.9345389717816652,-5.999997686820296,0.613885466548007,11.709704,-2.2365775,-6.068249,0.52420956,3.2467391,-3.7638836,1.7770783,-0.46567646,0.124098174,-0.23292466,-0.8446846,-8.185863,10.147011,0.6327841,-0.96233636,-5.219427,0.24920395,1
1.5800000000000012,11.540214664752584,-1.9345389717816652,-5.999997686820296,0.613885466548007,11.709704,-2.2365775,-6.068249,0.52420956,3.1648874,-3.662121,1.7834226,-0.46991968,0.10392846,-0.21620682,-0.849488,-8.184151,10.204717,0.6365458,-1.160987,-5.3411994,0.26269856,1
1.5900000000000012,11.540214664752584,-1.9345389717816652,-5.999997686820296,0.613885466548007,11.709704,-2.2365775,-6.068249,0.52420956,3.0830638,-3.5598073,1.7898186,-0.47378123,0.08362044,-0.19829504,-0.85394317,-8.180215,10.257126,0.6430702,-1.3286618,-5.443979,0.275531,1
1.6000000000000012,11.497446555209578,-2.0562156387445927,-5.999996539770727,0.9513942388311025,12.469256,-2.0241134,-6.283292,0.69868803,3.0012906,-3.4569976,1.7962928,-0.47724575,0.06319603,-0.17935029,-0.8579494,-8.174152,10.303896,0.6521341,-1.4701914,-5.530727,0.28773373,1
1.6100000000000012,11.497446555209578,-2.0562156387445927,-5.999996539770727,0.9513942388311025,12.469256,-2.0241134,-6.283292,0.69868803,2.9195905,-3.3537362,1.8029045,-0.48028436,0.042633146,-0.15958789,-0.86141855,-8.165525,10.347372,0.6705656,-1.5564879,-5.6039467,0.3078994,1
1.6200000000000012,11.497446555209578,-2.0562156387445927,-5.999996539770727,0.9513942388311025,12.469256,-2.0241134,-6.283292,0.69868803,2.8379872,-3.2500727,1.8097112,-0.48286793,0.021919042,-0.13919094,-0.8642829,-8.154785,10.384249,0.69107777,-1.6293306,-5.6657457,0.32707554,1
1.6300000000000012,11.497446555209578,-2.0562156387445927,-5.999996539770727,0.9513942388311025,12.469256,-2.0241134,-6.283292,0.69868803,2.7565017,-3.1460743,1.8167319,-0.4849822,0.0010890123,-0.118248105,-0.8664926,-8.141983,10.414295,0.71329933,-1.6908177,-5.7179055,0.34531066,1
1.6400000000000012,11.497446555209578,-2.0562156387445927,-5.999996539770727,0.9513942388311025,12.08316,-1.8407551,-6.2897964,0.81323457,2.6751544,-3.0418108,1.8239818,-0.4866151,-0.019823162,-0.09683868,-0.868007,-8.127172,10.437319,0.73683167,-1.74272,-5.7619295,0.36265096,1
1.6500000000000012,11.497446555209578,-2.0562156387445927,-5.999996539770727,0.9513942388311025,12.08316,-1.8407551,-6.2897964,0.81323457,2.5939627,-2.937355,1.8314526,-0.48774257,-0.04082209,-0.07509734,-0.86879355,-8.110921,10.452674,0.7574592,-1.7579162,-5.799085,0.3847612,1
1.6600000000000013,11.497446555209578,-2.0562156387445927,-5.999996539770727,0.9513942388311025,12.08316,-1.8407551,-6.2897964,0.81323457,2.5129426,-2.832781,1.8391323,-0.4883427,-0.06190584,-0.053138386,-0.86883056,-8.092804,10.460971,0.77851874,-1.7707471,-5.8304453,0.4057865,1
1.6700000000000013,11.497446555209578,-2.0562156387445927,-5.999996539770727,0.9513942388311025,12.08316,-1.8407551,-6.2897964,0.81323457,2.4321127,-2.72816,1.8470229,-0.48840994,-0.08303381,-0.0310019,-0.8681021,-8.072853,10.462145,0.7995683,-1.7815815,-5.856913,0.4257801,1
1.6800000000000013,11.305239458116288,-1.7702836643353723,-5.999984896370135,1.3442900517860727,14.416386,-1.7199652,-5.982988,0.6542013,2.3514915,-2.6235628,1.8551222,-0.48794076,-0.10416796,-0.008725465,-0.86659557,-8.051107,10.456163,0.82015854,-1.7907306,-5.8792524,0.4447926,0
1.6900000000000013,11.305239458116288,-1.7702836643353723,-5.999984896370135,1.3442900517860727,14.416386,-1.7199652,-5.982988,0.6542013,2.271089,-2.5190575,1.8633852,-0.4868735,-0.12528656,0.01363817,-0.86433357,-8.029128,10.443874,0.8322534,-1.787367,-5.898131,0.4889312,0
1.7000000000000013,11.305239458116288,-1.7702836643353723,-5.999984896370135,1.3442900517860727,14.416386,-1.7199652,-5.982988,0.6542013,2.1909144,-2.4147086,1.871763,-0.48515204,-0.1463651,0.036044598,-0.86134,-8.005553,10.42493,0.8430679,-1.7845361,-5.9140625,0.5309039,0
1.7100000000000013,11.305239458116288,-1.7702836643353723,-5.999984896370135,1.3442900517860727,14.416386,-1.7199652,-5.982988,0.6542013,2.1109834,-2.3105822,1.8802406,-0.48278362,-0.16736507,0.058470637,-0.85760784,-7.9804277,10.399396,0.85217714,-1.7821546,-5.9275074,0.57081693,0
1.7200000000000013,10.884931747301005,-1.3509040039782831,-3.553599451100717,1.6283394148713652,14.787751,-1.1070902,-5.2024174,1.0240331,2.031311,-2.2067432,1.8887991,-0.4797766,-0.18825036,0.080893196,-0.85313165,-7.953802,10.3673725,0.85916066,-1.7801523,-5.9388533,0.60877144,0
1.7300000000000013,10.884931747301005,-1.3509040039782831,-3.553599451100717,1.6283394148713652,14.787751,-1.1070902,-5.2024174,1.0240331,1.951907,-2.1032495,1.8973958,-0.47617367,-0.2082345,0.10268667,-0.84814715,-7.92679,10.33045,0.859812,-1.7131763,-5.566904,0.6588019,0
1.7400000000000013,10.884931747301005,-1.3509040039782831,-3.553599451100717,1.6283394148713652,14.787751,-1.1070902,-5.2024174,1.0240331,1.8727795,-2.000154,1.9059861,-0.47206438,-0.22671019,0.12336679,-0.84293497,-7.8985543,10.2878475,0.85780025,-1.6566513,-5.252958,0.7063774,0
1.7500000000000013,10.884931747301005,-1.3509040039782831,-3.553599451100717,1.6283394148713652,14.787751,-1.1070902,-5.2024174,1.0240331,1.7939396,-1.8975109,1.9145423,-0.46751326,-0.24388777,0.14310344,-0.83753955,-7.869252,10.240014,0.85296756,-1.6089444,-4.9879694,0.7516183,0
1.7600000000000013,10.63527903427921,-0.7679510088880602,0.25709040583741993,1.7758934028547382,14.167332,-0.43246824,-2.8049986,1.6597824,1.7153976,-1.7953705,1.9230355,-0.46256942,-0.2599444,0.16203982,-0.8319871,-7.8390174,10.187343,0.8451858,-1.5686786,-4.7643046,0.7946393,0
1.7700000000000014,10.63527903427921,-0.7679510088880602,0.25709040583741993,1.7758934028547382,14.167332,-0.43246824,-2.8049986,1.6597824,1.6371684,-1.6937912,1.9314542,-0.45749107,-0.27394482,0.17964692,-0.82667047,-7.8068438,10.128132,0.8376156,-1.5114704,-4.0486393,0.83673483,0
1.7800000000000014,10.63527903427921,-0.7679510088880602,0.25709040583741993,1.7758934028547382,14.167332,-0.43246824,-2.8049986,1.6597824,1.5592592,-1.5928152,1.9397689,-0.45252237,-0.28513914,0.19538622,-0.8220366,-7.775079,10.066801,0.8245267,-1.4285241,-3.4099116,0.87986374,0
1.7900000000000014,10.63527903427921,-0.7679510088880602,0.25709040583741993,1.7758934028547382,14.167332,-0.43246824,-2.8049986,1.6597824,1.4816648,-1.4924604,1.9479283,-0.44766694,-0.2939145,0.20936963,-0.81815267,-7.743838,10.003865,0.8067872,-1.3296841,-2.8419585,0.9234671,0
1.8000000000000014,10.320158326296323,-0.35585501494817684,5.254843576688243,1.742251677192917,13.531431,0.37636068,2.4988124,1.239068,1.4043825,-1.3927466,1.9558967,-0.44292623,-0.30062538,0.2217961,-0.8150142,-7.712612,9.938529,0.7865733,-1.2423077,-2.3586452,0.9652959,0
1.8100000000000014,10.320158326296323,-0.35585501494817684,5.254843576688243,1.742251677192917,13.531431,0.37636068,2.4988124,1.239068,1.3274299,-1.2937354,1.9636966,-0.43877003,-0.3042033,0.23241007,-0.8129746,-7.6781244,9.863784,0.7726973,-1.2559795,-1.3226386,0.9898634,0
1.8200000000000014,10.320158326296323,-0.35585501494817684,5.254843576688243,1.742251677192917,13.531431,0.37636068,2.4988124,1.239068,1.2508142,-1.195468,1.9713364,-0.43557677,-0.30377486,0.24086395,-0.81239104,-7.6452947,9.78985,0.75470084,-1.2265656,-0.40726402,1.016884,0
1.8300000000000014,10.320158326296323,-0.35585501494817684,5.254843576688243,1.742251677192917,13.531431,0.37636068,2.4988124,1.239068,1.1745173,-1.0979335,1.9787796,-0.43320403,-0.29989138,0.24727449,-0.8131764,-7.6144347,9.717304,0.7335298,-1.1632522,0.4038295,1.0460174,0
1.8400000000000014,10.320158326296323,-0.35585501494817684,5.254843576688243,1.742251677192917,12.581826,0.8313475,5.810841,1.1867297,1.098518,-1.0011157,1.9859987,-0.4315093,-0.2930069,0.25174293,-0.8152136,-7.5857563,9.646596,0.70997876,-1.0735905,1.1246438,1.076958,0
1.8500000000000014,10.320158326296323,-0.35585501494817684,5.254843576688243,1.742251677192917,12.581826,0.8313475,5.810841,1.1867297,1.0227942,-0.9049944,1.9929738,-0.43035594,-0.283498,0.25436077,-0.8183669,-7.5593243,9.577893,0.6849153,-0.9670579,1.7638874,1.1091485,0
1.8600000000000014,10.320158326296323,-0.35585501494817684,5.254843576688243,1.742251677192917,12.581826,0.8313475,5.810841,1.1867297,0.9473256,-0.80955553,1.9997001,-0.42962328,-0.27170774,0.25529692,-0.8224496,-7.534693,9.509985,0.6605164,-0.8721804,2.3083508,1.140215,0
1.8700000000000014,10.320158326296323,-0.35585501494817684,5.254843576688243,1.742251677192917,12.581826,0.8313475,5.810841,1.1867297,0.872094,-0.7147918,2.0061889,-0.4292069,-0.2579567,0.25479195,-0.8272376,-7.5119467,9.442929,0.63749087,-0.7920537,2.7678988,1.1697571,0
1.8800000000000014,10.375716070105586,0.20102148118662502,5.9999944288176446,1.5859152836730157,11.076111,1.2733194,5.866495,1.5039606,0.79707956,-0.62069285,2.0124557,-0.429011,-0.24251673,0.25305042,-0.8325274,-7.4912868,9.377073,0.6161109,-0.7243815,3.1557748,1.1978495,0
1.8900000000000015,10.375716070105586,0.20102148118662502,5.9999944288176446,1.5859152836730157,11.076111,1.2733194,5.866495,1.5039606,0.72226095,-0.5272468,2.0185196,-0.42898643,-0.22546934,0.24992311,-0.8382564,-7.472803,9.312396,0.59700245,-0.58045566,3.5994344,1.2168921,0
1.9000000000000015,10.375716070105586,0.20102148118662502,5.9999944288176446,1.5859152836730157,11.076111,1.2733194,5.866495,1.5039606,0.6476151,-0.4344383,2.0244029,-0.42908615,-0.2068895,0.24529423,-0.84434223,-7.45678,9.249626,0.5799429,-0.45892802,3.9738915,1.2350003,0
1.9100000000000015,10.375716070105586,0.20102148118662502,5.9999944288176446,1.5859152836730157,11.076111,1.2733194,5.866495,1.5039606,0.5731164,-0.34224638,2.0301263,-0.42923015,-0.18698359,0.2393653,-0.8505904,-7.443381,9.189135,0.56506217,-0.35631126,4.2899394,1.2522197,0
1.9200000000000015,10.417399497149406,0.402544795355158,5.9999965029619755,1.4222571072658448,11.105294,1.290082,5.9826174,1.2947931,0.49873787,-0.25064653,2.035712,-0.42934686,-0.16593035,0.23230655,-0.8568332,-7.4327645,9.131261,0.55241346,-0.26966134,4.5566893,1.2685941,1
1.9300000000000015,10.417399497149406,0.402544795355158,5.9999965029619755,1.4222571072658448,11.105294,1.290082,5.9826174,1.2947931,0.4244539,-0.1596305,2.041213,-0.4293337,-0.14408705,0.22388555,-0.863011,-7.424524,9.072464,0.54815197,-0.026607756,4.7792625,1.2698797,1
1.9400000000000015,10.417399497149406,0.402544795355158,5.9999965029619755,1.4222571072658448,11.105294,1.290082,5.9826174,1.2947931,0.3502366,-0.06918514,2.0466833,-0.42912033,-0.121751204,0.2139246,-0.86906266,-7.419438,9.01719,0.54622626,0.1785701,4.967095,1.2711022,1
1.9500000000000015,10.417399497149406,0.402544795355158,5.9999965029619755,1.4222571072658448,11.105294,1.290082,5.9826174,1.2947931,0.2760543,0.020726662,2.0521452,-0.42868915,-0.0989886,0.20263305,-0.87485313,-7.4175143,8.965804,0.5465446,0.35177493,5.1256084,1.2722646,1
1.9600000000000015,10.337945340203456,0.21315453660394332,5.999992987015727,1.2721981701817773,11.126294,1.1776639,5.2994437,1.0940021,0.20187537,0.11014545,2.057621,-0.4280215,-0.0758596,0.19019093,-0.8802679,-7.418768,8.918633,0.548961,0.49798894,5.2593794,1.2733701,1
1.9700000000000015,10.337945340203456,0.21315453660394332,5.999992987015727,1.2721981701817773,11.126294,1.1776639,5.2994437,1.0940021,0.12766793,0.1991144,2.0631318,-0.4270753,-0.052647106,0.17690934,-0.88517755,-7.4232216,8.875877,0.553471,0.6040091,5.2657123,1.2645684,1
1.9800000000000015,10.337945340203456,0.21315453660394332,5.999992987015727,1.2721981701817773,11.126294,1.1776639,5.2994437,1.0940021,0.05340004,0.28767908,2.068696,-0.4258293,-0.029585663,0.16305022,-0.88949984,-7.4308486,8.837808,0.5596264,0.6934947,5.271043,1.2561986,1
1.9900000000000015,10.337945340203456,0.21315453660394332,5.999992987015727,1.2721981701817773,11.126294,1.1776639,5.2994437,1.0940021,-0.020959841,0.37588707,2.074329,-0.42429346,-0.006662314,0.14869179,-0.8932092,-7.4416156,8.804558,0.56714445,0.76902425,5.27553,1.2482395,1
2.0000000000000013,,,,,11.213352,0.80485564,3.7865329,1.1545221,-0.09544295,0.46378714,2.0800426,-0.4224749,0.016131246,0.13390265,-0.89628464,-7.4554915,8.77624,0.575732,0.8327743,5.279307,1.240671,0
2.010000000000001,,,,,11.213352,0.80485564,3.7865329,1.1545221,-0.17007257,0.5514404,2.0857956,-0.42037034,0.039116077,0.11930132,-0.8986252,-7.470877,8.75512,0.5749812,0.635112,5.301832,1.2332644,0
2.020000000000001,,,,,11.213352,0.80485564,3.7865329,1.1545221,-0.2448706,0.6389049,2.091543,-0.41796,0.06254258,0.105385095,-0.9001629,-7.489202,8.738494,0.5745922,0.46827665,5.320872,1.2262214,0
2.0300000000000007,,,,,11.213352,0.80485564,3.7865329,1.1545221,-0.3198672,0.7262254,2.0972874,-0.4152285,0.08631812,0.09204592,-0.9009236,-7.5106077,8.726281,0.5742281,0.32746047,5.336964,1.2195239,0
2.0400000000000005,,,,,11.213352,0.80485564,3.7865329,1.1545221,-0.3950937,0.8134454,2.1030266,-0.41216552,0.11036143,0.079193056,-0.9009271,-7.535202,8.7184,0.57355833,0.20860538,5.350566,1.213155,0
2.0500000000000003,,,,,10.807922,-0.18806008,1.2105722,0.917319,-0.4705825,0.900608,2.1087565,-0.408765,0.13460085,0.066750616,-0.90018857,-7.563064,8.714766,0.57225806,0.108286306,5.362061,1.2070987,1
2.06,,,,,10.807922,-0.18806008,1.2105722,0.917319,-0.5463773,0.9877549,2.1145034,-0.40496346,0.1574177,0.05525758,-0.89898396,-7.5964394,8.715269,0.57694215,0.062624,4.7146025,1.1928791,1
2.07,,,,,10.807922,-0.18806008,1.2105722,0.917319,-0.6225222,1.0749269,2.1202912,-0.4007845,0.17754546,0.045137554,-0.89767104,-7.6329956,8.719694,0.580446,0.023991283,4.1681204,1.1793572,1
2.0799999999999996,,,,,10.807922,-0.18806008,1.2105722,0.917319,-0.69904685,1.1621605,2.1261082,-0.39632973,0.19540164,0.03617509,-0.8963446,-7.6723547,8.727517,0.582692,-0.008692574,3.706867,1.1664989,1
2.0899999999999994,,,,,10.946098,0.07666014,-2.760882,1.1051245,-0.7759778,1.2494874,2.1319408,-0.39167398,0.21133952,0.028187003,-0.8950608,-7.714202,8.738293,0.5836508,-0.036342517,3.3175502,1.1542716,1
2.099999999999999,,,,,10.946098,0.07666014,-2.760882,1.1051245,-0.8533412,1.3369359,2.137783,-0.38683972,0.2241977,0.021537865,-0.8942191,-7.7587886,8.751765,0.58460367,-0.018003697,2.3696356,1.15186,1
2.109999999999999,,,,,10.946098,0.07666014,-2.760882,1.1051245,-0.93115926,1.4245293,2.1436293,-0.3818705,0.23308402,0.016499463,-0.89419,-7.80503,8.767141,0.5845173,-0.0026386022,1.5695456,1.1495667,1
2.1199999999999988,,,,,10.946098,0.07666014,-2.760882,1.1051245,-1.0094455,1.5122832,2.1494708,-0.37682873,0.2386295,0.012804884,-0.8949265,-7.8523726,8.783783,0.5836966,0.0102347955,0.8942274,1.147386,1
2.1299999999999986,,,,,11.315148,0.22982743,-5.8248706,0.9806312,-1.0882089,1.6002076,2.1553018,-0.37174946,0.24135952,0.010230287,-0.8963507,-7.900356,8.801165,0.5824323,0.021020051,0.32422298,1.1453123,1
2.1399999999999983,,,,,11.315148,0.22982743,-5.8248706,0.9806312,-1.1674616,1.6883105,2.1611352,-0.36666715,0.24058889,0.008990252,-0.89866155,-7.950175,8.819413,0.5842738,0.054295328,-0.63470024,1.1372313,1
2.149999999999998,,,,,11.315148,0.22982743,-5.8248706,0.9806312,-1.2472111,1.7765948,2.1669881,-0.3616001,0.23578711,0.009239945,-0.90197873,-7.9996004,8.837321,0.5863716,0.082261555,-1.4440842,1.1295469,1
2.159999999999998,,,,,11.315148,0.22982743,-5.8248706,0.9806312,-1.3274502,1.8650538,2.172865,-0.35653147,0.22756048,0.010728624,-0.90608364,-8.0480175,8.8543,0.5891203,0.105766654,-2.1272488,1.1222395,1
2.1699999999999977,,,,,11.474564,-0.72811395,-5.344132,1.1879097,-1.4081662,1.9536757,2.1787739,-0.35143405,0.21641493,0.013246855,-0.9107603,-8.094881,8.869861,0.5928256,0.12552305,-2.703877,1.1152906,1
2.1799999999999975,,,,,11.474564,-0.72811395,-5.344132,1.1879097,-1.4893441,2.0424457,2.184733,-0.34617537,0.2030856,0.016896648,-0.9157699,-8.14035,8.883789,0.5991491,-0.007295046,-3.1157198,1.118854,1
2.1899999999999973,,,,,11.474564,-0.72811395,-5.344132,1.1879097,-1.570965,2.131344,2.1907616,-0.34064984,0.18817821,0.021753743,-0.92090964,-8.183437,8.895473,0.60674924,-0.11944566,-3.4633214,1.1222426,1
2.199999999999997,,,,,11.474564,-0.72811395,-5.344132,1.1879097,-1.6530038,2.2203467,2.1968725,-0.33486438,0.17191267,0.027620398,-0.92604005,-8.223872,8.904568,0.6156422,-0.21414496,-3.7567024,1.125465,1
