time-since-start [s],throttle_mpc,roll_mpc,pitch_mpc,yaw_mpc,throttle_nw,roll_nw,pitch_nw,yaw_nw,position_x [m],position_y [m],position_z [m],rotation_w [quaternion],rotation_x [quaternion],rotation_y [quaternion],rotation_z [quaternion],velocity_x [m/s],velocity_y [m/s],velocity_z [m/s],omega_x [rad/s],omega_y [rad/s],omega_z [rad/s],network_used
0.0,12.678176912992477,5.9999996097290635,-5.999999884295107,-3.894150254179118,11.462048,0.3874318,-0.141475,0.14238049,16.658035,-10.491577,1.3071088,-0.123516634,0.39882177,-0.23792987,-0.87696874,-8.7808275,-3.484091,-0.582589,1.3861026,-0.16205937,-0.108736776,0
0.01,12.678176912992477,5.9999996097290635,-5.999999884295107,-3.894150254179118,12.354204,-0.043326005,-1.5150062,0.019164754,16.569641,-10.525943,1.3013128,-0.12757328,0.39668754,-0.24374254,-0.8757588,-8.897382,-3.3890178,-0.5769678,1.5232842,-0.49033582,-0.24240862,0
0.02,12.678176912992477,5.9999996097290635,-5.999999884295107,-3.894150254179118,12.354204,-0.043326005,-1.5150062,0.019164754,16.4801,-10.559356,1.2955616,-0.13287774,0.39319074,-0.24970719,-0.87486607,-9.010057,-3.2934961,-0.5736018,1.6754732,-0.803895,-0.37278,0
0.03,12.678176912992477,5.9999996097290635,-5.999999884295107,-3.894150254179118,12.354204,-0.043326005,-1.5150062,0.019164754,16.389454,-10.591809,1.2898341,-0.13942811,0.38837096,-0.25588536,-0.87421405,-9.118438,-3.197414,-0.5721425,1.839833,-1.1045325,-0.49996802,0
0.04,12.678176912992477,5.9999996097290635,-5.999999884295107,-3.894150254179118,12.320116,1.0210379,-1.3404535,0.07594249,16.297749,-10.623301,1.2841132,-0.14721665,0.38225767,-0.2623233,-0.8737234,-9.222127,-3.1006663,-0.5722916,2.0139594,-1.3937529,-0.6240832,0
0.05,12.678176912992477,5.9999996097290635,-5.999999884295107,-3.894150254179118,12.320116,1.0210379,-1.3404535,0.07594249,16.20503,-10.653821,1.2783836,-0.1562301,0.37487182,-0.26905385,-0.8733116,-9.320742,-3.0031667,-0.5737977,2.1958132,-1.6728184,-0.7452299,0
0.060000000000000005,12.678176912992477,5.9999996097290635,-5.999999884295107,-3.894150254179118,12.320116,1.0210379,-1.3404535,0.07594249,16.111355,-10.683362,1.2726332,-0.1664499,0.3662273,-0.2760982,-0.8728927,-9.413911,-2.9048524,-0.57645226,2.3836656,-1.9427862,-0.86350685,0
0.07,12.678176912992477,5.9999996097290635,-5.999999884295107,-3.894150254179118,12.320116,1.0210379,-1.3404535,0.07594249,16.016773,-10.711917,1.2668511,-0.17785229,0.35633215,-0.28346688,-0.87237734,-9.501276,-2.8056924,-0.58008707,2.5760527,-2.2045424,-0.9790072,0
0.08,14.20134955306089,5.999999592363002,-5.999999900053605,-4.0812094502176555,14.739295,1.7169309,-0.07655076,0.15785661,15.92135,-10.739474,1.2610284,-0.19040832,0.34518987,-0.29116103,-0.87167287,-9.582488,-2.7056913,-0.5845719,2.7717338,-2.4588306,-1.0918193,0
0.09,14.20134955306089,5.999999592363002,-5.999999900053605,-4.0812094502176555,14.739295,1.7169309,-0.07655076,0.15785661,15.825113,-10.765983,1.2551981,-0.20413049,0.332768,-0.2991892,-0.8706789,-9.663813,-2.5959868,-0.58160657,2.9846532,-2.7213333,-1.2125468,0
0.09999999999999999,14.20134955306089,5.999999592363002,-5.999999900053605,-4.0812094502176555,14.739295,1.7169309,-0.07655076,0.15785661,15.7281,-10.79139,1.2493937,-0.21902469,0.3190289,-0.30755147,-0.8692874,-9.737706,-2.4854853,-0.57937765,3.1991954,-2.9777853,-1.3304664,0
0.10999999999999999,14.20134955306089,5.999999592363002,-5.999999900053605,-4.0812094502176555,14.739295,1.7169309,-0.07655076,0.15785661,15.630387,-10.81569,1.243608,-0.2350436,0.30396497,-0.3162238,-0.867388,-9.803799,-2.3743248,-0.5778501,3.4145463,-3.2285666,-1.4456657,0
0.11999999999999998,14.20134955306089,5.999999592363002,-5.999999900053605,-4.0812094502176555,14.739295,1.7169309,-0.07655076,0.15785661,15.532054,-10.838876,1.2378341,-0.25213352,0.2875684,-0.32517448,-0.8648666,-9.86174,-2.2627008,-0.57702523,3.6300173,-3.4739952,-1.5582277,0
0.12999999999999998,16.053922223726158,5.255113075968406,-5.999999850124327,-3.6231436756529005,16.092533,1.5815527,0.23836334,0.17167507,15.433184,-10.860944,1.2320648,-0.27023405,0.26983234,-0.33436465,-0.86160547,-9.911205,-2.1508665,-0.57693934,3.845025,-3.714338,-1.6682311,0
0.13999999999999999,16.053922223726158,5.255113075968406,-5.999999850124327,-3.6231436756529005,16.092533,1.5815527,0.23836334,0.17167507,15.333852,-10.88187,1.2263125,-0.28936931,0.25045395,-0.34368783,-0.8575643,-9.953673,-2.0341754,-0.57332236,4.0642867,-4.0712776,-1.7641592,0
0.15,16.053922223726158,5.255113075968406,-5.999999850124327,-3.6231436756529005,16.092533,1.5815527,0.23836334,0.17167507,15.234139,-10.901621,1.2206025,-0.30946052,0.22931096,-0.35297367,-0.85267806,-9.987259,-1.9156625,-0.56850207,4.2493906,-4.372526,-1.8553802,0
0.16,16.986825848162407,3.1075965559639194,-5.563864375335059,-1.3002647770866833,15.397843,0.41018033,1.0477763,0.425415,15.13414,-10.920179,1.2149464,-0.33030105,0.20664816,-0.36209726,-0.8468075,-10.01129,-1.795839,-0.56253487,4.4056644,-4.6267676,-1.9421247,0
0.17,16.986825848162407,3.1075965559639194,-5.563864375335059,-1.3002647770866833,15.397843,0.41018033,1.0477763,0.425415,15.033945,-10.9375,1.2093856,-0.35123172,0.18301824,-0.37035125,-0.84022623,-10.026068,-1.6683309,-0.5494171,4.2031446,-4.772565,-1.9106284,0
0.18000000000000002,16.986825848162407,3.1075965559639194,-5.563864375335059,-1.3002647770866833,15.397843,0.41018033,1.0477763,0.425415,14.933657,-10.953547,1.2039615,-0.37172323,0.15889256,-0.37720716,-0.8332403,-10.030097,-1.540971,-0.53522575,4.0322366,-4.895676,-1.8806778,0
0.19000000000000003,16.986825848162407,3.1075965559639194,-5.563864375335059,-1.3002647770866833,15.397843,0.41018033,1.0477763,0.425415,14.833382,-10.968324,1.1986846,-0.39177442,0.13435763,-0.3828083,-0.8257834,-10.023455,-1.4146469,-0.5199932,3.8880048,-4.9996305,-1.8521967,0
0.20000000000000004,16.86732441994234,1.9712917260103262,-4.350153434628528,-1.0878095451521979,15.774189,-0.6586179,3.0897381,0.6411454,14.733224,-10.981846,1.1935649,-0.4113778,0.10948778,-0.3872764,-0.8178002,-10.006266,-1.2901976,-0.50379944,3.7662845,-5.087409,-1.8251133,0
0.21000000000000005,16.86732441994234,1.9712917260103262,-4.350153434628528,-1.0878095451521979,15.774189,-0.6586179,3.0897381,0.6411454,14.63329,-10.99414,1.1886073,-0.43027106,0.08492477,-0.3905562,-0.8093948,-9.978941,-1.169263,-0.48757443,3.486611,-4.9720187,-1.7889335,0
0.22000000000000006,16.86732441994234,1.9712917260103262,-4.350153434628528,-1.0878095451521979,15.774189,-0.6586179,3.0897381,0.6411454,14.53368,-11.00524,1.1838157,-0.44827273,0.061189674,-0.3926456,-0.8007098,-9.941889,-1.0516237,-0.47064924,3.2505205,-4.874691,-1.7545291,0
0.23000000000000007,16.86732441994234,1.9712917260103262,-4.350153434628528,-1.0878095451521979,15.774189,-0.6586179,3.0897381,0.6411454,14.434485,-11.015184,1.1791962,-0.4654777,0.03817583,-0.39370835,-0.7917488,-9.895705,-0.9378337,-0.4531545,3.0512216,-4.792597,-1.7218128,0
0.24000000000000007,16.86732441994234,1.9712917260103262,-4.350153434628528,-1.0878095451521979,17.108614,-1.0392903,3.2836246,1.1337903,14.335795,-11.024013,1.174754,-0.48196176,0.015790524,-0.3938795,-0.7825099,-9.840946,-0.82837766,-0.435218,2.8829803,-4.7233505,-1.6907022,0
0.25000000000000006,16.86732441994234,1.9712917260103262,-4.350153434628528,-1.0878095451521979,17.108614,-1.0392903,3.2836246,1.1337903,14.237694,-11.03177,1.1704928,-0.4977854,-0.0060460847,-0.3932707,-0.77298814,-9.7781315,-0.72368336,-0.4169675,2.740957,-4.664942,-1.661118,0
0.26000000000000006,16.86732441994234,1.9712917260103262,-4.350153434628528,-1.0878095451521979,17.108614,-1.0392903,3.2836246,1.1337903,14.140258,-11.038505,1.1664152,-0.5129966,-0.027402148,-0.3919743,-0.763177,-9.707752,-0.6241321,-0.39853248,2.6210659,-4.6156726,-1.6329857,0
0.2700000000000001,16.86732441994234,1.9712917260103262,-4.350153434628528,-1.0878095451521979,17.108614,-1.0392903,3.2836246,1.1337903,14.043563,-11.044271,1.1625224,-0.5276334,-0.048335332,-0.39006692,-0.75306964,-9.630271,-0.5300656,-0.38004503,2.519858,-4.5741134,-1.6062337,0
0.2800000000000001,16.43312888963027,0.09852768440013768,-2.3504341737138867,0.05814892078447727,16.738132,-1.2460107,2.8985572,1.1302559,13.947677,-11.049126,1.1588141,-0.54172575,-0.068894,-0.38761204,-0.7426595,-9.546132,-0.44179225,-0.36164045,2.434421,-4.5390573,-1.5807945,0
0.2900000000000001,16.43312888963027,0.09852768440013768,-2.3504341737138867,0.05814892078447727,16.738132,-1.2460107,2.8985572,1.1302559,13.852651,-11.053139,1.1552739,-0.55494916,-0.08817364,-0.38454336,-0.7323815,-9.458157,-0.36166117,-0.34643242,2.0707123,-4.1972585,-1.5003711,0
0.3000000000000001,16.43312888963027,0.09852768440013768,-2.3504341737138867,0.05814892078447727,16.738132,-1.2460107,2.8985572,1.1302559,13.758531,-11.056379,1.1518847,-0.5670909,-0.10547145,-0.38085273,-0.72265786,-9.364981,-0.28732634,-0.33142552,1.7636286,-3.9088588,-1.4238939,0
0.3100000000000001,16.43312888963027,0.09852768440013768,-2.3504341737138867,0.05814892078447727,16.738132,-1.2460107,2.8985572,1.1302559,13.665366,-11.058905,1.1486448,-0.57831573,-0.121098034,-0.37665802,-0.7134525,-9.267412,-0.2186028,-0.3165715,1.5043571,-3.665511,-1.3511697,0
0.3200000000000001,16.144618345903833,-2.0637030547699964,0.06092797362227575,1.895623976593458,15.490575,-1.7026523,3.2031302,1.119937,13.573196,-11.06077,1.145553,-0.58875555,-0.135317,-0.37205037,-0.7047228,-9.166126,-0.15530606,-0.30181617,1.2854557,-3.460174,-1.282014,0
0.3300000000000001,16.144618345903833,-2.0637030547699964,0.06092797362227575,1.895623976593458,15.490575,-1.7026523,3.2031302,1.119937,13.482053,-11.06203,1.142607,-0.59816474,-0.14725289,-0.36695793,-0.6970344,-9.062268,-0.097476244,-0.28762203,0.7428772,-2.9315474,-1.1280222,0
0.34000000000000014,16.144618345903833,-2.0637030547699964,0.06092797362227575,1.895623976593458,15.490575,-1.7026523,3.2031302,1.119937,13.391953,-11.062737,1.1397965,-0.60633504,-0.15623482,-0.36144093,-0.6908752,-8.957461,-0.04485248,-0.27448574,0.30383244,-2.466461,-0.97983205,0
0.35000000000000014,16.144618345903833,-2.0637030547699964,0.06092797362227575,1.895623976593458,15.490575,-1.7026523,3.2031302,1.119937,13.302908,-11.06294,1.1371186,-0.61343265,-0.1627469,-0.35565728,-0.68609136,-8.851463,0.0038360944,-0.26097152,-0.06493914,-2.072085,-0.83873254,0
0.36000000000000015,17.724148259160035,-4.00390809665955,3.049162491214394,2.2201579827399742,16.20143,-1.6425138,3.5682187,1.5494562,13.214926,-11.062672,1.1345795,-0.6196106,-0.16719808,-0.3496645,-0.6825408,-8.744809,0.049246974,-0.24670321,-0.3763096,-1.7393042,-0.7045569,0
0.37000000000000016,17.724148259160035,-4.00390809665955,3.049162491214394,2.2201579827399742,16.20143,-1.6425138,3.5682187,1.5494562,13.128063,-11.061942,1.1322433,-0.62467796,-0.16864747,-0.3437091,-0.6805874,-8.627649,0.09616116,-0.22035903,-0.94159204,-0.99237126,-0.5610403,0
0.38000000000000017,17.724148259160035,-4.00390809665955,3.049162491214394,2.2201579827399742,16.20143,-1.6425138,3.5682187,1.5494562,13.042369,-11.060754,1.1301774,-0.628489,-0.166365,-0.33799076,-0.6805044,-8.511299,0.14123684,-0.19258259,-1.4188927,-0.36204588,-0.4245661,0
0.3900000000000002,17.724148259160035,-4.00390809665955,3.049162491214394,2.2201579827399742,16.20143,-1.6425138,3.5682187,1.5494562,12.95783,-11.059119,1.1283977,-0.6311939,-0.16094467,-0.3324686,-0.682023,-8.39661,0.18559556,-0.16303916,-1.8218892,0.16988927,-0.2947887,0
0.4000000000000002,18.700153811759524,-4.859651900129741,4.5590645705371875,2.2817545807027533,17.253948,-1.611966,3.9629347,1.700053,12.874429,-11.057041,1.1269234,-0.63289666,-0.15288213,-0.3270952,-0.68489206,-8.28431,0.23018344,-0.13146897,-2.1621354,0.6188032,-0.17137954,0
0.4100000000000002,18.700153811759524,-4.859651900129741,4.5590645705371875,2.2817545807027533,17.253948,-1.611966,3.9629347,1.700053,12.792165,-11.0545,1.125812,-0.63351667,-0.14196281,-0.32196775,-0.689086,-8.16905,0.27834985,-0.0904187,-2.582837,1.2331306,-0.05100356,0
0.4200000000000002,18.700153811759524,-4.859651900129741,4.5590645705371875,2.2817545807027533,17.253948,-1.611966,3.9629347,1.700053,12.711034,-11.051467,1.1251235,-0.6329665,-0.12803064,-0.31714723,-0.6945349,-8.057817,0.32864618,-0.046869703,-2.9380164,1.751602,0.06346556,0
0.4300000000000002,18.700153811759524,-4.859651900129741,4.5590645705371875,2.2817545807027533,17.253948,-1.611966,3.9629347,1.700053,12.630992,-11.047916,1.1248834,-0.63129634,-0.11154814,-0.31253716,-0.70095795,-7.9514117,0.38198578,-0.0007521976,-3.237866,2.1891832,0.17231764,0
0.4400000000000002,18.700153811759524,-4.859651900129741,4.5590645705371875,2.2817545807027533,18.397993,-1.246482,4.363401,1.7036288,12.551988,-11.043814,1.1251172,-0.6285378,-0.09290792,-0.30805236,-0.7081043,-7.850578,0.43909547,0.047899228,-3.490995,2.558502,0.2758283,0
0.45000000000000023,18.700153811759524,-4.859651900129741,4.5590645705371875,2.2817545807027533,18.397993,-1.246482,4.363401,1.7036288,12.47396,-11.03912,1.1258496,-0.62471175,-0.07244542,-0.3036194,-0.71575254,-7.7560143,0.5005352,0.0989536,-3.7046752,2.8702133,0.37425968,0
0.46000000000000024,18.700153811759524,-4.859651900129741,4.5590645705371875,2.2817545807027533,18.397993,-1.246482,4.363401,1.7036288,12.396844,-11.033788,1.1271037,-0.61983365,-0.050449003,-0.29917657,-0.72370857,-7.66838,0.5667152,0.1521933,-3.8850472,3.1333084,0.467861,0
0.47000000000000025,18.700153811759524,-4.859651900129741,4.5590645705371875,2.2817545807027533,18.397993,-1.246482,4.363401,1.7036288,12.320566,-11.027769,1.1288999,-0.61391646,-0.027167937,-0.29467288,-0.73180324,-7.588293,0.63791096,0.20732446,-4.037298,3.3553743,0.5568693,0
0.48000000000000026,19.384344839453455,-4.800587013541034,4.897838170349231,2.1651737186931714,19.183159,-1.0890745,4.618335,1.9924817,12.245049,-11.021011,1.1312554,-0.6069728,-0.0028189044,-0.29006717,-0.7398896,-7.516332,0.714277,0.26398754,-4.165807,3.542813,0.64150995,0
0.49000000000000027,19.384344839453455,-4.800587013541034,4.897838170349231,2.1651737186931714,19.183159,-1.0890745,4.618335,1.9924817,12.170222,-11.013451,1.1342119,-0.59898704,0.02249938,-0.28542587,-0.7478235,-7.4507165,0.7988543,0.32746565,-4.2650704,3.7538795,0.7162765,0
0.5000000000000002,19.384344839453455,-4.800587013541034,4.897838170349231,2.1651737186931714,19.183159,-1.0890745,4.618335,1.9924817,12.096003,-11.005016,1.1378069,-0.5899509,0.048694216,-0.2807993,-0.7554721,-7.394595,0.8888631,0.39158282,-4.348849,3.9320388,0.7873744,0
0.5100000000000002,19.384344839453455,-4.800587013541034,4.897838170349231,2.1651737186931714,19.183159,-1.0890745,4.618335,1.9924817,12.022296,-10.995655,1.1420438,-0.5798885,0.07559517,-0.2761367,-0.76273376,-7.3484397,0.98423284,0.4557765,-4.4195538,4.082424,0.8549834,0
0.5200000000000002,19.121128327130133,-3.9474601791101755,4.2278527615689825,1.9422610622309866,18.96781,-1.3661937,4.059691,2.2419765,11.948999,-10.985314,1.1469207,-0.56882435,0.10305119,-0.27139753,-0.76952076,-7.3126683,1.0847943,0.519455,-4.4792223,4.2093673,0.91927475,0
0.5300000000000002,19.121128327130133,-3.9474601791101755,4.2278527615689825,1.9422610622309866,18.96781,-1.3661937,4.059691,2.2419765,11.876005,-10.973949,1.1524181,-0.55692035,0.13053665,-0.26666152,-0.77568746,-7.287948,1.188845,0.5798272,-4.396434,4.2121553,0.969473,0
0.5400000000000003,19.121128327130133,-3.9474601791101755,4.2278527615689825,1.9422610622309866,18.96781,-1.3661937,4.059691,2.2419765,11.803205,-10.961521,1.1585115,-0.5443432,0.1576306,-0.26200637,-0.7811499,-7.2738614,1.2973511,0.6385047,-4.3265495,4.214513,1.017208,0
0.5500000000000003,19.121128327130133,-3.9474601791101755,4.2278527615689825,1.9422610622309866,18.96781,-1.3661937,4.059691,2.2419765,11.730491,-10.9479885,1.1651807,-0.5311211,0.18434912,-0.257399,-0.78592044,-7.2703795,1.4098663,0.69493496,-4.2675567,4.216506,1.0626006,0
0.5600000000000003,17.995871025468965,-2.5607413451806087,2.907669853097478,1.6474078475793714,18.667572,-1.8608679,3.3041043,2.2693508,11.65776,-10.933312,1.1724007,-0.51727957,0.21070261,-0.25281155,-0.79000753,-7.277456,1.5259296,0.74859387,-4.217758,4.218191,1.1057658,1
0.5700000000000003,17.995871025468965,-2.5607413451806087,2.907669853097478,1.6474078475793714,18.667572,-1.8608679,3.3041043,2.2693508,11.584908,-10.917473,1.1801237,-0.5030942,0.2359699,-0.24870518,-0.7933218,-7.294532,1.6422443,0.7954692,-3.850252,4.0757604,1.1628634,1
0.5800000000000003,17.995871025468965,-2.5607413451806087,2.907669853097478,1.6474078475793714,18.667572,-1.8608679,3.3041043,2.2693508,11.511836,-10.900458,1.1882976,-0.48883492,0.2596037,-0.24547093,-0.7958578,-7.321194,1.7611334,0.83876973,-3.540058,3.95553,1.217159,1
0.5900000000000003,17.995871025468965,-2.5607413451806087,2.907669853097478,1.6474078475793714,18.667572,-1.8608679,3.3041043,2.2693508,11.438452,-10.882243,1.1968856,-0.47450674,0.2818418,-0.24298768,-0.7977247,-7.356784,1.8822201,0.8781899,-3.2782385,3.854037,1.2687902,1
0.6000000000000003,16.901364571021375,-1.020668320758318,1.2841636320692842,1.2755834494427911,18.901531,-1.7198642,1.9580835,2.4104383,11.364671,-10.862808,1.2058473,-0.46010637,0.30288258,-0.24114856,-0.79900616,-7.4007287,2.0051687,0.9134823,-3.0572505,3.7683594,1.317888,0
0.6100000000000003,16.901364571021375,-1.020668320758318,1.2841636320692842,1.2755834494427911,18.901531,-1.7198642,1.9580835,2.4104383,11.290435,-10.842194,1.2150791,-0.4460288,0.3221257,-0.23972668,-0.7998898,-7.447584,2.1178706,0.9322735,-2.7393098,3.381227,1.3158121,0
0.6200000000000003,16.901364571021375,-1.020668320758318,1.2841636320692842,1.2755834494427911,18.901531,-1.7198642,1.9580835,2.4104383,11.215697,-10.820447,1.2244799,-0.43262458,0.33912712,-0.2385516,-0.80057544,-7.5008154,2.2315686,0.9473145,-2.4710047,3.054424,1.3138381,0
0.6300000000000003,16.901364571021375,-1.020668320758318,1.2841636320692842,1.2755834494427911,18.901531,-1.7198642,1.9580835,2.4104383,11.140399,-10.797561,1.2340132,-0.41981795,0.35424715,-0.23760739,-0.80112654,-7.5597434,2.3459134,0.9588279,-2.2445862,2.7785492,1.3119609,0
0.6400000000000003,16.901364571021375,-1.020668320758318,1.2841636320692842,1.2755834494427911,18.614136,-1.5642196,0.14226577,2.7089198,11.064485,-10.773528,1.2436451,-0.4075359,0.36778662,-0.23687458,-0.8015841,-7.6237965,2.4606326,0.96702754,-2.053515,2.5456662,1.3101759,0
0.6500000000000004,16.901364571021375,-1.020668320758318,1.2841636320692842,1.2755834494427911,18.614136,-1.5642196,0.14226577,2.7089198,10.987906,-10.748347,1.2533431,-0.39571044,0.37999657,-0.23633227,-0.8019738,-7.692492,2.5755117,0.972112,-1.8922728,2.349075,1.3084785,0
0.6600000000000004,16.901364571021375,-1.020668320758318,1.2841636320692842,1.2755834494427911,18.614136,-1.5642196,0.14226577,2.7089198,10.91062,-10.722018,1.2630771,-0.38427952,0.39108658,-0.2359593,-0.80231094,-7.765424,2.6903799,0.9742615,-1.7562029,2.1831205,1.3068643,0
0.6700000000000004,16.901364571021375,-1.020668320758318,1.2841636320692842,1.2755834494427911,18.614136,-1.5642196,0.14226577,2.7089198,10.832585,-10.69454,1.2728188,-0.37318748,0.40123168,-0.23573522,-0.8026034,-7.8422484,2.8050983,0.9736375,-1.6413755,2.0430279,1.3053293,0
0.6800000000000004,15.995994081713098,0.40210339967402997,-0.36351224243294383,0.8917979400006864,17.975634,0.22081076,-1.566804,3.6612449,10.753763,-10.665916,1.2825409,-0.36238492,0.41057792,-0.23564069,-0.8028546,-7.922676,2.9195533,0.97038287,-1.5444745,1.9247673,1.3038696,0
0.6900000000000004,15.995994081713098,0.40210339967402997,-0.36351224243294383,0.8917979400006864,17.975634,0.22081076,-1.566804,3.6612449,10.674143,-10.636181,1.2921933,-0.3522598,0.41852778,-0.23586088,-0.8031913,-8.001922,3.027545,0.95971256,-1.2405831,1.5681857,1.2836491,0
0.7000000000000004,15.995994081713098,0.40210339967402997,-0.36351224243294383,0.8917979400006864,17.975634,0.22081076,-1.566804,3.6612449,10.593717,-10.605368,1.3017285,-0.34313506,0.42463097,-0.23655042,-0.80373496,-8.083772,3.1351895,0.94705147,-0.98413914,1.2671652,1.2644207,0
0.7100000000000004,15.995994081713098,0.40210339967402997,-0.36351224243294383,0.8917979400006864,17.975634,0.22081076,-1.566804,3.6612449,10.512462,-10.573479,1.3111286,-0.33487755,0.42919356,-0.23764765,-0.8044704,-8.167692,3.242514,0.9327705,-0.76773405,1.0130494,1.2461361,0
0.7200000000000004,15.48773197839179,1.7093911193573004,-1.901893654898761,0.5107422400815,16.879778,2.5295756,-3.883677,3.2262185,10.430358,-10.540518,1.3203794,-0.32736975,0.4324691,-0.23909654,-0.8053766,-8.253241,3.3495615,0.91718876,-0.5851154,0.79853016,1.2287486,0
0.7300000000000004,15.48773197839179,1.7093911193573004,-1.901893654898761,0.5107422400815,16.879778,2.5295756,-3.883677,3.2262185,10.347405,-10.506505,1.329456,-0.32092166,0.43401417,-0.24104892,-0.8065578,-8.337245,3.4530003,0.89802146,-0.22694242,0.37769252,1.1935159,0
0.7400000000000004,15.48773197839179,1.7093911193573004,-1.901893654898761,0.5107422400815,16.879778,2.5295756,-3.883677,3.2262185,10.26361,-10.471458,1.338338,-0.31578007,0.433492,-0.24362357,-0.8080929,-8.421837,3.5563614,0.87832767,0.0753048,0.022425711,1.160012,0
0.7500000000000004,15.48773197839179,1.7093911193573004,-1.901893654898761,0.5107422400815,16.879778,2.5295756,-3.883677,3.2262185,10.178968,-10.435378,1.3470223,-0.31176013,0.4312348,-0.24672592,-0.80991817,-8.5064335,3.6597936,0.8585359,0.3303608,-0.27748483,1.1281521,0
0.7600000000000005,15.695859705305192,2.656652060473364,-3.0993141424961603,0.15037741568929774,12.905893,1.48337,-3.403885,0.020763222,10.093483,-10.398261,1.3555096,-0.30870065,0.42751676,-0.25027186,-0.81197053,-8.59054,3.7634327,0.83899873,0.54559565,-0.5306632,1.0978556,0
0.7700000000000005,15.695859705305192,2.656652060473364,-3.0993141424961603,0.15037741568929774,12.905893,1.48337,-3.403885,0.020763222,10.007155,-10.360101,1.3638096,-0.30677962,0.42206946,-0.25432888,-0.81428456,-8.674813,3.868804,0.82108986,0.8750723,-0.93103343,1.0513626,0
0.7800000000000005,15.695859705305192,2.656652060473364,-3.0993141424961603,0.15037741568929774,12.905893,1.48337,-3.403885,0.020763222,9.919992,-10.320884,1.3719349,-0.30612993,0.41468605,-0.25894126,-0.81686485,-8.757526,3.9746733,0.8041433,1.1531038,-1.269018,1.0071511,0
0.7900000000000005,15.695859705305192,2.656652060473364,-3.0993141424961603,0.15037741568929774,12.905893,1.48337,-3.403885,0.020763222,9.832013,-10.280604,1.3798971,-0.30655885,0.40565592,-0.26400697,-0.81961215,-8.838086,4.0811834,0.78851104,1.3877262,-1.5543355,0.965109,0
0.8000000000000005,16.296926061812435,3.135041786755256,-3.673868519524663,-0.11350464472723315,14.372377,1.5196596,-3.2240953,-0.30282477,9.74324,-10.239256,1.3877107,-0.30789965,0.39522,-0.26943666,-0.82243645,-8.915973,4.1884418,0.7744609,1.5857192,-1.7951908,0.92512983,0
0.8100000000000005,16.296926061812435,3.135041786755256,-3.673868519524663,-0.11350464472723315,14.372377,1.5196596,-3.2240953,-0.30282477,9.653689,-10.196812,1.3954089,-0.31017196,0.3833396,-0.2752259,-0.82528394,-8.993567,4.300662,0.76548517,1.8274426,-2.0880842,0.87416375,0
0.8200000000000005,16.296926061812435,3.135041786755256,-3.673868519524663,-0.11350464472723315,14.372377,1.5196596,-3.2240953,-0.30282477,9.563381,-10.15324,1.4030274,-0.31338087,0.36999002,-0.28136125,-0.8280908,-9.067336,4.4138026,0.7585693,2.0314293,-2.3353338,0.8256986,0
0.8300000000000005,16.296926061812435,3.135041786755256,-3.673868519524663,-0.11350464472723315,14.372377,1.5196596,-3.2240953,-0.30282477,9.472357,-10.108533,1.4105878,-0.31737238,0.35537654,-0.28775746,-0.8307687,-9.136749,4.527892,0.7538625,2.2035732,-2.5440512,0.77961165,0
0.8400000000000005,16.296926061812435,3.135041786755256,-3.673868519524663,-0.11350464472723315,15.294195,1.9553941,-3.7164018,-1.288651,9.380663,-10.06268,1.4181125,-0.3220137,0.33967316,-0.29434103,-0.8332415,-9.201329,4.642918,0.75144374,2.3488472,-2.7202387,0.73578614,0
0.8500000000000005,16.296926061812435,3.135041786755256,-3.673868519524663,-0.11350464472723315,15.294195,1.9553941,-3.7164018,-1.288651,9.288349,-10.015672,1.4256246,-0.32719046,0.32302827,-0.30104882,-0.8354445,-9.260653,4.758828,0.7513318,2.4714475,-2.8689651,0.6941112,0
0.8600000000000005,16.296926061812435,3.135041786755256,-3.673868519524663,-0.11350464472723315,15.294195,1.9553941,-3.7164018,-1.288651,9.195469,-9.967501,1.433147,-0.33280405,0.30556917,-0.30782676,-0.83732337,-9.31434,4.8755374,0.7534937,2.574914,-2.994509,0.65448135,0
0.8700000000000006,16.296926061812435,3.135041786755256,-3.673868519524663,-0.11350464472723315,15.294195,1.9553941,-3.7164018,-1.288651,9.102082,-9.9181595,1.440702,-0.3387695,0.2874055,-0.31462872,-0.83883303,-9.362054,4.992931,0.75785255,2.6622348,-3.100483,0.6167961,0
0.8800000000000006,16.823827669287933,3.1599145992539217,-3.7277888077183987,-0.35890444184724646,17.230318,2.3619545,-4.380838,-2.3370697,9.008249,-9.867641,1.4483111,-0.34501338,0.2686322,-0.3214154,-0.83993655,-9.403497,5.1108675,0.76429355,2.7359302,-3.1899366,0.58096004,0
0.8900000000000006,16.823827669287933,3.1599145992539217,-3.7277888077183987,-0.35890444184724646,17.230318,2.3619545,-4.380838,-2.3370697,8.914029,-9.815922,1.4560115,-0.35150725,0.24932005,-0.32814607,-0.8405957,-9.439536,5.23301,0.77611405,2.8019838,-3.2738736,0.53484064,0
0.9000000000000006,16.823827669287933,3.1599145992539217,-3.7277888077183987,-0.35890444184724646,17.230318,2.3619545,-4.380838,-2.3370697,8.819482,-9.76298,1.4638395,-0.358227,0.22953299,-0.33478576,-0.8407766,-9.468588,5.355356,0.78976077,2.8577323,-3.3447235,0.49098432,0
0.9100000000000006,16.823827669287933,3.1599145992539217,-3.7277888077183987,-0.35890444184724646,17.230318,2.3619545,-4.380838,-2.3370697,8.724682,-9.708816,1.4718122,-0.3651192,0.2093394,-0.3413113,-0.8404584,-9.49044,5.4776998,0.80503756,2.9047844,-3.4045262,0.44928005,0
0.9200000000000006,16.984548180426696,2.7144196503461524,-3.292885173602543,-0.5334853868047393,17.689629,3.5047581,-4.567911,-3.6183028,8.6297,-9.653426,1.4799451,-0.37213695,0.18879928,-0.34770322,-0.839625,-9.50492,5.59982,0.82172763,2.944497,-3.4550033,0.4096222,0
0.9300000000000006,16.984548180426696,2.7144196503461524,-3.292885173602543,-0.5334853868047393,17.689629,3.5047581,-4.567911,-3.6183028,8.534609,-9.596814,1.4882565,-0.37916535,0.16818653,-0.35385787,-0.83829004,-9.511969,5.7226458,0.8407043,2.9085066,-3.4298184,0.3633436,0
0.9400000000000006,16.984548180426696,2.7144196503461524,-3.292885173602543,-0.5334853868047393,17.689629,3.5047581,-4.567911,-3.6183028,8.439486,-9.538976,1.4967624,-0.38612103,0.14772783,-0.35969958,-0.83648187,-9.51146,5.8447747,0.86061835,2.8781362,-3.4085534,0.31933597,0
0.9500000000000006,16.984548180426696,2.7144196503461524,-3.292885173602543,-0.5334853868047393,17.689629,3.5047581,-4.567911,-3.6183028,8.344405,-9.47992,1.5054711,-0.3930072,0.12740812,-0.36525056,-0.83420813,-9.503457,5.9659734,0.8812187,2.8525083,-3.3905983,0.27748775,0
0.9600000000000006,16.680230574219646,1.917509388290916,-2.533622460747148,-0.6304484402282096,18.150131,4.71387,-4.764114,-4.5738807,8.249441,-9.41966,1.5143882,-0.39982462,0.10721531,-0.37052962,-0.83147556,-9.488025,6.086016,0.90225995,2.8308833,-3.3754375,0.23769306,0
0.9700000000000006,16.680230574219646,1.917509388290916,-2.533622460747148,-0.6304484402282096,18.150131,4.71387,-4.764114,-4.5738807,8.154667,-9.358216,1.5235063,-0.40643966,0.08752553,-0.3754111,-0.8283787,-9.465677,6.202559,0.921366,2.6883328,-3.2442536,0.1950931,0
0.9800000000000006,16.680230574219646,1.917509388290916,-2.533622460747148,-0.6304484402282096,18.150131,4.71387,-4.764114,-4.5738807,8.060151,-9.295613,1.5328156,-0.41276154,0.068640865,-0.37980914,-0.82502127,-9.436427,6.3175735,0.94046384,2.568026,-3.1335146,0.15458353,0
0.9900000000000007,16.680230574219646,1.917509388290916,-2.533622460747148,-0.6304484402282096,18.150131,4.71387,-4.764114,-4.5738807,7.965961,-9.231871,1.5423149,-0.41884488,0.050451454,-0.3837909,-0.8214176,-9.4005995,6.4309077,0.9593732,2.4664924,-3.0400343,0.1160618,0
1.0000000000000007,16.593222070428908,1.0256047712221494,-1.6471084029002292,-0.6597517669952935,17.860922,4.0003915,-4.273047,-3.9200602,7.872161,-9.167004,1.5520018,-0.42473298,0.032863438,-0.38741222,-0.81757724,-9.3584795,6.542425,0.97793305,2.380802,-2.961123,0.07943033,0
1.0100000000000007,16.593222070428908,1.0256047712221494,-1.6471084029002292,-0.6597517669952935,17.860922,4.0003915,-4.273047,-3.9200602,7.778811,-9.101032,1.5618689,-0.43031788,0.016240213,-0.3905817,-0.8136385,-9.310611,6.6514378,0.9953979,2.1693835,-2.7562656,0.043158453,0
1.0200000000000007,16.593222070428908,1.0256047712221494,-1.6471084029002292,-0.6597517669952935,17.860922,4.0003915,-4.273047,-3.9200602,7.6859674,-9.033981,1.5719079,-0.43552968,0.00086599914,-0.39324173,-0.8097363,-9.257229,6.7584777,1.0122923,1.9909489,-2.5833433,0.008666436,0
1.0300000000000007,16.593222070428908,1.0256047712221494,-1.6471084029002292,-0.6597517669952935,17.860922,4.0003915,-4.273047,-3.9200602,7.5936837,-8.965869,1.5821128,-0.44044772,-0.0134409275,-0.3954784,-0.80586654,-9.198794,6.863528,1.0285658,1.8403507,-2.4373782,-0.024133034,0
1.0400000000000007,16.593222070428908,1.0256047712221494,-1.6471084029002292,-0.6597517669952935,16.56361,1.7763355,-4.023308,-1.8630764,7.5020075,-8.896717,1.5924771,-0.4451352,-0.026835404,-0.39736205,-0.8020205,-9.135702,6.9665785,1.0441824,1.7132461,-2.3141692,-0.05532305,0
1.0500000000000007,16.593222070428908,1.0256047712221494,-1.6471084029002292,-0.6597517669952935,16.56361,1.7763355,-4.023308,-1.8630764,7.4109845,-8.826545,1.6029941,-0.44964245,-0.03944917,-0.39895046,-0.7981873,-9.068286,7.067625,1.0591154,1.6059697,-2.2101686,-0.08498254,0
1.0600000000000007,16.593222070428908,1.0256047712221494,-1.6471084029002292,-0.6597517669952935,16.56361,1.7763355,-4.023308,-1.8630764,7.320656,-8.755372,1.6136569,-0.4540095,-0.0513942,-0.400291,-0.7943552,-8.996832,7.1666627,1.0733441,1.5154275,-2.1223824,-0.11318662,0
1.0700000000000007,16.593222070428908,1.0256047712221494,-1.6471084029002292,-0.6597517669952935,16.56361,1.7763355,-4.023308,-1.8630764,7.231061,-8.683218,1.6244584,-0.458268,-0.06276561,-0.4014227,-0.7905124,-8.921584,7.2636876,1.0868509,1.4390095,-2.0482833,-0.14000672,0
1.0800000000000007,16.041134587854895,0.1879226733843052,-1.0229125042614071,-0.5828323943308039,16.840788,0.8892411,-3.7379165,-0.74677926,7.1422367,-8.610105,1.6353914,-0.46244287,-0.07364417,-0.40237772,-0.7866476,-8.842756,7.358695,1.09962,1.3745121,-1.9857376,-0.16551077,0
1.0900000000000007,16.041134587854895,0.1879226733843052,-1.0229125042614071,-0.5828323943308039,16.840788,0.8892411,-3.7379165,-0.74677926,7.054204,-8.536067,1.6464299,-0.46647295,-0.08375079,-0.40303558,-0.7829114,-8.763292,7.4485917,1.1079848,1.1894555,-1.8355814,-0.18598887,0
1.1000000000000008,16.041134587854895,0.1879226733843052,-1.0229125042614071,-0.5828323943308039,16.840788,0.8892411,-3.7379165,-0.74677926,6.966981,-8.46114,1.6575488,-0.47031745,-0.09286928,-0.40330857,-0.77943456,-8.680894,7.536588,1.115705,1.0332606,-1.7088405,-0.2054621,0
1.1100000000000008,16.041134587854895,0.1879226733843052,-1.0229125042614071,-0.5828323943308039,16.840788,0.8892411,-3.7379165,-0.74677926,6.880595,-8.385342,1.6687421,-0.4740198,-0.10114783,-0.40326363,-0.7761778,-8.595882,7.622746,1.12287,0.9014255,-1.6018636,-0.22397977,0
1.1200000000000008,15.401024192378785,-0.5950042947092659,-0.38023668362357405,-0.4281357712877699,18.142658,0.76806086,-4.034856,-0.011052381,6.7950716,-8.308692,1.6800045,-0.4776142,-0.10871191,-0.40295556,-0.77310574,-8.508528,7.707123,1.1295599,0.79015076,-1.5115695,-0.24158877,0
1.1300000000000008,15.401024192378785,-0.5950042947092659,-0.38023668362357405,-0.4281357712877699,18.142658,0.76806086,-4.034856,-0.011052381,6.7104144,-8.231223,1.691311,-0.48104495,-0.11532709,-0.40230936,-0.7703518,-8.422652,7.78648,1.1316918,0.57415617,-1.3351084,-0.2507427,0
1.1400000000000008,15.401024192378785,-0.5950042947092659,-0.38023668362357405,-0.4281357712877699,18.142658,0.76806086,-4.034856,-0.011052381,6.626624,-8.152968,1.7026374,-0.48427147,-0.12081481,-0.40127108,-0.7680272,-8.335104,7.864294,1.1335866,0.3918438,-1.1861691,-0.25944743,0
1.1500000000000008,15.401024192378785,-0.5950042947092659,-0.38023668362357405,-0.4281357712877699,18.142658,0.76806086,-4.034856,-0.011052381,6.543717,-8.073943,1.7139823,-0.4873369,-0.1253483,-0.399909,-0.7660696,-8.246207,7.9406834,1.1353912,0.23796062,-1.0604597,-0.26772502,0
1.1600000000000008,14.769866075805997,-1.2741095966588782,0.13595095546510827,-0.22572089933312675,16.710382,0.9681166,-3.8842275,1.116417,6.461704,-7.99416,1.7253455,-0.49027526,-0.1290738,-0.39827874,-0.7644236,-8.156234,8.015751,1.1372333,0.108073816,-0.9543572,-0.27559644,0
1.1700000000000008,14.769866075805997,-1.2741095966588782,0.13595095546510827,-0.22572089933312675,16.710382,0.9681166,-3.8842275,1.116417,6.3805766,-7.913648,1.7367071,-0.49304762,-0.13183351,-0.39631683,-0.7631882,-8.06915,8.086571,1.1351316,-0.1074453,-0.7842858,-0.27314904,0
1.1800000000000008,14.769866075805997,-1.2741095966588782,0.13595095546510827,-0.22572089933312675,16.710382,0.9681166,-3.8842275,1.116417,6.3003225,-7.8324327,1.748049,-0.49562255,-0.13350981,-0.39397523,-0.7624409,-7.9815693,8.156346,1.1333426,-0.28935945,-0.6407436,-0.27082172,0
1.1900000000000008,14.769866075805997,-1.2741095966588782,0.13595095546510827,-0.22572089933312675,16.710382,0.9681166,-3.8842275,1.116417,6.2209454,-7.750524,1.7593753,-0.49803317,-0.13427058,-0.39131558,-0.76210606,-7.8937836,8.225207,1.132024,-0.44290856,-0.5195921,-0.2686086,0
1.2000000000000008,13.320726229497428,-1.5905734512947542,0.1911515782620451,-0.014079002106605924,16.345371,0.57630086,-4.3648567,1.4233489,6.1424456,-7.667931,1.7706914,-0.5003055,-0.13425733,-0.38838837,-0.76211745,-7.8060355,8.293261,1.1313084,-0.57251555,-0.4173388,-0.2665041,0
1.2100000000000009,13.320726229497428,-1.5905734512947542,0.1911515782620451,-0.014079002106605924,16.345371,0.57630086,-4.3648567,1.4233489,6.06478,-7.5846944,1.7819558,-0.50244844,-0.13351926,-0.38514602,-0.76248264,-7.7271233,8.353993,1.1216866,-0.73126173,-0.32242334,-0.25411755,0
1.2200000000000009,13.320726229497428,-1.5905734512947542,0.1911515782620451,-0.014079002106605924,16.345371,0.57630086,-4.3648567,1.4233489,5.9879017,-7.500853,1.7931277,-0.5044657,-0.13210236,-0.38155138,-0.76320434,-7.6486335,8.414152,1.11283,-0.8652557,-0.24231611,-0.24233879,0
1.2300000000000009,13.320726229497428,-1.5905734512947542,0.1911515782620451,-0.014079002106605924,16.345371,0.57630086,-4.3648567,1.4233489,5.9118056,-7.416413,1.8042153,-0.50636905,-0.13011241,-0.37765634,-0.7642224,-7.570745,8.473792,1.1048441,-0.97835654,-0.17470632,-0.23113802,0
1.2400000000000009,13.320726229497428,-1.5905734512947542,0.1911515782620451,-0.014079002106605924,15.723431,0.32024175,-4.6937175,1.5549762,5.836485,-7.3313785,1.8152279,-0.5081677,-0.12763864,-0.37350422,-0.7654851,-7.4936123,8.532959,1.0978141,-1.073822,-0.117644146,-0.22048688,0
1.2500000000000009,13.320726229497428,-1.5905734512947542,0.1911515782620451,-0.014079002106605924,15.723431,0.32024175,-4.6937175,1.5549762,5.7619305,-7.2457547,1.8261752,-0.5098692,-0.124756366,-0.3691314,-0.76694864,-7.4173684,8.591693,1.091808,-1.1544015,-0.06948353,-0.2103584,0
1.260000000000001,13.320726229497428,-1.5905734512947542,0.1911515782620451,-0.014079002106605924,15.723431,0.32024175,-4.6937175,1.5549762,5.6881337,-7.1595454,1.8370678,-0.5114797,-0.12152917,-0.36456835,-0.7685754,-7.3421297,8.650022,1.0868784,-1.2224166,-0.028836,-0.20072691,0
1.270000000000001,13.320726229497428,-1.5905734512947542,0.1911515782620451,-0.014079002106605924,15.723431,0.32024175,-4.6937175,1.5549762,5.615084,-7.0727553,1.8479166,-0.5130043,-0.11801074,-0.35984078,-0.77033347,-7.267997,8.707972,1.0830659,-1.279826,0.0054708095,-0.19156806,0
1.280000000000001,11.49966039568442,-1.5230396133741713,-0.28885690787604895,0.19682560378815558,15.3849125,0.41349602,-4.478945,2.094859,5.54277,-6.9853873,1.8587329,-0.51444745,-0.11424643,-0.35497043,-0.77219594,-7.195059,8.765558,1.0803998,-1.3282835,0.034426067,-0.18285862,0
1.290000000000001,11.49966039568442,-1.5230396133741713,-0.28885690787604895,0.19682560378815558,15.3849125,0.41349602,-4.478945,2.094859,5.4711294,-6.897485,1.8694627,-0.51585764,-0.11044618,-0.3498947,-0.77412224,-7.133185,8.814964,1.0656952,-1.3586615,-0.016002532,-0.1642274,0
1.300000000000001,11.49966039568442,-1.5230396133741713,-0.28885690787604895,0.19682560378815558,15.3849125,0.41349602,-4.478945,2.094859,5.4001026,-6.8090897,1.8800504,-0.51727,-0.10678003,-0.34456477,-0.7760824,-7.072429,8.864015,1.052016,-1.3843004,-0.058567174,-0.14651042,0
1.310000000000001,11.49966039568442,-1.5230396133741713,-0.28885690787604895,0.19682560378815558,15.3849125,0.41349602,-4.478945,2.094859,5.329677,-6.720206,1.8905065,-0.51867026,-0.10322942,-0.3390161,-0.7780693,-7.0128026,8.91265,1.0393752,-1.4059389,-0.094494276,-0.12966281,0
1.320000000000001,9.864168798004638,-1.3933888956468177,-0.7282059734024035,0.4195928698224601,14.896117,0.33676684,-4.0952187,2.0520835,5.259842,-6.630838,1.9008415,-0.520047,-0.09977844,-0.33327886,-0.7800766,-6.954319,8.960821,1.0277803,-1.4242018,-0.124818444,-0.11364195,0
1.330000000000001,9.864168798004638,-1.3933888956468177,-0.7282059734024035,0.4195928698224601,14.896117,0.33676684,-4.0952187,2.0520835,5.1905456,-6.541025,1.9110036,-0.52142274,-0.09658694,-0.32732493,-0.7820784,-6.9051385,9.001699,1.0047821,-1.4194001,-0.21894099,-0.08747595,0
1.340000000000001,9.864168798004638,-1.3933888956468177,-0.7282059734024035,0.4195928698224601,14.896117,0.33676684,-4.0952187,2.0520835,5.1217365,-6.450806,1.9209402,-0.52281135,-0.0937823,-0.3211333,-0.7840571,-6.856921,9.042061,0.9826828,-1.4153434,-0.2983838,-0.06259392,0
1.350000000000001,9.864168798004638,-1.3933888956468177,-0.7282059734024035,0.4195928698224601,14.896117,0.33676684,-4.0952187,2.0520835,5.053404,-6.360186,1.9306602,-0.52419305,-0.09130795,-0.31473702,-0.78601784,-6.80964,9.081827,0.9614795,-1.4119169,-0.36543623,-0.038932867,0
1.360000000000001,8.885176153851068,-1.4175475244231863,-0.9762039589718527,0.6513174860434591,12.006478,-2.088792,-4.4243665,2.690834,4.98554,-6.269172,1.9401728,-0.5255518,-0.08911574,-0.3081642,-0.7879641,-6.763273,9.120933,0.9411664,-1.4090227,-0.4220306,-0.016432855,0
1.370000000000001,8.885176153851068,-1.4175475244231863,-0.9762039589718527,0.6513174860434591,12.006478,-2.088792,-4.4243665,2.690834,4.9181128,-6.177789,1.9494478,-0.5268833,-0.08724658,-0.30137616,-0.7899071,-6.722314,9.155507,0.91392905,-1.4103421,-0.5084839,0.016333848,0
1.380000000000001,8.885176153851068,-1.4175475244231863,-0.9762039589718527,0.6513174860434591,12.006478,-2.088792,-4.4243665,2.690834,4.851091,-6.086064,1.9584541,-0.52817947,-0.08573158,-0.29434296,-0.79185706,-6.682141,9.189361,0.8874847,-1.4114532,-0.58145314,0.047492683,0
1.390000000000001,8.885176153851068,-1.4175475244231863,-0.9762039589718527,0.6513174860434591,12.006478,-2.088792,-4.4243665,2.690834,4.7844667,-5.994004,1.9672,-0.52942383,-0.08451937,-0.28709826,-0.7938138,-6.6427355,9.222428,0.8618295,-1.4123894,-0.64304155,0.07712254,0
1.400000000000001,8.0506822852127,-1.3563949335050882,-0.8991225113893843,0.8511436647434895,13.016688,-0.03162016,-3.3373163,1.5169346,4.7182326,-5.901618,1.9756933,-0.53060323,-0.08356613,-0.27967066,-0.7957764,-6.604083,9.254651,0.8369565,-1.4131786,-0.69502413,0.10529847,0
1.410000000000001,8.0506822852127,-1.3563949335050882,-0.8991225113893843,0.8511436647434895,13.016688,-0.03162016,-3.3373163,1.5169346,4.6523643,-5.808929,1.9839071,-0.53167737,-0.082829766,-0.27211827,-0.7977525,-6.5697327,9.283035,0.80590546,-1.4043036,-0.72688603,0.1418973,0
1.420000000000001,8.0506822852127,-1.3563949335050882,-0.8991225113893843,0.8511436647434895,13.016688,-0.03162016,-3.3373163,1.5169346,4.5868354,-5.7159605,1.9918138,-0.5326121,-0.08227537,-0.26448858,-0.7997499,-6.536045,9.310577,0.77553886,-1.3968128,-0.7537772,0.17670023,0
1.430000000000001,8.0506822852127,-1.3563949335050882,-0.8991225113893843,0.8511436647434895,13.016688,-0.03162016,-3.3373163,1.5169346,4.521641,-5.6227207,1.9994202,-0.5334071,-0.08187789,-0.2567897,-0.80176735,-6.503013,9.33725,0.7458398,-1.3904903,-0.7764729,0.20979536,0
1.440000000000001,8.0506822852127,-1.3563949335050882,-0.8991225113893843,0.8511436647434895,11.666091,-0.18316616,-2.788208,1.4952596,4.4567733,-5.5292187,2.006733,-0.5340628,-0.081615776,-0.24902873,-0.80380315,-6.470631,9.36303,0.7167908,-1.3851541,-0.79562765,0.24126649,0
1.450000000000001,8.0506822852127,-1.3563949335050882,-0.8991225113893843,0.8511436647434895,11.666091,-0.18316616,-2.788208,1.4952596,4.392226,-5.435463,2.0137584,-0.53458023,-0.08147048,-0.24121165,-0.80585515,-6.4388957,9.387896,0.68837404,-1.3806508,-0.81179386,0.27119333,0
1.460000000000001,8.0506822852127,-1.3563949335050882,-0.8991225113893843,0.8511436647434895,11.666091,-0.18316616,-2.788208,1.4952596,4.327993,-5.341463,2.0205026,-0.53496104,-0.08142602,-0.2333437,-0.80792093,-6.4078035,9.411828,0.6605712,-1.3768504,-0.8254376,0.29965162,0
1.470000000000001,8.0506822852127,-1.3563949335050882,-0.8991225113893843,0.8511436647434895,11.666091,-0.18316616,-2.788208,1.4952596,4.264068,-5.247229,2.026972,-0.5352073,-0.08146856,-0.22542946,-0.809998,-6.377352,9.43481,0.63336366,-1.3736434,-0.8369524,0.3267135,0
1.480000000000001,7.510412331734477,-1.3103324170382131,-0.7511278889923468,1.001907035965493,11.582504,0.47596225,-3.4787748,1.1371069,4.2004437,-5.1527705,2.0331721,-0.53532135,-0.08158616,-0.2174729,-0.81208336,-6.3475404,9.456824,0.6067325,-1.3709371,-0.8466703,0.35244745,0
1.490000000000001,7.510412331734477,-1.3103324170382131,-0.7511278889923468,1.001907035965493,11.582504,0.47596225,-3.4787748,1.1371069,4.137105,-5.0581036,2.0390844,-0.5352766,-0.08173423,-0.20952268,-0.8141854,-6.320325,9.476447,0.5758243,-1.3614719,-0.8317967,0.38431662,0
1.500000000000001,7.510412331734477,-1.3103324170382131,-0.7511278889923468,1.001907035965493,11.582504,0.47596225,-3.4787748,1.1371069,4.0740356,-4.963245,2.0446904,-0.53505135,-0.08187698,-0.20161772,-0.81631225,-6.293707,9.495157,0.54541427,-1.3534836,-0.8192413,0.41462195,0
1.5100000000000011,7.510412331734477,-1.3103324170382131,-0.7511278889923468,1.001907035965493,11.582504,0.47596225,-3.4787748,1.1371069,4.0112286,-4.8682036,2.0499945,-0.534655,-0.08201657,-0.19374806,-0.8184609,-6.2676888,9.512958,0.51548105,-1.3467419,-0.8086425,0.4434402,0
1.5200000000000011,7.183666934205683,-1.3228666916539216,-0.32898527183327714,1.125906900261671,11.51369,1.3135229,-3.7676778,0.9006535,3.9486792,-4.772989,2.0550017,-0.534096,-0.08215461,-0.18590541,-0.82062805,-6.2422714,9.529849,0.48600423,-1.3410522,-0.7996955,0.4708443,0
1.5300000000000011,7.183666934205683,-1.3228666916539216,-0.32898527183327714,1.125906900261671,11.51369,1.3135229,-3.7676778,0.9006535,3.8863754,-4.6776137,2.0597014,-0.5333391,-0.08215363,-0.17816773,-0.8228339,-6.218538,9.545143,0.45395908,-1.3382233,-0.72631574,0.5029884,0
1.5400000000000011,7.183666934205683,-1.3228666916539216,-0.32898527183327714,1.125906900261671,11.51369,1.3135229,-3.7676778,0.9006535,3.8243062,-4.582089,2.0640824,-0.5323575,-0.081904545,-0.17059644,-0.8250958,-6.1953993,9.559604,0.42231125,-1.3358355,-0.66437817,0.5335552,0
1.5500000000000012,7.183666934205683,-1.3228666916539216,-0.32898527183327714,1.125906900261671,11.51369,1.3135229,-3.7676778,0.9006535,3.7624652,-4.486424,2.0681489,-0.53117007,-0.08144654,-0.16316295,-0.82740664,-6.172875,9.573269,0.3910418,-1.3338196,-0.6120984,0.5626221,0
1.5600000000000012,7.492479582354745,-1.4987867955523213,0.2053178036236087,1.2838559603162565,10.886161,1.6446393,-3.8188763,0.94875556,3.7008467,-4.3906264,2.0719044,-0.5297924,-0.08081261,-0.15584324,-0.8297598,-6.150979,9.586165,0.3601331,-1.3321172,-0.5679705,0.59026265,0
1.5700000000000012,7.492479582354745,-1.4987867955523213,0.2053178036236087,1.2838559603162565,10.886161,1.6446393,-3.8188763,0.94875556,3.6394482,-4.294701,2.0753672,-0.52819496,-0.079818636,-0.14867023,-0.8321871,-6.1288166,9.5988455,0.33247244,-1.3581456,-0.4474167,0.6242975,0
1.5800000000000012,7.492479582354745,-1.4987867955523213,0.2053178036236087,1.2838559603162565,10.886161,1.6446393,-3.8188763,0.94875556,3.5782678,-4.198652,2.0785549,-0.52635413,-0.0783198,-0.14166819,-0.8347135,-6.1073737,9.610808,0.30515888,-1.3801125,-0.3456611,0.65666217,0
1.5900000000000012,7.492479582354745,-1.4987867955523213,0.2053178036236087,1.2838559603162565,10.886161,1.6446393,-3.8188763,0.94875556,3.5172982,-4.1024866,2.0814712,-0.52429074,-0.076394685,-0.13480715,-0.83732265,-6.0866985,9.622111,0.27818123,-1.3986514,-0.25977215,0.6874387,0
1.6000000000000012,8.561097835596284,-1.8589574058584024,0.8438476669358079,1.5156546695986286,12.164556,1.2786502,-4.200359,1.4240502,3.456531,-4.0062113,2.0841196,-0.52202207,-0.07410955,-0.128062,-0.8399999,-6.066831,9.6328,0.25152814,-1.4142963,-0.18727565,0.7167051,0
1.6100000000000012,8.561097835596284,-1.8589574058584024,0.8438476669358079,1.5156546695986286,12.164556,1.2786502,-4.200359,1.4240502,3.3959723,-3.9098248,2.0865543,-0.5195168,-0.07123388,-0.121421434,-0.84278333,-6.045101,9.64436,0.23542404,-1.4837149,-0.026542619,0.75590974,0
1.6200000000000012,8.561097835596284,-1.8589574058584024,0.8438476669358079,1.5156546695986286,12.164556,1.2786502,-4.200359,1.4240502,3.3356254,-3.8133261,2.0888295,-0.51674736,-0.067587554,-0.1148739,-0.84569913,-6.024437,9.65534,0.21967413,-1.5423031,0.10912809,0.79319066,0
1.6300000000000012,8.561097835596284,-1.8589574058584024,0.8438476669358079,1.5156546695986286,12.164556,1.2786502,-4.200359,1.4240502,3.2754793,-3.7167199,2.0909488,-0.5137316,-0.06329002,-0.10840006,-0.8487182,-6.0049367,9.665814,0.20427318,-1.5917493,0.22364487,0.82864225,0
1.6400000000000012,8.561097835596284,-1.8589574058584024,0.8438476669358079,1.5156546695986286,13.950936,0.11064554,-4.503769,1.9353944,3.2155223,-3.620011,2.092916,-0.5104843,-0.05844219,-0.10198407,-0.85181487,-5.9866843,9.675839,0.18921193,-1.6334794,0.3203067,0.86235416,0
1.6500000000000012,8.561097835596284,-1.8589574058584024,0.8438476669358079,1.5156546695986286,13.950936,0.11064554,-4.503769,1.9353944,3.1557412,-3.5232043,2.0947344,-0.5070179,-0.0531293,-0.095613055,-0.8549663,-5.969752,9.685459,0.17447746,-1.6686966,0.40189794,0.8944118,0
1.6600000000000013,8.561097835596284,-1.8589574058584024,0.8438476669358079,1.5156546695986286,13.950936,0.11064554,-4.503769,1.9353944,3.0961225,-3.4263034,2.0964067,-0.5033431,-0.04742341,-0.08927664,-0.85815233,-5.954201,9.694709,0.16005342,-1.6984172,0.47076878,0.92489636,0
1.6700000000000013,8.561097835596284,-1.8589574058584024,0.8438476669358079,1.5156546695986286,13.950936,0.11064554,-4.503769,1.9353944,3.0366523,-3.3293116,2.0979362,-0.49946907,-0.041385464,-0.08296653,-0.8613556,-5.940084,9.703612,0.14592053,-1.7234982,0.5289025,0.953885,0
1.6800000000000013,9.788133833396927,-2.2095584086167226,1.2406946317144723,1.7261869354436898,13.922958,-0.67087567,-4.3476315,2.2651901,2.9773157,-3.2322323,2.099326,-0.49540386,-0.035067014,-0.076676175,-0.8645606,-5.9274464,9.712189,0.13205703,-1.7446638,0.5779735,0.9814513,0
1.6900000000000013,9.788133833396927,-2.2095584086167226,1.2406946317144723,1.7261869354436898,13.922958,-0.67087567,-4.3476315,2.2651901,2.9181063,-3.135063,2.1006389,-0.49112442,-0.028306875,-0.07035639,-0.86778134,-5.914741,9.721633,0.1305482,-1.8172458,0.6812348,1.0179956,0
1.7000000000000013,9.788133833396927,-2.2095584086167226,1.2406946317144723,1.7261869354436898,13.922958,-0.67087567,-4.3476315,2.2651901,2.8590147,-3.0378008,2.1019378,-0.48660746,-0.020979756,-0.063966796,-0.8710226,-5.903874,9.7307415,0.12929548,-1.8785019,0.76839924,1.0527467,0
1.7100000000000013,9.788133833396927,-2.2095584086167226,1.2406946317144723,1.7261869354436898,13.922958,-0.67087567,-4.3476315,2.2651901,2.8000221,-2.9404492,2.1032252,-0.4818596,-0.013174428,-0.057515062,-0.874259,-5.8949437,9.739534,0.12826952,-1.9301984,0.8419765,1.0857925,0
1.7200000000000013,11.063383225885918,-2.3548433717987636,1.6006532474304964,1.8103648215453627,13.393566,-0.61523676,-3.716963,2.1906023,2.741109,-2.8430114,2.1045036,-0.47688693,-0.0049660746,-0.05100841,-0.8774687,-5.8880324,9.748022,0.12743522,-1.973827,0.9040852,1.1172168,0
1.7300000000000013,11.063383225885918,-2.3548433717987636,1.6006532474304964,1.8103648215453627,13.393566,-0.61523676,-3.716963,2.1906023,2.682258,-2.7454848,2.1058378,-0.47167873,0.003735242,-0.044470824,-0.88063985,-5.88259,9.7572775,0.13944462,-2.0333474,1.0126262,1.1512297,0
1.7400000000000013,11.063383225885918,-2.3548433717987636,1.6006532474304964,1.8103648215453627,13.393566,-0.61523676,-3.716963,2.1906023,2.6234488,-2.6478672,2.107293,-0.4662248,0.012997346,-0.037921168,-0.88375705,-5.879622,9.76622,0.15157424,-2.0835762,1.104247,1.1835736,0
1.7500000000000013,11.063383225885918,-2.3548433717987636,1.6006532474304964,1.8103648215453627,13.393566,-0.61523676,-3.716963,2.1906023,2.5646565,-2.5501614,2.1088693,-0.4605314,0.02273134,-0.031359375,-0.8867975,-5.879234,9.774868,0.16376637,-2.1259634,1.1815859,1.2143304,0
1.7600000000000013,12.08785223712067,-2.4252436202214978,1.4657330215621251,1.8350628002604923,13.718062,-0.6515972,-3.7586715,2.0563855,2.5058548,-2.4523706,2.1105678,-0.4546044,0.032861665,-0.024786228,-0.8897413,-5.88151,9.783231,0.17595753,-2.1617324,1.2468699,1.2435781,0
1.7700000000000014,12.08785223712067,-2.4252436202214978,1.4657330215621251,1.8350628002604923,13.718062,-0.6515972,-3.7586715,2.0563855,2.4470146,-2.3544939,2.1124392,-0.44844678,0.043288574,-0.018153762,-0.8925755,-5.886986,9.792052,0.19828628,-2.2028787,1.2809266,1.2726024,0
1.7800000000000014,12.08785223712067,-2.4252436202214978,1.4657330215621251,1.8350628002604923,13.718062,-0.6515972,-3.7586715,2.0563855,2.3881044,-2.2565308,2.1145332,-0.44206092,0.053928837,-0.011425119,-0.89528894,-5.89551,9.800527,0.22046265,-2.237604,1.309678,1.3002025,0
1.7900000000000014,12.08785223712067,-2.4252436202214978,1.4657330215621251,1.8350628002604923,13.718062,-0.6515972,-3.7586715,2.0563855,2.3290937,-2.158485,2.1168478,-0.4354515,0.06474524,-0.004616839,-0.8978684,-5.9071274,9.80861,0.24240652,-2.2669098,1.3339512,1.3264482,0
1.8000000000000014,12.677835863332056,-2.461194870467103,0.8474529967894195,1.7774679946017446,13.537821,-1.1241934,-4.2461686,1.9340059,2.269951,-2.0603604,2.11938,-0.42862356,0.07570596,0.0022565287,-0.90030235,-5.9218726,9.8162565,0.26403502,-2.2916415,1.3544439,1.351406,0
1.8100000000000014,12.677835863332056,-2.461194870467103,0.8474529967894195,1.7774679946017446,13.537821,-1.1241934,-4.2461686,1.9340059,2.2106411,-1.9621599,2.122156,-0.4215868,0.08656686,0.009301001,-0.902598,-5.940634,9.823761,0.2910892,-2.318031,1.275324,1.3723129,0
1.8200000000000014,12.677835863332056,-2.461194870467103,0.8474529967894195,1.7774679946017446,13.537821,-1.1241934,-4.2461686,1.9340059,2.1511273,-1.8638873,2.1251998,-0.41435066,0.097132236,0.016597655,-0.9047665,-5.9626517,9.830624,0.31764865,-2.3403134,1.2085475,1.392194,0
1.8300000000000014,12.677835863332056,-2.461194870467103,0.8474529967894195,1.7774679946017446,13.537821,-1.1241934,-4.2461686,1.9340059,2.0913773,-1.7655499,2.128507,-0.40691987,0.10744228,0.024101282,-0.90680236,-5.9878693,9.83671,0.34364095,-2.3591278,1.1521889,1.4110996,0
1.8400000000000014,12.677835863332056,-2.461194870467103,0.8474529967894195,1.7774679946017446,12.053147,-1.2958173,-4.2193313,1.5244945,2.0313592,-1.6671561,2.1320705,-0.39929962,0.117530875,0.03177368,-0.90870005,-6.0162296,9.8419,0.36899403,-2.3750143,1.1046232,1.4290774,0
1.8500000000000014,12.677835863332056,-2.461194870467103,0.8474529967894195,1.7774679946017446,12.053147,-1.2958173,-4.2193313,1.5244945,1.9710422,-1.5687153,2.1358845,-0.39149538,0.12742649,0.039582524,-0.9104538,-6.047674,9.8460865,0.393636,-2.3884287,1.0644786,1.4461731,0
1.8600000000000014,12.677835863332056,-2.461194870467103,0.8474529967894195,1.7774679946017446,12.053147,-1.2958173,-4.2193313,1.5244945,1.9103954,-1.4702382,2.1399407,-0.3835127,0.13715303,0.047500424,-0.91205794,-6.0821466,9.849171,0.41749525,-2.399756,1.0305976,1.4624299,0
1.8700000000000014,12.677835863332056,-2.461194870467103,0.8474529967894195,1.7774679946017446,12.053147,-1.2958173,-4.2193313,1.5244945,1.849389,-1.371736,2.1442313,-0.37535733,0.14673048,0.055504143,-0.91350716,-6.119588,9.851063,0.44050047,-2.4093204,1.0020027,1.4778888,0
1.8800000000000014,12.516432361433441,-2.2424011173153517,-0.061061307821591936,1.5572296168059736,11.057922,-1.4517063,-4.2420473,1.2174319,1.7879936,-1.2732213,2.1487474,-0.36703503,0.15617551,0.06357392,-0.91479605,-6.159939,9.851683,0.46258074,-2.4173963,0.9778699,1.4925892,0
1.8900000000000015,12.516432361433441,-2.2424011173153517,-0.061061307821591936,1.5572296168059736,11.057922,-1.4517063,-4.2420473,1.2174319,1.7261832,-1.174707,2.1534722,-0.35856703,0.16513582,0.07174934,-0.9159754,-6.202573,9.850953,0.4821545,-2.3899503,0.8158709,1.4957612,0
1.9000000000000015,12.516432361433441,-2.2424011173153517,-0.061061307821591936,1.5572296168059736,11.057922,-1.4517063,-4.2420473,1.2174319,1.663933,-1.0762073,2.1583877,-0.34997502,0.17333382,0.08005852,-0.91709465,-6.247831,9.848748,0.50072587,-2.3668082,0.6791316,1.4987774,0
1.9100000000000015,12.516432361433441,-2.2424011173153517,-0.061061307821591936,1.5572296168059736,11.057922,-1.4517063,-4.2420473,1.2174319,1.6012182,-0.97773755,2.1634836,-0.341265,0.18088293,0.08847123,-0.9181457,-6.2955227,9.844931,0.51828176,-2.3472953,0.5637135,1.5016457,0
1.9200000000000015,12.063219138856969,-1.7893750927680097,-0.7485429689071034,1.2023675574305033,10.099834,-1.1187198,-4.4225526,0.74734193,1.538015,-0.8793146,2.16875,-0.33244246,0.18787864,0.09696246,-0.9191197,-6.345478,9.839384,0.5348077,-2.330843,0.46629208,1.5043733,0
1.9300000000000015,12.063219138856969,-1.7893750927680097,-0.7485429689071034,1.2023675574305033,10.099834,-1.1187198,-4.4225526,0.74734193,1.474311,-0.7809549,2.174156,-0.32356083,0.19408485,0.105443776,-0.92006534,-6.395642,9.832276,0.54618174,-2.2462132,0.27694386,1.4895537,0
1.9400000000000015,12.063219138856969,-1.7893750927680097,-0.7485429689071034,1.2023675574305033,10.099834,-1.1187198,-4.4225526,0.74734193,1.4100962,-0.68267554,2.1796703,-0.31467,0.19932042,0.1138437,-0.9210282,-6.4475822,9.823311,0.55658704,-2.1748133,0.11710887,1.4754615,0
1.9500000000000015,12.063219138856969,-1.7893750927680097,-0.7485429689071034,1.2023675574305033,10.099834,-1.1187198,-4.4225526,0.74734193,1.3453542,-0.5844954,2.1852844,-0.3057698,0.2037331,0.12216673,-0.92199355,-6.5010567,9.8124075,0.5660659,-2.1145747,-0.017812766,1.4620606,0
1.9600000000000015,10.98249402404676,-1.4236199800890121,-1.711036590438245,0.7912266668314738,12.819739,-0.9913913,-2.871328,-0.048787296,1.2800708,-0.4864343,2.1909885,-0.29685995,0.20744711,0.13041739,-0.9229465,-6.5558534,9.799502,0.5746541,-2.0637524,-0.1317043,1.4493175,0
1.9700000000000015,10.98249402404676,-1.4236199800890121,-1.711036590438245,0.7912266668314738,12.819739,-0.9913913,-2.871328,-0.048787296,1.2142586,-0.38850594,2.196727,-0.2879669,0.21016183,0.13858853,-0.92395854,-6.6067576,9.785876,0.57290876,-1.9636997,-0.37786463,1.4170249,0
1.9800000000000015,10.98249402404676,-1.4236199800890121,-1.711036590438245,0.7912266668314738,12.819739,-0.9913913,-2.871328,-0.048787296,1.1479331,-0.29072353,2.2024446,-0.27911597,0.21164432,0.14667314,-0.9250876,-6.6584134,9.7703,0.5704656,-1.8792945,-0.5856567,1.3863168,0
1.9900000000000015,10.98249402404676,-1.4236199800890121,-1.711036590438245,0.7912266668314738,12.819739,-0.9913913,-2.871328,-0.048787296,1.0810885,-0.19310689,2.2081342,-0.27030516,0.2120815,0.15467611,-0.92629963,-6.710555,9.752707,0.56740725,-1.8080884,-0.7610605,1.3571155,0
2.0000000000000013,,,,,11.708836,0.25678182,-3.4752645,-0.559884,1.0137211,-0.09567649,2.2137907,-0.2615326,0.21163052,0.16260222,-0.9275629,-6.7629514,9.733046,0.563802,-1.7480164,-0.90912414,1.3293471,0
2.010000000000001,,,,,11.708836,0.25678182,-3.4752645,-0.559884,0.9458459,0.0015535615,2.219379,-0.2528211,0.21007958,0.17042978,-0.9289246,-6.812069,9.712653,0.5537671,-1.6462424,-1.1605254,1.2813684,0
2.020000000000001,,,,,11.708836,0.25678182,-3.4752645,-0.559884,0.8774805,0.09856963,2.2248647,-0.2441923,0.20726618,0.17814006,-0.9304172,-6.8609614,9.690243,0.5433659,-1.560385,-1.3727425,1.2357439,0
2.0300000000000007,,,,,11.708836,0.25678182,-3.4752645,-0.559884,0.8086283,0.19535136,2.2302454,-0.23564295,0.20337811,0.18574166,-0.931992,-6.9093747,9.665779,0.5326813,-1.4879533,-1.551882,1.1923583,0
2.0400000000000005,,,,,11.708836,0.25678182,-3.4752645,-0.559884,0.73929536,0.2918781,2.2355177,-0.22717005,0.19857349,0.19324216,-0.9336055,-6.9570856,9.639242,0.5217773,-1.4268459,-1.7030996,1.1511015,0
2.0500000000000003,,,,,11.891721,-0.36781132,-3.503384,-0.4216678,0.6694897,0.38812906,2.2406805,-0.21877098,0.19298564,0.20064819,-0.9352195,-7.003898,9.6106205,0.51070094,-1.375291,-1.830747,1.1118692,1
2.06,,,,,11.891721,-0.36781132,-3.503384,-0.4216678,0.5991853,0.48405966,2.2457995,-0.21050878,0.18627796,0.20779572,-0.93691355,-7.0567527,9.5751295,0.51305205,-1.2182093,-2.091299,1.0366294,1
2.07,,,,,11.891721,-0.36781132,-3.503384,-0.4216678,0.52836,0.57962346,2.2509418,-0.20243971,0.17818595,0.2145509,-0.9387414,-7.108015,9.53727,0.51534826,-1.0855489,-2.3113725,0.96507037,1
2.0799999999999996,,,,,11.891721,-0.36781132,-3.503384,-0.4216678,0.45703146,0.67479706,2.2561069,-0.19455232,0.168912,0.2209607,-0.9406349,-7.1573615,9.497082,0.51769936,-0.9736116,-2.497152,0.8970227,1
2.0899999999999994,,,,,11.326889,-0.65150154,-4.01715,-0.48978156,0.38522032,0.76955736,2.2612963,-0.18683662,0.15862696,0.22706468,-0.94253415,-7.204507,9.45462,0.5201727,-0.87915736,-2.653981,0.8323142,1
2.099999999999999,,,,,11.326889,-0.65150154,-4.01715,-0.48978156,0.3129605,0.86389244,2.2664874,-0.17922679,0.1473001,0.23304161,-0.9443894,-7.24707,9.412064,0.518022,-0.84366024,-2.8665116,0.7674386,1
2.109999999999999,,,,,11.326889,-0.65150154,-4.01715,-0.48978156,0.2402879,0.9577913,2.2716577,-0.17166956,0.13491209,0.23903106,-0.9461458,-7.287028,9.367395,0.5160313,-0.8137258,-3.045905,0.7057465,1
2.1199999999999988,,,,,11.326889,-0.65150154,-4.01715,-0.48978156,0.16722977,1.051233,2.2768087,-0.16417372,0.12161271,0.24501035,-0.9477482,-7.324136,9.3206215,0.51418096,-0.7884795,-3.1973283,0.6470816,1
2.1299999999999986,,,,,9.909839,-0.5972449,-3.8282914,-0.5641335,0.09381572,1.1441966,2.2819417,-0.15674645,0.107529946,0.25095996,-0.94915026,-7.3581767,9.271765,0.5124288,-0.7671845,-3.3251421,0.5912955,1
2.1399999999999983,,,,,9.909839,-0.5972449,-3.8282914,-0.5641335,0.020096999,1.236693,2.286997,-0.14942375,0.092839584,0.2568319,-0.95031047,-7.3851113,9.227232,0.49865538,-0.74077785,-3.4035704,0.53459823,1
2.149999999999998,,,,,9.909839,-0.5972449,-3.8282914,-0.5641335,-0.05387628,1.3287354,2.2919147,-0.14223613,0.07768847,0.26258844,-0.9511992,-7.409071,9.180968,0.48484775,-0.7184927,-3.469772,0.48068315,1
2.159999999999998,,,,,9.909839,-0.5972449,-3.8282914,-0.5641335,-0.12807383,1.4203067,2.2966936,-0.13518125,0.062139284,0.2682274,-0.95179725,-7.4299493,9.133041,0.47092953,-0.6996844,-3.5256534,0.42941368,1
2.1699999999999977,,,,,9.10258,-0.5299496,-2.5147598,-0.5962087,-0.20246436,1.5113907,2.3013327,-0.12825656,0.046246365,0.2737465,-0.9520891,-7.4476557,9.083521,0.45681605,-0.68380934,-3.5728235,0.38066,1
2.1799999999999975,,,,,9.10258,-0.5299496,-2.5147598,-0.5962087,-0.2770097,1.6019926,2.305795,-0.12160986,0.030553242,0.27905357,-0.9520535,-7.4609537,9.036647,0.43559828,-0.6599627,-3.4077926,0.33272475,1
2.1899999999999973,,,,,9.10258,-0.5299496,-2.5147598,-0.5962087,-0.3516735,1.6921192,2.3100436,-0.11536375,0.01549484,0.28408596,-0.95170665,-7.4713607,8.988497,0.414037,-0.6398147,-3.268501,0.2871417,1
