time-since-start [s],throttle_mpc,roll_mpc,pitch_mpc,yaw_mpc,throttle_nw,roll_nw,pitch_nw,yaw_nw,position_x [m],position_y [m],position_z [m],rotation_w [quaternion],rotation_x [quaternion],rotation_y [quaternion],rotation_z [quaternion],velocity_x [m/s],velocity_y [m/s],velocity_z [m/s],omega_x [rad/s],omega_y [rad/s],omega_z [rad/s],network_used
0.0,7.798953771335532,5.999999540283251,-5.999999909782415,-5.130419931103123,7.4366765,3.492714,-3.597855,-1.6220609,18.724861,-9.577698,1.9181669,-0.034169633,0.39878064,-0.14949742,-0.90413326,-11.772057,-0.9804559,-0.24686976,1.2901868,0.08155303,-0.012028043,0
0.01,7.798953771335532,5.999999540283251,-5.999999909782415,-5.130419931103123,15.804522,3.4179552,-4.8925085,-1.72682,18.606527,-9.587242,1.9157578,-0.037037928,0.39875296,-0.15489599,-0.9031232,-11.8943405,-0.9284459,-0.23545901,1.1834828,-0.025794132,-0.17545706,0
0.02,7.798953771335532,5.999999540283251,-5.999999909782415,-5.130419931103123,15.804522,3.4179552,-4.8925085,-1.72682,18.486986,-9.596264,1.9134468,-0.040515095,0.3984068,-0.15950675,-0.9023237,-12.013203,-0.8758129,-0.22724721,1.0938984,-0.116876654,-0.33483848,0
0.03,7.798953771335532,5.999999540283251,-5.999999909782415,-5.130419931103123,15.804522,3.4179552,-4.8925085,-1.72682,18.366274,-9.604757,1.9112028,-0.044604223,0.39781055,-0.1634108,-0.9016952,-12.128644,-0.8227606,-0.22200404,1.018679,-0.19414665,-0.49027258,0
0.04,7.798953771335532,5.999999540283251,-5.999999909782415,-5.130419931103123,15.393175,5.757304,-4.453045,-2.8513646,18.244423,-9.612719,1.9089973,-0.04930497,0.39702025,-0.16667733,-0.9012007,-12.240716,-0.76944274,-0.21950115,0.9560259,-0.2602003,-0.6418133,0
0.05,7.798953771335532,5.999999540283251,-5.999999909782415,-5.130419931103123,15.393175,5.757304,-4.453045,-2.8513646,18.121468,-9.620144,1.9068072,-0.05462947,0.3960516,-0.16939317,-0.90081346,-12.350342,-0.7155571,-0.21875736,0.9181159,-0.3309375,-0.78835744,0
0.060000000000000005,7.798953771335532,5.999999540283251,-5.999999909782415,-5.130419931103123,15.393175,5.757304,-4.453045,-2.8513646,17.997425,-9.6270275,1.9046178,-0.060617264,0.39485243,-0.17168927,-0.9005221,-12.457845,-0.6610256,-0.21933283,0.9078138,-0.41236353,-0.92965096,0
0.07,7.798953771335532,5.999999540283251,-5.999999909782415,-5.130419931103123,15.393175,5.757304,-4.453045,-2.8513646,17.872318,-9.633364,1.9024163,-0.06730519,0.39336443,-0.17368592,-0.9003154,-12.563099,-0.60593414,-0.2211739,0.92151034,-0.5035151,-1.066014,0
0.08,8.77594388229489,5.999999770111317,-5.999999945641118,-5.220609601901404,13.158152,6.8797507,-5.990388,-3.6731977,17.74617,-9.639145,1.9001902,-0.074723534,0.3915319,-0.17548653,-0.90017986,-12.665974,-0.5503339,-0.22422116,0.95603794,-0.60345626,-1.1977402,0
0.09,8.77594388229489,5.999999770111317,-5.999999945641118,-5.220609601901404,13.158152,6.8797507,-5.990388,-3.6731977,17.618979,-9.644353,1.8979548,-0.082928956,0.38927057,-0.17720254,-0.9001059,-12.772041,-0.49105525,-0.22306497,1.0223969,-0.72509784,-1.3307562,0
0.09999999999999999,8.77594388229489,5.999999770111317,-5.999999945641118,-5.220609601901404,13.158152,6.8797507,-5.990388,-3.6731977,17.490738,-9.648965,1.8957251,-0.09197159,0.38649887,-0.17893091,-0.9000799,-12.875248,-0.43127054,-0.22306512,1.104045,-0.8534555,-1.4595387,0
0.10999999999999999,8.77594388229489,5.999999770111317,-5.999999945641118,-5.220609601901404,13.158152,6.8797507,-5.990388,-3.6731977,17.361483,-9.652976,1.8934898,-0.101863556,0.38316905,-0.18073328,-0.9000783,-12.97542,-0.37095213,-0.22413477,1.1988382,-0.9877235,-1.5843168,0
0.11999999999999998,8.77594388229489,5.999999770111317,-5.999999945641118,-5.220609601901404,13.158152,6.8797507,-5.990388,-3.6731977,17.231241,-9.656383,1.891239,-0.11261219,0.37923563,-0.18266073,-0.9000745,-13.072382,-0.31006676,-0.22618666,1.30489,-1.1271433,-1.7053021,0
0.12999999999999998,11.349571458515635,5.999999912893609,-5.99999998218247,-4.691453488762357,15.586811,6.4802094,-4.6128254,-3.040207,17.100046,-9.659177,1.8889631,-0.12422028,0.37465492,-0.18475486,-0.90003824,-13.165952,-0.248581,-0.22913417,1.4205383,-1.271005,-1.8226888,0
0.13999999999999999,11.349571458515635,5.999999912893609,-5.99999998218247,-4.691453488762357,15.586811,6.4802094,-4.6128254,-3.040207,16.967897,-9.661327,1.8866932,-0.13685885,0.36900324,-0.18734103,-0.90000546,-13.263389,-0.18129039,-0.22504932,1.6875273,-1.5621884,-1.9234986,0
0.15,11.349571458515635,5.999999912893609,-5.99999998218247,-4.691453488762357,15.586811,6.4802094,-4.6128254,-3.040207,16.834797,-9.662802,1.8844582,-0.15067054,0.36189443,-0.19069183,-0.89998204,-13.356143,-0.113441065,-0.22210054,1.9480634,-1.8431932,-2.0225096,0
0.16,13.866253692203067,5.999999965972657,-6.0,-3.883043893358396,17.465364,6.136034,-4.5178285,-3.552203,16.700792,-9.663593,1.8822479,-0.16561002,0.3533402,-0.19476122,-0.89988464,-13.443861,-0.044874974,-0.22008,2.2022762,-2.1147258,-2.1197312,0
0.17,13.866253692203067,5.999999965972657,-6.0,-3.883043893358396,17.465364,6.136034,-4.5178285,-3.552203,16.565914,-9.663677,1.880081,-0.18182515,0.34284192,-0.19985558,-0.89969826,-13.530564,0.02823383,-0.21349189,2.6309068,-2.5584567,-2.1916606,0
0.18000000000000002,13.866253692203067,5.999999965972657,-6.0,-3.883043893358396,17.465364,6.136034,-4.5178285,-3.552203,16.430204,-9.663027,1.8779743,-0.19942527,0.3299439,-0.20621759,-0.89935595,-13.610534,0.101988405,-0.2080251,3.03579,-2.9760952,-2.2639146,0
0.19000000000000003,13.866253692203067,5.999999965972657,-6.0,-3.883043893358396,17.465364,6.136034,-4.5178285,-3.552203,16.293732,-9.661635,1.8759174,-0.21830216,0.31471315,-0.21370693,-0.89868206,-13.683247,0.17651398,-0.20343883,3.4187884,-3.3698678,-2.3363125,0
0.20000000000000004,16.608122659820012,5.999999979453267,-6.0,-3.1346755275704536,18.314072,7.4006205,-5.6074204,-2.1182072,16.156569,-9.659494,1.8739029,-0.23834363,0.29720962,-0.22218722,-0.89749205,-13.74822,0.2518181,-0.19957566,3.781603,-3.741784,-2.4086945,0
0.21000000000000005,16.608122659820012,5.999999979453267,-6.0,-3.1346755275704536,18.314072,7.4006205,-5.6074204,-2.1182072,16.01874,-9.656524,1.872021,-0.25936076,0.27744797,-0.2315639,-0.89561886,-13.81615,0.34273404,-0.17644745,4.1269135,-4.0945888,-2.4443188,0
0.22000000000000006,16.608122659820012,5.999999979453267,-6.0,-3.1346755275704536,18.314072,7.4006205,-5.6074204,-2.1182072,15.880275,-9.65263,1.8703821,-0.28109214,0.25558725,-0.24166486,-0.8928946,-13.875301,0.43658215,-0.15098007,4.4184504,-4.392298,-2.4781947,0
0.23000000000000007,16.608122659820012,5.999999979453267,-6.0,-3.1346755275704536,18.314072,7.4006205,-5.6074204,-2.1182072,15.741266,-9.647783,1.8690091,-0.3033289,0.2318813,-0.25226545,-0.88914853,-13.924786,0.5330316,-0.12329081,4.66459,-4.643513,-2.5104082,0
0.24000000000000007,16.608122659820012,5.999999979453267,-6.0,-3.1346755275704536,19.81174,7.1352797,-4.8912554,-0.71658456,15.601815,-9.641962,1.8679231,-0.3258833,0.20655805,-0.26317382,-0.8842363,-13.963821,0.63161635,-0.09359993,4.872403,-4.8554935,-2.541041,0
0.25000000000000006,16.608122659820012,5.999999979453267,-6.0,-3.1346755275704536,19.81174,7.1352797,-4.8912554,-0.71658456,15.4620285,-9.635147,1.8671428,-0.348586,0.17982414,-0.27422592,-0.8780385,-13.991737,0.7317551,-0.062218525,5.0478606,-5.034365,-2.5701709,0
0.26000000000000006,16.608122659820012,5.999999979453267,-6.0,-3.1346755275704536,19.81174,7.1352797,-4.8912554,-0.71658456,15.322021,-9.627325,1.8666832,-0.37128395,0.15186843,-0.2852814,-0.87045914,-14.007977,0.83277,-0.029536132,5.1960006,-5.185297,-2.597871,0
0.2700000000000001,16.608122659820012,5.999999979453267,-6.0,-3.1346755275704536,19.81174,7.1352797,-4.8912554,-0.71658456,15.1819105,-9.618491,1.8665551,-0.39383858,0.12286477,-0.29622003,-0.8614229,-14.012106,0.9339048,0.003991479,5.321078,-5.312652,-2.6242123,0
0.2800000000000001,20.999999090924252,5.999999965077628,-5.999999987922158,-2.235643450848626,21.127714,6.7734632,-4.5085225,0.17159665,15.0418215,-9.608649,1.8667642,-0.41612393,0.09297397,-0.3069388,-0.8508734,-14.003816,1.0343423,0.037854336,5.4266834,-5.4201126,-2.6492608,0
0.2900000000000001,20.999999090924252,5.999999965077628,-5.999999987922158,-2.235643450848626,21.127714,6.7734632,-4.5085225,0.17159665,14.901903,-9.597678,1.8674856,-0.43793163,0.06231133,-0.31735924,-0.8388186,-13.9774,1.1593677,0.10633862,5.516009,-5.5106263,-2.6289647,0
0.3000000000000001,20.999999090924252,5.999999965077628,-5.999999987922158,-2.235643450848626,21.127714,6.7734632,-4.5085225,0.17159665,14.762328,-9.585472,1.8688875,-0.4590732,0.030983187,-0.32741162,-0.82528406,-13.934983,1.2812971,0.17380688,5.591427,-5.5870023,-2.6096642,0
0.3100000000000001,20.999999090924252,5.999999965077628,-5.999999987922158,-2.235643450848626,21.127714,6.7734632,-4.5085225,0.17159665,14.623257,-9.572067,1.8709556,-0.47946805,-0.0008781906,-0.33702537,-0.81026155,-13.876657,1.3989924,0.2394873,5.6551023,-5.6514497,-2.5913112,0
0.3200000000000001,20.99999990492761,5.288777887603461,-5.999993317000493,-0.5053751013715938,21.437048,6.556238,-3.110829,-0.3788981,14.484848,-9.557511,1.8736682,-0.49904373,-0.03314847,-0.34613967,-0.79375315,-13.802669,1.5113195,0.3025895,5.7088623,-5.705832,-2.5738585,0
0.3300000000000001,20.99999990492761,5.288777887603461,-5.999993317000493,-0.5053751013715938,21.437048,6.556238,-3.110829,-0.3788981,14.347257,-9.541864,1.8769957,-0.51758236,-0.06564113,-0.35447207,-0.7759829,-13.713441,1.6171577,0.36233228,5.6436543,-5.751223,-2.4723575,0
0.34000000000000014,20.99999990492761,5.288777887603461,-5.999993317000493,-0.5053751013715938,21.437048,6.556238,-3.110829,-0.3788981,14.210629,-9.525195,1.880901,-0.53491116,-0.09819977,-0.3618018,-0.7571833,-13.609652,1.7153978,0.41803244,5.588614,-5.7895775,-2.3758373,0
0.35000000000000014,20.99999990492761,5.288777887603461,-5.999993317000493,-0.5053751013715938,21.437048,6.556238,-3.110829,-0.3788981,14.07511,-9.5075865,1.8853402,-0.5510307,-0.13075434,-0.36816266,-0.7373771,-13.492123,1.8050033,0.46904784,5.5421524,-5.821988,-2.2840533,0
0.36000000000000015,20.999999728700786,3.6437470727394943,-3.72878124558507,0.20262346505557277,21.425844,6.129607,-1.3566818,-0.8282926,13.940831,-9.489128,1.8902637,-0.5659411,-0.16323783,-0.3735827,-0.71658945,-13.36176,1.885031,0.5147491,5.5029306,-5.849376,-2.1967733,0
0.37000000000000016,20.999999728700786,3.6437470727394943,-3.72878124558507,0.20262346505557277,21.425844,6.129607,-1.3566818,-0.8282926,13.807916,-9.46992,1.895615,-0.57936996,-0.19460368,-0.37813458,-0.6953232,-13.219614,1.9547093,0.5545561,5.2138906,-5.517855,-2.0790343,0
0.38000000000000017,20.999999728700786,3.6437470727394943,-3.72878124558507,0.20262346505557277,21.425844,6.129607,-1.3566818,-0.8282926,13.676475,-9.450069,1.9013332,-0.5911822,-0.22405477,-0.3819455,-0.6741077,-13.067125,2.0138195,0.5881145,4.969789,-5.238156,-1.9670727,0
0.3900000000000002,20.999999728700786,3.6437470727394943,-3.72878124558507,0.20262346505557277,21.425844,6.129607,-1.3566818,-0.8282926,13.546604,-9.42968,1.907355,-0.60155696,-0.25186956,-0.3851008,-0.6529845,-12.905718,2.0623736,0.6152057,4.7636437,-5.002174,-1.8606051,0
0.4000000000000002,20.6434846456715,1.6320675387371948,-1.0922287093822793,0.7940859580406252,19.46518,5.1088,1.0311813,-0.22968769,13.418386,-9.408857,1.9136145,-0.6106424,-0.2782826,-0.3876648,-0.631974,-12.736663,2.1004264,0.6356664,4.589555,-4.8030744,-1.759362,0
0.4100000000000002,20.6434846456715,1.6320675387371948,-1.0922287093822793,0.7940859580406252,19.46518,5.1088,1.0311813,-0.22968769,13.291879,-9.387709,1.9200355,-0.61835337,-0.30237406,-0.38982084,-0.6117591,-12.56413,2.1276922,0.64752525,4.129348,-4.2235036,-1.6340635,0
0.4200000000000002,20.6434846456715,1.6320675387371948,-1.0922287093822793,0.7940859580406252,19.46518,5.1088,1.0311813,-0.22968769,13.167123,-9.366335,1.9265431,-0.62470645,-0.32347816,-0.39177522,-0.5929726,-12.386523,2.145593,0.65306014,3.7407105,-3.734477,-1.5149134,0
0.4300000000000002,20.6434846456715,1.6320675387371948,-1.0922287093822793,0.7940859580406252,19.46518,5.1088,1.0311813,-0.22968769,13.044164,-9.344826,1.9330761,-0.62993664,-0.34211326,-0.39358738,-0.57552415,-12.204937,2.155037,0.65265334,3.4125226,-3.3218427,-1.4016101,0
0.4400000000000002,20.6434846456715,1.6320675387371948,-1.0922287093822793,0.7940859580406252,20.69061,3.9231513,2.222632,-0.081911795,12.923036,-9.323261,1.9395771,-0.63422763,-0.3587104,-0.3952924,-0.55930924,-12.020223,2.1568308,0.6466719,3.1353896,-2.9736612,-1.2938666,0
0.45000000000000023,20.6434846456715,1.6320675387371948,-1.0922287093822793,0.7940859580406252,20.69061,3.9231513,2.222632,-0.081911795,12.803768,-9.301714,1.9459916,-0.6377245,-0.3736274,-0.39690876,-0.54421896,-11.833048,2.1516817,0.63545483,2.9013746,-2.6798608,-1.1914102,0
0.46000000000000024,20.6434846456715,1.6320675387371948,-1.0922287093822793,0.7940859580406252,20.69061,3.9231513,2.222632,-0.081911795,12.686382,-9.280251,1.9522692,-0.6405425,-0.38716087,-0.39844415,-0.530146,-11.643938,2.140204,0.61930805,2.7037742,-2.4319446,-1.0939814,0
0.47000000000000025,20.6434846456715,1.6320675387371948,-1.0922287093822793,0.7940859580406252,20.69061,3.9231513,2.222632,-0.081911795,12.570894,-9.258931,1.9583619,-0.64277416,-0.3995565,-0.39989948,-0.5169885,-11.453312,2.1229298,0.5985022,2.5369263,-2.2227442,-1.0013335,0
0.48000000000000026,17.937204154374083,-0.10247912771469728,1.0010514083443531,1.1646500831214779,21.223028,3.5465803,2.374977,-0.47197056,12.45732,-9.237811,1.9642242,-0.64449435,-0.41101772,-0.4012714,-0.5046518,-11.261504,2.100316,0.5732741,2.3960474,-2.0462112,-0.91323173,0
0.49000000000000027,17.937204154374083,-0.10247912771469728,1.0010514083443531,1.1646500831214779,21.223028,3.5465803,2.374977,-0.47197056,12.345542,-9.216923,1.9697676,-0.6456989,-0.42086846,-0.40273294,-0.49371,-11.094058,2.076443,0.5348736,2.0067925,-1.5706259,-0.8112695,0
0.5000000000000002,17.937204154374083,-0.10247912771469728,1.0010514083443531,1.1646500831214779,21.223028,3.5465803,2.374977,-0.47197056,12.235442,-9.196293,1.9749107,-0.64641285,-0.42860624,-0.40443972,-0.48464042,-10.92604,2.0491278,0.49330875,1.6781399,-1.1692933,-0.7143105,0
0.5100000000000002,17.937204154374083,-0.10247912771469728,1.0010514083443531,1.1646500831214779,21.223028,3.5465803,2.374977,-0.47197056,12.127024,-9.17595,1.9796245,-0.6467216,-0.43461177,-0.4063556,-0.47722062,-10.7575865,2.019179,0.44906032,1.400662,-0.83061516,-0.6221094,0
0.5200000000000002,16.845860831956372,-2.1236751834641994,3.0676797628971744,1.8846395406804741,20.439135,1.2483279,3.3408542,-0.1753614,12.020291,-9.155917,1.9838841,-0.6466874,-0.43919712,-0.40844256,-0.47125,-10.588779,1.9872789,0.40253824,1.1663958,-0.5448056,-0.53443253,0
0.5300000000000002,16.845860831956372,-2.1236751834641994,3.0676797628971744,1.8846395406804741,20.439135,1.2483279,3.3408542,-0.1753614,11.915196,-9.1362,1.9876536,-0.64633393,-0.44174522,-0.41078106,-0.46730408,-10.429952,1.956099,0.35111988,0.6535082,0.018790826,-0.415728,0
0.5400000000000003,16.845860831956372,-2.1236751834641994,3.0676797628971744,1.8846395406804741,20.439135,1.2483279,3.3408542,-0.1753614,11.811692,-9.1167965,1.9909027,-0.64567554,-0.44178647,-0.41342902,-0.46583772,-10.270848,1.9246216,0.29855397,0.22050227,0.49439856,-0.3028483,0
0.5500000000000003,16.845860831956372,-2.1236751834641994,3.0676797628971744,1.8846395406804741,20.439135,1.2483279,3.3408542,-0.1753614,11.709781,-9.097706,1.9936229,-0.64472896,-0.43974477,-0.41631347,-0.46651113,-10.11147,1.8937676,0.2454536,-0.14505255,0.8957635,-0.19550768,0
0.5600000000000003,19.453278922123243,-5.787166519506982,5.99999271933903,1.7712578851150824,17.723572,-2.2922585,4.733771,0.2307272,11.609465,-9.078916,1.9958116,-0.6434947,-0.4359656,-0.41936404,-0.46902323,-9.951821,1.8643184,0.19233085,-0.4536553,1.234483,-0.09343426,0
0.5700000000000003,19.453278922123243,-5.787166519506982,5.99999271933903,1.7712578851150824,17.723572,-2.2922585,4.733771,0.2307272,11.510868,-9.0604315,1.9975061,-0.64210784,-0.42922673,-0.42258292,-0.47422156,-9.7671795,1.8328221,0.14674331,-1.2854836,1.9776382,-0.001933286,0
0.5800000000000003,19.453278922123243,-5.787166519506982,5.99999271933903,1.7712578851150824,17.723572,-2.2922585,4.733771,0.2307272,11.414121,-9.042245,1.9987522,-0.6406161,-0.4185374,-0.42593047,-0.48272255,-9.582394,1.8052982,0.10284131,-1.9876634,2.6048124,0.0850777,0
0.5900000000000003,19.453278922123243,-5.787166519506982,5.99999271933903,1.7712578851150824,17.723572,-2.2922585,4.733771,0.2307272,11.319221,-9.024306,1.9995725,-0.6388705,-0.40445468,-0.42927462,-0.49394792,-9.397723,1.7832364,0.0617429,-2.5803907,3.1341188,0.16781904,0
0.6000000000000003,19.285212332860628,-5.999999687734036,5.999999612062301,1.82795019490374,19.232943,-3.3598993,5.421883,-0.56352323,11.226165,-9.0065565,1.9999998,-0.6367203,-0.38743457,-0.43248746,-0.5073821,-9.213555,1.7679065,0.024345025,-3.0807168,3.580839,0.24650024,0
0.6100000000000003,19.285212332860628,-5.999999687734036,5.999999612062301,1.82795019490374,19.232943,-3.3598993,5.421883,-0.56352323,11.134938,-8.988921,2.0000718,-0.634052,-0.3678055,-0.43540445,-0.52260923,-9.031999,1.7604499,-0.009208632,-3.536237,3.957855,0.32410246,0
0.6200000000000003,19.285212332860628,-5.999999687734036,5.999999612062301,1.82795019490374,19.232943,-3.3598993,5.421883,-0.56352323,11.045519,-8.971318,1.9998325,-0.630755,-0.34584782,-0.4378801,-0.5392575,-8.852124,1.761631,-0.03783193,-3.9207315,4.2760577,0.3978967,0
0.6300000000000003,19.285212332860628,-5.999999687734036,5.999999612062301,1.82795019490374,19.232943,-3.3598993,5.421883,-0.56352323,10.957887,-8.953656,1.9993335,-0.62670344,-0.32185203,-0.4398318,-0.5569582,-8.674718,1.7721812,-0.061117355,-4.2452693,4.544628,0.46806982,0
0.6400000000000003,19.285212332860628,-5.999999687734036,5.999999612062301,1.82795019490374,19.303032,-3.9687517,5.797759,-0.727971,10.872012,-8.935841,1.9986293,-0.6217908,-0.29607165,-0.4411897,-0.57538664,-8.500663,1.7926694,-0.078811504,-4.5191946,4.7713137,0.5347996,0
0.6500000000000004,19.285212332860628,-5.999999687734036,5.999999612062301,1.82795019490374,19.303032,-3.9687517,5.797759,-0.727971,10.787858,-8.917768,1.9977769,-0.61593,-0.268731,-0.44189632,-0.5942575,-8.330919,1.823509,-0.09080077,-4.7503967,4.96265,0.5982548,0
0.6600000000000004,19.285212332860628,-5.999999687734036,5.999999612062301,1.82795019490374,19.303032,-3.9687517,5.797759,-0.727971,10.705376,-8.899334,1.996833,-0.60905164,-0.24003075,-0.4419057,-0.61331975,-8.166506,1.8649609,-0.09709829,-4.945535,5.1241536,0.6585963,0
0.6700000000000004,19.285212332860628,-5.999999687734036,5.999999612062301,1.82795019490374,19.303032,-3.9687517,5.797759,-0.727971,10.624506,-8.880432,1.995854,-0.60110277,-0.21015236,-0.44118243,-0.6323528,-8.008474,1.9171392,-0.097832024,-5.1102333,5.2604804,0.7159769,0
0.6800000000000004,20.397259907717796,-5.999999733593854,5.999999597680746,2.009663371268913,17.74548,-4.7691956,5.601754,0.1936889,10.545181,-8.860954,1.9948947,-0.59204483,-0.1792611,-0.43970034,-0.65116245,-7.85789,1.9800162,-0.09323338,-5.2492366,5.375557,0.7705418,0
0.6900000000000004,20.397259907717796,-5.999999733593854,5.999999597680746,2.009663371268913,17.74548,-4.7691956,5.601754,0.1936889,10.4673605,-8.840774,1.9940374,-0.5818377,-0.14751858,-0.4374375,-0.66959095,-7.7076225,2.057661,-0.0774157,-5.366583,5.4726667,0.8313458,0
0.7000000000000004,20.397259907717796,-5.999999733593854,5.999999597680746,2.009663371268913,17.74548,-4.7691956,5.601754,0.1936889,10.390994,-8.819762,1.993363,-0.5704528,-0.11507399,-0.43438014,-0.68749976,-7.5674524,2.1461363,-0.056730337,-5.465617,5.5546446,0.8891662,0
0.7100000000000004,20.397259907717796,-5.999999733593854,5.999999597680746,2.009663371268913,17.74548,-4.7691956,5.601754,0.1936889,10.315974,-8.797815,1.9929178,-0.5578864,-0.082056284,-0.43052492,-0.704754,-7.438435,2.2449996,-0.03168234,-5.5491953,5.6238503,0.94414926,0
0.7200000000000004,20.511409378830912,-5.999998176639715,4.993425782434528,1.3840856930818075,17.932821,-4.855665,5.6076384,1.2753931,10.242184,-8.77483,1.9927424,-0.5441435,-0.0485857,-0.42587352,-0.7212346,-7.3215685,2.353686,-0.002842098,-5.6197276,5.682276,0.9964343,0
0.7300000000000004,20.511409378830912,-5.999998176639715,4.993425782434528,1.3840856930818075,17.932821,-4.855665,5.6076384,1.2753931,10.1695,-8.750707,1.9928755,-0.5294676,-0.015034939,-0.4202215,-0.73678505,-7.217183,2.4721465,0.029907603,-5.6790304,5.5747414,1.0154564,0
0.7400000000000004,20.511409378830912,-5.999998176639715,4.993425782434528,1.3840856930818075,17.932821,-4.855665,5.6076384,1.2753931,10.097793,-8.725358,1.9933497,-0.5140836,0.018281497,-0.41342908,-0.7513059,-7.126668,2.5988,0.065287724,-5.7290897,5.4839845,1.0335451,0
0.7500000000000004,20.511409378830912,-5.999998176639715,4.993425782434528,1.3840856930818075,17.932821,-4.855665,5.6076384,1.2753931,10.026918,-8.698706,1.9941885,-0.49798,0.051337354,-0.40558952,-0.76477313,-7.050627,2.7325828,0.10272772,-5.771347,5.4073887,1.0507463,0
0.7600000000000005,17.65561926872235,-4.676878643766731,2.827496278170709,0.3162395040483363,17.867981,-4.7849565,4.5870852,1.6304935,9.95673,-8.670686,1.9954095,-0.48115295,0.08410517,-0.3967847,-0.7771618,-6.989564,2.8724148,0.1416296,-5.807018,5.342745,1.0671034,0
0.7700000000000005,17.65561926872235,-4.676878643766731,2.827496278170709,0.3162395040483363,17.867981,-4.7849565,4.5870852,1.6304935,9.887042,-8.641342,1.9969283,-0.4641121,0.11568232,-0.38708714,-0.7882775,-6.950171,2.9970098,0.16219658,-5.6303816,4.950751,1.0302582,0
0.7800000000000005,17.65561926872235,-4.676878643766731,2.827496278170709,0.3162395040483363,17.867981,-4.7849565,4.5870852,1.6304935,9.817683,-8.610736,1.9986546,-0.44733816,0.14536591,-0.3766157,-0.79807156,-6.9237313,3.1246936,0.18307805,-5.481355,4.619856,0.9952212,0
0.7900000000000005,17.65561926872235,-4.676878643766731,2.827496278170709,0.3162395040483363,17.867981,-4.7849565,4.5870852,1.6304935,9.748525,-8.578842,2.0005898,-0.43078613,0.17340276,-0.3654905,-0.8067043,-6.9098577,3.2543852,0.20392144,-5.3556223,4.3405366,0.96190333,0
0.8000000000000005,14.61289187984345,-2.6167100518021056,0.7694647818622637,-0.08116591867451153,17.545044,-4.9189057,2.8819952,1.0734984,9.679443,-8.545645,2.0027318,-0.4144121,0.20000374,-0.35380596,-0.814299,-6.908162,3.3851318,0.2244102,-5.24954,4.104754,0.9302204,0
0.8100000000000005,14.61289187984345,-2.6167100518021056,0.7694647818622637,-0.08116591867451153,17.545044,-4.9189057,2.8819952,1.0734984,9.610328,-8.5112505,2.0049741,-0.39868546,0.22436094,-0.34197208,-0.82083344,-6.9164453,3.4935133,0.22394042,-4.8385196,3.5850234,0.8805914,0
0.8200000000000005,14.61289187984345,-2.6167100518021056,0.7694647818622637,-0.08116591867451153,17.545044,-4.9189057,2.8819952,1.0734984,9.541084,-8.475776,2.0072086,-0.3840269,0.24587664,-0.33036235,-0.8263952,-6.933611,3.6014326,0.2228291,-4.4916806,3.1462762,0.8333977,0
0.8300000000000005,14.61289187984345,-2.6167100518021056,0.7694647818622637,-0.08116591867451153,17.545044,-4.9189057,2.8819952,1.0734984,9.471628,-8.439226,2.0094285,-0.37031996,0.26499823,-0.31898257,-0.83119756,-6.9588037,3.7083907,0.22103228,-4.1989975,2.775896,0.7885198,0
0.8400000000000005,14.61289187984345,-2.6167100518021056,0.7694647818622637,-0.08116591867451153,15.734478,-3.944045,1.4349344,0.5803994,9.401883,-8.401612,2.011627,-0.35745332,0.2821025,-0.3078239,-0.8353981,-6.991279,3.8140037,0.21854042,-3.952011,2.4632313,0.74584407,0
0.8500000000000005,14.61289187984345,-2.6167100518021056,0.7694647818622637,-0.08116591867451153,15.734478,-3.944045,1.4349344,0.5803994,9.33178,-8.362951,2.0137973,-0.34532386,0.29750594,-0.29686883,-0.83911306,-7.030395,3.9179738,0.21536376,-3.7435849,2.1992898,0.70526236,0
0.8600000000000005,14.61289187984345,-2.6167100518021056,0.7694647818622637,-0.08116591867451153,15.734478,-3.944045,1.4349344,0.5803994,9.261254,-8.323259,2.0159323,-0.33383834,0.31147394,-0.28609535,-0.8424283,-7.075596,4.0200663,0.21152222,-3.5676968,1.9764799,0.6666721,0
0.8700000000000006,14.61289187984345,-2.6167100518021056,0.7694647818622637,-0.08116591867451153,15.734478,-3.944045,1.4349344,0.5803994,9.1902485,-8.2825575,2.0180254,-0.32291347,0.324229,-0.2754796,-0.8454073,-7.1264024,4.1200943,0.20703895,-3.4192665,1.788393,0.62997544,0
0.8800000000000006,12.823251839541745,-0.5997731283507766,-0.8885032124818809,-0.3963691864952426,15.519573,-1.9178927,-0.10389249,-0.21221977,9.118709,-8.240867,2.0200708,-0.31247577,0.33595723,-0.26499775,-0.84809667,-7.182401,4.217905,0.20193614,-3.2940054,1.6296182,0.59507954,0
0.8900000000000006,12.823251839541745,-0.5997731283507766,-0.8885032124818809,-0.3963691864952426,15.519573,-1.9178927,-0.10389249,-0.21221977,9.04662,-8.198266,2.022006,-0.30294237,0.34602103,-0.25509477,-0.85054225,-7.235767,4.301761,0.18499382,-2.874572,1.2380949,0.54651517,0
0.9000000000000006,12.823251839541745,-0.5997731283507766,-0.8885032124818809,-0.3963691864952426,15.519573,-1.9178927,-0.10389249,-0.21221977,8.973982,-8.154838,2.0237691,-0.2946628,0.35393554,-0.24614146,-0.8528294,-7.2926564,4.383553,0.16761649,-2.5196726,0.906656,0.5002476,0
0.9100000000000006,12.823251839541745,-0.5997731283507766,-0.8885032124818809,-0.3963691864952426,15.519573,-1.9178927,-0.10389249,-0.21221977,8.900758,-8.1106,2.0253575,-0.2874733,0.36005777,-0.2380045,-0.85502714,-7.3524814,4.463436,0.15003,-2.220156,0.62686366,0.45625037,0
0.9200000000000006,11.582557780411403,1.2745593794632064,-2.3840773410641707,-0.7182174296591151,14.767399,-0.57310903,-1.2822684,-0.3278172,8.826923,-8.065575,2.0267696,-0.2812294,0.36468413,-0.23056458,-0.8571788,-7.414722,4.54151,0.13238828,-1.9673767,0.39067215,0.4144121,0
0.9300000000000006,11.582557780411403,1.2745593794632064,-2.3840773410641707,-0.7182174296591151,14.767399,-0.57310903,-1.2822684,-0.3278172,8.752469,-8.019791,2.0279903,-0.27611575,0.36757436,-0.22406855,-0.8593268,-7.476217,4.6146874,0.11146117,-1.5344197,0.030838214,0.3653653,0
0.9400000000000006,11.582557780411403,1.2745593794632064,-2.3840773410641707,-0.7182174296591151,14.767399,-0.57310903,-1.2822684,-0.3278172,8.677401,-7.9732933,2.0289922,-0.2723562,0.368416,-0.21877675,-0.86152685,-7.5372133,4.684376,0.08859356,-1.1322222,-0.30970025,0.31543538,0
0.9500000000000006,11.582557780411403,1.2745593794632064,-2.3840773410641707,-0.7182174296591151,14.767399,-0.57310903,-1.2822684,-0.3278172,8.6017275,-7.926114,2.029757,-0.2698781,0.36734602,-0.21460237,-0.86381054,-7.5973587,4.7511663,0.06430074,-0.7615434,-0.6283934,0.26515004,0
0.9600000000000006,11.307617606394647,2.645409874600553,-3.3230946466745266,-0.9471333528777843,15.503763,0.7413194,-3.2088103,-0.72444665,8.525454,-7.878274,2.0302799,-0.26855883,0.36456951,-0.21142031,-0.8661794,-7.657448,4.816758,0.04037925,-0.44399503,-0.9021219,0.21689591,0
0.9700000000000006,11.307617606394647,2.645409874600553,-3.3230946466745266,-0.9471333528777843,15.503763,0.7413194,-3.2088103,-0.72444665,8.448569,-7.82977,2.030581,-0.26841825,0.3600882,-0.20933376,-0.86860096,-7.719143,4.883642,0.019642422,-0.028000936,-1.2138097,0.16568793,0
0.9800000000000006,11.307617606394647,2.645409874600553,-3.3230946466745266,-0.9471333528777843,15.503763,0.7413194,-3.2088103,-0.72444665,8.37108,-7.7806096,2.030669,-0.26953122,0.35378593,-0.20847718,-0.8710487,-7.778366,4.94816,-0.0022267331,0.3577409,-1.5115644,0.11389466,0
0.9900000000000007,11.307617606394647,2.645409874600553,-3.3230946466745266,-0.9471333528777843,15.503763,0.7413194,-3.2088103,-0.72444665,8.293012,-7.730813,2.030534,-0.27181235,0.34575295,-0.20874053,-0.873499,-7.8349776,5.0109005,-0.024719236,0.71134216,-1.7909485,0.06211997,0
1.0000000000000007,11.537421574575,3.2675612413258204,-3.7099569524561895,-1.0997872661576076,15.845428,0.63186157,-3.3510609,-0.8849877,8.214387,-7.680392,2.0301788,-0.27512825,0.33616033,-0.2099763,-0.8759057,-7.8897495,5.073386,-0.046129216,1.0129035,-2.0299058,0.01259562,0
1.0100000000000007,11.537421574575,3.2675612413258204,-3.7099569524561895,-1.0997872661576076,15.845428,0.63186157,-3.3510609,-0.8849877,8.13522,-7.6293383,2.029625,-0.27944526,0.32503656,-0.21218161,-0.8782031,-7.9435506,5.137293,-0.06446463,1.3631501,-2.2906663,-0.04186888,0
1.0200000000000007,11.537421574575,3.2675612413258204,-3.7099569524561895,-1.0997872661576076,15.845428,0.63186157,-3.3510609,-0.8849877,8.055526,-7.5776453,2.0288944,-0.28472805,0.31240124,-0.2153459,-0.8803191,-7.9946904,5.2013574,-0.08138067,1.6600515,-2.5120676,-0.09378125,0
1.0300000000000007,11.537421574575,3.2675612413258204,-3.7099569524561895,-1.0997872661576076,15.845428,0.63186157,-3.3510609,-0.8849877,7.975335,-7.52531,2.0280025,-0.29081538,0.29846457,-0.21929447,-0.88218784,-8.042804,5.265771,-0.096738994,1.9106437,-2.698954,-0.14314625,0
1.0400000000000007,11.537421574575,3.2675612413258204,-3.7099569524561895,-1.0997872661576076,15.839741,0.20835625,-3.0893767,-0.81280017,7.894681,-7.4723287,2.026965,-0.29756826,0.28340578,-0.22387804,-0.8837494,-8.087513,5.3306046,-0.11053186,2.1221523,-2.8567035,-0.1900889,0
1.0500000000000007,11.537421574575,3.2675612413258204,-3.7099569524561895,-1.0997872661576076,15.839741,0.20835625,-3.0893767,-0.81280017,7.8135977,-7.418697,2.0257971,-0.30486748,0.26737794,-0.2289696,-0.8849508,-8.128483,5.3958883,-0.12278724,2.3006747,-2.989857,-0.23472805,0
1.0600000000000007,11.537421574575,3.2675612413258204,-3.7099569524561895,-1.0997872661576076,15.839741,0.20835625,-3.0893767,-0.81280017,7.732125,-7.36441,2.0245142,-0.3126105,0.25051248,-0.23446123,-0.8857462,-8.165418,5.4616165,-0.13356435,2.4513571,-3.1022468,-0.27717674,0
1.0700000000000007,11.537421574575,3.2675612413258204,-3.7099569524561895,-1.0997872661576076,15.839741,0.20835625,-3.0893767,-0.81280017,7.650304,-7.3094635,2.0231307,-0.32070923,0.23292296,-0.24026132,-0.8860966,-8.198056,5.527752,-0.14294949,2.5785427,-3.1971097,-0.3175425,0
1.0800000000000007,12.017679834487264,3.2001666495197756,-3.472428557760196,-1.1688332692047545,16.577501,-0.4906403,-2.115147,-0.57042,7.568179,-7.253854,2.0216599,-0.32908764,0.21470793,-0.24629214,-0.88596964,-8.226171,5.5942316,-0.15105225,2.6858962,-3.2771773,-0.35592747,0
1.0900000000000007,12.017679834487264,3.2001666495197756,-3.472428557760196,-1.1688332692047545,16.577501,-0.4906403,-2.115147,-0.57042,7.485791,-7.197564,2.0201325,-0.33765888,0.19604896,-0.2524941,-0.88532376,-8.250541,5.6637473,-0.15420999,2.7660031,-3.307717,-0.395817,0
1.1000000000000008,12.017679834487264,3.2001666495197756,-3.472428557760196,-1.1688332692047545,16.577501,-0.4906403,-2.115147,-0.57042,7.4031854,-7.1405783,2.0185792,-0.34635198,0.17709863,-0.25881836,-0.88413215,-8.269848,5.733434,-0.15633464,2.8336217,-3.3334913,-0.43374917,0
1.1100000000000008,12.017679834487264,3.2001666495197756,-3.472428557760196,-1.1688332692047545,16.577501,-0.4906403,-2.115147,-0.57042,7.320412,-7.0828953,2.0170093,-0.3551272,0.1578982,-0.26521876,-0.88239,-8.283978,5.80318,-0.15760495,2.8906994,-3.3552427,-0.46981996,0
1.1200000000000008,12.042504963991888,2.4892902767493945,-3.0166248633616384,-1.1104670406214177,16.103336,-1.200155,-1.38375,-0.19960326,7.237524,-7.024515,2.0154297,-0.36394963,0.13848473,-0.2716561,-0.88009423,-8.292838,5.872862,-0.15820542,2.9388797,-3.3735983,-0.50412077,0
1.1300000000000008,12.042504963991888,2.4892902767493945,-3.0166248633616384,-1.1104670406214177,16.103336,-1.200155,-1.38375,-0.19960326,7.154574,-6.9654384,2.0138478,-0.3726965,0.11915509,-0.2779161,-0.877304,-8.29638,5.942484,-0.15812087,2.8687203,-3.3179612,-0.5338744,0
1.1400000000000008,12.042504963991888,2.4892902767493945,-3.0166248633616384,-1.1104670406214177,16.103336,-1.200155,-1.38375,-0.19960326,7.0716147,-6.905667,2.012268,-0.38127896,0.100152224,-0.28383523,-0.8740902,-8.294649,6.0117407,-0.15772918,2.8095045,-3.2709992,-0.56216794,0
1.1500000000000008,12.042504963991888,2.4892902767493945,-3.0166248633616384,-1.1104670406214177,16.103336,-1.200155,-1.38375,-0.19960326,6.988699,-6.845206,2.0106936,-0.38971302,0.081433706,-0.28945056,-0.87046593,-8.287743,6.08047,-0.15719503,2.759525,-3.23136,-0.5890731,0
1.1600000000000008,11.945604931857558,1.3627777747077767,-2.088285437512891,-0.9264890260905766,13.097975,-1.4799201,-0.72801167,0.15110734,6.9058776,-6.78406,2.0091243,-0.3980103,0.06296389,-0.29479283,-0.8664414,-8.275756,6.1485186,-0.15667534,2.7173417,-3.1979015,-0.61465806,0
1.1700000000000008,11.945604931857558,1.3627777747077767,-2.088285437512891,-0.9264890260905766,13.097975,-1.4799201,-0.72801167,0.15110734,6.8232,-6.7222404,2.0075557,-0.40602666,0.045208804,-0.29965052,-0.8621533,-8.258945,6.2151995,-0.15710793,2.506137,-3.0247982,-0.6299597,0
1.1800000000000008,11.945604931857558,1.3627777747077767,-2.088285437512891,-0.9264890260905766,13.097975,-1.4799201,-0.72801167,0.15110734,6.7407146,-6.659759,2.0059812,-0.41366342,0.028538741,-0.30387136,-0.8577473,-8.237505,6.280934,-0.15780446,2.3278632,-2.8786988,-0.6445105,0
1.1900000000000008,11.945604931857558,1.3627777747077767,-2.088285437512891,-0.9264890260905766,13.097975,-1.4799201,-0.72801167,0.15110734,6.6584654,-6.5966253,2.0043983,-0.42098683,0.012795524,-0.30755708,-0.85323805,-8.211749,6.345617,-0.15884243,2.1773858,-2.755391,-0.65834725,0
1.2000000000000008,11.735340093746945,0.07283686071250463,-1.0679454544572453,-0.6346593092382135,12.668291,-2.3005114,0.015451148,0.38346756,6.5764937,-6.5328507,2.0028028,-0.42804965,-0.002155888,-0.31079158,-0.8486328,-8.181946,6.4091587,-0.16028535,2.05037,-2.651319,-0.67150503,0
1.2100000000000009,11.735340093746945,0.07283686071250463,-1.0679454544572453,-0.6346593092382135,12.668291,-2.3005114,0.015451148,0.38346756,6.494837,-6.4684515,2.0011826,-0.43474257,-0.015873715,-0.3133848,-0.84411913,-8.148954,6.470391,-0.16387114,1.7420855,-2.4042559,-0.669697,0
1.2200000000000009,11.735340093746945,0.07283686071250463,-1.0679454544572453,-0.6346593092382135,12.668291,-2.3005114,0.015451148,0.38346756,6.4135265,-6.4034467,1.9995241,-0.44099268,-0.028015144,-0.31520143,-0.8398743,-8.112666,6.530397,-0.16787863,1.4818605,-2.195744,-0.6679777,0
1.2300000000000009,11.735340093746945,0.07283686071250463,-1.0679454544572453,-0.6346593092382135,12.668291,-2.3005114,0.015451148,0.38346756,6.3325934,-6.337848,1.9978237,-0.4468839,-0.03882079,-0.31637597,-0.8358793,-8.073498,6.589167,-0.1722608,1.2622029,-2.0197675,-0.66634274,0
1.2400000000000009,11.735340093746945,0.07283686071250463,-1.0679454544572453,-0.6346593092382135,12.315521,-3.2513378,0.5944618,0.78945243,6.2520647,-6.2716684,1.9960777,-0.45248258,-0.048495032,-0.31701848,-0.83211017,-8.031799,6.646701,-0.17696781,1.0767881,-1.8712499,-0.6647881,0
1.2500000000000009,11.735340093746945,0.07283686071250463,-1.0679454544572453,-0.6346593092382135,12.315521,-3.2513378,0.5944618,0.78945243,6.1719646,-6.2049193,1.9942833,-0.45784158,-0.05721122,-0.3172192,-0.828541,-7.9878626,6.7030053,-0.18195051,0.92027843,-1.7459064,-0.66330975,0
1.260000000000001,11.735340093746945,0.07283686071250463,-1.0679454544572453,-0.6346593092382135,12.315521,-3.2513378,0.5944618,0.78945243,6.0923142,-6.1376133,1.992438,-0.46300295,-0.065116264,-0.31705227,-0.82514614,-7.9419384,6.758089,-0.1871625,0.7881677,-1.640121,-0.66190386,0
1.270000000000001,11.735340093746945,0.07283686071250463,-1.0679454544572453,-0.6346593092382135,12.315521,-3.2513378,0.5944618,0.78945243,6.013132,-6.0697627,1.9905396,-0.46800026,-0.07233456,-0.3165788,-0.82190114,-7.894236,6.8119645,-0.19256137,0.67665213,-1.5508418,-0.6605669,0
1.280000000000001,11.563220837308762,-1.0523877227308434,-0.15007422715916252,-0.2910822659228424,11.289064,-3.5662146,0.98179334,1.3112663,5.934435,-6.0013785,1.9885862,-0.47286054,-0.07897141,-0.31584913,-0.8187832,-7.8449335,6.864642,-0.1981092,0.582521,-1.4754934,-0.6592957,0
1.290000000000001,11.563220837308762,-1.0523877227308434,-0.15007422715916252,-0.2910822659228424,11.289064,-3.5662146,0.98179334,1.3112663,5.856234,-5.9324775,1.9865701,-0.47749236,-0.08461542,-0.31470847,-0.81596565,-7.7949524,6.915385,-0.20511766,0.3276617,-1.2686815,-0.64122736,0
1.300000000000001,11.563220837308762,-1.0523877227308434,-0.15007422715916252,-0.2910822659228424,11.289064,-3.5662146,0.98179334,1.3112663,5.778539,-5.8630743,1.9844838,-0.48182613,-0.088946715,-0.3130408,-0.8135955,-7.7438726,6.965027,-0.21212888,0.11252891,-1.0941442,-0.62404567,0
1.310000000000001,11.563220837308762,-1.0523877227308434,-0.15007422715916252,-0.2910822659228424,11.289064,-3.5662146,0.98179334,1.3112663,5.7013593,-5.79318,1.9823278,-0.48590875,-0.09217076,-0.31093448,-0.81161386,-7.6920013,7.0136414,-0.21903296,-0.06906913,-0.9468439,-0.607707,0
1.320000000000001,11.427017435779597,-1.973080111134999,0.3858384844686315,0.12214044967652998,11.847635,-4.039863,1.8338358,1.7754425,5.624701,-5.7228045,1.9801037,-0.48977736,-0.0944609,-0.30846196,-0.80996704,-7.639597,7.0612946,-0.22573465,-0.22235966,-0.8225296,-0.5921702,0
1.330000000000001,11.427017435779597,-1.973080111134999,0.3858384844686315,0.12214044967652998,11.847635,-4.039863,1.8338358,1.7754425,5.5485654,-5.65196,1.9778086,-0.49338916,-0.09562456,-0.3054851,-0.8087658,-7.5875163,7.1074977,-0.23322302,-0.49529624,-0.633991,-0.5571188,0
1.340000000000001,11.427017435779597,-1.973080111134999,0.3858384844686315,0.12214044967652998,11.847635,-4.039863,1.8338358,1.7754425,5.4729505,-5.5806575,1.9754406,-0.49670565,-0.09551741,-0.30189672,-0.80809563,-7.5354514,7.152885,-0.24029136,-0.7256875,-0.47488096,-0.5237873,0
1.350000000000001,11.427017435779597,-1.973080111134999,0.3858384844686315,0.12214044967652998,11.847635,-4.039863,1.8338358,1.7754425,5.3978553,-5.508905,1.9730046,-0.4997581,-0.09433915,-0.29779196,-0.8078751,-7.483701,7.197528,-0.24681348,-0.9201648,-0.34060484,-0.49209145,0
1.360000000000001,11.53616524642606,-2.6867163049208878,1.0245426434727307,0.483013494983683,12.782429,-4.5771384,2.823035,1.8400234,5.323275,-5.436709,1.9705064,-0.5025709,-0.09225812,-0.2932495,-0.8080321,-7.432521,7.241487,-0.252687,-1.0843254,-0.22728492,-0.4619509,0
1.370000000000001,11.53616524642606,-2.6867163049208878,1.0245426434727307,0.483013494983683,12.782429,-4.5771384,2.823035,1.8400234,5.249205,-5.3640747,1.9679577,-0.5050786,-0.08907883,-0.28822818,-0.8086317,-7.3816648,7.2852354,-0.25693673,-1.3341573,-0.03202807,-0.41558123,0
1.380000000000001,11.53616524642606,-2.6867163049208878,1.0245426434727307,0.483013494983683,12.782429,-4.5771384,2.823035,1.8400234,5.175638,-5.291006,1.9653707,-0.5072222,-0.084653795,-0.28269687,-0.8097173,-7.3319254,7.32844,-0.26034024,-1.545047,0.13275649,-0.37148693,0
1.390000000000001,11.53616524642606,-2.6867163049208878,1.0245426434727307,0.483013494983683,12.782429,-4.5771384,2.823035,1.8400234,5.102562,-5.2175083,1.9627542,-0.5090271,-0.07917851,-0.2767283,-0.811199,-7.2836,7.3711867,-0.26280892,-1.7230632,0.27182615,-0.32955638,0
1.400000000000001,11.66361276272666,-3.0019423362640865,1.3418502617084804,0.7832664754079557,14.564634,-4.638925,2.445665,1.6965858,5.0299606,-5.1435843,1.960118,-0.51051396,-0.072817944,-0.27038306,-0.8129983,-7.2369432,7.413544,-0.26428095,-1.873329,0.3891956,-0.28968334,0
1.410000000000001,11.66361276272666,-3.0019423362640865,1.3418502617084804,0.7832664754079557,14.564634,-4.638925,2.445665,1.6965858,4.9578195,-5.0692363,1.9574776,-0.5116435,-0.0655536,-0.26367137,-0.8151082,-7.1916914,7.4560347,-0.26363677,-2.0493257,0.5377248,-0.23703338,0
1.420000000000001,11.66361276272666,-3.0019423362640865,1.3418502617084804,0.7832664754079557,14.564634,-4.638925,2.445665,1.6965858,4.88612,-4.9944644,1.954849,-0.5123786,-0.057378534,-0.25660262,-0.8175154,-7.14861,7.498254,-0.26191193,-2.197888,0.6630792,-0.18696697,0
1.430000000000001,11.66361276272666,-3.0019423362640865,1.3418502617084804,0.7832664754079557,14.564634,-4.638925,2.445665,1.6965858,4.814839,-4.919272,1.9522432,-0.5127374,-0.048437115,-0.24922258,-0.82014793,-7.1079335,7.5402565,-0.25909343,-2.3232908,0.7688766,-0.13935731,0
1.440000000000001,11.66361276272666,-3.0019423362640865,1.3418502617084804,0.7832664754079557,14.893858,-4.320138,2.2761135,1.6911616,4.743952,-4.84366,1.949671,-0.51273555,-0.038851496,-0.24157041,-0.8229439,-7.0698657,7.5820823,-0.25518963,-2.4291434,0.8581696,-0.09408389,0
1.450000000000001,11.66361276272666,-3.0019423362640865,1.3418502617084804,0.7832664754079557,14.893858,-4.320138,2.2761135,1.6911616,4.673432,-4.7676306,1.9471431,-0.5123868,-0.028725185,-0.23367949,-0.8258503,-7.0345845,7.623755,-0.25022718,-2.5184925,0.93353426,-0.051032037,0
1.460000000000001,11.66361276272666,-3.0019423362640865,1.3418502617084804,0.7832664754079557,14.893858,-4.320138,2.2761135,1.6911616,4.60325,-4.691185,1.9446698,-0.5117031,-0.01814595,-0.22557864,-0.8288216,-7.0022454,7.6652875,-0.24424836,-2.5939107,0.9971442,-0.010092763,0
1.470000000000001,11.66361276272666,-3.0019423362640865,1.3418502617084804,0.7832664754079557,14.893858,-4.320138,2.2761135,1.6911616,4.533376,-4.614325,1.9422613,-0.5106955,-0.0071882866,-0.21729288,-0.8318188,-6.9729843,7.7066827,-0.23730871,-2.6575692,1.050834,0.028837595,0
1.480000000000001,11.6375688390564,-2.9109767040748453,1.2773742030926656,1.0069676326289123,13.433128,-4.1860313,1.8046923,1.6240383,4.4637794,-4.5370526,1.9399267,-0.50937426,0.004084509,-0.20884399,-0.83480877,-6.946918,7.7479343,-0.22947486,-2.7113016,1.0961516,0.06585764,0
1.490000000000001,11.6375688390564,-2.9109767040748453,1.2773742030926656,1.0069676326289123,13.433128,-4.1860313,1.8046923,1.6240383,4.394427,-4.459368,1.9376734,-0.5077317,0.015572788,-0.20026861,-0.83777016,-6.9241977,7.788935,-0.22106147,-2.742476,1.1243296,0.11203818,0
1.500000000000001,11.6375688390564,-2.9109767040748453,1.2773742030926656,1.0069676326289123,13.433128,-4.1860313,1.8046923,1.6240383,4.3252845,-4.3812747,1.9355079,-0.5057606,0.027193904,-0.1915984,-0.84068847,-6.904837,7.829754,-0.21191707,-2.7687883,1.1481159,0.15595263,0
1.5100000000000011,11.6375688390564,-2.9109767040748453,1.2773742030926656,1.0069676326289123,13.433128,-4.1860313,1.8046923,1.6240383,4.2563186,-4.302774,1.9334372,-0.5034714,0.038921036,-0.18284446,-0.8435461,-6.8888936,7.8703613,-0.20213205,-2.7909966,1.1681954,0.19771221,0
1.5200000000000011,11.250598181389991,-2.519732373375731,0.5748185143101896,1.1484357989758638,13.130936,-3.2913787,1.4201231,1.4987366,4.1874943,-4.223868,1.9314672,-0.50087386,0.050731312,-0.17401676,-0.8463275,-6.8764153,7.9107237,-0.1918002,-2.8097403,1.1851467,0.2374226,0
1.5300000000000011,11.250598181389991,-2.519732373375731,0.5748185143101896,1.1484357989758638,13.130936,-3.2913787,1.4201231,1.4987366,4.118776,-4.144567,1.9295847,-0.49802053,0.06228584,-0.16511777,-0.8490185,-6.8677263,7.949464,-0.18463676,-2.7645311,1.0898925,0.2821263,0
1.5400000000000011,11.250598181389991,-2.519732373375731,0.5748185143101896,1.1484357989758638,13.130936,-3.2913787,1.4201231,1.4987366,4.0501285,-4.0648804,1.9277757,-0.49495643,0.073314965,-0.15615384,-0.85162157,-6.862352,7.987832,-0.17711604,-2.7263684,1.0094985,0.3246364,0
1.5500000000000012,11.250598181389991,-2.519732373375731,0.5748185143101896,1.1484357989758638,13.130936,-3.2913787,1.4201231,1.4987366,3.9815185,-3.9848123,1.9260434,-0.49168047,0.08389424,-0.14713807,-0.85414445,-6.860211,8.025729,-0.16931047,-2.694154,0.94164616,0.36506045,0
1.5600000000000012,11.047750459694706,-1.9352560632527884,0.14216868942475294,1.1711251743220124,13.451939,-2.6862657,0.9358465,1.9010729,3.9129138,-3.904368,1.9243902,-0.4881927,0.09408771,-0.13808142,-0.8565916,-6.8612313,8.0630665,-0.16128951,-2.666962,0.88437915,0.40350088,0
1.5700000000000012,11.047750459694706,-1.9352560632527884,0.14216868942475294,1.1711251743220124,13.451939,-2.6862657,0.9358465,1.9010729,3.8442836,-3.8235567,1.9228084,-0.48453915,0.1036872,-0.12910995,-0.85895383,-6.865262,8.099102,-0.15503548,-2.5528414,0.76859885,0.44116843,0
1.5800000000000012,11.047750459694706,-1.9352560632527884,0.14216868942475294,1.1711251743220124,13.451939,-2.6862657,0.9358465,1.9010729,3.7755985,-3.7423882,1.9212897,-0.4807623,0.11253221,-0.12032661,-0.861235,-6.872171,8.13443,-0.14869007,-2.4565172,0.6708776,0.47698763,0
1.5900000000000012,11.047750459694706,-1.9352560632527884,0.14216868942475294,1.1711251743220124,13.451939,-2.6862657,0.9358465,1.9010729,3.7068307,-3.6608708,1.9198346,-0.47685817,0.12073716,-0.11170808,-0.8634525,-6.8818007,8.16898,-0.14229952,-2.3752146,0.5883982,0.51104915,0
1.6000000000000012,10.89282679925006,-1.289299087460921,-0.25909166887744034,1.1203569412298213,13.2236805,-1.534326,0.1801209,1.3622917,3.6379535,-3.5790114,1.9184437,-0.47282356,0.12839875,-0.103234045,-0.865618,-6.894015,8.20269,-0.13590464,-2.306591,0.518783,0.5434393,0
1.6100000000000012,10.89282679925006,-1.289299087460921,-0.25909166887744034,1.1203569412298213,13.2236805,-1.534326,0.1801209,1.3622917,3.5689428,-3.4968219,1.9171091,-0.4687126,0.13533866,-0.09503455,-0.8677329,-6.908475,8.235047,-0.13100538,-2.1479096,0.39749002,0.57174885,0
1.6200000000000012,10.89282679925006,-1.289299087460921,-0.25909166887744034,1.1203569412298213,13.2236805,-1.534326,0.1801209,1.3622917,3.4997761,-3.4143136,1.9158233,-0.46457368,0.14142188,-0.08721327,-0.8698075,-6.925155,8.2664795,-0.12615547,-2.0139768,0.29511103,0.5986692,0
1.6300000000000012,10.89282679925006,-1.289299087460921,-0.25909166887744034,1.1203569412298213,13.2236805,-1.534326,0.1801209,1.3622917,3.4304326,-3.3314958,1.9145857,-0.46039632,0.14678183,-0.079717666,-0.8718575,-6.9438562,8.296954,-0.12136493,-1.9009334,0.20869562,0.62426853,0
1.6400000000000012,10.89282679925006,-1.289299087460921,-0.25909166887744034,1.1203569412298213,12.998882,-0.9005126,-0.38084513,1.2077527,3.3608928,-3.248378,1.9133958,-0.45617142,0.15153095,-0.07250253,-0.87389326,-6.9644113,8.326445,-0.11664048,-1.8055218,0.13575457,0.6486117,0
1.6500000000000012,10.89282679925006,-1.289299087460921,-0.25909166887744034,1.1203569412298213,12.998882,-0.9005126,-0.38084513,1.2077527,3.2911384,-3.1649704,1.9122527,-0.45189133,0.15576398,-0.065529056,-0.87592113,-6.9866753,8.354925,-0.11198707,-1.7249925,0.074186444,0.6717603,0
1.6600000000000013,10.89282679925006,-1.289299087460921,-0.25909166887744034,1.1203569412298213,12.998882,-0.9005126,-0.38084513,1.2077527,3.2211535,-3.081283,1.9111559,-0.44754982,0.15956075,-0.058763936,-0.8779444,-7.0105243,8.382375,-0.10740884,-1.6570239,0.022217762,0.6937731,0
1.6700000000000013,10.89282679925006,-1.289299087460921,-0.25909166887744034,1.1203569412298213,12.998882,-0.9005126,-0.38084513,1.2077527,3.1509228,-2.9973264,1.9101044,-0.44314182,0.16298851,-0.052178625,-0.8799645,-7.035853,8.408776,-0.10290975,-1.5996574,-0.02164832,0.7147057,0
1.6800000000000013,10.760394458782658,-0.7341569235172577,-0.6117699734361178,1.0274305623808853,16.409843,-1.6010661,-3.1835313,3.415688,3.0804315,-2.9131112,1.9090974,-0.4386635,0.1661039,-0.045748673,-0.88198125,-7.0625687,8.434113,-0.098494,-1.551239,-0.058675148,0.73461115,0
1.6900000000000013,10.760394458782658,-0.7341569235172577,-0.6117699734361178,1.0274305623808853,16.409843,-1.6010661,-3.1835313,3.415688,3.0096684,-2.8286495,1.908128,-0.43416592,0.1687337,-0.039585754,-0.8840034,-7.090238,8.4580765,-0.09540856,-1.4237729,-0.14488238,0.74897987,0
1.7000000000000013,10.760394458782658,-0.7341569235172577,-0.6117699734361178,1.0274305623808853,16.409843,-1.6010661,-3.1835313,3.415688,2.9386227,-2.7439532,1.9071891,-0.42969263,0.17074454,-0.033778097,-0.88604164,-7.1190386,8.480972,-0.09239134,-1.3161904,-0.21765251,0.7626435,0
1.7100000000000013,10.760394458782658,-0.7341569235172577,-0.6117699734361178,1.0274305623808853,16.409843,-1.6010661,-3.1835313,3.415688,2.867284,-2.6590333,1.90628,-0.42523068,0.17223375,-0.02827436,-0.8880964,-7.148819,8.502804,-0.08942211,-1.2253898,-0.2790802,0.77563673,0
1.7200000000000013,10.501624851354238,-0.2230775462028881,-1.3622518278741667,0.8814388085357435,16.483593,-1.3672369,-3.7156897,3.4378889,2.7956433,-2.5739007,1.9054005,-0.42076918,0.17328317,-0.023030682,-0.89016634,-7.179451,8.523571,-0.08648299,-1.1487535,-0.33093348,0.7879923,0
1.7300000000000013,10.501624851354238,-0.2230775462028881,-1.3622518278741667,0.8814388085357435,16.483593,-1.3672369,-3.7156897,3.4378889,2.7236962,-2.488568,1.9045382,-0.41635722,0.17360881,-0.018062944,-0.8922896,-7.210054,8.542798,-0.08598248,-1.004311,-0.491696,0.7925777,0
1.7400000000000013,10.501624851354238,-0.2230775462028881,-1.3622518278741667,0.8814388085357435,16.483593,-1.3672369,-3.7156897,3.4378889,2.6514406,-2.4030485,1.903681,-0.41203442,0.17298932,-0.013383016,-0.89449626,-7.24117,8.560961,-0.085440725,-0.88240635,-0.6273983,0.7969381,0
1.7500000000000013,10.501624851354238,-0.2230775462028881,-1.3622518278741667,0.8814388085357435,16.483593,-1.3672369,-3.7156897,3.4378889,2.578872,-2.3173528,1.9028298,-0.40777937,0.1715723,-0.008950399,-0.8967715,-7.2726026,8.578033,-0.084804505,-0.779523,-0.7419471,0.80108464,0
1.7600000000000013,10.504435436967583,0.05674514849798844,-1.2110779492732966,0.7476535558877514,14.384552,-0.8704431,-2.9254298,1.1423947,2.5059881,-2.2314918,1.9019854,-0.40357378,0.16948183,-0.004730258,-0.8991007,-7.3041835,8.593995,-0.08402983,-0.69269305,-0.8386399,0.80502766,0
1.7700000000000014,10.504435436967583,0.05674514849798844,-1.2110779492732966,0.7476535558877514,14.384552,-0.8704431,-2.9254298,1.1423947,2.4327884,-2.1454768,1.9011497,-0.39943603,0.166832,-0.00081496517,-0.9014531,-7.335775,8.60884,-0.0830549,-0.57578975,-0.89665926,0.8022123,0
1.7800000000000014,10.504435436967583,0.05674514849798844,-1.2110779492732966,0.7476535558877514,14.384552,-0.8704431,-2.9254298,1.1423947,2.3592732,-2.0593185,1.900325,-0.3953828,0.16371931,0.0027246047,-0.9038038,-7.367231,8.622589,-0.08187914,-0.47712234,-0.9456402,0.7995351,0
1.7900000000000014,10.504435436967583,0.05674514849798844,-1.2110779492732966,0.7476535558877514,14.384552,-0.8704431,-2.9254298,1.1423947,2.2854447,-1.9730283,1.8995129,-0.3913977,0.16021626,0.0059451563,-0.9061476,-7.398431,8.635278,-0.08048161,-0.39384604,-0.98699105,0.7969893,0
1.8000000000000014,10.585152481692148,0.15748852580769326,-0.9580288788007577,0.6495927151253234,13.874207,-0.76658154,-2.7851772,1.0940886,2.2113059,-1.8866165,1.898716,-0.38746688,0.15638374,0.008894839,-0.9084793,-7.4292703,8.64694,-0.07884624,-0.32356018,-1.0219003,0.7945684,0
1.8100000000000014,10.585152481692148,0.15748852580769326,-0.9580288788007577,0.6495927151253234,13.874207,-0.76658154,-2.7851772,1.0940886,2.1368594,-1.8000925,1.8979406,-0.38359714,0.15234947,0.011540691,-0.9107744,-7.4598966,8.657688,-0.076194175,-0.2485508,-1.0118996,0.78745437,0
1.8200000000000014,10.585152481692148,0.15748852580769326,-0.9580288788007577,0.6495927151253234,13.874207,-0.76658154,-2.7851772,1.0940886,2.0621095,-1.7134659,1.897193,-0.37979573,0.14821777,0.01385947,-0.91301423,-7.490007,8.66749,-0.07329049,-0.18523794,-1.003465,0.7806895,0
1.8300000000000014,10.585152481692148,0.15748852580769326,-0.9580288788007577,0.6495927151253234,13.874207,-0.76658154,-2.7851772,1.0940886,1.9870613,-1.6267457,1.8964757,-0.37605253,0.14400426,0.015901959,-0.9152021,-7.5195494,8.676404,-0.07013729,-0.13179778,-0.99635166,0.7742565,0
1.8400000000000014,10.585152481692148,0.15748852580769326,-0.9580288788007577,0.6495927151253234,13.61133,-0.73243606,-2.79713,1.065086,1.9117206,-1.5399407,1.895791,-0.37235877,0.13972193,0.017711066,-0.9173404,-7.5484805,8.684482,-0.066737525,-0.08669083,-0.9903521,0.76813924,0
1.8500000000000014,10.585152481692148,0.15748852580769326,-0.9580288788007577,0.6495927151253234,13.61133,-0.73243606,-2.79713,1.065086,1.8360939,-1.4530588,1.8951418,-0.3687072,0.13538158,0.019323047,-0.9194312,-7.576762,8.691766,-0.06309493,-0.048617378,-0.985292,0.7623222,0
1.8600000000000014,10.585152481692148,0.15748852580769326,-0.9580288788007577,0.6495927151253234,13.61133,-0.73243606,-2.79713,1.065086,1.7601877,-1.366108,1.8945302,-0.3650916,0.1309922,0.020768529,-0.92147607,-7.6043615,8.698294,-0.059213974,-0.016480852,-0.9810244,0.75679046,0
1.8700000000000014,10.585152481692148,0.15748852580769326,-0.9580288788007577,0.6495927151253234,13.61133,-0.73243606,-2.79713,1.065086,1.6840092,-1.2790954,1.8939584,-0.36150658,0.12656134,0.022073375,-0.9234762,-7.63125,8.704101,-0.055099785,0.010644395,-0.97742486,0.75153023,0
1.8800000000000014,10.631928055613821,0.02575968451260556,-0.7110179149766922,0.5874954030036278,14.271904,-0.94354475,-2.983094,1.2566322,1.6075654,-1.1920283,1.893429,-0.3579477,0.12209528,0.023259427,-0.9254326,-7.657403,8.709216,-0.05075806,0.033540025,-0.97438896,0.7465281,0
1.8900000000000015,10.631928055613821,0.02575968451260556,-0.7110179149766922,0.5874954030036278,14.271904,-0.94354475,-2.983094,1.2566322,1.5308633,-1.1049132,1.8929462,-0.35441425,0.11770946,0.024359664,-0.92733055,-7.6829166,8.713686,-0.04574263,0.032302108,-0.9333171,0.7387243,0
1.9000000000000015,10.631928055613821,0.02575968451260556,-0.7110179149766922,0.5874954030036278,14.271904,-0.94354475,-2.983094,1.2566322,1.4539096,-1.0177567,1.8925147,-0.35090747,0.11349573,0.025401814,-0.92915964,-7.7076893,8.717519,-0.040521037,0.03126085,-0.8986503,0.73130345,0
1.9100000000000015,10.631928055613821,0.02575968451260556,-0.7110179149766922,0.5874954030036278,14.271904,-0.94354475,-2.983094,1.2566322,1.3767118,-0.9305649,1.8921363,-0.34742606,0.1094271,0.026395688,-0.9309266,-7.731742,8.720745,-0.03510878,0.030385181,-0.86938965,0.72424674,0
1.9200000000000015,10.461282921975457,-0.10983562983694287,-0.6545430107869934,0.46333145032064754,14.205935,-1.1189717,-3.004265,1.3622453,1.2992771,-0.84334373,1.891813,-0.34396863,0.105480745,0.027349453,-0.9326369,-7.7550926,8.723389,-0.029519424,0.029648678,-0.8446922,0.71753633,0
1.9300000000000015,10.461282921975457,-0.10983562983694287,-0.6545430107869934,0.46333145032064754,14.205935,-1.1189717,-3.004265,1.3622453,1.2216141,-0.75609916,1.8915381,-0.3405432,0.10167663,0.028314415,-0.9342862,-7.7773943,8.725438,-0.025432253,0.007875665,-0.8150487,0.70506245,0
1.9400000000000015,10.461282921975457,-0.10983562983694287,-0.6545430107869934,0.46333145032064754,14.205935,-1.1189717,-3.004265,1.3622453,1.1437314,-0.66883683,1.891305,-0.33715835,0.09802934,0.029331854,-0.9358708,-7.7990494,8.726945,-0.021196656,-0.010498882,-0.79002637,0.69320065,0
1.9500000000000015,10.461282921975457,-0.10983562983694287,-0.6545430107869934,0.46333145032064754,14.205935,-1.1189717,-3.004265,1.3622453,1.0656351,-0.5815621,1.8911148,-0.33381337,0.09451385,0.030394422,-0.93739635,-7.8200855,8.727916,-0.016825479,-0.02600552,-0.76890457,0.68192095,0
1.9600000000000015,10.908796215764527,-0.5263665707082139,-0.1895614800530803,0.5489525550075116,13.05422,-0.75423384,-2.7408729,1.0283546,0.9873317,-0.4942803,1.890969,-0.33050737,0.09110908,0.031495802,-0.9388674,-7.8405247,8.728358,-0.012329946,-0.039092015,-0.75107545,0.67119473,0
1.9700000000000015,10.908796215764527,-0.5263665707082139,-0.1895614800530803,0.5489525550075116,13.05422,-0.75423384,-2.7408729,1.0283546,0.9088224,-0.40699673,1.8908906,-0.32722026,0.08802728,0.03272497,-0.9402697,-7.861247,8.728271,-0.0033285338,-0.115123026,-0.6635404,0.66519624,0
1.9800000000000015,10.908796215764527,-0.5263665707082139,-0.1895614800530803,0.5489525550075116,13.05422,-0.75423384,-2.7408729,1.0283546,0.8301084,-0.31971675,1.8909028,-0.3239356,0.08543561,0.034152992,-0.9415944,-7.8814726,8.727637,0.005765952,-0.17929047,-0.5896508,0.6594922,0
1.9900000000000015,10.908796215764527,-0.5263665707082139,-0.1895614800530803,0.5489525550075116,13.05422,-0.75423384,-2.7408729,1.0283546,0.7511943,-0.23244588,1.8910062,-0.3206569,0.08325689,0.035750452,-0.94285166,-7.9013042,8.726453,0.014929343,-0.23344548,-0.52727956,0.654068,0
2.0000000000000013,,,,,12.01335,-0.17158629,-2.9554076,0.53830767,0.6720834,-0.1451896,1.8912015,-0.31738648,0.08142603,0.037492257,-0.94404966,-7.9208293,8.724715,0.02414161,-0.27915034,-0.47463095,0.6489099,0
2.010000000000001,,,,,12.01335,-0.17158629,-2.9554076,0.53830767,0.5927758,-0.057953782,1.8915038,-0.31411117,0.0800926,0.03945902,-0.9451784,-7.9406652,8.722358,0.03636022,-0.3811918,-0.36720607,0.64728045,0
2.020000000000001,,,,,12.01335,-0.17158629,-2.9554076,0.53830767,0.5132705,0.02925554,1.8919287,-0.31081975,0.07937197,0.041714065,-0.9462298,-7.960406,8.719415,0.04858169,-0.46731278,-0.2765271,0.6457309,0
2.0300000000000007,,,,,12.01335,-0.17158629,-2.9554076,0.53830767,0.4335676,0.11643243,1.8924756,-0.30751586,0.07916744,0.044214092,-0.9472124,-7.9801874,8.715867,0.060778003,-0.5399969,-0.1999837,0.6442574,0
2.0400000000000005,,,,,12.01335,-0.17158629,-2.9554076,0.53830767,0.35366622,0.20357077,1.8931442,-0.30420208,0.07939745,0.046922214,-0.94813246,-8.000125,8.7117,0.072924726,-0.601341,-0.1353724,0.6428563,0
2.0500000000000003,,,,,11.841408,-0.35528538,-2.8975103,0.49236846,0.27356422,0.2906643,1.8939339,-0.30088028,0.0799932,0.049807027,-0.9489948,-8.020312,8.706902,0.08500016,-0.6531142,-0.0808332,0.64152384,1
2.06,,,,,11.841408,-0.35528538,-2.8975103,0.49236846,0.1932532,0.377705,1.8948748,-0.29752144,0.07964427,0.05299633,-0.94991004,-8.041923,8.701121,0.103181906,-0.6064869,-0.5200702,0.63420475,1
2.07,,,,,11.841408,-0.35528538,-2.8975103,0.49236846,0.112725936,0.4646836,1.8959974,-0.29409868,0.077308364,0.0565847,-0.95096135,-8.063492,8.694434,0.121322304,-0.567163,-0.89081186,0.62724483,1
2.0799999999999996,,,,,11.841408,-0.35528538,-2.8975103,0.49236846,0.03198488,0.55158985,1.8973013,-0.29061463,0.07329273,0.06050328,-0.95210844,-8.084621,8.686624,0.13947313,-0.53399825,-1.2037396,0.6206264,1
2.0899999999999994,,,,,10.430037,-2.0044208,-3.690545,0.7637929,-0.048963808,0.6384116,1.898787,-0.28707016,0.06785651,0.06469426,-0.95331043,-8.10497,8.677513,0.1576685,-0.5060274,-1.4678688,0.61433274,1
2.099999999999999,,,,,10.430037,-2.0044208,-3.690545,0.7637929,-0.13009922,0.72514117,1.9003856,-0.2833678,0.06110622,0.069826744,-0.9545118,-8.121949,8.668183,0.16205242,-0.73955387,-1.8145907,0.6216667,1
2.109999999999999,,,,,10.430037,-2.0044208,-3.690545,0.7637929,-0.21139888,0.8117696,1.9020281,-0.27942434,0.05313431,0.07642698,-0.95564514,-8.137789,8.657225,0.16645709,-0.9366812,-2.1072288,0.6286409,1
2.1199999999999988,,,,,10.430037,-2.0044208,-3.690545,0.7637929,-0.29285052,0.8982789,1.9037144,-0.2752575,0.044124655,0.08425723,-0.9566541,-8.15232,8.644303,0.17082623,-1.1030834,-2.354219,0.6352728,1
2.1299999999999986,,,,,9.82476,-2.409131,-3.6630664,0.7172517,-0.37444028,0.984648,1.9054441,-0.27088103,0.034233883,0.09311599,-0.95748675,-8.165396,8.629146,0.17508464,-1.2435497,-2.5626814,0.64157933,1
2.1399999999999983,,,,,9.82476,-2.409131,-3.6630664,0.7172517,-0.45614958,1.0708582,1.9071859,-0.26630747,0.023649337,0.10298461,-0.9580789,-8.176216,8.612546,0.17320989,-1.4252431,-2.7343652,0.6452926,1
2.149999999999998,,,,,9.82476,-2.409131,-3.6630664,0.7172517,-0.5379592,1.1568902,1.9089074,-0.26154947,0.012526987,0.11383829,-0.95837146,-8.1854515,8.593417,0.17102993,-1.5786124,-2.8792639,0.6488236,1
2.159999999999998,,,,,9.82476,-2.409131,-3.6630664,0.7172517,-0.61985296,1.2427174,1.910605,-0.2566171,0.00094905053,0.12551033,-0.9583287,-8.1930275,8.571586,0.16841684,-1.7080731,-3.001556,0.6521814,1
2.1699999999999977,,,,,10.965052,-2.5290203,-3.679101,1.1190208,-0.70181394,1.328312,1.9122736,-0.2515187,-0.011013211,0.13785867,-0.9579207,-8.198877,8.546917,0.16523197,-1.8173523,-3.1047683,0.6553744,1
2.1799999999999975,,,,,10.965052,-2.5290203,-3.679101,1.1190208,-0.78382695,1.4136298,1.9139616,-0.24621356,-0.023285039,0.15081021,-0.95712745,-8.203409,8.516103,0.17225997,-1.9282511,-3.1944108,0.6781257,1
2.1899999999999973,,,,,10.965052,-2.5290203,-3.679101,1.1190208,-0.865875,1.4986225,1.9157153,-0.24066345,-0.0358007,0.16429989,-0.9559314,-8.205885,8.481913,0.17830788,-2.0218613,-3.2700677,0.69976056,1
