time-since-start [s],throttle_mpc,roll_mpc,pitch_mpc,yaw_mpc,throttle_nw,roll_nw,pitch_nw,yaw_nw,position_x [m],position_y [m],position_z [m],rotation_w [quaternion],rotation_x [quaternion],rotation_y [quaternion],rotation_z [quaternion],velocity_x [m/s],velocity_y [m/s],velocity_z [m/s],omega_x [rad/s],omega_y [rad/s],omega_z [rad/s],network_used
0.0,12.678176913738087,5.999999609727055,-5.999999884294976,-3.894150251531701,7.397855,-1.2086586,-1.8107846,-0.23838362,16.658035,-10.491577,1.3071088,-0.123516634,0.39882177,-0.23792987,-0.87696874,-8.7808275,-3.484091,-0.582589,1.3861026,-0.16205937,-0.108736776,0
0.01,12.678176913738087,5.999999609727055,-5.999999884294976,-3.894150251531701,12.222511,-1.6275154,-3.2487745,-0.07924989,16.569641,-10.525943,1.3013128,-0.12757328,0.39668754,-0.24374254,-0.8757588,-8.897382,-3.3890178,-0.5769678,1.5232841,-0.4903359,-0.2424086,0
0.02,12.678176913738087,5.999999609727055,-5.999999884294976,-3.894150251531701,12.222511,-1.6275154,-3.2487745,-0.07924989,16.4801,-10.559356,1.2955616,-0.13287774,0.39319074,-0.24970719,-0.87486607,-9.010057,-3.2934964,-0.5736018,1.6754732,-0.803895,-0.37278,0
0.03,12.678176913738087,5.999999609727055,-5.999999884294976,-3.894150251531701,12.222511,-1.6275154,-3.2487745,-0.07924989,16.389454,-10.591809,1.2898341,-0.13942811,0.38837096,-0.25588536,-0.87421405,-9.118438,-3.1974142,-0.5721425,1.8398331,-1.1045322,-0.49996802,0
0.04,12.678176913738087,5.999999609727055,-5.999999884294976,-3.894150251531701,10.112408,-1.325056,-3.527126,0.17511722,16.297749,-10.623301,1.2841132,-0.14721665,0.38225767,-0.2623233,-0.8737234,-9.222127,-3.1006665,-0.5722917,2.0139594,-1.3937528,-0.62408316,0
0.05,12.678176913738087,5.999999609727055,-5.999999884294976,-3.894150251531701,10.112408,-1.325056,-3.527126,0.17511722,16.20503,-10.653821,1.2783836,-0.1562301,0.37487182,-0.26905385,-0.8733116,-9.320742,-3.003167,-0.57379776,2.195813,-1.6728184,-0.74522984,0
0.060000000000000005,12.678176913738087,5.999999609727055,-5.999999884294976,-3.894150251531701,10.112408,-1.325056,-3.527126,0.17511722,16.111355,-10.683362,1.2726332,-0.1664499,0.3662273,-0.2760982,-0.8728927,-9.413911,-2.9048526,-0.5764523,2.3836656,-1.9427861,-0.86350673,0
0.07,12.678176913738087,5.999999609727055,-5.999999884294976,-3.894150251531701,10.112408,-1.325056,-3.527126,0.17511722,16.016773,-10.711917,1.2668511,-0.17785229,0.35633215,-0.28346688,-0.87237734,-9.501276,-2.8056927,-0.5800871,2.576053,-2.2045424,-0.97900707,0
0.08,14.201350749127567,5.999999592362997,-5.999999900053601,-4.0812092489537655,13.326981,-0.8836913,-4.35491,0.1453763,15.92135,-10.739474,1.2610284,-0.19040832,0.34518987,-0.29116103,-0.87167287,-9.582488,-2.7056916,-0.58457196,2.771734,-2.4588308,-1.0918192,0
0.09,14.201350749127567,5.999999592362997,-5.999999900053601,-4.0812092489537655,13.326981,-0.8836913,-4.35491,0.1453763,15.825113,-10.765983,1.2551981,-0.20413049,0.332768,-0.2991892,-0.8706789,-9.663813,-2.595987,-0.5816066,2.9846535,-2.7213333,-1.2125467,0
0.09999999999999999,14.201350749127567,5.999999592362997,-5.999999900053601,-4.0812092489537655,13.326981,-0.8836913,-4.35491,0.1453763,15.7281,-10.79139,1.2493937,-0.21902469,0.31902888,-0.30755147,-0.8692874,-9.737706,-2.4854856,-0.5793777,3.1991954,-2.9777856,-1.3304663,0
0.10999999999999999,14.201350749127567,5.999999592362997,-5.999999900053601,-4.0812092489537655,13.326981,-0.8836913,-4.35491,0.1453763,15.630387,-10.81569,1.243608,-0.2350436,0.30396494,-0.3162238,-0.867388,-9.803799,-2.374325,-0.57785016,3.4145463,-3.2285674,-1.4456656,0
0.11999999999999998,14.201350749127567,5.999999592362997,-5.999999900053601,-4.0812092489537655,13.326981,-0.8836913,-4.35491,0.1453763,15.532054,-10.838876,1.2378341,-0.25213352,0.28756836,-0.32517448,-0.8648666,-9.86174,-2.262701,-0.5770253,3.6300173,-3.4739962,-1.5582275,0
0.12999999999999998,16.05392367203398,5.255112334977383,-5.999999850124263,-3.623142651526551,12.180811,-1.3327442,-4.57595,0.2933739,15.433184,-10.860944,1.2320648,-0.27023405,0.26983228,-0.33436465,-0.86160547,-9.911205,-2.1508667,-0.5769394,3.8450253,-3.714339,-1.668231,0
0.13999999999999999,16.05392367203398,5.255112334977383,-5.999999850124263,-3.623142651526551,12.180811,-1.3327442,-4.57595,0.2933739,15.333852,-10.88187,1.2263125,-0.28936931,0.2504539,-0.34368783,-0.8575643,-9.953673,-2.0341754,-0.5733224,4.0642867,-4.071278,-1.7641591,0
0.15,16.05392367203398,5.255112334977383,-5.999999850124263,-3.623142651526551,12.180811,-1.3327442,-4.57595,0.2933739,15.234139,-10.901621,1.2206025,-0.30946052,0.2293109,-0.35297367,-0.85267806,-9.987259,-1.9156625,-0.5685021,4.2493906,-4.372526,-1.8553799,0
0.16,16.986826280707355,3.1075957012813844,-5.563864003363797,-1.3002651620217902,14.76869,-0.81307435,-3.9678855,0.18470046,15.13414,-10.920179,1.2149464,-0.33030105,0.2066481,-0.3620973,-0.8468075,-10.01129,-1.795839,-0.5625349,4.4056644,-4.6267676,-1.9421245,0
0.17,16.986826280707355,3.1075957012813844,-5.563864003363797,-1.3002651620217902,14.76869,-0.81307435,-3.9678855,0.18470046,15.033945,-10.9375,1.2093856,-0.35123172,0.18301818,-0.37035128,-0.84022623,-10.026068,-1.6683309,-0.5494172,4.2031446,-4.772565,-1.9106282,0
0.18000000000000002,16.986826280707355,3.1075957012813844,-5.563864003363797,-1.3002651620217902,14.76869,-0.81307435,-3.9678855,0.18470046,14.933657,-10.953547,1.2039615,-0.37172323,0.1588925,-0.3772072,-0.8332403,-10.030096,-1.540971,-0.5352259,4.032236,-4.8956757,-1.8806776,0
0.19000000000000003,16.986826280707355,3.1075957012813844,-5.563864003363797,-1.3002651620217902,14.76869,-0.81307435,-3.9678855,0.18470046,14.833382,-10.968324,1.1986846,-0.39177442,0.13435759,-0.38280833,-0.8257834,-10.023454,-1.4146469,-0.51999336,3.8880043,-4.9996305,-1.8521965,0
0.20000000000000004,16.867323280581846,1.971289763029282,-4.350152874581035,-1.0878104701293279,15.095287,-1.507175,-2.8326375,0.847763,14.733224,-10.981846,1.1935648,-0.4113778,0.109487735,-0.38727644,-0.8178002,-10.006265,-1.2901976,-0.5037996,3.7662838,-5.087409,-1.825113,0
0.21000000000000005,16.867323280581846,1.971289763029282,-4.350152874581035,-1.0878104701293279,15.095287,-1.507175,-2.8326375,0.847763,14.63329,-10.99414,1.1886072,-0.43027106,0.08492473,-0.39055622,-0.8093948,-9.97894,-1.169263,-0.48757464,3.48661,-4.9720187,-1.7889334,0
0.22000000000000006,16.867323280581846,1.971289763029282,-4.350152874581035,-1.0878104701293279,15.095287,-1.507175,-2.8326375,0.847763,14.53368,-11.00524,1.1838156,-0.44827273,0.061189637,-0.39264563,-0.8007098,-9.941888,-1.0516237,-0.47064948,3.2505193,-4.874691,-1.7545291,0
0.23000000000000007,16.867323280581846,1.971289763029282,-4.350152874581035,-1.0878104701293279,15.095287,-1.507175,-2.8326375,0.847763,14.434485,-11.015184,1.1791961,-0.4654777,0.0381758,-0.39370838,-0.7917488,-9.895704,-0.9378337,-0.45315474,3.0512202,-4.792597,-1.721813,0
0.24000000000000007,16.867323280581846,1.971289763029282,-4.350152874581035,-1.0878104701293279,15.748816,-1.8332596,-0.8898499,0.5847984,14.335795,-11.024013,1.1747539,-0.48196176,0.015790496,-0.39387953,-0.7825099,-9.840945,-0.82837766,-0.43521824,2.882979,-4.7233505,-1.6907023,0
0.25000000000000006,16.867323280581846,1.971289763029282,-4.350152874581035,-1.0878104701293279,15.748816,-1.8332596,-0.8898499,0.5847984,14.237694,-11.03177,1.1704926,-0.4977854,-0.00604611,-0.3932707,-0.77298814,-9.778131,-0.7236835,-0.41696775,2.7409556,-4.6649413,-1.6611181,0
0.26000000000000006,16.867323280581846,1.971289763029282,-4.350152874581035,-1.0878104701293279,15.748816,-1.8332596,-0.8898499,0.5847984,14.140258,-11.038505,1.1664151,-0.5129966,-0.027402166,-0.3919743,-0.763177,-9.707751,-0.6241322,-0.39853272,2.6210644,-4.615672,-1.6329858,0
0.2700000000000001,16.867323280581846,1.971289763029282,-4.350152874581035,-1.0878104701293279,15.748816,-1.8332596,-0.8898499,0.5847984,14.043563,-11.044271,1.1625223,-0.5276334,-0.048335344,-0.39006692,-0.75306964,-9.63027,-0.5300657,-0.3800453,2.5198565,-4.5741134,-1.6062338,0
0.2800000000000001,16.433129240181348,0.09852357417202243,-2.3504326067164327,0.058152144802541265,16.81571,-2.2089372,0.47809753,0.86688095,13.947677,-11.049126,1.158814,-0.54172575,-0.06889401,-0.38761204,-0.7426595,-9.546131,-0.44179237,-0.36164075,2.4344194,-4.5390573,-1.5807947,0
0.2900000000000001,16.433129240181348,0.09852357417202243,-2.3504326067164327,0.058152144802541265,16.81571,-2.2089372,0.47809753,0.86688095,13.852651,-11.053139,1.1552738,-0.55494916,-0.08817365,-0.38454336,-0.7323815,-9.458156,-0.3616613,-0.34643272,2.0707104,-4.197258,-1.5003711,0
0.3000000000000001,16.433129240181348,0.09852357417202243,-2.3504326067164327,0.058152144802541265,16.81571,-2.2089372,0.47809753,0.86688095,13.758531,-11.056379,1.1518846,-0.5670909,-0.10547145,-0.38085273,-0.72265786,-9.36498,-0.28732646,-0.33142582,1.7636263,-3.9088578,-1.4238939,0
0.3100000000000001,16.433129240181348,0.09852357417202243,-2.3504326067164327,0.058152144802541265,16.81571,-2.2089372,0.47809753,0.86688095,13.665366,-11.058905,1.1486447,-0.57831573,-0.121098034,-0.37665802,-0.7134525,-9.267411,-0.21860293,-0.3165718,1.5043544,-3.6655097,-1.3511695,0
0.3200000000000001,16.1446202640753,-2.0637060769327,0.060929484984465675,1.8956241589032339,17.338003,-3.3107986,2.2954962,1.1466581,13.573196,-11.06077,1.1455529,-0.58875555,-0.135317,-0.37205037,-0.7047228,-9.166125,-0.15530616,-0.30181646,1.2854527,-3.460173,-1.2820137,0
0.3300000000000001,16.1446202640753,-2.0637060769327,0.060929484984465675,1.8956241589032339,17.338003,-3.3107986,2.2954962,1.1466581,13.482053,-11.06203,1.1426069,-0.59816474,-0.14725289,-0.36695793,-0.6970344,-9.062267,-0.09747635,-0.2876223,0.74287426,-2.9315462,-1.1280217,0
0.34000000000000014,16.1446202640753,-2.0637060769327,0.060929484984465675,1.8956241589032339,17.338003,-3.3107986,2.2954962,1.1466581,13.391953,-11.062737,1.1397964,-0.60633504,-0.15623482,-0.36144093,-0.6908752,-8.95746,-0.044852585,-0.274486,0.30382955,-2.4664593,-0.9798316,0
0.35000000000000014,16.1446202640753,-2.0637060769327,0.060929484984465675,1.8956241589032339,17.338003,-3.3107986,2.2954962,1.1466581,13.302908,-11.06294,1.1371185,-0.61343265,-0.1627469,-0.35565728,-0.68609136,-8.851462,0.0038359957,-0.26097178,-0.06494219,-2.072083,-0.8387321,0
0.36000000000000015,17.724151642637253,-4.003910841930013,3.049163646938973,2.220158110013771,18.218456,-5.0367947,2.9824443,1.4323156,13.214926,-11.062672,1.1345794,-0.6196106,-0.16719808,-0.3496645,-0.6825408,-8.744808,0.049246877,-0.24670345,-0.3763127,-1.7393024,-0.70455647,0
0.37000000000000016,17.724151642637253,-4.003910841930013,3.049163646938973,2.220158110013771,18.218456,-5.0367947,2.9824443,1.4323156,13.128063,-11.061942,1.1322432,-0.62467796,-0.16864747,-0.34370908,-0.6805874,-8.627648,0.09616107,-0.22035925,-0.94159526,-0.9923696,-0.5610399,0
0.38000000000000017,17.724151642637253,-4.003910841930013,3.049163646938973,2.220158110013771,18.218456,-5.0367947,2.9824443,1.4323156,13.042369,-11.060754,1.1301773,-0.628489,-0.16636497,-0.33799073,-0.6805044,-8.511298,0.14123677,-0.1925828,-1.4188961,-0.3620442,-0.42456576,0
0.3900000000000002,17.724151642637253,-4.003910841930013,3.049163646938973,2.220158110013771,18.218456,-5.0367947,2.9824443,1.4323156,12.95783,-11.059119,1.1283976,-0.6311939,-0.16094463,-0.33246857,-0.682023,-8.396609,0.1855955,-0.16303934,-1.8218925,0.16989085,-0.29478842,0
0.4000000000000002,18.700157411020893,-4.859653500295467,4.559064761166817,2.281754916887829,17.910532,-4.601511,4.2909083,0.83287907,12.874429,-11.057041,1.1269233,-0.63289666,-0.15288207,-0.32709518,-0.68489206,-8.284309,0.2301834,-0.13146912,-2.1621385,0.6188045,-0.17137927,0
0.4100000000000002,18.700157411020893,-4.859653500295467,4.559064761166817,2.281754916887829,17.910532,-4.601511,4.2909083,0.83287907,12.792165,-11.0545,1.1258119,-0.6335166,-0.14196275,-0.32196772,-0.6890861,-8.169049,0.27834982,-0.090418786,-2.5828402,1.2331321,-0.051003255,0
0.4200000000000002,18.700157411020893,-4.859653500295467,4.559064761166817,2.281754916887829,17.910532,-4.601511,4.2909083,0.83287907,12.711034,-11.051467,1.1251234,-0.63296646,-0.12803058,-0.31714717,-0.69453496,-8.0578165,0.32864615,-0.046869762,-2.938019,1.7516034,0.063465856,0
0.4300000000000002,18.700157411020893,-4.859653500295467,4.559064761166817,2.281754916887829,17.910532,-4.601511,4.2909083,0.83287907,12.630992,-11.047916,1.1248833,-0.6312963,-0.111548066,-0.3125371,-0.700958,-7.951411,0.3819858,-0.00075221434,-3.2378683,2.1891844,0.17231794,0
0.4400000000000002,18.700157411020893,-4.859653500295467,4.559064761166817,2.281754916887829,17.574097,-4.3695736,4.372207,0.06540099,12.551988,-11.043814,1.1251171,-0.6285377,-0.09290784,-0.30805227,-0.7081044,-7.850577,0.43909556,0.04789926,-3.4909976,2.558503,0.2758286,0
0.45000000000000023,18.700157411020893,-4.859653500295467,4.559064761166817,2.281754916887829,17.574097,-4.3695736,4.372207,0.06540099,12.47396,-11.03912,1.1258495,-0.6247117,-0.07244533,-0.30361933,-0.7157526,-7.7560134,0.5005353,0.098953694,-3.7046778,2.870214,0.37425998,0
0.46000000000000024,18.700157411020893,-4.859653500295467,4.559064761166817,2.281754916887829,17.574097,-4.3695736,4.372207,0.06540099,12.396844,-11.033788,1.1271036,-0.6198336,-0.0504489,-0.29917648,-0.7237086,-7.668379,0.5667153,0.15219343,-3.8850498,3.133309,0.4678613,0
0.47000000000000025,18.700157411020893,-4.859653500295467,4.559064761166817,2.281754916887829,17.574097,-4.3695736,4.372207,0.06540099,12.320566,-11.027769,1.1288998,-0.6139164,-0.027167823,-0.2946728,-0.7318033,-7.588292,0.6379111,0.20732465,-4.0373,3.3553748,0.55686957,0
0.48000000000000026,19.384346839279832,-4.8005866440919185,4.89783821763201,2.1651735739605287,18.59305,-2.9031646,3.4450648,0.4945878,12.245049,-11.021011,1.1312553,-0.60697275,-0.0028187828,-0.29006708,-0.7398897,-7.516331,0.71427715,0.26398778,-4.165809,3.5428135,0.64151025,0
0.49000000000000027,19.384346839279832,-4.8005866440919185,4.89783821763201,2.1651735739605287,18.59305,-2.9031646,3.4450648,0.4945878,12.170222,-11.013451,1.1342118,-0.598987,0.022499513,-0.28542578,-0.74782354,-7.4507155,0.7988544,0.32746592,-4.265073,3.7538798,0.7162768,0
0.5000000000000002,19.384346839279832,-4.8005866440919185,4.89783821763201,2.1651735739605287,18.59305,-2.9031646,3.4450648,0.4945878,12.096003,-11.005016,1.1378068,-0.58995086,0.048694354,-0.28079918,-0.7554722,-7.394594,0.88886327,0.39158314,-4.3488507,3.932039,0.7873746,0
0.5100000000000002,19.384346839279832,-4.8005866440919185,4.89783821763201,2.1651735739605287,18.59305,-2.9031646,3.4450648,0.4945878,12.022296,-10.995655,1.1420437,-0.57988846,0.07559531,-0.27613658,-0.7627338,-7.348439,0.9842331,0.45577684,-4.4195557,4.082424,0.85498357,0
0.5200000000000002,19.12112886505452,-3.947458897334647,4.227852466715424,1.9422611132909398,19.146729,-2.2986658,2.939309,1.3695306,11.948999,-10.985314,1.1469206,-0.5688243,0.103051335,-0.2713974,-0.7695208,-7.312668,1.0847945,0.5194554,-4.4792237,4.2093673,0.9192749,0
0.5300000000000002,19.12112886505452,-3.947458897334647,4.227852466715424,1.9422611132909398,19.146729,-2.2986658,2.939309,1.3695306,11.876005,-10.973949,1.152418,-0.5569203,0.1305368,-0.26666138,-0.7756875,-7.2879477,1.1888453,0.57982755,-4.396435,4.2121553,0.9694732,0
0.5400000000000003,19.12112886505452,-3.947458897334647,4.227852466715424,1.9422611132909398,19.146729,-2.2986658,2.939309,1.3695306,11.803205,-10.961521,1.1585114,-0.5443431,0.15763074,-0.26200622,-0.78115,-7.273861,1.2973514,0.63850504,-4.3265495,4.214513,1.0172082,0
0.5500000000000003,19.12112886505452,-3.947458897334647,4.227852466715424,1.9422611132909398,19.146729,-2.2986658,2.939309,1.3695306,11.730491,-10.9479885,1.1651806,-0.531121,0.18434927,-0.25739884,-0.7859205,-7.2703795,1.4098665,0.6949353,-4.2675567,4.216506,1.0626009,0
0.5600000000000003,17.995868526432417,-2.5607376655024323,2.9076687658860343,1.6474079350587667,21.197556,-2.7569811,2.8237355,1.7624575,11.65776,-10.933311,1.1724006,-0.5172795,0.21070276,-0.2528114,-0.7900076,-7.277456,1.5259297,0.7485942,-4.217758,4.218191,1.1057659,0
0.5700000000000003,17.995868526432417,-2.5607376655024323,2.9076687658860343,1.6474079350587667,21.197556,-2.7569811,2.8237355,1.7624575,11.584909,-10.917493,1.1800975,-0.5031328,0.23600699,-0.2483852,-0.7933865,-7.293933,1.6380424,0.7902645,-3.9592693,4.013933,1.1323444,0
0.5800000000000003,17.995868526432417,-2.5607376655024323,2.9076687658860343,1.6474079350587667,21.197556,-2.7569811,2.8237355,1.7624575,11.511848,-10.900542,1.1881943,-0.4889795,0.25973997,-0.24425374,-0.796099,-7.31977,1.7525078,0.82857376,-3.7411053,3.8415105,1.1576186,0
0.5900000000000003,17.995868526432417,-2.5607376655024323,2.9076687658860343,1.6474079350587667,21.197556,-2.7569811,2.8237355,1.7624575,11.438483,-10.882437,1.1966565,-0.4748131,0.282125,-0.24038069,-0.7982321,-7.354444,1.8688306,0.86330754,-3.5569763,3.6959612,1.1816527,0
0.6000000000000003,17.036799772532564,-0.9440888656295794,1.299328001542315,1.2900946680355303,18.634174,-2.6098406,1.8859394,1.1553718,11.364731,-10.863161,1.2054474,-0.460623,0.30334955,-0.23673168,-0.79985183,-7.3974905,1.9865727,0.8942906,-3.4015722,3.573096,1.2045075,0
0.6100000000000003,17.036799772532564,-0.9440888656295794,1.299328001542315,1.2900946680355303,18.634174,-2.6098406,1.8859394,1.1553718,11.290521,-10.842734,1.2144954,-0.44679075,0.32277563,-0.23348938,-0.8010468,-7.4457164,2.099007,0.91473585,-3.0180602,3.2187953,1.2087073,0
0.6200000000000003,17.036799772532564,-0.9440888656295794,1.299328001542315,1.2900946680355303,18.634174,-2.6098406,1.8859394,1.1553718,11.215793,-10.821179,1.22373,-0.43365583,0.33993325,-0.23081489,-0.8019426,-7.5006638,2.2120578,0.9316205,-2.694398,2.919703,1.212701,0
0.6300000000000003,17.036799772532564,-0.9440888656295794,1.299328001542315,1.2900946680355303,18.634174,-2.6098406,1.8859394,1.1553718,11.140485,-10.798492,1.2331161,-0.42114004,0.3551899,-0.22864354,-0.8026224,-7.5615735,2.3254478,0.9451206,-2.4212453,2.6672158,1.2164987,0
0.6400000000000003,17.036799772532564,-0.9440888656295794,1.299328001542315,1.2900946680355303,17.533226,-1.3936726,1.4994322,0.97129124,11.064542,-10.774671,1.2426214,-0.4091677,0.36885184,-0.22691451,-0.8031434,-7.6278086,2.4389672,0.95541215,-2.1907206,2.4540718,1.22011,1
0.6500000000000004,17.036799772532564,-0.9440888656295794,1.299328001542315,1.2900946680355303,17.533226,-1.3936726,1.4994322,0.97129124,10.987903,-10.749697,1.2522297,-0.39761364,0.38131976,-0.22544469,-0.80353767,-7.7009163,2.5557582,0.9657282,-2.0662847,2.3053114,1.2079005,1
0.6600000000000004,17.036799772532564,-0.9440888656295794,1.299328001542315,1.2900946680355303,17.533226,-1.3936726,1.4994322,0.97129124,10.910509,-10.7235565,1.2619258,-0.38636968,0.3929181,-0.22407736,-0.8038176,-7.7785926,2.6723497,0.97304124,-1.961276,2.1797323,1.1962901,1
0.6700000000000004,17.036799772532564,-0.9440888656295794,1.299328001542315,1.2900946680355303,17.533226,-1.3936726,1.4994322,0.97129124,10.832317,-10.696251,1.2716806,-0.37539318,0.40377942,-0.22279635,-0.80399215,-7.8605485,2.788594,0.9774593,-1.8726611,2.0737224,1.1852493,1
0.6800000000000004,16.072610991028274,0.6022134808119002,-0.2955688228757707,0.9294932206440699,15.655848,-0.7899505,0.941792,0.612961,10.753284,-10.667786,1.2814654,-0.36464643,0.41401446,-0.22158666,-0.804067,-7.946534,2.904363,0.9790773,-1.7978804,1.9842322,1.1747503,0
0.6900000000000004,16.072610991028274,0.6022134808119002,-0.2955688228757707,0.9294932206440699,15.655848,-0.7899505,0.941792,0.612961,10.67341,-10.638213,1.2912122,-0.35459593,0.42285478,-0.22081786,-0.8041732,-8.02879,3.0099647,0.96993697,-1.4233025,1.6289963,1.1627154,0
0.7000000000000004,16.072610991028274,0.6022134808119002,-0.2955688228757707,0.9294932206440699,15.655848,-0.7899505,0.941792,0.612961,10.592698,-10.607587,1.3008567,-0.34562728,0.42971796,-0.22079605,-0.8044456,-8.113895,3.1150734,0.9586786,-1.1071875,1.3291088,1.1512712,0
0.7100000000000004,16.072610991028274,0.6022134808119002,-0.2955688228757707,0.9294932206440699,15.655848,-0.7899505,0.941792,0.612961,10.511125,-10.575912,1.3103796,-0.33759475,0.4349339,-0.22141857,-0.80488235,-8.2012415,3.2197728,0.94567364,-0.84041005,1.0759472,1.1403886,0
0.7200000000000004,15.481438545632766,2.0617922452245865,-1.8393051157090472,0.5719165307273456,14.668184,0.622785,-0.23144473,0.22247028,10.428668,-10.543192,1.3197653,-0.33036917,0.43877488,-0.22259445,-0.8054713,-8.290325,3.3241565,0.93124336,-0.6152691,0.8622314,1.1300399,0
0.7300000000000004,15.481438545632766,2.0617922452245865,-1.8393051157090472,0.5719165307273456,14.668184,0.622785,-0.23144473,0.22247028,10.34533,-10.509448,1.3289856,-0.3242684,0.44078794,-0.2244932,-0.8063239,-8.377359,3.4245021,0.91266114,-0.1974647,0.44123954,1.1026527,0
0.7400000000000004,15.481438545632766,2.0617922452245865,-1.8393051157090472,0.5719165307273456,14.668184,0.622785,-0.23144473,0.22247028,10.261119,-10.474702,1.3380165,-0.31954452,0.44062918,-0.22724566,-0.8075246,-8.464983,3.524832,0.89345056,0.15512201,0.08584043,1.0766093,0
0.7500000000000004,15.481438545632766,2.0617922452245865,-1.8393051157090472,0.5719165307273456,14.668184,0.622785,-0.23144473,0.22247028,10.176031,-10.438951,1.346854,-0.3159992,0.4386471,-0.23072198,-0.80901176,-8.552568,3.625345,0.8740499,0.45267326,-0.21418355,1.0518439,0
0.7600000000000005,15.756235029943586,3.089609443694379,-3.0489159658916622,0.23249227745619008,15.122728,1.5246947,-1.7339149,-0.2976518,10.090069,-10.402192,1.355498,-0.31345934,0.4351285,-0.23480819,-0.8107225,-8.639582,3.726219,0.85481983,0.7037809,-0.4674593,1.0282937,0
0.7700000000000005,15.756235029943586,3.089609443694379,-3.0489159658916622,0.23249227745619008,15.122728,1.5246947,-1.7339149,-0.2976518,10.003234,-10.364414,1.363959,-0.3121008,0.42979842,-0.23956878,-0.8126946,-8.72706,3.8294177,0.83748597,1.0760974,-0.8698137,0.98924345,0
0.7800000000000005,15.756235029943586,3.089609443694379,-3.0489159658916622,0.23249227745619008,15.122728,1.5246947,-1.7339149,-0.2976518,9.915533,-10.3256,1.3722508,-0.31205356,0.42244393,-0.24504378,-0.8149335,-8.812822,3.933346,0.82105017,1.3902931,-1.2094746,0.9521095,0
0.7900000000000005,15.756235029943586,3.089609443694379,-3.0489159658916622,0.23249227745619008,15.122728,1.5246947,-1.7339149,-0.2976518,9.826985,-10.285743,1.3803843,-0.31311354,0.41336405,-0.25110576,-0.81733423,-8.896242,4.038178,0.8058745,1.6554444,-1.4962078,0.9167977,0
0.8000000000000005,16.439535031239085,3.5566998647689165,-3.6329810833839975,-0.01333491627483625,14.923958,1.4431192,-2.3029256,-0.18948218,9.7376175,-10.244832,1.3883735,-0.3151041,0.40280744,-0.25764367,-0.81980157,-8.976766,4.144044,0.7922322,1.8792083,-1.7382591,0.88321865,0
0.8100000000000005,16.439535031239085,3.5566998647689165,-3.6329810833839975,-0.01333491627483625,14.923958,1.4431192,-2.3029256,-0.18948218,9.647445,-10.202834,1.3962536,-0.31803206,0.39073828,-0.264628,-0.82228374,-9.057227,4.255675,0.7840684,2.140924,-2.0336504,0.83922446,0
0.8200000000000005,16.439535031239085,3.5566998647689165,-3.6329810833839975,-0.01333491627483625,14.923958,1.4431192,-2.3029256,-0.18948218,9.556487,-10.159713,1.4040619,-0.3218915,0.37713405,-0.27202377,-0.824717,-9.1335535,4.368553,0.7779285,2.361788,-2.2830083,0.7973891,0
0.8300000000000005,16.439535031239085,3.5566998647689165,-3.6329810833839975,-0.01333491627483625,14.923958,1.4431192,-2.3029256,-0.18948218,9.464789,-10.115457,1.4118196,-0.3265225,0.362205,-0.27973348,-0.827006,-9.205184,4.4827085,0.77396166,2.5481787,-2.493505,0.7576066,0
0.8400000000000005,16.439535031239085,3.5566998647689165,-3.6329810833839975,-0.01333491627483625,14.7574625,1.5843948,-2.8086424,-0.37285045,9.372401,-10.070053,1.4195486,-0.33178708,0.34612963,-0.28767288,-0.8290688,-9.271618,4.598122,0.7722424,2.7054791,-2.6711948,0.71977633,0
0.8500000000000005,16.439535031239085,3.5566998647689165,-3.6329810833839975,-0.01333491627483625,14.7574625,1.5843948,-2.8086424,-0.37285045,9.279377,-10.02349,1.427272,-0.33756614,0.3290605,-0.29576948,-0.83083564,-9.332403,4.714734,0.7727802,2.8382308,-2.8211887,0.6838023,0
0.8600000000000005,16.439535031239085,3.5566998647689165,-3.6329810833839975,-0.01333491627483625,14.7574625,1.5843948,-2.8086424,-0.37285045,9.185774,-9.975755,1.4350117,-0.343757,0.31112868,-0.303961,-0.8322481,-9.387138,4.8324456,0.77552885,2.9502664,-2.947803,0.6495936,0
0.8700000000000006,16.439535031239085,3.5566998647689165,-3.6329810833839975,-0.01333491627483625,14.7574625,1.5843948,-2.8086424,-0.37285045,9.091657,-9.926838,1.4427898,-0.35027114,0.29244748,-0.312194,-0.83325785,-9.435463,4.9511247,0.7803948,3.04482,-3.0546806,0.6170636,0
0.8800000000000006,17.012997768817485,3.505907048364013,-3.6918615297550903,-0.24464531754963076,15.2802305,1.3816646,-2.7384405,-0.102477044,8.997088,-9.87673,1.4506265,-0.35703206,0.27311537,-0.32042274,-0.8338253,-9.477061,5.0706105,0.7872442,3.1246204,-3.144897,0.5861298,0
0.8900000000000006,17.012997768817485,3.505907048364013,-3.6918615297550903,-0.24464531754963076,15.2802305,1.3816646,-2.7384405,-0.102477044,8.902133,-9.825403,1.4585594,-0.3639997,0.25321504,-0.328575,-0.8339209,-9.512864,5.194907,0.7996351,3.1840286,-3.2302577,0.5453634,0
0.9000000000000006,17.012997768817485,3.505907048364013,-3.6918615297550903,-0.24464531754963076,15.2802305,1.3816646,-2.7384405,-0.102477044,8.806857,-9.772831,1.4666249,-0.37114155,0.23282123,-0.33659053,-0.8335192,-9.541174,5.319622,0.81371486,3.2341676,-3.3023083,0.50659746,0
0.9100000000000006,17.012997768817485,3.505907048364013,-3.6918615297550903,-0.24464531754963076,15.2802305,1.3816646,-2.7384405,-0.102477044,8.711336,-9.719009,1.4748387,-0.3784057,0.21200351,-0.34444943,-0.8325968,-9.561782,5.444511,0.82926905,3.276485,-3.3631234,0.46973377,0
0.9200000000000006,17.17527404796285,2.933026599200501,-3.2616598296512787,-0.407120535979712,14.63757,1.0390878,-3.0511813,-0.009460304,8.615648,-9.66394,1.4832146,-0.38574654,0.1908233,-0.3521348,-0.8311356,-9.574516,5.569318,0.8460612,3.3122008,-3.4144547,0.434679,0
0.9300000000000006,17.17527404796285,2.933026599200501,-3.2616598296512787,-0.407120535979712,14.63757,1.0390878,-3.0511813,-0.009460304,8.519873,-9.607618,1.4917691,-0.3930393,0.16957478,-0.35950643,-0.8291676,-9.579308,5.6949606,0.8649427,3.2529707,-3.3907309,0.39337167,0
0.9400000000000006,17.17527404796285,2.933026599200501,-3.2616598296512787,-0.407120535979712,14.63757,1.0390878,-3.0511813,-0.009460304,8.4240885,-9.550043,1.500516,-0.40019494,0.14850183,-0.366461,-0.82673866,-9.576074,5.81997,0.8845545,3.2029843,-3.3706973,0.35409126,0
0.9500000000000006,17.17527404796285,2.933026599200501,-3.2616598296512787,-0.407120535979712,14.63757,1.0390878,-3.0511813,-0.009460304,8.328379,-9.491223,1.5094619,-0.4072233,0.1275864,-0.37303463,-0.82385397,-9.564911,5.9440746,0.90463865,3.1607988,-3.3537798,0.3167384,0
0.9600000000000006,16.83475272962781,1.9872604546326047,-2.5070550295083116,-0.4938752834203844,16.887014,-0.33063868,-4.377475,1.7772909,8.232819,-9.431168,1.5186098,-0.41413057,0.10681389,-0.37925774,-0.82051784,-9.545914,6.0670123,0.92494273,3.1251974,-3.3394933,0.28121847,0
0.9700000000000006,16.83475272962781,1.9872604546326047,-2.5070550295083116,-0.4938752834203844,16.887014,-0.33063868,-4.377475,1.7772909,8.1374855,-9.3699,1.5279491,-0.4207788,0.0865824,-0.38497326,-0.81684977,-9.519751,6.1861258,0.94287694,2.947633,-3.209781,0.2431844,0
0.9800000000000006,16.83475272962781,1.9872604546326047,-2.5070550295083116,-0.4938752834203844,16.887014,-0.33063868,-4.377475,1.7772909,8.042449,-9.307449,1.5374666,-0.42707705,0.067211755,-0.39007282,-0.8129762,-9.4863825,6.303644,0.96059054,2.797773,-3.100281,0.20701666,0
0.9900000000000007,16.83475272962781,1.9872604546326047,-2.5070550295083116,-0.4938752834203844,16.887014,-0.33063868,-4.377475,1.7772909,7.9477806,-9.243833,1.5471594,-0.43308866,0.048584137,-0.39464435,-0.80890596,-9.446181,6.4193926,0.9779174,2.6712937,-3.0078447,0.17262368,0
1.0000000000000007,16.714833653730064,0.9520712406974158,-1.619238324997783,-0.5139251383749502,16.112482,-0.9542022,-4.021299,1.7970132,7.8535476,-9.179068,1.557023,-0.4388639,0.030598715,-0.39876103,-0.80464345,-9.399475,6.533215,0.9947096,2.564548,-2.9298136,0.13991839,0
1.0100000000000007,16.714833653730064,0.9520712406974158,-1.619238324997783,-0.5139251383749502,16.112482,-0.9542022,-4.021299,1.7970132,7.759811,-9.113179,1.5670472,-0.444295,0.0136384815,-0.40231013,-0.8003511,-9.3469715,6.6441865,1.0100286,2.3130074,-2.7255015,0.107834086,0
1.0200000000000007,16.714833653730064,0.9520712406974158,-1.619238324997783,-0.5139251383749502,16.112482,-0.9542022,-4.021299,1.7970132,7.6666274,-9.046192,1.5772212,-0.44931436,-0.0019972161,-0.40521923,-0.79618424,-9.288844,6.753062,1.0246372,2.100707,-2.5530374,0.07732418,0
1.0300000000000007,16.714833653730064,0.9520712406974158,-1.619238324997783,-0.5139251383749502,16.112482,-0.9542022,-4.021299,1.7970132,7.5740514,-8.978127,1.5875375,-0.45400903,-0.01650188,-0.40759614,-0.7921289,-9.225601,6.8598194,1.0385164,1.921525,-2.4074574,0.048311416,0
1.0400000000000007,16.714833653730064,0.9520712406974158,-1.619238324997783,-0.5139251383749502,16.648462,-1.8608847,-3.8684628,2.4851358,7.4821315,-8.909003,1.5979888,-0.4584481,-0.03004045,-0.4095294,-0.7881675,-9.157674,6.96445,1.0516585,1.7702943,-2.2845716,0.020722311,0
1.0500000000000007,16.714833653730064,0.9520712406974158,-1.619238324997783,-0.5139251383749502,16.648462,-1.8608847,-3.8684628,2.4851358,7.390913,-8.838845,1.608568,-0.46268642,-0.042753313,-0.4110917,-0.7842809,-9.085428,7.0669503,1.0640619,1.642654,-2.1808434,-0.00551299,0
1.0600000000000007,16.714833653730064,0.9520712406974158,-1.619238324997783,-0.5139251383749502,16.648462,-1.8608847,-3.8684628,2.4851358,7.300437,-8.767672,1.6192675,-0.46676743,-0.05475982,-0.41234282,-0.7804501,-9.009175,7.167319,1.0757282,1.5349243,-2.0932858,-0.03046091,0
1.0700000000000007,16.714833653730064,0.9520712406974158,-1.619238324997783,-0.5139251383749502,16.648462,-1.8608847,-3.8684628,2.4851358,7.2107425,-8.695506,1.63008,-0.47072548,-0.06616136,-0.41333216,-0.77665704,-8.929182,7.265556,1.0866594,1.4439985,-2.0193794,-0.054184616,0
1.0800000000000007,16.145830239020473,0.020526176074394265,-0.9919656169332128,-0.43237602067058467,17.90909,-2.2058887,-3.2637627,3.1669185,7.1218657,-8.622369,1.6409981,-0.47458774,-0.07704399,-0.41410044,-0.7728848,-8.845677,7.361659,1.0968571,1.3672559,-1.9569951,-0.07674422,0
1.0900000000000007,16.145830239020473,0.020526176074394265,-0.9919656169332128,-0.43237602067058467,17.90909,-2.2058887,-3.2637627,3.1669185,7.0338254,-8.548297,1.6519964,-0.47829524,-0.087114125,-0.41451368,-0.76930004,-8.761842,7.452437,1.1026736,1.157221,-1.8065021,-0.094195195,0
1.1000000000000008,16.145830239020473,0.020526176074394265,-0.9919656169332128,-0.43237602067058467,17.90909,-2.2058887,-3.2637627,3.1669185,6.9466386,-8.473328,1.6630496,-0.48180968,-0.09614435,-0.41447395,-0.7660459,-8.675177,7.5412197,1.1078919,0.9799436,-1.6794755,-0.110789835,0
1.1100000000000008,16.145830239020473,0.020526176074394265,-0.9919656169332128,-0.43237602067058467,17.90909,-2.2058887,-3.2637627,3.1669185,6.860331,-8.397479,1.6741524,-0.48517624,-0.10429143,-0.4140592,-0.76307386,-8.586023,7.628079,1.1126279,0.8303146,-1.5722568,-0.12657018,0
1.1200000000000008,15.500541900196218,-0.8219726068904948,-0.3472675855576207,-0.27938209760651717,18.284883,-2.634281,-3.176867,3.4513593,6.774926,-8.320771,1.6853007,-0.4884302,-0.11168812,-0.41333342,-0.76033986,-8.494669,7.7130804,1.1169838,0.7040216,-1.4817574,-0.14157617,0
1.1300000000000008,15.500541900196218,-0.8219726068904948,-0.3472675855576207,-0.27938209760651717,18.284883,-2.634281,-3.176867,3.4513593,6.6904263,-8.243239,1.6964706,-0.49151766,-0.11809379,-0.4122181,-0.75798416,-8.405107,7.7929683,1.1169795,0.46605426,-1.3048145,-0.14833835,0
1.1400000000000008,15.500541900196218,-0.8219726068904948,-0.3472675855576207,-0.27938209760651717,18.284883,-2.634281,-3.176867,3.4513593,6.6068296,-8.164916,1.7076399,-0.49439946,-0.12332517,-0.4106566,-0.75612223,-8.314036,7.871261,1.1168729,0.26519686,-1.1554673,-0.1547687,0
1.1500000000000008,15.500541900196218,-0.8219726068904948,-0.3472675855576207,-0.27938209760651717,18.284883,-2.634281,-3.176867,3.4513593,6.5241494,-8.085819,1.7188084,-0.4971187,-0.12756306,-0.40872502,-0.7546814,-8.221796,7.9480886,1.1168326,0.09566204,-1.0294123,-0.16088355,0
1.1600000000000008,14.872410100010963,-1.518500973961665,0.1680244654459272,-0.08635038471454898,18.99024,-3.2957084,-2.8679018,3.5821478,6.4423966,-8.00596,1.7299774,-0.4997091,-0.13096,-0.4064856,-0.7535976,-8.12867,8.023563,1.1170048,-0.04743504,-0.9230171,-0.1666983,0
1.1700000000000008,14.872410100010963,-1.518500973961665,0.1680244654459272,-0.08635038471454898,18.99024,-3.2957084,-2.8679018,3.5821478,6.3615594,-7.9253674,1.7411298,-0.50213224,-0.1333597,-0.40387958,-0.752967,-8.038712,8.094785,1.1135294,-0.2768265,-0.7528454,-0.16275561,0
1.1800000000000008,14.872410100010963,-1.518500973961665,0.1680244654459272,-0.08635038471454898,18.99024,-3.2957084,-2.8679018,3.5821478,6.2816234,-7.8440685,1.7522497,-0.5043567,-0.13464573,-0.4008625,-0.75286365,-7.9484606,8.164948,1.1105635,-0.47044808,-0.60921687,-0.15900637,0
1.1900000000000008,14.872410100010963,-1.518500973961665,0.1680244654459272,-0.08635038471454898,18.99024,-3.2957084,-2.8679018,3.5821478,6.20259,-7.7620726,1.7633431,-0.5064145,-0.13499045,-0.3974993,-0.75320375,-7.8582153,8.234191,1.1082761,-0.6338777,-0.4879911,-0.15544112,0
1.2000000000000008,13.413905403436516,-1.8052320078164719,0.22091846616817984,0.10772323421402645,17.712114,-3.7351608,-2.5619376,3.7649264,6.1244574,-7.6793876,1.7744179,-0.5083304,-0.13453917,-0.39384323,-0.75391406,-7.768229,8.302626,1.1068089,-0.7718229,-0.38567364,-0.15205084,0
1.2100000000000009,13.413905403436516,-1.8052320078164719,0.22091846616817984,0.10772323421402645,17.712114,-3.7351608,-2.5619376,3.7649264,6.047179,-7.5960555,1.7854347,-0.5101129,-0.13334952,-0.38985908,-0.75499153,-7.687501,8.363708,1.096715,-0.93297064,-0.29106766,-0.13930365,0
1.2200000000000009,13.413905403436516,-1.8052320078164719,0.22091846616817984,0.10772323421402645,17.712114,-3.7351608,-2.5619376,3.7649264,5.970705,-7.512115,1.7963555,-0.5117652,-0.13147424,-0.38551944,-0.75642926,-7.607406,8.424219,1.0875884,-1.0689902,-0.21121974,-0.12718198,0
1.2300000000000009,13.413905403436516,-1.8052320078164719,0.22091846616817984,0.10772323421402645,17.712114,-3.7351608,-2.5619376,3.7649264,5.895028,-7.4275723,1.8071901,-0.513298,-0.12901981,-0.3808751,-0.75816405,-7.528128,8.484219,1.0795335,-1.1838001,-0.14382738,-0.11565511,0
1.2400000000000009,13.413905403436516,-1.8052320078164719,0.22091846616817984,0.10772323421402645,16.261488,-3.4597278,-2.4508631,3.4011452,5.8201385,-7.342432,1.8179499,-0.5147198,-0.1260761,-0.37596864,-0.7601417,-7.4498253,8.543754,1.0726329,-1.2807072,-0.08694731,-0.104693875,0
1.2500000000000009,13.413905403436516,-1.8052320078164719,0.22091846616817984,0.10772323421402645,16.261488,-3.4597278,-2.4508631,3.4011452,5.746027,-7.2566986,1.8286468,-0.51603746,-0.12271898,-0.37083566,-0.762316,-7.372635,8.602859,1.066952,-1.3625032,-0.038939558,-0.09427049,0
1.260000000000001,13.413905403436516,-1.8052320078164719,0.22091846616817984,0.10772323421402645,16.261488,-3.4597278,-2.4508631,3.4011452,5.6726813,-7.170377,1.8392932,-0.5172566,-0.11901254,-0.3655063,-0.76464766,-7.2966785,8.661563,1.0625396,-1.431544,0.0015801908,-0.0843586,0
1.270000000000001,13.413905403436516,-1.8052320078164719,0.22091846616817984,0.10772323421402645,16.261488,-3.4597278,-2.4508631,3.4011452,5.600089,-7.0834694,1.8499022,-0.51838195,-0.115010895,-0.360006,-0.76710343,-7.222062,8.719887,1.059432,-1.4898186,0.035780083,-0.074933104,0
1.280000000000001,11.563396104151737,-1.6766793243201126,-0.2639842773918713,0.2946821841538693,16.41039,-4.005851,-3.2894006,4.103242,5.5282354,-6.995981,1.8604866,-0.5194174,-0.1107598,-0.35435635,-0.76965505,-7.148878,8.777844,1.0576539,-1.539006,0.06464566,-0.06597009,0
1.290000000000001,11.563396104151737,-1.6766793243201126,-0.2639842773918713,0.2946821841538693,16.41039,-4.005851,-3.2894006,4.103242,5.457057,-6.907954,1.8709928,-0.52041155,-0.10648237,-0.348512,-0.7722514,-7.0870905,8.827491,1.043747,-1.5604786,0.013378958,-0.048272777,0
1.300000000000001,11.563396104151737,-1.6766793243201126,-0.2639842773918713,0.2946821841538693,16.41039,-4.005851,-3.2894006,4.103242,5.3864894,-6.8194323,1.8813655,-0.5214001,-0.102359235,-0.3424382,-0.77485496,-7.0266256,8.876771,1.0310072,-1.5786009,-0.029892351,-0.031443875,0
1.310000000000001,11.563396104151737,-1.6766793243201126,-0.2639842773918713,0.2946821841538693,16.41039,-4.005851,-3.2894006,4.103242,5.3165197,-6.73042,1.8916167,-0.52236927,-0.09836857,-0.33616635,-0.7774611,-6.967491,8.925624,1.0194373,-1.5938962,-0.06641523,-0.015440768,0
1.320000000000001,9.896804596966675,-1.4738215445689147,-0.7146912929341375,0.4867205028347343,15.490574,-3.8221934,-3.6872196,4.0031643,5.2471347,-6.6409216,1.9017582,-0.5233079,-0.09449174,-0.32972297,-0.7800657,-6.909697,8.973995,1.0090357,-1.6068057,-0.09724186,-0.00022294349,0
1.330000000000001,9.896804596966675,-1.4738215445689147,-0.7146912929341375,0.4867205028347343,15.490574,-3.8221934,-3.6872196,4.0031643,5.17828,-6.5509763,1.9117374,-0.5242404,-0.09090397,-0.32309756,-0.782634,-6.8613834,9.0149355,0.9869888,-1.5860639,-0.19355743,0.023671523,0
1.340000000000001,9.896804596966675,-1.4738215445689147,-0.7146912929341375,0.4867205028347343,15.490574,-3.8221934,-3.6872196,4.0031643,5.109903,-6.460624,1.9215012,-0.52518266,-0.08774476,-0.31628335,-0.78514236,-6.814188,9.05534,0.9659247,-1.5685545,-0.274851,0.04639347,0
1.350000000000001,9.896804596966675,-1.4738215445689147,-0.7146912929341375,0.4867205028347343,15.490574,-3.8221934,-3.6872196,4.0031643,5.0419927,-6.369871,1.9310591,-0.5261159,-0.08495087,-0.30930617,-0.7876007,-6.7680736,9.09513,0.94582915,-1.5537741,-0.34346527,0.06800045,0
1.360000000000001,8.899028869004972,-1.4206198019381497,-0.9783700368416368,0.6829467945525645,12.455236,-2.8476596,-2.4158268,2.6109874,4.9745383,-6.278724,1.9404209,-0.5270247,-0.08246852,-0.30218795,-0.7900166,-6.7230096,9.134236,0.92668736,-1.5412977,-0.40137777,0.08854716,0
1.370000000000001,8.899028869004972,-1.4206198019381497,-0.9783700368416368,0.6829467945525645,12.455236,-2.8476596,-2.4158268,2.6109874,4.9075065,-6.187209,1.9495558,-0.5279073,-0.08035383,-0.29490635,-0.7923934,-6.6834087,9.16873,0.9004286,-1.5224636,-0.49138722,0.11771453,0
1.380000000000001,8.899028869004972,-1.4206198019381497,-0.9783700368416368,0.6829467945525645,12.455236,-2.8476596,-2.4158268,2.6109874,4.8408666,-6.095352,1.9584322,-0.52875847,-0.07864969,-0.2874444,-0.7947354,-6.6446943,9.202482,0.875,-1.5065651,-0.5673579,0.14545067,0
1.390000000000001,8.899028869004972,-1.4206198019381497,-0.9783700368416368,0.6829467945525645,12.455236,-2.8476596,-2.4158268,2.6109874,4.77461,-6.003162,1.9670587,-0.52956235,-0.07729567,-0.2798264,-0.7970484,-6.6068344,9.235426,0.8503876,-1.493145,-0.63147944,0.17182577,0
1.400000000000001,8.051174795762481,-1.2973277806173495,-0.9137966429098383,0.8500829345925099,13.8654375,-2.3527904,-4.136052,3.3424215,4.7087274,-5.9106464,1.9754429,-0.53030634,-0.076240264,-0.2720729,-0.79933643,-6.5698013,9.267504,0.8265759,-1.4818176,-0.6855998,0.19690664,0
1.410000000000001,8.051174795762481,-1.2973277806173495,-0.9137966429098383,0.8500829345925099,13.8654375,-2.3527904,-4.136052,3.3424215,4.6431937,-5.81783,1.9835572,-0.53095347,-0.07545069,-0.26425302,-0.801602,-6.537025,9.295695,0.7963946,-1.4530269,-0.7212136,0.22895819,0
1.420000000000001,8.051174795762481,-1.2973277806173495,-0.9137966429098383,0.8500829345925099,13.8654375,-2.3527904,-4.136052,3.3424215,4.5779843,-5.724736,1.9913732,-0.531473,-0.074898966,-0.25642276,-0.80384934,-6.504955,9.323027,0.7668985,-1.4287263,-0.7512715,0.25943696,0
1.430000000000001,8.051174795762481,-1.2973277806173495,-0.9137966429098383,0.8500829345925099,13.8654375,-2.3527904,-4.136052,3.3424215,4.513092,-5.631373,1.9988976,-0.5318646,-0.07455089,-0.24858059,-0.80608296,-6.47357,9.349472,0.7380633,-1.408216,-0.7766404,0.2884201,0
1.440000000000001,8.051174795762481,-1.2973277806173495,-0.9137966429098383,0.8500829345925099,12.839291,-1.9849449,-3.217253,2.6564763,4.4485106,-5.53775,2.006137,-0.53212875,-0.07437721,-0.24072528,-0.8083058,-6.4428525,9.375009,0.70986545,-1.3909049,-0.7980516,0.3159811,0
1.450000000000001,8.051174795762481,-1.2973277806173495,-0.9137966429098383,0.8500829345925099,12.839291,-1.9849449,-3.217253,2.6564763,4.384233,-5.4438763,2.013097,-0.5322666,-0.07435288,-0.23285586,-0.81051964,-6.412788,9.399616,0.68228227,-1.3762939,-0.81612253,0.3421896,0
1.460000000000001,8.051174795762481,-1.2973277806173495,-0.9137966429098383,0.8500829345925099,12.839291,-1.9849449,-3.217253,2.6564763,4.320253,-5.349761,2.0197845,-0.5322796,-0.07445648,-0.22497156,-0.81272537,-6.3833656,9.423276,0.65529156,-1.3639623,-0.8313743,0.36711207,0
1.470000000000001,8.051174795762481,-1.2973277806173495,-0.9137966429098383,0.8500829345925099,12.839291,-1.9849449,-3.217253,2.6564763,4.2565637,-5.2554145,2.0262048,-0.53216964,-0.07466963,-0.21707186,-0.8149232,-6.354575,9.445972,0.62887144,-1.3535544,-0.84424645,0.39081162,0
1.480000000000001,7.505300554018341,-1.2169412249610572,-0.771234461632286,0.9746273523608618,9.755098,-1.3265442,-0.92058396,1.3185908,4.1931586,-5.1608453,2.032364,-0.5319389,-0.07497656,-0.20915638,-0.81711274,-6.326408,9.4676895,0.6030006,-1.3447706,-0.8551103,0.4133482,0
1.490000000000001,7.505300554018341,-1.2169412249610572,-0.771234461632286,0.9746273523608618,9.755098,-1.3265442,-0.92058396,1.3185908,4.130023,-5.066071,2.038242,-0.5315631,-0.07533737,-0.20128049,-0.81929916,-6.3007264,9.48701,0.572724,-1.3248242,-0.84204847,0.44089034,0
1.500000000000001,7.505300554018341,-1.2169412249610572,-0.771234461632286,0.9746273523608618,9.755098,-1.3265442,-0.92058396,1.3185908,4.067142,-4.971108,2.0438201,-0.5310229,-0.07571977,-0.19348818,-0.8214886,-6.275614,9.505407,0.5429154,-1.307989,-0.8310225,0.46708095,0
1.5100000000000011,7.505300554018341,-1.2169412249610572,-0.771234461632286,0.9746273523608618,9.755098,-1.3265442,-0.92058396,1.3185908,4.0045085,-4.8759656,2.049102,-0.5303273,-0.076121375,-0.18576406,-0.82368094,-6.2510643,9.522886,0.51355135,-1.2937796,-0.82171535,0.4919864,0
1.5200000000000011,7.175526562133131,-1.2130065040569398,-0.34910773446703125,1.0788825795082027,9.319514,-1.323101,-0.61454177,1.1395098,3.9421184,-4.7806535,2.0540926,-0.5294844,-0.07654003,-0.17809519,-0.8258753,-6.227074,9.539452,0.48460975,-1.2817867,-0.81385887,0.51566976,0
1.5300000000000011,7.175526562133131,-1.2130065040569398,-0.34910773446703125,1.0788825795082027,9.319514,-1.323101,-0.61454177,1.1395098,3.87996,-4.6851835,2.0587804,-0.52846116,-0.07683717,-0.17056048,-0.82809055,-6.20467,9.554422,0.453013,-1.2710713,-0.7414006,0.54330677,0
1.5400000000000011,7.175526562133131,-1.2130065040569398,-0.34910773446703125,1.0788825795082027,9.319514,-1.323101,-0.61454177,1.1395098,3.818023,-4.589568,2.063154,-0.52723306,-0.07690264,-0.16322185,-0.8303431,-6.18281,9.568558,0.42177892,-1.262026,-0.6802413,0.5695876,0
1.5500000000000012,7.175526562133131,-1.2130065040569398,-0.34910773446703125,1.0788825795082027,9.319514,-1.323101,-0.61454177,1.1395098,3.7563019,-4.4938154,2.067217,-0.525818,-0.07677284,-0.15604654,-0.8326287,-6.161507,9.581895,0.39088786,-1.2543902,-0.6286189,0.5945788,0
1.5600000000000012,7.483984187310676,-1.3862665958373594,0.1907468302542064,1.2225037884471615,9.536389,-1.528101,-1.1327312,1.362992,3.6947906,-4.397933,2.070973,-0.5242311,-0.07647838,-0.14900689,-0.8349428,-6.1407733,9.594463,0.36032197,-1.2479442,-0.5850462,0.6183438,0
1.5700000000000012,7.483984187310676,-1.3862665958373594,0.1907468302542064,1.2225037884471615,9.536389,-1.528101,-1.1327312,1.362992,3.6334884,-4.3019266,2.074439,-0.5224441,-0.07583077,-0.14213347,-0.83731693,-6.119756,9.606803,0.33298168,-1.2695552,-0.46409494,0.64799005,0
1.5800000000000012,7.483984187310676,-1.3862665958373594,0.1907468302542064,1.2225037884471615,9.536389,-1.528101,-1.1327312,1.362992,3.5723934,-4.2057996,2.0776334,-0.52043515,-0.074681714,-0.13544858,-0.83977574,-6.099389,9.618429,0.30595165,-1.2877924,-0.36200407,0.67618155,0
1.5900000000000012,7.483984187310676,-1.3862665958373594,0.1907468302542064,1.2225037884471615,9.536389,-1.528101,-1.1327312,1.362992,3.5114982,-4.1095595,2.0805593,-0.518224,-0.0731091,-0.12891978,-0.8423053,-6.0797176,9.629399,0.27922133,-1.3031824,-0.27583244,0.70298976,0
1.6000000000000012,8.550311757071,-1.753629943316772,0.839338776773574,1.4456906184603322,9.869547,-1.9025214,-0.4887834,1.3798879,3.4507966,-4.0132136,2.083219,-0.51582736,-0.07117867,-0.12251992,-0.844893,-6.0607815,9.639759,0.2527802,-1.316169,-0.20309754,0.7284824,0
1.6100000000000012,8.550311757071,-1.753629943316772,0.839338776773574,1.4456906184603322,9.869547,-1.9025214,-0.4887834,1.3798879,3.3902934,-3.9167597,2.0856671,-0.5132146,-0.06865398,-0.11623348,-0.8475769,-6.040034,9.65095,0.2368688,-1.3844668,-0.040594224,0.763676,0
1.6200000000000012,8.550311757071,-1.753629943316772,0.839338776773574,1.4456906184603322,9.869547,-1.9025214,-0.4887834,1.3798879,3.3299928,-3.8201966,2.0879576,-0.5103588,-0.06535021,-0.110045426,-0.8503839,-6.0202665,9.661571,0.22127402,-1.4421077,0.09657079,0.7971426,0
1.6300000000000012,8.550311757071,-1.753629943316772,0.839338776773574,1.4456906184603322,9.869547,-1.9025214,-0.4887834,1.3798879,3.2698846,-3.72353,2.0900939,-0.5072773,-0.061388146,-0.10393582,-0.8532867,-6.001578,9.671693,0.20599255,-1.4907538,0.21234895,0.82896703,0
1.6400000000000012,8.550311757071,-1.753629943316772,0.839338776773574,1.4456906184603322,10.935331,-2.3437827,-0.24262501,1.8837241,3.2099571,-3.6267643,2.0920787,-0.5039842,-0.05686978,-0.09788831,-0.85626113,-5.9840527,9.681377,0.1910173,-1.5318079,0.31007537,0.85922986,0
1.6500000000000012,8.550311757071,-1.753629943316772,0.839338776773574,1.4456906184603322,10.935331,-2.3437827,-0.24262501,1.8837241,3.1501992,-3.5299037,2.0939152,-0.50049144,-0.05188129,-0.09188956,-0.85928607,-5.9677625,9.690668,0.17633761,-1.5664544,0.3925651,0.88800764,0
1.6600000000000013,8.550311757071,-1.753629943316772,0.839338776773574,1.4456906184603322,10.935331,-2.3437827,-0.24262501,1.8837241,3.0905976,-3.432952,2.0956063,-0.49680892,-0.046495516,-0.08592875,-0.8623427,-5.9527698,9.699601,0.16193977,-1.5956926,0.46219385,0.9153733,0
1.6700000000000013,8.550311757071,-1.753629943316772,0.839338776773574,1.4456906184603322,10.935331,-2.3437827,-0.24262501,1.8837241,3.0311394,-3.3359127,2.0971546,-0.49294534,-0.04077405,-0.07999721,-0.86541456,-5.9391265,9.708201,0.14780717,-1.6203666,0.5209672,0.9413962,0
1.6800000000000013,9.774499128929202,-2.1215975671309786,1.2493931501578077,1.653977039908243,11.159035,-2.6114528,0.09757827,2.2402747,2.9718106,-3.2387888,2.0985632,-0.4889083,-0.034769,-0.07408803,-0.8684874,-5.9268785,9.716487,0.13392076,-1.6411883,0.5705778,0.96614206,0
1.6900000000000013,9.774499128929202,-2.1215975671309786,1.2493931501578077,1.653977039908243,11.159035,-2.6114528,0.09757827,2.2402747,2.9126048,-3.141578,2.0998945,-0.4846746,-0.028311845,-0.06814665,-0.87157595,-5.914524,9.725616,0.13234973,-1.716189,0.6763539,0.99989426,0
1.7000000000000013,9.774499128929202,-2.1215975671309786,1.2493931501578077,1.653977039908243,11.159035,-2.6114528,0.09757827,2.2402747,2.853514,-3.0442777,2.101211,-0.4802207,-0.02127155,-0.062128365,-0.8746858,-5.903915,9.73443,0.13101529,-1.7794863,0.76564074,1.0319904,0
1.7100000000000013,9.774499128929202,-2.1215975671309786,1.2493931501578077,1.653977039908243,11.159035,-2.6114528,0.09757827,2.2402747,2.7945201,-2.9468906,2.1025152,-0.4755528,-0.013739385,-0.056041934,-0.87779254,-5.8951516,9.742948,0.12989178,-1.8329057,0.8410094,1.0625116,0
1.7200000000000013,11.04990390718959,-2.2919221347369927,1.6244213865019983,1.7420464864784428,12.011091,-2.6946034,0.26990554,2.5344958,2.7356043,-2.8494196,2.1038094,-0.47067645,-0.005792632,-0.049895443,-0.8808747,-5.8883204,9.751182,0.12894784,-1.8779881,0.90462977,1.091535,0
1.7300000000000013,11.04990390718959,-2.2919221347369927,1.6244213865019983,1.7420464864784428,12.011091,-2.6946034,0.26990554,2.5344958,2.6767504,-2.7518628,2.1051583,-0.4655799,0.0026670308,-0.04370646,-0.8839217,-5.8828707,9.760178,0.14084315,-1.9426417,1.0167946,1.1234556,0
1.7400000000000013,11.04990390718959,-2.2919221347369927,1.6244213865019983,1.7420464864784428,12.011091,-2.6946034,0.26990554,2.5344958,2.617939,-2.6542175,2.1066267,-0.46025184,0.011713954,-0.037488736,-0.88691896,-5.879808,9.768887,0.15285374,-1.9972029,1.111474,1.15381,0
1.7500000000000013,11.04990390718959,-2.2919221347369927,1.6244213865019983,1.7420464864784428,12.011091,-2.6946034,0.26990554,2.5344958,2.5591457,-2.5564861,2.1082158,-0.45469782,0.021255147,-0.031244567,-0.8898435,-5.879243,9.777328,0.16492607,-2.0432467,1.1913949,1.182675,0
1.7600000000000013,12.078613391134349,-2.394075309572111,1.5043931600480591,1.7747538953679758,15.288012,-3.3135705,-1.6183212,3.5875616,2.500345,-2.4586716,2.1099255,-0.44892314,0.031211626,-0.024976728,-0.8926755,-5.881267,9.785512,0.17700051,-2.0821018,1.2588582,1.2101234,0
1.7700000000000014,12.078613391134349,-2.394075309572111,1.5043931600480591,1.7747538953679758,15.288012,-3.3135705,-1.6183212,3.5875616,2.441509,-2.3607728,2.1118069,-0.44292882,0.041491434,-0.018630458,-0.8954022,-5.8863935,9.794172,0.19926372,-2.1308074,1.2970724,1.23783,0
1.7800000000000014,12.078613391134349,-2.394075309572111,1.5043931600480591,1.7747538953679758,15.288012,-3.3135705,-1.6183212,3.5875616,2.382607,-2.2627892,2.1139104,-0.4367152,0.05201731,-0.012163501,-0.89801216,-5.8945026,9.802517,0.22138506,-2.1719127,1.3293334,1.2641771,0
1.7900000000000014,12.078613391134349,-2.394075309572111,1.5043931600480591,1.7747538953679758,15.288012,-3.3135705,-1.6183212,3.5875616,2.3236086,-2.1647239,2.1162338,-0.43028644,0.06274696,-0.0055958396,-0.9004915,-5.90565,9.810501,0.24328712,-2.2066033,1.3565695,1.2892313,0
1.8000000000000014,12.673834460139329,-2.4613501567550906,0.8967811646527293,1.7280532103452786,15.046817,-2.8652785,-1.2146139,3.020116,2.2644835,-2.0665805,2.118775,-0.42364696,0.073644266,0.0010550641,-0.90282804,-5.919879,9.818083,0.26488918,-2.23588,1.3795632,1.313056,0
1.8100000000000014,12.673834460139329,-2.4613501567550906,0.8967811646527293,1.7280532103452786,15.046817,-2.8652785,-1.2146139,3.020116,2.2051961,-1.968362,2.1215596,-0.41680422,0.08446996,0.007900998,-0.90502834,-5.938066,9.825553,0.29198962,-2.270995,1.3042135,1.3334202,0
1.8200000000000014,12.673834460139329,-2.4613501567550906,0.8967811646527293,1.7280532103452786,15.046817,-2.8652785,-1.2146139,3.020116,2.1457107,-1.8700718,2.124613,-0.40976536,0.095031925,0.015027547,-0.9071026,-5.9594817,9.832414,0.31861344,-2.3006413,1.24062,1.3527849,0
1.8300000000000014,12.673834460139329,-2.4613501567550906,0.8967811646527293,1.7280532103452786,15.046817,-2.8652785,-1.2146139,3.020116,2.0859954,-1.7717164,2.1279297,-0.40253484,0.10536531,0.02238549,-0.9090448,-5.984079,9.838531,0.344688,-2.325671,1.1869484,1.3711995,0
1.8400000000000014,12.673834460139329,-2.4613501567550906,0.8967811646527293,1.7280532103452786,15.655064,-2.8223839,-1.720391,3.0156853,2.0260184,-1.6733041,2.1315043,-0.39511758,0.11549979,0.029933192,-0.9108488,-6.0118084,9.8437805,0.37014064,-2.3468027,1.1416512,1.3887104,0
1.8500000000000014,12.673834460139329,-2.4613501567550906,0.8967811646527293,1.7280532103452786,15.655064,-2.8223839,-1.720391,3.0156853,1.9657487,-1.5748441,2.13533,-0.38751882,0.12546024,0.0376354,-0.9125087,-6.042621,9.848056,0.3948985,-2.364644,1.1034219,1.4053621,0
1.8600000000000014,12.673834460139329,-2.4613501567550906,0.8967811646527293,1.7280532103452786,15.655064,-2.8223839,-1.720391,3.0156853,1.9051555,-1.4763467,2.1393995,-0.37974402,0.13526757,0.045462236,-0.9140187,-6.076465,9.851257,0.41888878,-2.3797069,1.0711582,1.4211968,0
1.8700000000000014,12.673834460139329,-2.4613501567550906,0.8967811646527293,1.7280532103452786,15.655064,-2.8223839,-1.720391,3.0156853,1.844209,-1.3778231,2.1437047,-0.37179875,0.14493924,0.053388305,-0.915373,-6.1132894,9.853294,0.44203886,-2.392424,1.043929,1.4362544,0
1.8800000000000014,12.515086235267633,-2.2662022979732046,-0.010469427658357188,1.5197615041856383,15.51935,-2.861229,-1.7927835,2.6694357,1.7828796,-1.2792852,2.1482372,-0.36368865,0.15448979,0.06139203,-0.91656655,-6.153039,9.854087,0.4642763,-2.4031608,1.0209488,1.450573,0
1.8900000000000015,12.515086235267633,-2.2662022979732046,-0.010469427658357188,1.5197615041856383,15.51935,-2.861229,-1.7927835,2.6694357,1.721141,-1.180746,2.1529796,-0.3554328,0.16356878,0.06951832,-0.91764903,-6.195107,9.853556,0.48404014,-2.381652,0.8601146,1.453968,0
1.9000000000000015,12.515086235267633,-2.2662022979732046,-0.010469427658357188,1.5197615041856383,15.51935,-2.861229,-1.7927835,2.6694357,1.6589682,-1.0822191,2.1579146,-0.3470508,0.17190005,0.07779947,-0.9186692,-6.239825,9.851572,0.502809,-2.3635209,0.72435963,1.4571966,0
1.9100000000000015,12.515086235267633,-2.2662022979732046,-0.010469427658357188,1.5197615041856383,15.51935,-2.861229,-1.7927835,2.6694357,1.5963359,-0.98372,2.1630323,-0.33854866,0.17959455,0.086202174,-0.9196193,-6.2870073,9.847999,0.5205667,-2.3482368,0.6097729,1.4602665,0
1.9200000000000015,12.062843090930734,-1.8279966398575305,-0.7041045141319744,1.17651516418602,15.71109,-2.7234979,-2.314713,2.477917,1.53322,-0.885265,2.1683226,-0.32993215,0.18674581,0.09469886,-0.92049056,-6.3364897,9.842718,0.53729564,-2.3353527,0.5130542,1.4631859,0
1.9300000000000015,12.062843090930734,-1.8279966398575305,-0.7041045141319744,1.17651516418602,15.71109,-2.7234979,-2.314713,2.477917,1.469608,-0.7868706,2.1737545,-0.32125255,0.19311607,0.10320389,-0.9213316,-6.386238,9.835883,0.54887223,-2.256047,0.32333508,1.4491189,0
1.9400000000000015,12.062843090930734,-1.8279966398575305,-0.7041045141319744,1.17651516418602,15.71109,-2.7234979,-2.314713,2.477917,1.405489,-0.6885537,2.179297,-0.31255797,0.19852273,0.11164788,-0.9221881,-6.437804,9.827206,0.55947495,-2.18914,0.16318853,1.4357421,0
1.9500000000000015,12.062843090930734,-1.8279966398575305,-0.7041045141319744,1.17651516418602,15.71109,-2.7234979,-2.314713,2.477917,1.3408464,-0.5903331,2.184941,-0.30384862,0.20311236,0.12003228,-0.9230458,-6.4909487,9.816602,0.56914276,-2.132693,0.028005064,1.4230218,0
1.9600000000000015,10.979185926202344,-1.4691307855303173,-1.6772124935100885,0.7766920892245146,15.867106,-2.6475186,-3.522884,1.9933071,1.2756653,-0.4922285,2.190677,-0.2951247,0.20700823,0.12835903,-0.9238901,-6.5454617,9.804004,0.5779086,-2.0850706,-0.08610651,1.4109256,0
1.9700000000000015,10.979185926202344,-1.4691307855303173,-1.6772124935100885,0.7766920892245146,15.867106,-2.6475186,-3.522884,1.9933071,1.2099581,-0.39425367,2.1964483,-0.28641143,0.20990597,0.13662148,-0.92479324,-6.596138,9.790667,0.57628584,-1.9887937,-0.33410975,1.3798037,0
1.9800000000000015,10.979185926202344,-1.4691307855303173,-1.6772124935100885,0.7766920892245146,15.867106,-2.6475186,-3.522884,1.9933071,1.1437399,-0.29642186,2.2022,-0.2777329,0.21156968,0.14481293,-0.92581415,-6.6476107,9.775382,0.57395035,-1.9075748,-0.5434561,1.3502088,0
1.9900000000000015,10.979185926202344,-1.4691307855303173,-1.6772124935100885,0.7766920892245146,15.867106,-2.6475186,-3.522884,1.9933071,1.0770042,-0.19875295,2.207925,-0.2690877,0.21218665,0.15293592,-0.9269191,-6.6996136,9.758079,0.5709826,-1.8390574,-0.7201708,1.322066,0
2.0000000000000013,,,,,14.88877,-2.2193305,-4.103333,1.5030627,1.0097467,-0.101267405,2.2136178,-0.26047438,0.21191436,0.16099328,-0.9280767,-6.7519174,9.738705,0.5674493,-1.7812544,-0.86934024,1.2953042,0
2.010000000000001,,,,,14.88877,-2.2193305,-4.103333,1.5030627,0.94198215,-0.0039794073,2.2192423,-0.25191507,0.2105362,0.16896138,-0.92933583,-6.800975,9.718582,0.5574348,-1.6809452,-1.1237847,1.2487199,0
2.020000000000001,,,,,14.88877,-2.2193305,-4.103333,1.5030627,0.8737278,0.09309726,2.224765,-0.24343087,0.20788588,0.17681983,-0.9307306,-6.84985,9.696433,0.54703486,-1.5963236,-1.3385694,1.2044216,0
2.0300000000000007,,,,,14.88877,-2.2193305,-4.103333,1.5030627,0.80498666,0.18994215,2.230182,-0.23501888,0.2041529,0.18457611,-0.932212,-6.8982863,9.67222,0.53633213,-1.5249344,-1.5198756,1.1622971,0
2.0400000000000005,,,,,14.88877,-2.2193305,-4.103333,1.5030627,0.7357643,0.28653446,2.2354908,-0.2266765,0.1994968,0.19223686,-0.93373644,-6.946059,9.645919,0.52539045,-1.4647068,-1.6729214,1.1222397,0
2.0500000000000003,,,,,13.90609,-1.7035651,-4.128055,0.7499494,0.66606843,0.3828533,2.2406893,-0.21840145,0.19405209,0.1998079,-0.93526536,-6.9929733,9.617519,0.51425683,-1.4138939,-1.8021113,1.0841478,1
2.06,,,,,13.90609,-1.7035651,-4.128055,0.7499494,0.59582734,0.4788244,2.2459288,-0.20996894,0.18738072,0.20763487,-0.93685067,-7.054999,9.576238,0.53356963,-1.4588351,-2.164857,1.0677487,1
2.07,,,,,13.90609,-1.7035651,-4.128055,0.7499494,0.5249748,0.5743676,2.2513604,-0.20118475,0.17913595,0.21597995,-0.93850285,-7.1151905,9.531897,0.5527199,-1.4968126,-2.4710279,1.0521541,1
2.0799999999999996,,,,,13.90609,-1.7035651,-4.128055,0.7499494,0.45353135,0.6694511,2.2569828,-0.19208927,0.16954611,0.22473527,-0.94013286,-7.1731234,9.484298,0.57172996,-1.5289048,-2.7294474,1.0373249,1
2.0899999999999994,,,,,14.788504,-1.4307,-4.5027294,0.26943013,0.38152146,0.76404184,2.2627945,-0.18271777,0.15880507,0.23380929,-0.9416625,-7.2284136,9.433303,0.5905868,-1.5560228,-2.947564,1.0232233,1
2.099999999999999,,,,,14.788504,-1.4307,-4.5027294,0.26943013,0.30895662,0.8580881,2.268831,-0.17313872,0.146903,0.24305733,-0.9430618,-7.2840214,9.375366,0.61666083,-1.5363938,-3.1900408,0.9862344,1
2.109999999999999,,,,,14.788504,-1.4307,-4.5027294,0.26943013,0.23585339,0.95153624,2.275127,-0.16341387,0.13384017,0.25235814,-0.9442977,-7.3360324,9.313689,0.6424908,-1.519857,-3.3947084,0.9510606,1
2.1199999999999988,,,,,14.788504,-1.4307,-4.5027294,0.26943013,0.16224965,1.0443491,2.2816799,-0.15356371,0.11978351,0.26167127,-0.9453033,-7.384061,9.2482815,0.66801375,-1.5059239,-3.5674624,0.9176128,1
2.1299999999999986,,,,,14.015705,-1.0149803,-4.209755,-0.14688805,0.08818701,1.1364893,2.288486,-0.14360699,0.1048759,0.27096212,-0.94602203,-7.427764,9.179188,0.6931354,-1.4941823,-3.7132783,0.8858062,1
2.1399999999999983,,,,,14.015705,-1.0149803,-4.209755,-0.14688805,0.013720674,1.2279392,2.2955086,-0.13365866,0.089313924,0.28003296,-0.94643545,-7.4647994,9.110297,0.71132797,-1.4195316,-3.7906134,0.8351316,1
2.149999999999998,,,,,14.015705,-1.0149803,-4.209755,-0.14688805,-0.061093137,1.3186841,2.3027105,-0.12381843,0.073262,0.288729,-0.94653964,-7.4972277,9.038167,0.7289301,-1.3565274,-3.8559012,0.7869436,1
2.159999999999998,,,,,14.015705,-1.0149803,-4.209755,-0.14688805,-0.1362074,1.4086921,2.310085,-0.114081696,0.05679032,0.29708025,-0.9463105,-7.5248637,8.962991,0.74583495,-1.3033519,-3.9110184,0.7411202,1
2.1699999999999977,,,,,10.959101,-0.63972867,-3.0586734,-0.6090074,-0.21157339,1.497934,2.3176246,-0.10444513,0.039959487,0.30511144,-0.945728,-7.5475492,8.884964,0.7619216,-1.2584703,-3.9575486,0.6975454,1
2.1799999999999975,,,,,10.959101,-0.63972867,-3.0586734,-0.6090074,-0.28712088,1.5864699,2.3251967,-0.09510792,0.02322517,0.3126588,-0.9448066,-7.5613317,8.82189,0.7523672,-1.1622014,-3.8172767,0.63343245,1
2.1899999999999973,,,,,10.959101,-0.63972867,-3.0586734,-0.6090074,-0.36278662,1.6743656,2.332669,-0.086239226,0.006950868,0.3196058,-0.9435924,-7.571209,8.75697,0.74199796,-1.0809181,-3.6988964,0.5724656,1
2.199999999999997,,,,,10.959101,-0.63972867,-3.0586734,-0.6090074,-0.43853194,1.7616037,2.3400335,-0.07779492,-0.008939708,0.32603356,-0.9421094,-7.57727,8.690422,0.73075044,-1.0122882,-3.59899,0.51449037,1
