time-since-start [s],throttle_mpc,roll_mpc,pitch_mpc,yaw_mpc,throttle_nw,roll_nw,pitch_nw,yaw_nw,position_x [m],position_y [m],position_z [m],rotation_w [quaternion],rotation_x [quaternion],rotation_y [quaternion],rotation_z [quaternion],velocity_x [m/s],velocity_y [m/s],velocity_z [m/s],omega_x [rad/s],omega_y [rad/s],omega_z [rad/s],network_used
0.0,10.73539867176496,5.999999621838848,-5.999999858210802,-0.8620393085434881,15.02849,2.0845613,-3.792441,-0.5442431,19.423616,-9.862,1.6932483,-0.009531219,0.4309369,-0.19432898,-0.88115764,-10.75669,-4.6289062,0.48684448,1.8234191,-0.21483065,-0.2419816,0
0.01,10.73539867176496,5.999999621838848,-5.999999858210802,-0.8620393085434881,14.786496,2.3927348,-5.2950683,-0.8560643,19.315577,-9.908069,1.697971,-0.01564769,0.4284814,-0.20284423,-0.88034827,-10.850194,-4.5845137,0.4572357,2.300599,-0.9430901,-0.25681075,0
0.02,10.73539867176496,5.999999621838848,-5.999999858210802,-0.8620393085434881,14.786496,2.3927348,-5.2950683,-0.8560643,19.206627,-9.953688,1.7023839,-0.0235325,0.42288014,-0.21327856,-0.88041514,-10.939067,-4.5391574,0.42494917,2.7511065,-1.6055381,-0.27518308,0
0.03,10.73539867176496,5.999999621838848,-5.999999858210802,-0.8620393085434881,14.786496,2.3927348,-5.2950683,-0.8560643,19.096811,-9.998847,1.7064626,-0.033098456,0.41435486,-0.22546788,-0.88112354,-11.02294,-4.4923677,0.3905178,3.1760924,-2.2094343,-0.29665574,0
0.04,10.73539867176496,5.999999621838848,-5.999999858210802,-0.8620393085434881,14.829229,3.677989,-5.680628,-0.32165775,18.986187,-10.043529,1.7101883,-0.04425784,0.40308723,-0.23924735,-0.8822259,-11.101486,-4.443795,0.35434628,3.5767841,-2.7611594,-0.3208306,0
0.05,10.73539867176496,5.999999621838848,-5.999999858210802,-0.8620393085434881,14.829229,3.677989,-5.680628,-0.32165775,18.874802,-10.087715,1.7135451,-0.0569183,0.38923198,-0.2544485,-0.8834674,-11.174694,-4.3929915,0.31696978,3.94971,-3.261586,-0.34694102,0
0.060000000000000005,10.73539867176496,5.999999621838848,-5.999999858210802,-0.8620393085434881,14.829229,3.677989,-5.680628,-0.32165775,18.762705,-10.131376,1.7165297,-0.070921406,0.37300354,-0.2708336,-0.88458323,-11.243966,-4.338446,0.2800955,4.2692947,-3.6887825,-0.37221703,0
0.07,10.73539867176496,5.999999621838848,-5.999999858210802,-0.8620393085434881,14.829229,3.677989,-5.680628,-0.32165775,18.649935,-10.17447,1.7191497,-0.0860567,0.35466933,-0.28811765,-0.8853202,-11.308999,-4.2797556,0.24402839,4.5390463,-4.0493517,-0.39625272,0
0.08,14.836562794718313,5.99999970635881,-5.999999889968191,-0.8535331304296777,16.454344,3.1414266,-3.1478624,-0.25490832,18.536541,-10.216955,1.7214128,-0.1021332,0.33446583,-0.3060487,-0.88545763,-11.369182,-4.216857,0.20872352,4.766738,-4.353684,-0.419109,0
0.09,14.836562794718313,5.99999970635881,-5.999999889968191,-0.8535331304296777,16.454344,3.1414266,-3.1478624,-0.25490832,18.422464,-10.258665,1.7234472,-0.118978865,0.31260106,-0.3244075,-0.8848073,-11.444849,-4.1241693,0.19830647,4.9589305,-4.610547,-0.44042632,0
0.09999999999999999,14.836562794718313,5.99999970635881,-5.999999889968191,-0.8535331304296777,16.454344,3.1414266,-3.1478624,-0.25490832,18.307673,-10.29942,1.7253811,-0.13643885,0.2892609,-0.3430025,-0.88321084,-11.512261,-4.025912,0.18855399,5.1211586,-4.8273454,-0.46069762,0
0.10999999999999999,14.836562794718313,5.99999970635881,-5.999999889968191,-0.8535331304296777,16.454344,3.1414266,-3.1478624,-0.25490832,18.192251,-10.339166,1.7272196,-0.1543741,0.2646135,-0.36166593,-0.88053715,-11.5707245,-3.9223938,0.17916496,5.2580957,-5.0103273,-0.47997418,0
0.11999999999999998,14.836562794718313,5.99999970635881,-5.999999889968191,-0.8535331304296777,16.454344,3.1414266,-3.1478624,-0.25490832,18.076292,-10.377851,1.7289644,-0.17265855,0.23881227,-0.3802507,-0.87667936,-11.619615,-3.8140337,0.16978303,5.3736854,-5.1647663,-0.4983048,0
0.12999999999999998,20.999991044627407,5.9999983390583616,-5.999999787059987,-1.5490459457809505,17.314123,1.9822836,-3.820912,-0.42651272,17.959894,-10.415431,1.730614,-0.19117749,0.21199815,-0.39862764,-0.8715524,-11.658382,-3.7013464,0.16000777,5.4712563,-5.2951145,-0.515736,0
0.13999999999999999,20.999991044627407,5.9999983390583616,-5.999999787059987,-1.5490459457809505,17.314123,1.9822836,-3.820912,-0.42651272,17.843098,-10.451623,1.732344,-0.20990105,0.18433617,-0.41666543,-0.865073,-11.69826,-3.5365686,0.18575329,5.553498,-5.405252,-0.5664408,0
0.15,20.999991044627407,5.9999983390583616,-5.999999787059987,-1.5490459457809505,17.314123,1.9822836,-3.820912,-0.42651272,17.725983,-10.486146,1.7343229,-0.22880243,0.15598185,-0.43425003,-0.8571731,-11.722603,-3.3674657,0.20968066,5.6229224,-5.498205,-0.6146575,0
0.16,20.999999179957243,3.207991274924285,-5.999999426172219,-0.4766893897658593,17.825548,0.36218137,-3.5572302,-0.60677207,17.608704,-10.518961,1.7365291,-0.24778487,0.12704788,-0.45129874,-0.84781516,-11.730992,-3.1950793,0.23112556,5.681529,-5.5766525,-0.66050816,0
0.17,20.999999179957243,3.207991274924285,-5.999999426172219,-0.4766893897658593,17.825548,0.36218137,-3.5572302,-0.60677207,17.491419,-10.550041,1.7389346,-0.2665205,0.097865924,-0.4668212,-0.8375361,-11.723199,-3.0205705,0.24949282,5.2957873,-5.642476,-0.65148807,0
0.18000000000000002,20.999999179957243,3.207991274924285,-5.999999426172219,-0.4766893897658593,17.825548,0.36218137,-3.5572302,-0.60677207,17.374292,-10.5793705,1.7415078,-0.2847834,0.06873352,-0.48007673,-0.82686156,-11.699442,-2.8453786,0.26463205,4.9702044,-5.6980658,-0.64291066,0
0.19000000000000003,20.999999179957243,3.207991274924285,-5.999999426172219,-0.4766893897658593,17.825548,0.36218137,-3.5572302,-0.60677207,17.25748,-10.606952,1.7442161,-0.30262008,0.039695837,-0.49133232,-0.8157435,-11.660119,-2.6709213,0.2765268,4.6953993,-5.7450123,-0.6347541,0
0.20000000000000004,20.999999010280195,0.5836756226204342,-4.547848439134335,-0.18870877628297786,17.279795,-1.8346554,-2.1309156,-0.5940427,17.141138,-10.632796,1.7470269,-0.32005945,0.010788899,-0.50081146,-0.80413496,-11.605672,-2.4984934,0.28512883,4.4634514,-5.784659,-0.6269978,0
0.21000000000000005,20.999999010280195,0.5836756226204342,-4.547848439134335,-0.18870877628297786,17.279795,-1.8346554,-2.1309156,-0.5940427,17.025415,-10.656932,1.7499073,-0.3368026,-0.017168308,-0.50806355,-0.792553,-11.536675,-2.329284,0.29042247,3.85856,-5.5914774,-0.60549086,0
0.22000000000000006,20.999999010280195,0.5836756226204342,-4.547848439134335,-0.18870877628297786,17.279795,-1.8346554,-2.1309156,-0.5940427,16.910448,-10.679396,1.7528251,-0.35266438,-0.043519486,-0.512814,-0.7815083,-11.454253,-2.1643343,0.29273638,3.3479807,-5.4284782,-0.5850392,0
0.23000000000000007,20.999999010280195,0.5836756226204342,-4.547848439134335,-0.18870877628297786,17.279795,-1.8346554,-2.1309156,-0.5940427,16.796371,-10.700235,1.7557532,-0.36780193,-0.06846445,-0.5154608,-0.77093065,-11.359598,-2.0044878,0.2924928,2.9170084,-5.290943,-0.56559116,0
0.24000000000000007,20.999999010280195,0.5836756226204342,-4.547848439134335,-0.18870877628297786,17.678246,-3.8594782,0.3702086,-0.33176866,16.683294,-10.719504,1.7586676,-0.38233554,-0.09217951,-0.51632905,-0.7607407,-11.253766,-1.8504276,0.29006457,2.5532312,-5.1748934,-0.54709744,0
0.25000000000000006,20.999999010280195,0.5836756226204342,-4.547848439134335,-0.18870877628297786,17.678246,-3.8594782,0.3702086,-0.33176866,16.57133,-10.737266,1.7615482,-0.39635646,-0.114818685,-0.51568496,-0.7508574,-11.137702,-1.7027178,0.28577176,2.2461731,-5.0769706,-0.5295113,0
0.26000000000000006,20.999999010280195,0.5836756226204342,-4.547848439134335,-0.18870877628297786,17.678246,-3.8594782,0.3702086,-0.33176866,16.460573,-10.753584,1.7643775,-0.40993342,-0.13651541,-0.513747,-0.74120295,-11.012252,-1.5618311,0.2798825,1.9869905,-4.9943433,-0.512788,0
0.2700000000000001,20.999999010280195,0.5836756226204342,-4.547848439134335,-0.18870877628297786,17.678246,-3.8594782,0.3702086,-0.33176866,16.351114,-10.768529,1.7671409,-0.42311764,-0.15738457,-0.5106946,-0.73170495,-10.878182,-1.4281709,0.27261546,1.7682186,-4.924621,-0.49688533,0
0.2800000000000001,20.999997388711876,-1.9363149390268937,-0.4189802142089282,-0.16442602918157373,17.963577,-3.66022,2.1361947,-0.44083783,16.243036,-10.782175,1.7698256,-0.43594664,-0.17752458,-0.506676,-0.72229815,-10.736196,-1.3020861,0.26414397,1.5835567,-4.8657875,-0.481763,0
0.2900000000000001,20.999997388711876,-1.9363149390268937,-0.4189802142089282,-0.16442602918157373,17.963577,-3.66022,2.1361947,-0.44083783,16.136414,-10.794599,1.7724202,-0.44780916,-0.19539429,-0.50183046,-0.7137604,-10.587067,-1.1837639,0.25465724,1.0348951,-4.1721272,-0.4661912,0
0.3000000000000001,20.999997388711876,-1.9363149390268937,-0.4189802142089282,-0.16442602918157373,17.963577,-3.66022,2.1361947,-0.44083783,16.031313,-10.805875,1.7749169,-0.45829603,-0.20980278,-0.4963579,-0.70680696,-10.432181,-1.0726569,0.24464874,0.57174903,-3.58668,-0.45138353,0
0.3100000000000001,20.999997388711876,-1.9363149390268937,-0.4189802142089282,-0.16442602918157373,17.963577,-3.66022,2.1361947,-0.44083783,15.927785,-10.816073,1.7773134,-0.46768567,-0.22129668,-0.49042878,-0.7012682,-10.272894,-0.9679922,0.23468728,0.18079163,-3.0925624,-0.43730244,0
0.3200000000000001,20.549298459863422,-4.359193236069663,5.323243095784665,0.25915169262583804,17.820282,-4.731649,5.5573697,-0.18489744,15.825867,-10.825254,1.7796125,-0.4761938,-0.23033483,-0.4841638,-0.69697225,-10.110285,-0.86905706,0.22528447,-0.14922747,-2.675526,-0.42391232,0
0.3300000000000001,20.549298459863422,-4.359193236069663,5.323243095784665,0.25915169262583804,17.820282,-4.731649,5.5573697,-0.18489744,15.725569,-10.833483,1.781813,-0.4830763,-0.23526779,-0.47806937,-0.69479173,-9.948902,-0.77704334,0.21501695,-0.8053923,-1.427958,-0.39039418,0
0.34000000000000014,20.549298459863422,-4.359193236069663,5.323243095784665,0.25915169262583804,17.820282,-4.731649,5.5573697,-0.18489744,15.62689,-10.840808,1.783919,-0.4877712,-0.23481481,-0.47257096,-0.6954261,-9.786786,-0.68806326,0.20651357,-1.359329,-0.37499893,-0.35852078,0
0.35000000000000014,20.549298459863422,-4.359193236069663,5.323243095784665,0.25915169262583804,17.820282,-4.731649,5.5573697,-0.18489744,15.529831,-10.847249,1.7859519,-0.4906377,-0.22981061,-0.46759757,-0.6984366,-9.625439,-0.60023314,0.20049699,-1.8269577,0.5137121,-0.32821143,0
0.36000000000000015,19.630235273895053,-5.782712641140082,5.999999382292288,-0.026194000028165926,17.65313,-7.2168527,7.1657915,0.34801278,15.434375,-10.852811,1.7879395,-0.49193606,-0.22094342,-0.46304804,-0.70339817,-9.466134,-0.5119604,0.19755791,-2.221721,1.2637988,-0.29938933,0
0.37000000000000016,19.630235273895053,-5.782712641140082,5.999999382292288,-0.026194000028165926,17.65313,-7.2168527,7.1657915,0.34801278,15.340462,-10.857502,1.7898934,-0.49187705,-0.20829567,-0.45854604,-0.71021473,-9.317017,-0.4259351,0.19377626,-2.7769284,2.002491,-0.28598356,0
0.38000000000000017,19.630235273895053,-5.782712641140082,5.999999382292288,-0.026194000028165926,17.65313,-7.2168527,7.1657915,0.34801278,15.24802,-10.86132,1.7918289,-0.49059987,-0.19194776,-0.45375222,-0.7187325,-9.172192,-0.3370824,0.19396779,-3.245584,2.6259606,-0.27323562,0
0.3900000000000002,19.630235273895053,-5.782712641140082,5.999999382292288,-0.026194000028165926,17.65313,-7.2168527,7.1657915,0.34801278,15.157,-10.864231,1.7937881,-0.48817614,-0.17242634,-0.44860575,-0.7284955,-9.032888,-0.24449341,0.19858368,-3.6411788,3.152182,-0.2611132,0
0.4000000000000002,19.581128354587296,-5.999883488524658,5.9999995934383925,-0.3914565911296693,17.264635,-8.891514,7.292869,0.7723589,15.067339,-10.866195,1.7958168,-0.4846542,-0.1501808,-0.443045,-0.73909855,-8.900285,-0.14749618,0.2078847,-3.9751012,3.5963247,-0.24958564,0
0.4100000000000002,19.581128354587296,-5.999883488524658,5.9999995934383925,-0.3914565911296693,17.264635,-8.891514,7.292869,0.7723589,14.978965,-10.867166,1.7979609,-0.48011363,-0.12553684,-0.43695417,-0.7502013,-8.775833,-0.04589077,0.22168075,-4.2907863,3.9712467,-0.2565473,0
0.4200000000000002,19.581128354587296,-5.999883488524658,5.9999995934383925,-0.3914565911296693,17.264635,-8.891514,7.292869,0.7723589,14.891792,-10.867095,1.8002666,-0.47461754,-0.09878091,-0.4302333,-0.7614981,-8.660315,0.06081648,0.24020153,-4.557247,4.287693,-0.26316732,0
0.4300000000000002,19.581128354587296,-5.999883488524658,5.9999995934383925,-0.3914565911296693,17.264635,-8.891514,7.292869,0.7723589,14.805724,-10.865932,1.8027805,-0.46817678,-0.070225246,-0.4228525,-0.7727058,-8.554803,0.17269611,0.26326242,-4.782161,4.5547843,-0.26946253,0
0.4400000000000002,19.581128354587296,-5.999883488524658,5.9999995934383925,-0.3914565911296693,17.833815,-8.098472,7.3121414,1.4364727,14.720656,-10.863626,1.8055464,-0.4608028,-0.040147256,-0.41478893,-0.7835806,-8.460303,0.289658,0.29053494,-4.972007,4.780217,-0.27544883,0
0.45000000000000023,19.581128354587296,-5.999883488524658,5.9999995934383925,-0.3914565911296693,17.833815,-8.098472,7.3121414,1.4364727,14.6364765,-10.860123,1.8086042,-0.45250896,-0.00879529,-0.4060271,-0.7939142,-8.377748,0.41146824,0.32156333,-5.132251,4.970489,-0.28114137,0
0.46000000000000024,19.581128354587296,-5.999883488524658,5.9999995934383925,-0.3914565911296693,17.833815,-8.098472,7.3121414,1.4364727,14.553059,-10.85538,1.8119887,-0.44331098,0.023606844,-0.39655843,-0.803529,-8.307978,0.5377649,0.35578045,-5.26751,5.1310835,-0.28655455,0
0.47000000000000025,19.581128354587296,-5.999883488524658,5.9999995934383925,-0.3914565911296693,17.833815,-8.098472,7.3121414,1.4364727,14.47027,-10.849354,1.8157284,-0.43322736,0.056856282,-0.3863807,-0.81227505,-8.251742,0.6680737,0.39252368,-5.38168,5.2666297,-0.29170212,0
0.48000000000000026,19.965581405395547,-4.387583197270671,5.999999372933506,-0.02870714445956143,19.324568,-6.971913,7.6693544,0.7698171,14.387975,-10.842006,1.8198452,-0.42227927,0.0907682,-0.37549734,-0.820026,-8.20968,0.80182266,0.43104997,-5.4780498,5.381034,-0.29659712,0
0.49000000000000027,19.965581405395547,-4.387583197270671,5.999999372933506,-0.02870714445956143,19.324568,-6.971913,7.6693544,0.7698171,14.30603,-10.833294,1.8243662,-0.41052413,0.1248879,-0.36445615,-0.82646483,-8.181733,0.9410586,0.47322294,-5.30802,5.477483,-0.28345168,0
0.5000000000000002,19.965581405395547,-4.387583197270671,5.999999372933506,-0.02870714445956143,19.324568,-6.971913,7.6693544,0.7698171,14.224288,-10.823178,1.8293093,-0.39805308,0.15884764,-0.3537203,-0.83138585,-8.168849,1.0825762,0.5153056,-5.1645083,5.5589004,-0.27095127,0
0.5100000000000002,19.965581405395547,-4.387583197270671,5.999999372933506,-0.02870714445956143,19.324568,-6.971913,7.6693544,0.7698171,14.142601,-10.811638,1.8346683,-0.38492927,0.19260527,-0.34318206,-0.8348401,-8.170976,1.2258004,0.55622655,-5.043379,5.627629,-0.25906432,0
0.5200000000000002,20.138334366021937,-2.129855565201677,5.999997076832031,0.3039033571536147,20.293545,-4.723586,7.603486,0.5128839,14.060819,-10.798658,1.8404264,-0.371205,0.22611697,-0.33275118,-0.83687156,-8.187993,1.3701229,0.59497,-4.94114,5.685646,-0.24776064,0
0.5300000000000002,20.138334366021937,-2.129855565201677,5.999997076832031,0.3039033571536147,20.293545,-4.723586,7.603486,0.5128839,13.97879,-10.784226,1.8465627,-0.3571094,0.25899646,-0.3231234,-0.8372481,-8.21992,1.5162028,0.6316993,-4.5028152,5.7345185,-0.22069032,0
0.5400000000000003,20.138334366021937,-2.129855565201677,5.999997076832031,0.3039033571536147,20.293545,-4.723586,7.603486,0.5128839,13.896372,-10.768333,1.8530457,-0.3428749,0.2909562,-0.3148673,-0.8358464,-8.2659445,1.6624273,0.66413236,-4.132844,5.775797,-0.19494836,0
0.5500000000000003,20.138334366021937,-2.129855565201677,5.999997076832031,0.3039033571536147,20.293545,-4.723586,7.603486,0.5128839,13.813426,-10.750978,1.8598272,-0.32853583,0.3220838,-0.3077372,-0.83284056,-8.325289,1.8085074,0.69124544,-3.8205671,5.81066,-0.17046957,0
0.5600000000000003,18.631922515371958,0.46693800074576824,3.157636231649584,0.20731177107951418,20.085852,-2.1027527,6.228149,0.36257598,13.729823,-10.732164,1.8668494,-0.31411138,0.3524461,-0.30152184,-0.82837176,-8.397211,1.9541337,0.7121428,-3.5569868,5.8401036,-0.14719196,0
0.5700000000000003,18.631922515371958,0.46693800074576824,3.157636231649584,0.20731177107951418,20.085852,-2.1027527,6.228149,0.36257598,13.645472,-10.711952,1.8740039,-0.30034775,0.3808469,-0.29655305,-0.8226801,-8.47461,2.0881681,0.7177111,-2.92956,5.4216805,-0.12979636,0
0.5800000000000003,18.631922515371958,0.46693800074576824,3.157636231649584,0.20731177107951418,20.085852,-2.1027527,6.228149,0.36257598,13.560297,-10.690403,1.8811805,-0.28789458,0.40640825,-0.29312882,-0.8161029,-8.561498,2.221405,0.71658397,-2.3999627,5.068533,-0.113254346,0
0.5900000000000003,18.631922515371958,0.46693800074576824,3.157636231649584,0.20731177107951418,20.085852,-2.1027527,6.228149,0.36257598,13.474213,-10.667525,1.8883122,-0.27661207,0.42959732,-0.2910256,-0.80884814,-8.656486,2.3538642,0.7086988,-1.9529423,4.7704763,-0.09752407,0
0.6000000000000003,17.165790586066468,2.5571056751892423,-0.9187694381301365,0.4378843820889692,20.524183,0.4649208,1.2584972,0.4315953,13.387143,-10.643327,1.8953313,-0.26636362,0.45079926,-0.29004487,-0.80106413,-8.758407,2.4856048,0.69405353,-1.5756234,4.518915,-0.08256567,0
0.6100000000000003,17.165790586066468,2.5571056751892423,-0.9187694381301365,0.4378843820889692,20.524183,0.4649208,1.2584972,0.4315953,13.299066,-10.617866,1.9021399,-0.25785986,0.46881235,-0.2902713,-0.7933883,-8.857689,2.6064115,0.66674006,-0.931234,3.6708608,-0.057027053,0
0.6200000000000003,17.165790586066468,2.5571056751892423,-0.9187694381301365,0.4378843820889692,20.524183,0.4649208,1.2584972,0.4315953,13.209976,-10.591199,1.9086477,-0.25168273,0.48275727,-0.29179513,-0.78641975,-8.96096,2.7269232,0.63402814,-0.38730344,2.9550838,-0.032741603,0
0.6300000000000003,17.165790586066468,2.5571056751892423,-0.9187694381301365,0.4378843820889692,20.524183,0.4649208,1.2584972,0.4315953,13.119839,-10.563327,1.9148049,-0.24752244,0.49333802,-0.2944486,-0.7801599,-9.066912,2.8475003,0.5967562,0.0718268,2.3509495,-0.009647855,0
0.6400000000000003,17.165790586066468,2.5571056751892423,-0.9187694381301365,0.4378843820889692,20.614664,1.4628177,-1.7448287,0.8063796,13.028633,-10.534247,1.9205698,-0.24509834,0.5011242,-0.29807562,-0.7745654,-9.17449,2.9685037,0.5556684,0.45937482,1.8410425,0.012312691,0
0.6500000000000004,17.165790586066468,2.5571056751892423,-0.9187694381301365,0.4378843820889692,20.614664,1.4628177,-1.7448287,0.8063796,12.936346,-10.503954,1.9259075,-0.2441604,0.50657797,-0.3025348,-0.76956904,-9.282834,3.0902734,0.51141274,0.78649867,1.4106642,0.0331956,0
0.6600000000000004,17.165790586066468,2.5571056751892423,-0.9187694381301365,0.4378843820889692,20.614664,1.4628177,-1.7448287,0.8063796,12.842976,-10.472438,1.9307891,-0.24448842,0.51007587,-0.3077001,-0.76509345,-9.391238,3.2131138,0.46454597,1.0626181,1.0474098,0.053053807,0
0.6700000000000004,17.165790586066468,2.5571056751892423,-0.9187694381301365,0.4378843820889692,20.614664,1.4628177,-1.7448287,0.8063796,12.748523,-10.439687,1.935191,-0.24589005,0.5119259,-0.3134607,-0.7610595,-9.499108,3.3372896,0.4155414,1.295684,0.74080896,0.07193756,0
0.6800000000000004,16.01750756098845,3.563520240610943,-4.758735551373575,0.7268317510807424,19.09243,1.9362391,-3.5182407,0.45399487,12.652995,-10.405685,1.939094,-0.2481983,0.5123811,-0.3197201,-0.7573913,-9.605947,3.463023,0.36479807,1.4924083,0.48202512,0.08989468,0
0.6900000000000004,16.01750756098845,3.563520240610943,-4.758735551373575,0.7268317510807424,19.09243,1.9362391,-3.5182407,0.45399487,12.556442,-10.3704605,1.9424671,-0.25194225,0.5103753,-0.32633415,-0.75468355,-9.704219,3.5819824,0.3096718,1.8154505,-0.33521318,0.12114936,0
0.7000000000000004,16.01750756098845,3.563520240610943,-4.758735551373575,0.7268317510807424,19.09243,1.9362391,-3.5182407,0.45399487,12.458918,-10.334039,1.9452865,-0.25753325,0.5050632,-0.3331718,-0.7533813,-9.800337,3.7028022,0.25422132,2.0881345,-1.0249976,0.15087037,0
0.7100000000000004,16.01750756098845,3.563520240610943,-4.758735551373575,0.7268317510807424,19.09243,1.9362391,-3.5182407,0.45399487,12.360445,-10.296398,1.9475538,-0.26466972,0.49692002,-0.34016514,-0.75319797,-9.89354,3.8256714,0.19937518,2.3183064,-1.6072068,0.17913295,0
0.7200000000000004,15.43475758268881,3.7677090633610444,-5.999998017984533,0.8451648622221334,17.161339,2.3394206,-5.405757,0.7323924,12.261059,-10.257519,1.9492787,-0.27308595,0.48633328,-0.3472478,-0.7538714,-9.983152,3.9507031,0.14589666,2.5125906,-2.0986195,0.2060087,0
0.7300000000000004,15.43475758268881,3.7677090633610444,-5.999998017984533,0.8451648622221334,17.161339,2.3394206,-5.405757,0.7323924,12.160812,-10.2174015,1.9504701,-0.28274974,0.4732178,-0.3542875,-0.7553787,-10.065431,4.073306,0.092738084,2.708462,-2.706956,0.2373723,0
0.7400000000000004,15.43475758268881,3.7677090633610444,-5.999998017984533,0.8451648622221334,17.161339,2.3394206,-5.405757,0.7323924,12.059767,-10.176045,1.9511425,-0.29361105,0.45750597,-0.36115906,-0.757657,-10.142971,4.1979904,0.042190716,2.8737924,-3.2204227,0.26719686,0
0.7500000000000004,15.43475758268881,3.7677090633610444,-5.999998017984533,0.8451648622221334,17.161339,2.3394206,-5.405757,0.7323924,11.957972,-10.133433,1.9513249,-0.30542547,0.43951583,-0.3678116,-0.76043075,-10.215121,4.324635,-0.0051661944,3.013341,-3.6538162,0.29555792,0
0.7600000000000005,15.361842232669355,3.295031436751585,-5.999998759754754,0.6920915904053425,16.318283,1.6487062,-6.0705037,0.6690236,11.855484,-10.089545,1.9510516,-0.31797796,0.41951635,-0.37419778,-0.76346,-10.281277,4.4530334,-0.048895277,3.1311247,-4.0196247,0.32252732,0
0.7700000000000005,15.361842232669355,3.295031436751585,-5.999998759754754,0.6920915904053425,16.318283,1.6487062,-6.0705037,0.6690236,11.752369,-10.044369,1.9503591,-0.33101678,0.39780727,-0.38012287,-0.76660484,-10.340603,4.582284,-0.08895705,3.1568017,-4.32842,0.34066194,0
0.7800000000000005,15.361842232669355,3.295031436751585,-5.999998759754754,0.6920915904053425,16.318283,1.6487062,-6.0705037,0.6690236,11.648696,-9.997895,1.9492866,-0.34433603,0.37465078,-0.38543037,-0.76974803,-10.392965,4.712607,-0.124869384,3.1784678,-4.589061,0.3579067,0
0.7900000000000005,15.361842232669355,3.295031436751585,-5.999998759754754,0.6920915904053425,16.318283,1.6487062,-6.0705037,0.6690236,11.544536,-9.950115,1.9478765,-0.35782054,0.35021237,-0.39013243,-0.77272993,-10.43798,4.843558,-0.15649939,3.1967483,-4.809057,0.37430522,0
0.8000000000000005,15.367176854201576,2.4003264887010576,-5.999998154935218,0.5970867915680271,15.3793955,1.0417961,-5.986351,0.8413382,11.439963,-9.901024,1.9461715,-0.37136787,0.3246382,-0.39423937,-0.77541625,-10.475298,4.97466,-0.18380456,3.212171,-4.9947476,0.38989908,0
0.8100000000000005,15.367176854201576,2.4003264887010576,-5.999998154935218,0.5970867915680271,15.3793955,1.0417961,-5.986351,0.8413382,11.335056,-9.850622,1.9442152,-0.38478467,0.29819876,-0.39748013,-0.7778347,-10.504642,5.105446,-0.20678762,3.0856383,-5.1515274,0.4000658,0
0.8200000000000005,15.367176854201576,2.4003264887010576,-5.999998154935218,0.5970867915680271,15.3793955,1.0417961,-5.986351,0.8413382,11.229898,-9.798917,1.9420503,-0.39792708,0.27113265,-0.39964598,-0.7800149,-10.525868,5.235285,-0.22551817,2.978832,-5.283855,0.4097337,0
0.8300000000000005,15.367176854201576,2.4003264887010576,-5.999998154935218,0.5970867915680271,15.3793955,1.0417961,-5.986351,0.8413382,11.124568,-9.74592,1.9397191,-0.41077468,0.24351797,-0.4008304,-0.7818549,-10.538915,5.363583,-0.24008708,2.8886766,-5.3955436,0.41892716,0
0.8400000000000005,15.367176854201576,2.4003264887010576,-5.999998154935218,0.5970867915680271,15.075415,0.1765436,-5.8803406,0.90309954,11.019149,-9.691651,1.9372623,-0.4233054,0.21542491,-0.4011137,-0.78326964,-10.543739,5.489762,-0.2506443,2.8125758,-5.4898124,0.4276695,0
0.8500000000000005,15.367176854201576,2.4003264887010576,-5.999998154935218,0.5970867915680271,15.075415,0.1765436,-5.8803406,0.90309954,10.913721,-9.636134,1.9347192,-0.43549642,0.18691745,-0.4005654,-0.78418815,-10.540323,5.613257,-0.25739235,2.748338,-5.5693784,0.43598288,0
0.8600000000000005,15.367176854201576,2.4003264887010576,-5.999998154935218,0.5970867915680271,15.075415,0.1765436,-5.8803406,0.90309954,10.80837,-9.579397,1.9321265,-0.44732487,0.15805434,-0.39924568,-0.78455156,-10.528676,5.733523,-0.2605804,2.694114,-5.6365347,0.44388828,0
0.8700000000000006,15.367176854201576,2.4003264887010576,-5.999998154935218,0.5970867915680271,15.075415,0.1765436,-5.8803406,0.90309954,10.703176,-9.521476,1.9295187,-0.45876816,0.12889008,-0.3972069,-0.7843116,-10.508833,5.850032,-0.2604986,2.648342,-5.693217,0.45140576,0
0.8800000000000006,15.312799630735425,1.1910865843766514,-5.403891329819198,0.42655288057525015,14.795698,0.22230516,-5.5308414,0.740885,10.598221,-9.46241,1.9269266,-0.4698045,0.09947568,-0.3944948,-0.78342897,-10.480862,5.962277,-0.25747332,2.609705,-5.7410583,0.45855436,1
0.8900000000000006,15.312799630735425,1.1910865843766514,-5.403891329819198,0.42655288057525015,14.795698,0.22230516,-5.5308414,0.740885,10.49358,-9.402266,1.924359,-0.48025212,0.07041246,-0.39056158,-0.7822151,-10.44625,6.0657697,-0.25569448,2.2374332,-5.708366,0.4724084,1
0.9000000000000006,15.312799630735425,1.1910865843766514,-5.403891329819198,0.42655288057525015,14.795698,0.22230516,-5.5308414,0.740885,10.389321,-9.341111,1.9218208,-0.4900116,0.042195357,-0.38499627,-0.7809513,-10.404427,6.1642165,-0.25159812,1.9232154,-5.6807613,0.48558265,1
0.9100000000000006,15.312799630735425,1.1910865843766514,-5.403891329819198,0.42655288057525015,14.795698,0.22230516,-5.5308414,0.740885,10.285515,-9.279,1.9193344,-0.49916595,0.014722043,-0.37801832,-0.77956253,-10.355928,6.2571926,-0.2453498,1.6579982,-5.6574516,0.4981104,1
0.9200000000000006,14.681323404108632,-0.031699021437583984,-2.466133758263712,0.3180263473683343,14.023913,-1.1590949,-3.4923952,0.54235363,10.182224,-9.215989,1.9169205,-0.5077761,-0.012095222,-0.3698128,-0.77798104,-10.301237,6.3443236,-0.23713706,1.4341401,-5.6377683,0.5100234,0
0.9300000000000006,14.681323404108632,-0.031699021437583984,-2.466133758263712,0.3180263473683343,14.023913,-1.1590949,-3.4923952,0.54235363,10.079508,-9.15214,1.9145936,-0.5154907,-0.03730665,-0.36109203,-0.77620155,-10.241304,6.424717,-0.22802757,1.2053473,-5.143237,0.50060207,0
0.9400000000000006,14.681323404108632,-0.031699021437583984,-2.466133758263712,0.3180263473683343,14.023913,-1.1590949,-3.4923952,0.54235363,9.977416,-9.087515,1.9123648,-0.5220931,-0.060167838,-0.3524726,-0.77431285,-10.176387,6.4991946,-0.21755207,1.0122668,-4.725813,0.491643,0
0.9500000000000006,14.681323404108632,-0.031699021437583984,-2.466133758263712,0.3180263473683343,14.023913,-1.1590949,-3.4923952,0.54235363,9.875996,-9.022174,1.9102463,-0.52779573,-0.08102817,-0.3439612,-0.77237,-10.107143,6.568039,-0.20603366,0.8493238,-4.3734746,0.4831236,0
0.9600000000000006,14.14659464195919,-1.1482886054127563,2.167394735782192,0.285517842981769,13.519917,-1.415708,-0.14785914,0.27804786,9.775286,-8.956172,1.9082469,-0.53276706,-0.10018645,-0.33555597,-0.7704043,-10.034123,6.6315136,-0.19372523,0.7118136,-4.0760727,0.47502226,0
0.9700000000000006,14.14659464195919,-1.1482886054127563,2.167394735782192,0.285517842981769,13.519917,-1.415708,-0.14785914,0.27804786,9.67531,-8.889571,1.9063535,-0.53658676,-0.116232276,-0.3279043,-0.7687926,-9.960639,6.6878333,-0.18487422,0.42141145,-3.1024997,0.46572325,0
0.9800000000000006,14.14659464195919,-1.1482886054127563,2.167394735782192,0.285517842981769,13.519917,-1.415708,-0.14785914,0.27804786,9.57608,-8.822429,1.9045507,-0.5389883,-0.12807414,-0.32154882,-0.76791507,-9.884842,6.7401824,-0.17561632,0.1763549,-2.2807379,0.4568805,0
0.9900000000000007,14.14659464195919,-1.1482886054127563,2.167394735782192,0.285517842981769,13.519917,-1.415708,-0.14785914,0.27804786,9.477618,-8.754779,1.9028423,-0.5402749,-0.13637409,-0.31632492,-0.7677515,-9.807514,6.789525,-0.16602394,-0.030437756,-1.5871156,0.4484717,0
1.0000000000000007,13.592419956405125,-1.6437426194536642,4.9842547596296205,0.3275952096037556,13.397813,-1.9826348,4.2491527,0.39495116,9.379934,-8.686646,1.9012313,-0.54067415,-0.14168802,-0.3120774,-0.7682463,-9.729289,6.836696,-0.15610637,-0.20494242,-1.0016515,0.4404755,1
1.0100000000000007,13.592419956405125,-1.6437426194536642,4.9842547596296205,0.3275952096037556,13.397813,-1.9826348,4.2491527,0.39495116,9.283013,-8.618063,1.8996927,-0.5401372,-0.14366579,-0.30885643,-0.76955724,-9.654876,6.880032,-0.15156813,-0.4824075,-0.18287054,0.4382416,1
1.0200000000000007,13.592419956405125,-1.6437426194536642,4.9842547596296205,0.3275952096037556,13.397813,-1.9826348,4.2491527,0.39495116,9.186835,-8.549047,1.8982013,-0.53862005,-0.14205049,-0.30668464,-0.77178574,-9.580762,6.9228773,-0.14660797,-0.71656376,0.50823516,0.43611735,1
1.0300000000000007,13.592419956405125,-1.6437426194536642,4.9842547596296205,0.3275952096037556,13.397813,-1.9826348,4.2491527,0.39495116,9.091395,-8.479604,1.8967621,-0.5362747,-0.13739486,-0.3053875,-0.7747704,-9.507545,6.966025,-0.14113422,-0.91417086,1.0915742,0.43409732,1
1.0400000000000007,13.592419956405125,-1.6437426194536642,4.9842547596296205,0.3275952096037556,13.695924,-2.1533887,5.390965,0.41838205,8.99668,-8.409724,1.8953805,-0.53321207,-0.13016231,-0.30480945,-0.77835244,-9.435744,7.010135,-0.13507736,-1.0809344,1.5839511,0.4321764,1
1.0500000000000007,13.592419956405125,-1.6437426194536642,4.9842547596296205,0.3275952096037556,13.695924,-2.1533887,5.390965,0.41838205,8.902681,-8.339391,1.8940743,-0.52937996,-0.12035049,-0.30500224,-0.7824608,-9.364276,7.05679,-0.12606719,-1.2483492,2.177606,0.4314995,1
1.0600000000000007,13.592419956405125,-1.6437426194536642,4.9842547596296205,0.3275952096037556,13.695924,-2.1533887,5.390965,0.41838205,8.809386,-8.26858,1.8928615,-0.52472425,-0.10797415,-0.30598915,-0.7870041,-9.295252,7.1056166,-0.1164245,-1.3896294,2.6786885,0.43085584,1
1.0700000000000007,13.592419956405125,-1.6437426194536642,4.9842547596296205,0.3275952096037556,13.695924,-2.1533887,5.390965,0.41838205,8.716766,-8.1972685,1.8917481,-0.5193141,-0.09341726,-0.3076036,-0.7918111,-9.229175,7.157148,-0.10619839,-1.5088547,3.1016338,0.43024373,1
1.0800000000000007,13.556285807313872,-1.931344812399512,5.999993354141073,0.2512058389427008,13.912944,-2.2722795,5.9832897,0.7486533,8.62479,-8.125425,1.8907393,-0.5132027,-0.077006444,-0.30970183,-0.79672855,-9.166502,7.2118034,-0.095482506,-1.6094681,3.4586263,0.42966166,1
1.0900000000000007,13.556285807313872,-1.931344812399512,5.999993354141073,0.2512058389427008,13.912944,-2.2722795,5.9832897,0.7486533,8.533427,-8.053016,1.8898484,-0.50632775,-0.058819894,-0.3122397,-0.8016716,-9.106735,7.27083,-0.08268398,-1.7129823,3.8523,0.44531468,1
1.1000000000000008,13.556285807313872,-1.931344812399512,5.999993354141073,0.2512058389427008,13.912944,-2.2722795,5.9832897,0.7486533,8.44264,-7.979996,1.8890864,-0.4986274,-0.038938526,-0.31516844,-0.80654943,-9.051331,7.3336654,-0.06971599,-1.8003412,4.1845837,0.4601996,1
1.1100000000000008,13.556285807313872,-1.931344812399512,5.999993354141073,0.2512058389427008,13.912944,-2.2722795,5.9832897,0.7486533,8.352385,-7.9063287,1.888454,-0.49014184,-0.01762701,-0.3183677,-0.811228,-9.000731,7.4005356,-0.0568124,-1.8740649,4.4650517,0.4743541,1
1.1200000000000008,12.942551534807393,-1.6092968125185518,5.041606354836734,0.08948199512782687,13.776756,-2.2501156,5.908765,0.6037218,8.262609,-7.8319716,1.887949,-0.4809062,0.004885294,-0.321735,-0.8155921,-8.955348,7.4715724,-0.04424427,-1.9362804,4.7017837,0.48781404,1
1.1300000000000008,12.942551534807393,-1.6092968125185518,5.041606354836734,0.08948199512782687,13.776756,-2.2501156,5.908765,0.6037218,8.173256,-7.756887,1.8875613,-0.4709769,0.02837584,-0.3251765,-0.819533,-8.915943,7.5460854,-0.033390373,-1.9853005,4.8899884,0.49350166,1
1.1400000000000008,12.942551534807393,-1.6092968125185518,5.041606354836734,0.08948199512782687,13.776756,-2.2501156,5.908765,0.6037218,8.084269,-7.681036,1.8872778,-0.4604067,0.05265281,-0.32861373,-0.82296103,-8.882397,7.6247354,-0.02348854,-2.026667,5.0488453,0.49891022,1
1.1500000000000008,12.942551534807393,-1.6092968125185518,5.041606354836734,0.08948199512782687,13.776756,-2.2501156,5.908765,0.6037218,7.9955864,-7.604378,1.8870871,-0.44922167,0.07757054,-0.33198732,-0.8258121,-8.854995,7.7074227,-0.0148770865,-2.0615745,5.1829314,0.5040534,1
1.1600000000000008,12.64544096795722,-1.3103159346331088,3.1668592289776156,-0.1200861375384548,12.379405,-1.8329448,4.7091484,0.75107044,7.9071465,-7.526874,1.8869747,-0.43744695,0.10300041,-0.33524737,-0.82803315,-8.833986,7.793991,-0.007906865,-2.0910313,5.2961082,0.5089442,0
1.1700000000000008,12.64544096795722,-1.3103159346331088,3.1668592289776156,-0.1200861375384548,12.379405,-1.8329448,4.7091484,0.75107044,7.8188777,-7.448523,1.8868797,-0.42560148,0.12778871,-0.33818582,-0.8295555,-8.820715,7.876795,-0.011379961,-1.9690688,4.964133,0.47807753,0
1.1800000000000008,12.64544096795722,-1.3103159346331088,3.1668592289776156,-0.1200861375384548,12.379405,-1.8329448,4.7091484,0.75107044,7.7307124,-7.3693285,1.8867401,-0.41416153,0.15103069,-0.34067634,-0.8304205,-8.813256,7.9625316,-0.016847374,-1.8661594,4.683916,0.44872546,0
1.1900000000000008,12.64544096795722,-1.3103159346331088,3.1668592289776156,-0.1200861375384548,12.379405,-1.8329448,4.7091484,0.75107044,7.642594,-7.2892637,1.8865354,-0.40308455,0.17295833,-0.34278533,-0.8307256,-8.81132,8.050783,-0.02441841,-1.7793257,4.44739,0.42081368,0
1.2000000000000008,11.5829377164608,-0.7617082688571029,-2.029952376267912,-0.1337352546251313,12.102988,-1.2830632,0.4935103,0.34372276,7.5544677,-7.2083054,1.8862442,-0.39232877,0.1937678,-0.34456515,-0.8305454,-8.814651,8.14119,-0.034181096,-1.7060554,4.247741,0.39427155,0
1.2100000000000009,11.5829377164608,-0.7617082688571029,-2.029952376267912,-0.1337352546251313,12.102988,-1.2830632,0.4935103,0.34372276,7.4662857,-7.126457,1.8858222,-0.3825587,0.21195067,-0.34539247,-0.8303183,-8.822468,8.228197,-0.050982833,-1.5945076,3.3048053,0.3716188,0
1.2200000000000009,11.5829377164608,-0.7617082688571029,-2.029952376267912,-0.1337352546251313,12.102988,-1.2830632,0.4935103,0.34372276,7.378006,-7.043747,1.8852104,-0.37441862,0.22618118,-0.34488618,-0.83048475,-8.833993,8.313893,-0.07170072,-1.4664767,2.4749928,0.34701604,0
1.2300000000000009,11.5829377164608,-0.7617082688571029,-2.029952376267912,-0.1337352546251313,12.102988,-1.2830632,0.4935103,0.34372276,7.289595,-6.9601774,1.8843839,-0.36775324,0.2370027,-0.34334186,-0.83108497,-8.848682,8.400014,-0.09375405,-1.356382,1.7724949,0.32342544,0
1.2400000000000009,11.5829377164608,-0.7617082688571029,-2.029952376267912,-0.1337352546251313,12.2048235,-1.1362201,-4.3545737,0.11872882,7.201024,-6.875746,1.8833328,-0.36236477,0.24496113,-0.34095725,-0.8321253,-8.865934,8.486327,-0.116567,-1.2635006,1.1795435,0.30099246,0
1.2500000000000009,11.5829377164608,-0.7617082688571029,-2.029952376267912,-0.1337352546251313,12.2048235,-1.1362201,-4.3545737,0.11872882,7.11227,-6.790452,1.8820515,-0.35807323,0.25051314,-0.33788547,-0.83358186,-8.885223,8.5725355,-0.13975309,-1.1851385,0.67905635,0.27966025,0
1.260000000000001,11.5829377164608,-0.7617082688571029,-2.029952376267912,-0.1337352546251313,12.2048235,-1.1362201,-4.3545737,0.11872882,7.0233145,-6.704297,1.8805377,-0.35471871,0.2540397,-0.3342465,-0.8354139,-8.906106,8.658404,-0.16297397,-1.119024,0.25661486,0.25937483,0
1.270000000000001,11.5829377164608,-0.7617082688571029,-2.029952376267912,-0.1337352546251313,12.2048235,-1.1362201,-4.3545737,0.11872882,6.934144,-6.6172857,1.8787929,-0.35216108,0.2558592,-0.330135,-0.8375728,-8.928208,8.743742,-0.18593827,-1.0632416,-0.09995118,0.24008483,0
1.280000000000001,11.913692339280917,-0.6941167571114675,-4.166255647379271,-0.1824604328527827,11.693878,-0.99711174,-5.4038434,-0.050832853,6.844748,-6.5294247,1.8768208,-0.3502787,0.2562379,-0.32562643,-0.8400078,-8.951214,8.828392,-0.20839831,-1.0161753,-0.4009143,0.22174135,0
1.290000000000001,11.913692339280917,-0.6941167571114675,-4.166255647379271,-0.1824604328527827,11.693878,-0.99711174,-5.4038434,-0.050832853,6.755115,-6.440709,1.8746383,-0.34925532,0.2546721,-0.32050318,-0.8428756,-8.975498,8.9146,-0.22793679,-0.96587783,-0.9880974,0.20190707,0
1.300000000000001,11.913692339280917,-0.6941167571114675,-4.166255647379271,-0.1824604328527827,11.693878,-0.99711174,-5.4038434,-0.050832853,6.665237,-6.3511367,1.8722658,-0.34922087,0.2507675,-0.31459078,-0.8462812,-8.999973,8.999708,-0.24634501,-0.92344964,-1.4837126,0.18304607,0
1.310000000000001,11.913692339280917,-0.6941167571114675,-4.166255647379271,-0.1824604328527827,11.693878,-0.99711174,-5.4038434,-0.050832853,6.5751157,-6.2607193,1.8697165,-0.35000354,0.24487509,-0.30799982,-0.85009915,-9.024212,9.0834675,-0.26326686,-0.88765717,-1.9020388,0.16511059,0
1.320000000000001,11.595999923111618,-0.7408221761693596,-5.999996256725357,-0.10964664707313655,11.074328,-1.6524733,-5.64538,0.108971246,6.4847546,-6.169472,1.8670065,-0.35145494,0.23728931,-0.3008197,-0.85421276,-9.047848,9.165652,-0.27842012,-0.85746163,-2.2551296,0.14805517,1
1.330000000000001,11.595999923111618,-0.7408221761693596,-5.999996256725357,-0.10964664707313655,11.074328,-1.6524733,-5.64538,0.108971246,6.3941693,-6.0774407,1.8641251,-0.35350156,0.22787422,-0.29259396,-0.85877675,-9.068956,9.24036,-0.29754856,-0.9813958,-2.7838478,0.14613731,1
1.340000000000001,11.595999923111618,-0.7408221761693596,-5.999996256725357,-0.10964664707313655,11.074328,-1.6524733,-5.64538,0.108971246,6.303379,-5.984672,1.8610629,-0.35606092,0.21652548,-0.28295314,-0.86387134,-9.088917,9.313029,-0.31450754,-1.0860113,-3.2301106,0.14431357,1
1.350000000000001,11.595999923111618,-0.7408221761693596,-5.999996256725357,-0.10964664707313655,11.074328,-1.6524733,-5.64538,0.108971246,6.2123957,-5.891188,1.8578432,-0.35900143,0.20351481,-0.2720819,-0.8692928,-9.107463,9.38328,-0.32903826,-1.1743194,-3.6067774,0.14257932,1
1.360000000000001,12.32256406388186,-0.8639240269417763,-5.999956369890077,-0.06739101428020877,11.7436285,-1.828344,-5.658129,0.10915942,6.121235,-5.7970157,1.8544911,-0.3622091,0.18907338,-0.26013625,-0.87486213,-9.124361,9.450751,-0.3409721,-1.2488619,-3.9247022,0.14093013,1
1.370000000000001,12.32256406388186,-0.8639240269417763,-5.999956369890077,-0.06739101428020877,11.7436285,-1.828344,-5.658129,0.10915942,6.02991,-5.702164,1.8510597,-0.36557427,0.1734201,-0.24718578,-0.8804425,-9.140314,9.518992,-0.34484938,-1.3392113,-4.1950364,0.13937114,1
1.380000000000001,12.32256406388186,-0.8639240269417763,-5.999956369890077,-0.06739101428020877,11.7436285,-1.828344,-5.658129,0.10915942,5.9384365,-5.6066484,1.847604,-0.3690044,0.15674211,-0.23329405,-0.8859122,-9.154122,9.5835705,-0.34585106,-1.4154748,-4.4232106,0.13788864,1
1.390000000000001,12.32256406388186,-0.8639240269417763,-5.999956369890077,-0.06739101428020877,11.7436285,-1.828344,-5.658129,0.10915942,5.846836,-5.510507,1.8441526,-0.37243208,0.13918129,-0.21857768,-0.8911485,-9.165633,9.644147,-0.34401652,-1.4798483,-4.6158004,0.1364789,1
1.400000000000001,12.544537037615754,-0.7222665443175719,-5.999969480028399,0.07069036839677557,13.045739,-1.8765963,-5.783062,0.38776305,5.755132,-5.413781,1.8407332,-0.37579972,0.120861344,-0.20313844,-0.89604735,-9.174714,9.700405,-0.33944586,-1.5341859,-4.778354,0.13513832,0
1.410000000000001,12.544537037615754,-0.7222665443175719,-5.999969480028399,0.07069036839677557,13.045739,-1.8765963,-5.783062,0.38776305,5.663348,-5.316498,1.8374083,-0.3791406,0.10160223,-0.18741098,-0.9004475,-9.181672,9.755587,-0.3251177,-1.407561,-4.9688506,0.13197583,0
1.420000000000001,12.544537037615754,-0.7222665443175719,-5.999969480028399,0.07069036839677557,13.045739,-1.8765963,-5.783062,0.38776305,5.5715094,-5.218688,1.8342396,-0.38246655,0.08126877,-0.17174928,-0.9042213,-9.18563,9.805637,-0.3082726,-1.3006859,-5.1296415,0.12896854,0
1.430000000000001,12.544537037615754,-0.7222665443175719,-5.999969480028399,0.07069036839677557,13.045739,-1.8765963,-5.783062,0.38776305,5.4796476,-5.1204042,1.8312505,-0.3857055,0.060024463,-0.15612786,-0.9073322,-9.186327,9.850382,-0.2891956,-1.2104802,-5.2653584,0.12610881,0
1.440000000000001,12.544537037615754,-0.7222665443175719,-5.999969480028399,0.07069036839677557,13.26558,-1.5708354,-5.7374883,0.55456936,5.3877954,-5.0217,1.8284621,-0.3887985,0.03801234,-0.14052741,-0.9097484,-9.18355,9.889656,-0.26820418,-1.1343439,-5.379913,0.12338941,1
1.450000000000001,12.544537037615754,-0.7222665443175719,-5.999969480028399,0.07069036839677557,13.26558,-1.5708354,-5.7374883,0.55456936,5.295991,-4.922621,1.8259264,-0.3916186,0.015577799,-0.12466793,-0.91150934,-9.176778,9.925236,-0.23870479,-1.2023351,-5.4356985,0.14454754,1
1.460000000000001,12.544537037615754,-0.7222665443175719,-5.999969480028399,0.07069036839677557,13.26558,-1.5708354,-5.7374883,0.55456936,5.204273,-4.8232164,1.8236926,-0.39406818,-0.006993038,-0.10832799,-0.9126476,-9.166151,9.954667,-0.20790881,-1.2597262,-5.4827843,0.16466743,1
1.470000000000001,12.544537037615754,-0.7222665443175719,-5.999969480028399,0.07069036839677557,13.26558,-1.5708354,-5.7374883,0.55456936,5.112681,-4.7235494,1.8217715,-0.3961415,-0.029662555,-0.09157546,-0.9131293,-9.151707,9.977766,-0.17619748,-1.3081703,-5.5225267,0.18380003,1
1.480000000000001,12.507075996219731,-0.4750170357601384,-1.5892786536118506,0.08265163558670112,13.791733,-1.4155118,-4.266799,0.91553265,5.0212517,-4.6236835,1.8201705,-0.39783368,-0.05239532,-0.074470565,-0.9129274,-9.133489,9.994382,-0.14397056,-1.3490628,-5.556071,0.2019938,0
1.490000000000001,12.507075996219731,-0.4750170357601384,-1.5892786536118506,0.08265163558670112,13.791733,-1.4155118,-4.266799,0.91553265,4.9300175,-4.523687,1.8188553,-0.39906615,-0.07381518,-0.05813374,-0.91209495,-9.112852,10.00391,-0.11909753,-1.212856,-4.9374294,0.19613764,0
1.500000000000001,12.507075996219731,-0.4750170357601384,-1.5892786536118506,0.08265163558670112,13.791733,-1.4155118,-4.266799,0.91553265,4.8390055,-4.4236245,1.8177878,-0.3998522,-0.092840515,-0.043467596,-0.9108286,-9.089107,10.007781,-0.094474316,-1.0978734,-4.4152684,0.19056883,0
1.5100000000000011,12.507075996219731,-0.4750170357601384,-1.5892786536118506,0.08265163558670112,13.791733,-1.4155118,-4.266799,0.91553265,4.748245,-4.3235493,1.8169641,-0.40030026,-0.10984048,-0.030223034,-0.9092748,-9.06264,10.006582,-0.07035124,-1.0008079,-3.9745417,0.1852733,0
1.5200000000000011,12.241739991916054,-0.14674320577602837,1.191017549629923,0.11143192208220981,13.930022,-1.0277485,-0.42349952,0.69036335,4.657761,-4.223509,1.8163786,-0.40049157,-0.12512885,-0.01818576,-0.90753394,-9.033779,10.00082,-0.04690061,-0.9188679,-3.6025481,0.18023764,0
1.5300000000000011,12.241739991916054,-0.14674320577602837,1.191017549629923,0.11143192208220981,13.930022,-1.0277485,-0.42349952,0.69036335,4.567573,-4.1235456,1.8160107,-0.4004557,-0.13801663,-0.0077367723,-0.905829,-9.003486,9.991185,-0.026788652,-0.7985495,-2.8549786,0.17686133,0
1.5400000000000011,12.241739991916054,-0.14674320577602837,1.191017549629923,0.11143192208220981,13.930022,-1.0277485,-0.42349952,0.69036335,4.477697,-4.023696,1.8158402,-0.4002409,-0.14798014,0.00083348993,-0.9043826,-8.971591,9.978241,-0.0074137086,-0.6969779,-2.2239945,0.1736507,0
1.5500000000000012,12.241739991916054,-0.14674320577602837,1.191017549629923,0.11143192208220981,13.930022,-1.0277485,-0.42349952,0.69036335,4.388145,-3.9239895,1.8158602,-0.39991704,-0.1554852,0.007817182,-0.9032325,-8.938529,9.962662,0.011318114,-0.6112327,-1.6914144,0.1705976,0
1.5600000000000012,12.4859131616684,0.12560432574111716,5.999981228428226,0.0397627354139293,14.630675,-0.46112683,1.5011541,0.7479082,4.2989287,-3.8244498,1.8160648,-0.39953056,-0.16092236,0.013461963,-0.9023843,-8.904656,9.945012,0.029522888,-0.5388481,-1.2418915,0.16769433,0
1.5700000000000012,12.4859131616684,0.12560432574111716,5.999981228428226,0.0397627354139293,14.630675,-0.46112683,1.5011541,0.7479082,4.2100577,-3.7250967,1.816461,-0.39913288,-0.16292726,0.017109063,-0.9021387,-8.869645,9.925461,0.049666904,-0.43535095,-0.11251226,0.16141668,0
1.5800000000000012,12.4859131616684,0.12560432574111716,5.999981228428226,0.0397627354139293,14.630675,-0.46112683,1.5011541,0.7479082,4.1215353,-3.6259427,1.817058,-0.39876872,-0.16043416,0.018247914,-0.9027241,-8.834837,9.905297,0.06976843,-0.34796748,0.84073824,0.15544708,0
1.5900000000000012,12.4859131616684,0.12560432574111716,5.999981228428226,0.0397627354139293,14.630675,-0.46112683,1.5011541,0.7479082,4.0333576,-3.5269895,1.8178574,-0.39843607,-0.15413973,0.017270202,-0.90398604,-8.8009205,9.885468,0.0901843,-0.27418968,1.6453279,0.14977042,0
1.6000000000000012,12.558520968741687,0.21091863392340313,5.999994421413749,0.023624746124457696,14.5162,0.5088249,4.5968285,0.4815282,3.945512,-3.4282298,1.8188637,-0.39811122,-0.14462446,0.014505578,-0.9057484,-8.768482,9.866771,0.11119582,-0.21190014,2.3244407,0.14437231,0
1.6100000000000012,12.558520968741687,0.21091863392340313,5.999994421413749,0.023624746124457696,14.5162,0.5088249,4.5968285,0.4815282,3.8579822,-3.3296487,1.8200876,-0.39775634,-0.13238831,0.0102008125,-0.9078318,-8.737853,9.849792,0.13369624,-0.14600472,2.8976483,0.13844718,0
1.6200000000000012,12.558520968741687,0.21091863392340313,5.999994421413749,0.023624746124457696,14.5162,0.5088249,4.5968285,0.4815282,3.7707467,-3.2312257,1.8215407,-0.39733058,-0.117851816,0.004566226,-0.9100648,-8.7096615,9.835231,0.15710235,-0.09037412,3.3814628,0.13281283,0
1.6300000000000012,12.558520968741687,0.21091863392340313,5.999994421413749,0.023624746124457696,14.5162,0.5088249,4.5968285,0.4815282,3.6837792,-3.1329339,1.8232328,-0.39679623,-0.101358466,-0.0021899296,-0.91229045,-8.684293,9.823595,0.18144047,-0.04340977,3.7898254,0.12745492,0
1.6400000000000012,12.558520968741687,0.21091863392340313,5.999994421413749,0.023624746124457696,15.095426,0.14491998,2.9840672,0.44310826,3.59705,-3.034742,1.8251725,-0.3961174,-0.083201155,-0.009890259,-0.91436875,-8.662083,9.815314,0.20666084,-0.0037622051,4.134503,0.12235993,0
1.6500000000000012,12.558520968741687,0.21091863392340313,5.999994421413749,0.023624746124457696,15.095426,0.14491998,2.9840672,0.44310826,3.5105257,-2.9366148,1.8273685,-0.3952614,-0.06363099,-0.018383102,-0.9161774,-8.64333,9.810754,0.2326453,0.02970792,4.425428,0.117514975,0
1.6600000000000013,12.558520968741687,0.21091863392340313,5.999994421413749,0.023624746124457696,15.095426,0.14491998,2.9840672,0.44310826,3.4241707,-2.8385134,1.8298274,-0.39419943,-0.042864442,-0.027538342,-0.9176113,-8.628293,9.810219,0.25921583,0.05796291,4.670983,0.11290775,0
1.6700000000000013,12.558520968741687,0.21091863392340313,5.999994421413749,0.023624746124457696,15.095426,0.14491998,2.9840672,0.44310826,3.3379464,-2.740396,1.832554,-0.39290667,-0.021089014,-0.037243944,-0.9185815,-8.617196,9.813959,0.28614274,0.081814826,4.878243,0.1085266,0
1.6800000000000013,13.112700822381813,0.21978737070910712,5.99999616017674,0.00671112617700607,14.159733,-0.5267561,2.0732906,0.34976402,3.2518125,-2.642219,1.8355505,-0.39136213,0.0015320992,-0.047403123,-0.9190134,-8.610231,9.822177,0.31315303,0.10194988,5.0531807,0.10436044,0
1.6900000000000013,13.112700822381813,0.21978737070910712,5.99999616017674,0.00671112617700607,14.159733,-0.5267561,2.0732906,0.34976402,3.1657276,-2.543934,1.8388438,-0.38955057,0.024854934,-0.05793523,-0.9188446,-8.607437,9.835594,0.34544834,0.12033274,5.2008367,0.099568754,0
1.7000000000000013,13.112700822381813,0.21978737070910712,5.99999616017674,0.00671112617700607,14.159733,-0.5267561,2.0732906,0.34976402,3.0796478,-2.4454904,1.8424574,-0.38745987,0.04875324,-0.06876978,-0.9180239,-8.609256,9.853968,0.37715474,0.13585037,5.325466,0.09501221,0
1.7100000000000013,13.112700822381813,0.21978737070910712,5.99999616017674,0.00671112617700607,14.159733,-0.5267561,2.0732906,0.34976402,2.9935262,-2.3468373,1.8463836,-0.385079,0.073116936,-0.079842076,-0.9165111,-8.615786,9.877376,0.40789527,0.14894918,5.4306593,0.09067925,0
1.7200000000000013,12.8373662289926,0.09675365625221535,3.4015411720178257,0.00633976948955782,14.194907,-0.6319873,-0.10557217,0.27608353,2.9073155,-2.2479248,1.8506107,-0.38239932,0.097848505,-0.09109545,-0.9142742,-8.627099,9.905854,0.43727532,0.16000596,5.5194473,0.08655892,0
1.7300000000000013,12.8373662289926,0.09675365625221535,3.4015411720178257,0.00633976948955782,14.194907,-0.6319873,-0.10557217,0.27608353,2.8209693,-2.148706,1.8551099,-0.3795151,0.12193229,-0.10204034,-0.91142076,-8.642862,9.9386635,0.46226528,0.15017374,5.1891603,0.08262255,0
1.7400000000000013,12.8373662289926,0.09675365625221535,3.4015411720178257,0.00633976948955782,14.194907,-0.6319873,-0.10557217,0.27608353,2.734443,-2.0491354,1.8598493,-0.37654102,0.14456847,-0.11229622,-0.90813303,-8.663073,9.976099,0.48527086,0.14186989,4.9103813,0.078879334,0
1.7500000000000013,12.8373662289926,0.09675365625221535,3.4015411720178257,0.00633976948955782,14.194907,-0.6319873,-0.10557217,0.27608353,2.6476934,-1.949169,1.864808,-0.37349388,0.16596936,-0.12196406,-0.904478,-8.687441,10.017812,0.50609535,0.13485709,4.675078,0.0753198,0
1.7600000000000013,13.114686268526231,-0.02934786548967992,0.34361410656219094,0.017248634256288812,12.577187,-0.42180973,-3.1895883,0.05013321,2.5606806,-1.8487655,1.869963,-0.37038407,0.18631464,-0.13112876,-0.9005037,-8.715714,10.063495,0.5245749,0.12893458,4.4764695,0.07193492,0
1.7700000000000014,13.114686268526231,-0.02934786548967992,0.34361410656219094,0.017248634256288812,12.577187,-0.42180973,-3.1895883,0.05013321,2.4733632,-1.7478814,1.8753031,-0.36737698,0.20467754,-0.13936691,-0.8965028,-8.748315,10.113899,0.5430667,0.10428767,3.8319514,0.069251455,0
1.7800000000000014,13.114686268526231,-0.02934786548967992,0.34361410656219094,0.017248634256288812,12.577187,-0.42180973,-3.1895883,0.05013321,2.3857033,-1.6464766,1.8808161,-0.3646345,0.22035027,-0.14635979,-0.89278525,-8.784141,10.167504,0.55916286,0.08347729,3.2879462,0.066699676,0
1.7900000000000014,13.114686268526231,-0.02934786548967992,0.34361410656219094,0.017248634256288812,12.577187,-0.42180973,-3.1895883,0.05013321,2.297671,-1.5445222,1.8864789,-0.36214814,0.2337655,-0.15231195,-0.8893834,-8.822697,10.223781,0.57306534,0.06590667,2.8287785,0.0642731,0
1.8000000000000014,12.612426034206065,-0.19887841855827332,-4.838818771621789,0.011778192490612831,12.597331,-0.6216691,-5.803551,-0.23360322,2.2092414,-1.4419932,1.8922707,-0.35990152,0.24528608,-0.1573937,-0.88630253,-8.863575,10.282296,0.58498067,0.0510717,2.441218,0.061965603,1
1.8100000000000014,12.612426034206065,-0.19887841855827332,-4.838818771621789,0.011778192490612831,12.597331,-0.6216691,-5.803551,-0.23360322,2.1204007,-1.3388809,1.8981526,-0.358235,0.25314242,-0.16064377,-0.88418293,-8.90473,10.340315,0.5910732,-0.05560858,1.1572769,0.047633175,1
1.8200000000000014,12.612426034206065,-0.19887841855827332,-4.838818771621789,0.011778192490612831,12.597331,-0.6216691,-5.803551,-0.23360322,2.0311432,-1.235184,1.9040886,-0.35744315,0.25594223,-0.1613237,-0.88357335,-8.946891,10.399137,0.5960833,-0.14385064,0.071738034,0.033832826,1
1.8300000000000014,12.612426034206065,-0.19887841855827332,-4.838818771621789,0.011778192490612831,12.597331,-0.6216691,-5.803551,-0.23360322,1.9414619,-1.1308981,1.9100736,-0.35741,0.25448433,-0.15984172,-0.8842769,-8.989335,10.45799,0.6009591,-0.21835263,-0.84450984,0.020709671,1
1.8400000000000014,12.612426034206065,-0.19887841855827332,-4.838818771621789,0.011778192490612831,11.451668,-0.78539383,-6.1260715,-0.406197,1.8513577,-1.0260266,1.9161097,-0.3580119,0.24942663,-0.15653045,-0.88606507,-9.0314045,10.516157,0.6063766,-0.2812519,-1.6178682,0.008230468,0
1.8500000000000014,12.612426034206065,-0.19887841855827332,-4.838818771621789,0.011778192490612831,11.451668,-0.78539383,-6.1260715,-0.406197,1.7608368,-0.9205791,1.9222056,-0.3590838,0.24159075,-0.15195967,-0.88859445,-9.072592,10.57311,0.6130004,-0.2684029,-2.1201737,0.008404558,0
1.8600000000000014,12.612426034206065,-0.19887841855827332,-4.838818771621789,0.011778192490612831,11.451668,-0.78539383,-6.1260715,-0.406197,1.6699107,-0.81457025,1.9283746,-0.36047944,0.23165298,-0.14659463,-0.89157194,-9.1124,10.628363,0.621056,-0.25755787,-2.5441446,0.008570111,0
1.8700000000000014,12.612426034206065,-0.19887841855827332,-4.838818771621789,0.011778192490612831,11.451668,-0.78539383,-6.1260715,-0.406197,1.5785948,-0.70801884,1.9346324,-0.36211315,0.21992077,-0.1405474,-0.8948488,-9.150456,10.681585,0.63077694,-0.24840437,-2.9019976,0.008727544,0
1.8800000000000014,13.131173727622597,-0.23926235947022298,-5.788768619645918,0.05771158328266427,11.914487,-0.22239272,-5.998655,-0.5479729,1.4869087,-0.60094655,1.9409964,-0.36391026,0.20665392,-0.13391228,-0.89829284,-9.186432,10.732482,0.64231974,-0.24067885,-3.2040436,0.008877239,0
1.8900000000000015,13.131173727622597,-0.23926235947022298,-5.788768619645918,0.05771158328266427,11.914487,-0.22239272,-5.998655,-0.5479729,1.3948673,-0.49336812,1.9475083,-0.36584654,0.19173531,-0.12661673,-0.9018654,-9.2214,10.782754,0.6603708,-0.24045007,-3.6071305,0.01127356,0
1.9000000000000015,13.131173727622597,-0.23926235947022298,-5.788768619645918,0.05771158328266427,11.914487,-0.22239272,-5.998655,-0.5479729,1.3024904,-0.38530198,1.9542111,-0.36788815,0.17508051,-0.11860493,-0.90550375,-9.253523,10.829959,0.6805113,-0.24025653,-3.9473562,0.013552283,0
1.9100000000000015,13.131173727622597,-0.23926235947022298,-5.788768619645918,0.05771158328266427,11.914487,-0.22239272,-5.998655,-0.5479729,1.2098078,-0.27678064,1.961126,-0.3699621,0.15693903,-0.10997401,-0.9090671,-9.282451,10.873748,0.7027705,-0.24009304,-4.2345243,0.015719209,0
1.9200000000000015,13.012321754851405,-0.2396990314007445,-5.999989818385747,0.11200449681071613,12.913073,-1.0361701,-6.3404965,0.4955762,1.1168534,-0.16783985,1.9682738,-0.37200588,0.13752517,-0.10080754,-0.91243374,-9.307877,10.913807,0.7271005,-0.23995505,-4.4769077,0.017779779,1
1.9300000000000015,13.012321754851405,-0.2396990314007445,-5.999989818385747,0.11200449681071613,12.913073,-1.0361701,-6.3404965,0.4955762,1.0236651,-0.058521405,1.9756645,-0.37388292,0.11706014,-0.09086211,-0.91556084,-9.32918,10.949239,0.7513234,-0.36404973,-4.7144394,0.04122538,1
1.9400000000000015,13.012321754851405,-0.2396990314007445,-5.999989818385747,0.11200449681071613,12.913073,-1.0361701,-6.3404965,0.4955762,0.930283,0.051130056,1.9833064,-0.37547892,0.09573272,-0.079948485,-0.9183998,-9.346613,10.98035,0.7773197,-0.46879,-4.914932,0.06352048,1
1.9500000000000015,13.012321754851405,-0.2396990314007445,-5.999989818385747,0.11200449681071613,12.913073,-1.0361701,-6.3404965,0.4955762,0.8367466,0.16106957,1.9912163,-0.37677398,0.073672496,-0.0682081,-0.9208477,-9.360048,11.006799,0.8048838,-0.5571954,-5.0841594,0.0847216,1
1.9600000000000015,13.049959355810806,-0.18913273327782384,-3.7710128133250853,0.2125028629353359,13.653668,-0.80028445,-6.152744,0.012619431,0.74309623,0.271249,1.9994085,-0.3777507,0.050993722,-0.055763222,-0.9228183,-9.369374,11.028287,0.83375835,-0.6318149,-5.2269964,0.10488235,0
1.9700000000000015,13.049959355810806,-0.18913273327782384,-3.7710128133250853,0.2125028629353359,13.653668,-0.80028445,-6.152744,0.012619431,0.6493732,0.3816184,2.0079014,-0.37840134,0.028495705,-0.043369256,-0.92418534,-9.374575,11.044784,0.8649927,-0.5627769,-4.9999332,0.11016331,0
1.9800000000000015,13.049959355810806,-0.18913273327782384,-3.7710128133250853,0.2125028629353359,13.653668,-0.80028445,-6.152744,0.012619431,0.55561894,0.49212715,2.0167105,-0.37875175,0.006823273,-0.031637017,-0.9249317,-9.375629,11.056182,0.8968767,-0.5045053,-4.8082814,0.11518514,0
1.9900000000000015,13.049959355810806,-0.18913273327782384,-3.7710128133250853,0.2125028629353359,13.653668,-0.80028445,-6.152744,0.012619431,0.4618744,0.6027252,2.0258403,-0.3788316,-0.014140304,-0.020468088,-0.9251307,-9.372657,11.062692,0.92906827,-0.45532084,-4.6465178,0.119960554,0
2.0000000000000013,,,,,15.462819,-1.4491498,-5.5669236,0.2945417,0.3681793,0.7133647,2.035292,-0.37866455,-0.034494154,-0.0097787315,-0.92483884,-9.365765,11.064501,0.96126235,-0.41380623,-4.509981,0.12450164,0
2.010000000000001,,,,,15.462819,-1.4491498,-5.5669236,0.2945417,0.2745704,0.824,2.045042,-0.37825993,-0.053580664,0.00011602836,-0.924147,-9.355459,11.061909,0.98865324,-0.34900793,-4.0698185,0.13135834,0
2.020000000000001,,,,,15.462819,-1.4491498,-5.5669236,0.2945417,0.1810817,0.93458927,2.0550635,-0.3776495,-0.07088667,0.008971392,-0.9231872,-9.341785,11.05536,1.0155791,-0.2943137,-3.6982992,0.13787857,0
2.0300000000000007,,,,,15.462819,-1.4491498,-5.5669236,0.2945417,0.08774524,1.045095,2.0653512,-0.3768761,-0.086685434,0.016948365,-0.92204225,-9.325048,11.045252,1.0418954,-0.24814734,-3.3847184,0.14407884,0
2.0400000000000005,,,,,15.462819,-1.4491498,-5.5669236,0.2945417,-0.005409645,1.1554832,2.075899,-0.37597144,-0.101208776,0.024183687,-0.9207696,-9.30551,11.031928,1.067499,-0.209179,-3.120041,0.14997485,0
2.0500000000000003,,,,,14.317145,-0.92543226,-3.5689538,0.20846552,-0.09835608,1.2657235,2.0866985,-0.374959,-0.114653006,0.030793216,-0.9194082,-9.283388,11.015677,1.0923163,-0.1762861,-2.8966398,0.15558156,1
2.06,,,,,14.317145,-0.92543226,-3.5689538,0.20846552,-0.19105265,1.3757749,2.0978258,-0.37387902,-0.12773639,0.037496872,-0.91787314,-9.255503,10.994109,1.1329744,-0.2930992,-3.0014992,0.1581766,1
2.07,,,,,14.317145,-0.92543226,-3.5689538,0.20846552,-0.28345698,1.4855947,2.1093545,-0.37275264,-0.14103195,0.044867124,-0.91605216,-9.224949,10.969357,1.1725347,-0.39169714,-3.0900042,0.16064428,1
2.0799999999999996,,,,,14.317145,-0.92543226,-3.5689538,0.20846552,-0.37554258,1.5951506,2.1212723,-0.37157026,-0.15449654,0.052795373,-0.91393554,-9.191763,10.941257,1.210837,-0.47492036,-3.1647055,0.1629909,1
2.0899999999999994,,,,,13.300448,-1.2857873,-2.5020742,0.36373073,-0.46728334,1.704408,2.1335664,-0.37032303,-0.16809265,0.061189383,-0.9115156,-9.155981,10.909682,1.2477152,-0.54516613,-3.227756,0.16522235,1
2.099999999999999,,,,,13.300448,-1.2857873,-2.5020742,0.36373073,-0.55866694,1.8133442,2.146174,-0.3690393,-0.18134505,0.069947734,-0.9088622,-9.120391,10.877041,1.2735368,-0.66065794,-3.114603,0.1749632,1
2.109999999999999,,,,,13.300448,-1.2857873,-2.5020742,0.36373073,-0.6496837,1.9219375,2.1590319,-0.36775088,-0.19387886,0.07898766,-0.9060521,-9.08264,10.841092,1.297794,-0.75813913,-3.0190952,0.1842261,1
2.1199999999999988,,,,,13.300448,-1.2857873,-2.5020742,0.36373073,-0.74031305,2.030155,2.1721244,-0.3664534,-0.20579898,0.08826185,-0.9030879,-9.042936,10.801864,1.3204154,-0.8404183,-2.9384806,0.19303444,1
2.1299999999999986,,,,,14.006742,-1.1074667,-0.25646913,0.2946179,-0.83053637,2.1379638,2.1854346,-0.36514157,-0.21719344,0.0977301,-0.8999704,-9.001464,10.759386,1.3413303,-0.9098663,-2.870437,0.20141056,1
2.1399999999999983,,,,,14.006742,-1.1074667,-0.25646913,0.2946179,-0.9203255,2.2453198,2.1989763,-0.3638952,-0.22735697,0.106965356,-0.8969096,-8.956122,10.711304,1.3667207,-0.9407279,-2.4627972,0.20598426,1
2.149999999999998,,,,,14.006742,-1.1074667,-0.25646913,0.2946179,-1.0096544,2.3521793,2.212763,-0.36279693,-0.23574457,0.11563183,-0.8941093,-8.9094715,10.660152,1.390379,-0.96677077,-2.118728,0.21033354,1
2.159999999999998,,,,,14.006742,-1.1074667,-0.25646913,0.2946179,-1.0985117,2.458513,2.2267787,-0.36184055,-0.24263865,0.123820305,-0.8915525,-8.861871,10.606236,1.4124681,-0.98874706,-1.8283153,0.21446942,1
2.1699999999999977,,,,,14.746815,-0.447766,1.5456957,0.8169358,-1.1868896,2.564295,2.241008,-0.361016,-0.24827597,0.13160682,-0.88921624,-8.81362,10.54981,1.4331381,-1.0072914,-1.5831919,0.21840231,1
