time-since-start [s],throttle_mpc,roll_mpc,pitch_mpc,yaw_mpc,throttle_nw,roll_nw,pitch_nw,yaw_nw,position_x [m],position_y [m],position_z [m],rotation_w [quaternion],rotation_x [quaternion],rotation_y [quaternion],rotation_z [quaternion],velocity_x [m/s],velocity_y [m/s],velocity_z [m/s],omega_x [rad/s],omega_y [rad/s],omega_z [rad/s],network_used
0.0,10.053960755772545,5.9999988439420155,-5.999999898230598,-3.883356191022886,12.530172,2.8398573,-3.3329444,-0.036605284,17.93395,-9.856148,1.608035,0.12631741,0.40383235,-0.16233017,-0.8914103,-9.325946,-4.78188,-0.4484683,2.780125,-0.2111253,-0.62311405,0
0.01,10.053960755772545,5.9999988439420155,-5.999999898230598,-3.883356191022886,13.746495,2.817243,-4.8280964,-0.6299312,17.840313,-9.903864,1.6033739,0.09189919,0.38359916,-0.18483597,-0.9001344,-9.401136,-4.760195,-0.48349115,5.999999,-6.0,-3.883356,0
0.02,10.053960755772545,5.9999988439420155,-5.999999898230598,-3.883356191022886,13.746495,2.817243,-4.8280964,-0.6299312,17.745943,-9.951326,1.5983704,0.05728094,0.36253104,-0.20693946,-0.90689915,-9.472404,-4.7311015,-0.51696026,5.999999,-6.0,-3.883356,0
0.03,10.053960755772545,5.9999988439420155,-5.999999898230598,-3.883356191022886,13.746495,2.817243,-4.8280964,-0.6299312,17.650883,-9.998462,1.5930393,0.02253801,0.34067383,-0.22859251,-0.91169006,-9.53907,-4.694957,-0.5490933,5.999999,-6.0,-3.883356,0
0.04,10.053960755772545,5.9999988439420155,-5.999999898230598,-3.883356191022886,13.334691,1.3334706,-3.7030885,-0.6554042,17.555182,-10.045201,1.5873923,-0.0122539755,0.3180751,-0.24974802,-0.91449654,-9.6005,-4.652177,-0.58011967,5.999999,-6.0,-3.883356,0
0.05,10.053960755772545,5.9999988439420155,-5.999999898230598,-3.883356191022886,13.334691,1.3334706,-3.7030885,-0.6554042,17.458893,-10.091483,1.5814397,-0.047019288,0.29478407,-0.27035993,-0.9153125,-9.656099,-4.603237,-0.6102785,5.999999,-6.0,-3.883356,0
0.060000000000000005,10.053960755772545,5.9999988439420155,-5.999999898230598,-3.883356191022886,13.334691,1.3334706,-3.7030885,-0.6554042,17.36208,-10.137247,1.5751889,-0.081682265,0.2708514,-0.29038337,-0.91413623,-9.70533,-4.548665,-0.63981616,5.999999,-6.0,-3.883356,0
0.07,10.053960755772545,5.9999988439420155,-5.999999898230598,-3.883356191022886,13.334691,1.3334706,-3.7030885,-0.6554042,17.264809,-10.18244,1.5686446,-0.11616744,0.24632917,-0.30977476,-0.9109702,-9.747705,-4.489039,-0.6689846,5.999999,-6.0,-3.883356,0
0.08,16.848417019462723,5.731395486663635,-5.999999785218388,-1.7345074635921716,14.031175,0.8159055,-1.6853691,-0.75940835,17.16715,-10.227013,1.5618095,-0.15039977,0.2212708,-0.3284919,-0.9058214,-9.782801,-4.424979,-0.698039,5.999999,-6.0,-3.883356,0
0.09,16.848417019462723,5.731395486663635,-5.999999785218388,-1.7345074635921716,14.031175,0.8159055,-1.6853691,-0.75940835,17.069082,-10.270699,1.5549165,-0.17430899,0.19244486,-0.3477182,-0.9009293,-9.828886,-4.3114057,-0.68060184,5.7313957,-6.0,-1.7345074,0
0.09999999999999999,16.848417019462723,5.731395486663635,-5.999999785218388,-1.7345074635921716,14.031175,0.8159055,-1.6853691,-0.75940835,16.970617,-10.313224,1.5481955,-0.19790511,0.16327327,-0.36631995,-0.89441895,-9.86195,-4.192804,-0.66375864,5.7313957,-6.0,-1.7345074,0
0.10999999999999999,16.848417019462723,5.731395486663635,-5.999999785218388,-1.7345074635921716,14.031175,0.8159055,-1.6853691,-0.75940835,16.87189,-10.354541,1.5416371,-0.22114576,0.13380842,-0.3842637,-0.8863021,-9.8817,-4.070142,-0.64812386,5.7313957,-6.0,-1.7345074,0
0.11999999999999998,16.848417019462723,5.731395486663635,-5.999999785218388,-1.7345074635921716,14.031175,0.8159055,-1.6853691,-0.75940835,16.773031,-10.394616,1.5352266,-0.2439892,0.10410321,-0.40151724,-0.87659335,-9.887938,-3.9444182,-0.6343032,5.7313957,-6.0,-1.7345074,0
0.12999999999999998,20.999956957373236,2.651551995609329,-5.999999133133352,-0.07767073244952824,15.875157,0.10176909,-0.97026014,-0.46983072,16.674177,-10.433422,1.5289428,-0.26639438,0.07421102,-0.41804957,-0.86531,-9.880566,-3.8166525,-0.6228895,5.7313957,-6.0,-1.7345074,0
0.13999999999999999,20.999956957373236,2.651551995609329,-5.999999133133352,-0.07767073244952824,15.875157,0.10176909,-0.97026014,-0.46983072,16.575487,-10.47079,1.5228955,-0.28011,0.04484762,-0.4212755,-0.86142564,-9.855679,-3.6573172,-0.5865356,2.651552,-5.999999,-0.07767073,0
0.15,20.999956957373236,2.651551995609329,-5.999999133133352,-0.07767073244952824,15.875157,0.10176909,-0.97026014,-0.46983072,16.47711,-10.506578,1.5172126,-0.29352424,0.015435975,-0.42404822,-0.85661453,-9.817309,-3.5007813,-0.5500646,2.651552,-5.999999,-0.07767073,0
0.16,20.8672131116312,0.36055164902395875,-2.88742581557354,-0.0883484568778598,16.283724,-1.302979,-0.080251485,-0.33522144,16.379187,-10.540818,1.5118926,-0.3066227,-0.013992276,-0.42636472,-0.8508818,-9.765624,-3.3477254,-0.5140472,2.651552,-5.999999,-0.07767073,0
0.17,20.8672131116312,0.36055164902395875,-2.88742581557354,-0.0883484568778598,16.283724,-1.302979,-0.080251485,-0.33522144,16.281834,-10.573551,1.5069261,-0.3130961,-0.026639061,-0.423433,-0.84968555,-9.7041235,-3.1992028,-0.47910652,0.36055166,-2.887426,-0.088348456,0
0.18000000000000002,20.8672131116312,0.36055164902395875,-2.88742581557354,-0.0883484568778598,16.283724,-1.302979,-0.080251485,-0.33522144,16.185123,-10.604813,1.502313,-0.3195032,-0.039280202,-0.4204116,-0.84830934,-9.637397,-3.053671,-0.44338137,0.36055166,-2.887426,-0.088348456,0
0.19000000000000003,20.8672131116312,0.36055164902395875,-2.88742581557354,-0.0883484568778598,16.283724,-1.302979,-0.080251485,-0.33522144,16.089106,-10.634635,1.4980606,-0.32584256,-0.051913023,-0.4173011,-0.84675336,-9.565503,-2.9112556,-0.406981,0.36055166,-2.887426,-0.088348456,0
0.20000000000000004,19.573004607415122,-0.11905906005068946,-0.3272741246437796,-0.30240859813520793,16.28567,-1.9528217,2.912889,-0.5793162,15.993833,-10.66305,1.4941752,-0.3321129,-0.06453484,-0.4141022,-0.84501797,-9.488506,-2.7720802,-0.3700152,0.36055166,-2.887426,-0.088348456,0
0.21000000000000005,19.573004607415122,-0.11905906005068946,-0.3272741246437796,-0.30240859813520793,16.28567,-1.9528217,2.912889,-0.5793162,15.899323,-10.690127,1.4906197,-0.33410576,-0.06509359,-0.4131522,-0.84465444,-9.413181,-2.643675,-0.34103855,-0.11905906,-0.3272741,-0.3024086,0
0.22000000000000006,19.573004607415122,-0.11905906005068946,-0.3272741246437796,-0.30240859813520793,16.28567,-1.9528217,2.912889,-0.5793162,15.80557,-10.715924,1.4873552,-0.33609685,-0.06565198,-0.41219997,-0.84428644,-9.337483,-2.5157673,-0.3117827,-0.11905906,-0.3272741,-0.3024086,0
0.23000000000000007,19.573004607415122,-0.11905906005068946,-0.3272741246437796,-0.30240859813520793,16.28567,-1.9528217,2.912889,-0.5793162,15.712575,-10.740445,1.4843849,-0.33808616,-0.06621004,-0.41124558,-0.843914,-9.261414,-2.3883588,-0.28224784,-0.11905906,-0.3272741,-0.3024086,0
0.24000000000000007,19.573004607415122,-0.11905906005068946,-0.3272741246437796,-0.30240859813520793,16.391354,-1.9805312,3.9436438,-0.55056965,15.620343,-10.763694,1.4817114,-0.34007365,-0.066767745,-0.410289,-0.843537,-9.184975,-2.261451,-0.25243425,-0.11905906,-0.3272741,-0.3024086,0
0.25000000000000006,19.573004607415122,-0.11905906005068946,-0.3272741246437796,-0.30240859813520793,16.391354,-1.9805312,3.9436438,-0.55056965,15.528877,-10.785676,1.4793373,-0.3420593,-0.06732509,-0.40933022,-0.8431555,-9.10817,-2.1350462,-0.22234215,-0.11905906,-0.3272741,-0.3024086,0
0.26000000000000006,19.573004607415122,-0.11905906005068946,-0.3272741246437796,-0.30240859813520793,16.391354,-1.9805312,3.9436438,-0.55056965,15.438181,-10.8063965,1.4772655,-0.3440432,-0.06788208,-0.40836927,-0.84276956,-9.031002,-2.0091467,-0.19197178,-0.11905906,-0.3272741,-0.3024086,0
0.2700000000000001,19.573004607415122,-0.11905906005068946,-0.3272741246437796,-0.30240859813520793,16.391354,-1.9805312,3.9436438,-0.55056965,15.348259,-10.82586,1.4754987,-0.34602523,-0.068438716,-0.40740615,-0.8423791,-8.953473,-1.883754,-0.1613234,-0.11905906,-0.3272741,-0.3024086,0
0.2800000000000001,18.24587689644498,-0.4453923166980928,1.4148615496107673,-0.46730486985032615,16.666058,-1.8958905,3.8660963,-0.6649629,15.259113,-10.844072,1.4740399,-0.3480054,-0.06899497,-0.40644085,-0.8419842,-8.875586,-1.7588702,-0.13039725,-0.11905906,-0.3272741,-0.3024086,0
0.2900000000000001,18.24587689644498,-0.4453923166980928,1.4148615496107673,-0.46730486985032615,16.666058,-1.8958905,3.8660963,-0.6649629,15.170719,-10.861079,1.4728478,-0.34724057,-0.061311845,-0.40717658,-0.84253883,-8.8036585,-1.6422619,-0.10799995,-0.4453923,1.4148616,-0.46730486,0
0.3000000000000001,18.24587689644498,-0.4453923166980928,1.4148615496107673,-0.46730486985032615,16.666058,-1.8958905,3.8660963,-0.6649629,15.083033,-10.876914,1.4718803,-0.34645474,-0.053625017,-0.40788773,-0.8430425,-8.734105,-1.5243591,-0.08546926,-0.4453923,1.4148616,-0.46730486,0
0.3100000000000001,18.24587689644498,-0.4453923166980928,1.4148615496107673,-0.46730486985032615,16.666058,-1.8958905,3.8660963,-0.6649629,14.996029,-10.891562,1.4711387,-0.34564793,-0.045934953,-0.4085742,-0.84349525,-8.666936,-1.4051801,-0.062841184,-0.4453923,1.4148616,-0.46730486,0
0.3200000000000001,17.142415920037745,-0.7283526235369535,3.117577057128825,-0.581904322839239,16.501406,-2.1669977,4.208323,-0.6342547,14.909686,-10.905013,1.4706236,-0.34482026,-0.03824211,-0.40923592,-0.843897,-8.602162,-1.2847438,-0.040151767,-0.4453923,1.4148616,-0.46730486,0
0.3300000000000001,17.142415920037745,-0.7283526235369535,3.117577057128825,-0.581904322839239,16.501406,-2.1669977,4.208323,-0.6342547,14.8239565,-10.917289,1.4702988,-0.34099028,-0.022636732,-0.4115947,-0.8448684,-8.544501,-1.169843,-0.024863046,-0.7283526,3.117577,-0.58190435,0
0.34000000000000014,17.142415920037745,-0.7283526235369535,3.117577057128825,-0.581904322839239,16.501406,-2.1669977,4.208323,-0.6342547,14.738779,-10.928401,1.470125,-0.33707002,-0.007025365,-0.41384447,-0.8456162,-8.491628,-1.0522859,-0.009964883,-0.7283526,3.117577,-0.58190435,0
0.35000000000000014,17.142415920037745,-0.7283526235369535,3.117577057128825,-0.581904322839239,16.501406,-2.1669977,4.208323,-0.6342547,14.654107,-10.938324,1.4700975,-0.33306053,0.008587863,-0.41598472,-0.84614015,-8.443583,-0.9321756,0.0044030454,-0.7283526,3.117577,-0.58190435,0
0.36000000000000015,16.38571388633341,-0.7644859042038503,3.0306823244817656,-0.6513655903732098,15.903519,-2.0839617,4.010747,-0.8258749,14.569891,-10.947036,1.4702107,-0.32896286,0.024198817,-0.41801485,-0.8464402,-8.400402,-0.8096175,0.018101636,-0.7283526,3.117577,-0.58190435,0
0.37000000000000016,16.38571388633341,-0.7644859042038503,3.0306823244817656,-0.6513655903732098,15.903519,-2.0839617,4.010747,-0.8258749,14.486073,-10.954537,1.4704324,-0.32525095,0.03964037,-0.41963217,-0.8464921,-8.36378,-0.6902706,0.02612565,-0.7644859,3.0306823,-0.6513656,0
0.38000000000000017,16.38571388633341,-0.7644859042038503,3.0306823244817656,-0.6513655903732098,15.903519,-2.0839617,4.010747,-0.8258749,14.402599,-10.9608345,1.4707304,-0.32145616,0.055071823,-0.42114255,-0.8463283,-8.331786,-0.56888866,0.033334542,-0.7644859,3.0306823,-0.6513656,0
0.3900000000000002,16.38571388633341,-0.7644859042038503,3.0306823244817656,-0.6513655903732098,15.903519,-2.0839617,4.010747,-0.8258749,14.319422,-10.965909,1.4710959,-0.31757945,0.07048924,-0.42254558,-0.84594876,-8.3044405,-0.44557187,0.03960053,-0.7644859,3.0306823,-0.6513656,0
0.4000000000000002,15.938953788097972,-0.6451626033938243,2.122693170378684,-0.7000532281520209,15.177683,-1.8806019,3.2047334,-1.0741318,14.236494,-10.969741,1.4715188,-0.3136218,0.085888706,-0.4238409,-0.84535366,-8.281755,-0.32042256,0.04479681,-0.7644859,3.0306823,-0.6513656,0
0.4100000000000002,15.938953788097972,-0.6451626033938243,2.122693170378684,-0.7000532281520209,15.177683,-1.8806019,3.2047334,-1.0741318,14.1537695,-10.972329,1.4719743,-0.3117841,0.09735001,-0.42411324,-0.8446544,-8.26376,-0.19721459,0.046195533,-0.6451626,2.122693,-0.7000532,0
0.4200000000000002,15.938953788097972,-0.6451626033938243,2.122693170378684,-0.7000532281520209,15.177683,-1.8806019,3.2047334,-1.0741318,14.071207,-10.9736805,1.47244,-0.3099042,0.10879814,-0.4243282,-0.84384084,-8.249052,-0.07295663,0.04682587,-0.6451626,2.122693,-0.7000532,0
0.4300000000000002,15.938953788097972,-0.6451626033938243,2.122693170378684,-0.7000532281520209,15.177683,-1.8806019,3.2047334,-1.0741318,13.988776,-10.9737835,1.4729078,-0.30798236,0.12023155,-0.42448574,-0.8429131,-8.237631,0.052303933,0.046620615,-0.6451626,2.122693,-0.7000532,0
0.4400000000000002,15.938953788097972,-0.6451626033938243,2.122693170378684,-0.7000532281520209,14.415399,-1.8872592,2.6931999,-1.1605514,13.906444,-10.97263,1.4733691,-0.30601892,0.13164869,-0.42458588,-0.8418713,-8.229492,0.17851913,0.045513023,-0.6451626,2.122693,-0.7000532,0
0.45000000000000023,15.938953788097972,-0.6451626033938243,2.122693170378684,-0.7000532281520209,14.415399,-1.8872592,2.6931999,-1.1605514,13.824176,-10.970209,1.4738146,-0.30401403,0.14304802,-0.42462856,-0.84071565,-8.224632,0.3056405,0.043436825,-0.6451626,2.122693,-0.7000532,0
0.46000000000000024,15.938953788097972,-0.6451626033938243,2.122693170378684,-0.7000532281520209,14.415399,-1.8872592,2.6931999,-1.1605514,13.7419405,-10.966513,1.4742343,-0.30196804,0.15442799,-0.42461377,-0.8394462,-8.223042,0.43361905,0.0403263,-0.6451626,2.122693,-0.7000532,0
0.47000000000000025,15.938953788097972,-0.6451626033938243,2.122693170378684,-0.7000532281520209,14.415399,-1.8872592,2.6931999,-1.1605514,13.659704,-10.961534,1.4746175,-0.29988116,0.16578707,-0.42454153,-0.83806324,-8.224714,0.56240535,0.03611628,-0.6451626,2.122693,-0.7000532,0
0.48000000000000026,15.621378677462772,-0.5257716864869495,1.2972230304864565,-0.694226642171473,14.107209,-1.8949823,2.1239488,-1.3181789,13.577435,-10.955263,1.4749527,-0.29775372,0.17712374,-0.42441186,-0.8365668,-8.229639,0.6919495,0.030742183,-0.6451626,2.122693,-0.7000532,0
0.49000000000000027,15.621378677462772,-0.5257716864869495,1.2972230304864565,-0.694226642171473,14.107209,-1.8949823,2.1239488,-1.3181789,13.495102,-10.947706,1.4752197,-0.29743007,0.18480027,-0.42351615,-0.8354746,-8.237228,0.8194738,0.022543836,-0.5257717,1.297223,-0.6942266,0
0.5000000000000002,15.621378677462772,-0.5257716864869495,1.2972230304864565,-0.694226642171473,14.107209,-1.8949823,2.1239488,-1.3181789,13.4126835,-10.938872,1.4754014,-0.2970883,0.19246553,-0.42259458,-0.8343314,-8.246884,0.9473087,0.013703819,-0.5257717,1.297223,-0.6942266,0
0.5100000000000002,15.621378677462772,-0.5257716864869495,1.2972230304864565,-0.694226642171473,14.107209,-1.8949823,2.1239488,-1.3181789,13.330158,-10.92876,1.4754914,-0.2967284,0.20011905,-0.42164722,-0.83313733,-8.258601,1.0754378,0.004193042,-0.5257717,1.297223,-0.6942266,0
0.5200000000000002,15.500212615232767,-0.38390316953650505,0.3305731533500762,-0.6644518784209409,13.982467,-1.7591121,1.3775089,-1.256207,13.247505,-10.917364,1.4754828,-0.2963504,0.20776035,-0.42067412,-0.8318924,-8.27237,1.2038441,-0.00601741,-0.5257717,1.297223,-0.6942266,0
0.5300000000000002,15.500212615232767,-0.38390316953650505,0.3305731533500762,-0.6644518784209409,13.982467,-1.7591121,1.3775089,-1.256207,13.164707,-10.904688,1.475366,-0.29801747,0.21109998,-0.41887322,-0.83136463,-8.287593,1.3313748,-0.017343199,-0.38390318,0.33057314,-0.6644519,0
0.5400000000000003,15.500212615232767,-0.38390316953650505,0.3305731533500762,-0.6644518784209409,13.982467,-1.7591121,1.3775089,-1.256207,13.081752,-10.890738,1.475136,-0.2996793,0.21443592,-0.41706502,-0.8308224,-8.303592,1.4587883,-0.028636381,-0.38390318,0.33057314,-0.6644519,0
0.5500000000000003,15.500212615232767,-0.38390316953650505,0.3305731533500762,-0.6644518784209409,13.982467,-1.7591121,1.3775089,-1.256207,12.9986315,-10.875513,1.4747934,-0.3013359,0.21776812,-0.41524953,-0.83026564,-8.320367,1.5860842,-0.039903503,-0.38390318,0.33057314,-0.6644519,0
0.5600000000000003,15.427505163908352,-0.25338536491756664,-0.2437049365737052,-0.6056377571888163,13.988011,-1.6183763,0.95645,-1.1144273,12.91534,-10.859015,1.4743383,-0.30298725,0.2210965,-0.41342676,-0.82969445,-8.337917,1.7132622,-0.051151108,-0.38390318,0.33057314,-0.6644519,0
0.5700000000000003,15.427505163908352,-0.25338536491756664,-0.2437049365737052,-0.6056377571888163,13.988011,-1.6183763,0.95645,-1.1144273,12.831871,-10.84125,1.4737691,-0.30572152,0.22171994,-0.41133434,-0.82956505,-8.355869,1.8396552,-0.06262918,-0.25338537,-0.24370493,-0.6056377,0
0.5800000000000003,15.427505163908352,-0.25338536491756664,-0.2437049365737052,-0.6056377571888163,13.988011,-1.6183763,0.95645,-1.1144273,12.748222,-10.822223,1.4730873,-0.308452,0.22234066,-0.40923688,-0.8294255,-8.373821,1.9657407,-0.07366044,-0.25338537,-0.24370493,-0.6056377,0
0.5900000000000003,15.427505163908352,-0.25338536491756664,-0.2437049365737052,-0.6056377571888163,13.988011,-1.6183763,0.95645,-1.1144273,12.664394,-10.801936,1.4722974,-0.31117877,0.22295864,-0.40713438,-0.8292758,-8.391776,2.091517,-0.084246196,-0.25338537,-0.24370493,-0.6056377,0
0.6000000000000003,15.47405870360683,-0.2661358380888371,-0.2677929371493831,-0.5327894753780219,14.011408,-1.4687693,0.51418585,-0.91382754,12.580387,-10.780394,1.4714038,-0.31390172,0.22357391,-0.40502694,-0.82911587,-8.409738,2.2169821,-0.094387755,-0.25338537,-0.24370493,-0.6056377,0
0.6100000000000003,15.47405870360683,-0.2661358380888371,-0.2677929371493831,-0.5327894753780219,14.011408,-1.4687693,0.51418585,-0.91382754,12.4962,-10.757596,1.4704124,-0.31635356,0.22395925,-0.40290558,-0.82911354,-8.427758,2.3425035,-0.10380707,-0.26613584,-0.26779294,-0.53278947,0
0.6200000000000003,15.47405870360683,-0.2661358380888371,-0.2677929371493831,-0.5327894753780219,14.011408,-1.4687693,0.51418585,-0.91382754,12.411832,-10.733544,1.4693292,-0.31880206,0.22434221,-0.4007799,-0.8291024,-8.445779,2.467687,-0.11274988,-0.26613584,-0.26779294,-0.53278947,0
0.6300000000000003,15.47405870360683,-0.2661358380888371,-0.2677929371493831,-0.5327894753780219,14.011408,-1.4687693,0.51418585,-0.91382754,12.327284,-10.708242,1.4681591,-0.32124713,0.22472274,-0.39865002,-0.8290824,-8.463802,2.59253,-0.121217676,-0.26613584,-0.26779294,-0.53278947,0
0.6400000000000003,15.47405870360683,-0.2661358380888371,-0.2677929371493831,-0.5327894753780219,14.135126,-1.429559,0.423971,-0.7317833,12.242556,-10.681694,1.4669065,-0.3236888,0.22510087,-0.39651588,-0.8290536,-8.4818325,2.7170312,-0.12921198,-0.26613584,-0.26779294,-0.53278947,0
0.6500000000000004,15.47405870360683,-0.2661358380888371,-0.2677929371493831,-0.5327894753780219,14.135126,-1.429559,0.423971,-0.7317833,12.157647,-10.653903,1.4655765,-0.32612702,0.22547662,-0.3943775,-0.8290159,-8.499871,2.8411882,-0.1367343,-0.26613584,-0.26779294,-0.53278947,0
0.6600000000000004,15.47405870360683,-0.2661358380888371,-0.2677929371493831,-0.5327894753780219,14.135126,-1.429559,0.423971,-0.7317833,12.072558,-10.624871,1.4641737,-0.32856175,0.22584999,-0.39223492,-0.8289694,-8.5179205,2.9649985,-0.14378622,-0.26613584,-0.26779294,-0.53278947,0
0.6700000000000004,15.47405870360683,-0.2661358380888371,-0.2677929371493831,-0.5327894753780219,14.135126,-1.429559,0.423971,-0.7317833,11.987288,-10.594604,1.4627025,-0.330993,0.2262209,-0.39008817,-0.82891405,-8.535985,3.088461,-0.15036927,-0.26613584,-0.26779294,-0.53278947,0
0.6800000000000004,15.380010532236383,-0.23263109894397663,-0.45618368629306116,-0.4622626244387573,14.094811,-1.3385825,0.13974454,-0.6082467,11.901839,-10.563103,1.4611678,-0.3334207,0.22658944,-0.38793725,-0.82884985,-8.554066,3.211573,-0.15648507,-0.26613584,-0.26779294,-0.53278947,0
0.6900000000000004,15.380010532236383,-0.23263109894397663,-0.45618368629306116,-0.4622626244387573,14.094811,-1.3385825,0.13974454,-0.6082467,11.816209,-10.530376,1.4595717,-0.33595574,0.22598203,-0.38568664,-0.8290424,-8.571969,3.3335547,-0.1626377,-0.2326311,-0.45618367,-0.46226263,0
0.7000000000000004,15.380010532236383,-0.23263109894397663,-0.45618368629306116,-0.4622626244387573,14.094811,-1.3385825,0.13974454,-0.6082467,11.7304,-10.496432,1.4579171,-0.3384868,0.22537191,-0.38343143,-0.829225,-8.589663,3.455098,-0.16817091,-0.2326311,-0.45618367,-0.46226263,0
0.7100000000000004,15.380010532236383,-0.23263109894397663,-0.45618368629306116,-0.4622626244387573,14.094811,-1.3385825,0.13974454,-0.6082467,11.644416,-10.461275,1.4562103,-0.3410138,0.22475912,-0.38117167,-0.82939774,-8.607149,3.5761986,-0.17308661,-0.2326311,-0.45618367,-0.46226263,0
0.7200000000000004,15.333328180195663,-0.28862142049644396,-0.3875487314431942,-0.38398637488019,14.107869,-1.3373003,-0.044161826,-0.59701014,11.558258,-10.424909,1.4544574,-0.34353673,0.22414365,-0.37890738,-0.82956064,-8.624431,3.6968524,-0.17738672,-0.2326311,-0.45618367,-0.46226263,0
0.7300000000000004,15.333328180195663,-0.28862142049644396,-0.3875487314431942,-0.38398637488019,14.107869,-1.3373003,-0.044161826,-0.59701014,11.471929,-10.387341,1.4526631,-0.34553856,0.22375834,-0.37661242,-0.8298783,-8.64151,3.8166912,-0.18136942,-0.28862143,-0.38754874,-0.38398638,0
0.7400000000000004,15.333328180195663,-0.28862142049644396,-0.3875487314431942,-0.38398637488019,14.107869,-1.3373003,-0.044161826,-0.59701014,11.385428,-10.348577,1.4508319,-0.34753707,0.22337088,-0.3743139,-0.830188,-8.658524,3.9360783,-0.18476832,-0.28862143,-0.38754874,-0.38398638,0
0.7500000000000004,15.333328180195663,-0.28862142049644396,-0.3875487314431942,-0.38398637488019,14.107869,-1.3373003,-0.044161826,-0.59701014,11.2987585,-10.308621,1.4489697,-0.34953234,0.22298133,-0.37201178,-0.83048975,-8.675476,4.0550103,-0.1875856,-0.28862143,-0.38754874,-0.38398638,0
0.7600000000000005,15.034862173538759,-0.3291062925489658,-0.6829235572340632,-0.3086149303444229,14.13947,-1.280901,-0.25212374,-0.5377848,11.211919,-10.267478,1.4470822,-0.35152426,0.22258964,-0.36970612,-0.83078367,-8.692368,4.173485,-0.18982351,-0.28862143,-0.38754874,-0.38398638,1
0.7700000000000005,15.034862173538759,-0.3291062925489658,-0.6829235572340632,-0.3086149303444229,14.13947,-1.280901,-0.25212374,-0.5377848,11.124916,-10.225199,1.4451382,-0.35278988,0.22478223,-0.36333454,-0.83246607,-8.708333,4.282086,-0.19879945,-1.280901,-0.25212374,-0.5377848,1
0.7800000000000005,15.034862173538759,-0.3291062925489658,-0.6829235572340632,-0.3086149303444229,14.13947,-1.280901,-0.25212374,-0.5377848,11.037748,-10.181839,1.4431096,-0.35403794,0.22696361,-0.35694483,-0.834107,-8.725426,4.389656,-0.20673968,-1.280901,-0.25212374,-0.5377848,1
0.7900000000000005,15.034862173538759,-0.3291062925489658,-0.6829235572340632,-0.3086149303444229,14.13947,-1.280901,-0.25212374,-0.5377848,10.950403,-10.137409,1.4410068,-0.35526836,0.22913368,-0.3505374,-0.8357064,-8.7436495,4.496179,-0.21366486,-1.280901,-0.25212374,-0.5377848,1
0.8000000000000005,15.128838297325505,0.05153095673898019,-0.8338714687416957,-0.212147398890083,14.395473,-1.2063961,-0.4315147,-0.46210274,10.862871,-10.091919,1.4388397,-0.35648105,0.23129232,-0.34411243,-0.8372642,-8.76301,4.601641,-0.21959586,-1.280901,-0.25212374,-0.5377848,0
0.8100000000000005,15.128838297325505,0.05153095673898019,-0.8338714687416957,-0.212147398890083,14.395473,-1.2063961,-0.4315147,-0.46210274,10.775134,-10.045342,1.4366504,-0.35886016,0.22807248,-0.34259334,-0.83775395,-8.784163,4.7135715,-0.21813668,0.051530957,-0.8338715,-0.2121474,0
0.8200000000000005,15.128838297325505,0.05153095673898019,-0.8338714687416957,-0.212147398890083,14.395473,-1.2063961,-0.4315147,-0.46210274,10.68719,-9.997649,1.4344795,-0.36123267,0.22484842,-0.34106785,-0.8382281,-8.804453,4.824982,-0.21591647,0.051530957,-0.8338715,-0.2121474,0
0.8300000000000005,15.128838297325505,0.05153095673898019,-0.8338714687416957,-0.212147398890083,14.395473,-1.2063961,-0.4315147,-0.46210274,10.599048,-9.948844,1.4323347,-0.36359838,0.22162017,-0.33953604,-0.8386867,-8.823877,4.935862,-0.21294105,0.051530957,-0.8338715,-0.2121474,0
0.8400000000000005,15.128838297325505,0.05153095673898019,-0.8338714687416957,-0.212147398890083,14.3158865,-0.70606714,-0.5436486,-0.2844012,10.5107155,-9.898933,1.4302232,-0.36595738,0.21838781,-0.33799794,-0.83912975,-8.84244,5.046203,-0.20921628,0.051530957,-0.8338715,-0.2121474,1
0.8500000000000005,15.128838297325505,0.05153095673898019,-0.8338714687416957,-0.212147398890083,14.3158865,-0.70606714,-0.5436486,-0.2844012,10.422205,-9.847952,1.4281256,-0.36729437,0.21787706,-0.33372656,-0.84038705,-8.859598,5.149965,-0.21018986,-0.70606714,-0.5436486,-0.2844012,1
0.8600000000000005,15.128838297325505,0.05153095673898019,-0.8338714687416957,-0.212147398890083,14.3158865,-0.70606714,-0.5436486,-0.2844012,10.333522,-9.795938,1.4260225,-0.36862338,0.21736154,-0.32944784,-0.8416259,-8.877031,5.2528467,-0.21028137,-0.70606714,-0.5436486,-0.2844012,1
0.8700000000000006,15.128838297325505,0.05153095673898019,-0.8338714687416957,-0.212147398890083,14.3158865,-0.70606714,-0.5436486,-0.2844012,10.244663,-9.742898,1.4239229,-0.36994427,0.21684125,-0.32516196,-0.84284645,-8.894744,5.354841,-0.20949948,-0.70606714,-0.5436486,-0.2844012,1
0.8800000000000006,14.752008656580097,-0.0410332005066832,-0.9818918154671625,-0.16405441477242255,14.422493,-0.6596,-0.34805885,-0.27368757,10.155626,-9.688844,1.4218354,-0.37125707,0.21631624,-0.32086894,-0.84404856,-8.912736,5.4559417,-0.20785289,-0.70606714,-0.5436486,-0.2844012,1
0.8900000000000006,14.752008656580097,-0.0410332005066832,-0.9818918154671625,-0.16405441477242255,14.422493,-0.6596,-0.34805885,-0.27368757,10.066408,-9.633779,1.4197723,-0.37225416,0.21650913,-0.31714064,-0.8449686,-8.931193,5.55695,-0.20467441,-0.6596,-0.34805885,-0.27368757,1
0.9000000000000006,14.752008656580097,-0.0410332005066832,-0.9818918154671625,-0.16405441477242255,14.422493,-0.6596,-0.34805885,-0.27368757,9.977002,-9.577707,1.417744,-0.37324536,0.2166986,-0.3134073,-0.8458753,-8.950066,5.657216,-0.2008364,-0.6596,-0.34805885,-0.27368757,1
0.9100000000000006,14.752008656580097,-0.0410332005066832,-0.9818918154671625,-0.16405441477242255,14.422493,-0.6596,-0.34805885,-0.27368757,9.887405,-9.5206375,1.4157577,-0.37423068,0.21688466,-0.30966905,-0.8467687,-8.969352,5.7567344,-0.19634558,-0.6596,-0.34805885,-0.27368757,1
0.9200000000000006,14.614305477575371,0.16402490758801913,-1.248971983691347,-0.10656641649147741,14.377863,-0.34249377,-0.35441002,-0.24768415,9.797613,-9.462576,1.4138193,-0.3752101,0.2170673,-0.3059259,-0.8476487,-8.989055,5.8554997,-0.1912087,-0.6596,-0.34805885,-0.27368757,1
0.9300000000000006,14.614305477575371,0.16402490758801913,-1.248971983691347,-0.10656641649147741,14.377863,-0.34249377,-0.35441002,-0.24768415,9.707623,-9.403532,1.4119339,-0.37642878,0.21658579,-0.30353945,-0.84808934,-9.008979,5.9532943,-0.18581237,-0.34249377,-0.35441002,-0.24768415,1
0.9400000000000006,14.614305477575371,0.16402490758801913,-1.248971983691347,-0.10656641649147741,14.377863,-0.34249377,-0.35441002,-0.24768415,9.617434,-9.343513,1.4101048,-0.3776446,0.21610264,-0.30115068,-0.84852356,-9.028964,6.0505686,-0.1799388,-0.34249377,-0.35441002,-0.24768415,1
0.9500000000000006,14.614305477575371,0.16402490758801913,-1.248971983691347,-0.10656641649147741,14.377863,-0.34249377,-0.35441002,-0.24768415,9.527043,-9.282523,1.4083368,-0.37885755,0.21561785,-0.29875964,-0.8489513,-9.049014,6.1473203,-0.17359081,-0.34249377,-0.35441002,-0.24768415,1
0.9600000000000006,14.233964506653319,0.32656556589487806,-1.8919989100003176,-0.04481756584855108,14.341323,0.032203615,-0.3321207,-0.20223132,9.436453,-9.220568,1.4066346,-0.38006765,0.21513142,-0.29636633,-0.84937257,-9.069127,6.243547,-0.16677123,-0.34249377,-0.35441002,-0.24768415,0
0.9700000000000006,14.233964506653319,0.32656556589487806,-1.8919989100003176,-0.04481756584855108,14.341323,0.032203615,-0.3321207,-0.20223132,9.345664,-9.15766,1.4049987,-0.3833953,0.20653239,-0.29409593,-0.85079944,-9.08832,6.3380513,-0.16017805,0.32656556,-1.8919989,-0.044817567,0
0.9800000000000006,14.233964506653319,0.32656556589487806,-1.8919989100003176,-0.04481756584855108,14.341323,0.032203615,-0.3321207,-0.20223132,9.254694,-9.093811,1.4034357,-0.3866876,0.19791433,-0.2917984,-0.8521479,-9.105482,6.4313774,-0.15218535,0.32656556,-1.8919989,-0.044817567,0
0.9900000000000007,14.233964506653319,0.32656556589487806,-1.8919989100003176,-0.04481756584855108,14.341323,0.032203615,-0.3321207,-0.20223132,9.163562,-9.029036,1.4019597,-0.38994423,0.18927802,-0.28947398,-0.8534177,-9.120607,6.523491,-0.14283174,0.32656556,-1.8919989,-0.044817567,0
1.0000000000000007,13.91884967348245,0.07779333689015129,-1.485247535476267,-0.043196994410008786,13.605634,0.42720237,-0.8526672,-0.14360955,9.0722885,-8.963345,1.4005837,-0.3931649,0.18062426,-0.28712288,-0.85460883,-9.133692,6.6143575,-0.13215628,0.32656556,-1.8919989,-0.044817567,1
1.0100000000000007,13.91884967348245,0.07779333689015129,-1.485247535476267,-0.043196994410008786,13.605634,0.42720237,-0.8526672,-0.14360955,8.980897,-8.896771,1.3992959,-0.3953839,0.17634507,-0.2871391,-0.8544733,-9.144537,6.7003183,-0.12535492,0.42720237,-0.8526672,-0.14360955,1
1.0200000000000007,13.91884967348245,0.07779333689015129,-1.485247535476267,-0.043196994410008786,13.605634,0.42720237,-0.8526672,-0.14360955,8.889402,-8.829339,1.3980782,-0.39759368,0.17206179,-0.28714862,-0.85431796,-9.154205,6.785918,-0.11814361,0.42720237,-0.8526672,-0.14360955,1
1.0300000000000007,13.91884967348245,0.07779333689015129,-1.485247535476267,-0.043196994410008786,13.605634,0.42720237,-0.8526672,-0.14360955,8.797817,-8.761053,1.3969345,-0.39979422,0.16777448,-0.2871515,-0.8541427,-9.162697,6.8711467,-0.11053093,0.42720237,-0.8526672,-0.14360955,1
1.0400000000000007,13.91884967348245,0.07779333689015129,-1.485247535476267,-0.043196994410008786,13.135845,0.30349192,-0.5245199,-0.15549174,8.706153,-8.691917,1.395869,-0.40198547,0.16348326,-0.28714767,-0.85394764,-9.1700115,6.9559956,-0.102525465,0.42720237,-0.8526672,-0.14360955,1
1.0500000000000007,13.91884967348245,0.07779333689015129,-1.485247535476267,-0.043196994410008786,13.135845,0.30349192,-0.5245199,-0.15549174,8.614421,-8.62195,1.3948668,-0.40364856,0.16085614,-0.28726077,-0.8536239,-9.176085,7.0376043,-0.09787281,0.30349192,-0.5245199,-0.15549174,1
1.0600000000000007,13.91884967348245,0.07779333689015129,-1.485247535476267,-0.043196994410008786,13.135845,0.30349192,-0.5245199,-0.15549174,8.522633,-8.5511675,1.3939122,-0.40530768,0.15822746,-0.28737104,-0.85329187,-9.181418,7.119005,-0.09301452,0.30349192,-0.5245199,-0.15549174,1
1.0700000000000007,13.91884967348245,0.07779333689015129,-1.485247535476267,-0.043196994410008786,13.135845,0.30349192,-0.5245199,-0.15549174,8.430796,-8.479571,1.3930072,-0.40696284,0.15559722,-0.28747848,-0.85295147,-9.186011,7.2001953,-0.08795368,0.30349192,-0.5245199,-0.15549174,1
1.0800000000000007,13.646008549925885,-0.3235165358311143,-1.8963830980237997,-0.010823901826181629,12.59188,0.07569438,-0.61877394,-0.1451905,8.338915,-8.407164,1.3921537,-0.40861404,0.15296547,-0.28758314,-0.8526027,-9.189864,7.281169,-0.08269337,0.30349192,-0.5245199,-0.15549174,0
1.0900000000000007,13.646008549925885,-0.3235165358311143,-1.8963830980237997,-0.010823901826181629,12.59188,0.07569438,-0.61877394,-0.1451905,8.247,-8.333934,1.3913754,-0.41112065,0.14555074,-0.282308,-0.8544567,-9.192916,7.3644686,-0.072753474,-0.32351655,-1.896383,-0.010823902,0
1.1000000000000008,13.646008549925885,-0.3235165358311143,-1.8963830980237997,-0.010823901826181629,12.59188,0.07569438,-0.61877394,-0.1451905,8.155061,-8.25988,1.3907036,-0.41358924,0.13812254,-0.2770068,-0.85623163,-9.194711,7.445945,-0.06140407,-0.32351655,-1.896383,-0.010823902,0
1.1100000000000008,13.646008549925885,-0.3235165358311143,-1.8963830980237997,-0.010823901826181629,12.59188,0.07569438,-0.61877394,-0.1451905,8.063109,-8.185021,1.390152,-0.41601953,0.13068157,-0.27167994,-0.8579274,-9.195249,7.525567,-0.0486856,-0.32351655,-1.896383,-0.010823902,0
1.1200000000000008,13.550127267071307,-0.6922051740465642,-1.5711349941736201,0.009488873239473653,12.30835,-0.040464282,-0.8815975,-0.088240705,7.9711595,-8.109375,1.3897343,-0.41841128,0.12322848,-0.26632795,-0.8595437,-9.19453,7.603307,-0.03463898,-0.32351655,-1.896383,-0.010823902,0
1.1300000000000008,13.550127267071307,-0.6922051740465642,-1.5711349941736201,0.009488873239473653,12.30835,-0.040464282,-0.8815975,-0.088240705,7.879222,-8.032963,1.3894595,-0.42002076,0.11790721,-0.26006228,-0.86142164,-9.192817,7.6786146,-0.020107139,-0.6922052,-1.571135,0.009488873,0
1.1400000000000008,13.550127267071307,-0.6922051740465642,-1.5711349941736201,0.009488873239473653,12.30835,-0.040464282,-0.8815975,-0.088240705,7.787305,-7.9558086,1.3893361,-0.42159927,0.112577245,-0.25377738,-0.8632361,-9.190521,7.752035,-0.0043462636,-0.6922052,-1.571135,0.009488873,0
1.1500000000000008,13.550127267071307,-0.6922051740465642,-1.5711349941736201,0.009488873239473653,12.30835,-0.040464282,-0.8815975,-0.088240705,7.6954136,-7.877929,1.3893764,-0.42314672,0.10723898,-0.24747382,-0.864987,-9.187645,7.823547,0.012610059,-0.6922052,-1.571135,0.009488873,0
1.1600000000000008,13.240012384538712,-0.766683966287192,-1.0431156587392356,0.05146025078740177,12.1962185,-0.36747688,-1.1876247,-0.16090539,7.603554,-7.799344,1.3895922,-0.424663,0.101892814,-0.24115202,-0.8666742,-9.184186,7.8931284,0.030727882,-0.6922052,-1.571135,0.009488873,0
1.1700000000000008,13.240012384538712,-0.766683966287192,-1.0431156587392356,0.05146025078740177,12.1962185,-0.36747688,-1.1876247,-0.16090539,7.511731,-7.72008,1.3899812,-0.42529824,0.09893636,-0.23563603,-0.8682211,-9.18043,7.9593735,0.047201153,-0.766684,-1.0431156,0.05146025,0
1.1800000000000008,13.240012384538712,-0.766683966287192,-1.0431156587392356,0.05146025078740177,12.1962185,-0.36747688,-1.1876247,-0.16090539,7.4199467,-7.6401615,1.390539,-0.42591563,0.09597574,-0.23011014,-0.8697316,-9.176618,8.024129,0.06452082,-0.766684,-1.0431156,0.05146025,0
1.1900000000000008,13.240012384538712,-0.766683966287192,-1.0431156587392356,0.05146025078740177,12.1962185,-0.36747688,-1.1876247,-0.16090539,7.3282003,-7.5596027,1.3912743,-0.42651513,0.093011096,-0.2245746,-0.8712056,-9.172748,8.087385,0.0826675,-0.766684,-1.0431156,0.05146025,0
1.2000000000000008,13.100698103149627,-0.7530211280779026,-0.20155367721470688,0.0660126780846833,12.603726,-0.43653142,-1.0258722,-0.17190073,7.236492,-7.4784193,1.3921952,-0.42709675,0.090042554,-0.21902964,-0.8726431,-9.168819,8.14913,0.10162169,-0.766684,-1.0431156,0.05146025,1
1.2100000000000009,13.100698103149627,-0.7530211280779026,-0.20155367721470688,0.0660126780846833,12.603726,-0.43653142,-1.0258722,-0.17190073,7.144823,-7.39664,1.3932811,-0.42876694,0.0866855,-0.21485335,-0.8732021,-9.164907,8.20655,0.115650624,-0.43653142,-1.0258722,-0.17190073,1
1.2200000000000009,13.100698103149627,-0.7530211280779026,-0.20155367721470688,0.0660126780846833,12.603726,-0.43653142,-1.0258722,-0.17190073,7.053195,-7.3142924,1.3945103,-0.43042347,0.0833257,-0.21067025,-0.8737332,-9.160629,8.262753,0.13028078,-0.43653142,-1.0258722,-0.17190073,1
1.2300000000000009,13.100698103149627,-0.7530211280779026,-0.20155367721470688,0.0660126780846833,12.603726,-0.43653142,-1.0258722,-0.17190073,6.9616117,-7.2313895,1.3958888,-0.43206632,0.07996323,-0.20648046,-0.87423664,-9.155988,8.317733,0.14549848,-0.43653142,-1.0258722,-0.17190073,1
1.2400000000000009,13.100698103149627,-0.7530211280779026,-0.20155367721470688,0.0660126780846833,12.698392,-0.33695608,-0.92655385,-0.20132346,6.870076,-7.1479425,1.3974223,-0.43369544,0.07659823,-0.2022841,-0.87471217,-9.150987,8.371482,0.16128999,-0.43653142,-1.0258722,-0.17190073,1
1.2500000000000009,13.100698103149627,-0.7530211280779026,-0.20155367721470688,0.0660126780846833,12.698392,-0.33695608,-0.92655385,-0.20132346,6.778593,-7.063962,1.3991208,-0.4353785,0.073479235,-0.19872153,-0.8749602,-9.145579,8.424447,0.1784732,-0.33695608,-0.92655385,-0.20132346,1
1.260000000000001,13.100698103149627,-0.7530211280779026,-0.20155367721470688,0.0660126780846833,12.698392,-0.33695608,-0.92655385,-0.20132346,6.687166,-6.979457,1.4009935,-0.43705058,0.07035839,-0.19515392,-0.8751861,-9.139792,8.476319,0.19613406,-0.33695608,-0.92655385,-0.20132346,1
1.270000000000001,13.100698103149627,-0.7530211280779026,-0.20155367721470688,0.0660126780846833,12.698392,-0.33695608,-0.92655385,-0.20132346,6.5957985,-6.8944387,1.403045,-0.43871158,0.06723575,-0.1915814,-0.8753898,-9.133628,8.527093,0.21426174,-0.33695608,-0.92655385,-0.20132346,1
1.280000000000001,12.996804112844863,-0.8700546985041315,0.30384789117497746,0.12588265948623326,12.786422,-0.48284632,-1.1846218,-0.20238794,6.5044947,-6.8089185,1.4052804,-0.44036147,0.06411143,-0.18800402,-0.87557137,-9.12709,8.576761,0.23284532,-0.33695608,-0.92655385,-0.20132346,0
1.290000000000001,12.996804112844863,-0.8700546985041315,0.30384789117497746,0.12588265948623326,12.786422,-0.48284632,-1.1846218,-0.20238794,6.413257,-6.722901,1.4077171,-0.43924114,0.067238286,-0.1849024,-0.87655956,-9.120588,8.626769,0.25453085,-0.8700547,0.30384788,0.12588266,0
1.300000000000001,12.996804112844863,-0.8700546985041315,0.30384789117497746,0.12588265948623326,12.786422,-0.48284632,-1.1846218,-0.20238794,6.322079,-6.6363845,1.4103717,-0.43811128,0.070363685,-0.18179676,-0.8775287,-9.115225,8.676455,0.27640662,-0.8700547,0.30384788,0.12588266,0
1.310000000000001,12.996804112844863,-0.8700546985041315,0.30384789117497746,0.12588265948623326,12.786422,-0.48284632,-1.1846218,-0.20238794,6.230949,-6.5493727,1.4132458,-0.4369719,0.07348757,-0.1786872,-0.87847894,-9.110998,8.725812,0.29846302,-0.8700547,0.30384788,0.12588266,0
1.320000000000001,12.883807866653328,-0.9427459874407439,0.8490750120837168,0.15905038770201144,13.04177,-0.6504354,-1.2824199,-0.05258076,6.1398554,-6.4618692,1.4163414,-0.43582308,0.076609865,-0.17557377,-0.8794102,-9.107909,8.774835,0.32069033,-0.8700547,0.30384788,0.12588266,0
1.330000000000001,12.883807866653328,-0.9427459874407439,0.8490750120837168,0.15905038770201144,13.04177,-0.6504354,-1.2824199,-0.05258076,6.0487866,-6.3738785,1.4196547,-0.43400833,0.082256414,-0.17333603,-0.8802412,-9.106163,8.823272,0.3419631,-0.942746,0.849075,0.15905039,0
1.340000000000001,12.883807866653328,-0.9427459874407439,0.8490750120837168,0.15905038770201144,13.04177,-0.6504354,-1.2824199,-0.05258076,5.957727,-6.2854033,1.4231806,-0.43217584,0.0878996,-0.17109123,-0.8810362,-9.106047,8.871831,0.36319908,-0.942746,0.849075,0.15905039,0
1.350000000000001,12.883807866653328,-0.9427459874407439,0.8490750120837168,0.15905038770201144,13.04177,-0.6504354,-1.2824199,-0.05258076,5.86666,-6.1964417,1.4269186,-0.43032566,0.09353919,-0.16883942,-0.8817952,-9.10756,8.920501,0.38438004,-0.942746,0.849075,0.15905039,0
1.360000000000001,12.600248282321694,-0.7873153825167754,0.36384629443849037,0.14529502667438082,13.134722,-0.450967,-1.4201597,-0.067760825,5.77557,-6.1069927,1.4308679,-0.42845795,0.09917496,-0.16658072,-0.8825182,-9.110703,8.969273,0.40548772,-0.942746,0.849075,0.15905039,0
1.370000000000001,12.600248282321694,-0.7873153825167754,0.36384629443849037,0.14529502667438082,13.134722,-0.450967,-1.4201597,-0.067760825,5.684441,-6.017061,1.435015,-0.42711923,0.10234514,-0.16395654,-0.8832962,-9.115172,9.016937,0.4239409,-0.78731537,0.3638463,0.14529502,0
1.380000000000001,12.600248282321694,-0.7873153825167754,0.36384629443849037,0.14529502667438082,13.134722,-0.450967,-1.4201597,-0.067760825,5.5932627,-5.926655,1.4393468,-0.42577225,0.10551334,-0.16132918,-0.8840572,-9.120705,9.064357,0.4424486,-0.78731537,0.3638463,0.14529502,0
1.390000000000001,12.600248282321694,-0.7873153825167754,0.36384629443849037,0.14529502667438082,13.134722,-0.450967,-1.4201597,-0.067760825,5.502023,-5.8357754,1.443864,-0.42441705,0.1086795,-0.15869868,-0.8848011,-9.127299,9.111526,0.4610026,-0.78731537,0.3638463,0.14529502,0
1.400000000000001,12.391180747236124,-0.6280499058589243,-0.12907075114563177,0.13670739484119684,12.855399,-0.33049172,-1.544325,0.09002179,5.4107127,-5.7444253,1.448567,-0.42305362,0.111843556,-0.15606514,-0.8855278,-9.134956,9.158439,0.4795948,-0.78731537,0.3638463,0.14529502,0
1.410000000000001,12.391180747236124,-0.6280499058589243,-0.12907075114563177,0.13670739484119684,12.855399,-0.33049172,-1.544325,0.09002179,5.319321,-5.6526113,1.4534466,-0.42219555,0.1124933,-0.15308696,-0.8863744,-9.14333,9.204198,0.49634287,-0.6280499,-0.12907074,0.1367074,0
1.420000000000001,12.391180747236124,-0.6280499058589243,-0.12907075114563177,0.13670739484119684,12.855399,-0.33049172,-1.544325,0.09002179,5.2278438,-5.560343,1.4584947,-0.42133296,0.11314183,-0.15010713,-0.8872115,-9.152214,9.249379,0.51328135,-0.6280499,-0.12907074,0.1367074,0
1.430000000000001,12.391180747236124,-0.6280499058589243,-0.12907075114563177,0.13670739484119684,12.855399,-0.33049172,-1.544325,0.09002179,5.1362753,-5.4676256,1.4637129,-0.42046583,0.11378914,-0.14712569,-0.88803905,-9.161609,9.29398,0.5304058,-0.6280499,-0.12907074,0.1367074,0
1.440000000000001,12.391180747236124,-0.6280499058589243,-0.12907075114563177,0.13670739484119684,12.747267,-0.39986897,-1.9870647,0.21888384,5.04461,-5.3744655,1.4691035,-0.41959417,0.11443523,-0.14414267,-0.88885707,-9.171511,9.3379965,0.5477118,-0.6280499,-0.12907074,0.1367074,0
1.450000000000001,12.391180747236124,-0.6280499058589243,-0.12907075114563177,0.13670739484119684,12.747267,-0.39986897,-1.9870647,0.21888384,4.952843,-5.2808676,1.4746678,-0.418718,0.11508009,-0.1411581,-0.88966554,-9.181919,9.381429,0.5651949,-0.6280499,-0.12907074,0.1367074,0
1.460000000000001,12.391180747236124,-0.6280499058589243,-0.12907075114563177,0.13670739484119684,12.747267,-0.39986897,-1.9870647,0.21888384,4.8609695,-5.186839,1.4804078,-0.41783735,0.115723714,-0.13817202,-0.8904645,-9.192835,9.424272,0.5828507,-0.6280499,-0.12907074,0.1367074,0
1.470000000000001,12.391180747236124,-0.6280499058589243,-0.12907075114563177,0.13670739484119684,12.747267,-0.39986897,-1.9870647,0.21888384,4.768985,-5.092385,1.4863254,-0.41695222,0.11636609,-0.13518445,-0.8912539,-9.204254,9.466524,0.60067475,-0.6280499,-0.12907074,0.1367074,0
1.480000000000001,12.143124694959235,-0.5045659719580141,-0.359925191111444,0.13397002478518874,12.636219,-0.28791407,-2.0792568,0.23453727,4.676883,-4.997511,1.4924219,-0.4160626,0.117007226,-0.13219546,-0.89203376,-9.216177,9.508184,0.6186626,-0.6280499,-0.12907074,0.1367074,0
1.490000000000001,12.143124694959235,-0.5045659719580141,-0.359925191111444,0.13397002478518874,12.636219,-0.28791407,-2.0792568,0.23453727,4.584661,-4.9022274,1.4986875,-0.4154057,0.11636242,-0.12927397,-0.892852,-9.228242,9.548388,0.6345083,-0.50456595,-0.35992518,0.13397002,0
1.500000000000001,12.143124694959235,-0.5045659719580141,-0.359925191111444,0.13397002478518874,12.636219,-0.28791407,-2.0792568,0.23453727,4.4923167,-4.8065457,1.5051128,-0.41474462,0.11571644,-0.12635118,-0.8936613,-9.240507,9.587899,0.6505745,-0.50456595,-0.35992518,0.13397002,0
1.5100000000000011,12.143124694959235,-0.5045659719580141,-0.359925191111444,0.13397002478518874,12.636219,-0.28791407,-2.0792568,0.23453727,4.3998494,-4.710472,1.5116997,-0.41407937,0.1150693,-0.123427115,-0.8944617,-9.252968,9.626718,0.666857,-0.50456595,-0.35992518,0.13397002,0
1.5200000000000011,11.898544520756667,-0.37392314341881583,-0.5283647586695683,0.13861082115026396,12.73111,-0.12929621,-2.3734324,0.26171264,4.3072567,-4.6140137,1.5184505,-0.41340995,0.114421,-0.120501816,-0.895253,-9.265625,9.664841,0.6833516,-0.50456595,-0.35992518,0.13397002,0
1.5300000000000011,11.898544520756667,-0.37392314341881583,-0.5283647586695683,0.13861082115026396,12.73111,-0.12929621,-2.3734324,0.26171264,4.2145376,-4.5171814,1.5253558,-0.41289163,0.11274468,-0.117814526,-0.8960622,-9.278126,9.701496,0.6977575,-0.37392315,-0.5283648,0.13861082,0
1.5400000000000011,11.898544520756667,-0.37392314341881583,-0.5283647586695683,0.13861082115026396,12.73111,-0.12929621,-2.3734324,0.26171264,4.121694,-4.419986,1.5324064,-0.41236877,0.11106712,-0.11512595,-0.89686155,-9.290569,9.737423,0.71240467,-0.37392315,-0.5283648,0.13861082,0
1.5500000000000012,11.898544520756667,-0.37392314341881583,-0.5283647586695683,0.13861082115026396,12.73111,-0.12929621,-2.3734324,0.26171264,4.0287266,-4.322435,1.5396048,-0.41184145,0.10938836,-0.11243611,-0.8976511,-9.302955,9.772618,0.7272885,-0.37392315,-0.5283648,0.13861082,0
1.5600000000000012,11.627964546075667,-0.27229250528156135,-0.7897629578508004,0.14196159686667337,12.829669,-0.059221536,-2.6402197,0.30140397,3.9356356,-4.224536,1.5469531,-0.4113096,0.107708395,-0.10974503,-0.89843076,-9.31528,9.807084,0.7424042,-0.37392315,-0.5283648,0.13861082,0
1.5700000000000012,11.627964546075667,-0.27229250528156135,-0.7897629578508004,0.14196159686667337,12.829669,-0.059221536,-2.6402197,0.30140397,3.842423,-4.1262994,1.5544409,-0.4109549,0.104641795,-0.10697314,-0.8992894,-9.327158,9.839994,0.7551948,-0.2722925,-0.789763,0.14196159,0
1.5800000000000012,11.627964546075667,-0.27229250528156135,-0.7897629578508004,0.14196159686667337,12.829669,-0.059221536,-2.6402197,0.30140397,3.7490935,-4.027739,1.562058,-0.41059285,0.1015733,-0.10419933,-0.9001319,-9.338689,9.872045,0.76827353,-0.2722925,-0.789763,0.14196159,0
1.5900000000000012,11.627964546075667,-0.27229250528156135,-0.7897629578508004,0.14196159686667337,12.829669,-0.059221536,-2.6402197,0.30140397,3.6556504,-3.9288619,1.5698073,-0.41022342,0.09850299,-0.10142364,-0.9009581,-9.349872,9.903233,0.78163284,-0.2722925,-0.789763,0.14196159,0
1.6000000000000012,11.443182916040614,-0.23258592958857152,-0.5163487371570987,0.15199558011315312,12.897313,-0.062447906,-2.8750875,0.334547,3.562097,-3.829677,1.5776917,-0.40984663,0.09543091,-0.09864614,-0.90176827,-9.360703,9.933557,0.7952647,-0.2722925,-0.789763,0.14196159,0
1.6100000000000012,11.443182916040614,-0.23258592958857152,-0.5163487371570987,0.15199558011315312,12.897313,-0.062447906,-2.8750875,0.334547,3.4684381,-3.7301958,1.5857047,-0.40930325,0.09350403,-0.09661143,-0.90243703,-9.3710785,9.962642,0.8073508,-0.23258594,-0.5163487,0.15199558,0
1.6200000000000012,11.443182916040614,-0.23258592958857152,-0.5163487371570987,0.15199558011315312,12.897313,-0.062447906,-2.8750875,0.334547,3.3746765,-3.6304262,1.5938393,-0.40875635,0.09157633,-0.09457589,-0.9030979,-9.381271,9.99113,0.8196098,-0.23258594,-0.5163487,0.15199558,0
1.6300000000000012,11.443182916040614,-0.23258592958857152,-0.5163487371570987,0.15199558011315312,12.897313,-0.062447906,-2.8750875,0.334547,3.2808135,-3.530375,1.6020974,-0.40820593,0.08964785,-0.09253954,-0.90375113,-9.391281,10.01902,0.8320382,-0.23258594,-0.5163487,0.15199558,0
1.6400000000000012,11.443182916040614,-0.23258592958857152,-0.5163487371570987,0.15199558011315312,12.915443,-0.028998405,-2.9069445,0.32678458,3.1868513,-3.4300478,1.6104807,-0.407652,0.087718606,-0.090502396,-0.90439653,-9.401108,10.046311,0.84463257,-0.23258594,-0.5163487,0.15199558,0
1.6500000000000012,11.443182916040614,-0.23258592958857152,-0.5163487371570987,0.15199558011315312,12.915443,-0.028998405,-2.9069445,0.32678458,3.092792,-3.3294508,1.6189907,-0.40709457,0.0857886,-0.08846447,-0.9050342,-9.410751,10.073003,0.85738915,-0.23258594,-0.5163487,0.15199558,0
1.6600000000000013,11.443182916040614,-0.23258592958857152,-0.5163487371570987,0.15199558011315312,12.915443,-0.028998405,-2.9069445,0.32678458,2.9986372,-3.2285898,1.627629,-0.40653366,0.08385786,-0.08642579,-0.9056641,-9.420208,10.099094,0.8703045,-0.23258594,-0.5163487,0.15199558,0
1.6700000000000013,11.443182916040614,-0.23258592958857152,-0.5163487371570987,0.15199558011315312,12.915443,-0.028998405,-2.9069445,0.32678458,2.9043887,-3.127471,1.6363974,-0.40596923,0.0819264,-0.084386356,-0.9062861,-9.429479,10.124585,0.8833751,-0.23258594,-0.5163487,0.15199558,0
1.6800000000000013,11.198123707879843,-0.21998313122430824,-0.7955660316042149,0.16452411767806624,13.048809,-0.009868145,-3.1515696,0.36514756,2.8100483,-3.0261,1.645297,-0.40540132,0.07999423,-0.08234621,-0.9069004,-9.43856,10.149474,0.8965974,-0.23258594,-0.5163487,0.15199558,0
1.6900000000000013,11.198123707879843,-0.21998313122430824,-0.7955660316042149,0.16452411767806624,13.048809,-0.009868145,-3.1515696,0.36514756,2.7156193,-2.9244862,1.654318,-0.40489128,0.0767642,-0.07980115,-0.9076346,-9.44718,10.173161,0.9076046,-0.21998313,-0.795566,0.16452412,0
1.7000000000000013,11.198123707879843,-0.21998313122430824,-0.7955660316042149,0.16452411767806624,13.048809,-0.009868145,-3.1515696,0.36514756,2.6211061,-2.8226395,1.6634499,-0.4043741,0.07353281,-0.07725468,-0.9083528,-9.455397,10.19604,0.9188147,-0.21998313,-0.795566,0.16452412,0
1.7100000000000013,11.198123707879843,-0.21998313122430824,-0.7955660316042149,0.16452411767806624,13.048809,-0.009868145,-3.1515696,0.36514756,2.5265129,-2.720568,1.6726949,-0.40384975,0.070300125,-0.07470685,-0.9090548,-9.463206,10.218114,0.9302205,-0.21998313,-0.795566,0.16452412,0
1.7200000000000013,10.97528653525689,-0.24512370379544218,-0.5703451264835185,0.18576829625198563,12.943007,-0.059945285,-3.189211,0.44193384,2.4318435,-2.61828,1.682055,-0.40331826,0.06706619,-0.072157696,-0.90974087,-9.470609,10.239379,0.94181424,-0.21998313,-0.795566,0.16452412,0
1.7300000000000013,10.97528653525689,-0.24512370379544218,-0.5703451264835185,0.18576829625198563,12.943007,-0.059945285,-3.189211,0.44193384,2.3371027,-2.5157855,1.6915208,-0.40259472,0.064898804,-0.06995447,-0.9103903,-9.477531,10.259489,0.9513865,-0.2451237,-0.5703451,0.18576829,0
1.7400000000000013,10.97528653525689,-0.24512370379544218,-0.5703451264835185,0.18576829625198563,12.943007,-0.059945285,-3.189211,0.44193384,2.2422936,-2.4130926,1.7010831,-0.40186694,0.06273073,-0.0677505,-0.91103023,-9.484237,10.278967,0.9610888,-0.2451237,-0.5703451,0.18576829,0
1.7500000000000013,10.97528653525689,-0.24512370379544218,-0.5703451264835185,0.18576829625198563,12.943007,-0.059945285,-3.189211,0.44193384,2.1474187,-2.310208,1.710743,-0.40113494,0.060562003,-0.06554582,-0.9116606,-9.490723,10.2978115,0.9709168,-0.2451237,-0.5703451,0.18576829,0
1.7600000000000013,10.705640103676634,-0.30729369911478704,-0.5411418085004837,0.21615473676171867,13.057383,-0.15618995,-3.316836,0.50010896,2.05248,-2.2071383,1.7205019,-0.40039876,0.05839264,-0.063340455,-0.91228145,-9.496988,10.316023,0.98086643,-0.2451237,-0.5703451,0.18576829,0
1.7700000000000014,10.705640103676634,-0.30729369911478704,-0.5411418085004837,0.21615473676171867,13.057383,-0.15618995,-3.316836,0.50010896,1.9574803,-2.103892,1.7303475,-0.39949226,0.056470703,-0.06091817,-0.9129646,-9.502908,10.333162,0.98827595,-0.3072937,-0.5411418,0.21615474,0
1.7800000000000014,10.705640103676634,-0.30729369911478704,-0.5411418085004837,0.21615473676171867,13.057383,-0.15618995,-3.316836,0.50010896,1.8624223,-2.0004773,1.7402679,-0.39858145,0.054548156,-0.058495224,-0.91363776,-9.508679,10.349661,0.99579567,-0.3072937,-0.5411418,0.21615474,0
1.7900000000000014,10.705640103676634,-0.30729369911478704,-0.5411418085004837,0.21615473676171867,13.057383,-0.15618995,-3.316836,0.50010896,1.7673074,-1.896901,1.7502638,-0.39766634,0.05262501,-0.056071643,-0.91430104,-9.514302,10.365519,1.0034215,-0.3072937,-0.5411418,0.21615474,0
1.8000000000000014,10.489899311749207,-0.4102891482843991,-0.4072853658230612,0.2505986896320603,12.823549,-0.053249657,-3.1293614,0.52392435,1.6721369,-1.7931691,1.7603365,-0.39674693,0.050701298,-0.053647455,-0.9149544,-9.519773,10.380735,1.0111495,-0.3072937,-0.5411418,0.21615474,0
1.8100000000000014,10.489899311749207,-0.4102891482843991,-0.4072853658230612,0.2505986896320603,12.823549,-0.053249657,-3.1293614,0.52392435,1.5769128,-1.6892897,1.7704765,-0.39560378,0.049584493,-0.051025797,-0.91566026,-9.525048,10.395028,1.0168359,-0.41028914,-0.40728536,0.2505987,0
1.8200000000000014,10.489899311749207,-0.4102891482843991,-0.4072853658230612,0.2505986896320603,12.823549,-0.053249657,-3.1293614,0.52392435,1.4816358,-1.5852705,1.7806736,-0.39445668,0.0484672,-0.048403632,-0.91635704,-9.530347,10.40872,1.0226023,-0.41028914,-0.40728536,0.2505987,0
1.8300000000000014,10.489899311749207,-0.4102891482843991,-0.4072853658230612,0.2505986896320603,12.823549,-0.053249657,-3.1293614,0.52392435,1.3863057,-1.4811174,1.7909288,-0.3933057,0.04734942,-0.045780987,-0.91704476,-9.535667,10.421811,1.0284451,-0.41028914,-0.40728536,0.2505987,0
1.8400000000000014,10.489899311749207,-0.4102891482843991,-0.4072853658230612,0.2505986896320603,12.510892,-0.16215774,-3.1416423,0.56899536,1.2909225,-1.3768363,1.8012427,-0.3921508,0.046231177,-0.043157887,-0.91772336,-9.541006,10.4343,1.0343609,-0.41028914,-0.40728536,0.2505987,0
1.8500000000000014,10.489899311749207,-0.4102891482843991,-0.4072853658230612,0.2505986896320603,12.510892,-0.16215774,-3.1416423,0.56899536,1.1954856,-1.2724334,1.8116162,-0.390992,0.045112472,-0.040534355,-0.91839284,-9.546364,10.446187,1.0403463,-0.41028914,-0.40728536,0.2505987,0
1.8600000000000014,10.489899311749207,-0.4102891482843991,-0.4072853658230612,0.2505986896320603,12.510892,-0.16215774,-3.1416423,0.56899536,1.0999951,-1.1679145,1.8220499,-0.38982934,0.04399332,-0.037910424,-0.9190532,-9.551737,10.457471,1.0463978,-0.41028914,-0.40728536,0.2505987,0
1.8700000000000014,10.489899311749207,-0.4102891482843991,-0.4072853658230612,0.2505986896320603,12.510892,-0.16215774,-3.1416423,0.56899536,1.0044508,-1.063286,1.8325446,-0.38866276,0.042873733,-0.03528612,-0.91970444,-9.557125,10.468152,1.0525123,-0.41028914,-0.40728536,0.2505987,0
1.8800000000000014,10.241829312604173,-0.5390110189156105,-0.42028956221241576,0.29641949665823514,12.323914,-0.36059958,-3.1369932,0.61210406,0.9088526,-0.95855355,1.8431005,-0.38749236,0.041753724,-0.032661464,-0.92034656,-9.562525,10.47823,1.0586863,-0.41028914,-0.40728536,0.2505987,0
1.8900000000000015,10.241829312604173,-0.5390110189156105,-0.42028956221241576,0.29641949665823514,12.323914,-0.36059958,-3.1369932,0.61210406,0.81320083,-0.85372466,1.8537061,-0.38608173,0.040815283,-0.029428449,-0.92109025,-9.567839,10.487443,1.0624506,-0.539011,-0.42028958,0.2964195,0
1.9000000000000015,10.241829312604173,-0.5390110189156105,-0.42028956221241576,0.29641949665823514,12.323914,-0.36059958,-3.1369932,0.61210406,0.71749544,-0.74880713,1.8643496,-0.38466576,0.03987627,-0.026195023,-0.9218212,-9.573248,10.495964,1.0662704,-0.539011,-0.42028958,0.2964195,0
1.9100000000000015,10.241829312604173,-0.5390110189156105,-0.42028956221241576,0.29641949665823514,12.323914,-0.36059958,-3.1369932,0.61210406,0.6217355,-0.6438078,1.8750316,-0.38324445,0.038936708,-0.022961235,-0.9225393,-9.578748,10.503793,1.0701406,-0.539011,-0.42028958,0.2964195,0
1.9200000000000015,9.95690567507283,-0.7448039923128061,-0.2804187584500387,0.34486686854884496,11.692901,-0.46349484,-2.56277,0.59254193,0.52592015,-0.5387337,1.8857526,-0.38181782,0.0379966,-0.019727128,-0.9232446,-9.584336,10.510928,1.0740569,-0.539011,-0.42028958,0.2964195,0
1.9300000000000015,9.95690567507283,-0.7448039923128061,-0.2804187584500387,0.34486686854884496,11.692901,-0.46349484,-2.56277,0.59254193,0.430049,-0.43359265,1.8964986,-0.38010842,0.038089644,-0.015818946,-0.92402107,-9.589944,10.517174,1.0751711,-0.74480397,-0.28041875,0.34486687,0
1.9400000000000015,9.95690567507283,-0.7448039923128061,-0.2804187584500387,0.34486686854884496,11.692901,-0.46349484,-2.56277,0.59254193,0.33412015,-0.3283927,1.907256,-0.37839186,0.03818197,-0.011910468,-0.92478013,-9.595877,10.5226965,1.0763093,-0.74480397,-0.28041875,0.34486687,0
1.9500000000000015,9.95690567507283,-0.7448039923128061,-0.2804187584500387,0.34486686854884496,11.692901,-0.46349484,-2.56277,0.59254193,0.23813039,-0.2231412,1.9180249,-0.37666816,0.038273584,-0.008001767,-0.9255218,-9.602131,10.527495,1.0774655,-0.74480397,-0.28041875,0.34486687,0
1.9600000000000015,9.68069123307703,-0.9489170065069373,-0.8148482514028668,0.42440990307643034,11.45152,-0.76823074,-2.3119905,0.58122194,0.14207645,-0.11784531,1.9288054,-0.37493742,0.03836448,-0.0040929145,-0.92624605,-9.608704,10.531569,1.0786335,-0.74480397,-0.28041875,0.34486687,0
1.9700000000000015,9.68069123307703,-0.9489170065069373,-0.8148482514028668,0.42440990307643034,11.45152,-0.76823074,-2.3119905,0.58122194,0.045956425,-0.012513354,1.9395838,-0.37279835,0.03636015,0.0017479599,-0.9271972,-9.615314,10.534634,1.0770652,-0.94891703,-0.81484824,0.4244099,0
1.9800000000000015,9.68069123307703,-0.9489170065069373,-0.8148482514028668,0.42440990307643034,11.45152,-0.76823074,-2.3119905,0.58122194,-0.050230045,0.09284322,1.9503467,-0.37064305,0.03435423,0.007588757,-0.9281079,-9.621992,10.536491,1.0755231,-0.94891703,-0.81484824,0.4244099,0
1.9900000000000015,9.68069123307703,-0.9489170065069373,-0.8148482514028668,0.42440990307643034,11.45152,-0.76823074,-2.3119905,0.58122194,-0.14648362,0.19821233,1.9610941,-0.36847156,0.032346807,0.013429224,-0.92897815,-9.628733,10.53714,1.0739925,-0.94891703,-0.81484824,0.4244099,0
2.0000000000000013,9.460485620015914,-1.1116964029093366,-1.2441093600373418,0.5255927751827577,11.441819,-0.9308998,-1.9222516,0.6490482,-0.24280487,0.30358186,1.9718263,-0.366284,0.030337976,0.019269107,-0.92980784,-9.635529,10.536578,1.0724583,-0.94891703,-0.81484824,0.4244099,0
2.010000000000001,9.460485620015914,-1.1116964029093366,-1.2441093600373418,0.5255927751827577,11.441819,-0.9308998,-1.9222516,0.6490482,-0.33919334,0.4089395,1.9825321,-0.36353803,0.026639571,0.026635354,-0.9308164,-9.642146,10.534703,1.0687118,-1.1116964,-1.2441094,0.5255928,0
2.020000000000001,9.460485620015914,-1.1116964029093366,-1.2441093600373418,0.5255927751827577,11.441819,-0.9308998,-1.9222516,0.6490482,-0.43564725,0.51427054,1.9932004,-0.36076427,0.02293913,0.033999566,-0.9317538,-9.648611,10.531257,1.0649315,-1.1116964,-1.2441094,0.5255928,0
2.0300000000000007,9.460485620015914,-1.1116964029093366,-1.2441093600373418,0.5255927751827577,11.441819,-0.9308998,-1.9222516,0.6490482,-0.53216505,0.6195593,2.0038304,-0.35796288,0.019236932,0.04136118,-0.9326199,-9.654915,10.52624,1.0610918,-1.1116964,-1.2441094,0.5255928,0
2.0400000000000005,9.460485620015914,-1.1116964029093366,-1.2441093600373418,0.5255927751827577,11.441819,-0.9308998,-1.9222516,0.6490482,-0.628745,0.72479,2.0144217,-0.3551341,0.015533261,0.048719626,-0.9334147,-9.661044,10.519658,1.057167,-1.1116964,-1.2441094,0.5255928,0
2.0500000000000003,9.460485620015914,-1.1116964029093366,-1.2441093600373418,0.5255927751827577,11.553036,-1.0752666,-1.7688936,0.7042788,-0.7253853,0.829947,2.0249732,-0.35227817,0.011828405,0.056074347,-0.9341381,-9.66699,10.511512,1.0531316,-1.1116964,-1.2441094,0.5255928,0
2.06,9.460485620015914,-1.1116964029093366,-1.2441093600373418,0.5255927751827577,11.553036,-1.0752666,-1.7688936,0.7042788,-0.8220842,0.9350148,2.0354838,-0.34939528,0.0081226425,0.06342477,-0.9347901,-9.672745,10.501804,1.04896,-1.1116964,-1.2441094,0.5255928,0
2.07,9.460485620015914,-1.1116964029093366,-1.2441093600373418,0.5255927751827577,11.553036,-1.0752666,-1.7688936,0.7042788,-0.9188396,1.0399778,2.0459518,-0.34648564,0.004416259,0.07077035,-0.9353705,-9.678297,10.49054,1.0446266,-1.1116964,-1.2441094,0.5255928,0
2.0799999999999996,9.460485620015914,-1.1116964029093366,-1.2441093600373418,0.5255927751827577,11.553036,-1.0752666,-1.7688936,0.7042788,-1.0156494,1.1448202,2.0563755,-0.34354952,0.00070953724,0.07811052,-0.9358794,-9.683637,10.477723,1.0401059,-1.1116964,-1.2441094,0.5255928,0
2.0899999999999994,9.267504708239079,-1.2426796706802767,-1.6192902431939138,0.6387898771932746,11.596417,-1.0697668,-1.6708606,0.73515594,-1.1125115,1.2495269,2.0667531,-0.3405871,-0.0029972391,0.08544471,-0.9363167,-9.688754,10.463358,1.0353725,-1.1116964,-1.2441094,0.5255928,0
2.099999999999999,9.267504708239079,-1.2426796706802767,-1.6192902431939138,0.6387898771932746,11.596417,-1.0697668,-1.6708606,0.73515594,-1.2094231,1.3540833,2.0770729,-0.336904,-0.008188702,0.094024494,-0.93679583,-9.69347,10.447657,1.0284846,-1.2426797,-1.6192902,0.6387899,0
