time-since-start [s],throttle_mpc,roll_mpc,pitch_mpc,yaw_mpc,throttle_nw,roll_nw,pitch_nw,yaw_nw,position_x [m],position_y [m],position_z [m],rotation_w [quaternion],rotation_x [quaternion],rotation_y [quaternion],rotation_z [quaternion],velocity_x [m/s],velocity_y [m/s],velocity_z [m/s],omega_x [rad/s],omega_y [rad/s],omega_z [rad/s],network_used
0.0,13.836737018737372,5.999999768339058,-5.999999940886745,-2.6402154064839984,13.417143,1.7119093,-4.6742063,-0.04171201,15.654562,-11.459228,1.4821949,0.038883213,-0.44004184,0.3999778,0.80303735,-11.633496,-3.421769,0.05460716,1.8413004,-0.3097791,-0.07397731,0
0.01,13.836737018737372,5.999999768339058,-5.999999940886745,-2.6402154064839984,15.97966,2.567115,-6.413048,-0.3267085,15.537768,-11.492968,1.4824542,0.074634604,-0.4196366,0.41669297,0.80293316,-11.723718,-3.325223,-0.0025802786,6.0,-6.0,-2.6402154,0
0.02,13.836737018737372,5.999999768339058,-5.999999940886745,-2.6402154064839984,15.97966,2.567115,-6.413048,-0.3267085,15.420118,-11.525706,1.482147,0.11023867,-0.39840305,0.43258563,0.801244,-11.804841,-3.2213447,-0.058692165,6.0,-6.0,-2.6402154,0
0.03,13.836737018737372,5.999999768339058,-5.999999940886745,-2.6402154064839984,15.97966,2.567115,-6.413048,-0.3267085,15.301704,-11.557372,1.481284,0.14562513,-0.37638307,0.4476244,0.79797333,-11.87625,-3.1109734,-0.11373679,6.0,-6.0,-2.6402154,0
0.04,13.836737018737372,5.999999768339058,-5.999999940886745,-2.6402154064839984,16.108196,1.0824828,-5.8019247,-0.2718575,15.182629,-11.587907,1.4798759,0.18072413,-0.35362014,0.46177956,0.7931274,-11.937403,-2.9950004,-0.1677309,6.0,-6.0,-2.6402154,0
0.05,13.836737018737372,5.999999768339058,-5.999999940886745,-2.6402154064839984,16.108196,1.0824828,-5.8019247,-0.2718575,15.062994,-11.617257,1.477933,0.21546641,-0.3301592,0.47502324,0.7867159,-11.98784,-2.8743603,-0.22069953,6.0,-6.0,-2.6402154,0
0.060000000000000005,13.836737018737372,5.999999768339058,-5.999999940886745,-2.6402154064839984,16.108196,1.0824828,-5.8019247,-0.2718575,14.94291,-11.645382,1.4754654,0.24978335,-0.30604652,0.48732924,0.7787515,-12.0271845,-2.7500246,-0.27267578,6.0,-6.0,-2.6402154,0
0.07,13.836737018737372,5.999999768339058,-5.999999940886745,-2.6402154064839984,16.108196,1.0824828,-5.8019247,-0.2718575,14.82249,-11.67225,1.4724828,0.28360724,-0.28132975,0.49867326,0.7692499,-12.055149,-2.6229944,-0.32370058,6.0,-6.0,-2.6402154,0
0.08,20.49673753696545,5.999999299222441,-5.999999850341725,-0.9718819407285527,16.93486,0.44369936,-4.5575047,-0.34758306,14.701847,-11.697837,1.4689945,0.31687132,-0.25605762,0.50903296,0.7582298,-12.071536,-2.4942918,-0.3738224,6.0,-6.0,-2.6402154,0
0.09,20.49673753696545,5.999999299222441,-5.999999850341725,-0.9718819407285527,16.93486,0.44369936,-4.5575047,-0.34758306,14.581083,-11.721822,1.4651265,0.3432116,-0.2260538,0.5205617,0.7484122,-12.078498,-2.3026865,-0.3996253,5.9999995,-6.0,-0.9718819,0
0.09999999999999999,20.49673753696545,5.999999299222441,-5.999999850341725,-0.9718819407285527,16.93486,0.44369936,-4.5575047,-0.34758306,14.460337,-11.743893,1.4610053,0.3689261,-0.19563782,0.5311413,0.73723,-12.0681095,-2.1115887,-0.42450148,5.9999995,-6.0,-0.9718819,0
0.10999999999999999,20.49673753696545,5.999999299222441,-5.999999850341725,-0.9718819407285527,16.93486,0.44369936,-4.5575047,-0.34758306,14.33978,-11.764061,1.4566383,0.39396793,-0.16486514,0.5407524,0.7247037,-12.040458,-1.9224335,-0.44882023,5.9999995,-6.0,-0.9718819,0
0.11999999999999998,20.49673753696545,5.999999299222441,-5.999999850341725,-0.9718819407285527,16.93486,0.44369936,-4.5575047,-0.34758306,14.219585,-11.782353,1.4520295,0.41829142,-0.13379182,0.54937756,0.71085596,-11.995753,-1.7366415,-0.47295493,5.9999995,-6.0,-0.9718819,0
0.12999999999999998,20.999999550150505,3.044670576817895,-5.99999893922403,0.6493258679724198,18.1638,-0.69801396,-2.968839,-0.12966734,14.099922,-11.798811,1.4471785,0.4418522,-0.102474555,0.557001,0.6957121,-11.934333,-1.5556091,-0.4972802,5.9999995,-6.0,-0.9718819,0
0.13999999999999999,20.999999550150505,3.044670576817895,-5.99999893922403,0.6493258679724198,18.1638,-0.69801396,-2.968839,-0.12966734,13.980959,-11.813465,1.4420954,0.45760813,-0.07301543,0.5543515,0.69134486,-11.856413,-1.3763158,-0.51878405,3.0446706,-5.999999,0.64932585,0
0.15,20.999999550150505,3.044670576817895,-5.99999893922403,0.6493258679724198,18.1638,-0.69801396,-2.968839,-0.12966734,13.862834,-11.826362,1.4368138,0.47284138,-0.043472905,0.55106884,0.686188,-11.766703,-1.2040894,-0.53704315,3.0446706,-5.999999,0.64932585,0
0.16,20.999999427924255,0.40023847222443426,-2.678491670842997,0.5895011282997639,18.860968,-2.0895581,-1.7787989,-0.051674977,13.745664,-11.837574,1.431364,0.48753458,-0.013880723,0.5471568,0.6802474,-11.665573,-1.0396888,-0.55250144,3.0446706,-5.999999,0.64932585,0
0.17,20.999999427924255,0.40023847222443426,-2.678491670842997,0.5895011282997639,18.860968,-2.0895581,-1.7787989,-0.051674977,13.629553,-11.847178,1.4257721,0.4928381,-0.002181181,0.54197735,0.6807101,-11.556187,-0.88192475,-0.56549716,0.40023848,-2.6784916,0.58950114,0
0.18000000000000002,20.999999427924255,0.40023847222443426,-2.678491670842997,0.5895011282997639,18.860968,-2.0895581,-1.7787989,-0.051674977,13.514553,-11.855225,1.4200624,0.498047,0.009518781,0.53669375,0.68104196,-11.4433365,-0.7279685,-0.5760784,0.40023848,-2.6784916,0.58950114,0
0.19000000000000003,20.999999427924255,0.40023847222443426,-2.678491670842997,0.5895011282997639,18.860968,-2.0895581,-1.7787989,-0.051674977,13.400698,-11.861752,1.4142586,0.5031602,0.021216914,0.53130716,0.68124306,-11.327084,-0.5779323,-0.5843366,0.40023848,-2.6784916,0.58950114,0
0.20000000000000004,20.999998899027243,-0.2311397432853628,-0.7916209256237723,0.415885431794619,18.096836,-2.8665118,1.2921656,-0.20488471,13.288023,-11.866798,1.4083835,0.50817674,0.032910973,0.5258185,0.6813133,-11.207493,-0.43192485,-0.59036475,0.40023848,-2.6784916,0.58950114,0
0.21000000000000005,20.999998899027243,-0.2311397432853628,-0.7916209256237723,0.415885431794619,18.096836,-2.8665118,1.2921656,-0.20488471,13.176558,-11.870401,1.4024577,0.5088739,0.036113422,0.5229457,0.68284017,-11.085668,-0.2889273,-0.5946029,-0.23113975,-0.7916209,0.41588542,0
0.22000000000000006,20.999998899027243,-0.2311397432853628,-0.7916209256237723,0.415885431794619,18.096836,-2.8665118,1.2921656,-0.20488471,13.066313,-11.8725815,1.3964953,0.5095601,0.0393151,0.5200617,0.68435246,-10.963364,-0.14711486,-0.5976724,-0.23113975,-0.7916209,0.41588542,0
0.23000000000000007,20.999998899027243,-0.2311397432853628,-0.7916209256237723,0.415885431794619,18.096836,-2.8665118,1.2921656,-0.20488471,12.957293,-11.873348,1.3905082,0.51023555,0.042515945,0.5171666,0.6858502,-10.840586,-0.0064991564,-0.599584,-0.23113975,-0.7916209,0.41588542,0
0.24000000000000007,20.999998899027243,-0.2311397432853628,-0.7916209256237723,0.415885431794619,17.300644,-2.8222244,2.0659344,-0.18127045,12.849503,-11.872715,1.3845077,0.5109,0.045715876,0.51426053,0.6873333,-10.717335,0.13290837,-0.6003485,-0.23113975,-0.7916209,0.41588542,0
0.25000000000000006,20.999998899027243,-0.2311397432853628,-0.7916209256237723,0.415885431794619,17.300644,-2.8222244,2.0659344,-0.18127045,12.742949,-11.870693,1.3785051,0.51155365,0.048914835,0.5113435,0.6888017,-10.593613,0.27109638,-0.5999767,-0.23113975,-0.7916209,0.41588542,0
0.26000000000000006,20.999998899027243,-0.2311397432853628,-0.7916209256237723,0.415885431794619,17.300644,-2.8222244,2.0659344,-0.18127045,12.637632,-11.867296,1.372512,0.51219636,0.05211275,0.50841546,0.69025546,-10.469423,0.4080536,-0.59847975,-0.23113975,-0.7916209,0.41588542,0
0.2700000000000001,20.999998899027243,-0.2311397432853628,-0.7916209256237723,0.415885431794619,17.300644,-2.8222244,2.0659344,-0.18127045,12.533561,-11.862537,1.3665395,0.5128282,0.055309556,0.50547665,0.69169444,-10.34477,0.5437688,-0.5958686,-0.23113975,-0.7916209,0.41588542,0
0.2800000000000001,20.999996938230574,-0.8646887868276715,0.8564487592029428,0.24591858588385096,17.173986,-2.4762123,2.3676507,0.0031330138,12.430739,-11.856426,1.3605984,0.513449,0.05850518,0.50252706,0.69311875,-10.219656,0.6782311,-0.5921544,-0.23113975,-0.7916209,0.41588542,0
0.2900000000000001,20.999996938230574,-0.8646887868276715,0.8564487592029428,0.24591858588385096,17.173986,-2.4762123,2.3676507,0.0031330138,12.329168,-11.848974,1.3546996,0.5106879,0.053934015,0.5016475,0.6961599,-10.0950165,0.81244427,-0.5875352,-0.8646888,0.85644877,0.24591859,0
0.3000000000000001,20.999996938230574,-0.8646887868276715,0.8564487592029428,0.24591858588385096,17.173986,-2.4762123,2.3676507,0.0031330138,12.228833,-11.840172,1.3488498,0.5079071,0.04936077,0.5007486,0.6991742,-9.972417,0.94808173,-0.58233297,-0.8646888,0.85644877,0.24591859,0
0.3100000000000001,20.999996938230574,-0.8646887868276715,0.8564487592029428,0.24591858588385096,17.173986,-2.4762123,2.3676507,0.0031330138,12.129714,-11.830007,1.3430549,0.50510675,0.044785623,0.4998304,0.70216155,-9.851877,1.0851201,-0.5765576,-0.8646888,0.85644877,0.24591859,0
0.3200000000000001,20.711094450728176,-1.2875490919588353,1.9600301375280893,0.13758004810215974,16.985743,-2.4436703,2.8824573,0.10817087,12.03179,-11.818464,1.3373206,0.50228685,0.04020875,0.49889293,0.7051219,-9.733415,1.2235357,-0.5702192,-0.8646888,0.85644877,0.24591859,0
0.3300000000000001,20.711094450728176,-1.2875490919588353,1.9600301375280893,0.13758004810215974,16.985743,-2.4436703,2.8824573,0.10817087,11.93503,-11.805539,1.3316448,0.4971369,0.030405495,0.49921393,0.7090245,-9.619296,1.3620181,-0.56491363,-1.2875491,1.9600301,0.13758005,0
0.34000000000000014,20.711094450728176,-1.2875490919588353,1.9600301375280893,0.13758004810215974,16.985743,-2.4436703,2.8824573,0.10817087,11.839391,-11.791214,1.3260227,0.49191836,0.020598045,0.49946606,0.7128293,-9.509014,1.5034761,-0.5594732,-1.2875491,1.9600301,0.13758005,0
0.35000000000000014,20.711094450728176,-1.2875490919588353,1.9600301375280893,0.13758004810215974,16.985743,-2.4436703,2.8824573,0.10817087,11.744835,-11.77546,1.3204554,0.48663193,0.010787752,0.4996493,0.71653575,-9.402631,1.6478289,-0.55394906,-1.2875491,1.9600301,0.13758005,0
0.36000000000000015,19.829517755931246,-1.4481941543856665,2.0061270163389384,0.029300754850842155,16.50016,-2.2295783,2.6086419,-0.05091691,11.651324,-11.758247,1.3149438,0.48127836,0.0009759718,0.4997636,0.72014326,-9.300207,1.7949946,-0.5483924,-1.2875491,1.9600301,0.13758005,0
0.37000000000000016,19.829517755931246,-1.4481941543856665,2.0061270163389384,0.029300754850842155,16.50016,-2.2295783,2.6086419,-0.05091691,11.558795,-11.739582,1.3094656,0.47613025,-0.009659031,0.4993382,0.7237871,-9.206091,1.9385275,-0.5471974,-1.4481941,2.006127,0.029300755,0
0.38000000000000017,19.829517755931246,-1.4481941543856665,2.0061270163389384,0.029300754850842155,16.50016,-2.2295783,2.6086419,-0.05091691,11.467187,-11.719468,1.3040001,0.4709093,-0.020292556,0.4988364,0.7273202,-9.116147,2.0846372,-0.5458927,-1.4481941,2.006127,0.029300755,0
0.3900000000000002,19.829517755931246,-1.4481941543856665,2.0061270163389384,0.029300754850842155,16.50016,-2.2295783,2.6086419,-0.05091691,11.376457,-11.697881,1.298548,0.46561623,-0.030922974,0.49825823,0.73074186,-9.030434,2.233234,-0.5445381,-1.4481941,2.006127,0.029300755,0
0.4000000000000002,18.97151362826341,-1.2561708408694174,0.9533630830446764,-0.0635059488302725,16.188667,-2.035859,1.9382375,-0.32273245,11.286564,-11.674796,1.2931094,0.4602519,-0.04154866,0.49760377,0.73405176,-8.949001,2.3842258,-0.5431931,-1.4481941,2.006127,0.029300755,0
0.4100000000000002,18.97151362826341,-1.2561708408694174,0.9533630830446764,-0.0635059488302725,16.188667,-2.035859,1.9382375,-0.32273245,11.197447,-11.650224,1.2876633,0.4578377,-0.048095167,0.49515858,0.73681,-8.874707,2.530429,-0.54591966,-1.2561709,0.95336306,-0.06350595,0
0.4200000000000002,18.97151362826341,-1.2561708408694174,0.9533630830446764,-0.0635059488302725,16.188667,-2.035859,1.9382375,-0.32273245,11.109059,-11.624185,1.2821934,0.455395,-0.054638676,0.49268255,0.73952246,-8.803174,2.677555,-0.5479573,-1.2561709,0.95336306,-0.06350595,0
0.4300000000000002,18.97151362826341,-1.2561708408694174,0.9533630830446764,-0.0635059488302725,16.188667,-2.035859,1.9382375,-0.32273245,11.021373,-11.596671,1.2767065,0.45292398,-0.061178785,0.4901758,0.7421888,-8.73442,2.8255687,-0.5493316,-1.2561709,0.95336306,-0.06350595,0
0.4400000000000002,18.97151362826341,-1.2561708408694174,0.9533630830446764,-0.0635059488302725,15.921617,-2.00349,1.5938431,-0.4484491,10.9343605,-11.567672,1.271209,0.4504247,-0.06771508,0.48763856,0.7448089,-8.668461,2.9744341,-0.550068,-1.2561709,0.95336306,-0.06350595,0
0.45000000000000023,18.97151362826341,-1.2561708408694174,0.9533630830446764,-0.0635059488302725,15.921617,-2.00349,1.5938431,-0.4484491,10.847993,-11.53718,1.2657071,0.44789743,-0.07424716,0.48507097,0.7473827,-8.605315,3.1241155,-0.55019253,-1.2561709,0.95336306,-0.06350595,0
0.46000000000000024,18.97151362826341,-1.2561708408694174,0.9533630830446764,-0.0635059488302725,15.921617,-2.00349,1.5938431,-0.4484491,10.762243,-11.505187,1.260207,0.44534224,-0.08077461,0.48247316,0.74990994,-8.544997,3.2745764,-0.54973096,-1.2561709,0.95336306,-0.06350595,0
0.47000000000000025,18.97151362826341,-1.2561708408694174,0.9533630830446764,-0.0635059488302725,15.921617,-2.00349,1.5938431,-0.4484491,10.677083,-11.471684,1.2547144,0.44275934,-0.087297045,0.4798453,0.7523905,-8.487523,3.4257805,-0.54870945,-1.2561709,0.95336306,-0.06350595,0
0.48000000000000026,18.45589516403729,-1.1744447363503272,0.5186547853938946,-0.09013004311865501,15.813934,-1.9998534,1.4707973,-0.63287914,10.5924835,-11.436667,1.2492347,0.44014883,-0.093814045,0.47718757,0.75482416,-8.432906,3.5776916,-0.54715425,-1.2561709,0.95336306,-0.06350595,0
0.49000000000000027,18.45589516403729,-1.1744447363503272,0.5186547853938946,-0.09013004311865501,15.813934,-1.9998534,1.4707973,-0.63287914,10.508409,-11.400149,1.2437599,0.4386915,-0.09856924,0.47384435,0.75716907,-8.382345,3.7259629,-0.5476802,-1.1744448,0.51865476,-0.090130046,0
0.5000000000000002,18.45589516403729,-1.1744447363503272,0.5186547853938946,-0.09013004311865501,15.813934,-1.9998534,1.4707973,-0.63287914,10.424828,-11.362147,1.2382839,0.43721604,-0.10332034,0.47048151,0.75948256,-8.333996,3.874424,-0.5473768,-1.1744448,0.51865476,-0.090130046,0
0.5100000000000002,18.45589516403729,-1.1744447363503272,0.5186547853938946,-0.09013004311865501,15.813934,-1.9998534,1.4707973,-0.63287914,10.34172,-11.32266,1.232815,0.43572247,-0.10806717,0.4670992,0.7617646,-8.287866,4.023051,-0.5462621,-1.1744448,0.51865476,-0.090130046,0
0.5200000000000002,17.767388631639744,-0.9355703476792206,-0.5206927187493305,-0.10261743307540698,15.805554,-2.0225294,1.09311,-0.75755024,10.259063,-11.281687,1.2273612,0.43421084,-0.11280952,0.46369755,0.76401514,-8.243963,4.1718206,-0.54435396,-1.1744448,0.51865476,-0.090130046,0
0.5300000000000002,17.767388631639744,-0.9355703476792206,-0.5206927187493305,-0.10261743307540698,15.805554,-2.0225294,1.09311,-0.75755024,10.1768265,-11.239253,1.2219125,0.43527606,-0.11308789,0.45892859,0.7662441,-8.203316,4.3148007,-0.5451286,-0.93557036,-0.5206927,-0.102617435,0
0.5400000000000003,17.767388631639744,-0.9355703476792206,-0.5206927187493305,-0.10261743307540698,15.805554,-2.0225294,1.09311,-0.75755024,10.094994,-11.195394,1.2164637,0.4363287,-0.113363,0.45414633,0.7684509,-8.163399,4.456929,-0.5443664,-0.93557036,-0.5206927,-0.102617435,0
0.5500000000000003,17.767388631639744,-0.9355703476792206,-0.5206927187493305,-0.10261743307540698,15.805554,-2.0225294,1.09311,-0.75755024,10.0135565,-11.150117,1.2110301,0.43736875,-0.113634825,0.44935095,0.7706355,-8.124216,4.5981913,-0.54207927,-0.93557036,-0.5206927,-0.102617435,0
0.5600000000000003,17.30015060335904,-0.8308970005896102,-0.8621192627067423,-0.07958432072985348,15.540957,-1.9783049,0.7792529,-0.8631958,9.9325075,-11.103433,1.2056271,0.43839613,-0.11390336,0.4445426,0.77279776,-8.085777,4.7385707,-0.5382789,-0.93557036,-0.5206927,-0.102617435,0
0.5700000000000003,17.30015060335904,-0.8308970005896102,-0.8621192627067423,-0.07958432072985348,15.540957,-1.9783049,0.7792529,-0.8631958,9.851834,-11.055367,1.2002565,0.4401388,-0.112568304,0.43938896,0.7749472,-8.048893,4.8742714,-0.5356114,-0.830897,-0.86211926,-0.07958432,0
0.5800000000000003,17.30015060335904,-0.8308970005896102,-0.8621192627067423,-0.07958432072985348,15.540957,-1.9783049,0.7792529,-0.8631958,9.771527,-11.005952,1.1949208,0.44186556,-0.111229196,0.4342195,0.7770688,-8.012255,5.008779,-0.5312686,-0.830897,-0.86211926,-0.07958432,0
0.5900000000000003,17.30015060335904,-0.8308970005896102,-0.8621192627067423,-0.07958432072985348,15.540957,-1.9783049,0.7792529,-0.8631958,9.6915865,-10.955196,1.1896368,0.44357646,-0.10988609,0.42903444,0.77916235,-7.9758706,5.142075,-0.5252651,-0.830897,-0.86211926,-0.07958432,0
0.6000000000000003,16.720323225947713,-0.7542907828674413,-1.2220479827068844,-0.036684210688391346,15.309268,-2.0186884,0.48002535,-1.0446558,9.612009,-10.903114,1.1844212,0.44527137,-0.10853901,0.42383394,0.7812279,-7.939746,5.2741404,-0.5176157,-0.830897,-0.86211926,-0.07958432,0
0.6100000000000003,16.720323225947713,-0.7542907828674413,-1.2220479827068844,-0.036684210688391346,15.309268,-2.0186884,0.48002535,-1.0446558,9.532785,-10.849741,1.1792724,0.44758353,-0.1055198,0.41813606,0.78338766,-7.904921,5.4004464,-0.51183885,-0.75429076,-1.2220479,-0.03668421,0
0.6200000000000003,16.720323225947713,-0.7542907828674413,-1.2220479827068844,-0.036684210688391346,15.309268,-2.0186884,0.48002535,-1.0446558,9.453911,-10.795112,1.1741905,0.44987258,-0.10249515,0.41241658,0.7855071,-7.869912,5.5251884,-0.50424963,-0.75429076,-1.2220479,-0.03668421,0
0.6300000000000003,16.720323225947713,-0.7542907828674413,-1.2220479827068844,-0.036684210688391346,15.309268,-2.0186884,0.48002535,-1.0446558,9.375387,-10.739243,1.1691935,0.45213845,-0.09946521,0.40667585,0.787586,-7.834727,5.648341,-0.49486965,-0.75429076,-1.2220479,-0.03668421,0
0.6400000000000003,16.720323225947713,-0.7542907828674413,-1.2220479827068844,-0.036684210688391346,15.20552,-1.894201,0.18026364,-1.0151082,9.297216,-10.68215,1.1642991,0.45438096,-0.09643015,0.40091413,0.7896242,-7.799373,5.7698784,-0.48372087,-0.75429076,-1.2220479,-0.03668421,0
0.6500000000000004,16.720323225947713,-0.7542907828674413,-1.2220479827068844,-0.036684210688391346,15.20552,-1.894201,0.18026364,-1.0151082,9.2194,-10.62385,1.1595252,0.45660004,-0.093390115,0.3951317,0.79162174,-7.7638593,5.8897753,-0.4708257,-0.75429076,-1.2220479,-0.03668421,0
0.6600000000000004,16.720323225947713,-0.7542907828674413,-1.2220479827068844,-0.036684210688391346,15.20552,-1.894201,0.18026364,-1.0151082,9.14194,-10.56436,1.1548887,0.45879558,-0.09034525,0.38932896,0.7935784,-7.7281933,6.0080075,-0.45620683,-0.75429076,-1.2220479,-0.03668421,0
0.6700000000000004,16.720323225947713,-0.7542907828674413,-1.2220479827068844,-0.036684210688391346,15.20552,-1.894201,0.18026364,-1.0151082,9.064837,-10.5036955,1.150407,0.46096745,-0.08729573,0.3835061,0.7954942,-7.692384,6.1245503,-0.43988734,-0.75429076,-1.2220479,-0.03668421,0
0.6800000000000004,16.33170734324741,-0.7476178605483126,-0.9367228848434043,0.0033832585486433283,15.169626,-1.8125565,-0.140084,-1.033331,8.988093,-10.441874,1.1460967,0.46311548,-0.0842417,0.37766346,0.7973689,-7.656439,6.239381,-0.4218907,-0.75429076,-1.2220479,-0.03668421,0
0.6900000000000004,16.33170734324741,-0.7476178605483126,-0.9367228848434043,0.0033832585486433283,15.169626,-1.8125565,-0.140084,-1.033331,8.911706,-10.378925,1.1419609,0.4645476,-0.08223042,0.37250844,0.7991687,-7.621299,6.349966,-0.40506342,-0.74761784,-0.9367229,0.0033832586,0
0.7000000000000004,16.33170734324741,-0.7476178605483126,-0.9367228848434043,0.0033832585486433283,15.169626,-1.8125565,-0.140084,-1.033331,8.8356695,-10.314878,1.1380002,0.46596304,-0.08021618,0.36734003,0.8009398,-7.5862904,6.4591556,-0.38686985,-0.74761784,-0.9367229,0.0033832586,0
0.7100000000000004,16.33170734324741,-0.7476178605483126,-0.9367228848434043,0.0033832585486433283,15.169626,-1.8125565,-0.140084,-1.033331,8.75998,-10.249746,1.1342282,0.46736175,-0.07819905,0.36215845,0.80268216,-7.5514193,6.566934,-0.36732668,-0.74761784,-0.9367229,0.0033832586,0
0.7200000000000004,15.678458364497837,-0.7692948258475535,-0.9816360530589711,0.04984952433064573,15.21089,-1.7252009,-0.39041707,-1.1030475,8.68464,-10.183544,1.1306583,0.46874365,-0.076179124,0.35696384,0.8043957,-7.51669,6.673286,-0.34645087,-0.74761784,-0.9367229,0.0033832586,0
0.7300000000000004,15.678458364497837,-0.7692948258475535,-0.9816360530589711,0.04984952433064573,15.21089,-1.7252009,-0.39041707,-1.1030475,8.609639,-10.116306,1.1272796,0.46999305,-0.07394358,0.35158113,0.8062438,-7.483486,6.7739773,-0.32905266,-0.7692948,-0.98163605,0.049849525,0
0.7400000000000004,15.678458364497837,-0.7692948258475535,-0.9816360530589711,0.04984952433064573,15.21089,-1.7252009,-0.39041707,-1.1030475,8.534969,-10.048069,1.1240815,0.47122413,-0.071705155,0.34618476,0.8080604,-7.4504166,6.873209,-0.31036007,-0.7692948,-0.98163605,0.049849525,0
0.7500000000000004,15.678458364497837,-0.7692948258475535,-0.9816360530589711,0.04984952433064573,15.21089,-1.7252009,-0.39041707,-1.1030475,8.46063,-9.9788475,1.1210766,0.47243685,-0.06946394,0.34077492,0.80984557,-7.417485,6.970966,-0.29039147,-0.7692948,-0.98163605,0.049849525,0
0.7600000000000005,15.101012182461675,-0.7628840155571297,-1.0703001923006839,0.09285196414750763,15.210453,-1.5589845,-0.5856662,-1.06144,8.38662,-9.908655,1.1182777,0.47363117,-0.06722001,0.3353518,0.81159925,-7.3846965,7.0672326,-0.26916528,-0.7692948,-0.98163605,0.049849525,0
0.7700000000000005,15.101012182461675,-0.7628840155571297,-1.0703001923006839,0.09285196414750763,15.210453,-1.5589845,-0.5856662,-1.06144,8.31293,-9.837526,1.1156752,0.47478232,-0.06452624,0.32974535,0.81344044,-7.3532257,7.158468,-0.2511212,-0.762884,-1.0703002,0.09285197,0
0.7800000000000005,15.101012182461675,-0.7628840155571297,-1.0703001923006839,0.09285196414750763,15.210453,-1.5589845,-0.5856662,-1.06144,8.239554,-9.765492,1.1132593,0.47591287,-0.06182966,0.32412457,0.81524634,-7.3218193,7.248143,-0.2318514,-0.762884,-1.0703002,0.09285197,0
0.7900000000000005,15.101012182461675,-0.7628840155571297,-1.0703001923006839,0.09285196414750763,15.210453,-1.5589845,-0.5856662,-1.06144,8.166493,-9.692569,1.1110421,0.47702274,-0.059130397,0.31848976,0.8170168,-7.2904806,7.336243,-0.21137643,-0.762884,-1.0703002,0.09285197,0
0.8000000000000005,14.479669735449763,-0.8250347904302058,-0.9777104282899431,0.13285525654621716,14.972087,-1.404216,-0.6580547,-0.94976544,8.093745,-9.6187725,1.1090357,0.47811192,-0.05642857,0.31284112,0.8187518,-7.259214,7.4227524,-0.18971705,-0.762884,-1.0703002,0.09285197,0
0.8100000000000005,14.479669735449763,-0.8250347904302058,-0.9777104282899431,0.13285525654621716,14.972087,-1.404216,-0.6580547,-0.94976544,8.021302,-9.544137,1.107227,0.47885472,-0.05418939,0.3071574,0.82061887,-7.22936,7.504188,-0.17187378,-0.8250348,-0.9777104,0.13285525,0
0.8200000000000005,14.479669735449763,-0.8250347904302058,-0.9777104282899431,0.13285525654621716,14.972087,-1.404216,-0.6580547,-0.94976544,7.9491568,-9.468695,1.105602,0.47957772,-0.05194797,0.30146098,0.82245195,-7.1997266,7.584138,-0.1529455,-0.8250348,-0.9777104,0.13285525,0
0.8300000000000005,14.479669735449763,-0.8250347904302058,-0.9777104282899431,0.13285525654621716,14.972087,-1.404216,-0.6580547,-0.94976544,7.877307,-9.392461,1.1041716,0.48028088,-0.049704403,0.29575208,0.824251,-7.1703153,7.6625896,-0.13295162,-0.8250348,-0.9777104,0.13285525,0
0.8400000000000005,14.479669735449763,-0.8250347904302058,-0.9777104282899431,0.13285525654621716,14.599016,-1.2429025,-0.6853092,-0.86383486,7.80575,-9.315449,1.1029465,0.48096415,-0.047458775,0.29003096,0.826016,-7.1411295,7.739529,-0.11191172,-0.8250348,-0.9777104,0.13285525,1
0.8500000000000005,14.479669735449763,-0.8250347904302058,-0.9777104282899431,0.13285525654621716,14.599016,-1.2429025,-0.6853092,-0.86383486,7.7344837,-9.237672,1.101942,0.48521408,-0.04886839,0.2830347,0.82587516,-7.112208,7.815604,-0.08881381,-1.2429025,-0.6853092,-0.86383486,1
0.8600000000000005,14.479669735449763,-0.8250347904302058,-0.9777104282899431,0.13285525654621716,14.599016,-1.2429025,-0.6853092,-0.86383486,7.663502,-9.159141,1.101174,0.48943052,-0.050274633,0.27601892,0.82567734,-7.0842633,7.8902364,-0.06459482,-1.2429025,-0.6853092,-0.86383486,1
0.8700000000000006,14.479669735449763,-0.8250347904302058,-0.9777104282899431,0.13285525654621716,14.599016,-1.2429025,-0.6853092,-0.86383486,7.5927954,-9.079871,1.1006539,0.49361315,-0.051677406,0.2689841,0.8254225,-7.057317,7.9634194,-0.039281357,-1.2429025,-0.6853092,-0.86383486,1
0.8800000000000006,13.832040053360977,-0.7684832487307582,-1.359191567489542,0.22489450205370648,14.298256,-0.9991841,-0.8748555,-0.86595523,7.522353,-8.999877,1.1003921,0.49776176,-0.053076614,0.26193073,0.82511073,-7.0313897,8.035149,-0.0129003385,-1.2429025,-0.6853092,-0.86383486,0
0.8900000000000006,13.832040053360977,-0.7684832487307582,-1.359191567489542,0.22489450205370648,14.298256,-0.9991841,-0.8748555,-0.86595523,7.452159,-8.919192,1.1003665,0.49839458,-0.049085658,0.25542915,0.8270119,-7.007424,8.101539,0.007954604,-0.7684832,-1.3591915,0.22489451,0
0.9000000000000006,13.832040053360977,-0.7684832487307582,-1.359191567489542,0.22489450205370648,14.298256,-0.9991841,-0.8748555,-0.86595523,7.382205,-8.8378525,1.1005546,0.4989964,-0.045091655,0.24891168,0.82886153,-6.9834237,8.166031,0.02984166,-0.7684832,-1.3591915,0.22489451,0
0.9100000000000006,13.832040053360977,-0.7684832487307582,-1.359191567489542,0.22489450205370648,14.298256,-0.9991841,-0.8748555,-0.86595523,7.3124905,-8.755877,1.1009668,0.49956718,-0.041094847,0.24237871,0.8306597,-6.95939,8.228611,0.0527308,-0.7684832,-1.3591915,0.22489451,0
0.9200000000000006,13.166076665371966,-0.6379753109449449,-1.3232766975451968,0.35619088571297036,13.485897,-0.7219918,-1.2561592,-0.44419178,7.243017,-8.6732855,1.1016126,0.5001069,-0.03709548,0.23583068,0.83240616,-6.935325,8.289263,0.07659174,-0.7684832,-1.3591915,0.22489451,1
0.9300000000000006,13.166076665371966,-0.6379753109449449,-1.3232766975451968,0.35619088571297036,13.485897,-0.7219918,-1.2561592,-0.44419178,7.1737814,-8.590105,1.1024864,0.5032885,-0.034195404,0.22959556,0.83235586,-6.9118395,8.346554,0.09829518,-0.7219918,-1.2561592,-0.44419178,1
0.9400000000000006,13.166076665371966,-0.6379753109449449,-1.3232766975451968,0.35619088571297036,13.485897,-0.7219918,-1.2561592,-0.44419178,7.10478,-8.506361,1.1035814,0.50644124,-0.031293366,0.22334725,0.8322578,-6.888351,8.402076,0.12082817,-0.7219918,-1.2561592,-0.44419178,1
0.9500000000000006,13.166076665371966,-0.6379753109449449,-1.3232766975451968,0.35619088571297036,13.485897,-0.7219918,-1.2561592,-0.44419178,7.036014,-8.4220705,1.1049057,0.5095649,-0.02838953,0.21708612,0.8321119,-6.864874,8.455817,0.14416674,-0.7219918,-1.2561592,-0.44419178,1
0.9600000000000006,12.492960738274721,-0.6389333642714612,-1.417442368659908,0.4823846135398182,13.312226,-0.56862676,-1.267064,-0.5398512,6.9674826,-8.337251,1.1064674,0.5126593,-0.025484066,0.21081254,0.8319183,-6.841421,8.507768,0.16828676,-0.7219918,-1.2561592,-0.44419178,0
0.9700000000000006,12.492960738274721,-0.6389333642714612,-1.417442368659908,0.4823846135398182,13.312226,-0.56862676,-1.267064,-0.5398512,6.8991766,-8.25194,1.1082288,0.5120485,-0.020716608,0.20457606,0.83398134,-6.8196588,8.554176,0.18411554,-0.63893336,-1.4174423,0.48238462,0
0.9800000000000006,12.492960738274721,-0.6389333642714612,-1.417442368659908,0.4823846135398182,13.312226,-0.56862676,-1.267064,-0.5398512,6.8310895,-8.166173,1.1101521,0.5114037,-0.015947772,0.19832604,0.83598906,-6.7977448,8.598776,0.2006356,-0.63893336,-1.4174423,0.48238462,0
0.9900000000000007,12.492960738274721,-0.6389333642714612,-1.417442368659908,0.4823846135398182,13.312226,-0.56862676,-1.267064,-0.5398512,6.763222,-8.079969,1.1122438,0.510725,-0.011177883,0.19206285,0.83794147,-6.7756753,8.641556,0.21781743,-0.63893336,-1.4174423,0.48238462,0
1.0000000000000007,12.08998390160066,-0.7629459407075504,-0.92561475734247,0.5165616862403005,12.857464,-0.4719267,-1.4984602,-0.19992757,6.6955767,-7.9933476,1.1145105,0.5100125,-0.0064072525,0.18578696,0.8398383,-6.753446,8.682506,0.23563135,-0.63893336,-1.4174423,0.48238462,1
1.0100000000000007,12.08998390160066,-0.7629459407075504,-0.92561475734247,0.5165616862403005,12.857464,-0.4719267,-1.4984602,-0.19992757,6.628158,-7.90632,1.1169754,0.5122129,-0.0015039436,0.17997192,0.83978856,-6.7303143,8.722757,0.25743052,-0.4719267,-1.4984602,-0.19992757,1
1.0200000000000007,12.08998390160066,-0.7629459407075504,-0.92561475734247,0.5165616862403005,12.857464,-0.4719267,-1.4984602,-0.19992757,6.5609727,-7.818899,1.119661,0.5143811,0.0033994594,0.17414558,0.83968616,-6.706788,8.761105,0.27977583,-0.4719267,-1.4984602,-0.19992757,1
1.0300000000000007,12.08998390160066,-0.7629459407075504,-0.92561475734247,0.5165616862403005,12.857464,-0.4719267,-1.4984602,-0.19992757,6.4940243,-7.7311044,1.1225727,0.5165171,0.008302649,0.16830833,0.83953106,-6.682876,8.797538,0.30263847,-0.4719267,-1.4984602,-0.19992757,1
1.0400000000000007,12.08998390160066,-0.7629459407075504,-0.92561475734247,0.5165616862403005,12.740477,-0.40902942,-1.6420233,-0.27329648,6.4273167,-7.642955,1.1257155,0.51862067,0.013205318,0.16246054,0.83932334,-6.6585894,8.832047,0.32598957,-0.4719267,-1.4984602,-0.19992757,1
1.0500000000000007,12.08998390160066,-0.7629459407075504,-0.92561475734247,0.5165616862403005,12.740477,-0.40902942,-1.6420233,-0.27329648,6.360853,-7.5544715,1.1290886,0.5211093,0.018813051,0.15649821,0.83880764,-6.6341043,8.864281,0.3486918,-0.40902942,-1.6420233,-0.27329648,1
1.0600000000000007,12.08998390160066,-0.7629459407075504,-0.92561475734247,0.5165616862403005,12.740477,-0.40902942,-1.6420233,-0.27329648,6.2946367,-7.4656763,1.132691,0.5235597,0.024419403,0.15052438,0.8382304,-6.6091156,8.894461,0.37182036,-0.40902942,-1.6420233,-0.27329648,1
1.0700000000000007,12.08998390160066,-0.7629459407075504,-0.92561475734247,0.5165616862403005,12.740477,-0.40902942,-1.6420233,-0.27329648,6.2286725,-7.3765893,1.1365266,0.52597165,0.03002396,0.14453949,0.8375915,-6.5836368,8.922579,0.395342,-0.40902942,-1.6420233,-0.27329648,1
1.0800000000000007,11.503826773416133,-0.9858709548730374,-0.42212937689909813,0.6569580704775613,12.692954,-0.42372763,-1.8227643,-0.1427715,6.1629663,-7.2872314,1.1405991,0.5283449,0.035626315,0.138544,0.8368912,-6.55768,8.948626,0.41922328,-0.40902942,-1.6420233,-0.27329648,0
1.0900000000000007,11.503826773416133,-0.9858709548730374,-0.42212937689909813,0.6569580704775613,12.692954,-0.42372763,-1.8227643,-0.1427715,6.0975065,-7.1976347,1.1448529,0.5260535,0.035242684,0.13318378,0.83921784,-6.534271,8.970636,0.43158233,-0.98587096,-0.42212936,0.65695804,0
1.1000000000000008,11.503826773416133,-0.9858709548730374,-0.42212937689909813,0.6569580704775613,12.692954,-0.42372763,-1.8227643,-0.1427715,6.032278,-7.107822,1.149232,0.5237413,0.03485766,0.1278183,0.8415113,-6.5116367,8.991749,0.44427794,-0.98587096,-0.42212936,0.65695804,0
1.1100000000000008,11.503826773416133,-0.9858709548730374,-0.42212937689909813,0.6569580704775613,12.692954,-0.42372763,-1.8227643,-0.1427715,5.967272,-7.0178027,1.1537397,0.52140844,0.03447125,0.12244778,0.8437716,-6.489774,9.011954,0.45729706,-0.98587096,-0.42212936,0.65695804,0
1.1200000000000008,11.076574317242864,-1.2670612334503544,0.4743315132428269,0.7165921031524628,12.623328,-0.5360616,-1.7296988,0.058893085,5.90248,-6.9275866,1.1583791,0.5190549,0.034083486,0.1170724,0.8459985,-6.4686804,9.031245,0.47062668,-0.98587096,-0.42212936,0.65695804,0
1.1300000000000008,11.076574317242864,-1.2670612334503544,0.4743315132428269,0.7165921031524628,12.623328,-0.5360616,-1.7296988,0.058893085,5.8378906,-6.837184,1.1631324,0.5159468,0.029207211,0.112818256,0.84865594,-6.4493794,9.0492115,0.48010707,-1.2670612,0.47433153,0.7165921,0
1.1400000000000008,11.076574317242864,-1.2670612334503544,0.4743315132428269,0.7165921031524628,12.623328,-0.5360616,-1.7296988,0.058893085,5.7734876,-6.7466025,1.1679821,0.5128085,0.024329225,0.1085575,0.8512637,-6.4315424,9.067023,0.4898657,-1.2670612,0.47433153,0.7165921,0
1.1500000000000008,11.076574317242864,-1.2670612334503544,0.4743315132428269,0.7165921031524628,12.623328,-0.5360616,-1.7296988,0.058893085,5.709255,-6.655844,1.1729306,0.50964016,0.019449813,0.10429038,0.8538216,-6.415172,9.084665,0.49988428,-1.2670612,0.47433153,0.7165921,0
1.1600000000000008,10.832682189815113,-1.3109070134867036,0.022395381614293226,0.7264954756275489,12.924841,-0.595898,-1.655814,0.085750386,5.6451793,-6.5649104,1.1779804,0.5064419,0.014569261,0.10001715,0.8563294,-6.400269,9.102125,0.51014453,-1.2670612,0.47433153,0.7165921,0
1.1700000000000008,10.832682189815113,-1.3109070134867036,0.022395381614293226,0.7264954756275489,12.924841,-0.595898,-1.655814,0.085750386,5.5812435,-6.4738054,1.1831223,0.5034014,0.01151681,0.094405346,0.85880214,-6.3870564,9.11884,0.5182545,-1.310907,0.022395382,0.7264955,0
1.1800000000000008,10.832682189815113,-1.3109070134867036,0.022395381614293226,0.7264954756275489,12.924841,-0.595898,-1.655814,0.085750386,5.517434,-6.382536,1.1883465,0.5003326,0.008463712,0.08878823,0.8612267,-6.37508,9.134902,0.5266117,-1.310907,0.022395382,0.7264955,0
1.1900000000000008,10.832682189815113,-1.3109070134867036,0.022395381614293226,0.7264954756275489,12.924841,-0.595898,-1.655814,0.085750386,5.453738,-6.2911096,1.1936554,0.49723572,0.0054101394,0.08316614,0.8636028,-6.364339,9.150301,0.5351984,-1.310907,0.022395382,0.7264955,0
1.2000000000000008,10.702615334585428,-1.3702131736507404,-0.0927895287154041,0.6938905969865811,12.759127,-0.5241211,-0.8698648,0.14530072,5.390143,-6.199532,1.1990513,0.4941109,0.0023562626,0.07753937,0.8659304,-6.354828,9.165023,0.5439971,-1.310907,0.022395382,0.7264955,0
1.2100000000000009,10.702615334585428,-1.3702131736507404,-0.0927895287154041,0.6938905969865811,12.759127,-0.5241211,-0.8698648,0.14530072,5.3266363,-6.107812,1.2045296,0.49114412,-0.00035820116,0.071367174,0.86814916,-6.346641,9.178839,0.5517108,-1.3702132,-0.09278953,0.6938906,0
1.2200000000000009,10.702615334585428,-1.3702131736507404,-0.0927895287154041,0.6938905969865811,12.759127,-0.5241211,-0.8698648,0.14530072,5.263206,-6.015958,1.2100861,0.48814827,-0.0030726437,0.06519075,0.8703166,-6.3396535,9.191826,0.55961514,-1.3702132,-0.09278953,0.6938906,0
1.2300000000000009,10.702615334585428,-1.3702131736507404,-0.0927895287154041,0.6938905969865811,12.759127,-0.5241211,-0.8698648,0.14530072,5.1998396,-5.923978,1.2157224,0.48512352,-0.0057869046,0.059010472,0.8724326,-6.333862,9.203976,0.5676908,-1.3702132,-0.09278953,0.6938906,0
1.2400000000000009,10.702615334585428,-1.3702131736507404,-0.0927895287154041,0.6938905969865811,13.347118,-0.42614895,-1.0445142,0.18272415,5.136525,-5.831881,1.2214404,0.4820701,-0.008500823,0.052826703,0.8744968,-6.3292603,9.215277,0.5759184,-1.3702132,-0.09278953,0.6938906,0
1.2500000000000009,10.702615334585428,-1.3702131736507404,-0.0927895287154041,0.6938905969865811,13.347118,-0.42614895,-1.0445142,0.18272415,5.0732503,-5.739675,1.2272413,0.47898808,-0.011214239,0.046639804,0.87650925,-6.3258443,9.2257185,0.58427835,-1.3702132,-0.09278953,0.6938906,0
1.260000000000001,10.702615334585428,-1.3702131736507404,-0.0927895287154041,0.6938905969865811,13.347118,-0.42614895,-1.0445142,0.18272415,5.0100036,-5.6473694,1.2331264,0.47587773,-0.013926989,0.04045015,0.8784699,-6.323608,9.235291,0.59275126,-1.3702132,-0.09278953,0.6938906,0
1.270000000000001,10.702615334585428,-1.3702131736507404,-0.0927895287154041,0.6938905969865811,13.347118,-0.42614895,-1.0445142,0.18272415,4.9467735,-5.554972,1.2390966,0.47273925,-0.016638916,0.034258094,0.8803785,-6.3225455,9.243984,0.6013177,-1.3702132,-0.09278953,0.6938906,0
1.280000000000001,10.48390113083036,-1.339737615458699,-1.2295393996843798,0.7601494764192063,12.929577,-0.3394719,-1.0625604,0.19286296,4.8835483,-5.462493,1.245153,0.46957275,-0.019349856,0.02806401,0.882235,-6.3226514,9.251789,0.6099581,-1.3702132,-0.09278953,0.6938906,0
1.290000000000001,10.48390113083036,-1.339737615458699,-1.2295393996843798,0.7601494764192063,12.929577,-0.3394719,-1.0625604,0.19286296,4.8203173,-5.369941,1.2512852,0.46623975,-0.0169641,0.019339724,0.8842837,-6.323633,9.258191,0.6164955,-1.3397377,-1.2295394,0.7601495,0
1.300000000000001,10.48390113083036,-1.339737615458699,-1.2295393996843798,0.7601494764192063,12.929577,-0.3394719,-1.0625604,0.19286296,4.7570744,-5.2773347,1.2574832,0.46286148,-0.014576697,0.01061356,0.8862466,-6.325048,9.262739,0.62312484,-1.3397377,-1.2295394,0.7601495,0
1.310000000000001,10.48390113083036,-1.339737615458699,-1.2295393996843798,0.7601494764192063,12.929577,-0.3394719,-1.0625604,0.19286296,4.6938148,-5.1846924,1.2637478,0.45943826,-0.012187878,0.0018863657,0.8881235,-6.326881,9.265429,0.629812,-1.3397377,-1.2295394,0.7601495,0
1.320000000000001,10.234436305161562,-1.3642812063945358,-1.562640443108002,0.7805343686921354,12.014252,-0.44353294,-1.439179,0.30603126,4.6305356,-5.0920324,1.2700795,0.45597044,-0.009797875,-0.0068410113,0.88991416,-6.329118,9.266255,0.63652253,-1.3397377,-1.2295394,0.7601495,0
1.330000000000001,10.234436305161562,-1.3642812063945358,-1.562640443108002,0.7805343686921354,12.014252,-0.44353294,-1.439179,0.30603126,4.567232,-4.999374,1.2764658,0.45234916,-0.00598133,-0.016435213,0.89166886,-6.331613,9.265131,0.6407286,-1.3642812,-1.5626404,0.7805344,0
1.340000000000001,10.234436305161562,-1.3642812063945358,-1.562640443108002,0.7805343686921354,12.014252,-0.44353294,-1.439179,0.30603126,4.5039024,-4.906737,1.2828939,0.44867238,-0.00216405,-0.026027396,0.89331406,-6.334293,9.261892,0.6448849,-1.3642812,-1.5626404,0.7805344,0
1.350000000000001,10.234436305161562,-1.3642812063945358,-1.562640443108002,0.7805343686921354,12.014252,-0.44353294,-1.439179,0.30603126,4.4405456,-4.8141427,1.2893631,0.44494048,0.0016534952,-0.035616383,0.8948496,-6.337138,9.256539,0.6489478,-1.3642812,-1.5626404,0.7805344,0
1.360000000000001,10.06211653652503,-1.311329553396913,-1.7094337073918584,0.8439178021792316,11.6131115,-0.6251989,-2.1972,0.34732875,4.3771586,-4.721613,1.2958724,0.4411539,0.005470838,-0.045200996,0.89627516,-6.340132,9.249072,0.6528738,-1.3642812,-1.5626404,0.7805344,0
1.370000000000001,10.06211653652503,-1.311329553396913,-1.7094337073918584,0.8439178021792316,11.6131115,-0.6251989,-2.1972,0.34732875,4.3137426,-4.629168,1.3024114,0.43699208,0.0100477645,-0.05486802,0.89773357,-6.343154,9.239624,0.65490305,-1.3113296,-1.7094337,0.8439178,0
1.380000000000001,10.06211653652503,-1.311329553396913,-1.7094337073918584,0.8439178021792316,11.6131115,-0.6251989,-2.1972,0.34732875,4.2502966,-4.536828,1.3089697,0.43277177,0.014623346,-0.0645277,0.8990718,-6.346152,9.228022,0.6567061,-1.3113296,-1.7094337,0.8439178,0
1.390000000000001,10.06211653652503,-1.311329553396913,-1.7094337073918584,0.8439178021792316,11.6131115,-0.6251989,-2.1972,0.34732875,4.18682,-4.4446144,1.3155447,0.42849353,0.01919697,-0.07417875,0.90028965,-6.3491063,9.214268,0.6582371,-1.3113296,-1.7094337,0.8439178,0
1.400000000000001,10.013251968215714,-1.2422336530634797,-0.865282379872813,0.8644198048690017,11.078431,-0.6639898,-2.1252325,0.41719434,4.1233144,-4.35255,1.3221335,0.42415795,0.023768026,-0.083819866,0.901387,-6.3519983,9.19837,0.65945053,-1.3113296,-1.7094337,0.8439178,0
1.410000000000001,10.013251968215714,-1.2422336530634797,-0.865282379872813,0.8644198048690017,11.078431,-0.6639898,-2.1252325,0.41719434,4.05978,-4.2606535,1.3287305,0.420031,0.024670089,-0.091353066,0.90256256,-6.354977,9.180681,0.6598623,-1.2422336,-0.86528236,0.8644198,0
1.420000000000001,10.013251968215714,-1.2422336530634797,-0.865282379872813,0.8644198048690017,11.078431,-0.6639898,-2.1252325,0.41719434,3.996214,-4.1689415,1.33533,0.41587213,0.025570279,-0.09887933,0.90366954,-6.358347,9.161554,0.65999246,-1.2422336,-0.86528236,0.8644198,0
1.430000000000001,10.013251968215714,-1.2422336530634797,-0.865282379872813,0.8644198048690017,11.078431,-0.6639898,-2.1252325,0.41719434,3.9326122,-4.077428,1.3419292,0.41168168,0.026468527,-0.10639807,0.90470785,-6.3620934,9.140993,0.6598183,-1.2422336,-0.86528236,0.8644198,0
1.440000000000001,10.013251968215714,-1.2422336530634797,-0.865282379872813,0.8644198048690017,10.467931,-0.6966643,-1.465578,0.70642173,3.8689709,-3.9861267,1.3485252,0.40745994,0.02736476,-0.11390873,0.9056775,-6.3662043,9.118998,0.6593173,-1.2422336,-0.86528236,0.8644198,1
1.450000000000001,10.013251968215714,-1.2422336530634797,-0.865282379872813,0.8644198048690017,10.467931,-0.6966643,-1.465578,0.70642173,3.8052866,-3.8950582,1.3551366,0.4035057,0.03217868,-0.12014144,0.90648395,-6.3705516,9.094469,0.6628883,-0.6966643,-1.465578,0.70642173,1
1.460000000000001,10.013251968215714,-1.2422336530634797,-0.865282379872813,0.8644198048690017,10.467931,-0.6966643,-1.465578,0.70642173,3.7415614,-3.8042426,1.361782,0.39951986,0.036990084,-0.12636474,0.90721935,-6.374408,9.068357,0.66608435,-0.6966643,-1.465578,0.70642173,1
1.470000000000001,10.013251968215714,-1.2422336530634797,-0.865282379872813,0.8644198048690017,10.467931,-0.6966643,-1.465578,0.70642173,3.6778002,-3.7136962,1.3684572,0.39550272,0.041798588,-0.13257813,0.9078837,-6.3777614,9.040674,0.66888005,-0.6966643,-1.465578,0.70642173,1
1.480000000000001,10.024184829202838,-1.199692848625191,0.030723384143997015,0.8453419047365002,10.099134,-0.6740218,-1.3683256,0.8026166,3.614008,-3.6234345,1.3751582,0.3914546,0.046603817,-0.13878115,0.908477,-6.380599,9.011431,0.6712501,-0.6966643,-1.465578,0.70642173,0
1.490000000000001,10.024184829202838,-1.199692848625191,0.030723384143997015,0.8453419047365002,10.099134,-0.6740218,-1.3683256,0.8026166,3.550189,-3.5334656,1.3818595,0.38790512,0.04352832,-0.14436366,0.90928173,-6.383336,8.982209,0.6689985,-1.1996928,0.030723384,0.8453419,0
1.500000000000001,10.024184829202838,-1.199692848625191,0.030723384143997015,0.8453419047365002,10.099134,-0.6740218,-1.3683256,0.8026166,3.4863384,-3.4437928,1.3885373,0.3843347,0.040450476,-0.1499384,0.9100375,-6.386959,8.952218,0.6664795,-1.1996928,0.030723384,0.8453419,0
1.5100000000000011,10.024184829202838,-1.199692848625191,0.030723384143997015,0.8453419047365002,10.099134,-0.6740218,-1.3683256,0.8026166,3.4224467,-3.3544238,1.3951883,0.3807436,0.03737045,-0.15550508,0.9107443,-6.3914604,8.921455,0.6636775,-1.1996928,0.030723384,0.8453419,0
1.5200000000000011,10.107928032214335,-1.2106922412353756,1.6158625923817311,0.8197327326941851,9.775567,-1.0953646,-0.17317888,0.86268103,3.358506,-3.2653666,1.4018098,0.37713197,0.034288414,-0.16106337,0.911402,-6.3968325,8.889917,0.6605769,-1.1996928,0.030723384,0.8453419,0
1.5300000000000011,10.107928032214335,-1.2106922412353756,1.6158625923817311,0.8197327326941851,9.775567,-1.0953646,-0.17317888,0.86268103,3.2945058,-3.1766286,1.408403,0.37488294,0.023979982,-0.16366448,0.9121957,-6.403552,8.857738,0.6580592,-1.2106923,1.6158626,0.8197327,0
1.5400000000000011,10.107928032214335,-1.2106922412353756,1.6158625923817311,0.8197327326941851,9.775567,-1.0953646,-0.17317888,0.86268103,3.2304282,-3.088211,1.4149708,0.3725894,0.013668703,-0.16624613,0.912881,-6.4122906,8.825849,0.6554755,-1.2106923,1.6158626,0.8197327,0
1.5500000000000012,10.107928032214335,-1.2106922412353756,1.6158625923817311,0.8197327326941851,9.775567,-1.0953646,-0.17317888,0.86268103,3.166253,-3.0001109,1.421512,0.37025166,0.003355801,-0.16880806,0.91345805,-6.423046,8.794246,0.6527815,-1.2106923,1.6158626,0.8197327,0
1.5600000000000012,10.38424481197247,-1.0169870969198342,2.0684535999264853,0.7227753337119995,9.847855,-1.1819274,0.693511,0.75339365,3.1019604,-2.9123251,1.4280258,0.36786997,-0.0069574993,-0.17134996,0.9139266,-6.435817,8.762928,0.6499328,-1.2106923,1.6158626,0.8197327,0
1.5700000000000012,10.38424481197247,-1.0169870969198342,2.0684535999264853,0.7227753337119995,9.847855,-1.1819274,0.693511,0.75339365,3.0375278,-2.824855,1.4345232,0.36627713,-0.018898608,-0.17215495,0.9142461,-6.4510813,8.731214,0.64952636,-1.0169871,2.0684536,0.72277534,0
1.5800000000000012,10.38424481197247,-1.0169870969198342,2.0684535999264853,0.7227753337119995,9.847855,-1.1819274,0.693511,0.75339365,2.9729311,-2.7376983,1.441016,0.36463085,-0.030836962,-0.17293482,0.9144323,-6.468616,8.700242,0.6489767,-1.0169871,2.0684536,0.72277534,0
1.5900000000000012,10.38424481197247,-1.0169870969198342,2.0684535999264853,0.7227753337119995,9.847855,-1.1819274,0.693511,0.75339365,2.9081476,-2.6508474,1.4475021,0.36293137,-0.042770818,-0.17368947,0.914485,-6.4884176,8.670013,0.64822626,-1.0169871,2.0684536,0.72277534,0
1.6000000000000012,10.726849476082597,-0.7966499703179144,1.8281951098435727,0.5972306711905504,9.820932,-1.116245,1.2188642,0.93163025,2.843155,-2.564295,1.4539796,0.36117896,-0.054698434,-0.17441878,0.9144044,-6.5104795,8.640529,0.6472175,-1.0169871,2.0684536,0.72277534,1
1.6100000000000012,10.726849476082597,-0.7966499703179144,1.8281951098435727,0.5972306711905504,9.820932,-1.116245,1.2188642,0.93163025,2.7779374,-2.4780266,1.4604192,0.357661,-0.063096814,-0.17705846,0.91473883,-6.5332694,8.613108,0.6406249,-1.116245,1.2188642,0.93163025,1
1.6200000000000012,10.726849476082597,-0.7966499703179144,1.8281951098435727,0.5972306711905504,9.820932,-1.116245,1.2188642,0.93163025,2.7124844,-2.3920324,1.4667908,0.3541109,-0.07148951,-0.17968221,0.91499096,-6.557634,8.585752,0.63364476,-1.116245,1.2188642,0.93163025,1
1.6300000000000012,10.726849476082597,-0.7966499703179144,1.8281951098435727,0.5972306711905504,9.820932,-1.116245,1.2188642,0.93163025,2.6467795,-2.3063114,1.4730906,0.3505289,-0.07987578,-0.18228978,0.9151608,-6.583566,8.558452,0.62624794,-1.116245,1.2188642,0.93163025,1
1.6400000000000012,10.726849476082597,-0.7966499703179144,1.8281951098435727,0.5972306711905504,10.366322,-0.85549766,1.1017941,0.93420947,2.5808077,-2.220863,1.4793143,0.34691533,-0.08825486,-0.18488094,0.9152482,-6.6110587,8.531201,0.6184055,-1.116245,1.2188642,0.93163025,1
1.6500000000000012,10.726849476082597,-0.7966499703179144,1.8281951098435727,0.5972306711905504,10.366322,-0.85549766,1.1017941,0.93420947,2.5145452,-2.1356947,1.4854823,0.34326902,-0.095641255,-0.18646598,0.9155594,-6.641621,8.5025215,0.6151176,-0.85549766,1.1017941,0.93420947,1
1.6600000000000013,10.726849476082597,-0.7966499703179144,1.8281951098435727,0.5972306711905504,10.366322,-0.85549766,1.1017941,0.93420947,2.4479704,-2.0508122,1.4916153,0.33959848,-0.10302091,-0.18803789,0.91580606,-6.6735625,8.473986,0.61141765,-0.85549766,1.1017941,0.93420947,1
1.6700000000000013,10.726849476082597,-0.7966499703179144,1.8281951098435727,0.5972306711905504,10.366322,-0.85549766,1.1017941,0.93420947,2.3810694,-1.9662145,1.4977092,0.335904,-0.11039331,-0.18959655,0.91598815,-6.7068763,8.445586,0.60728335,-0.85549766,1.1017941,0.93420947,1
1.6800000000000013,11.303712825272111,-0.4088592640556573,1.3842740981355819,0.4701138637262672,10.930702,-0.37912247,1.2813686,0.8370513,2.3138285,-1.8819001,1.5037595,0.33218586,-0.117757924,-0.19114184,0.91610575,-6.741556,8.4173155,0.60269254,-0.85549766,1.1017941,0.93420947,1
1.6900000000000013,11.303712825272111,-0.4088592640556573,1.3842740981355819,0.4701138637262672,10.930702,-0.37912247,1.2813686,0.8370513,2.2462242,-1.7978748,1.5097871,0.3293428,-0.12505321,-0.19025138,0.9163508,-6.779503,8.387819,0.60276526,-0.37912247,1.2813686,0.8370513,1
1.7000000000000013,11.303712825272111,-0.4088592640556573,1.3842740981355819,0.4701138637262672,10.930702,-0.37912247,1.2813686,0.8370513,2.1782339,-1.7141415,1.5158138,0.3264793,-0.13234073,-0.18934909,0.91653883,-6.818733,8.358941,0.6025167,-0.37912247,1.2813686,0.8370513,1
1.7100000000000013,11.303712825272111,-0.4088592640556573,1.3842740981355819,0.4701138637262672,10.930702,-0.37912247,1.2813686,0.8370513,2.109845,-1.6306939,1.5218363,0.3235955,-0.13962002,-0.18843503,0.9166699,-6.8592443,8.330676,0.6019247,-0.37912247,1.2813686,0.8370513,1
1.7200000000000013,11.666121499194368,-0.09456260267653893,0.8365841488221089,0.3327009270704394,11.851724,0.31112143,1.1014591,0.53124833,2.0410445,-1.5475259,1.5278511,0.32069156,-0.14689061,-0.18750928,0.916744,-6.901033,8.303018,0.6009671,-0.37912247,1.2813686,0.8370513,1
1.7300000000000013,11.666121499194368,-0.09456260267653893,0.8365841488221089,0.3327009270704394,11.851724,0.31112143,1.1014591,0.53124833,1.9718026,-1.4646424,1.5338955,0.31951126,-0.15193564,-0.18392314,0.9170603,-6.9474998,8.273852,0.6079216,0.31112143,1.1014591,0.53124833,1
1.7400000000000013,11.666121499194368,-0.09456260267653893,0.8365841488221089,0.3327009270704394,11.851724,0.31112143,1.1014591,0.53124833,1.902092,-1.382045,1.5400093,0.31831825,-0.15697461,-0.1803297,0.9173401,-6.9947495,8.245793,0.61482793,0.31112143,1.1014591,0.53124833,1
1.7500000000000013,11.666121499194368,-0.09456260267653893,0.8365841488221089,0.3327009270704394,11.851724,0.31112143,1.1014591,0.53124833,1.831905,-1.2997228,1.5461918,0.31711257,-0.16200735,-0.17672907,0.9175834,-7.042782,8.218841,0.6216692,0.31112143,1.1014591,0.53124833,1
1.7600000000000013,11.684654545205483,-0.03657480585967211,-0.1609698214327978,0.22774995165823791,11.86148,0.67184,0.35040504,0.33879596,1.7612337,-1.2176645,1.5524423,0.31589425,-0.16703363,-0.17312141,0.9177902,-7.091595,8.192994,0.6284283,0.31112143,1.1014591,0.53124833,1
1.7700000000000014,11.684654545205483,-0.03657480585967211,-0.1609698214327978,0.22774995165823791,11.86148,0.67184,0.35040504,0.33879596,1.6900711,-1.1358594,1.5587609,0.31520122,-0.16787228,-0.16920048,0.9186063,-7.1408963,8.1681385,0.6353092,0.67184,0.35040504,0.33879596,1
1.7800000000000014,11.684654545205483,-0.03657480585967211,-0.1609698214327978,0.22774995165823791,11.86148,0.67184,0.35040504,0.33879596,1.6184161,-1.0542985,1.5651494,0.31450278,-0.16870806,-0.16527665,0.9194066,-7.1900907,8.14414,0.6424393,0.67184,0.35040504,0.33879596,1
1.7900000000000014,11.684654545205483,-0.03657480585967211,-0.1609698214327978,0.22774995165823791,11.86148,0.67184,0.35040504,0.33879596,1.5462697,-0.9729736,1.5716105,0.3137989,-0.16954091,-0.16134995,0.92019105,-7.239178,8.121001,0.64981127,0.67184,0.35040504,0.33879596,1
1.8000000000000014,11.449665377619334,-0.2600766203640577,-1.0730183266088469,0.14678960170872893,11.263723,0.64465195,-0.63349724,0.33394372,1.4736329,-0.8918756,1.5781465,0.31308964,-0.17037086,-0.15742049,0.92095965,-7.288159,8.098723,0.6574181,0.67184,0.35040504,0.33879596,1
1.8100000000000014,11.449665377619334,-0.2600766203640577,-1.0730183266088469,0.14678960170872893,11.263723,0.64465195,-0.63349724,0.33394372,1.4005201,-0.81099147,1.5847331,0.31159878,-0.16670544,-0.1551574,0.9225188,-7.334266,8.078116,0.65999866,0.64465195,-0.63349724,0.33394372,1
1.8200000000000014,11.449665377619334,-0.2600766203640577,-1.0730183266088469,0.14678960170872893,11.263723,0.64465195,-0.63349724,0.33394372,1.3269508,-0.7303129,1.5913479,0.3101007,-0.16303618,-0.15289073,0.9240565,-7.379459,8.057612,0.66301394,0.64465195,-0.63349724,0.33394372,1
1.8300000000000014,11.449665377619334,-0.2600766203640577,-1.0730183266088469,0.14678960170872893,11.263723,0.64465195,-0.63349724,0.33394372,1.2529341,-0.6498388,1.597995,0.3085954,-0.15936312,-0.1506205,0.9255727,-7.423733,8.037216,0.6664561,0.64465195,-0.63349724,0.33394372,1
1.8400000000000014,11.449665377619334,-0.2600766203640577,-1.0730183266088469,0.14678960170872893,10.363309,0.19429478,-1.3599281,0.40159342,1.1784793,-0.5695681,1.6046785,0.30708292,-0.15568635,-0.14834678,0.92706746,-7.4670863,8.016932,0.67031735,0.64465195,-0.63349724,0.33394372,0
1.8500000000000014,11.449665377619334,-0.2600766203640577,-1.0730183266088469,0.14678960170872893,10.363309,0.19429478,-1.3599281,0.40159342,1.1035919,-0.48950255,1.6114109,0.30539945,-0.15121837,-0.15108326,0.9279208,-7.510275,7.9960175,0.67617255,-0.2600766,-1.0730183,0.1467896,0
1.8600000000000014,11.449665377619334,-0.2600766203640577,-1.0730183266088469,0.14678960170872893,10.363309,0.19429478,-1.3599281,0.40159342,1.0282766,-0.40965107,1.6182023,0.30370644,-0.1467457,-0.15381506,0.9287454,-7.5526767,7.974122,0.6821496,-0.2600766,-1.0730183,0.1467896,0
1.8700000000000014,11.449665377619334,-0.2600766203640577,-1.0730183266088469,0.14678960170872893,10.363309,0.19429478,-1.3599281,0.40159342,0.9525411,-0.33002344,1.6250541,0.30200404,-0.14226846,-0.1565421,0.9295412,-7.5942845,7.951249,0.68823665,-0.2600766,-1.0730183,0.1467896,0
1.8800000000000014,11.371622090026976,-0.4102383335485236,-0.7983893044283213,0.10179043644197303,9.63647,-0.11740309,-1.9654359,0.4338902,0.87639356,-0.2506294,1.6319673,0.30029225,-0.13778682,-0.15926427,0.9303081,-7.6350927,7.927402,0.6944217,-0.2600766,-1.0730183,0.1467896,0
1.8900000000000015,11.371622090026976,-0.4102383335485236,-0.7983893044283213,0.10179043644197303,9.63647,-0.11740309,-1.9654359,0.4338902,0.79984295,-0.1714778,1.6389391,0.29889733,-0.1347687,-0.1622995,0.9306748,-7.6749463,7.902776,0.6999387,-0.41023833,-0.7983893,0.101790436,0
1.9000000000000015,11.371622090026976,-0.4102383335485236,-0.7983893044283213,0.10179043644197303,9.63647,-0.11740309,-1.9654359,0.4338902,0.7228962,-0.092576995,1.6459659,0.2974963,-0.13174781,-0.16533141,0.93102247,-7.714327,7.8772454,0.70541793,-0.41023833,-0.7983893,0.101790436,0
1.9100000000000015,11.371622090026976,-0.4102383335485236,-0.7983893044283213,0.10179043644197303,9.63647,-0.11740309,-1.9654359,0.4338902,0.6455581,-0.0139359925,1.6530473,0.29608917,-0.12872426,-0.16835995,0.93135124,-7.7532306,7.8508134,0.7108513,-0.41023833,-0.7983893,0.101790436,0
1.9200000000000015,11.274027037345519,-0.13470296126423942,-0.2766945641414838,0.07573038353323468,9.353461,-0.03925112,-2.089154,0.4863616,0.56783336,0.0644362,1.6601827,0.29467604,-0.12569807,-0.17138506,0.93166095,-7.791653,7.8234835,0.716231,-0.41023833,-0.7983893,0.101790436,0
1.9300000000000015,11.274027037345519,-0.13470296126423942,-0.2766945641414838,0.07573038353323468,9.353461,-0.03925112,-2.089154,0.4863616,0.48972806,0.14253245,1.6673672,0.29400113,-0.12467235,-0.17237242,0.93182987,-7.829382,7.795719,0.72067875,-0.13470297,-0.27669457,0.07573038,0
1.9400000000000015,11.274027037345519,-0.13470296126423942,-0.2766945641414838,0.07573038353323468,9.353461,-0.03925112,-2.089154,0.4863616,0.4112463,0.22034955,1.6745962,0.29332548,-0.12364632,-0.17335933,0.9319964,-7.8669395,7.767654,0.72510755,-0.13470297,-0.27669457,0.07573038,0
1.9500000000000015,11.274027037345519,-0.13470296126423942,-0.2766945641414838,0.07573038353323468,9.353461,-0.03925112,-2.089154,0.4863616,0.3323899,0.2978845,1.6818693,0.2926491,-0.12261997,-0.17434582,0.93216056,-7.9043245,7.739288,0.7295165,-0.13470297,-0.27669457,0.07573038,0
1.9600000000000015,11.261340806469248,0.2023484395217366,0.4459282438144458,0.06582471027241109,9.424118,0.20522708,-1.7595423,0.52445567,0.25316045,0.3751343,1.6891866,0.29197198,-0.12159332,-0.17533186,0.93232244,-7.941537,7.710622,0.73390484,-0.13470297,-0.27669457,0.07573038,0
1.9700000000000015,11.261340806469248,0.2023484395217366,0.4459282438144458,0.06582471027241109,9.424118,0.20522708,-1.7595423,0.52445567,0.17355946,0.4520969,1.6965469,0.29217818,-0.12343399,-0.17369705,0.93232197,-7.978707,7.6819773,0.7381748,0.20234844,0.44592825,0.06582471,0
1.9800000000000015,11.261340806469248,0.2023484395217366,0.4459282438144458,0.06582471027241109,9.424118,0.20522708,-1.7595423,0.52445567,0.093585335,0.52877545,1.70395,0.2923826,-0.12527391,-0.17206118,0.93231577,-8.016164,7.653803,0.74247074,0.20234844,0.44592825,0.06582471,0
1.9900000000000015,11.261340806469248,0.2023484395217366,0.4459282438144458,0.06582471027241109,9.424118,0.20522708,-1.7595423,0.52445567,0.0132352,0.6051746,1.7113963,0.29258522,-0.12711307,-0.17042425,0.93230385,-8.053907,7.626099,0.74679,0.20234844,0.44592825,0.06582471,0
2.0000000000000013,,,,,9.827469,0.50442326,-1.0192938,0.4078059,-0.0674938,0.68129903,1.7188859,0.2927861,-0.12895146,-0.16878629,0.9322862,-8.091936,7.5988665,0.7511301,0.20234844,0.44592825,0.06582471,0
2.010000000000001,,,,,9.827469,0.50442326,-1.0192938,0.4078059,-0.14860414,0.75715417,1.726418,0.29330835,-0.13110742,-0.16589908,0.9323395,-8.130178,7.5722637,0.7553264,0.42736438,0.5873156,0.052992664,0
2.020000000000001,,,,,9.827469,0.50442326,-1.0192938,0.4078059,-0.23009832,0.83274704,1.7339926,0.29382667,-0.13326165,-0.16300967,0.9323806,-8.168703,7.546422,0.7596118,0.42736438,0.5873156,0.052992664,0
2.0300000000000007,,,,,9.827469,0.50442326,-1.0192938,0.4078059,-0.31197917,0.9080853,1.7416104,0.29434112,-0.13541411,-0.1601181,0.93240935,-8.207508,7.5213423,0.76398075,0.42736438,0.5873156,0.052992664,0
2.0400000000000005,,,,,9.827469,0.50442326,-1.0192938,0.4078059,-0.39424944,0.9831765,1.7492723,0.29485166,-0.13756476,-0.15722442,0.9324257,-8.2465925,7.497026,0.76842767,0.42736438,0.5873156,0.052992664,0
2.0500000000000003,,,,,10.418492,0.72944134,-0.36343518,0.3147396,-0.47691193,1.0580285,1.7569791,0.2953583,-0.1397136,-0.15432864,0.9324296,-8.2859535,7.4734745,0.7729469,0.42736438,0.5873156,0.052992664,1
2.06,,,,,10.418492,0.72944134,-0.36343518,0.3147396,-0.5599539,1.1326567,1.7646942,0.29411724,-0.13718353,-0.15124327,0.9337023,-8.32234,7.4522266,0.7701305,0.72944134,-0.36343518,0.3147396,1
2.07,,,,,10.418492,0.72944134,-0.36343518,0.3147396,-0.6433564,1.2070742,1.772383,0.29287058,-0.13465084,-0.14815503,0.93495715,-8.358042,7.4313483,0.76765424,0.72944134,-0.36343518,0.3147396,1
2.0799999999999996,,,,,10.418492,0.72944134,-0.36343518,0.3147396,-0.7271125,1.2812849,1.7800485,0.29161832,-0.13211557,-0.14506395,0.9361941,-8.393059,7.4108434,0.76551175,0.72944134,-0.36343518,0.3147396,1
2.0899999999999994,,,,,10.904019,0.8314528,-0.38426146,0.377479,-0.8112153,1.3552923,1.7876942,0.29036048,-0.12957779,-0.1419701,0.9374133,-8.427389,7.3907146,0.7636967,0.72944134,-0.36343518,0.3147396,1
2.099999999999999,,,,,10.904019,0.8314528,-0.38426146,0.377479,-0.89566565,1.4290959,1.795346,0.28885362,-0.126836,-0.13838461,0.93878895,-8.462571,7.3700747,0.76672,0.8314528,-0.38426146,0.377479,1
2.109999999999999,,,,,10.904019,0.8314528,-0.38426146,0.377479,-0.98046386,1.5026953,1.8030299,0.2873396,-0.12409111,-0.13479571,0.9401416,-8.496957,7.349913,0.77011275,0.8314528,-0.38426146,0.377479,1
2.1199999999999988,,,,,10.904019,0.8314528,-0.38426146,0.377479,-1.065602,1.5760957,1.8107495,0.28581855,-0.121343166,-0.13120352,0.9414712,-8.530547,7.330234,0.7738663,0.8314528,-0.38426146,0.377479,1
2.1299999999999986,,,,,11.66967,0.87178713,-0.42232928,0.25090522,-1.1510719,1.6493015,1.8185085,0.2842905,-0.11859224,-0.1276081,0.9427777,-8.56334,7.311043,0.77797204,0.8314528,-0.38426146,0.377479,1
2.1399999999999983,,,,,11.66967,0.87178713,-0.42232928,0.25090522,-1.2368771,1.7223115,1.8263462,0.28335166,-0.11552084,-0.123948574,0.9439292,-8.597558,7.2910357,0.78963006,0.87178713,-0.42232928,0.25090522,1
2.149999999999998,,,,,11.66967,0.87178713,-0.42232928,0.25090522,-1.3230199,1.7951242,1.8343024,0.28240576,-0.112446554,-0.12028593,0.94505703,-8.63086,7.2715735,0.8016668,0.87178713,-0.42232928,0.25090522,1
2.159999999999998,,,,,11.66967,0.87178713,-0.42232928,0.25090522,-1.4094911,1.8677449,1.8423808,0.28145278,-0.10936945,-0.116620265,0.94616127,-8.663247,7.2526603,0.8140721,0.87178713,-0.42232928,0.25090522,1
2.1699999999999977,,,,,12.018338,0.9434832,-0.3259193,0.105974466,-1.4962816,1.9401793,1.850585,0.28049275,-0.10628961,-0.11295169,0.94724184,-8.694715,7.2342997,0.82683545,0.87178713,-0.42232928,0.25090522,1
2.1799999999999975,,,,,12.018338,0.9434832,-0.3259193,0.105974466,-1.5833869,2.0124304,1.8589352,0.28030464,-0.10348131,-0.108882524,0.94808453,-8.726194,7.216015,0.84327203,0.9434832,-0.3259193,0.105974466,1
