time-since-start [s],throttle_mpc,roll_mpc,pitch_mpc,yaw_mpc,throttle_nw,roll_nw,pitch_nw,yaw_nw,position_x [m],position_y [m],position_z [m],rotation_w [quaternion],rotation_x [quaternion],rotation_y [quaternion],rotation_z [quaternion],velocity_x [m/s],velocity_y [m/s],velocity_z [m/s],omega_x [rad/s],omega_y [rad/s],omega_z [rad/s],network_used
0.0,5.575106734846566,3.862408054878281,-5.999999867419161,-1.5660510780387076,10.834592,-0.61493015,-1.3101087,0.2827676,11.430893,-10.660917,1.1162364,0.33975524,-0.22464582,0.27857757,0.8697673,-7.6850853,4.049173,0.6414331,0.16845267,0.31872636,0.38726002,0
0.01,5.575106734846566,3.862408054878281,-5.999999867419161,-1.5660510780387076,9.466394,1.0734805,-3.325605,-1.2820998,11.35399,-10.620248,1.1223689,0.35903046,-0.19402969,0.28323597,0.8678865,-7.694897,4.084586,0.5852443,3.8624082,-6.0,-1.5660511,0
0.02,5.575106734846566,3.862408054878281,-5.999999867419161,-1.5660510780387076,9.466394,1.0734805,-3.325605,-1.2820998,11.277007,-10.5792265,1.1279451,0.37782666,-0.1631547,0.28751647,0.86484784,-7.700905,4.119564,0.5301258,3.8624082,-6.0,-1.5660511,0
0.03,5.575106734846566,3.862408054878281,-5.999999867419161,-1.5660510780387076,9.466394,1.0734805,-3.325605,-1.2820998,11.199984,-10.537858,1.1329746,0.39611885,-0.13206205,0.2914134,0.8606553,-7.7030926,4.1538806,0.47589546,3.8624082,-6.0,-1.5660511,0
0.04,5.575106734846566,3.862408054878281,-5.999999867419161,-1.5660510780387076,11.76267,-0.7356497,-1.2856468,-0.10076612,11.122957,-10.496152,1.1374654,0.41388255,-0.100793205,0.29492155,0.8553146,-7.7014675,4.187313,0.42236632,3.8624082,-6.0,-1.5660511,0
0.05,5.575106734846566,3.862408054878281,-5.999999867419161,-1.5660510780387076,11.76267,-0.7356497,-1.2856468,-0.10076612,11.045966,-10.454116,1.1414236,0.43109408,-0.0693899,0.29803622,0.8488328,-7.696056,4.2196445,0.3693477,3.8624082,-6.0,-1.5660511,0
0.060000000000000005,5.575106734846566,3.862408054878281,-5.999999867419161,-1.5660510780387076,11.76267,-0.7356497,-1.2856468,-0.10076612,10.9690485,-10.411763,1.1448535,0.44773048,-0.037894018,0.30075327,0.8412186,-7.6869035,4.2506633,0.31664616,3.8624082,-6.0,-1.5660511,0
0.07,5.575106734846566,3.862408054878281,-5.999999867419161,-1.5660510780387076,11.76267,-0.7356497,-1.2856468,-0.10076612,10.892241,-10.369107,1.147757,0.46376956,-0.006347579,0.30306908,0.832482,-7.674078,4.2801642,0.26406667,3.8624082,-6.0,-1.5660511,0
0.08,10.214340953099818,2.6119127429795044,-5.9999998443837566,0.05103269206780304,12.850578,-1.6847615,2.062771,0.05484504,10.815579,-10.326165,1.1501346,0.4791899,0.025207326,0.30498058,0.8226348,-7.657665,4.3079515,0.21141344,3.8624082,-6.0,-1.5660511,0
0.09,10.214340953099818,2.6119127429795044,-5.9999998443837566,0.05103269206780304,12.850578,-1.6847615,2.062771,0.05484504,10.739179,-10.2828455,1.1521733,0.4875422,0.05620317,0.3011791,0.8175785,-7.6215763,4.3552227,0.19633682,2.6119127,-6.0,0.051032692,0
0.09999999999999999,10.214340953099818,2.6119127429795044,-5.9999998443837566,0.05103269206780304,12.850578,-1.6847615,2.062771,0.05484504,10.663166,-10.239074,1.1540606,0.49537256,0.087138854,0.2970552,0.81164694,-7.580256,4.398341,0.18108146,2.6119127,-6.0,0.051032692,0
0.10999999999999999,10.214340953099818,2.6119127429795044,-5.9999998443837566,0.05103269206780304,12.850578,-1.6847615,2.062771,0.05484504,10.587591,-10.194894,1.1557931,0.5026726,0.117981255,0.2926133,0.8048464,-7.5338793,4.4371247,0.16529071,2.6119127,-6.0,0.051032692,0
0.11999999999999998,10.214340953099818,2.6119127429795044,-5.9999998443837566,0.05103269206780304,12.850578,-1.6847615,2.062771,0.05484504,10.512505,-10.150348,1.1573634,0.5094345,0.14869735,0.28785816,0.7971843,-7.4826427,4.4714093,0.14861026,2.6119127,-6.0,0.051032692,0
0.12999999999999998,14.69526300034055,0.5880117117191762,-5.999999528679195,1.291139715113609,12.621766,-2.5423515,1.6977193,-0.001289662,10.437953,-10.105482,1.158761,0.5156511,0.17925425,0.28279483,0.78866875,-7.4267635,4.5010514,0.1306896,2.6119127,-6.0,0.051032692,0
0.13999999999999999,14.69526300034055,0.5880117117191762,-5.999999528679195,1.291139715113609,12.621766,-2.5423515,1.6977193,-0.001289662,10.364112,-10.060287,1.1601467,0.5182711,0.20616655,0.2683547,0.78541434,-7.3408146,4.536501,0.14636584,0.5880117,-5.9999995,1.2911397,0
0.15,14.69526300034055,0.5880117117191762,-5.999999528679195,1.291139715113609,12.621766,-2.5423515,1.6977193,-0.001289662,10.29115,-10.014778,1.1616851,0.52039856,0.23288295,0.2536596,0.78141356,-7.2508974,4.5640826,0.16115104,0.5880117,-5.9999995,1.2911397,0
0.16,15.541331517218541,-0.38588656803006455,-5.999999096762648,1.713633184008903,13.516572,-2.8291829,1.3615248,0.17508143,10.219107,-9.969032,1.1633649,0.52203155,0.25937802,0.23872346,0.7766702,-7.157263,4.5837436,0.17456333,0.5880117,-5.9999995,1.2911397,0
0.17,15.541331517218541,-0.38588656803006455,-5.999999096762648,1.713633184008903,13.516572,-2.8291829,1.3615248,0.17508143,10.148045,-9.923126,1.1652027,0.5227838,0.28358567,0.21922812,0.77344334,-7.0549726,4.595941,0.19280104,-0.38588658,-5.999999,1.7136332,0
0.18000000000000002,15.541331517218541,-0.38588656803006455,-5.999999096762648,1.713633184008903,13.516572,-2.8291829,1.3615248,0.17508143,10.078017,-9.877143,1.1672158,0.52302533,0.3075162,0.19951859,0.7694608,-6.950333,4.599224,0.20953245,-0.38588658,-5.999999,1.7136332,0
0.19000000000000003,15.541331517218541,-0.38588656803006455,-5.999999096762648,1.713633184008903,13.516572,-2.8291829,1.3615248,0.17508143,10.009046,-9.831171,1.1693864,0.52275586,0.33114627,0.17961413,0.7647264,-6.8436103,4.59363,0.22423913,-0.38588658,-5.999999,1.7136332,0
0.20000000000000004,14.696169232981095,-0.7443051003012449,-4.648561213315027,1.5646945602025357,13.963401,-2.0593064,1.184765,-0.17598897,9.941151,-9.7853,1.1716919,0.52197564,0.35445282,0.15953416,0.75924486,-6.7350783,4.579229,0.2364105,-0.38588658,-5.999999,1.7136332,0
0.21000000000000005,14.696169232981095,-0.7443051003012449,-4.648561213315027,1.5646945602025357,13.963401,-2.0593064,1.184765,-0.17598897,9.874317,-9.73961,1.1740762,0.52090234,0.37129462,0.14175613,0.7554506,-6.6312766,4.5579715,0.24013025,-0.7443051,-4.648561,1.5646945,0
0.22000000000000006,14.696169232981095,-0.7443051003012449,-4.648561213315027,1.5646945602025357,13.963401,-2.0593064,1.184765,-0.17598897,9.808526,-9.694164,1.1764872,0.5195086,0.38790792,0.123890884,0.7511915,-6.5269604,4.530153,0.24172105,-0.7443051,-4.648561,1.5646945,0
0.23000000000000007,14.696169232981095,-0.7443051003012449,-4.648561213315027,1.5646945602025357,13.963401,-2.0593064,1.184765,-0.17598897,9.743779,-9.649029,1.1789024,0.51779526,0.4042826,0.10594941,0.7464703,-6.422285,4.495865,0.24089095,-0.7443051,-4.648561,1.5646945,0
0.24000000000000007,14.696169232981095,-0.7443051003012449,-4.648561213315027,1.5646945602025357,13.694262,-2.0052762,0.9858193,-0.23954636,9.68008,-9.604269,1.1812959,0.5157633,0.42040855,0.08794275,0.7412898,-6.317407,4.4552145,0.23735389,-0.7443051,-4.648561,1.5646945,0
0.25000000000000006,14.696169232981095,-0.7443051003012449,-4.648561213315027,1.5646945602025357,13.694262,-2.0052762,0.9858193,-0.23954636,9.617431,-9.559947,1.1836393,0.51341397,0.43627584,0.06988198,0.73565316,-6.212483,4.4083247,0.23083049,-0.7443051,-4.648561,1.5646945,0
0.26000000000000006,14.696169232981095,-0.7443051003012449,-4.648561213315027,1.5646945602025357,13.694262,-2.0052762,0.9858193,-0.23954636,9.55583,-9.516124,1.1859014,0.51074874,0.45187473,0.051778212,0.7295639,-6.1076694,4.355334,0.22104873,-0.7443051,-4.648561,1.5646945,0
0.2700000000000001,14.696169232981095,-0.7443051003012449,-4.648561213315027,1.5646945602025357,13.694262,-2.0052762,0.9858193,-0.23954636,9.495276,-9.47286,1.1880481,0.50776935,0.46719557,0.03364259,0.7230258,-6.003123,4.296396,0.20774458,-0.7443051,-4.648561,1.5646945,0
0.2800000000000001,12.735304320179138,-0.9547642123996406,0.046009545636629255,1.4982455742970702,14.635652,-0.8088509,1.3359088,-0.8262983,9.435766,-9.430216,1.1900432,0.50447756,0.48222896,0.015486266,0.7160429,-5.8989987,4.2316794,0.1906627,-0.7443051,-4.648561,1.5646945,0
0.2900000000000001,12.735304320179138,-0.9547642123996406,0.046009545636629255,1.4982455742970702,14.635652,-0.8088509,1.3359088,-0.8262983,9.377225,-9.388195,1.1918004,0.5013921,0.47975296,0.008571053,0.7199786,-5.809384,4.1723323,0.1608689,-0.9547642,0.046009544,1.4982456,0
0.3000000000000001,12.735304320179138,-0.9547642123996406,0.046009545636629255,1.4982455742970702,14.635652,-0.8088509,1.3359088,-0.8262983,9.319576,-9.34677,1.1932628,0.49826714,0.47723907,0.0016551618,0.7238574,-5.720638,4.1124244,0.13171731,-0.9547642,0.046009544,1.4982456,0
0.3100000000000001,12.735304320179138,-0.9547642123996406,0.046009545636629255,1.4982455742970702,14.635652,-0.8088509,1.3359088,-0.8262983,9.26281,-9.305947,1.1944369,0.4951028,0.4746875,-0.0052608596,0.727679,-5.632769,4.0519476,0.10318959,-0.9547642,0.046009544,1.4982456,0
0.3200000000000001,11.356065080762084,-0.935939687476695,4.927920452153017,1.425391382551456,15.107449,-0.7794205,2.3070953,-0.6814948,9.206919,-9.265733,1.1953287,0.49189934,0.47209844,-0.012176465,0.7314433,-5.545785,3.9908943,0.07526719,-0.9547642,0.046009544,1.4982456,0
0.3300000000000001,11.356065080762084,-0.935939687476695,4.927920452153017,1.425391382551456,15.107449,-0.7794205,2.3070953,-0.6814948,9.151845,-9.226094,1.1959102,0.4890288,0.4515291,-0.006840286,0.74627405,-5.469184,3.937418,0.041711688,-0.93593967,4.9279203,1.4253914,0
0.34000000000000014,11.356065080762084,-0.935939687476695,4.927920452153017,1.425391382551456,15.107449,-0.7794205,2.3070953,-0.6814948,9.097531,-9.186972,1.1961777,0.48582584,0.43065283,-0.0014994566,0.7605975,-5.3939714,3.8874266,0.012440688,-0.93593967,4.9279203,1.4253914,0
0.35000000000000014,11.356065080762084,-0.935939687476695,4.927920452153017,1.425391382551456,15.107449,-0.7794205,2.3070953,-0.6814948,9.043961,-9.148332,1.1961733,0.48229265,0.40948382,0.003842392,0.774404,-5.3203936,3.8409936,-0.01269518,-0.93593967,4.9279203,1.4253914,0
0.36000000000000015,10.043926902556715,-1.0530344735628865,5.999998447880416,1.0440894242737413,15.864019,-0.79233253,3.2817016,-0.4164632,8.9911175,-9.110139,1.1959374,0.47843158,0.38803643,0.009181628,0.787684,-5.248692,3.7981822,-0.033856515,-0.93593967,4.9279203,1.4253914,0
0.37000000000000016,10.043926902556715,-1.0530344735628865,5.999998447880416,1.0440894242737413,15.864019,-0.79233253,3.2817016,-0.4164632,8.938939,-9.072332,1.1954635,0.47585914,0.3617537,0.01735587,0.8014928,-5.187282,3.7638562,-0.06029322,-1.0530344,5.9999986,1.0440894,0
0.38000000000000017,10.043926902556715,-1.0530344735628865,5.999998447880416,1.0440894242737413,15.864019,-0.79233253,3.2817016,-0.4164632,8.8873625,-9.034848,1.1947447,0.47283226,0.33512554,0.025513541,0.81453615,-5.128351,3.7336137,-0.082910374,-1.0530344,5.9999986,1.0440894,0
0.3900000000000002,10.043926902556715,-1.0530344735628865,5.999998447880416,1.0440894242737413,15.864019,-0.79233253,3.2817016,-0.4164632,8.836362,-8.997646,1.1938176,0.46935385,0.30817735,0.03364685,0.8268017,-5.072162,3.707524,-0.10197096,-1.0530344,5.9999986,1.0440894,0
0.4000000000000002,10.003436796787918,-0.9587125553759636,5.999997048716251,0.8455672725287777,14.826654,-1.7686974,3.3478856,-0.27596146,8.785909,-8.960685,1.1927166,0.46542728,0.28093493,0.041748032,0.83827776,-5.018967,3.6856403,-0.11775155,-1.0530344,5.9999986,1.0440894,0
0.4100000000000002,10.003436796787918,-0.9587125553759636,5.999997048716251,0.8455672725287777,14.826654,-1.7686974,3.3478856,-0.27596146,8.735971,-8.92392,1.1914712,0.46175903,0.2536042,0.05048375,0.8484777,-4.9691796,3.6680923,-0.130897,-0.9587126,5.999997,0.8455673,0
0.4200000000000002,10.003436796787918,-0.9587125553759636,5.999997048716251,0.8455672725287777,14.826654,-1.7686974,3.3478856,-0.27596146,8.686514,-8.887308,1.190108,0.45765638,0.22603485,0.05917197,0.85787946,-4.9227624,3.654852,-0.14139502,-0.9587126,5.999997,0.8455673,0
0.4300000000000002,10.003436796787918,-0.9587125553759636,5.999997048716251,0.8455672725287777,14.826654,-1.7686974,3.3478856,-0.27596146,8.637504,-8.850807,1.1886516,0.45312318,0.19825284,0.06780452,0.86647403,-4.8799205,3.6459327,-0.14955588,-0.9587126,5.999997,0.8455673,0
0.4400000000000002,10.003436796787918,-0.9587125553759636,5.999997048716251,0.8455672725287777,13.59655,-1.0757984,2.806831,-0.3592134,8.588903,-8.814373,1.1871239,0.4481637,0.17028433,0.07637329,0.8742535,-4.8408484,3.6413314,-0.15569863,-0.9587126,5.999997,0.8455673,0
0.45000000000000023,10.003436796787918,-0.9587125553759636,5.999997048716251,0.8455672725287777,13.59655,-1.0757984,2.806831,-0.3592134,8.540674,-8.777965,1.1855435,0.44278258,0.14215563,0.0848702,0.88121057,-4.8057227,3.6410294,-0.16014992,-0.9587126,5.999997,0.8455673,0
0.46000000000000024,10.003436796787918,-0.9587125553759636,5.999997048716251,0.8455672725287777,13.59655,-1.0757984,2.806831,-0.3592134,8.492776,-8.741538,1.1839256,0.4369849,0.1138932,0.093287274,0.8873386,-4.7747073,3.6449912,-0.16324277,-0.9587126,5.999997,0.8455673,0
0.47000000000000025,10.003436796787918,-0.9587125553759636,5.999997048716251,0.8455672725287777,13.59655,-1.0757984,2.806831,-0.3592134,8.445166,-8.705051,1.1822821,0.4307761,0.08552361,0.101616584,0.89263177,-4.7479506,3.653165,-0.16531533,-0.9587126,5.999997,0.8455673,0
0.48000000000000026,10.302198875289019,-0.905364211137322,5.999996822582208,0.5923370547085317,12.583489,-2.1331923,2.967292,0.19479579,8.3978,-8.668462,1.1806216,0.42416203,0.05707356,0.109850295,0.8970852,-4.725585,3.6654844,-0.16670953,-0.9587126,5.999997,0.8455673,0
0.49000000000000027,10.302198875289019,-0.905364211137322,5.999996822582208,0.5923370547085317,12.583489,-2.1331923,2.967292,0.19479579,8.350641,-8.631726,1.1789635,0.41827178,0.028544156,0.11829282,0.90013355,-4.707176,3.6823692,-0.16487709,-0.9053642,5.9999967,0.5923371,0
0.5000000000000002,10.302198875289019,-0.905364211137322,5.999996822582208,0.5923370547085317,12.583489,-2.1331923,2.967292,0.19479579,8.30364,-8.594801,1.1773239,0.4119929,-1.1771452e-05,0.12662543,0.90234554,-4.69346,3.7033808,-0.1630729,-0.9053642,5.9999967,0.5923371,0
0.5100000000000002,10.302198875289019,-0.905364211137322,5.999996822582208,0.5923370547085317,12.583489,-2.1331923,2.967292,0.19479579,8.256754,-8.557645,1.1757008,0.40533122,-0.028567687,0.13484038,0.90371907,-4.684511,3.7284153,-0.16165574,-0.9053642,5.9999967,0.5923371,0
0.5200000000000002,10.937273414823201,-0.7371031401932198,5.999982634587485,0.36040947465344314,11.687546,-1.8698946,2.5827718,0.34169215,8.209933,-8.520219,1.1740882,0.3982929,-0.057097055,0.14293005,0.90425295,-4.6803856,3.757353,-0.16098295,-0.9053642,5.9999967,0.5923371,0
0.5300000000000002,10.937273414823201,-0.7371031401932198,5.999982634587485,0.36040947465344314,11.687546,-1.8698946,2.5827718,0.34169215,8.16313,-8.482474,1.1725074,0.39198345,-0.08540441,0.15158218,0.9033702,-4.6811147,3.7921224,-0.15540291,-0.73710316,5.999983,0.36040947,0
0.5400000000000003,10.937273414823201,-0.7371031401932198,5.999982634587485,0.36040947465344314,11.687546,-1.8698946,2.5827718,0.34169215,8.116294,-8.444363,1.1709746,0.38531467,-0.113633476,0.16009538,0.9016592,-4.6868844,3.8308659,-0.15140176,-0.73710316,5.999983,0.36040947,0
0.5500000000000003,10.937273414823201,-0.7371031401932198,5.999982634587485,0.36040947465344314,11.687546,-1.8698946,2.5827718,0.34169215,8.069374,-8.405844,1.1694726,0.37829262,-0.14175835,0.1684618,0.8991215,-4.697688,3.8734243,-0.14934678,-0.73710316,5.999983,0.36040947,0
0.5600000000000003,11.500576306424646,-0.5274423718585428,3.491370560446338,0.21942047787547056,11.384928,-1.5555128,2.2819023,0.098950565,8.022323,-8.366881,1.1679798,0.3709238,-0.16975328,0.17667378,0.89575964,-4.7135024,3.9196255,-0.14959815,-0.73710316,5.999983,0.36040947,0
0.5700000000000003,11.500576306424646,-0.5274423718585428,3.491370560446338,0.21942047787547056,11.384928,-1.5555128,2.2819023,0.098950565,7.9750843,-8.327429,1.1664976,0.36635143,-0.18614738,0.18094502,0.8935291,-4.7345715,3.9712613,-0.14712536,-0.5274424,3.4913707,0.21942048,0
0.5800000000000003,11.500576306424646,-0.5274423718585428,3.491370560446338,0.21942047787547056,11.384928,-1.5555128,2.2819023,0.098950565,7.92762,-8.287449,1.1650313,0.36166444,-0.20248324,0.18515962,0.891019,-4.75874,4.02486,-0.14639178,-0.5274424,3.4913707,0.21942048,0
0.5900000000000003,11.500576306424646,-0.5274423718585428,3.491370560446338,0.21942047787547056,11.384928,-1.5555128,2.2819023,0.098950565,7.8798985,-8.246924,1.1635633,0.35686427,-0.21875574,0.18931629,0.8882301,-4.7859836,4.0803485,-0.14751835,-0.5274424,3.4913707,0.21942048,0
0.6000000000000003,11.75591820213787,-0.36261445750874194,0.42231085136710106,0.15328360186007342,11.128569,-1.2600809,2.3886166,0.08486313,7.8318896,-8.205835,1.1620741,0.35195243,-0.23495981,0.19341373,0.88516325,-4.8162737,4.137651,-0.15062372,-0.5274424,3.4913707,0.21942048,0
0.6100000000000003,11.75591820213787,-0.36261445750874194,0.42231085136710106,0.15328360186007342,11.128569,-1.2600809,2.3886166,0.08486313,7.7835617,-8.164161,1.1605561,0.35043815,-0.23731777,0.1927313,0.8852838,-4.8494015,4.1973376,-0.1530148,-0.36261445,0.42231086,0.1532836,0
0.6200000000000003,11.75591820213787,-0.36261445750874194,0.42231085136710106,0.15328360186007342,11.128569,-1.2600809,2.3886166,0.08486313,7.734899,-8.121888,1.1590132,0.34892097,-0.23967375,0.19204727,0.885397,-4.8831515,4.256997,-0.15560666,-0.36261445,0.42231086,0.1532836,0
0.6300000000000003,11.75591820213787,-0.36261445750874194,0.42231085136710106,0.15328360186007342,11.128569,-1.2600809,2.3886166,0.08486313,7.6858964,-8.0790205,1.1574434,0.34740087,-0.24202774,0.19136164,0.8855029,-4.917523,4.3166265,-0.15840177,-0.36261445,0.42231086,0.1532836,0
0.6400000000000003,11.75591820213787,-0.36261445750874194,0.42231085136710106,0.15328360186007342,11.042485,-0.789299,1.7039772,-0.11748105,7.636547,-8.035558,1.1558444,0.34587786,-0.24437971,0.19067441,0.88560134,-4.9525146,4.376224,-0.16140261,-0.36261445,0.42231086,0.1532836,0
0.6500000000000004,11.75591820213787,-0.36261445750874194,0.42231085136710106,0.15328360186007342,11.042485,-0.789299,1.7039772,-0.11748105,7.586844,-7.9914966,1.1542145,0.34435198,-0.24672966,0.1899856,0.8856924,-4.988126,4.4357862,-0.16461162,-0.36261445,0.42231086,0.1532836,0
0.6600000000000004,11.75591820213787,-0.36261445750874194,0.42231085136710106,0.15328360186007342,11.042485,-0.789299,1.7039772,-0.11748105,7.536782,-7.9468417,1.1525514,0.34282324,-0.24907754,0.1892952,0.8857761,-5.024355,4.4953113,-0.16803125,-0.36261445,0.42231086,0.1532836,0
0.6700000000000004,11.75591820213787,-0.36261445750874194,0.42231085136710106,0.15328360186007342,11.042485,-0.789299,1.7039772,-0.11748105,7.486355,-7.901592,1.1508532,0.34129164,-0.25142333,0.18860322,0.8858524,-5.061202,4.5547957,-0.1716639,-0.36261445,0.42231086,0.1532836,0
0.6800000000000004,12.121175271589943,-0.24012301642244333,-0.48424433074610773,0.13096278497449634,11.768524,0.16108933,1.8413911,-0.22523719,7.4355555,-7.8557467,1.1491175,0.33975717,-0.25376704,0.18790966,0.88592136,-5.098665,4.6142364,-0.17551203,-0.36261445,0.42231086,0.1532836,0
0.6900000000000004,12.121175271589943,-0.24012301642244333,-0.48424433074610773,0.13096278497449634,11.768524,0.16108933,1.8413911,-0.22523719,7.3843746,-7.809299,1.1473573,0.33932605,-0.25190595,0.18618882,0.8869805,-5.137624,4.675307,-0.1764275,-0.24012302,-0.48424432,0.13096279,0
0.7000000000000004,12.121175271589943,-0.24012301642244333,-0.48424433074610773,0.13096278497449634,11.768524,0.16108933,1.8413911,-0.22523719,7.3328047,-7.762243,1.1455901,0.3388923,-0.25004286,0.18446654,0.88803273,-5.176409,4.7358756,-0.1769598,-0.24012302,-0.48424432,0.13096279,0
0.7100000000000004,12.121175271589943,-0.24012301642244333,-0.48424433074610773,0.13096278497449634,11.768524,0.16108933,1.8413911,-0.22523719,7.2808475,-7.7145834,1.1438195,0.33845595,-0.24817786,0.18274283,0.8890781,-5.2150164,4.7959414,-0.17711164,-0.24012302,-0.48424432,0.13096279,0
0.7200000000000004,12.481264361841216,-0.11354807977220521,-1.5179350889666692,0.11165777647758394,11.510768,-0.025385235,1.968338,-0.07964784,7.228505,-7.6663256,1.1420492,0.33801696,-0.24631092,0.18101771,0.8901166,-5.2534456,4.8555017,-0.17688583,-0.24012302,-0.48424432,0.13096279,0
0.7300000000000004,12.481264361841216,-0.11354807977220521,-1.5179350889666692,0.11165777647758394,11.510768,-0.025385235,1.968338,-0.07964784,7.175774,-7.6174664,1.1402985,0.33874416,-0.23963895,0.1780792,0.8922515,-5.2924747,4.916103,-0.17309316,-0.11354808,-1.517935,0.111657776,0
0.7400000000000004,12.481264361841216,-0.11354807977220521,-1.5179350889666692,0.11165777647758394,11.510768,-0.025385235,1.968338,-0.07964784,7.1226587,-7.568007,1.138591,0.33945167,-0.23295306,0.17513031,0.8943345,-5.330361,4.975622,-0.1682367,-0.11354808,-1.517935,0.111657776,0
0.7500000000000004,12.481264361841216,-0.11354807977220521,-1.5179350889666692,0.11165777647758394,11.510768,-0.025385235,1.968338,-0.07964784,7.069171,-7.5179577,1.1369374,0.3401394,-0.22625357,0.1721712,0.8963654,-5.367093,5.034047,-0.1623406,-0.11354808,-1.517935,0.111657776,0
0.7600000000000005,12.922641313644895,-0.03074836273149964,-1.691828909347391,0.09808796212317394,12.631646,0.17867652,1.0081158,0.048771087,7.0153213,-7.46733,1.1353478,0.34080732,-0.21954091,0.16920207,0.89834416,-5.4026623,5.091365,-0.15542914,-0.11354808,-1.517935,0.111657776,0
0.7700000000000005,12.922641313644895,-0.03074836273149964,-1.691828909347391,0.09808796212317394,12.631646,0.17867652,1.0081158,0.048771087,6.961116,-7.4161243,1.1338512,0.34175205,-0.2119033,0.16628265,0.9003622,-5.4381905,5.149534,-0.14374223,-0.030748364,-1.691829,0.09808796,0
0.7800000000000005,12.922641313644895,-0.03074836273149964,-1.691828909347391,0.09808796212317394,12.631646,0.17867652,1.0081158,0.048771087,6.906563,-7.364343,1.1324769,0.34267223,-0.20425047,0.1633513,0.90231556,-5.4722676,5.206486,-0.13096252,-0.030748364,-1.691829,0.09808796,0
0.7900000000000005,12.922641313644895,-0.03074836273149964,-1.691828909347391,0.09808796212317394,12.631646,0.17867652,1.0081158,0.048771087,6.8516765,-7.311999,1.1312357,0.3435678,-0.19658299,0.1604082,0.9042041,-5.504883,5.2622056,-0.11712202,-0.030748364,-1.691829,0.09808796,0
0.8000000000000005,13.169864701663025,0.008521129214506281,-1.3280732956863999,0.08599895657876128,13.119982,0.5942893,1.8779992,-0.11072403,6.7964706,-7.259104,1.130138,0.34443867,-0.18890138,0.1574536,0.9060277,-5.5360255,5.316678,-0.10225311,-0.030748364,-1.691829,0.09808796,0
0.8100000000000005,13.169864701663025,0.008521129214506281,-1.3280732956863999,0.08599895657876128,13.119982,0.5942893,1.8779992,-0.11072403,6.7409577,-7.2056646,1.1292046,0.34509504,-0.1827985,0.15528277,0.90740335,-5.566364,5.371023,-0.08429078,0.008521129,-1.3280733,0.08599896,0
0.8200000000000005,13.169864701663025,0.008521129214506281,-1.3280732956863999,0.08599895657876128,13.119982,0.5942893,1.8779992,-0.11072403,6.6851473,-7.1516867,1.1284548,0.34573615,-0.17668754,0.15310505,0.9087389,-5.59548,5.4243813,-0.06555991,0.008521129,-1.3280733,0.08599896,0
0.8300000000000005,13.169864701663025,0.008521129214506281,-1.3280732956863999,0.08599895657876128,13.119982,0.5942893,1.8779992,-0.11072403,6.6290517,-7.09718,1.1278961,0.34636194,-0.17056873,0.15092055,0.9100342,-5.6233673,5.4767447,-0.046081353,0.008521129,-1.3280733,0.08599896,0
0.8400000000000005,13.169864701663025,0.008521129214506281,-1.3280732956863999,0.08599895657876128,13.48392,0.43205383,1.7733389,-0.099051535,6.572684,-7.042155,1.1275358,0.3469724,-0.16444238,0.14872937,0.91128916,-5.65002,5.528104,-0.025876086,0.008521129,-1.3280733,0.08599896,0
0.8500000000000005,13.169864701663025,0.008521129214506281,-1.3280732956863999,0.08599895657876128,13.48392,0.43205383,1.7733389,-0.099051535,6.516056,-6.9866214,1.127381,0.3475675,-0.15830876,0.14653161,0.9125038,-5.6754327,5.578451,-0.004965215,0.008521129,-1.3280733,0.08599896,0
0.8600000000000005,13.169864701663025,0.008521129214506281,-1.3280732956863999,0.08599895657876128,13.48392,0.43205383,1.7733389,-0.099051535,6.4591794,-6.930589,1.1274387,0.34814718,-0.15216814,0.14432734,0.913678,-5.6995997,5.6277795,0.016630027,0.008521129,-1.3280733,0.08599896,0
0.8700000000000006,13.169864701663025,0.008521129214506281,-1.3280732956863999,0.08599895657876128,13.48392,0.43205383,1.7733389,-0.099051535,6.4020677,-6.8740687,1.1277157,0.34871146,-0.14602077,0.1421167,0.9148118,-5.7225156,5.676081,0.038888287,0.008521129,-1.3280733,0.08599896,0
0.8800000000000006,13.273027355530965,0.019931544050768548,-0.908995497945899,0.07757388026820039,14.575693,0.04030886,1.2104223,-0.1346615,6.344733,-6.817071,1.1282185,0.3492603,-0.13986693,0.13989976,0.91590506,-5.7441754,5.7233486,0.061788093,0.008521129,-1.3280733,0.08599896,0
0.8900000000000006,13.273027355530965,0.019931544050768548,-0.908995497945899,0.07757388026820039,14.575693,0.04030886,1.2104223,-0.1346615,6.2871876,-6.7596035,1.1289581,0.3495512,-0.13561366,0.13845645,0.91665274,-5.7648797,5.770066,0.08618707,0.019931544,-0.9089955,0.07757388,0
0.9000000000000006,13.273027355530965,0.019931544050768548,-0.908995497945899,0.07757388026820039,14.575693,0.04030886,1.2104223,-0.1346615,6.229439,-6.701672,1.1299437,0.34983483,-0.13135757,0.13701026,0.91738135,-5.784699,5.816075,0.11099988,0.019931544,-0.9089955,0.07757388,0
0.9100000000000006,13.273027355530965,0.019931544050768548,-0.908995497945899,0.07757388026820039,14.575693,0.04030886,1.2104223,-0.1346615,6.1714964,-6.6432843,1.1311795,0.35011116,-0.12709874,0.13556121,0.9180909,-5.8036313,5.8613725,0.1362162,0.019931544,-0.9089955,0.07757388,0
0.9200000000000006,13.201316953442397,0.020294457025894296,-0.7255683186125685,0.06948597057132234,15.045507,-0.048750732,1.1556973,-0.07914525,6.113369,-6.584447,1.1326692,0.3503802,-0.12283726,0.13410935,0.91878134,-5.8216743,5.905955,0.16182567,0.019931544,-0.9089955,0.07757388,0
0.9300000000000006,13.201316953442397,0.020294457025894296,-0.7255683186125685,0.06948597057132234,15.045507,-0.048750732,1.1556973,-0.07914525,6.055066,-6.5251684,1.1344138,0.35055766,-0.11942111,0.13297325,0.919329,-5.838799,5.9496384,0.18711886,0.020294458,-0.7255683,0.06948597,0
0.9400000000000006,13.201316953442397,0.020294457025894296,-0.7255683186125685,0.06948597057132234,15.045507,-0.048750732,1.1556973,-0.07914525,5.9965954,-6.465456,1.1364127,0.35073045,-0.11600337,0.13183539,0.9198644,-5.855211,5.992755,0.21270818,0.020294458,-0.7255683,0.06948597,0
0.9500000000000006,13.201316953442397,0.020294457025894296,-0.7255683186125685,0.06948597057132234,15.045507,-0.048750732,1.1556973,-0.07914525,5.9379644,-6.4053154,1.1386689,0.35089856,-0.11258409,0.13069576,0.9203876,-5.870908,6.035302,0.238587,0.020294458,-0.7255683,0.06948597,0
0.9600000000000006,12.913924218818263,0.016758476136199976,-0.5262308037316356,0.06572735953291317,14.084024,-0.2194638,0.7316944,0.11740965,5.8791804,-6.3447523,1.1411854,0.35106203,-0.109163314,0.12955439,0.9208986,-5.8858895,6.077278,0.2647487,0.020294458,-0.7255683,0.06948597,0
0.9700000000000006,12.913924218818263,0.016758476136199976,-0.5262308037316356,0.06572735953291317,14.084024,-0.2194638,0.7316944,0.11740965,5.8202515,-6.2837763,1.1439512,0.3511082,-0.10666791,0.12874328,0.9212871,-5.899915,6.117839,0.28844783,0.016758475,-0.5262308,0.06572736,0
0.9800000000000006,12.913924218818263,0.016758476136199976,-0.5262308037316356,0.06572735953291317,14.084024,-0.2194638,0.7316944,0.11740965,5.761184,-6.222397,1.146955,0.35115188,-0.10417176,0.12793125,0.9216691,-5.9134297,6.157994,0.31233886,0.016758475,-0.5262308,0.06572736,0
0.9900000000000007,12.913924218818263,0.016758476136199976,-0.5262308037316356,0.06572735953291317,14.084024,-0.2194638,0.7316944,0.11740965,5.701985,-6.160618,1.1501986,0.35119307,-0.10167487,0.12711833,0.92204463,-5.926433,6.197743,0.33641836,0.016758475,-0.5262308,0.06572736,0
1.0000000000000007,12.384373978608675,-0.010753550987364989,-0.778304144131814,0.06496002293951794,13.568003,-0.39117894,0.055696316,0.20211214,5.6426578,-6.098443,1.153684,0.3512318,-0.09917726,0.12630452,0.92241365,-5.938924,6.2370853,0.36068285,0.016758475,-0.5262308,0.06572736,0
1.0100000000000007,12.384373978608675,-0.010753550987364989,-0.778304144131814,0.06496002293951794,13.568003,-0.39117894,0.055696316,0.20211214,5.5832105,-6.0358853,1.1573879,0.35141572,-0.09556479,0.12491936,0.92291343,-5.9503326,6.2743416,0.3801372,-0.010753551,-0.77830416,0.064960025,0
1.0200000000000007,12.384373978608675,-0.010753550987364989,-0.778304144131814,0.06496002293951794,13.568003,-0.39117894,0.055696316,0.20211214,5.5236535,-5.972958,1.1612875,0.35159427,-0.091950856,0.12353229,0.92339915,-5.961043,6.310986,0.39984927,-0.010753551,-0.77830416,0.064960025,0
1.0300000000000007,12.384373978608675,-0.010753550987364989,-0.778304144131814,0.06496002293951794,13.568003,-0.39117894,0.055696316,0.20211214,5.4639926,-5.9096675,1.1653858,0.35176745,-0.08833552,0.12214333,0.9238708,-5.9710526,6.347017,0.41981184,-0.010753551,-0.77830416,0.064960025,0
1.0400000000000007,12.384373978608675,-0.010753550987364989,-0.778304144131814,0.06496002293951794,13.014478,-0.21035454,-0.31281304,0.15638512,5.4042354,-5.8460197,1.1696848,0.35193527,-0.084718846,0.120752506,0.9243283,-5.9803605,6.3824325,0.44001767,-0.010753551,-0.77830416,0.064960025,1
1.0500000000000007,12.384373978608675,-0.010753550987364989,-0.778304144131814,0.06496002293951794,13.014478,-0.21035454,-0.31281304,0.15638512,5.344385,-5.7820115,1.174217,0.3513115,-0.0835487,0.119295865,0.9248612,-5.989638,6.419075,0.46645245,-0.21035454,-0.31281304,0.15638512,1
1.0600000000000007,12.384373978608675,-0.010753550987364989,-0.778304144131814,0.06496002293951794,13.014478,-0.21035454,-0.31281304,0.15638512,5.284443,-5.7176394,1.1790143,0.3506863,-0.0823782,0.11783873,0.92539006,-5.998798,6.4552627,0.49302885,-0.21035454,-0.31281304,0.15638512,1
1.0700000000000007,12.384373978608675,-0.010753550987364989,-0.778304144131814,0.06496002293951794,13.014478,-0.21035454,-0.31281304,0.15638512,5.2244096,-5.6529074,1.184078,0.3500597,-0.081207365,0.1163811,0.92591506,-6.0078397,6.4909954,0.51974505,-0.21035454,-0.31281304,0.15638512,1
1.0800000000000007,11.802441115723528,-0.007043386834038699,-0.9053470886103082,0.06556411353287177,12.213953,0.22372785,-0.6494873,0.16842145,5.1642866,-5.587821,1.1894096,0.3494316,-0.080036186,0.11492299,0.92643625,-6.016762,6.5262723,0.54659927,-0.21035454,-0.31281304,0.15638512,1
1.0900000000000007,11.802441115723528,-0.007043386834038699,-0.9053470886103082,0.06556411353287177,12.213953,0.22372785,-0.6494873,0.16842145,5.1040783,-5.522394,1.1949719,0.349112,-0.07653949,0.11489125,0.9268561,-6.0247755,6.559,0.565899,0.22372785,-0.6494873,0.16842145,1
1.1000000000000008,11.802441115723528,-0.007043386834038699,-0.9053470886103082,0.06556411353287177,12.213953,0.22372785,-0.6494873,0.16842145,5.0437937,-5.456642,1.2007279,0.34878805,-0.07304183,0.11485808,0.9272643,-6.032017,6.5914273,0.5853321,0.22372785,-0.6494873,0.16842145,1
1.1100000000000008,11.802441115723528,-0.007043386834038699,-0.9053470886103082,0.06556411353287177,12.213953,0.22372785,-0.6494873,0.16842145,4.9834404,-5.390567,1.2066789,0.3484597,-0.06954326,0.11482348,0.92766094,-6.038486,6.6235547,0.6048926,0.22372785,-0.6494873,0.16842145,1
1.1200000000000008,11.033801491541002,-0.03270595589231472,-1.1499088033992866,0.058130117845333944,11.676024,0.65685374,-1.5598918,0.08314651,4.9230266,-5.324172,1.2128261,0.348127,-0.066043824,0.11478745,0.928046,-6.0441804,6.6553817,0.6245747,0.22372785,-0.6494873,0.16842145,1
1.1300000000000008,11.033801491541002,-0.03270595589231472,-1.1499088033992866,0.058130117845333944,11.676024,0.65685374,-1.5598918,0.08314651,4.862562,-5.2574677,1.2191449,0.3488409,-0.057612233,0.11514354,0.92829555,-6.04846,6.6854057,0.6392262,0.65685374,-1.5598918,0.08314651,1
1.1400000000000008,11.033801491541002,-0.03270595589231472,-1.1499088033992866,0.058130117845333944,11.676024,0.65685374,-1.5598918,0.08314651,4.8020644,-5.190466,1.2256113,0.3495297,-0.04917651,0.11549136,0.9284784,-6.0508666,6.714835,0.65408975,0.65685374,-1.5598918,0.08314651,1
1.1500000000000008,11.033801491541002,-0.03270595589231472,-1.1499088033992866,0.058130117845333944,11.676024,0.65685374,-1.5598918,0.08314651,4.7415514,-5.123173,1.2322273,0.35019344,-0.040737253,0.11583088,0.92859465,-6.0513997,6.7436633,0.6691326,0.65685374,-1.5598918,0.08314651,1
1.1600000000000008,10.360277814037234,-0.32983736557570864,-0.9811116351946612,0.05464442950512428,11.692271,0.5951733,-1.4973992,-0.06199008,4.681043,-5.055595,1.2389945,0.35083202,-0.03229507,0.11616209,0.92864424,-6.050058,6.7718825,0.68432206,0.65685374,-1.5598918,0.08314651,0
1.1700000000000008,10.360277814037234,-0.32983736557570864,-0.9811116351946612,0.05464442950512428,11.692271,0.5951733,-1.4973992,-0.06199008,4.6205544,-4.9877534,1.2458503,0.35109016,-0.028285988,0.112916835,0.9290776,-6.047626,6.796243,0.68689024,-0.32983735,-0.98111165,0.05464443,0
1.1800000000000008,10.360277814037234,-0.32983736557570864,-0.9811116351946612,0.05464442950512428,11.692271,0.5951733,-1.4973992,-0.06199008,4.560093,-4.919673,1.2527329,0.35133886,-0.024276143,0.109668545,0.92948604,-6.044655,6.819699,0.6896587,-0.32983735,-0.98111165,0.05464443,0
1.1900000000000008,10.360277814037234,-0.32983736557570864,-0.9811116351946612,0.05464442950512428,11.692271,0.5951733,-1.4973992,-0.06199008,4.499664,-4.851362,1.2596442,0.35157812,-0.020265648,0.106417306,0.9298695,-6.041144,6.8422465,0.6926166,-0.32983735,-0.98111165,0.05464443,0
1.2000000000000008,9.979212270766707,-0.4313381103543123,-0.5507516151565779,0.0700705303799717,10.95117,-0.012041303,-1.0898343,-0.03702944,4.4392724,-4.7828307,1.2665858,0.35180795,-0.016254606,0.103163205,0.930228,-6.037094,6.8638854,0.695753,-0.32983735,-0.98111165,0.05464443,1
1.2100000000000009,9.979212270766707,-0.4313381103543123,-0.5507516151565779,0.0700705303799717,10.95117,-0.012041303,-1.0898343,-0.03702944,4.378926,-4.7140813,1.2735887,0.35253608,-0.011225698,0.101185605,0.93024385,-6.0321236,6.885861,0.70482135,-0.012041303,-1.0898343,-0.03702944,1
1.2200000000000009,9.979212270766707,-0.4313381103543123,-0.5507516151565779,0.0700705303799717,10.95117,-0.012041303,-1.0898343,-0.03702944,4.318633,-4.645116,1.2806827,0.35325372,-0.006196457,0.09920499,0.93023205,-6.026265,6.9070473,0.7140038,-0.012041303,-1.0898343,-0.03702944,1
1.2300000000000009,9.979212270766707,-0.4313381103543123,-0.5507516151565779,0.0700705303799717,10.95117,-0.012041303,-1.0898343,-0.03702944,4.258404,-4.575943,1.2878691,0.35396087,-0.001167031,0.097221434,0.9301926,-6.0195193,6.9274406,0.7232876,-0.012041303,-1.0898343,-0.03702944,1
1.2400000000000009,9.979212270766707,-0.4313381103543123,-0.5507516151565779,0.0700705303799717,11.223641,-0.116725415,-0.73480105,0.011578146,4.198246,-4.50657,1.2951487,0.35465753,0.0038624296,0.09523499,0.9301255,-6.011888,6.94704,0.73266006,-0.012041303,-1.0898343,-0.03702944,0
1.2500000000000009,9.979212270766707,-0.4313381103543123,-0.5507516151565779,0.0700705303799717,11.223641,-0.116725415,-0.73480105,0.011578146,4.1381645,-4.437013,1.3024749,0.35460004,0.005692222,0.09225042,0.93043876,-6.004382,6.964192,0.73258,-0.4313381,-0.5507516,0.07007053,0
1.260000000000001,9.979212270766707,-0.4313381103543123,-0.5507516151565779,0.0700705303799717,11.223641,-0.116725415,-0.73480105,0.011578146,4.0781593,-4.3672886,1.3098006,0.35453817,0.007521944,0.089264706,0.9307406,-5.9967484,6.9806657,0.73260623,-0.4313381,-0.5507516,0.07007053,0
1.270000000000001,9.979212270766707,-0.4313381103543123,-0.5507516151565779,0.0700705303799717,11.223641,-0.116725415,-0.73480105,0.011578146,4.0182304,-4.297403,1.3171272,0.35447195,0.009351574,0.0862779,0.9310308,-5.988987,6.9964614,0.7327341,-0.4313381,-0.5507516,0.07007053,0
1.280000000000001,9.400847217536123,-0.5491437892015709,-0.4512047077005501,0.10643668243858699,11.883627,-0.11978969,-0.050641216,0.030128185,3.95838,-4.2273617,1.3244556,0.35440132,0.011181087,0.083290026,0.9313095,-5.981097,7.0115767,0.7329586,-0.4313381,-0.5507516,0.07007053,0
1.290000000000001,9.400847217536123,-0.5491437892015709,-0.4512047077005501,0.10643668243858699,11.883627,-0.11978969,-0.050641216,0.030128185,3.8986063,-4.1571774,1.3317581,0.354122,0.0123533085,0.07992689,0.9316956,-5.9735985,7.0251684,0.72757643,-0.5491438,-0.45120472,0.106436685,0
1.300000000000001,9.400847217536123,-0.5491437892015709,-0.4512047077005501,0.10643668243858699,11.883627,-0.11978969,-0.050641216,0.030128185,3.8389077,-4.08686,1.3390074,0.35383812,0.01352537,0.07656273,0.9320696,-5.9661207,7.038099,0.72229046,-0.5491438,-0.45120472,0.106436685,0
1.310000000000001,9.400847217536123,-0.5491437892015709,-0.4512047077005501,0.10643668243858699,11.883627,-0.11978969,-0.050641216,0.030128185,3.7792838,-4.016418,1.3462042,0.3535497,0.014697256,0.07319757,0.9324316,-5.958665,7.050368,0.717096,-0.5491438,-0.45120472,0.106436685,0
1.320000000000001,8.985289360279335,-0.5279871751228856,-1.1108397548055702,0.14120005534080848,11.646026,-0.061865304,-0.3251409,0.00088471547,3.7197344,-3.9458559,1.3533494,0.35325667,0.015868952,0.069831476,0.9327816,-5.9512305,7.061975,0.7119883,-0.5491438,-0.45120472,0.106436685,0
1.330000000000001,8.985289360279335,-0.5279871751228856,-1.1108397548055702,0.14120005534080848,11.646026,-0.061865304,-0.3251409,0.00088471547,3.660258,-3.8751838,1.3604236,0.35302112,0.020166202,0.065394424,0.9331093,-5.9439735,7.0722938,0.7028507,-0.5279872,-1.1108397,0.14120005,0
1.340000000000001,8.985289360279335,-0.5279871751228856,-1.1108397548055702,0.14120005534080848,11.646026,-0.061865304,-0.3251409,0.00088471547,3.6008565,-3.8044136,1.3674066,0.35277203,0.024462678,0.06095487,0.9334012,-5.9362793,7.0816,0.69378793,-0.5279872,-1.1108397,0.14120005,0
1.350000000000001,8.985289360279335,-0.5279871751228856,-1.1108397548055702,0.14120005534080848,11.646026,-0.061865304,-0.3251409,0.00088471547,3.541534,-3.7335553,1.3742995,0.35250944,0.028758215,0.05651297,0.9336574,-5.928148,7.089894,0.68478644,-0.5279872,-1.1108397,0.14120005,0
1.360000000000001,8.616599839682273,-0.4434752492448921,-1.4405618732539929,0.18075783129879058,11.328366,-0.06411049,-0.77103364,-0.030148204,3.482295,-3.662619,1.3811027,0.35223332,0.033052653,0.052068908,0.9338778,-5.9195786,7.097173,0.67583257,-0.5279872,-1.1108397,0.14120005,0
1.370000000000001,8.616599839682273,-0.4434752492448921,-1.4405618732539929,0.18075783129879058,11.328366,-0.06411049,-0.77103364,-0.030148204,3.4231424,-3.5916166,1.387798,0.35182747,0.039044213,0.04742975,0.9340466,-5.9108434,7.1031327,0.6632466,-0.44347525,-1.4405619,0.18075784,0
1.380000000000001,8.616599839682273,-0.4434752492448921,-1.4405618732539929,0.18075783129879058,11.328366,-0.06411049,-0.77103364,-0.030148204,3.3640804,-3.52056,1.3943673,0.35140136,0.045033522,0.04278786,0.93416166,-5.9014277,7.107986,0.65065825,-0.44347525,-1.4405619,0.18075784,0
1.390000000000001,8.616599839682273,-0.4434752492448921,-1.4405618732539929,0.18075783129879058,11.328366,-0.06411049,-0.77103364,-0.030148204,3.305116,-3.4494605,1.4008108,0.35095498,0.05102024,0.03814351,0.9342228,-5.8913317,7.111733,0.63804793,-0.44347525,-1.4405619,0.18075784,0
1.400000000000001,8.423792352190377,-0.37805251930284545,-2.177035395319609,0.226430795835874,10.648431,0.10816243,-1.378927,-0.28494972,3.246256,-3.378329,1.4071281,0.35048842,0.057004012,0.03349696,0.9342302,-5.880556,7.1143737,0.6253959,-0.44347525,-1.4405619,0.18075784,0
1.410000000000001,8.423792352190377,-0.37805251930284545,-2.177035395319609,0.226430795835874,10.648431,0.10816243,-1.378927,-0.28494972,3.1875064,-3.3071773,1.413309,0.3498815,0.066544965,0.027849404,0.9340122,-5.8691697,7.1157374,0.61074793,-0.37805253,-2.1770353,0.22643079,0
1.420000000000001,8.423792352190377,-0.37805251930284545,-2.177035395319609,0.226430795835874,10.648431,0.10816243,-1.378927,-0.28494972,3.1288764,-3.2360191,1.4193426,0.34923142,0.07607771,0.022198413,0.933679,-5.8566213,7.1156554,0.5959443,-0.37805253,-2.1770353,0.22643079,0
1.430000000000001,8.423792352190377,-0.37805251930284545,-2.177035395319609,0.226430795835874,10.648431,0.10816243,-1.378927,-0.28494972,3.0703776,-3.1648688,1.4252273,0.34853828,0.08560107,0.016544685,0.93323064,-5.8429136,7.1141305,0.5809438,-0.37805253,-2.1770353,0.22643079,0
1.440000000000001,8.423792352190377,-0.37805251930284545,-2.177035395319609,0.226430795835874,10.436444,0.16478088,-1.5966982,-0.3665375,3.012022,-3.0937412,1.4309608,0.34780216,0.09511387,0.010888915,0.9326672,-5.8280506,7.1111655,0.56570554,-0.37805253,-2.1770353,0.22643079,0
1.450000000000001,8.423792352190377,-0.37805251930284545,-2.177035395319609,0.226430795835874,10.436444,0.16478088,-1.5966982,-0.3665375,2.9538207,-3.0226505,1.4365404,0.34702313,0.10461495,0.0052318014,0.93198866,-5.812036,7.1067657,0.5501884,-0.37805253,-2.1770353,0.22643079,0
1.460000000000001,8.423792352190377,-0.37805251930284545,-2.177035395319609,0.226430795835874,10.436444,0.16478088,-1.5966982,-0.3665375,2.8957853,-2.9516108,1.4419633,0.34620127,0.11410312,-0.00042595656,0.9311952,-5.7948737,7.100935,0.53435165,-0.37805253,-2.1770353,0.22643079,0
1.470000000000001,8.423792352190377,-0.37805251930284545,-2.177035395319609,0.226430795835874,10.436444,0.16478088,-1.5966982,-0.3665375,2.8379273,-2.8806365,1.4472262,0.34533674,0.12357722,-0.0060836617,0.93028694,-5.7765703,7.09368,0.5181547,-0.37805253,-2.1770353,0.22643079,0
1.480000000000001,8.239992328012628,-0.3147888867897526,-0.5768777158441586,0.25420921160231497,10.880243,0.26618758,-1.4525813,-0.45869046,2.7802577,-2.809742,1.452325,0.3444296,0.13303608,-0.0117406165,0.9292639,-5.7571306,7.0850058,0.501557,-0.37805253,-2.1770353,0.22643079,0
1.490000000000001,8.239992328012628,-0.3147888867897526,-0.5768777158441586,0.25420921160231497,10.880243,0.26618758,-1.4525813,-0.45869046,2.722785,-2.7389393,1.4572474,0.34342188,0.13515857,-0.014365712,0.9292937,-5.737356,7.075469,0.48287833,-0.31478888,-0.5768777,0.25420922,0
1.500000000000001,8.239992328012628,-0.3147888867897526,-0.5768777158441586,0.25420921160231497,10.880243,0.26618758,-1.4525813,-0.45869046,2.6655111,-2.6682343,1.4619824,0.34240985,0.13727939,-0.016990628,0.92931205,-5.7174025,7.0654325,0.46409318,-0.31478888,-0.5768777,0.25420922,0
1.5100000000000011,8.239992328012628,-0.3147888867897526,-0.5768777158441586,0.25420921160231497,10.880243,0.26618758,-1.4525813,-0.45869046,2.6084375,-2.5976322,1.4665288,0.3413936,0.1393985,-0.019615334,0.9293187,-5.6972694,7.054897,0.44519785,-0.31478888,-0.5768777,0.25420922,0
1.5200000000000011,8.199211343360856,-0.2552083358892361,0.6071146090122137,0.2806341438600893,11.352903,0.4065217,-1.3654711,-0.60654587,2.5515661,-2.527138,1.4708859,0.3403731,0.14151588,-0.022239795,0.92931396,-5.6769567,7.043864,0.42618874,-0.31478888,-0.5768777,0.25420922,0
1.5300000000000011,8.199211343360856,-0.2552083358892361,0.6071146090122137,0.2806341438600893,11.352903,0.4065217,-1.3654711,-0.60654587,2.4948976,-2.4567559,1.4750506,0.33931506,0.13822845,-0.022590838,0.9301868,-5.656818,7.0326324,0.4067715,-0.25520834,0.6071146,0.28063414,0
1.5400000000000011,8.199211343360856,-0.2552083358892361,0.6071146090122137,0.2806341438600893,11.352903,0.4065217,-1.3654711,-0.60654587,2.438428,-2.3864849,1.4790219,0.3382526,0.13493924,-0.022941593,0.93104774,-5.637177,7.0215516,0.3875012,-0.25520834,0.6071146,0.28063414,0
1.5500000000000012,8.199211343360856,-0.2552083358892361,0.6071146090122137,0.2806341438600893,11.352903,0.4065217,-1.3654711,-0.60654587,2.3821523,-2.3163242,1.4828011,0.33718586,0.13164832,-0.023292053,0.93189675,-5.618035,7.0106196,0.3683743,-0.25520834,0.6071146,0.28063414,0
1.5600000000000012,8.13720612371994,-0.21995055466759506,2.036433512429298,0.28524485574925645,11.871134,0.45217243,-1.4912876,-0.7022887,2.3260655,-2.246272,1.4863898,0.33611482,0.12835567,-0.023642216,0.93273383,-5.5993924,6.9998364,0.3493873,-0.25520834,0.6071146,0.28063414,0
1.5700000000000012,8.13720612371994,-0.21995055466759506,2.036433512429298,0.28524485574925645,11.871134,0.45217243,-1.4912876,-0.7022887,2.2701612,-2.1763258,1.4897866,0.33514848,0.11844837,-0.021427453,0.93444425,-5.581706,6.9895606,0.33004504,-0.21995056,2.0364335,0.28524485,0
1.5800000000000012,8.13720612371994,-0.21995055466759506,2.036433512429298,0.28524485574925645,11.871134,0.45217243,-1.4912876,-0.7022887,2.2144268,-2.106478,1.4929922,0.33414635,0.108528405,-0.019210402,0.93605477,-5.5653696,6.9801755,0.3111046,-0.21995056,2.0364335,0.28524485,0
1.5900000000000012,8.13720612371994,-0.21995055466759506,2.036433512429298,0.28524485574925645,11.871134,0.45217243,-1.4912876,-0.7022887,2.158849,-2.0367193,1.49601,0.33310845,0.09859683,-0.016991295,0.93756527,-5.5503926,6.971681,0.29253277,-0.21995056,2.0364335,0.28524485,0
1.6000000000000012,8.18711002832709,-0.225635360612438,2.212871347452137,0.28497087749162414,11.347639,0.17557076,-1.4178225,-0.6927931,2.103414,-1.9670414,1.4988439,0.33203492,0.08865472,-0.01477037,0.93897545,-5.5367837,6.964077,0.27429628,-0.21995056,2.0364335,0.28524485,0
1.6100000000000012,8.18711002832709,-0.225635360612438,2.212871347452137,0.28497087749162414,11.347639,0.17557076,-1.4178225,-0.6927931,2.0481088,-1.897435,1.5014994,0.33093962,0.077864565,-0.012281391,0.94035375,-5.5245194,6.9573536,0.25686228,-0.22563536,2.2128713,0.28497088,0
1.6200000000000012,8.18711002832709,-0.225635360612438,2.212871347452137,0.28497087749162414,11.347639,0.17557076,-1.4178225,-0.6927931,1.9929184,-1.8278909,1.5039821,0.3298027,0.06706463,-0.009790868,0.9416138,-5.513762,6.95161,0.23971854,-0.22563536,2.2128713,0.28497088,0
1.6300000000000012,8.18711002832709,-0.225635360612438,2.212871347452137,0.28497087749162414,11.347639,0.17557076,-1.4178225,-0.6927931,1.9378282,-1.7583995,1.5062946,0.3286243,0.05625626,-0.0072991136,0.94275546,-5.50452,6.9468455,0.22282508,-0.22563536,2.2128713,0.28497088,0
1.6400000000000012,8.18711002832709,-0.225635360612438,2.212871347452137,0.28497087749162414,10.510416,-0.11982891,-1.4582833,-0.4356658,1.8828229,-1.6889508,1.5084393,0.32740462,0.045440823,-0.004806442,0.94377863,-5.496801,6.9430575,0.20614177,-0.22563536,2.2128713,0.28497088,0
1.6500000000000012,8.18711002832709,-0.225635360612438,2.212871347452137,0.28497087749162414,10.510416,-0.11982891,-1.4582833,-0.4356658,1.8278869,-1.6195351,1.510418,0.32614374,0.03461967,-0.0023131664,0.94468313,-5.4906106,6.9402432,0.1896284,-0.22563536,2.2128713,0.28497088,0
1.6600000000000013,8.18711002832709,-0.225635360612438,2.212871347452137,0.28497087749162414,10.510416,-0.11982891,-1.4582833,-0.4356658,1.7730052,-1.5501425,1.5122324,0.3248419,0.023794165,0.00018039986,0.9454689,-5.4859557,6.9384,0.17324468,-0.22563536,2.2128713,0.28497088,0
1.6700000000000013,8.18711002832709,-0.225635360612438,2.212871347452137,0.28497087749162414,10.510416,-0.11982891,-1.4582833,-0.4356658,1.7181625,-1.4807636,1.5138832,0.32349917,0.012965668,0.0026739433,0.94613576,-5.482841,6.9375243,0.15695025,-0.22563536,2.2128713,0.28497088,0
1.6800000000000013,8.301266576065418,-0.22804484582442716,1.8173727792245271,0.2810101801234698,9.643222,0.1334975,-1.42655,-0.33001488,1.6633432,-1.4113886,1.5153714,0.3221158,0.0021355413,0.005167151,0.9466837,-5.481271,6.937612,0.14070465,-0.22563536,2.2128713,0.28497088,0
1.6900000000000013,8.301266576065418,-0.22804484582442716,1.8173727792245271,0.2810101801234698,9.643222,0.1334975,-1.42655,-0.33001488,1.6085321,-1.3420082,1.516703,0.32072738,-0.006826833,0.0070114927,0.94712096,-5.4811506,6.9385986,0.12561026,-0.22804485,1.8173728,0.28101018,0
1.7000000000000013,8.301266576065418,-0.22804484582442716,1.8173727792245271,0.2810101801234698,9.643222,0.1334975,-1.42655,-0.33001488,1.5537156,-1.2726141,1.5178835,0.31931138,-0.015788622,0.008855233,0.9474769,-5.482343,6.9403515,0.11049476,-0.22804485,1.8173728,0.28101018,0
1.7100000000000013,8.301266576065418,-0.22804484582442716,1.8173727792245271,0.2810101801234698,9.643222,0.1334975,-1.42655,-0.33001488,1.4988806,-1.2031986,1.5189128,0.31786796,-0.024749054,0.010698212,0.9477515,-5.4848504,6.942867,0.095330335,-0.22804485,1.8173728,0.28101018,0
1.7200000000000013,8.514764928228129,-0.258050198360215,1.2201249129907112,0.27946574557739245,9.511637,0.15412393,-1.3536421,-0.26140636,1.444014,-1.1337541,1.51979,0.31639725,-0.03370736,0.012540275,0.9479448,-5.4886737,6.94614,0.08008921,-0.22804485,1.8173728,0.28101018,0
1.7300000000000013,8.514764928228129,-0.258050198360215,1.2201249129907112,0.27946574557739245,9.511637,0.15412393,-1.3536421,-0.26140636,1.3891023,-1.064273,1.520525,0.31494617,-0.039880395,0.013294249,0.9481781,-5.4937997,6.9501476,0.066887364,-0.2580502,1.220125,0.27946573,0
1.7400000000000013,8.514764928228129,-0.258050198360215,1.2201249129907112,0.27946574557739245,9.511637,0.15412393,-1.3536421,-0.26140636,1.3341347,-0.9947497,1.5211275,0.31348225,-0.0460518,0.014047679,0.94837266,-5.499886,6.9545994,0.05359991,-0.2580502,1.220125,0.27946573,0
1.7500000000000013,8.514764928228129,-0.258050198360215,1.2201249129907112,0.27946574557739245,9.511637,0.15412393,-1.3536421,-0.26140636,1.2791014,-0.9251796,1.5215967,0.31200555,-0.052221324,0.014800535,0.9485285,-5.5069337,6.9594913,0.040213708,-0.2580502,1.220125,0.27946573,0
1.7600000000000013,8.826000834809495,-0.2646613361964674,0.7049625812130491,0.28067342842274756,9.909961,0.092282325,-1.2879554,-0.2897498,1.2239926,-0.8555584,1.5219314,0.31051612,-0.058388714,0.015552786,0.94864565,-5.5149426,6.9648194,0.026715642,-0.2580502,1.220125,0.27946573,0
1.7700000000000014,8.826000834809495,-0.2646613361964674,0.7049625812130491,0.28067342842274756,9.909961,0.092282325,-1.2879554,-0.2897498,1.168798,-0.785881,1.5221461,0.30905023,-0.06212111,0.015473763,0.9488886,-5.524106,6.9706907,0.016201926,-0.26466134,0.70496255,0.2806734,0
1.7800000000000014,8.826000834809495,-0.2646613361964674,0.7049625812130491,0.28067342842274756,9.909961,0.092282325,-1.2879554,-0.2897498,1.1135083,-0.71614397,1.5222552,0.30757937,-0.06585251,0.015394491,0.9491161,-5.5339055,6.976737,0.0056074085,-0.26466134,0.70496255,0.2806734,0
1.7900000000000014,8.826000834809495,-0.2646613361964674,0.7049625812130491,0.28067342842274756,9.909961,0.092282325,-1.2879554,-0.2897498,1.0581176,-0.6463456,1.522258,0.30610353,-0.06958284,0.01531497,0.9493283,-5.544341,6.982956,-0.005072804,-0.26466134,0.70496255,0.2806734,0
1.8000000000000014,9.149059054132605,-0.3045170512807831,0.16374275519578155,0.29185047586947355,9.687822,0.3670707,-1.3221554,-0.18323678,1.0026193,-0.5764842,1.5221535,0.30462274,-0.07331205,0.015235202,0.94952524,-5.555413,6.989346,-0.015843602,-0.26466134,0.70496255,0.2806734,0
1.8100000000000014,9.149059054132605,-0.3045170512807831,0.16374275519578155,0.29185047586947355,9.687822,0.3670707,-1.3221554,-0.18323678,0.9470054,-0.5065572,1.5219569,0.30311227,-0.07453083,0.01414581,0.9499304,-5.567407,6.9960265,-0.02348904,-0.30451706,0.16374275,0.29185048,0
1.8200000000000014,9.149059054132605,-0.3045170512807831,0.16374275519578155,0.29185047586947355,9.687822,0.3670707,-1.3221554,-0.18323678,0.89127016,-0.43656418,1.5216837,0.30160025,-0.07574923,0.013056346,0.95033085,-5.5796833,7.002566,-0.031161956,-0.30451706,0.16374275,0.29185048,0
1.8300000000000014,9.149059054132605,-0.3045170512807831,0.16374275519578155,0.29185047586947355,9.687822,0.3670707,-1.3221554,-0.18323678,0.8354108,-0.36650646,1.5213336,0.30008668,-0.07696725,0.011966815,0.9507264,-5.5922403,7.008963,-0.038863316,-0.30451706,0.16374275,0.29185048,0
1.8400000000000014,9.149059054132605,-0.3045170512807831,0.16374275519578155,0.29185047586947355,9.752839,0.46831813,-1.0934261,-0.09048146,0.7794244,-0.2963854,1.5209063,0.2985716,-0.07818487,0.010877224,0.95111704,-5.605078,7.0152173,-0.04659408,-0.30451706,0.16374275,0.29185048,0
1.8500000000000014,9.149059054132605,-0.3045170512807831,0.16374275519578155,0.29185047586947355,9.752839,0.46831813,-1.0934261,-0.09048146,0.72330827,-0.22620255,1.5204016,0.29705495,-0.07940209,0.009787576,0.9515029,-5.6181955,7.0213275,-0.05435522,-0.30451706,0.16374275,0.29185048,0
1.8600000000000014,9.149059054132605,-0.3045170512807831,0.16374275519578155,0.29185047586947355,9.752839,0.46831813,-1.0934261,-0.09048146,0.66705954,-0.15595934,1.5198191,0.2955368,-0.0806189,0.008697879,0.9518838,-5.6315928,7.0272927,-0.062147707,-0.30451706,0.16374275,0.29185048,0
1.8700000000000014,9.149059054132605,-0.3045170512807831,0.16374275519578155,0.29185047586947355,9.752839,0.46831813,-1.0934261,-0.09048146,0.6106755,-0.0856572,1.5191585,0.29401714,-0.0818353,0.0076081366,0.9522599,-5.6452684,7.033113,-0.0699725,-0.30451706,0.16374275,0.29185048,0
1.8800000000000014,9.482340957271353,-0.3059059621445608,0.36210021919640756,0.2989418915155726,9.715766,0.3315514,-0.5036123,-0.041536983,0.5541533,-0.015297599,1.5184195,0.29249597,-0.08305128,0.006518355,0.95263106,-5.6592226,7.0387864,-0.07783055,-0.30451706,0.16374275,0.29185048,1
1.8900000000000015,9.482340957271353,-0.3059059621445608,0.36210021919640756,0.2989418915155726,9.715766,0.3315514,-0.5036123,-0.041536983,0.4974867,0.0551199,1.5176299,0.29284656,-0.08016859,0.0073437835,0.9527642,-5.6740084,7.044711,-0.08008772,0.3315514,-0.5036123,-0.041536983,1
1.9000000000000015,9.482340957271353,-0.3059059621445608,0.36210021919640756,0.2989418915155726,9.715766,0.3315514,-0.5036123,-0.041536983,0.4406751,0.12559661,1.5168182,0.29319447,-0.077285156,0.008169144,0.9528888,-5.6882157,7.0506306,-0.08225698,0.3315514,-0.5036123,-0.041536983,1
1.9100000000000015,9.482340957271353,-0.3059059621445608,0.36210021919640756,0.2989418915155726,9.715766,0.3315514,-0.5036123,-0.041536983,0.38372436,0.19613251,1.515985,0.29353973,-0.07440103,0.008994431,0.95300454,-5.7018437,7.0565443,-0.084341824,0.3315514,-0.5036123,-0.041536983,1
1.9200000000000015,9.785579947587369,-0.4700177297466287,0.2943916801134845,0.334953627147261,10.300365,0.23735884,-0.5059707,-0.055791315,0.32664025,0.2667275,1.5151315,0.2938823,-0.07151622,0.009819635,0.9531117,-5.714891,7.062451,-0.08634571,0.3315514,-0.5036123,-0.041536983,1
1.9300000000000015,9.785579947587369,-0.4700177297466287,0.2943916801134845,0.334953627147261,10.300365,0.23735884,-0.5059707,-0.055791315,0.2694247,0.33738324,1.5142872,0.29425675,-0.068758674,0.010187314,0.9531952,-5.7281275,7.0686755,-0.082486,0.23735884,-0.5059707,-0.055791315,1
1.9400000000000015,9.785579947587369,-0.4700177297466287,0.2943916801134845,0.334953627147261,10.300365,0.23735884,-0.5059707,-0.055791315,0.21207963,0.40810072,1.513482,0.29462886,-0.06600058,0.0105549125,0.95327127,-5.7408,7.0748105,-0.07854932,0.23735884,-0.5059707,-0.055791315,1
1.9500000000000015,9.785579947587369,-0.4700177297466287,0.2943916801134845,0.334953627147261,10.300365,0.23735884,-0.5059707,-0.055791315,0.15461062,0.47887912,1.5127164,0.29499865,-0.063241966,0.010922428,0.9533397,-5.7529097,7.0808554,-0.07453882,0.23735884,-0.5059707,-0.055791315,1
1.9600000000000015,9.951919665088742,-0.8184216693354796,0.8788970929359897,0.40667252890121625,10.513566,-0.39678225,-0.624947,0.18054026,0.097023346,0.5497175,1.5119914,0.2953661,-0.060482856,0.011289857,0.95340073,-5.764455,7.08681,-0.07045769,0.23735884,-0.5059707,-0.055791315,0
1.9700000000000015,9.951919665088742,-0.8184216693354796,0.8788970929359897,0.40667252890121625,10.513566,-0.39678225,-0.624947,0.18054026,0.03932344,0.6206139,1.5112901,0.29312447,-0.06585703,0.008809194,0.9537626,-5.7757087,7.09244,-0.06983785,-0.81842166,0.8788971,0.40667254,0
1.9800000000000015,9.951919665088742,-0.8184216693354796,0.8788970929359897,0.40667252890121625,10.513566,-0.39678225,-0.624947,0.18054026,-0.018494867,0.69156563,1.5105944,0.29087105,-0.07122855,0.006328176,0.9540861,-5.7881365,7.097884,-0.06934845,-0.81842166,0.8788971,0.40667254,0
1.9900000000000015,9.951919665088742,-0.8184216693354796,0.8788970929359897,0.40667252890121625,10.513566,-0.39678225,-0.624947,0.18054026,-0.076443315,0.76257086,1.5099028,0.28860593,-0.07659721,0.0038469036,0.9543713,-5.801735,7.103137,-0.06900332,-0.81842166,0.8788971,0.40667254,0
2.0000000000000013,,,,,9.962985,-0.34744784,-0.542008,0.12887996,-0.13453358,0.8336277,1.5092139,0.2863292,-0.081962794,0.0013654769,0.95461804,-5.816502,7.1081934,-0.06881632,-0.81842166,0.8788971,0.40667254,0
2.010000000000001,,,,,9.962985,-0.34744784,-0.542008,0.12887996,-0.1927782,0.90473413,1.5085335,0.28400397,-0.085387185,-0.0019337647,0.9550114,-5.8325553,7.1130195,-0.067283675,-0.8642319,0.4590507,0.41145694,0
2.020000000000001,,,,,9.962985,-0.34744784,-0.542008,0.12887996,-0.25118762,0.9758864,1.5078678,0.28167072,-0.08880916,-0.0052329516,0.9553779,-5.849464,7.1173654,-0.06587062,-0.8642319,0.4590507,0.41145694,0
2.0300000000000007,,,,,9.962985,-0.34744784,-0.542008,0.12887996,-0.30977044,1.0470797,1.5072156,0.27932954,-0.092228636,-0.008531991,0.95571744,-5.867225,7.1212273,-0.06458618,-0.8642319,0.4590507,0.41145694,0
2.0400000000000005,,,,,9.962985,-0.34744784,-0.542008,0.12887996,-0.36853504,1.1183091,1.5065757,0.27698046,-0.09564552,-0.011830791,0.9560301,-5.885836,7.1246014,-0.06343939,-0.8642319,0.4590507,0.41145694,0
2.0500000000000003,,,,,10.011627,-0.4065002,-0.5373347,0.22660404,-0.42749,1.1895701,1.5059464,0.2746236,-0.0990597,-0.015129257,0.95631576,-5.9052916,7.127484,-0.06243927,-0.8642319,0.4590507,0.41145694,1
2.06,,,,,10.011627,-0.4065002,-0.5373347,0.22660404,-0.48664165,1.260857,1.5053222,0.27329636,-0.09706508,-0.017698456,0.95685625,-5.925004,7.129798,-0.062410314,-0.4065002,-0.5373347,0.22660404,1
2.07,,,,,10.011627,-0.4065002,-0.5373347,0.22660404,-0.5459892,1.3321638,1.5046985,0.27196565,-0.095069245,-0.02026743,0.95738465,-5.944481,7.131483,-0.062321488,-0.4065002,-0.5373347,0.22660404,1
2.0799999999999996,,,,,10.011627,-0.4065002,-0.5373347,0.22660404,-0.6055304,1.4034843,1.504076,0.27063152,-0.09307219,-0.022836149,0.957901,-5.96372,7.1325393,-0.062176984,-0.4065002,-0.5373347,0.22660404,1
2.0899999999999994,,,,,10.256569,-0.67031884,-0.13146931,0.21035308,-0.66526276,1.4748124,1.5034553,0.26929396,-0.091073975,-0.02540458,0.95840526,-5.9827185,7.1329675,-0.061980985,-0.4065002,-0.5373347,0.22660404,1
2.099999999999999,,,,,10.256569,-0.67031884,-0.13146931,0.21035308,-0.72518677,1.5461415,1.5028486,0.26796228,-0.091372676,-0.028697828,0.95865715,-6.002116,7.1327577,-0.0593667,-0.67031884,-0.13146931,0.21035308,1
2.109999999999999,,,,,10.256569,-0.67031884,-0.13146931,0.21035308,-0.7853059,1.6174653,1.5022678,0.2666272,-0.09167021,-0.03199071,0.9588967,-6.021751,7.13189,-0.0568018,-0.67031884,-0.13146931,0.21035308,1
2.1199999999999988,,,,,10.256569,-0.67031884,-0.13146931,0.21035308,-0.84562254,1.688777,1.5017124,0.26528868,-0.09196656,-0.035283186,0.959124,-6.04162,7.1303644,-0.05429073,-0.67031884,-0.13146931,0.21035308,1
2.1299999999999986,,,,,10.509861,-0.63269806,-0.06647279,0.24673563,-0.9061391,1.7600702,1.501182,0.2639468,-0.092261754,-0.03857521,0.95933914,-6.061721,7.12818,-0.051837925,-0.67031884,-0.13146931,0.21035308,1
2.1399999999999983,,,,,10.509861,-0.63269806,-0.06647279,0.24673563,-0.96686035,1.8313379,1.500688,0.26245707,-0.09282494,-0.041583747,0.95956784,-6.0825677,7.1252923,-0.046968274,-0.63269806,-0.06647279,0.24673563,1
2.149999999999998,,,,,10.509861,-0.63269806,-0.06647279,0.24673563,-1.0277914,1.902574,1.5002424,0.26096427,-0.09338706,-0.044591796,0.95978534,-6.103686,7.121798,-0.042172685,-0.63269806,-0.06647279,0.24673563,1
2.159999999999998,,,,,10.509861,-0.63269806,-0.06647279,0.24673563,-1.0889349,1.9737719,1.4998443,0.25946847,-0.09394809,-0.047599327,0.9599917,-6.125072,7.117697,-0.03745504,-0.63269806,-0.06647279,0.24673563,1
2.1699999999999977,,,,,9.796021,-0.4409512,-0.42797184,0.3602063,-1.1502937,2.044926,1.499493,0.25796962,-0.09450802,-0.050606303,0.96018684,-6.146725,7.112988,-0.032819223,-0.63269806,-0.06647279,0.24673563,1
