time-since-start [s],throttle_mpc,roll_mpc,pitch_mpc,yaw_mpc,throttle_nw,roll_nw,pitch_nw,yaw_nw,position_x [m],position_y [m],position_z [m],rotation_w [quaternion],rotation_x [quaternion],rotation_y [quaternion],rotation_z [quaternion],velocity_x [m/s],velocity_y [m/s],velocity_z [m/s],omega_x [rad/s],omega_y [rad/s],omega_z [rad/s],network_used
0.0,5.575107158600235,3.8624077111277724,-5.999999867727989,-1.5660506153154197,10.697895,-0.51224196,-1.3258164,0.27519768,11.430893,-10.660917,1.1162364,0.33975524,-0.22464582,0.27857757,0.8697673,-7.6850853,4.049173,0.6414331,0.16845267,0.31872636,0.38726002,0
0.01,5.575107158600235,3.8624077111277724,-5.999999867727989,-1.5660506153154197,9.474147,0.9326257,-3.1245294,-1.2068806,11.35399,-10.620248,1.1223689,0.35903046,-0.19402969,0.28323597,0.8678865,-7.694897,4.084586,0.58524436,3.8624077,-6.0,-1.5660506,0
0.02,5.575107158600235,3.8624077111277724,-5.999999867727989,-1.5660506153154197,9.474147,0.9326257,-3.1245294,-1.2068806,11.277007,-10.5792265,1.1279451,0.37782666,-0.1631547,0.28751647,0.86484784,-7.700905,4.119564,0.53012586,3.8624077,-6.0,-1.5660506,0
0.03,5.575107158600235,3.8624077111277724,-5.999999867727989,-1.5660506153154197,9.474147,0.9326257,-3.1245294,-1.2068806,11.199984,-10.537858,1.1329746,0.39611885,-0.13206205,0.2914134,0.8606553,-7.7030926,4.1538806,0.47589552,3.8624077,-6.0,-1.5660506,0
0.04,5.575107158600235,3.8624077111277724,-5.999999867727989,-1.5660506153154197,11.606726,-0.7809086,-1.2398325,-0.049795207,11.122957,-10.496152,1.1374654,0.41388255,-0.100793205,0.29492155,0.8553146,-7.7014675,4.187313,0.42236638,3.8624077,-6.0,-1.5660506,0
0.05,5.575107158600235,3.8624077111277724,-5.999999867727989,-1.5660506153154197,11.606726,-0.7809086,-1.2398325,-0.049795207,11.045966,-10.454116,1.1414236,0.43109408,-0.0693899,0.29803622,0.8488328,-7.696056,4.2196445,0.36934775,3.8624077,-6.0,-1.5660506,0
0.060000000000000005,5.575107158600235,3.8624077111277724,-5.999999867727989,-1.5660506153154197,11.606726,-0.7809086,-1.2398325,-0.049795207,10.9690485,-10.411763,1.1448535,0.44773048,-0.037894018,0.30075327,0.8412186,-7.6869035,4.2506633,0.31664622,3.8624077,-6.0,-1.5660506,0
0.07,5.575107158600235,3.8624077111277724,-5.999999867727989,-1.5660506153154197,11.606726,-0.7809086,-1.2398325,-0.049795207,10.892241,-10.369107,1.147757,0.46376956,-0.006347579,0.30306908,0.832482,-7.674078,4.2801642,0.26406673,3.8624077,-6.0,-1.5660506,0
0.08,10.214340642736058,2.611912903836227,-5.999999844383753,0.05103266194163638,12.93169,-1.65055,2.0351171,-0.0013199411,10.815579,-10.326165,1.1501346,0.4791899,0.025207326,0.30498058,0.8226348,-7.657665,4.3079515,0.2114135,3.8624077,-6.0,-1.5660506,0
0.09,10.214340642736058,2.611912903836227,-5.999999844383753,0.05103266194163638,12.93169,-1.65055,2.0351171,-0.0013199411,10.739179,-10.2828455,1.1521733,0.4875422,0.05620318,0.3011791,0.8175785,-7.6215763,4.3552227,0.19633688,2.611913,-6.0,0.051032662,0
0.09999999999999999,10.214340642736058,2.611912903836227,-5.999999844383753,0.05103266194163638,12.93169,-1.65055,2.0351171,-0.0013199411,10.663166,-10.239074,1.1540606,0.49537256,0.08713886,0.2970552,0.81164694,-7.580256,4.398341,0.1810815,2.611913,-6.0,0.051032662,0
0.10999999999999999,10.214340642736058,2.611912903836227,-5.999999844383753,0.05103266194163638,12.93169,-1.65055,2.0351171,-0.0013199411,10.587591,-10.194894,1.1557931,0.5026726,0.11798126,0.2926133,0.8048464,-7.5338793,4.4371247,0.16529074,2.611913,-6.0,0.051032662,0
0.11999999999999998,10.214340642736058,2.611912903836227,-5.999999844383753,0.05103266194163638,12.93169,-1.65055,2.0351171,-0.0013199411,10.512505,-10.150348,1.1573634,0.5094345,0.14869735,0.2878582,0.7971843,-7.4826427,4.4714093,0.1486103,2.611913,-6.0,0.051032662,0
0.12999999999999998,14.695262913889676,0.5880117025684553,-5.999999528679185,1.2911397273690297,12.687364,-2.4772804,1.6654112,-0.032106217,10.437953,-10.105482,1.158761,0.5156511,0.17925425,0.28279486,0.78866875,-7.4267635,4.5010514,0.13068962,2.611913,-6.0,0.051032662,0
0.13999999999999999,14.695262913889676,0.5880117025684553,-5.999999528679185,1.2911397273690297,12.687364,-2.4772804,1.6654112,-0.032106217,10.364112,-10.060287,1.1601467,0.5182711,0.20616655,0.26835474,0.78541434,-7.3408146,4.536501,0.14636585,0.5880117,-5.9999995,1.2911397,0
0.15,14.695262913889676,0.5880117025684553,-5.999999528679185,1.2911397273690297,12.687364,-2.4772804,1.6654112,-0.032106217,10.29115,-10.014778,1.1616851,0.52039856,0.23288295,0.25365964,0.78141356,-7.2508974,4.5640826,0.16115104,0.5880117,-5.9999995,1.2911397,0
0.16,15.541331228932604,-0.3858870195037951,-5.999999096762767,1.7136332675770667,13.569667,-2.8927248,1.7076812,0.16623801,10.219107,-9.969032,1.1633649,0.52203155,0.25937802,0.23872349,0.7766702,-7.157263,4.5837436,0.17456333,0.5880117,-5.9999995,1.2911397,0
0.17,15.541331228932604,-0.3858870195037951,-5.999999096762767,1.7136332675770667,13.569667,-2.8927248,1.7076812,0.16623801,10.148045,-9.923126,1.1652027,0.5227838,0.28358564,0.21922815,0.77344334,-7.0549726,4.595941,0.19280104,-0.38588703,-5.999999,1.7136333,0
0.18000000000000002,15.541331228932604,-0.3858870195037951,-5.999999096762767,1.7136332675770667,13.569667,-2.8927248,1.7076812,0.16623801,10.078017,-9.877143,1.1672158,0.52302533,0.30751616,0.19951862,0.7694608,-6.950333,4.599224,0.20953245,-0.38588703,-5.999999,1.7136333,0
0.19000000000000003,15.541331228932604,-0.3858870195037951,-5.999999096762767,1.7136332675770667,13.569667,-2.8927248,1.7076812,0.16623801,10.009046,-9.831171,1.1693864,0.52275586,0.33114624,0.17961416,0.7647264,-6.8436103,4.59363,0.22423913,-0.38588703,-5.999999,1.7136333,0
0.20000000000000004,14.696168396814219,-0.7443051591039503,-4.648562998178543,1.5646944111644234,13.905244,-2.0903842,1.2062225,-0.22145015,9.941151,-9.7853,1.1716919,0.52197564,0.3544528,0.15953419,0.7592449,-6.7350783,4.579229,0.2364105,-0.38588703,-5.999999,1.7136333,0
0.21000000000000005,14.696168396814219,-0.7443051591039503,-4.648562998178543,1.5646944111644234,13.905244,-2.0903842,1.2062225,-0.22145015,9.874317,-9.73961,1.1740762,0.52090234,0.3712946,0.14175615,0.75545067,-6.6312766,4.5579715,0.24013025,-0.74430513,-4.648563,1.5646944,0
0.22000000000000006,14.696168396814219,-0.7443051591039503,-4.648562998178543,1.5646944111644234,13.905244,-2.0903842,1.2062225,-0.22145015,9.808526,-9.694164,1.1764872,0.5195086,0.38790792,0.1238909,0.75119156,-6.5269604,4.530153,0.24172105,-0.74430513,-4.648563,1.5646944,0
0.23000000000000007,14.696168396814219,-0.7443051591039503,-4.648562998178543,1.5646944111644234,13.905244,-2.0903842,1.2062225,-0.22145015,9.743779,-9.649029,1.1789024,0.51779526,0.4042826,0.10594942,0.74647033,-6.422285,4.495865,0.24089094,-0.74430513,-4.648563,1.5646944,0
0.24000000000000007,14.696168396814219,-0.7443051591039503,-4.648562998178543,1.5646944111644234,13.655531,-1.9844033,1.0672325,-0.29699928,9.68008,-9.604269,1.1812959,0.5157633,0.42040855,0.08794274,0.74128985,-6.317407,4.4552145,0.23735388,-0.74430513,-4.648563,1.5646944,0
0.25000000000000006,14.696168396814219,-0.7443051591039503,-4.648562998178543,1.5646944111644234,13.655531,-1.9844033,1.0672325,-0.29699928,9.617431,-9.559947,1.1836393,0.51341397,0.43627584,0.06988196,0.7356532,-6.212483,4.4083247,0.23083048,-0.74430513,-4.648563,1.5646944,0
0.26000000000000006,14.696168396814219,-0.7443051591039503,-4.648562998178543,1.5646944111644234,13.655531,-1.9844033,1.0672325,-0.29699928,9.55583,-9.516124,1.1859014,0.51074874,0.45187473,0.05177819,0.72956395,-6.1076694,4.355334,0.22104868,-0.74430513,-4.648563,1.5646944,0
0.2700000000000001,14.696168396814219,-0.7443051591039503,-4.648562998178543,1.5646944111644234,13.655531,-1.9844033,1.0672325,-0.29699928,9.495276,-9.47286,1.1880481,0.50776935,0.46719563,0.03364256,0.72302586,-6.003123,4.296396,0.2077445,-0.74430513,-4.648563,1.5646944,0
0.2800000000000001,12.735303653584959,-0.9547637367239846,0.046008991230128055,1.4982452185054622,14.817413,-0.95115006,0.9275995,-0.7353521,9.435766,-9.430216,1.1900432,0.50447756,0.48222902,0.015486231,0.71604294,-5.8989987,4.2316794,0.19066261,-0.74430513,-4.648563,1.5646944,0
0.2900000000000001,12.735303653584959,-0.9547637367239846,0.046008991230128055,1.4982452185054622,14.817413,-0.95115006,0.9275995,-0.7353521,9.377225,-9.388195,1.1918004,0.5013921,0.47975302,0.0085710175,0.71997863,-5.8093834,4.1723323,0.16086878,-0.9547637,0.046008993,1.4982452,0
0.3000000000000001,12.735303653584959,-0.9547637367239846,0.046008991230128055,1.4982452185054622,14.817413,-0.95115006,0.9275995,-0.7353521,9.319576,-9.34677,1.1932628,0.49826714,0.47723913,0.001655127,0.72385746,-5.7206373,4.1124244,0.13171718,-0.9547637,0.046008993,1.4982452,0
0.3100000000000001,12.735303653584959,-0.9547637367239846,0.046008991230128055,1.4982452185054622,14.817413,-0.95115006,0.9275995,-0.7353521,9.26281,-9.305947,1.1944369,0.4951028,0.47468755,-0.0052608936,0.7276791,-5.6327686,4.0519476,0.10318944,-0.9547637,0.046008993,1.4982452,0
0.3200000000000001,11.356063712018384,-0.9359409783838664,4.927922429040533,1.4253917086693801,15.472199,-0.7396647,1.9344977,-0.6352752,9.206919,-9.265733,1.1953287,0.49189934,0.4720985,-0.012176499,0.73144335,-5.5457845,3.9908938,0.075267024,-0.9547637,0.046008993,1.4982452,0
0.3300000000000001,11.356063712018384,-0.9359409783838664,4.927922429040533,1.4253917086693801,15.472199,-0.7396647,1.9344977,-0.6352752,9.151845,-9.226094,1.1959102,0.4890288,0.45152915,-0.0068403203,0.7462741,-5.4691834,3.9374173,0.0417115,-0.935941,4.9279222,1.4253917,0
0.34000000000000014,11.356063712018384,-0.9359409783838664,4.927922429040533,1.4253917086693801,15.472199,-0.7396647,1.9344977,-0.6352752,9.097531,-9.186972,1.1961776,0.48582587,0.43065286,-0.0014994921,0.7605976,-5.393971,3.887426,0.012440484,-0.935941,4.9279222,1.4253917,0
0.35000000000000014,11.356063712018384,-0.9359409783838664,4.927922429040533,1.4253917086693801,15.472199,-0.7396647,1.9344977,-0.6352752,9.043961,-9.148332,1.1961732,0.48229268,0.40948382,0.003842356,0.77440405,-5.320393,3.840993,-0.012695391,-0.935941,4.9279222,1.4253917,0
0.36000000000000015,10.043926495540212,-1.0530345927511293,5.999998447887722,1.0440886388812012,15.699271,-0.4485732,3.4335806,-0.3878973,8.9911175,-9.110139,1.1959373,0.4784316,0.38803643,0.009181592,0.7876841,-5.2486916,3.7981815,-0.03385673,-0.935941,4.9279222,1.4253917,0
0.37000000000000016,10.043926495540212,-1.0530345927511293,5.999998447887722,1.0440886388812012,15.699271,-0.4485732,3.4335806,-0.3878973,8.938939,-9.072332,1.1954634,0.47585917,0.36175367,0.017355837,0.80149287,-5.1872816,3.7638555,-0.060293444,-1.0530345,5.9999986,1.0440886,0
0.38000000000000017,10.043926495540212,-1.0530345927511293,5.999998447887722,1.0440886388812012,15.699271,-0.4485732,3.4335806,-0.3878973,8.8873625,-9.034848,1.1947446,0.4728323,0.3351255,0.02551351,0.8145362,-5.1283507,3.733613,-0.0829106,-1.0530345,5.9999986,1.0440886,0
0.3900000000000002,10.043926495540212,-1.0530345927511293,5.999998447887722,1.0440886388812012,15.699271,-0.4485732,3.4335806,-0.3878973,8.836362,-8.997646,1.1938175,0.4693539,0.30817732,0.033646822,0.8268018,-5.0721617,3.7075233,-0.1019712,-1.0530345,5.9999986,1.0440886,0
0.4000000000000002,10.003439563427523,-0.9587126372408692,5.999997048751193,0.8455669966815428,14.936184,-0.6649295,2.9674125,-0.53983384,8.785909,-8.960685,1.1927164,0.46542734,0.2809349,0.041748002,0.8382778,-5.0189667,3.6856396,-0.11775179,-1.0530345,5.9999986,1.0440886,0
0.4100000000000002,10.003439563427523,-0.9587126372408692,5.999997048751193,0.8455669966815428,14.936184,-0.6649295,2.9674125,-0.53983384,8.735971,-8.92392,1.191471,0.4617591,0.25360417,0.05048372,0.8484778,-4.969179,3.6680915,-0.13089721,-0.95871264,5.999997,0.845567,0
0.4200000000000002,10.003439563427523,-0.9587126372408692,5.999997048751193,0.8455669966815428,14.936184,-0.6649295,2.9674125,-0.53983384,8.686514,-8.887308,1.1901077,0.45765644,0.22603482,0.05917194,0.8578795,-4.922762,3.654851,-0.14139521,-0.95871264,5.999997,0.845567,0
0.4300000000000002,10.003439563427523,-0.9587126372408692,5.999997048751193,0.8455669966815428,14.936184,-0.6649295,2.9674125,-0.53983384,8.637504,-8.850807,1.1886513,0.45312324,0.19825281,0.0678045,0.8664741,-4.87992,3.6459317,-0.14955603,-0.95871264,5.999997,0.845567,0
0.4400000000000002,10.003439563427523,-0.9587126372408692,5.999997048751193,0.8455669966815428,13.60802,-0.23560295,2.3439465,-0.52182704,8.588903,-8.814373,1.1871237,0.44816375,0.1702843,0.076373264,0.8742536,-4.840848,3.6413305,-0.15569875,-0.95871264,5.999997,0.845567,0
0.45000000000000023,10.003439563427523,-0.9587126372408692,5.999997048751193,0.8455669966815428,13.60802,-0.23560295,2.3439465,-0.52182704,8.540674,-8.777965,1.1855433,0.44278264,0.14215559,0.084870175,0.8812106,-4.805722,3.6410284,-0.16015002,-0.95871264,5.999997,0.845567,0
0.46000000000000024,10.003439563427523,-0.9587126372408692,5.999997048751193,0.8455669966815428,13.60802,-0.23560295,2.3439465,-0.52182704,8.492776,-8.741538,1.1839254,0.43698496,0.11389316,0.09328725,0.88733864,-4.774707,3.6449902,-0.16324285,-0.95871264,5.999997,0.845567,0
0.47000000000000025,10.003439563427523,-0.9587126372408692,5.999997048751193,0.8455669966815428,13.60802,-0.23560295,2.3439465,-0.52182704,8.445166,-8.705051,1.1822819,0.43077615,0.08552357,0.10161656,0.8926318,-4.74795,3.6531641,-0.16531536,-0.95871264,5.999997,0.845567,0
0.48000000000000026,10.302202867068472,-0.9053632386642121,5.999996822590684,0.5923369792770593,12.295983,-1.4726529,2.96912,0.26756734,8.3978,-8.668462,1.1806214,0.4241621,0.057073515,0.10985027,0.89708525,-4.7255845,3.6654835,-0.16670954,-0.95871264,5.999997,0.845567,0
0.49000000000000027,10.302202867068472,-0.9053632386642121,5.999996822590684,0.5923369792770593,12.295983,-1.4726529,2.96912,0.26756734,8.350641,-8.631726,1.1789633,0.41827184,0.028544111,0.1182928,0.9001336,-4.7071757,3.6823683,-0.16487706,-0.90536326,5.9999967,0.59233695,0
0.5000000000000002,10.302202867068472,-0.9053632386642121,5.999996822590684,0.5923369792770593,12.295983,-1.4726529,2.96912,0.26756734,8.30364,-8.594801,1.1773237,0.41199297,-1.1816155e-05,0.12662542,0.9023456,-4.6934595,3.7033799,-0.16307281,-0.90536326,5.9999967,0.59233695,0
0.5100000000000002,10.302202867068472,-0.9053632386642121,5.999996822590684,0.5923369792770593,12.295983,-1.4726529,2.96912,0.26756734,8.256754,-8.557645,1.1757005,0.40533128,-0.028567731,0.13484037,0.9037191,-4.6845107,3.7284143,-0.16165559,-0.90536326,5.9999967,0.59233695,0
0.5200000000000002,10.937276690087316,-0.737101964313693,5.999982634789185,0.3604095287580118,11.401146,-1.5491798,3.1010447,0.3988368,8.209933,-8.520219,1.174088,0.39829296,-0.0570971,0.14293003,0.904253,-4.680385,3.757352,-0.16098277,-0.90536326,5.9999967,0.59233695,0
0.5300000000000002,10.937276690087316,-0.737101964313693,5.999982634789185,0.3604095287580118,11.401146,-1.5491798,3.1010447,0.3988368,8.16313,-8.482474,1.1725072,0.3919835,-0.085404456,0.15158221,0.90337026,-4.681114,3.7921214,-0.15540269,-0.737102,5.999983,0.36040953,0
0.5400000000000003,10.937276690087316,-0.737101964313693,5.999982634789185,0.3604095287580118,11.401146,-1.5491798,3.1010447,0.3988368,8.116294,-8.444363,1.1709744,0.38531473,-0.11363352,0.16009542,0.90165925,-4.686884,3.830865,-0.15140152,-0.737102,5.999983,0.36040953,0
0.5500000000000003,10.937276690087316,-0.737101964313693,5.999982634789185,0.3604095287580118,11.401146,-1.5491798,3.1010447,0.3988368,8.069374,-8.405844,1.1694723,0.37829268,-0.1417584,0.16846186,0.8991216,-4.6976876,3.8734236,-0.1493465,-0.737102,5.999983,0.36040953,0
0.5600000000000003,11.500578088256495,-0.527442817461494,3.4913727476152636,0.21942063721006919,11.347263,-0.97559714,1.7479869,-0.042584714,8.022323,-8.366881,1.1679796,0.37092385,-0.16975333,0.17667386,0.8957597,-4.713502,3.9196248,-0.14959784,-0.737102,5.999983,0.36040953,0
0.5700000000000003,11.500578088256495,-0.527442817461494,3.4913727476152636,0.21942063721006919,11.347263,-0.97559714,1.7479869,-0.042584714,7.9750843,-8.327429,1.1664973,0.3663515,-0.18614745,0.1809451,0.8935292,-4.7345715,3.9712605,-0.14712504,-0.5274428,3.4913728,0.21942064,0
0.5800000000000003,11.500578088256495,-0.527442817461494,3.4913727476152636,0.21942063721006919,11.347263,-0.97559714,1.7479869,-0.042584714,7.92762,-8.287449,1.1650311,0.3616645,-0.20248333,0.1851597,0.89101905,-4.75874,4.0248594,-0.14639145,-0.5274428,3.4913728,0.21942064,0
0.5900000000000003,11.500578088256495,-0.527442817461494,3.4913727476152636,0.21942063721006919,11.347263,-0.97559714,1.7479869,-0.042584714,7.8798985,-8.246924,1.163563,0.35686433,-0.21875584,0.18931636,0.8882301,-4.785984,4.0803485,-0.14751802,-0.5274428,3.4913728,0.21942064,0
0.6000000000000003,11.755916357279993,-0.3626129572291835,0.4223021400618233,0.15328387917252748,10.975295,-1.138764,2.3040013,0.2564301,7.8318896,-8.205835,1.1620739,0.3519525,-0.23495992,0.19341381,0.88516325,-4.8162746,4.137651,-0.1506234,-0.5274428,3.4913728,0.21942064,0
0.6100000000000003,11.755916357279993,-0.3626129572291835,0.4223021400618233,0.15328387917252748,10.975295,-1.138764,2.3040013,0.2564301,7.7835617,-8.164161,1.1605558,0.35043824,-0.23731785,0.19273138,0.8852838,-4.8494024,4.1973376,-0.1530145,-0.36261296,0.42230213,0.15328388,0
0.6200000000000003,11.755916357279993,-0.3626129572291835,0.4223021400618233,0.15328387917252748,10.975295,-1.138764,2.3040013,0.2564301,7.734899,-8.121888,1.1590129,0.34892106,-0.2396738,0.19204734,0.8853971,-4.8831525,4.256997,-0.15560639,-0.36261296,0.42230213,0.15328388,0
0.6300000000000003,11.755916357279993,-0.3626129572291835,0.4223021400618233,0.15328387917252748,10.975295,-1.138764,2.3040013,0.2564301,7.6858964,-8.0790205,1.1574432,0.347401,-0.24202774,0.19136171,0.88550293,-4.917524,4.3166265,-0.15840155,-0.36261296,0.42230213,0.15328388,0
0.6400000000000003,11.755916357279993,-0.3626129572291835,0.4223021400618233,0.15328387917252748,11.013667,-0.7396456,1.9111224,0.10872716,7.636547,-8.035558,1.1558442,0.34587798,-0.24437968,0.19067447,0.8856014,-4.9525156,4.376224,-0.1614024,-0.36261296,0.42230213,0.15328388,0
0.6500000000000004,11.755916357279993,-0.3626129572291835,0.4223021400618233,0.15328387917252748,11.013667,-0.7396456,1.9111224,0.10872716,7.586844,-7.9914966,1.1542143,0.3443521,-0.24672958,0.18998563,0.8856925,-4.9881268,4.4357862,-0.16461141,-0.36261296,0.42230213,0.15328388,0
0.6600000000000004,11.755916357279993,-0.3626129572291835,0.4223021400618233,0.15328387917252748,11.013667,-0.7396456,1.9111224,0.10872716,7.536782,-7.9468417,1.1525512,0.34282336,-0.24907742,0.18929523,0.8857762,-5.024356,4.4953113,-0.16803104,-0.36261296,0.42230213,0.15328388,0
0.6700000000000004,11.755916357279993,-0.3626129572291835,0.4223021400618233,0.15328387917252748,11.013667,-0.7396456,1.9111224,0.10872716,7.486355,-7.901592,1.1508529,0.34129176,-0.2514232,0.18860325,0.8858526,-5.061203,4.5547957,-0.1716637,-0.36261296,0.42230213,0.15328388,0
0.6800000000000004,12.121173491101432,-0.24012209569069656,-0.48424752084425937,0.13096319851170485,11.745258,0.5977601,1.2251089,-0.089109,7.4355555,-7.8557467,1.1491172,0.3397573,-0.2537669,0.18790969,0.88592154,-5.098666,4.6142364,-0.17551184,-0.36261296,0.42230213,0.15328388,0
0.6900000000000004,12.121173491101432,-0.24012209569069656,-0.48424752084425937,0.13096319851170485,11.745258,0.5977601,1.2251089,-0.089109,7.3843746,-7.809299,1.1473571,0.33932617,-0.2519058,0.18618885,0.88698065,-5.1376247,4.675307,-0.1764273,-0.2401221,-0.48424754,0.13096319,0
0.7000000000000004,12.121173491101432,-0.24012209569069656,-0.48424752084425937,0.13096319851170485,11.745258,0.5977601,1.2251089,-0.089109,7.3328047,-7.762243,1.1455898,0.33889243,-0.25004268,0.18446657,0.8880329,-5.1764097,4.7358756,-0.17695957,-0.2401221,-0.48424754,0.13096319,0
0.7100000000000004,12.121173491101432,-0.24012209569069656,-0.48424752084425937,0.13096319851170485,11.745258,0.5977601,1.2251089,-0.089109,7.2808475,-7.7145834,1.1438192,0.33845606,-0.24817765,0.18274286,0.88907826,-5.2150173,4.7959414,-0.17711142,-0.2401221,-0.48424754,0.13096319,0
0.7200000000000004,12.481260513775794,-0.11354754931481444,-1.5179341467507992,0.11165786749972119,11.33555,0.52278626,1.3262287,0.009523574,7.228505,-7.6663256,1.142049,0.33801708,-0.24631071,0.18101774,0.89011675,-5.2534466,4.855502,-0.17688559,-0.2401221,-0.48424754,0.13096319,0
0.7300000000000004,12.481260513775794,-0.11354754931481444,-1.5179341467507992,0.11165786749972119,11.33555,0.52278626,1.3262287,0.009523574,7.175774,-7.6174664,1.1402982,0.33874428,-0.23963875,0.17807923,0.8922517,-5.2924757,4.9161034,-0.17309292,-0.11354755,-1.5179342,0.111657865,0
0.7400000000000004,12.481260513775794,-0.11354754931481444,-1.5179341467507992,0.11165786749972119,11.33555,0.52278626,1.3262287,0.009523574,7.1226587,-7.568007,1.1385908,0.3394518,-0.23295285,0.17513034,0.8943347,-5.330362,4.9756227,-0.16823648,-0.11354755,-1.5179342,0.111657865,0
0.7500000000000004,12.481260513775794,-0.11354754931481444,-1.5179341467507992,0.11165786749972119,11.33555,0.52278626,1.3262287,0.009523574,7.069171,-7.5179577,1.1369371,0.3401395,-0.22625336,0.17217124,0.8963656,-5.367094,5.0340476,-0.16234037,-0.11354755,-1.5179342,0.111657865,0
0.7600000000000005,12.922636895592342,-0.03074929392193054,-1.6918288961133225,0.0980879560698371,11.222118,0.07737473,0.96309936,0.4779095,7.0153213,-7.46733,1.1353476,0.34080744,-0.2195407,0.16920212,0.89834434,-5.4026628,5.0913653,-0.15542893,-0.11354755,-1.5179342,0.111657865,0
0.7700000000000005,12.922636895592342,-0.03074929392193054,-1.6918288961133225,0.0980879560698371,11.222118,0.07737473,0.96309936,0.4779095,6.961116,-7.4161243,1.1338509,0.34175217,-0.21190311,0.16628268,0.9003623,-5.4381905,5.1495347,-0.14374205,-0.030749293,-1.6918288,0.09808796,0
0.7800000000000005,12.922636895592342,-0.03074929392193054,-1.6918288961133225,0.0980879560698371,11.222118,0.07737473,0.96309936,0.4779095,6.906563,-7.364343,1.1324767,0.34267235,-0.20425028,0.16335131,0.9023157,-5.4722676,5.2064867,-0.13096236,-0.030749293,-1.6918288,0.09808796,0
0.7900000000000005,12.922636895592342,-0.03074929392193054,-1.6918288961133225,0.0980879560698371,11.222118,0.07737473,0.96309936,0.4779095,6.8516765,-7.311999,1.1312355,0.3435679,-0.1965828,0.1604082,0.9042042,-5.504883,5.262206,-0.11712188,-0.030749293,-1.6918288,0.09808796,0
0.8000000000000005,13.169863467739649,0.008518304728428084,-1.3280700766211329,0.08599909318044852,13.105942,0.2720609,2.081072,-0.057309683,6.7964706,-7.259104,1.1301378,0.3444388,-0.18890119,0.1574536,0.9060278,-5.5360255,5.3166785,-0.102253,-0.030749293,-1.6918288,0.09808796,0
0.8100000000000005,13.169863467739649,0.008518304728428084,-1.3280700766211329,0.08599909318044852,13.105942,0.2720609,2.081072,-0.057309683,6.7409577,-7.2056646,1.1292044,0.34509516,-0.18279833,0.15528277,0.90740347,-5.566364,5.3710237,-0.08429066,0.008518305,-1.32807,0.085999094,0
0.8200000000000005,13.169863467739649,0.008518304728428084,-1.3280700766211329,0.08599909318044852,13.105942,0.2720609,2.081072,-0.057309683,6.6851473,-7.1516867,1.1284546,0.34573627,-0.17668737,0.15310504,0.90873903,-5.59548,5.4243817,-0.06555979,0.008518305,-1.32807,0.085999094,0
0.8300000000000005,13.169863467739649,0.008518304728428084,-1.3280700766211329,0.08599909318044852,13.105942,0.2720609,2.081072,-0.057309683,6.6290517,-7.09718,1.1278958,0.34636205,-0.17056862,0.15092054,0.9100343,-5.6233673,5.476745,-0.046081226,0.008518305,-1.32807,0.085999094,0
0.8400000000000005,13.169863467739649,0.008518304728428084,-1.3280700766211329,0.08599909318044852,13.368307,0.15384534,2.1544604,-0.048676785,6.572684,-7.042155,1.1275356,0.3469725,-0.1644423,0.14872935,0.9112893,-5.65002,5.5281043,-0.02587596,0.008518305,-1.32807,0.085999094,0
0.8500000000000005,13.169863467739649,0.008518304728428084,-1.3280700766211329,0.08599909318044852,13.368307,0.15384534,2.1544604,-0.048676785,6.516056,-6.9866214,1.1273807,0.3475676,-0.15830868,0.14653158,0.9125039,-5.6754327,5.5784516,-0.004965091,0.008518305,-1.32807,0.085999094,0
0.8600000000000005,13.169863467739649,0.008518304728428084,-1.3280700766211329,0.08599909318044852,13.368307,0.15384534,2.1544604,-0.048676785,6.4591794,-6.930589,1.1274384,0.34814727,-0.15216807,0.14432731,0.9136781,-5.6995997,5.62778,0.01663015,0.008518305,-1.32807,0.085999094,0
0.8700000000000006,13.169863467739649,0.008518304728428084,-1.3280700766211329,0.08599909318044852,13.368307,0.15384534,2.1544604,-0.048676785,6.4020677,-6.8740687,1.1277155,0.34871155,-0.14602071,0.14211667,0.9148119,-5.7225156,5.6760817,0.03888841,0.008518305,-1.32807,0.085999094,0
0.8800000000000006,13.273026038685607,0.019930161236921557,-0.9089951441219659,0.0775740620454439,13.6299305,-0.0031951396,1.8302028,-0.026987132,6.344733,-6.817071,1.1282183,0.3492604,-0.13986689,0.13989973,0.9159052,-5.7441754,5.723349,0.06178822,0.008518305,-1.32807,0.085999094,0
0.8900000000000006,13.273026038685607,0.019930161236921557,-0.9089951441219659,0.0775740620454439,13.6299305,-0.0031951396,1.8302028,-0.026987132,6.2871876,-6.7596035,1.1289579,0.3495513,-0.13561362,0.13845642,0.91665286,-5.7648797,5.7700663,0.086187206,0.019930162,-0.90899515,0.07757406,0
0.9000000000000006,13.273026038685607,0.019930161236921557,-0.9089951441219659,0.0775740620454439,13.6299305,-0.0031951396,1.8302028,-0.026987132,6.229439,-6.701672,1.1299435,0.3498349,-0.13135752,0.13701023,0.91738147,-5.784699,5.8160753,0.11100002,0.019930162,-0.90899515,0.07757406,0
0.9100000000000006,13.273026038685607,0.019930161236921557,-0.9089951441219659,0.0775740620454439,13.6299305,-0.0031951396,1.8302028,-0.026987132,6.1714964,-6.6432843,1.1311792,0.35011122,-0.1270987,0.13556118,0.918091,-5.8036313,5.861373,0.13621634,0.019930162,-0.90899515,0.07757406,0
0.9200000000000006,13.201315948688979,0.020293318271338626,-0.7255689656180079,0.06948603569442281,14.148296,-0.062815756,1.692329,0.025834505,6.113369,-6.584447,1.132669,0.35038027,-0.122837216,0.13410932,0.91878146,-5.8216743,5.9059553,0.1618258,0.019930162,-0.90899515,0.07757406,0
0.9300000000000006,13.201315948688979,0.020293318271338626,-0.7255689656180079,0.06948603569442281,14.148296,-0.062815756,1.692329,0.025834505,6.055066,-6.5251684,1.1344136,0.3505577,-0.119421065,0.1329732,0.9193291,-5.838799,5.949639,0.18711896,0.020293318,-0.72556895,0.06948604,0
0.9400000000000006,13.201315948688979,0.020293318271338626,-0.7255689656180079,0.06948603569442281,14.148296,-0.062815756,1.692329,0.025834505,5.9965954,-6.465456,1.1364125,0.3507305,-0.11600332,0.13183531,0.91986454,-5.855211,5.9927554,0.21270828,0.020293318,-0.72556895,0.06948604,0
0.9500000000000006,13.201315948688979,0.020293318271338626,-0.7255689656180079,0.06948603569442281,14.148296,-0.062815756,1.692329,0.025834505,5.9379644,-6.4053154,1.1386687,0.35089862,-0.11258404,0.13069569,0.92038774,-5.870908,6.0353026,0.23858711,0.020293318,-0.72556895,0.06948604,0
0.9600000000000006,12.913923735913102,0.016758045617315514,-0.5262308842664464,0.06572747378472577,13.352321,-0.14687881,1.1467358,0.11607951,5.8791804,-6.3447523,1.1411852,0.3510621,-0.10916326,0.12955432,0.92089874,-5.8858895,6.0772786,0.2647488,0.020293318,-0.72556895,0.06948604,0
0.9700000000000006,12.913923735913102,0.016758045617315514,-0.5262308842664464,0.06572747378472577,13.352321,-0.14687881,1.1467358,0.11607951,5.8202515,-6.2837763,1.1439509,0.35110825,-0.10666786,0.1287432,0.92128724,-5.899915,6.1178393,0.28844795,0.016758045,-0.5262309,0.06572747,0
0.9800000000000006,12.913923735913102,0.016758045617315514,-0.5262308842664464,0.06572747378472577,13.352321,-0.14687881,1.1467358,0.11607951,5.761184,-6.222397,1.1469548,0.35115194,-0.10417171,0.12793118,0.92166924,-5.9134297,6.1579943,0.31233898,0.016758045,-0.5262309,0.06572747,0
0.9900000000000007,12.913923735913102,0.016758045617315514,-0.5262308842664464,0.06572747378472577,13.352321,-0.14687881,1.1467358,0.11607951,5.701985,-6.160618,1.1501983,0.35119313,-0.101674825,0.12711826,0.92204475,-5.926433,6.1977434,0.33641848,0.016758045,-0.5262309,0.06572747,0
1.0000000000000007,12.384373637069901,-0.010753978038468887,-0.7783045232166717,0.06496013961412656,13.066056,-0.6202284,-0.22545603,0.3571834,5.6426578,-6.098443,1.1536838,0.35123187,-0.09917722,0.12630445,0.92241377,-5.938924,6.237086,0.36068296,0.016758045,-0.5262309,0.06572747,1
1.0100000000000007,12.384373637069901,-0.010753978038468887,-0.7783045232166717,0.06496013961412656,13.066056,-0.6202284,-0.22545603,0.3571834,5.5832067,-6.0358753,1.1574199,0.34941685,-0.09900036,0.12322421,0.923538,-5.9513607,6.2763457,0.38658345,-0.6202284,-0.22545603,0.3571834,1
1.0200000000000007,12.384373637069901,-0.010753978038468887,-0.7783045232166717,0.06496013961412656,13.066056,-0.6202284,-0.22545603,0.3571834,5.523629,-5.9729185,1.161416,0.34759694,-0.098822095,0.120142244,0.9246493,-5.9641237,6.314835,0.41269216,-0.6202284,-0.22545603,0.3571834,1
1.0300000000000007,12.384373637069901,-0.010753978038468887,-0.7783045232166717,0.06496013961412656,13.066056,-0.6202284,-0.22545603,0.3571834,5.4639225,-5.9095807,1.1656743,0.34577212,-0.09864244,0.1170586,0.9257476,-5.97721,6.352551,0.4390043,-0.6202284,-0.22545603,0.3571834,1
1.0400000000000007,12.384373637069901,-0.010753978038468887,-0.7783045232166717,0.06496013961412656,12.652754,-0.315317,-0.4570432,0.34614533,5.4040833,-5.84587,1.1701969,0.34394243,-0.098461404,0.11397329,0.9268328,-5.990616,6.3894906,0.46551505,-0.6202284,-0.22545603,0.3571834,1
1.0500000000000007,12.384373637069901,-0.010753978038468887,-0.7783045232166717,0.06496013961412656,12.652754,-0.315317,-0.4570432,0.34614533,5.3441114,-5.7817993,1.1749656,0.34244174,-0.09668786,0.11189589,0.92782784,-6.003727,6.4245477,0.4882798,-0.315317,-0.4570432,0.34614533,1
1.0600000000000007,12.384373637069901,-0.010753978038468887,-0.7783045232166717,0.06496013961412656,12.652754,-0.315317,-0.4570432,0.34614533,5.28401,-5.7173815,1.1799631,0.34093738,-0.09491328,0.109817274,0.92881286,-6.016668,6.458955,0.5112495,-0.315317,-0.4570432,0.34614533,1
1.0700000000000007,12.384373637069901,-0.010753978038468887,-0.7783045232166717,0.06496013961412656,12.652754,-0.315317,-0.4570432,0.34614533,5.223779,-5.652622,1.1851913,0.33942935,-0.09313769,0.10773749,0.929788,-6.0294366,6.492711,0.53442043,-0.315317,-0.4570432,0.34614533,1
1.0800000000000007,11.651432750908384,0.25652970654697166,-1.2667171402420594,0.03269300734819039,11.7090225,0.1596326,-1.4891161,0.03945631,5.163422,-5.587529,1.1906521,0.3379177,-0.0913611,0.10565656,0.9307532,-6.042031,6.5258164,0.557789,-0.315317,-0.4570432,0.34614533,1
1.0900000000000007,11.651432750908384,0.25652970654697166,-1.2667171402420594,0.03269300734819039,11.7090225,0.1596326,-1.4891161,0.03945631,5.1029453,-5.5221205,1.1963025,0.33858418,-0.08413805,0.10389854,0.93138963,-6.053044,6.5557284,0.572356,0.1596326,-1.4891161,0.03945631,1
1.1000000000000008,11.651432750908384,0.25652970654697166,-1.2667171402420594,0.03269300734819039,11.7090225,0.1596326,-1.4891161,0.03945631,5.0423656,-5.456418,1.2021005,0.33923167,-0.07691028,0.10213469,0.9319738,-6.0626173,6.5847125,0.58729655,0.1596326,-1.4891161,0.03945631,1
1.1100000000000008,11.651432750908384,0.25652970654697166,-1.2667171402420594,0.03269300734819039,11.7090225,0.1596326,-1.4891161,0.03945631,4.981698,-5.39043,1.2080497,0.33986014,-0.069678195,0.1003651,0.93250567,-6.070748,6.6127625,0.6025853,0.1596326,-1.4891161,0.03945631,1
1.1200000000000008,11.000895801009115,0.32666904813502123,-1.3110190177915078,0.01694604307621006,11.328844,0.46692464,-2.3019218,-0.27667266,4.920956,-5.324166,1.2141533,0.34046954,-0.06244219,0.09858988,0.93298525,-6.077434,6.6398716,0.61819655,0.1596326,-1.4891161,0.03945631,1
1.1300000000000008,11.000895801009115,0.32666904813502123,-1.3110190177915078,0.01694604307621006,11.328844,0.46692464,-2.3019218,-0.27667266,4.8601565,-5.2576404,1.2203962,0.34301686,-0.051041313,0.09675615,0.9329375,-6.082156,6.6650667,0.6304442,0.46692464,-2.3019218,-0.27667266,1
1.1400000000000008,11.000895801009115,0.32666904813502123,-1.3110190177915078,0.01694604307621006,11.328844,0.46692464,-2.3019218,-0.27667266,4.799321,-5.1908693,1.2267634,0.3455162,-0.0396333,0.09490889,0.93275934,-6.0845537,6.689016,0.6430438,0.46692464,-2.3019218,-0.27667266,1
1.1500000000000008,11.000895801009115,0.32666904813502123,-1.3110190177915078,0.01694604307621006,11.328844,0.46692464,-2.3019218,-0.27667266,4.7384734,-5.1238647,1.233258,0.34796724,-0.028219745,0.09304836,0.9324508,-6.08463,6.711699,0.6559356,0.46692464,-2.3019218,-0.27667266,1
1.1600000000000008,10.452251189681363,0.18046734402360956,-0.5224506149605248,0.044961543765232564,11.777338,0.48113176,-1.7889935,0.053676907,4.6776366,-5.05664,1.239883,0.3503696,-0.016802242,0.09117481,0.9320118,-6.0823874,6.7330976,0.6690596,0.46692464,-2.3019218,-0.27667266,0
1.1700000000000008,10.452251189681363,0.18046734402360956,-0.5224506149605248,0.044961543765232564,11.777338,0.48113176,-1.7889935,0.053676907,4.6168303,-4.9892144,1.2465967,0.35041207,-0.014030882,0.09110397,0.9320486,-6.0787826,6.7520113,0.67369336,0.18046734,-0.5224506,0.044961546,0
1.1800000000000008,10.452251189681363,0.18046734402360956,-0.5224506149605248,0.044961543765232564,11.777338,0.48113176,-1.7889935,0.053676907,4.556063,-4.921601,1.2533569,0.35045183,-0.011259414,0.09103243,0.9320783,-6.0746417,6.7707086,0.6783464,0.18046734,-0.5224506,0.044961546,0
1.1900000000000008,10.452251189681363,0.18046734402360956,-0.5224506149605248,0.044961543765232564,11.777338,0.48113176,-1.7889935,0.053676907,4.4953394,-4.8538013,1.2601638,0.3504889,-0.00848786,0.09096019,0.9321008,-6.069966,6.78919,0.68301564,0.18046734,-0.5224506,0.044961546,0
1.2000000000000008,10.073878759365472,-0.0004185758558707253,-0.06488420330193073,0.06904911612406375,11.841159,-0.07203087,-1.202265,0.2756763,4.4346657,-4.7858176,1.2670174,0.3505233,-0.0057162396,0.090887256,0.93211603,-6.0647545,6.807454,0.6876978,0.18046734,-0.5224506,0.044961546,0
1.2100000000000009,10.073878759365472,-0.0004185758558707253,-0.06488420330193073,0.06904911612406375,11.841159,-0.07203087,-1.202265,0.2756763,4.3740454,-4.7176557,1.2738993,0.3502309,-0.0053831963,0.09077355,0.932239,-6.059391,6.8249106,0.6886676,-0.00041857586,-0.0648842,0.06904911,0
1.2200000000000009,10.073878759365472,-0.0004185758558707253,-0.06488420330193073,0.06904911612406375,11.841159,-0.07203087,-1.202265,0.2756763,4.3134785,-4.6493196,1.2807908,0.34993845,-0.0050501516,0.09065983,0.9323618,-6.0539784,6.842324,0.6896422,-0.00041857586,-0.0648842,0.06904911,0
1.2300000000000009,10.073878759365472,-0.0004185758558707253,-0.06488420330193073,0.06904911612406375,11.841159,-0.07203087,-1.202265,0.2756763,4.252966,-4.5808096,1.2876922,0.3496459,-0.0047171055,0.09054608,0.9324843,-6.0485168,6.8596945,0.69062173,-0.00041857586,-0.0648842,0.06904911,0
1.2400000000000009,10.073878759365472,-0.0004185758558707253,-0.06488420330193073,0.06904911612406375,12.080866,-0.20414457,-1.0078148,0.34345335,4.192508,-4.512126,1.2946032,0.34935328,-0.004384059,0.090432316,0.93260664,-6.043006,6.877022,0.69160604,-0.00041857586,-0.0648842,0.06904911,0
1.2500000000000009,10.073878759365472,-0.0004185758558707253,-0.06488420330193073,0.06904911612406375,12.080866,-0.20414457,-1.0078148,0.34345335,4.132106,-4.4432693,1.3015243,0.34906062,-0.0040510106,0.09031853,0.93272877,-6.037446,6.8943067,0.6925951,-0.00041857586,-0.0648842,0.06904911,0
1.260000000000001,10.073878759365472,-0.0004185758558707253,-0.06488420330193073,0.06904911612406375,12.080866,-0.20414457,-1.0078148,0.34345335,4.071759,-4.37424,1.3084552,0.34876785,-0.003717962,0.09020472,0.93285066,-6.031837,6.9115486,0.69358873,-0.00041857586,-0.0648842,0.06904911,0
1.270000000000001,10.073878759365472,-0.0004185758558707253,-0.06488420330193073,0.06904911612406375,12.080866,-0.20414457,-1.0078148,0.34345335,4.011469,-4.3050385,1.3153961,0.348475,-0.0033849124,0.0900909,0.9329724,-6.026179,6.9287477,0.6945871,-0.00041857586,-0.0648842,0.06904911,0
1.280000000000001,9.71470547344841,-0.10096961774728809,-0.5624568395330319,0.09105433740989022,13.7776,-0.23256299,-0.6276197,-0.13633662,3.9512353,-4.2356653,1.3223469,0.3481821,-0.0030518621,0.089977056,0.93309385,-6.020471,6.945904,0.69559,-0.00041857586,-0.0648842,0.06904911,0
1.290000000000001,9.71470547344841,-0.10096961774728809,-0.5624568395330319,0.09105433740989022,13.7776,-0.23256299,-0.6276197,-0.13633662,3.891059,-4.1661243,1.3292904,0.34800735,-0.0005625427,0.08852781,0.93330246,-6.0148063,6.9622626,0.6930821,-0.10096962,-0.56245685,0.091054335,0
1.300000000000001,9.71470547344841,-0.10096961774728809,-0.5624568395330319,0.09105433740989022,13.7776,-0.23256299,-0.6276197,-0.13633662,3.8309405,-4.0964217,1.3362089,0.34782967,0.0019267814,0.08707783,0.93350327,-6.0087905,6.978193,0.6906249,-0.10096962,-0.56245685,0.091054335,0
1.310000000000001,9.71470547344841,-0.10096961774728809,-0.5624568395330319,0.09105433740989022,13.7776,-0.23256299,-0.6276197,-0.13633662,3.770884,-4.0265617,1.343103,0.34764907,0.0044160895,0.085627116,0.93369627,-6.0024247,6.9936957,0.6882154,-0.10096962,-0.56245685,0.091054335,0
1.320000000000001,9.275734452286333,-0.23729983427487528,-1.4416704623581231,0.12646097926424651,13.511109,-0.31042978,-0.88895124,-0.22199136,3.7108932,-3.956549,1.3499733,0.3474656,0.00690536,0.08417568,0.93388146,-5.995709,7.008771,0.68585026,-0.10096962,-0.56245685,0.091054335,0
1.330000000000001,9.275734452286333,-0.23729983427487528,-1.4416704623581231,0.12646097926424651,13.511109,-0.31042978,-0.88895124,-0.22199136,3.6509702,-3.8863914,1.3567986,0.3474807,0.01327782,0.080556385,0.93412614,-5.98876,7.0225215,0.6792184,-0.23729983,-1.4416704,0.12646098,0
1.340000000000001,9.275734452286333,-0.23729983427487528,-1.4416704623581231,0.12646097926424651,13.511109,-0.31042978,-0.88895124,-0.22199136,3.5911212,-3.8161016,1.363558,0.34747717,0.019649567,0.07693276,0.9343206,-5.9809394,7.0352373,0.6726659,-0.23729983,-1.4416704,0.12646098,0
1.350000000000001,9.275734452286333,-0.23729983427487528,-1.4416704623581231,0.12646097926424651,13.511109,-0.31042978,-0.88895124,-0.22199136,3.5313544,-3.7456899,1.3702524,0.34745494,0.026020257,0.07330499,0.9344649,-5.9722476,7.046916,0.6661729,-0.23729983,-1.4416704,0.12646098,0
1.360000000000001,8.842468464831859,-0.31151925984795914,-1.692459745015591,0.16403818945352228,12.916117,-0.3303022,-0.29216865,0.13273305,3.4716792,-3.6751668,1.3768818,0.347414,0.032389548,0.069673285,0.93455887,-5.962686,7.057557,0.6597196,-0.23729983,-1.4416704,0.12646098,0
1.370000000000001,8.842468464831859,-0.31151925984795914,-1.692459745015591,0.16403818945352228,12.916117,-0.3303022,-0.29216865,0.13273305,3.4121015,-3.6045449,1.3834255,0.34727454,0.039812773,0.065248586,0.9346433,-5.9526944,7.066638,0.6490063,-0.31151927,-1.6924597,0.1640382,0
1.380000000000001,8.842468464831859,-0.31151925984795914,-1.692459745015591,0.16403818945352228,12.916117,-0.3303022,-0.29216865,0.13273305,3.3526282,-3.5338383,1.389862,0.34710914,0.047233026,0.060819015,0.934658,-5.941749,7.0745335,0.638294,-0.31151927,-1.6924597,0.1640382,0
1.390000000000001,8.842468464831859,-0.31151925984795914,-1.692459745015591,0.16403818945352228,12.916117,-0.3303022,-0.29216865,0.13273305,3.2932694,-3.4630585,1.3961912,0.34691784,0.05464975,0.056384895,0.9346028,-5.9298515,7.081242,0.6275563,-0.31151927,-1.6924597,0.1640382,0
1.400000000000001,8.592187458085078,-0.35504414303862836,-2.2734908435498435,0.22256392443147083,11.670914,0.0003786357,-1.0402929,-0.32929045,3.234034,-3.3922176,1.402413,0.34670058,0.062062398,0.051946566,0.93447775,-5.9170036,7.0867634,0.6167671,-0.31151927,-1.6924597,0.1640382,0
1.410000000000001,8.592187458085078,-0.35504414303862836,-2.2734908435498435,0.22256392443147083,11.670914,0.0003786357,-1.0402929,-0.32929045,3.1749306,-3.3213284,1.4085141,0.3463382,0.072123006,0.046274148,0.93418795,-5.9034653,7.0908422,0.6034158,-0.35504416,-2.273491,0.22256392,0
1.420000000000001,8.592187458085078,-0.35504414303862836,-2.2734908435498435,0.22256392443147083,11.670914,0.0003786357,-1.0402929,-0.32929045,3.1159687,-3.250406,1.4144809,0.3459295,0.08217397,0.040595546,0.9337732,-5.888657,7.0934134,0.5899112,-0.35504416,-2.273491,0.22256392,0
1.430000000000001,8.592187458085078,-0.35504414303862836,-2.2734908435498435,0.22256392443147083,11.670914,0.0003786357,-1.0402929,-0.32929045,3.0571616,-3.1794653,1.4203117,0.34547466,0.09221396,0.03491152,0.9332338,-5.8725843,7.0944777,0.5762079,-0.35504416,-2.273491,0.22256392,0
1.440000000000001,8.592187458085078,-0.35504414303862836,-2.2734908435498435,0.22256392443147083,11.680413,0.14256325,-1.2842473,-0.38794082,2.9985216,-3.1085215,1.4260043,0.34497362,0.102241635,0.029222833,0.9325696,-5.855252,7.094038,0.56226045,-0.35504416,-2.273491,0.22256392,0
1.450000000000001,8.592187458085078,-0.35504414303862836,-2.2734908435498435,0.22256392443147083,11.680413,0.14256325,-1.2842473,-0.38794082,2.940061,-3.0375898,1.431556,0.3444265,0.11225565,0.023530241,0.9317809,-5.836665,7.0920978,0.54802364,-0.35504416,-2.273491,0.22256392,0
1.460000000000001,8.592187458085078,-0.35504414303862836,-2.2734908435498435,0.22256392443147083,11.680413,0.14256325,-1.2842473,-0.38794082,2.8817928,-2.966685,1.4369637,0.3438334,0.122254655,0.017834507,0.9308676,-5.8168316,7.0886607,0.5334525,-0.35504416,-2.273491,0.22256392,0
1.470000000000001,8.592187458085078,-0.35504414303862836,-2.2734908435498435,0.22256392443147083,11.680413,0.14256325,-1.2842473,-0.38794082,2.823729,-2.895822,1.4422238,0.3431943,0.13223732,0.01213639,0.92983,-5.7957573,7.0837317,0.5185021,-0.35504416,-2.273491,0.22256392,0
1.480000000000001,8.365481129534729,-0.3554492347723134,-0.6492336604974361,0.2535381147444654,11.7036,-0.002336475,-2.1033163,-0.41828042,2.765882,-2.8250155,1.4473323,0.34250933,0.14220232,0.006436651,0.9286682,-5.7734513,7.0773153,0.50312775,-0.35504416,-2.273491,0.22256392,0
1.490000000000001,8.365481129534729,-0.3554492347723134,-0.6492336604974361,0.2535381147444654,11.7036,-0.002336475,-2.1033163,-0.41828042,2.7082598,-2.7542787,1.4522742,0.34160304,0.14461526,0.0034940254,0.9286452,-5.750911,7.0699515,0.48525116,-0.35544923,-0.64923364,0.2535381,0
1.500000000000001,8.365481129534729,-0.3554492347723134,-0.6492336604974361,0.2535381147444654,11.7036,-0.002336475,-2.1033163,-0.41828042,2.6508644,-2.6836185,1.4570367,0.3406915,0.147026,0.0005513469,0.9286079,-5.728165,7.062014,0.4672619,-0.35544923,-0.64923364,0.2535381,0
1.5100000000000011,8.365481129534729,-0.3554492347723134,-0.6492336604974361,0.2535381147444654,11.7036,-0.002336475,-2.1033163,-0.41828042,2.5936973,-2.6130404,1.4616189,0.33977485,0.1494345,-0.00239134,0.9285564,-5.7052135,7.0535045,0.44915524,-0.35544923,-0.64923364,0.2535381,0
1.5200000000000011,8.282885339089322,-0.3590065034689319,0.5924291397286342,0.29097869190501785,11.957623,-0.057116363,-1.1739668,-0.56022793,2.5367608,-2.5425506,1.4660194,0.33885294,0.15184072,-0.005333991,0.9284907,-5.6820574,7.044424,0.4309264,-0.35544923,-0.64923364,0.2535381,0
1.5300000000000011,8.282885339089322,-0.3590065034689319,0.5924291397286342,0.29097869190501785,11.957623,-0.057116363,-1.1739668,-0.56022793,2.480055,-2.472153,1.4702333,0.33778805,0.14847332,-0.006217802,0.9294173,-5.6592054,7.0351095,0.41189373,-0.3590065,0.59242916,0.2909787,0
1.5400000000000011,8.282885339089322,-0.3590065034689319,0.5924291397286342,0.29097869190501785,11.957623,-0.057116363,-1.1739668,-0.56022793,2.423575,-2.401848,1.4742577,0.33671838,0.14510383,-0.007101525,0.9303308,-5.636898,7.025873,0.3930254,-0.3590065,0.59242916,0.2909787,0
1.5500000000000012,8.282885339089322,-0.3590065034689319,0.5924291397286342,0.29097869190501785,11.957623,-0.057116363,-1.1739668,-0.56022793,2.3673153,-2.3316348,1.4780943,0.33564395,0.14173229,-0.007985149,0.9312312,-5.615136,7.016714,0.3743175,-0.3590065,0.59242916,0.2909787,0
1.5600000000000012,8.190139732155286,-0.35892458297561697,2.0698602193038234,0.29410443158198235,12.743786,0.039505508,-2.1336088,-0.7084965,2.3112705,-2.261513,1.4817445,0.3345648,0.13835874,-0.008868661,0.9321185,-5.593921,7.0076294,0.35576615,-0.3590065,0.59242916,0.2909787,0
1.5700000000000012,8.190139732155286,-0.35892458297561697,2.0698602193038234,0.29410443158198235,12.743786,0.039505508,-2.1336088,-0.7084965,2.255433,-2.1914804,1.485206,0.33351538,0.1280909,-0.0072819404,0.9339741,-5.573821,6.9990025,0.3365913,-0.3589246,2.0698602,0.29410443,0
1.5800000000000012,8.190139732155286,-0.35892458297561697,2.0698602193038234,0.29410443158198235,12.743786,0.039505508,-2.1336088,-0.7084965,2.199789,-2.12153,1.488478,0.33242843,0.11780866,-0.0056944015,0.93572456,-5.555166,6.9911995,0.31785578,-0.3589246,2.0698602,0.29410443,0
1.5900000000000012,8.190139732155286,-0.35892458297561697,2.0698602193038234,0.29410443158198235,12.743786,0.039505508,-2.1336088,-0.7084965,2.1443243,-2.0516536,1.4915645,0.3313041,0.107513174,-0.0041062227,0.93736976,-5.5379663,6.9842205,0.29952464,-0.3589246,2.0698602,0.29410443,0
1.6000000000000012,8.218379138221856,-0.37458628975737085,2.277510052384247,0.2877635437379174,12.492966,-0.47311553,-2.5028214,-0.59442157,2.0890245,-1.9818429,1.4944696,0.33014253,0.09720559,-0.002517581,0.93890953,-5.522232,6.978063,0.28156286,-0.3589246,2.0698602,0.29410443,0
1.6100000000000012,8.218379138221856,-0.37458628975737085,2.277510052384247,0.2877635437379174,12.492966,-0.47311553,-2.5028214,-0.59442157,2.0338748,-1.9120895,1.4971983,0.32898006,0.08588543,-0.00065631175,0.94042325,-5.507976,6.972744,0.26422396,-0.37458628,2.2775102,0.28776354,0
1.6200000000000012,8.218379138221856,-0.37458628975737085,2.277510052384247,0.2877635437379174,12.492966,-0.47311553,-2.5028214,-0.59442157,1.9788594,-1.8423848,1.4997553,0.32777306,0.07455366,0.0012050461,0.9418098,-5.4953475,6.968342,0.24721062,-0.37458628,2.2775102,0.28776354,0
1.6300000000000012,8.218379138221856,-0.37458628975737085,2.277510052384247,0.2877635437379174,12.492966,-0.47311553,-2.5028214,-0.59442157,1.9239622,-1.7727195,1.5021434,0.32652175,0.063211806,0.0030662408,0.9430689,-5.484357,6.9648542,0.23047978,-0.37458628,2.2775102,0.28776354,0
1.6400000000000012,8.218379138221856,-0.37458628975737085,2.277510052384247,0.2877635437379174,11.680538,-0.8477142,-2.5846055,-0.34827405,1.8691667,-1.7030846,1.5043656,0.32522625,0.0518614,0.0049270215,0.94420046,-5.475013,6.9622784,0.21398823,-0.37458628,2.2775102,0.28776354,0
1.6500000000000012,8.218379138221856,-0.37458628975737085,2.277510052384247,0.2877635437379174,11.680538,-0.8477142,-2.5846055,-0.34827405,1.8144562,-1.6334709,1.5064238,0.3238868,0.040503982,0.006787135,0.9452044,-5.467322,6.9606104,0.19769265,-0.37458628,2.2775102,0.28776354,0
1.6600000000000013,8.218379138221856,-0.37458628975737085,2.277510052384247,0.2877635437379174,11.680538,-0.8477142,-2.5846055,-0.34827405,1.7598144,-1.5638691,1.50832,0.32250354,0.029141085,0.008646331,0.9460803,-5.461291,6.959847,0.18154961,-0.37458628,2.2775102,0.28776354,0
1.6700000000000013,8.218379138221856,-0.37458628975737085,2.277510052384247,0.2877635437379174,11.680538,-0.8477142,-2.5846055,-0.34827405,1.7052246,-1.4942707,1.5100552,0.32107663,0.017774247,0.010504358,0.9468284,-5.4569263,6.9599833,0.1655156,-0.37458628,2.2775102,0.28776354,0
1.6800000000000013,8.318175797437288,-0.37075901582580123,1.8855333979986793,0.27752754973380334,9.307945,-0.5631795,-1.2169076,-0.2458331,1.6506702,-1.4246665,1.5116304,0.3196063,0.0064050034,0.012360964,0.94744843,-5.454233,6.9610143,0.14954707,-0.37458628,2.2775102,0.28776354,0
1.6900000000000013,8.318175797437288,-0.37075901582580123,1.8855333979986793,0.27752754973380334,9.307945,-0.5631795,-1.2169076,-0.2458331,1.5961348,-1.3550476,1.5130512,0.31817192,-0.0031027093,0.0136082405,0.9479306,-5.4531045,6.9628854,0.13459891,-0.370759,1.8855335,0.27752754,0
1.7000000000000013,8.318175797437288,-0.37075901582580123,1.8855333979986793,0.27752754973380334,9.307945,-0.5631795,-1.2169076,-0.2458331,1.5416033,-1.2854065,1.5143224,0.31670752,-0.012610131,0.014854235,0.94832337,-5.4534125,6.9654574,0.11963913,-0.370759,1.8855335,0.27752754,0
1.7100000000000013,8.318175797437288,-0.37075901582580123,1.8855333979986793,0.27752754973380334,9.307945,-0.5631795,-1.2169076,-0.2458331,1.4870615,-1.2157362,1.5154439,0.3152133,-0.022116363,0.016098829,0.9486268,-5.455159,6.9687257,0.104637116,-0.370759,1.8855335,0.27752754,0
1.7200000000000013,8.518793797055652,-0.38399607655166956,1.2807634235372078,0.2698133086393262,9.124408,-0.4610586,-1.1505754,-0.23876601,1.4324951,-1.1460297,1.516415,0.31368932,-0.03162051,0.017341906,0.94884086,-5.4583454,6.9726844,0.08956232,-0.370759,1.8855335,0.27752754,0
1.7300000000000013,8.518793797055652,-0.38399607655166956,1.2807634235372078,0.2698133086393262,9.124408,-0.4610586,-1.1505754,-0.23876601,1.3778896,-1.0762799,1.5172449,0.3122302,-0.03827481,0.017571213,0.9490728,-5.462931,6.977322,0.076399624,-0.38399607,1.2807634,0.2698133,0
1.7400000000000013,8.518793797055652,-0.38399607655166956,1.2807634235372078,0.2698133086393262,9.124408,-0.4610586,-1.1505754,-0.23876601,1.3232328,-1.0064818,1.5179428,0.3107566,-0.04492733,0.017799703,0.94926053,-5.4685864,6.9823422,0.06315067,-0.38399607,1.2807634,0.2698133,0
1.7500000000000013,8.518793797055652,-0.38399607655166956,1.2807634235372078,0.2698133086393262,9.124408,-0.4610586,-1.1505754,-0.23876601,1.2685142,-0.9366317,1.5185076,0.3092685,-0.051577754,0.018027363,0.9494042,-5.4753113,6.987741,0.049800374,-0.38399607,1.2807634,0.2698133,0
1.7600000000000013,8.822611530509164,-0.3670305732063237,0.7438449455902425,0.26882901370388607,9.559117,-0.12749311,-1.4195167,-0.2632026,1.213723,-0.8667257,1.5189383,0.30776602,-0.058225784,0.018254185,0.94950366,-5.483105,6.993515,0.036333706,-0.38399607,1.2807634,0.2698133,0
1.7700000000000014,8.822611530509164,-0.3670305732063237,0.7438449455902425,0.26882901370388607,9.559117,-0.12749311,-1.4195167,-0.2632026,1.1588473,-0.7967593,1.5192488,0.30631208,-0.062296897,0.017734444,0.9497253,-5.4921384,6.99978,0.025772039,-0.36703056,0.7438449,0.26882902,0
1.7800000000000014,8.822611530509164,-0.3670305732063237,0.7438449455902425,0.26882901370388607,9.559117,-0.12749311,-1.4195167,-0.2632026,1.1038777,-0.7267297,1.5194534,0.30485234,-0.06636682,0.017214367,0.94992876,-5.5018888,7.0061626,0.01512488,-0.36703056,0.7438449,0.26882902,0
1.7900000000000014,8.822611530509164,-0.3670305732063237,0.7438449455902425,0.26882901370388607,9.559117,-0.12749311,-1.4195167,-0.2632026,1.0488069,-0.65663564,1.519551,0.30338678,-0.07043548,0.016693963,0.95011425,-5.5123563,7.012661,0.004386311,-0.36703056,0.7438449,0.26882902,0
1.8000000000000014,9.14192525776898,-0.38361969044790817,0.18038235442809705,0.28024137115924685,9.553171,-0.05354366,-1.4995377,-0.10882467,0.993628,-0.586476,1.5195408,0.3019155,-0.0745028,0.01617324,0.95028174,-5.5235395,7.0192723,-0.0064495727,-0.36703056,0.7438449,0.26882902,0
1.8100000000000014,9.14192525776898,-0.38361969044790817,0.18038235442809705,0.28024137115924685,9.553171,-0.05354366,-1.4995377,-0.10882467,0.938332,-0.51624894,1.5194374,0.3004255,-0.075916074,0.01472715,0.95066553,-5.535717,7.026123,-0.014204427,-0.3836197,0.18038236,0.28024137,0
1.8200000000000014,9.14192525776898,-0.38361969044790817,0.18038235442809705,0.28024137115924685,9.553171,-0.05354366,-1.4995377,-0.10882467,0.8829126,-0.4459543,1.5192565,0.2989336,-0.07732885,0.013280966,0.9510432,-5.548229,7.03278,-0.021990532,-0.3836197,0.18038236,0.28024137,0
1.8300000000000014,9.14192525776898,-0.38361969044790817,0.18038235442809705,0.28024137115924685,9.553171,-0.05354366,-1.4995377,-0.10882467,0.82736635,-0.375594,1.5189973,0.2974397,-0.07874113,0.011834696,0.95141476,-5.5610747,7.039243,-0.029809372,-0.3836197,0.18038236,0.28024137,0
1.8400000000000014,9.14192525776898,-0.38361969044790817,0.18038235442809705,0.28024137115924685,9.623604,-0.034828875,-1.2041965,0.01882035,0.77169,-0.3051701,1.51866,0.29594386,-0.08015291,0.01038835,0.95178014,-5.5742536,7.0455103,-0.03766243,-0.3836197,0.18038236,0.28024137,0
1.8500000000000014,9.14192525776898,-0.38361969044790817,0.18038235442809705,0.28024137115924685,9.623604,-0.034828875,-1.2041965,0.01882035,0.7158802,-0.23468448,1.5182439,0.2944461,-0.08156416,0.008941936,0.9521394,-5.5877643,7.0515814,-0.045551173,-0.3836197,0.18038236,0.28024137,0
1.8600000000000014,9.14192525776898,-0.38361969044790817,0.18038235442809705,0.28024137115924685,9.623604,-0.034828875,-1.2041965,0.01882035,0.6599336,-0.16413914,1.5177487,0.29294646,-0.08297488,0.0074954643,0.9524925,-5.6016064,7.057454,-0.053477086,-0.3836197,0.18038236,0.28024137,0
1.8700000000000014,9.14192525776898,-0.38361969044790817,0.18038235442809705,0.28024137115924685,9.623604,-0.034828875,-1.2041965,0.01882035,0.60384697,-0.093536064,1.5171741,0.291445,-0.08438507,0.006048944,0.95283943,-5.615779,7.0631285,-0.06144165,-0.3836197,0.18038236,0.28024137,0
1.8800000000000014,9.47442614843078,-0.36352567494568677,0.3658703519739899,0.28853747202910124,9.674015,0.2760655,-0.43580595,-0.0082930885,0.54761696,-0.022877242,1.5165199,0.28994164,-0.08579472,0.004602385,0.95318025,-5.6302814,7.068604,-0.06944633,-0.3836197,0.18038236,0.28024137,1
1.8900000000000015,9.47442614843078,-0.36352567494568677,0.3658703519739899,0.28853747202910124,9.674015,0.2760655,-0.43580595,-0.0082930885,0.49123684,0.047837093,1.5158116,0.29010865,-0.0833174,0.005282721,0.95334566,-5.645661,7.0742617,-0.07220433,0.2760655,-0.43580595,-0.0082930885,1
1.9000000000000015,9.47442614843078,-0.36352567494568677,0.3658703519739899,0.28853747202910124,9.674015,0.2760655,-0.43580595,-0.0082930885,0.43470544,0.11860795,1.5150762,0.29027376,-0.08083953,0.0059630214,0.9535047,-5.6605477,7.079909,-0.07488352,0.2760655,-0.43580595,-0.0082930885,1
1.9100000000000015,9.47442614843078,-0.36352567494568677,0.3658703519739899,0.28853747202910124,9.674015,0.2760655,-0.43580595,-0.0082930885,0.37802762,0.18943524,1.5143143,0.29043695,-0.078361124,0.0066432827,0.9536574,-5.674941,7.085545,-0.077486455,0.2760655,-0.43580595,-0.0082930885,1
1.9200000000000015,9.780892741455247,-0.5024764678715256,0.263977795543521,0.32307863479317533,10.243159,0.20930663,-0.49389064,-0.015721973,0.32120833,0.26031882,1.5135268,0.29059812,-0.0758822,0.0073234993,0.9538038,-5.6888413,7.09117,-0.08001565,0.2760655,-0.43580595,-0.0082930885,1
1.9300000000000015,9.780892741455247,-0.5024764678715256,0.263977795543521,0.32307863479317533,10.243159,0.20930663,-0.49389064,-0.015721973,0.26424855,0.33126014,1.5127424,0.29076955,-0.07322301,0.0075980765,0.9539572,-5.703032,7.09708,-0.0768443,0.20930663,-0.49389064,-0.015721973,1
1.9400000000000015,9.780892741455247,-0.5024764678715256,0.263977795543521,0.32307863479317533,10.243159,0.20930663,-0.49389064,-0.015721973,0.20714952,0.4022601,1.5119902,0.29093888,-0.070563294,0.007872598,0.95410377,-5.7166886,7.1028886,-0.073593654,0.20930663,-0.49389064,-0.015721973,1
1.9500000000000015,9.780892741455247,-0.5024764678715256,0.263977795543521,0.32307863479317533,10.243159,0.20930663,-0.49389064,-0.015721973,0.14991659,0.47331762,1.5112709,0.29110613,-0.06790307,0.008147063,0.9542435,-5.729811,7.108595,-0.07026663,0.20930663,-0.49389064,-0.015721973,1
1.9600000000000015,9.96062614564318,-0.8307297273846883,0.8012368935587768,0.3889173241116879,10.479836,-0.49605927,-0.11642774,0.21324176,0.09255512,0.5444317,1.5105852,0.2912713,-0.06524235,0.008421471,0.95437634,-5.742399,7.1141987,-0.06686612,0.20930663,-0.49389064,-0.015721973,1
1.9700000000000015,9.96062614564318,-0.8307297273846883,0.8012368935587768,0.3889173241116879,10.479836,-0.49605927,-0.11642774,0.21324176,0.03506824,0.6156015,1.5099455,0.2900957,-0.06539998,0.005954308,0.95474213,-5.755007,7.119679,-0.06107342,-0.49605927,-0.11642774,0.21324176,1
1.9800000000000015,9.96062614564318,-0.8307297273846883,0.8012368935587768,0.3889173241116879,10.479836,-0.49605927,-0.11642774,0.21324176,-0.022545658,0.6868236,1.5093638,0.2889179,-0.065557115,0.0034870992,0.9551006,-5.7678022,7.1246595,-0.05527856,-0.49605927,-0.11642774,0.21324176,1
1.9900000000000015,9.96062614564318,-0.8307297273846883,0.8012368935587768,0.3889173241116879,10.479836,-0.49605927,-0.11642774,0.21324176,-0.08028845,0.758093,1.50884,0.28773788,-0.06571375,0.0010198639,0.95545185,-5.7807846,7.12914,-0.049484085,-0.49605927,-0.11642774,0.21324176,1
2.0000000000000013,,,,,9.9344225,-0.6748712,0.081208564,0.19692296,-0.13816199,0.8294047,1.5083741,0.28655568,-0.06586988,-0.0014473794,0.95579576,-5.7939525,7.1331196,-0.043692544,-0.49605927,-0.11642774,0.21324176,1
2.010000000000001,,,,,9.9344225,-0.6748712,0.081208564,0.19692296,-0.19616494,0.9007527,1.5079391,0.28539112,-0.06722593,-0.0044913488,0.95604026,-5.8067064,7.136401,-0.04332527,-0.6748712,0.081208564,0.19692296,1
2.020000000000001,,,,,9.9344225,-0.6748712,0.081208564,0.19692296,-0.25429758,0.97213095,1.5075074,0.284223,-0.06858114,-0.007535262,0.95627284,-5.819893,7.139166,-0.042999096,-0.6748712,0.081208564,0.19692296,1
2.0300000000000007,,,,,9.9344225,-0.6748712,0.081208564,0.19692296,-0.31256425,1.0435343,1.5070789,0.28305128,-0.069935486,-0.01057908,0.9564934,-5.8335104,7.1414127,-0.042718403,-0.6748712,0.081208564,0.19692296,1
2.0400000000000005,,,,,9.9344225,-0.6748712,0.081208564,0.19692296,-0.37096927,1.1149575,1.5066528,0.28187606,-0.07128896,-0.013622766,0.956702,-5.847557,7.143141,-0.042487588,-0.6748712,0.081208564,0.19692296,1
2.0500000000000003,,,,,10.118369,-0.8210566,0.22830594,0.2792427,-0.42951688,1.1863953,1.5062287,0.2806973,-0.07264154,-0.016666282,0.9568986,-5.8620315,7.1443486,-0.042311028,-0.6748712,0.081208564,0.19692296,1
2.06,,,,,10.118369,-0.8210566,0.22830594,0.2792427,-0.48821297,1.2578427,1.5058153,0.27907926,-0.07490873,-0.020172594,0.9571296,-5.877283,7.145032,-0.040386043,-0.8210566,0.22830594,0.2792427,1
2.07,,,,,10.118369,-0.8210566,0.22830594,0.2792427,-0.5470648,1.329294,1.5054207,0.2774556,-0.07717443,-0.023678502,0.9573413,-5.8931684,7.145139,-0.038557526,-0.8210566,0.22830594,0.2792427,1
2.0799999999999996,,,,,10.118369,-0.8210566,0.22830594,0.2792427,-0.60607857,1.4007435,1.5050437,0.2758264,-0.07943858,-0.027183935,0.9575338,-5.909686,7.144668,-0.03683247,-0.8210566,0.22830594,0.2792427,1
2.0899999999999994,,,,,10.051993,-0.8659071,0.4450533,0.29473704,-0.6652607,1.4721854,1.5046836,0.27419162,-0.08170113,-0.03068882,0.957707,-5.9268317,7.143617,-0.03521788,-0.8210566,0.22830594,0.2792427,1
2.099999999999999,,,,,10.051993,-0.8659071,0.4450533,0.29473704,-0.72461694,1.543614,1.5043358,0.27249128,-0.085063554,-0.034104284,0.957784,-5.944564,7.142024,-0.03438749,-0.8659071,0.4450533,0.29473704,1
2.109999999999999,,,,,10.051993,-0.8659071,0.4450533,0.29473704,-0.7841547,1.6150242,1.5039953,0.2707839,-0.08842378,-0.037518866,0.9578362,-5.96312,7.139928,-0.033717748,-0.8659071,0.4450533,0.29473704,1
2.1199999999999988,,,,,10.051993,-0.8659071,0.4450533,0.29473704,-0.84388214,1.6864109,1.5036607,0.26906952,-0.09178172,-0.040932477,0.9578636,-5.9824967,7.137327,-0.033217795,-0.8659071,0.4450533,0.29473704,1
2.1299999999999986,,,,,10.22167,-0.6997856,0.590465,0.34270102,-0.90380746,1.757769,1.5033301,0.26734817,-0.09513729,-0.04434503,0.95786625,-6.002691,7.134219,-0.03289675,-0.8659071,0.4450533,0.29473704,1
2.1399999999999983,,,,,10.22167,-0.6997856,0.590465,0.34270102,-0.96394056,1.8290935,1.5030103,0.2655017,-0.09897549,-0.04674368,0.957877,-6.024069,7.1306243,-0.031105638,-0.6997856,0.590465,0.34270102,1
2.149999999999998,,,,,10.22167,-0.6997856,0.590465,0.34270102,-1.0242918,1.9003805,1.5027074,0.26364893,-0.102811314,-0.04914121,0.9578648,-6.0463114,7.126731,-0.0295146,-0.6997856,0.590465,0.34270102,1
2.159999999999998,,,,,10.22167,-0.6997856,0.590465,0.34270102,-1.0848696,1.9716271,1.5024194,0.26178983,-0.10664468,-0.051537566,0.9578298,-6.069415,7.122536,-0.028131882,-0.6997856,0.590465,0.34270102,1
