time-since-start [s],throttle_mpc,roll_mpc,pitch_mpc,yaw_mpc,throttle_nw,roll_nw,pitch_nw,yaw_nw,position_x [m],position_y [m],position_z [m],rotation_w [quaternion],rotation_x [quaternion],rotation_y [quaternion],rotation_z [quaternion],velocity_x [m/s],velocity_y [m/s],velocity_z [m/s],omega_x [rad/s],omega_y [rad/s],omega_z [rad/s],network_used
0.0,5.575099884147014,3.862409473655709,-5.999999301849294,-1.56605582213528,10.766144,-0.5597218,-1.3343525,0.27574724,11.430893,-10.660917,1.1162364,0.33975524,-0.22464582,0.27857757,0.8697673,-7.6850853,4.049173,0.6414331,0.16845267,0.31872636,0.38726002,0
0.01,5.575099884147014,3.862409473655709,-5.999999301849294,-1.56605582213528,9.431435,1.0433817,-3.2723856,-1.2664273,11.35399,-10.620248,1.1223689,0.35903046,-0.1940297,0.28323597,0.8678865,-7.694897,4.084586,0.5852443,3.8624096,-5.9999995,-1.5660558,0
0.02,5.575099884147014,3.862409473655709,-5.999999301849294,-1.56605582213528,9.431435,1.0433817,-3.2723856,-1.2664273,11.277007,-10.5792265,1.1279451,0.3778267,-0.16315472,0.28751647,0.86484784,-7.700905,4.119564,0.5301258,3.8624096,-5.9999995,-1.5660558,0
0.03,5.575099884147014,3.862409473655709,-5.999999301849294,-1.56605582213528,9.431435,1.0433817,-3.2723856,-1.2664273,11.199984,-10.537858,1.1329746,0.39611888,-0.13206206,0.2914134,0.8606553,-7.7030926,4.1538806,0.47589546,3.8624096,-5.9999995,-1.5660558,0
0.04,5.575099884147014,3.862409473655709,-5.999999301849294,-1.56605582213528,11.683822,-0.74833536,-1.3057215,-0.08272654,11.122957,-10.496152,1.1374654,0.4138826,-0.100793235,0.29492158,0.8553146,-7.7014675,4.187313,0.42236623,3.8624096,-5.9999995,-1.5660558,0
0.05,5.575099884147014,3.862409473655709,-5.999999301849294,-1.56605582213528,11.683822,-0.74833536,-1.3057215,-0.08272654,11.045966,-10.454116,1.1414236,0.43109414,-0.06938993,0.29803625,0.8488328,-7.696056,4.2196445,0.3693475,3.8624096,-5.9999995,-1.5660558,0
0.060000000000000005,5.575099884147014,3.862409473655709,-5.999999301849294,-1.56605582213528,11.683822,-0.74833536,-1.3057215,-0.08272654,10.9690485,-10.411763,1.1448535,0.44773054,-0.03789405,0.30075333,0.84121853,-7.6869035,4.2506633,0.31664592,3.8624096,-5.9999995,-1.5660558,0
0.07,5.575099884147014,3.862409473655709,-5.999999301849294,-1.56605582213528,11.683822,-0.74833536,-1.3057215,-0.08272654,10.892241,-10.369107,1.147757,0.46376964,-0.00634762,0.30306914,0.8324819,-7.674078,4.2801642,0.26406634,3.8624096,-5.9999995,-1.5660558,0
0.08,10.214340968905244,2.6119132163665912,-5.999999844383762,0.05103281490909831,12.964098,-1.7443558,2.1413708,0.032204334,10.815579,-10.326165,1.1501346,0.47919002,0.02520728,0.30498064,0.82263476,-7.657665,4.3079515,0.21141307,3.8624096,-5.9999995,-1.5660558,0
0.09,10.214340968905244,2.6119132163665912,-5.999999844383762,0.05103281490909831,12.964098,-1.7443558,2.1413708,0.032204334,10.739179,-10.2828455,1.1521733,0.48754233,0.05620313,0.30117917,0.81757843,-7.6215763,4.3552227,0.19633645,2.6119132,-6.0,0.051032815,0
0.09999999999999999,10.214340968905244,2.6119132163665912,-5.999999844383762,0.05103281490909831,12.964098,-1.7443558,2.1413708,0.032204334,10.663166,-10.239074,1.1540606,0.49537268,0.08713882,0.29705527,0.8116469,-7.580256,4.398341,0.18108107,2.6119132,-6.0,0.051032815,0
0.10999999999999999,10.214340968905244,2.6119132163665912,-5.999999844383762,0.05103281490909831,12.964098,-1.7443558,2.1413708,0.032204334,10.587591,-10.194894,1.1557931,0.50267273,0.11798122,0.29261336,0.80484635,-7.5338793,4.4371247,0.16529033,2.6119132,-6.0,0.051032815,0
0.11999999999999998,10.214340968905244,2.6119132163665912,-5.999999844383762,0.05103281490909831,12.964098,-1.7443558,2.1413708,0.032204334,10.512505,-10.150348,1.1573634,0.50943464,0.1486973,0.28785822,0.7971842,-7.4826427,4.4714093,0.14860988,2.6119132,-6.0,0.051032815,0
0.12999999999999998,14.695264354550954,0.5880118670888985,-5.999999528679187,1.2911405441385777,12.848552,-2.5816805,1.8514315,0.018976633,10.437953,-10.105482,1.158761,0.5156512,0.1792542,0.2827949,0.7886687,-7.4267635,4.5010514,0.13068922,2.6119132,-6.0,0.051032815,0
0.13999999999999999,14.695264354550954,0.5880118670888985,-5.999999528679187,1.2911405441385777,12.848552,-2.5816805,1.8514315,0.018976633,10.364112,-10.060287,1.1601467,0.5182712,0.2061665,0.26835477,0.7854143,-7.3408146,4.536501,0.14636545,0.58801186,-5.9999995,1.2911406,0
0.15,14.695264354550954,0.5880118670888985,-5.999999528679187,1.2911405441385777,12.848552,-2.5816805,1.8514315,0.018976633,10.29115,-10.014778,1.1616851,0.5203987,0.2328829,0.25365967,0.7814135,-7.2508974,4.5640826,0.16115066,0.58801186,-5.9999995,1.2911406,0
0.16,15.541332784367633,-0.3858862883391747,-5.999999096762389,1.7136340547025857,13.12264,-2.9360688,1.8635582,0.28396386,10.219107,-9.969032,1.1633649,0.52203166,0.259378,0.2387235,0.77667016,-7.157263,4.5837436,0.17456298,0.58801186,-5.9999995,1.2911406,0
0.17,15.541332784367633,-0.3858862883391747,-5.999999096762389,1.7136340547025857,13.12264,-2.9360688,1.8635582,0.28396386,10.148045,-9.923126,1.1652027,0.52278394,0.2835856,0.21922816,0.7734433,-7.0549726,4.595941,0.19280069,-0.38588628,-5.999999,1.713634,0
0.18000000000000002,15.541332784367633,-0.3858862883391747,-5.999999096762389,1.7136340547025857,13.12264,-2.9360688,1.8635582,0.28396386,10.078017,-9.877143,1.1672158,0.52302545,0.30751613,0.19951864,0.76946074,-6.950333,4.599224,0.20953211,-0.38588628,-5.999999,1.713634,0
0.19000000000000003,15.541332784367633,-0.3858862883391747,-5.999999096762389,1.7136340547025857,13.12264,-2.9360688,1.8635582,0.28396386,10.009046,-9.831171,1.1693864,0.522756,0.3311462,0.17961417,0.76472634,-6.8436103,4.59363,0.22423881,-0.38588628,-5.999999,1.713634,0
0.20000000000000004,14.696169455429937,-0.7443044653715575,-4.648562455953722,1.564695272118009,13.799977,-2.1578472,1.1875817,-0.17561203,9.941151,-9.7853,1.1716919,0.52197576,0.35445276,0.1595342,0.75924486,-6.7350783,4.579229,0.2364102,-0.38588628,-5.999999,1.713634,0
0.21000000000000005,14.696169455429937,-0.7443044653715575,-4.648562455953722,1.564695272118009,13.799977,-2.1578472,1.1875817,-0.17561203,9.874317,-9.73961,1.1740762,0.52090245,0.37129456,0.14175616,0.7554506,-6.6312766,4.5579715,0.24012996,-0.7443045,-4.6485624,1.5646952,0
0.22000000000000006,14.696169455429937,-0.7443044653715575,-4.648562455953722,1.564695272118009,13.799977,-2.1578472,1.1875817,-0.17561203,9.808526,-9.694164,1.1764872,0.5195087,0.3879079,0.12389091,0.7511915,-6.5269604,4.530153,0.24172081,-0.7443045,-4.6485624,1.5646952,0
0.23000000000000007,14.696169455429937,-0.7443044653715575,-4.648562455953722,1.564695272118009,13.799977,-2.1578472,1.1875817,-0.17561203,9.743779,-9.649029,1.1789024,0.5177954,0.40428257,0.10594943,0.7464703,-6.422285,4.495865,0.24089073,-0.7443045,-4.6485624,1.5646952,0
0.24000000000000007,14.696169455429937,-0.7443044653715575,-4.648562455953722,1.564695272118009,13.619316,-2.0486174,1.070057,-0.2626639,9.68008,-9.604269,1.1812959,0.5157634,0.42040852,0.08794276,0.7412898,-6.317407,4.4552145,0.23735367,-0.7443045,-4.6485624,1.5646952,0
0.25000000000000006,14.696169455429937,-0.7443044653715575,-4.648562455953722,1.564695272118009,13.619316,-2.0486174,1.070057,-0.2626639,9.617431,-9.559947,1.1836393,0.5134141,0.4362758,0.069881976,0.73565316,-6.212483,4.4083247,0.23083028,-0.7443045,-4.6485624,1.5646952,0
0.26000000000000006,14.696169455429937,-0.7443044653715575,-4.648562455953722,1.564695272118009,13.619316,-2.0486174,1.070057,-0.2626639,9.55583,-9.516124,1.1859014,0.51074886,0.4518747,0.051778205,0.7295639,-6.1076694,4.355334,0.22104852,-0.7443045,-4.6485624,1.5646952,0
0.2700000000000001,14.696169455429937,-0.7443044653715575,-4.648562455953722,1.564695272118009,13.619316,-2.0486174,1.070057,-0.2626639,9.495276,-9.47286,1.1880481,0.50776947,0.4671956,0.033642575,0.7230258,-6.003123,4.296396,0.20774437,-0.7443045,-4.6485624,1.5646952,0
0.2800000000000001,12.735304407936543,-0.9547632842857583,0.04600909293815311,1.4982460897126406,14.593897,-0.9042429,1.1133765,-0.7107881,9.435766,-9.430216,1.1900432,0.5044776,0.482229,0.015486244,0.7160429,-5.8989987,4.2316794,0.19066249,-0.7443045,-4.6485624,1.5646952,0
0.2900000000000001,12.735304407936543,-0.9547632842857583,0.04600909293815311,1.4982460897126406,14.593897,-0.9042429,1.1133765,-0.7107881,9.377225,-9.388195,1.1918004,0.5013922,0.479753,0.008571031,0.7199786,-5.8093834,4.1723323,0.16086869,-0.9547633,0.046009094,1.4982461,0
0.3000000000000001,12.735304407936543,-0.9547632842857583,0.04600909293815311,1.4982460897126406,14.593897,-0.9042429,1.1133765,-0.7107881,9.319576,-9.34677,1.1932628,0.4982672,0.4772391,0.0016551405,0.7238574,-5.7206373,4.1124244,0.1317171,-0.9547633,0.046009094,1.4982461,0
0.3100000000000001,12.735304407936543,-0.9547632842857583,0.04600909293815311,1.4982460897126406,14.593897,-0.9042429,1.1133765,-0.7107881,9.26281,-9.305947,1.1944369,0.49510285,0.47468752,-0.00526088,0.727679,-5.6327686,4.0519476,0.10318938,-0.9547633,0.046009094,1.4982461,0
0.3200000000000001,11.356064404489729,-0.9359411283167616,4.927922706978225,1.425392358146708,15.108079,-0.899371,2.1226187,-0.6028946,9.206919,-9.265733,1.1953287,0.4918994,0.47209847,-0.012176485,0.7314433,-5.5457845,3.9908938,0.07526698,-0.9547633,0.046009094,1.4982461,0
0.3300000000000001,11.356064404489729,-0.9359411283167616,4.927922706978225,1.425392358146708,15.108079,-0.899371,2.1226187,-0.6028946,9.151845,-9.226094,1.1959102,0.48902887,0.45152912,-0.0068403054,0.74627405,-5.4691834,3.9374173,0.04171147,-0.9359411,4.9279227,1.4253924,0
0.34000000000000014,11.356064404489729,-0.9359411283167616,4.927922706978225,1.425392358146708,15.108079,-0.899371,2.1226187,-0.6028946,9.097531,-9.186972,1.1961776,0.4858259,0.43065283,-0.0014994763,0.7605975,-5.393971,3.887426,0.012440461,-0.9359411,4.9279227,1.4253924,0
0.35000000000000014,11.356064404489729,-0.9359411283167616,4.927922706978225,1.425392358146708,15.108079,-0.899371,2.1226187,-0.6028946,9.043961,-9.148332,1.1961732,0.4822927,0.4094838,0.0038423724,0.774404,-5.320393,3.840993,-0.012695406,-0.9359411,4.9279227,1.4253924,0
0.36000000000000015,10.043927232871827,-1.0530350189362068,5.999998447887988,1.044089085212397,15.848236,-0.49356946,3.5080664,-0.45139676,8.9911175,-9.110139,1.1959373,0.47843164,0.3880364,0.009181609,0.787684,-5.2486916,3.7981815,-0.033856735,-0.9359411,4.9279227,1.4253924,0
0.37000000000000016,10.043927232871827,-1.0530350189362068,5.999998447887988,1.044089085212397,15.848236,-0.49356946,3.5080664,-0.45139676,8.938939,-9.072332,1.1954634,0.4758592,0.36175367,0.017355852,0.8014928,-5.1872816,3.7638555,-0.060293432,-1.053035,5.9999986,1.0440891,0
0.38000000000000017,10.043927232871827,-1.0530350189362068,5.999998447887988,1.044089085212397,15.848236,-0.49356946,3.5080664,-0.45139676,8.8873625,-9.034848,1.1947446,0.47283232,0.3351255,0.025513522,0.81453615,-5.1283507,3.733613,-0.08291059,-1.053035,5.9999986,1.0440891,0
0.3900000000000002,10.043927232871827,-1.0530350189362068,5.999998447887988,1.044089085212397,15.848236,-0.49356946,3.5080664,-0.45139676,8.836362,-8.997646,1.1938175,0.46935394,0.30817732,0.033646833,0.8268017,-5.0721617,3.7075233,-0.10197117,-1.053035,5.9999986,1.0440891,0
0.4000000000000002,10.003439983669574,-0.9587131572663017,5.999997048755093,0.8455674187426838,14.130803,-1.6767639,3.6002107,-0.2883206,8.785909,-8.960685,1.1927164,0.46542737,0.2809349,0.041748013,0.83827776,-5.0189667,3.6856396,-0.11775176,-1.053035,5.9999986,1.0440891,0
0.4100000000000002,10.003439983669574,-0.9587131572663017,5.999997048755093,0.8455674187426838,14.130803,-1.6767639,3.6002107,-0.2883206,8.735971,-8.92392,1.191471,0.46175912,0.25360417,0.05048373,0.8484777,-4.969179,3.6680915,-0.13089718,-0.9587132,5.999997,0.8455674,0
0.4200000000000002,10.003439983669574,-0.9587131572663017,5.999997048755093,0.8455674187426838,14.130803,-1.6767639,3.6002107,-0.2883206,8.686514,-8.887308,1.1901077,0.45765647,0.22603482,0.059171952,0.85787946,-4.922762,3.654851,-0.14139518,-0.9587132,5.999997,0.8455674,0
0.4300000000000002,10.003439983669574,-0.9587131572663017,5.999997048755093,0.8455674187426838,14.130803,-1.6767639,3.6002107,-0.2883206,8.637504,-8.850807,1.1886513,0.45312327,0.19825281,0.0678045,0.86647403,-4.87992,3.6459317,-0.149556,-0.9587132,5.999997,0.8455674,0
0.4400000000000002,10.003439983669574,-0.9587131572663017,5.999997048755093,0.8455674187426838,12.985942,-1.2102958,2.9280155,-0.25437194,8.588903,-8.814373,1.1871237,0.44816378,0.1702843,0.076373264,0.8742535,-4.840848,3.6413305,-0.15569872,-0.9587132,5.999997,0.8455674,0
0.45000000000000023,10.003439983669574,-0.9587131572663017,5.999997048755093,0.8455674187426838,12.985942,-1.2102958,2.9280155,-0.25437194,8.540674,-8.777965,1.1855433,0.44278267,0.14215559,0.084870175,0.88121057,-4.805722,3.6410284,-0.16014999,-0.9587132,5.999997,0.8455674,0
0.46000000000000024,10.003439983669574,-0.9587131572663017,5.999997048755093,0.8455674187426838,12.985942,-1.2102958,2.9280155,-0.25437194,8.492776,-8.741538,1.1839254,0.436985,0.11389316,0.093287244,0.8873386,-4.774707,3.6449902,-0.16324282,-0.9587132,5.999997,0.8455674,0
0.47000000000000025,10.003439983669574,-0.9587131572663017,5.999997048755093,0.8455674187426838,12.985942,-1.2102958,2.9280155,-0.25437194,8.445166,-8.705051,1.1822819,0.43077618,0.08552357,0.101616554,0.89263177,-4.74795,3.6531641,-0.16531533,-0.9587132,5.999997,0.8455674,0
0.48000000000000026,10.302203566799639,-0.9053636546554228,5.9999968225919496,0.5923373633472636,12.388898,-1.8942735,3.0422657,0.2943551,8.3978,-8.668462,1.1806214,0.42416212,0.057073515,0.109850265,0.8970852,-4.7255845,3.6654835,-0.16670951,-0.9587132,5.999997,0.8455674,0
0.49000000000000027,10.302203566799639,-0.9053636546554228,5.9999968225919496,0.5923373633472636,12.388898,-1.8942735,3.0422657,0.2943551,8.350641,-8.631726,1.1789633,0.41827187,0.028544111,0.11829279,0.90013355,-4.7071757,3.6823683,-0.16487703,-0.9053637,5.9999967,0.59233737,0
0.5000000000000002,10.302203566799639,-0.9053636546554228,5.9999968225919496,0.5923373633472636,12.388898,-1.8942735,3.0422657,0.2943551,8.30364,-8.594801,1.1773237,0.411993,-1.1815224e-05,0.1266254,0.90234554,-4.6934595,3.7033799,-0.16307278,-0.9053637,5.9999967,0.59233737,0
0.5100000000000002,10.302203566799639,-0.9053636546554228,5.9999968225919496,0.5923373633472636,12.388898,-1.8942735,3.0422657,0.2943551,8.256754,-8.557645,1.1757005,0.4053313,-0.028567731,0.13484035,0.90371907,-4.6845107,3.7284143,-0.16165556,-0.9053637,5.9999967,0.59233737,0
0.5200000000000002,10.937277611283033,-0.7371021817322466,5.99998263481201,0.36040986484318566,11.688903,-1.8984029,2.8934944,0.5109448,8.209933,-8.520219,1.174088,0.398293,-0.0570971,0.14293002,0.90425295,-4.680385,3.757352,-0.16098274,-0.9053637,5.9999967,0.59233737,0
0.5300000000000002,10.937277611283033,-0.7371021817322466,5.99998263481201,0.36040986484318566,11.688903,-1.8984029,2.8934944,0.5109448,8.16313,-8.482474,1.1725072,0.39198354,-0.08540445,0.1515822,0.9033702,-4.681114,3.7921214,-0.15540266,-0.7371022,5.999983,0.36040986,0
0.5400000000000003,10.937277611283033,-0.7371021817322466,5.99998263481201,0.36040986484318566,11.688903,-1.8984029,2.8934944,0.5109448,8.116294,-8.444363,1.1709744,0.38531476,-0.11363351,0.16009541,0.9016592,-4.686884,3.830865,-0.15140145,-0.7371022,5.999983,0.36040986,0
0.5500000000000003,10.937277611283033,-0.7371021817322466,5.99998263481201,0.36040986484318566,11.688903,-1.8984029,2.8934944,0.5109448,8.069374,-8.405844,1.1694723,0.3782927,-0.1417584,0.16846184,0.8991215,-4.6976876,3.8734236,-0.14934643,-0.7371022,5.999983,0.36040986,0
0.5600000000000003,11.500578928814367,-0.527442949762343,3.491372954019325,0.21942094466486453,10.645204,-1.3762803,2.0888965,0.19561642,8.022323,-8.366881,1.1679796,0.37092388,-0.16975333,0.17667384,0.89575964,-4.713502,3.9196248,-0.14959776,-0.7371022,5.999983,0.36040986,0
0.5700000000000003,11.500578928814367,-0.527442949762343,3.491372954019325,0.21942094466486453,10.645204,-1.3762803,2.0888965,0.19561642,7.9750843,-8.327429,1.1664973,0.36635152,-0.18614745,0.18094508,0.8935291,-4.7345715,3.9712605,-0.14712495,-0.52744293,3.491373,0.21942094,0
0.5800000000000003,11.500578928814367,-0.527442949762343,3.491372954019325,0.21942094466486453,10.645204,-1.3762803,2.0888965,0.19561642,7.92762,-8.287449,1.1650311,0.36166453,-0.20248333,0.18515968,0.891019,-4.75874,4.0248594,-0.14639136,-0.52744293,3.491373,0.21942094,0
0.5900000000000003,11.500578928814367,-0.527442949762343,3.491372954019325,0.21942094466486453,10.645204,-1.3762803,2.0888965,0.19561642,7.8798985,-8.246924,1.163563,0.35686436,-0.21875584,0.18931635,0.88823,-4.785984,4.0803485,-0.14751793,-0.52744293,3.491373,0.21942094,0
0.6000000000000003,11.755917094081825,-0.3626129760118508,0.4223023295961016,0.15328418168424682,10.845754,-1.2877184,2.6063983,0.23386282,7.8318896,-8.205835,1.1620739,0.35195252,-0.23495992,0.1934138,0.8851632,-4.8162746,4.137651,-0.15062329,-0.52744293,3.491373,0.21942094,0
0.6100000000000003,11.755917094081825,-0.3626129760118508,0.4223023295961016,0.15328418168424682,10.845754,-1.2877184,2.6063983,0.23386282,7.7835617,-8.164161,1.1605558,0.35043824,-0.23731785,0.19273137,0.88528377,-4.8494024,4.1973376,-0.15301439,-0.36261296,0.42230234,0.15328418,0
0.6200000000000003,11.755917094081825,-0.3626129760118508,0.4223023295961016,0.15328418168424682,10.845754,-1.2877184,2.6063983,0.23386282,7.734899,-8.121888,1.1590129,0.34892106,-0.2396738,0.19204733,0.885397,-4.8831525,4.256997,-0.15560628,-0.36261296,0.42230234,0.15328418,0
0.6300000000000003,11.755917094081825,-0.3626129760118508,0.4223023295961016,0.15328418168424682,10.845754,-1.2877184,2.6063983,0.23386282,7.6858964,-8.0790205,1.1574432,0.34740096,-0.24202774,0.1913617,0.8855029,-4.917524,4.3166265,-0.1584014,-0.36261296,0.42230234,0.15328418,0
0.6400000000000003,11.755917094081825,-0.3626129760118508,0.4223023295961016,0.15328418168424682,10.785962,-0.6833769,2.0706332,0.01171631,7.636547,-8.035558,1.1558442,0.34587795,-0.24437968,0.19067445,0.88560134,-4.9525156,4.376224,-0.16140226,-0.36261296,0.42230234,0.15328418,0
0.6500000000000004,11.755917094081825,-0.3626129760118508,0.4223023295961016,0.15328418168424682,10.785962,-0.6833769,2.0706332,0.01171631,7.586844,-7.9914966,1.1542143,0.34435207,-0.24672958,0.18998562,0.8856924,-4.9881268,4.4357862,-0.16461127,-0.36261296,0.42230234,0.15328418,0
0.6600000000000004,11.755917094081825,-0.3626129760118508,0.4223023295961016,0.15328418168424682,10.785962,-0.6833769,2.0706332,0.01171631,7.536782,-7.9468417,1.1525512,0.34282333,-0.24907742,0.18929522,0.88577616,-5.024356,4.4953113,-0.16803089,-0.36261296,0.42230234,0.15328418,0
0.6700000000000004,11.755917094081825,-0.3626129760118508,0.4223023295961016,0.15328418168424682,10.785962,-0.6833769,2.0706332,0.01171631,7.486355,-7.901592,1.1508529,0.34129173,-0.2514232,0.18860324,0.8858525,-5.061203,4.5547957,-0.17166354,-0.36261296,0.42230234,0.15328418,0
0.6800000000000004,12.121174585250316,-0.2401218105616074,-0.48424757155369397,0.13096318987664027,11.9522085,0.37892798,1.6266625,-0.24670488,7.4355555,-7.8557467,1.1491172,0.33975726,-0.2537669,0.18790968,0.8859215,-5.098666,4.6142364,-0.17551166,-0.36261296,0.42230234,0.15328418,0
0.6900000000000004,12.121174585250316,-0.2401218105616074,-0.48424757155369397,0.13096318987664027,11.9522085,0.37892798,1.6266625,-0.24670488,7.3843746,-7.809299,1.1473571,0.33932614,-0.2519058,0.18618883,0.8869806,-5.1376247,4.675307,-0.17642713,-0.24012181,-0.48424757,0.13096319,0
0.7000000000000004,12.121174585250316,-0.2401218105616074,-0.48424757155369397,0.13096318987664027,11.9522085,0.37892798,1.6266625,-0.24670488,7.3328047,-7.762243,1.1455898,0.3388924,-0.25004268,0.18446656,0.88803285,-5.1764097,4.7358756,-0.1769594,-0.24012181,-0.48424757,0.13096319,0
0.7100000000000004,12.121174585250316,-0.2401218105616074,-0.48424757155369397,0.13096318987664027,11.9522085,0.37892798,1.6266625,-0.24670488,7.2808475,-7.7145834,1.1438192,0.33845603,-0.24817765,0.18274285,0.8890782,-5.2150173,4.7959414,-0.17711124,-0.24012181,-0.48424757,0.13096319,0
0.7200000000000004,12.481261437869314,-0.11354723928557171,-1.5179341194538587,0.1116578645112343,11.681657,0.18222573,1.7543502,-0.13250142,7.228505,-7.6663256,1.142049,0.33801705,-0.24631071,0.18101773,0.8901167,-5.2534466,4.8555017,-0.17688541,-0.24012181,-0.48424757,0.13096319,0
0.7300000000000004,12.481261437869314,-0.11354723928557171,-1.5179341194538587,0.1116578645112343,11.681657,0.18222573,1.7543502,-0.13250142,7.175774,-7.6174664,1.1402982,0.33874425,-0.23963875,0.17807922,0.8922516,-5.2924757,4.916103,-0.17309274,-0.113547236,-1.5179341,0.111657865,0
0.7400000000000004,12.481261437869314,-0.11354723928557171,-1.5179341194538587,0.1116578645112343,11.681657,0.18222573,1.7543502,-0.13250142,7.1226587,-7.568007,1.1385908,0.33945176,-0.23295285,0.17513032,0.8943346,-5.330362,4.975622,-0.16823629,-0.113547236,-1.5179341,0.111657865,0
0.7500000000000004,12.481261437869314,-0.11354723928557171,-1.5179341194538587,0.1116578645112343,11.681657,0.18222573,1.7543502,-0.13250142,7.069171,-7.5179577,1.1369371,0.34013948,-0.22625336,0.17217122,0.8963655,-5.367094,5.034047,-0.16234018,-0.113547236,-1.5179341,0.111657865,0
0.7600000000000005,12.922638642760708,-0.030747770840081998,-1.6918271007631993,0.09808801169562717,12.411746,-0.099282,0.8828965,0.08132857,7.0153213,-7.46733,1.1353476,0.3408074,-0.2195407,0.1692021,0.8983443,-5.4026628,5.091365,-0.15542874,-0.113547236,-1.5179341,0.111657865,0
0.7700000000000005,12.922638642760708,-0.030747770840081998,-1.6918271007631993,0.09808801169562717,12.411746,-0.099282,0.8828965,0.08132857,6.961116,-7.4161243,1.1338509,0.34175214,-0.21190311,0.16628268,0.90036225,-5.4381905,5.149534,-0.14374186,-0.030747771,-1.691827,0.09808801,0
0.7800000000000005,12.922638642760708,-0.030747770840081998,-1.6918271007631993,0.09808801169562717,12.411746,-0.099282,0.8828965,0.08132857,6.906563,-7.364343,1.1324767,0.34267232,-0.20425028,0.16335134,0.9023156,-5.4722676,5.206486,-0.13096215,-0.030747771,-1.691827,0.09808801,0
0.7900000000000005,12.922638642760708,-0.030747770840081998,-1.6918271007631993,0.09808801169562717,12.411746,-0.099282,0.8828965,0.08132857,6.8516765,-7.311999,1.1312355,0.34356788,-0.1965828,0.16040824,0.90420413,-5.504883,5.2622056,-0.11712165,-0.030747771,-1.691827,0.09808801,0
0.8000000000000005,13.169864512342444,0.008518776421656054,-1.3280686369306858,0.08599902547175332,12.910042,0.405723,1.5120293,-0.05873662,6.7964706,-7.259104,1.1301378,0.34443876,-0.18890119,0.15745364,0.90602773,-5.5360255,5.316678,-0.102252744,-0.030747771,-1.691827,0.09808801,0
0.8100000000000005,13.169864512342444,0.008518776421656054,-1.3280686369306858,0.08599902547175332,12.910042,0.405723,1.5120293,-0.05873662,6.7409577,-7.2056646,1.1292044,0.34509513,-0.18279834,0.15528281,0.9074034,-5.566364,5.371023,-0.08429039,0.008518777,-1.3280686,0.08599903,0
0.8200000000000005,13.169864512342444,0.008518776421656054,-1.3280686369306858,0.08599902547175332,12.910042,0.405723,1.5120293,-0.05873662,6.6851473,-7.1516867,1.1284546,0.34573624,-0.1766874,0.1531051,0.9087389,-5.59548,5.4243813,-0.06555951,0.008518777,-1.3280686,0.08599903,0
0.8300000000000005,13.169864512342444,0.008518776421656054,-1.3280686369306858,0.08599902547175332,12.910042,0.405723,1.5120293,-0.05873662,6.6290517,-7.09718,1.1278958,0.34636202,-0.17056865,0.1509206,0.9100342,-5.6233673,5.4767447,-0.046080943,0.008518777,-1.3280686,0.08599903,0
0.8400000000000005,13.169864512342444,0.008518776421656054,-1.3280686369306858,0.08599902547175332,13.341248,0.3386543,1.5414413,-0.05678683,6.572684,-7.042155,1.1275356,0.34697247,-0.16444233,0.14872941,0.91128916,-5.65002,5.528104,-0.025875676,0.008518777,-1.3280686,0.08599903,0
0.8500000000000005,13.169864512342444,0.008518776421656054,-1.3280686369306858,0.08599902547175332,13.341248,0.3386543,1.5414413,-0.05678683,6.516056,-6.9866214,1.1273807,0.34756756,-0.15830871,0.14653164,0.9125038,-5.6754327,5.578451,-0.004964805,0.008518777,-1.3280686,0.08599903,0
0.8600000000000005,13.169864512342444,0.008518776421656054,-1.3280686369306858,0.08599902547175332,13.341248,0.3386543,1.5414413,-0.05678683,6.4591794,-6.930589,1.1274384,0.34814724,-0.15216811,0.14432737,0.913678,-5.6995997,5.6277795,0.01663044,0.008518777,-1.3280686,0.08599903,0
0.8700000000000006,13.169864512342444,0.008518776421656054,-1.3280686369306858,0.08599902547175332,13.341248,0.3386543,1.5414413,-0.05678683,6.4020677,-6.8740687,1.1277155,0.34871152,-0.14602076,0.14211673,0.9148118,-5.7225156,5.676081,0.038888697,0.008518777,-1.3280686,0.08599903,0
0.8800000000000006,13.273028021854334,0.01993046585621244,-0.9089949969205897,0.07757411703569654,13.854182,-0.22196826,0.9932897,-0.038888033,6.344733,-6.817071,1.1282183,0.34926036,-0.13986693,0.13989979,0.91590506,-5.7441754,5.7233486,0.061788503,0.008518777,-1.3280686,0.08599903,0
0.8900000000000006,13.273028021854334,0.01993046585621244,-0.9089949969205897,0.07757411703569654,13.854182,-0.22196826,0.9932897,-0.038888033,6.2871876,-6.7596035,1.1289579,0.34955126,-0.13561366,0.13845648,0.91665274,-5.7648797,5.770066,0.0861875,0.019930465,-0.908995,0.07757412,0
0.9000000000000006,13.273028021854334,0.01993046585621244,-0.9089949969205897,0.07757411703569654,13.854182,-0.22196826,0.9932897,-0.038888033,6.229439,-6.701672,1.1299435,0.34983486,-0.13135757,0.13701029,0.91738135,-5.784699,5.816075,0.11100032,0.019930465,-0.908995,0.07757412,0
0.9100000000000006,13.273028021854334,0.01993046585621244,-0.9089949969205897,0.07757411703569654,13.854182,-0.22196826,0.9932897,-0.038888033,6.1714964,-6.6432843,1.1311792,0.3501112,-0.12709874,0.13556124,0.9180909,-5.8036313,5.8613725,0.13621667,0.019930465,-0.908995,0.07757412,0
0.9200000000000006,13.201317593513528,0.020293778389669326,-0.7255690438021614,0.06948610165193207,14.313297,-0.29319867,0.82046026,0.016718093,6.113369,-6.584447,1.132669,0.35038024,-0.12283727,0.13410938,0.91878134,-5.8216743,5.905955,0.16182616,0.019930465,-0.908995,0.07757412,0
0.9300000000000006,13.201317593513528,0.020293778389669326,-0.7255690438021614,0.06948610165193207,14.313297,-0.29319867,0.82046026,0.016718093,6.055066,-6.5251684,1.1344136,0.35055768,-0.11942112,0.13297327,0.919329,-5.838799,5.9496384,0.18711936,0.020293778,-0.72556907,0.069486104,0
0.9400000000000006,13.201317593513528,0.020293778389669326,-0.7255690438021614,0.06948610165193207,14.313297,-0.29319867,0.82046026,0.016718093,5.9965954,-6.465456,1.1364125,0.35073048,-0.11600337,0.1318354,0.9198644,-5.855211,5.992755,0.21270868,0.020293778,-0.72556907,0.069486104,0
0.9500000000000006,13.201317593513528,0.020293778389669326,-0.7255690438021614,0.06948610165193207,14.313297,-0.29319867,0.82046026,0.016718093,5.9379644,-6.4053154,1.1386687,0.3508986,-0.11258409,0.13069578,0.9203876,-5.870908,6.035302,0.23858751,0.020293778,-0.72556907,0.069486104,0
0.9600000000000006,12.913924553302035,0.016758130627187173,-0.5262311795930148,0.0657275103508488,13.680889,-0.33383414,0.3964765,0.11148971,5.8791804,-6.3447523,1.1411852,0.35106206,-0.109163314,0.1295544,0.9208986,-5.8858895,6.077278,0.2647492,0.020293778,-0.72556907,0.069486104,1
0.9700000000000006,12.913924553302035,0.016758130627187173,-0.5262311795930148,0.0657275103508488,13.680889,-0.33383414,0.3964765,0.11148971,5.8202453,-6.283764,1.1439868,0.35010844,-0.11150226,0.1287736,0.9210909,-5.901215,6.120411,0.29557297,-0.33383414,0.3964765,0.11148971,1
0.9800000000000006,12.913924553302035,0.016758130627187173,-0.5262311795930148,0.0657275103508488,13.680889,-0.33383414,0.3964765,0.11148971,5.7611537,-6.2223444,1.1470964,0.34915236,-0.11384043,0.1279919,0.92127675,-5.9172444,6.1635485,0.32630947,-0.33383414,0.3964765,0.11148971,1
0.9900000000000007,12.913924553302035,0.016758130627187173,-0.5262311795930148,0.0657275103508488,13.680889,-0.33383414,0.3964765,0.11148971,5.701898,-6.160493,1.1505128,0.34819382,-0.1161778,0.12720929,0.9214561,-5.9339776,6.206689,0.35695556,-0.33383414,0.3964765,0.11148971,1
1.0000000000000007,12.201538091748546,0.13715901088233795,-1.3779425534466614,0.0650440016913127,14.083309,-0.2787499,0.396775,0.40737075,5.642472,-6.0982103,1.1542352,0.34723282,-0.118514344,0.12642579,0.921629,-5.9514127,6.2498307,0.38750798,-0.33383414,0.3964765,0.11148971,0
1.0100000000000007,12.201538091748546,0.13715901088233795,-1.3779425534466614,0.0650440016913127,14.083309,-0.2787499,0.396775,0.40737075,5.582879,-6.0355206,1.1581937,0.3478771,-0.111882545,0.12470103,0.92244965,-5.9668508,6.287967,0.40427652,0.137159,-1.3779426,0.065044,0
1.0200000000000007,12.201538091748546,0.13715901088233795,-1.3779425534466614,0.0650440016913127,14.083309,-0.2787499,0.396775,0.40737075,5.5231395,-5.9724536,1.1623223,0.34850463,-0.10524537,0.12297027,0.92322594,-5.9809456,6.3251944,0.42151526,0.137159,-1.3779426,0.065044,0
1.0300000000000007,12.201538091748546,0.13715901088233795,-1.3779425534466614,0.0650440016913127,14.083309,-0.2787499,0.396775,0.40737075,5.4632654,-5.9090195,1.1666256,0.3491154,-0.09860314,0.1212336,0.9239579,-5.993693,6.3615055,0.4392019,0.137159,-1.3779426,0.065044,0
1.0400000000000007,12.201538091748546,0.13715901088233795,-1.3779425534466614,0.0650440016913127,13.620674,-0.15313742,-0.11897717,0.42712134,5.4032707,-5.845227,1.1711079,0.3497094,-0.09195617,0.11949111,0.9246454,-6.00509,6.3968945,0.45731404,0.137159,-1.3779426,0.065044,0
1.0500000000000007,12.201538091748546,0.13715901088233795,-1.3779425534466614,0.0650440016913127,13.620674,-0.15313742,-0.11897717,0.42712134,5.3431687,-5.781085,1.1757733,0.3502866,-0.085304774,0.117742874,0.92528856,-6.0151343,6.4313545,0.4758292,0.137159,-1.3779426,0.065044,0
1.0600000000000007,12.201538091748546,0.13715901088233795,-1.3779425534466614,0.0650440016913127,13.620674,-0.15313742,-0.11897717,0.42712134,5.282973,-5.7166033,1.1806258,0.35084698,-0.07864929,0.11598899,0.9258872,-6.0238223,6.464882,0.49472484,0.137159,-1.3779426,0.065044,0
1.0700000000000007,12.201538091748546,0.13715901088233795,-1.3779425534466614,0.0650440016913127,13.620674,-0.15313742,-0.11897717,0.42712134,5.2226973,-5.651791,1.1856691,0.35139048,-0.07199003,0.11422953,0.9264414,-6.0311522,6.49747,0.5139783,0.137159,-1.3779426,0.065044,0
1.0800000000000007,11.703252835338128,0.07554738307904751,-1.1343424088696947,0.06406258557799165,12.497626,-0.061125133,0.037164748,0.2050597,5.162355,-5.5866575,1.1909065,0.35191712,-0.06532731,0.112464584,0.92695105,-6.0371222,6.529113,0.5335669,0.137159,-1.3779426,0.065044,0
1.0900000000000007,11.703252835338128,0.07554738307904751,-1.1343424088696947,0.06406258557799165,12.497626,-0.061125133,0.037164748,0.2050597,5.1019607,-5.5212183,1.1963174,0.352277,-0.05989993,0.11083787,0.92737675,-6.04164,6.558601,0.5486326,0.07554738,-1.1343424,0.06406259,0
1.1000000000000008,11.703252835338128,0.07554738307904751,-1.1343424088696947,0.06406258557799165,12.497626,-0.061125133,0.037164748,0.2050597,5.041526,-5.455488,1.2018801,0.3526255,-0.054470602,0.10920756,0.9277724,-6.0451097,6.5873036,0.563937,0.07554738,-1.1343424,0.06406259,0
1.1100000000000008,11.703252835338128,0.07554738307904751,-1.1343424088696947,0.06406258557799165,12.497626,-0.061125133,0.037164748,0.2050597,4.981062,-5.389475,1.2075969,0.3529626,-0.04903951,0.10757371,0.928138,-6.0475316,6.6152186,0.5794651,0.07554738,-1.1343424,0.06406259,0
1.1200000000000008,11.142429817023634,-0.01667030801089787,-0.724300874235678,0.0680831603055361,11.711833,0.22134104,0.023420317,0.17027515,4.9205785,-5.3231864,1.2134701,0.3532883,-0.043606825,0.105936386,0.92847353,-6.048904,6.642343,0.5952021,0.07554738,-1.1343424,0.06406259,1
1.1300000000000008,11.142429817023634,-0.01667030801089787,-0.724300874235678,0.0680831603055361,11.711833,0.22134104,0.023420317,0.17027515,4.860086,-5.25663,1.2195019,0.35253334,-0.04323433,0.10704233,0.9286511,-6.049564,6.669068,0.61112845,0.22134104,0.023420317,0.17027515,1
1.1400000000000008,11.142429817023634,-0.01667030801089787,-0.724300874235678,0.0680831603055361,11.711833,0.22134104,0.023420317,0.17027515,4.7995872,-5.1898046,1.2256926,0.35177767,-0.04286175,0.10814805,0.9288268,-6.0500727,6.696,0.627007,0.22134104,0.023420317,0.17027515,1
1.1500000000000008,11.142429817023634,-0.01667030801089787,-0.724300874235678,0.0680831603055361,11.711833,0.22134104,0.023420317,0.17027515,4.7390847,-5.122709,1.232042,0.35102132,-0.042489085,0.10925357,0.9290006,-6.05043,6.723139,0.6428371,0.22134104,0.023420317,0.17027515,1
1.1600000000000008,10.533114253583884,-0.15604846869354155,-0.9314618609799339,0.0666723499329385,11.959245,0.4599618,-1.2941812,0.03963131,4.6785793,-5.0553412,1.2385492,0.35026428,-0.042116337,0.11035887,0.92917275,-6.0506363,6.7504835,0.65861815,0.22134104,0.023420317,0.17027515,0
1.1700000000000008,10.533114253583884,-0.15604846869354155,-0.9314618609799339,0.0666723499329385,11.959245,0.4599618,-1.2941812,0.03963131,4.618073,-4.9877143,1.245157,0.3504317,-0.038024936,0.10801541,0.9295614,-6.0505013,6.774912,0.662977,-0.15604846,-0.9314619,0.06667235,0
1.1800000000000008,10.533114253583884,-0.15604846869354155,-0.9314618609799339,0.0666723499329385,11.959245,0.4599618,-1.2941812,0.03963131,4.557571,-4.919846,1.2518094,0.35059127,-0.033932686,0.10566953,0.92992914,-6.0497375,6.7985888,0.6675092,-0.15604846,-0.9314619,0.06667235,0
1.1900000000000008,10.533114253583884,-0.15604846869354155,-0.9314618609799339,0.0666723499329385,11.959245,0.4599618,-1.2941812,0.03963131,4.49708,-4.8517447,1.2585078,0.35074303,-0.029839674,0.103321284,0.93027604,-6.048344,6.821513,0.6722056,-0.15604846,-0.9314619,0.06667235,0
1.2000000000000008,10.127591250862563,-0.24414720463662865,-0.7952606188319886,0.07793234339172556,12.428908,-0.08102712,-0.7269862,0.053571884,4.436606,-4.7834187,1.265254,0.3508869,-0.025745992,0.10097073,0.9306022,-6.0463214,6.8436832,0.6770569,-0.15604846,-0.9314619,0.06667235,0
1.2100000000000009,10.127591250862563,-0.24414720463662865,-0.7952606188319886,0.07793234339172556,12.428908,-0.08102712,-0.7269862,0.053571884,4.376155,-4.714878,1.2720296,0.35089126,-0.022434417,0.09844864,0.93095636,-6.0438323,6.8642817,0.6780844,-0.24414721,-0.7952606,0.07793234,0
1.2200000000000009,10.127591250862563,-0.24414720463662865,-0.7952606188319886,0.07793234339172556,12.428908,-0.08102712,-0.7269862,0.053571884,4.3157306,-4.6461353,1.2788161,0.35088953,-0.01912245,0.09592483,0.9312943,-6.040899,6.8841763,0.67924345,-0.24414721,-0.7952606,0.07793234,0
1.2300000000000009,10.127591250862563,-0.24414720463662865,-0.7952606188319886,0.07793234339172556,12.428908,-0.08102712,-0.7269862,0.053571884,4.255338,-4.577197,1.2856148,0.35088167,-0.015810147,0.09339935,0.93161607,-6.037522,6.9033656,0.6805272,-0.24414721,-0.7952606,0.07793234,0
1.2400000000000009,10.127591250862563,-0.24414720463662865,-0.7952606188319886,0.07793234339172556,12.468041,-0.27887508,-0.546357,0.17216247,4.194981,-4.508071,1.292427,0.35086766,-0.01249757,0.090872236,0.9319216,-6.0337005,6.921849,0.6819286,-0.24414721,-0.7952606,0.07793234,0
1.2500000000000009,10.127591250862563,-0.24414720463662865,-0.7952606188319886,0.07793234339172556,12.468041,-0.27887508,-0.546357,0.17216247,4.134665,-4.438763,1.2992538,0.35084757,-0.009184776,0.08834353,0.93221086,-6.0294347,6.939625,0.6834407,-0.24414721,-0.7952606,0.07793234,0
1.260000000000001,10.127591250862563,-0.24414720463662865,-0.7952606188319886,0.07793234339172556,12.468041,-0.27887508,-0.546357,0.17216247,4.0743937,-4.369281,1.3060962,0.35082132,-0.0058718207,0.085813284,0.93248373,-6.024724,6.9566927,0.6850565,-0.24414721,-0.7952606,0.07793234,0
1.270000000000001,10.127591250862563,-0.24414720463662865,-0.7952606188319886,0.07793234339172556,12.468041,-0.27887508,-0.546357,0.17216247,4.014172,-4.2996316,1.3129553,0.35078895,-0.0025587636,0.08328154,0.9327404,-6.019568,6.9730525,0.68676907,-0.24414721,-0.7952606,0.07793234,0
1.280000000000001,9.76829646563099,-0.25418814378797283,-0.9314094215575504,0.10320171062549899,12.617517,-0.50530684,-0.09621983,0.12983102,3.9540038,-4.229822,1.319832,0.35075048,0.0007543386,0.08074834,0.93298084,-6.013967,6.988703,0.68857133,-0.24414721,-0.7952606,0.07793234,0
1.290000000000001,9.76829646563099,-0.25418814378797283,-0.9314094215575504,0.10320171062549899,12.617517,-0.50530684,-0.09621983,0.12983102,3.893893,-4.1598625,1.3267093,0.3506419,0.0046951333,0.07792778,0.9332499,-6.0081,7.0030766,0.68691224,-0.25418815,-0.9314094,0.10320171,0
1.300000000000001,9.76829646563099,-0.25418814378797283,-0.9314094215575504,0.10320171062549899,12.617517,-0.50530684,-0.09621983,0.12983102,3.8338437,-4.0897636,1.3335705,0.35052508,0.008635818,0.0751054,0.933497,-6.001709,7.0166707,0.685333,-0.25418815,-0.9314094,0.10320171,0
1.310000000000001,9.76829646563099,-0.25418814378797283,-0.9314094215575504,0.10320171062549899,12.617517,-0.50530684,-0.09621983,0.12983102,3.7738607,-4.019532,1.3404162,0.3504,0.012576299,0.07228124,0.9337222,-5.9947944,7.0294833,0.6838244,-0.25418815,-0.9314094,0.10320171,0
1.320000000000001,9.326104409789325,-0.2904436301428769,-1.4113282294951053,0.13697079257023814,12.449794,-0.47755095,-0.32125124,0.06604689,3.7139497,-3.9491765,1.3472471,0.35026667,0.016516482,0.069455385,0.9339252,-5.9873557,7.041515,0.6823774,-0.25418815,-0.9314094,0.10320171,0
1.330000000000001,9.326104409789325,-0.2904436301428769,-1.4113282294951053,0.13697079257023814,12.449794,-0.47755095,-0.32125124,0.06604689,3.654114,-3.8787074,1.354042,0.35013202,0.022645276,0.06561432,0.93412495,-5.9796352,7.052135,0.67660886,-0.29044363,-1.4113282,0.13697079,0
1.340000000000001,9.326104409789325,-0.2904436301428769,-1.4113282294951053,0.13697079257023814,12.449794,-0.47755095,-0.32125124,0.06604689,3.5943599,-3.8081374,1.3607793,0.349979,0.028772881,0.06176982,0.9342758,-5.971099,7.0616884,0.67088497,-0.29044363,-1.4113282,0.13697079,0
1.350000000000001,9.326104409789325,-0.2904436301428769,-1.4113282294951053,0.13697079257023814,12.449794,-0.47755095,-0.32125124,0.06604689,3.534695,-3.737477,1.3674598,0.34980768,0.03489898,0.057922084,0.9343777,-5.9617467,7.070174,0.66518635,-0.29044363,-1.4113282,0.13697079,0
1.360000000000001,8.878979890612323,-0.29740012389383347,-1.4773510015488494,0.1723243005005469,11.89102,-0.33922264,-1.1046455,0.16639513,3.4751275,-3.6667373,1.3740832,0.34961802,0.04102325,0.05407131,0.9344306,-5.9515796,7.077592,0.6594935,-0.29044363,-1.4113282,0.13697079,0
1.370000000000001,8.878979890612323,-0.29740012389383347,-1.4773510015488494,0.1723243005005469,11.89102,-0.33922264,-1.1046455,0.16639513,3.4156632,-3.5959303,1.3806275,0.34926325,0.04745113,0.050062407,0.93448234,-5.9411097,7.08362,0.6493568,-0.29740012,-1.477351,0.1723243,0
1.380000000000001,8.878979890612323,-0.29740012389383347,-1.4773510015488494,0.1723243005005469,11.89102,-0.33922264,-1.1046455,0.16639513,3.3563077,-3.5250685,1.3870702,0.3488884,0.053876277,0.046050623,0.9344803,-5.929825,7.0885878,0.63918555,-0.29740012,-1.477351,0.1723243,0
1.390000000000001,8.878979890612323,-0.29740012389383347,-1.4773510015488494,0.1723243005005469,11.89102,-0.33922264,-1.1046455,0.16639513,3.2970695,-3.4541621,1.3934109,0.34849346,0.060298327,0.04203619,0.9344246,-5.917726,7.0924945,0.62895966,-0.29740012,-1.477351,0.1723243,0
1.400000000000001,8.615334929513613,-0.30617522578149525,-2.0637584451613193,0.2187359413402803,11.612871,-0.036064003,-1.2990221,-0.2573145,3.2379563,-3.383222,1.3996489,0.3480785,0.0667169,0.03801934,0.9343151,-5.9048142,7.095341,0.6186587,-0.29740012,-1.477351,0.1723243,0
1.410000000000001,8.615334929513613,-0.30617522578149525,-2.0637584451613193,0.2187359413402803,11.612871,-0.036064003,-1.2990221,-0.2573145,3.1789744,-3.3122597,1.4057704,0.34753194,0.07586279,0.032922305,0.93401414,-5.891358,7.0969486,0.6056381,-0.30617523,-2.0637584,0.21873595,0
1.420000000000001,8.615334929513613,-0.30617522578149525,-2.0637584451613193,0.2187359413402803,11.612871,-0.036064003,-1.2990221,-0.2573145,3.120133,-3.241288,1.411761,0.3469472,0.08500032,0.027821649,0.93361044,-5.8767433,7.0971937,0.59244096,-0.30617523,-2.0637584,0.21873595,0
1.430000000000001,8.615334929513613,-0.30617522578149525,-2.0637584451613193,0.2187359413402803,11.612871,-0.036064003,-1.2990221,-0.2573145,3.0614436,-3.1703203,1.4176185,0.34632424,0.094128504,0.022717932,0.933104,-5.8609743,7.096078,0.5790299,-0.30617523,-2.0637584,0.21873595,0
1.440000000000001,8.615334929513613,-0.30617522578149525,-2.0637584451613193,0.2187359413402803,11.465687,-0.02905998,-1.4660025,-0.3501677,3.0029175,-3.0993707,1.4233408,0.34566322,0.10324633,0.017611716,0.93249494,-5.8440537,7.093605,0.5653676,-0.30617523,-2.0637584,0.21873595,0
1.450000000000001,8.615334929513613,-0.30617522578149525,-2.0637584451613193,0.2187359413402803,11.465687,-0.02905998,-1.4660025,-0.3501677,2.9445665,-3.028453,1.4289249,0.34496415,0.1123528,0.012503562,0.93178326,-5.8259864,7.0897784,0.55141675,-0.30617523,-2.0637584,0.21873595,0
1.460000000000001,8.615334929513613,-0.30617522578149525,-2.0637584451613193,0.2187359413402803,11.465687,-0.02905998,-1.4660025,-0.3501677,2.886402,-2.95758,1.434368,0.34422714,0.121446915,0.007394032,0.93096906,-5.806777,7.084602,0.53714013,-0.30617523,-2.0637584,0.21873595,0
1.470000000000001,8.615334929513613,-0.30617522578149525,-2.0637584451613193,0.2187359413402803,11.465687,-0.02905998,-1.4660025,-0.3501677,2.8284352,-2.8867657,1.4396665,0.34345224,0.13052766,0.0022836884,0.9300525,-5.7864313,7.078081,0.5225008,-0.30617523,-2.0637584,0.21873595,0
1.480000000000001,8.374931381970551,-0.2912490050887715,-0.4990599351790438,0.24525673396959255,11.217562,0.074287206,-1.1960919,-0.51042837,2.770677,-2.816023,1.4448166,0.34263957,0.13959405,-0.0028269065,0.92903364,-5.7649555,7.070222,0.507462,-0.30617523,-2.0637584,0.21873595,0
1.490000000000001,8.374931381970551,-0.2912490050887715,-0.4990599351790438,0.24525673396959255,11.217562,0.074287206,-1.1960919,-0.51042837,2.7131355,-2.7453635,1.449803,0.3416949,0.14140913,-0.0052059595,0.92909676,-5.7433395,7.0616007,0.48981303,-0.291249,-0.49905995,0.24525674,0
1.500000000000001,8.374931381970551,-0.2912490050887715,-0.4990599351790438,0.24525673396959255,11.217562,0.074287206,-1.1960919,-0.51042837,2.6558106,-2.6747925,1.4546126,0.34074676,0.14322284,-0.0075849616,0.92915076,-5.7215757,7.052528,0.4720743,-0.291249,-0.49905995,0.24525674,0
1.5100000000000011,8.374931381970551,-0.2912490050887715,-0.4990599351790438,0.24525673396959255,11.217562,0.074287206,-1.1960919,-0.51042837,2.5987043,-2.6043146,1.4592443,0.3397953,0.14503512,-0.009963888,0.9291956,-5.699663,7.0430036,0.45424291,-0.291249,-0.49905995,0.24525674,0
1.5200000000000011,8.279562806977493,-0.28351735106986353,0.6505184437204484,0.27608110504648803,11.918581,0.25649014,-1.1583177,-0.6696506,2.541818,-2.533934,1.463697,0.33884048,0.14684597,-0.0123427175,0.9292313,-5.6776013,7.033029,0.4363159,-0.291249,-0.49905995,0.24525674,0
1.5300000000000011,8.279562806977493,-0.28351735106986353,0.6505184437204484,0.27608110504648803,11.918581,0.25649014,-1.1583177,-0.6696506,2.4851508,-2.4636545,1.4679658,0.33780363,0.14332512,-0.01276049,0.9301524,-5.655901,7.0229487,0.41747865,-0.28351736,0.6505184,0.27608112,0
1.5400000000000011,8.279562806977493,-0.28351735106986353,0.6505184437204484,0.27608110504648803,11.918581,0.25649014,-1.1583177,-0.6696506,2.428698,-2.3934746,1.4720471,0.3367619,0.1398022,-0.0131780775,0.9310601,-5.6347423,7.0130243,0.39880732,-0.28351736,0.6505184,0.27608112,0
1.5500000000000012,8.279562806977493,-0.28351735106986353,0.6505184437204484,0.27608110504648803,11.918581,0.25649014,-1.1583177,-0.6696506,2.3724542,-2.3233933,1.4759426,0.33571526,0.13627726,-0.013595475,0.9319542,-5.614127,7.0032544,0.38029784,-0.28351736,0.6505184,0.27608112,0
1.5600000000000012,8.179505781369038,-0.2809578833129095,2.0576000406037367,0.28116837646750914,12.499344,0.27922454,-1.4372685,-0.77917355,2.3164136,-2.2534091,1.4796538,0.33466375,0.13275033,-0.014012674,0.93283486,-5.594057,6.9936376,0.3619461,-0.28351736,0.6505184,0.27608112,0
1.5700000000000012,8.179505781369038,-0.2809578833129095,2.0576000406037367,0.28116837646750914,12.499344,0.27922454,-1.4372685,-0.77917355,2.260569,-2.183519,1.4831777,0.3336646,0.122656405,-0.012065982,0.9346001,-5.5750895,6.984556,0.34289008,-0.28095788,2.0576,0.28116837,0
1.5800000000000012,8.179505781369038,-0.2809578833129095,2.0576000406037367,0.28116837646750914,12.499344,0.27922454,-1.4372685,-0.77917355,2.2049074,-2.113715,1.4865131,0.33262885,0.11254899,-0.010117967,0.9362628,-5.5575213,6.9763412,0.32425132,-0.28095788,2.0576,0.28116837,0
1.5900000000000012,8.179505781369038,-0.2809578833129095,2.0576000406037367,0.28116837646750914,12.499344,0.27922454,-1.4372685,-0.77917355,2.149414,-2.0439892,1.4896642,0.33155656,0.102429226,-0.00816884,0.9378227,-5.5413637,6.9689918,0.3059957,-0.28095788,2.0576,0.28116837,0
1.6000000000000012,8.204610715738646,-0.3011711821960667,2.2391975322661475,0.2792865019788649,11.884019,0.025416639,-1.2788996,-0.6864434,2.0940754,-1.9743323,1.4926344,0.33044788,0.09229821,-0.0062188157,0.9392797,-5.5266256,6.962507,0.28808892,-0.28095788,2.0576,0.28116837,0
1.6100000000000012,8.204610715738646,-0.3011711821960667,2.2391975322661475,0.2792865019788649,11.884019,0.025416639,-1.2788996,-0.6864434,2.0388768,-1.904736,1.4954284,0.32932347,0.08127001,-0.004062077,0.9407042,-5.513323,6.9568977,0.27075315,-0.30117118,2.2391975,0.2792865,0
1.6200000000000012,8.204610715738646,-0.3011711821960667,2.2391975322661475,0.2792865019788649,11.884019,0.025416639,-1.2788996,-0.6864434,1.9838036,-1.8351911,1.4980505,0.32815638,0.07023128,-0.0019048122,0.94200695,-5.5015864,6.9522324,0.25371966,-0.30117118,2.2391975,0.2792865,0
1.6300000000000012,8.204610715738646,-0.3011711821960667,2.2391975322661475,0.2792865019788649,11.884019,0.025416639,-1.2788996,-0.6864434,1.9288398,-1.7656882,1.5005035,0.32694682,0.059183452,0.00025269954,0.9431876,-5.491425,6.948509,0.23694722,-0.30117118,2.2391975,0.2792865,0
1.6400000000000012,8.204610715738646,-0.3011711821960667,2.2391975322661475,0.2792865019788649,10.809269,-0.22212431,-1.2319857,-0.46793884,1.8739698,-1.6962177,1.5027902,0.32569486,0.048127957,0.0024101788,0.94424605,-5.4828463,6.9457254,0.22039443,-0.30117118,2.2391975,0.2792865,0
1.6500000000000012,8.204610715738646,-0.3011711821960667,2.2391975322661475,0.2792865019788649,10.809269,-0.22212431,-1.2319857,-0.46793884,1.8191775,-1.6267703,1.5049121,0.3244007,0.03706623,0.0045673456,0.94518214,-5.4758573,6.943877,0.20401981,-0.30117118,2.2391975,0.2792865,0
1.6600000000000013,8.204610715738646,-0.3011711821960667,2.2391975322661475,0.2792865019788649,10.809269,-0.22212431,-1.2319857,-0.46793884,1.7644471,-1.5573368,1.5068712,0.32306448,0.025999697,0.006723921,0.94599575,-5.470464,6.9429617,0.18778175,-0.30117118,2.2391975,0.2792865,0
1.6700000000000013,8.204610715738646,-0.3011711821960667,2.2391975322661475,0.2792865019788649,10.809269,-0.22212431,-1.2319857,-0.46793884,1.7097627,-1.4879078,1.5086683,0.32168645,0.014929798,0.008879624,0.9466868,-5.466673,6.942975,0.1716386,-0.30117118,2.2391975,0.2792865,0
1.6800000000000013,8.303418416516966,-0.3059766785928206,1.8487628759210015,0.2732008679568509,9.613643,-0.427206,-0.8207124,-0.15909427,1.6551081,-1.4184741,1.5103042,0.32026672,0.0038579628,0.011034178,0.9472552,-5.464488,6.943912,0.1555486,-0.30117118,2.2391975,0.2792865,0
1.6900000000000013,8.303418416516966,-0.3059766785928206,1.8487628759210015,0.2732008679568509,9.613643,-0.427206,-0.8207124,-0.15909427,1.6004677,-1.3490266,1.5117842,0.31886232,-0.0053732214,0.012539687,0.9477028,-5.46381,6.9457154,0.14045928,-0.3059767,1.8487629,0.27320087,0
1.7000000000000013,8.303418416516966,-0.3059766785928206,1.8487628759210015,0.2732008679568509,9.613643,-0.427206,-0.8207124,-0.15909427,1.5458272,-1.2795573,1.5131133,0.31742933,-0.014603925,0.014044071,0.94806534,-5.464508,6.948245,0.12535085,-0.3059767,1.8487629,0.27320087,0
1.7100000000000013,8.303418416516966,-0.3059766785928206,1.8487628759210015,0.2732008679568509,9.613643,-0.427206,-0.8207124,-0.15909427,1.4911728,-1.2100593,1.514291,0.3159679,-0.023833318,0.015547197,0.948343,-5.4665837,6.9514956,0.110194266,-0.3059767,1.8487629,0.27320087,0
1.7200000000000013,8.50316737096548,-0.3329602097577494,1.2522760047292005,0.26934166298303214,9.465261,-0.30480883,-0.7486944,-0.12738138,1.4364907,-1.140525,1.5153167,0.31447813,-0.033060573,0.017048929,0.9485355,-5.470039,6.9554625,0.09496049,-0.3059767,1.8487629,0.27320087,0
1.7300000000000013,8.50316737096548,-0.3329602097577494,1.2522760047292005,0.26934166298303214,9.465261,-0.30480883,-0.7486944,-0.12738138,1.381767,-1.0709474,1.5161998,0.31303206,-0.039499525,0.01748302,0.9487596,-5.4748435,6.9601326,0.0816272,-0.33296022,1.2522761,0.26934168,0
1.7400000000000013,8.50316737096548,-0.3329602097577494,1.2522760047292005,0.26934166298303214,9.465261,-0.30480883,-0.7486944,-0.12738138,1.3269902,-1.0013211,1.5169492,0.3115723,-0.04593675,0.017916346,0.9489422,-5.4806685,6.965207,0.0682066,-0.33296022,1.2522761,0.26934168,0
1.7500000000000013,8.50316737096548,-0.3329602097577494,1.2522760047292005,0.26934166298303214,9.465261,-0.30480883,-0.7486944,-0.12738138,1.2721502,-0.93164194,1.5175636,0.3100989,-0.05237196,0.018348888,0.9490832,-5.487516,6.970682,0.05468457,-0.33296022,1.2522761,0.26934168,0
1.7600000000000013,8.806689993614476,-0.33050650843188517,0.7262061922886075,0.27001137282633453,9.732333,-0.022436593,-1.1916118,-0.20843023,1.2172365,-0.86190605,1.5180423,0.3086119,-0.05880488,0.018780624,0.9491827,-5.495384,6.976554,0.041046992,-0.33296022,1.2522761,0.26934168,0
1.7700000000000014,8.806689993614476,-0.33050650843188517,0.7262061922886075,0.27001137282633453,9.732333,-0.022436593,-1.1916118,-0.20843023,1.1622379,-0.79210865,1.5183992,0.30716234,-0.06273549,0.018411873,0.9494084,-5.5044513,6.9829416,0.030312473,-0.3305065,0.7262062,0.27001137,0
1.7800000000000014,8.806689993614476,-0.33050650843188517,0.7262061922886075,0.27001137282633453,9.732333,-0.022436593,-1.1916118,-0.20843023,1.1071451,-0.7222467,1.5186483,0.30570734,-0.066664994,0.018042795,0.9496173,-5.5142026,6.989465,0.019494176,-0.3305065,0.7262062,0.27001137,0
1.7900000000000014,8.806689993614476,-0.33050650843188517,0.7262061922886075,0.27001137282633453,9.732333,-0.022436593,-1.1916118,-0.20843023,1.0519514,-0.65231895,1.5187887,0.3042469,-0.07059332,0.017673397,0.9498094,-5.524638,6.9961224,0.008586641,-0.3305065,0.7262062,0.27001137,0
1.8000000000000014,9.126125105430049,-0.35923442208743517,0.16985230980568192,0.2820182758046223,9.568961,0.10032204,-1.2917708,-0.21017963,0.9966499,-0.58232385,1.5188196,0.30278108,-0.07452039,0.017303687,0.94998455,-5.535757,7.002911,-0.002415582,-0.3305065,0.7262062,0.27001137,0
1.8100000000000014,9.126125105430049,-0.35923442208743517,0.16985230980568192,0.2820182758046223,9.568961,0.10032204,-1.2917708,-0.21017963,0.9412322,-0.5122593,1.5187559,0.30129206,-0.0758464,0.015959522,0.9503765,-5.5478396,7.0099626,-0.010333069,-0.35923442,0.16985232,0.28201827,0
1.8200000000000014,9.126125105430049,-0.35923442208743517,0.16985230980568192,0.2820182758046223,9.568961,0.10032204,-1.2917708,-0.21017963,0.885692,-0.4421252,1.5186129,0.29980126,-0.07717196,0.014615262,0.95076275,-5.5602365,7.0168343,-0.018279271,-0.35923442,0.16985232,0.28201827,0
1.8300000000000014,9.126125105430049,-0.35923442208743517,0.16985230980568192,0.2820182758046223,9.568961,0.10032204,-1.2917708,-0.21017963,0.8300263,-0.37192324,1.5183902,0.29830867,-0.07849706,0.013270915,0.9511434,-5.572946,7.0235257,-0.026255477,-0.35923442,0.16985232,0.28201827,0
1.8400000000000014,9.126125105430049,-0.35923442208743517,0.16985230980568192,0.2820182758046223,9.776488,0.17230454,-1.0425996,-0.14948958,0.774232,-0.3016553,1.5180875,0.29681432,-0.07982168,0.011926489,0.9515184,-5.5859685,7.0300355,-0.03426297,-0.35923442,0.16985232,0.28201827,0
1.8500000000000014,9.126125105430049,-0.35923442208743517,0.16985230980568192,0.2820182758046223,9.776488,0.17230454,-1.0425996,-0.14948958,0.7183058,-0.23132315,1.5177046,0.29531822,-0.08114585,0.010581993,0.9518877,-5.599302,7.036362,-0.042303044,-0.35923442,0.16985232,0.28201827,0
1.8600000000000014,9.126125105430049,-0.35923442208743517,0.16985230980568192,0.2820182758046223,9.776488,0.17230454,-1.0425996,-0.14948958,0.6622448,-0.16092867,1.5172412,0.29382038,-0.08246952,0.009237435,0.9522514,-5.6129465,7.0425057,-0.050376978,-0.35923442,0.16985232,0.28201827,0
1.8700000000000014,9.126125105430049,-0.35923442208743517,0.16985230980568192,0.2820182758046223,9.776488,0.17230454,-1.0425996,-0.14948958,0.6060458,-0.09047367,1.5166969,0.2923208,-0.083792716,0.007892821,0.9526095,-5.626901,7.048465,-0.05848606,-0.35923442,0.16985232,0.28201827,0
1.8800000000000014,9.459215583356201,-0.34882151098934,0.36017617692364284,0.29023483787775634,9.523934,0.55133724,-0.36359882,-0.06703335,0.5497057,-0.019960007,1.5160713,0.29081944,-0.08511541,0.0065481607,0.95296186,-5.6411653,7.054238,-0.06663157,-0.35923442,0.16985232,0.28201827,1
1.8900000000000015,9.459215583356201,-0.34882151098934,0.36017617692364284,0.29023483787775634,9.523934,0.55133724,-0.36359882,-0.06703335,0.49321923,0.05061216,1.5153837,0.29138377,-0.082582965,0.008617901,0.95299584,-5.656037,7.0602326,-0.07085194,0.55133724,-0.36359882,-0.06703335,1
1.9000000000000015,9.459215583356201,-0.34882151098934,0.36017617692364284,0.29023483787775634,9.523934,0.55133724,-0.36359882,-0.06703335,0.43658692,0.121245496,1.5146544,0.2919449,-0.080049604,0.010687548,0.9530193,-5.670334,7.0664716,-0.07499891,0.55133724,-0.36359882,-0.06703335,1
1.9100000000000015,9.459215583356201,-0.34882151098934,0.36017617692364284,0.29023483787775634,9.523934,0.55133724,-0.36359882,-0.06703335,0.37981454,0.19194245,1.513884,0.2925028,-0.07751536,0.012757077,0.9530323,-5.684055,7.0729547,-0.07907653,0.55133724,-0.36359882,-0.06703335,1
1.9200000000000015,9.782150800012746,-0.5460550526529073,0.2377160422824967,0.32835107396201535,10.162271,0.46933398,-0.4894529,-0.076144874,0.3229078,0.26270545,1.5130731,0.29305747,-0.074980274,0.0148264645,0.9530348,-5.6971993,7.07968,-0.08308885,0.55133724,-0.36359882,-0.06703335,0
1.9300000000000015,9.782150800012746,-0.5460550526529073,0.2377160422824967,0.32835107396201535,10.162271,0.46933398,-0.4894529,-0.076144874,0.26586965,0.33353725,1.512235,0.2912688,-0.076888375,0.012695758,0.9534618,-5.7105126,7.0866256,-0.08452698,-0.5460551,0.23771605,0.32835108,0
1.9400000000000015,9.782150800012746,-0.5460550526529073,0.2377160422824967,0.32835107396201535,10.162271,0.46933398,-0.4894529,-0.076144874,0.20869592,0.40443692,1.5113823,0.28947678,-0.07879559,0.010564903,0.95387775,-5.724314,7.0932574,-0.086011514,-0.5460551,0.23771605,0.32835108,0
1.9500000000000015,9.782150800012746,-0.5460550526529073,0.2377160422824967,0.32835107396201535,10.162271,0.46933398,-0.4894529,-0.076144874,0.15138172,0.4754013,1.5105145,0.28768143,-0.080701895,0.008433927,0.9542827,-5.738603,7.0995727,-0.08754564,-0.5460551,0.23771605,0.32835108,0
1.9600000000000015,10.06604311911153,-0.7308005317008925,0.3974515263634899,0.36173259146016234,10.306463,-0.54162693,-0.36223945,0.24047011,0.09392219,0.5464272,1.5096312,0.28588274,-0.08260728,0.006302853,0.95467657,-5.7533774,7.10557,-0.0891325,-0.5460551,0.23771605,0.32835108,1
1.9700000000000015,10.06604311911153,-0.7308005317008925,0.3974515263634899,0.36173259146016234,10.306463,-0.54162693,-0.36223945,0.24047011,0.036308996,0.61751264,1.5087576,0.28452086,-0.081644304,0.003298961,0.9551813,-5.769261,7.111427,-0.085567914,-0.54162693,-0.36223945,0.24047011,1
1.9800000000000015,10.06604311911153,-0.7308005317008925,0.3974515263634899,0.36173259146016234,10.306463,-0.54162693,-0.36223945,0.24047011,-0.021463014,0.6886534,1.50792,0.28315556,-0.08068035,0.00029502908,0.9556744,-5.7851405,7.116613,-0.081966296,-0.54162693,-0.36223945,0.24047011,1
1.9900000000000015,10.06604311911153,-0.7308005317008925,0.3974515263634899,0.36173259146016234,10.306463,-0.54162693,-0.36223945,0.24047011,-0.0793938,0.7598426,1.5071187,0.28178686,-0.07971541,-0.0027089063,0.956156,-5.8010144,7.1211286,-0.078331724,-0.54162693,-0.36223945,0.24047011,1
2.0000000000000013,,,,,9.893105,-0.60756433,-0.14882936,0.23810428,-0.13748327,0.8310736,1.5063536,0.28041473,-0.078749515,-0.0057128086,0.9566262,-5.8168797,7.124974,-0.074668266,-0.54162693,-0.36223945,0.24047011,1
2.010000000000001,,,,,9.893105,-0.60756433,-0.14882936,0.23810428,-0.1957284,0.9023391,1.505605,0.2790308,-0.07889585,-0.0087337475,0.9569959,-5.8321767,7.1280417,-0.07507539,-0.60756433,-0.14882936,0.23810428,1
2.020000000000001,,,,,9.893105,-0.60756433,-0.14882936,0.23810428,-0.2541275,0.9736324,1.504852,0.27764374,-0.07904131,-0.011754588,0.9573549,-5.847672,7.130524,-0.07549705,-0.60756433,-0.14882936,0.23810428,1
2.0300000000000007,,,,,9.893105,-0.60756433,-0.14882936,0.23810428,-0.3126825,1.0449475,1.504095,0.27625358,-0.07918588,-0.014775298,0.9577032,-5.8633633,7.132419,-0.075936854,-0.60756433,-0.14882936,0.23810428,1
2.0400000000000005,,,,,9.893105,-0.60756433,-0.14882936,0.23810428,-0.3713954,1.1162786,1.5033332,0.27486032,-0.079329565,-0.017795842,0.9580407,-5.879248,7.1337266,-0.076398395,-0.60756433,-0.14882936,0.23810428,1
2.0500000000000003,,,,,10.173463,-0.6835829,0.046349943,0.27820653,-0.4302681,1.18762,1.5025668,0.27346396,-0.07947236,-0.020816188,0.9583675,-5.895326,7.1344466,-0.07688525,-0.60756433,-0.14882936,0.23810428,1
2.06,,,,,10.173463,-0.6835829,0.046349943,0.27820653,-0.48930508,1.2589657,1.5018092,0.27186215,-0.08065756,-0.023917735,0.9586518,-5.912132,7.1345973,-0.074648604,-0.6835829,0.046349943,0.27820653,1
2.07,,,,,10.173463,-0.6835829,0.046349943,0.27820653,-0.5485121,1.33031,1.5010736,0.27025664,-0.08184164,-0.027018953,0.958923,-5.929337,7.1341805,-0.07248046,-0.6835829,0.046349943,0.27820653,1
2.0799999999999996,,,,,10.173463,-0.6835829,0.046349943,0.27820653,-0.60789317,1.4016473,1.5003594,0.26864743,-0.08302461,-0.030119801,0.9591811,-5.94694,7.1331964,-0.07038528,-0.6835829,0.046349943,0.27820653,1
2.0899999999999994,,,,,9.950021,-0.47388098,-0.1881207,0.22278339,-0.6674522,1.4729719,1.4996657,0.26703456,-0.08420644,-0.03322024,0.95942605,-5.964937,7.1316423,-0.068367496,-0.6835829,0.046349943,0.27820653,1
2.099999999999999,,,,,9.950021,-0.47388098,-0.1881207,0.22278339,-0.72719085,1.5442784,1.4989809,0.26573405,-0.083973385,-0.035650752,0.95972025,-5.98281,7.129587,-0.068607345,-0.47388098,-0.1881207,0.22278339,1
2.109999999999999,,,,,9.950021,-0.47388098,-0.1881207,0.22278339,-0.78710866,1.6155618,1.4982935,0.26443148,-0.08373969,-0.03808099,0.9600071,-6.000763,7.1270313,-0.06887359,-0.47388098,-0.1881207,0.22278339,1
2.1199999999999988,,,,,9.950021,-0.47388098,-0.1881207,0.22278339,-0.8472064,1.6868173,1.4976033,0.26312685,-0.08350535,-0.04051093,0.96028644,-6.0187936,7.123975,-0.069168575,-0.47388098,-0.1881207,0.22278339,1
2.1299999999999986,,,,,10.159712,-0.48565444,-0.05822818,0.3027652,-0.9074848,1.7580397,1.49691,0.2618202,-0.083270356,-0.042940557,0.9605584,-6.036901,7.120418,-0.06949464,-0.47388098,-0.1881207,0.22278339,1
2.1399999999999983,,,,,10.159712,-0.48565444,-0.05822818,0.3027652,-0.96794677,1.8292238,1.4962236,0.2601503,-0.08369113,-0.045223042,0.9608708,-6.055511,7.1162963,-0.067801654,-0.48565444,-0.05822818,0.3027652,1
2.149999999999998,,,,,10.159712,-0.48565444,-0.05822818,0.3027652,-1.0285957,1.9003643,1.4955537,0.25847828,-0.084111206,-0.047505155,0.9611752,-6.0743136,7.11172,-0.066164635,-0.48565444,-0.05822818,0.3027652,1
2.159999999999998,,,,,10.159712,-0.48565444,-0.05822818,0.3027652,-1.0894337,1.9714568,1.4949,0.2568041,-0.084530585,-0.049786873,0.9614717,-6.093308,7.106689,-0.06458576,-0.48565444,-0.05822818,0.3027652,1
2.1699999999999977,,,,,10.388361,-0.58755493,-0.066358045,0.2604031,-1.1504625,2.0424967,1.4942619,0.2551278,-0.08494928,-0.05206818,0.9617602,-6.1124907,7.1012025,-0.063067175,-0.48565444,-0.05822818,0.3027652,1
