time-since-start [s],throttle_mpc,roll_mpc,pitch_mpc,yaw_mpc,throttle_nw,roll_nw,pitch_nw,yaw_nw,position_x [m],position_y [m],position_z [m],rotation_w [quaternion],rotation_x [quaternion],rotation_y [quaternion],rotation_z [quaternion],velocity_x [m/s],velocity_y [m/s],velocity_z [m/s],omega_x [rad/s],omega_y [rad/s],omega_z [rad/s],network_used
0.0,5.575106734846557,3.8624080548782707,-5.999999867419161,-1.5660510780387045,10.81427,-0.6235404,-1.3468484,0.28266233,11.430893,-10.660917,1.1162364,0.33975524,-0.22464582,0.27857757,0.8697673,-7.6850853,4.049173,0.6414331,0.16845267,0.31872636,0.38726002,0
0.01,5.575106734846557,3.8624080548782707,-5.999999867419161,-1.5660510780387045,9.460792,1.0621554,-3.3204534,-1.2830875,11.35399,-10.620248,1.1223689,0.35903046,-0.19402969,0.28323597,0.8678865,-7.694897,4.084586,0.5852443,3.8624082,-6.0,-1.5660511,0
0.02,5.575106734846557,3.8624080548782707,-5.999999867419161,-1.5660510780387045,9.460792,1.0621554,-3.3204534,-1.2830875,11.277007,-10.5792265,1.1279451,0.37782666,-0.1631547,0.28751647,0.86484784,-7.700905,4.119564,0.5301258,3.8624082,-6.0,-1.5660511,0
0.03,5.575106734846557,3.8624080548782707,-5.999999867419161,-1.5660510780387045,9.460792,1.0621554,-3.3204534,-1.2830875,11.199984,-10.537858,1.1329746,0.39611885,-0.13206205,0.2914134,0.8606553,-7.7030926,4.1538806,0.47589546,3.8624082,-6.0,-1.5660511,0
0.04,5.575106734846557,3.8624080548782707,-5.999999867419161,-1.5660510780387045,11.7179,-0.7441871,-1.2694366,-0.10440081,11.122957,-10.496152,1.1374654,0.41388255,-0.100793205,0.29492155,0.8553146,-7.7014675,4.187313,0.42236632,3.8624082,-6.0,-1.5660511,0
0.05,5.575106734846557,3.8624080548782707,-5.999999867419161,-1.5660510780387045,11.7179,-0.7441871,-1.2694366,-0.10440081,11.045966,-10.454116,1.1414236,0.43109408,-0.0693899,0.29803622,0.8488328,-7.696056,4.2196445,0.3693477,3.8624082,-6.0,-1.5660511,0
0.060000000000000005,5.575106734846557,3.8624080548782707,-5.999999867419161,-1.5660510780387045,11.7179,-0.7441871,-1.2694366,-0.10440081,10.9690485,-10.411763,1.1448535,0.44773048,-0.037894018,0.30075327,0.8412186,-7.6869035,4.2506633,0.31664616,3.8624082,-6.0,-1.5660511,0
0.07,5.575106734846557,3.8624080548782707,-5.999999867419161,-1.5660510780387045,11.7179,-0.7441871,-1.2694366,-0.10440081,10.892241,-10.369107,1.147757,0.46376956,-0.006347579,0.30306908,0.832482,-7.674078,4.2801642,0.26406667,3.8624082,-6.0,-1.5660511,0
0.08,10.214340953099816,2.6119127429795044,-5.9999998443837566,0.05103269206780184,12.878389,-1.7651702,2.269332,0.06387991,10.815579,-10.326165,1.1501346,0.4791899,0.025207326,0.30498058,0.8226348,-7.657665,4.3079515,0.21141344,3.8624082,-6.0,-1.5660511,0
0.09,10.214340953099816,2.6119127429795044,-5.9999998443837566,0.05103269206780184,12.878389,-1.7651702,2.269332,0.06387991,10.739179,-10.2828455,1.1521733,0.4875422,0.05620317,0.3011791,0.8175785,-7.6215763,4.3552227,0.19633682,2.6119127,-6.0,0.051032692,0
0.09999999999999999,10.214340953099816,2.6119127429795044,-5.9999998443837566,0.05103269206780184,12.878389,-1.7651702,2.269332,0.06387991,10.663166,-10.239074,1.1540606,0.49537256,0.087138854,0.2970552,0.81164694,-7.580256,4.398341,0.18108146,2.6119127,-6.0,0.051032692,0
0.10999999999999999,10.214340953099816,2.6119127429795044,-5.9999998443837566,0.05103269206780184,12.878389,-1.7651702,2.269332,0.06387991,10.587591,-10.194894,1.1557931,0.5026726,0.117981255,0.2926133,0.8048464,-7.5338793,4.4371247,0.16529071,2.6119127,-6.0,0.051032692,0
0.11999999999999998,10.214340953099816,2.6119127429795044,-5.9999998443837566,0.05103269206780184,12.878389,-1.7651702,2.269332,0.06387991,10.512505,-10.150348,1.1573634,0.5094345,0.14869735,0.28785816,0.7971843,-7.4826427,4.4714093,0.14861026,2.6119127,-6.0,0.051032692,0
0.12999999999999998,14.695263000340546,0.5880117117191782,-5.999999528679195,1.2911397151136046,12.772676,-2.6075242,1.9483279,0.010313217,10.437953,-10.105482,1.158761,0.5156511,0.17925425,0.28279483,0.78866875,-7.4267635,4.5010514,0.1306896,2.6119127,-6.0,0.051032692,0
0.13999999999999999,14.695263000340546,0.5880117117191782,-5.999999528679195,1.2911397151136046,12.772676,-2.6075242,1.9483279,0.010313217,10.364112,-10.060287,1.1601467,0.5182711,0.20616655,0.2683547,0.78541434,-7.3408146,4.536501,0.14636584,0.5880117,-5.9999995,1.2911397,0
0.15,14.695263000340546,0.5880117117191782,-5.999999528679195,1.2911397151136046,12.772676,-2.6075242,1.9483279,0.010313217,10.29115,-10.014778,1.1616851,0.52039856,0.23288295,0.2536596,0.78141356,-7.2508974,4.5640826,0.16115104,0.5880117,-5.9999995,1.2911397,0
0.16,15.54133151721854,-0.3858865680300697,-5.999999096762648,1.713633184008905,13.185561,-2.8597043,1.7322364,0.2320134,10.219107,-9.969032,1.1633649,0.52203155,0.25937802,0.23872346,0.7766702,-7.157263,4.5837436,0.17456333,0.5880117,-5.9999995,1.2911397,0
0.17,15.54133151721854,-0.3858865680300697,-5.999999096762648,1.713633184008905,13.185561,-2.8597043,1.7322364,0.2320134,10.148045,-9.923126,1.1652027,0.5227838,0.28358567,0.21922812,0.77344334,-7.0549726,4.595941,0.19280104,-0.38588658,-5.999999,1.7136332,0
0.18000000000000002,15.54133151721854,-0.3858865680300697,-5.999999096762648,1.713633184008905,13.185561,-2.8597043,1.7322364,0.2320134,10.078017,-9.877143,1.1672158,0.52302533,0.3075162,0.19951859,0.7694608,-6.950333,4.599224,0.20953245,-0.38588658,-5.999999,1.7136332,0
0.19000000000000003,15.54133151721854,-0.3858865680300697,-5.999999096762648,1.713633184008905,13.185561,-2.8597043,1.7322364,0.2320134,10.009046,-9.831171,1.1693864,0.52275586,0.33114627,0.17961413,0.7647264,-6.8436103,4.59363,0.22423913,-0.38588658,-5.999999,1.7136332,0
0.20000000000000004,14.696169232981081,-0.7443051003012503,-4.648561213315022,1.5646945602025386,13.813338,-2.137602,1.3674991,-0.13893157,9.941151,-9.7853,1.1716919,0.52197564,0.35445282,0.15953416,0.75924486,-6.7350783,4.579229,0.2364105,-0.38588658,-5.999999,1.7136332,0
0.21000000000000005,14.696169232981081,-0.7443051003012503,-4.648561213315022,1.5646945602025386,13.813338,-2.137602,1.3674991,-0.13893157,9.874317,-9.73961,1.1740762,0.52090234,0.37129462,0.14175613,0.7554506,-6.6312766,4.5579715,0.24013025,-0.7443051,-4.648561,1.5646945,0
0.22000000000000006,14.696169232981081,-0.7443051003012503,-4.648561213315022,1.5646945602025386,13.813338,-2.137602,1.3674991,-0.13893157,9.808526,-9.694164,1.1764872,0.5195086,0.38790792,0.123890884,0.7511915,-6.5269604,4.530153,0.24172105,-0.7443051,-4.648561,1.5646945,0
0.23000000000000007,14.696169232981081,-0.7443051003012503,-4.648561213315022,1.5646945602025386,13.813338,-2.137602,1.3674991,-0.13893157,9.743779,-9.649029,1.1789024,0.51779526,0.4042826,0.10594941,0.7464703,-6.422285,4.495865,0.24089095,-0.7443051,-4.648561,1.5646945,0
0.24000000000000007,14.696169232981081,-0.7443051003012503,-4.648561213315022,1.5646945602025386,13.640807,-2.0889437,1.247835,-0.18806678,9.68008,-9.604269,1.1812959,0.5157633,0.42040855,0.08794275,0.7412898,-6.317407,4.4552145,0.23735389,-0.7443051,-4.648561,1.5646945,0
0.25000000000000006,14.696169232981081,-0.7443051003012503,-4.648561213315022,1.5646945602025386,13.640807,-2.0889437,1.247835,-0.18806678,9.617431,-9.559947,1.1836393,0.51341397,0.43627584,0.06988198,0.73565316,-6.212483,4.4083247,0.23083049,-0.7443051,-4.648561,1.5646945,0
0.26000000000000006,14.696169232981081,-0.7443051003012503,-4.648561213315022,1.5646945602025386,13.640807,-2.0889437,1.247835,-0.18806678,9.55583,-9.516124,1.1859014,0.51074874,0.45187473,0.051778212,0.7295639,-6.1076694,4.355334,0.22104873,-0.7443051,-4.648561,1.5646945,0
0.2700000000000001,14.696169232981081,-0.7443051003012503,-4.648561213315022,1.5646945602025386,13.640807,-2.0889437,1.247835,-0.18806678,9.495276,-9.47286,1.1880481,0.50776935,0.46719557,0.03364259,0.7230258,-6.003123,4.296396,0.20774458,-0.7443051,-4.648561,1.5646945,0
0.2800000000000001,12.735304320179143,-0.9547642123996359,0.04600954563662312,1.4982455742970657,14.737088,-0.99247754,1.2701615,-0.7518211,9.435766,-9.430216,1.1900432,0.50447756,0.48222896,0.015486266,0.7160429,-5.8989987,4.2316794,0.1906627,-0.7443051,-4.648561,1.5646945,0
0.2900000000000001,12.735304320179143,-0.9547642123996359,0.04600954563662312,1.4982455742970657,14.737088,-0.99247754,1.2701615,-0.7518211,9.377225,-9.388195,1.1918004,0.5013921,0.47975296,0.008571053,0.7199786,-5.809384,4.1723323,0.1608689,-0.9547642,0.046009544,1.4982456,0
0.3000000000000001,12.735304320179143,-0.9547642123996359,0.04600954563662312,1.4982455742970657,14.737088,-0.99247754,1.2701615,-0.7518211,9.319576,-9.34677,1.1932628,0.49826714,0.47723907,0.0016551618,0.7238574,-5.720638,4.1124244,0.13171731,-0.9547642,0.046009544,1.4982456,0
0.3100000000000001,12.735304320179143,-0.9547642123996359,0.04600954563662312,1.4982455742970657,14.737088,-0.99247754,1.2701615,-0.7518211,9.26281,-9.305947,1.1944369,0.4951028,0.4746875,-0.0052608596,0.727679,-5.632769,4.0519476,0.10318959,-0.9547642,0.046009544,1.4982456,0
0.3200000000000001,11.356065080762088,-0.9359396874767107,4.927920452152973,1.4253913825514635,15.117931,-0.9201361,2.2064364,-0.6324261,9.206919,-9.265733,1.1953287,0.49189934,0.47209844,-0.012176465,0.7314433,-5.545785,3.9908943,0.07526719,-0.9547642,0.046009544,1.4982456,0
0.3300000000000001,11.356065080762088,-0.9359396874767107,4.927920452152973,1.4253913825514635,15.117931,-0.9201361,2.2064364,-0.6324261,9.151845,-9.226094,1.1959102,0.4890288,0.4515291,-0.006840286,0.74627405,-5.469184,3.937418,0.041711688,-0.93593967,4.9279203,1.4253914,0
0.34000000000000014,11.356065080762088,-0.9359396874767107,4.927920452152973,1.4253913825514635,15.117931,-0.9201361,2.2064364,-0.6324261,9.097531,-9.186972,1.1961777,0.48582584,0.43065283,-0.0014994566,0.7605975,-5.3939714,3.8874266,0.012440688,-0.93593967,4.9279203,1.4253914,0
0.35000000000000014,11.356065080762088,-0.9359396874767107,4.927920452152973,1.4253913825514635,15.117931,-0.9201361,2.2064364,-0.6324261,9.043961,-9.148332,1.1961733,0.48229265,0.40948382,0.003842392,0.774404,-5.3203936,3.8409936,-0.01269518,-0.93593967,4.9279203,1.4253914,0
0.36000000000000015,10.043926902556716,-1.0530344735628883,5.999998447880416,1.044089424273742,15.871573,-0.54706633,3.1381934,-0.4386347,8.9911175,-9.110139,1.1959374,0.47843158,0.38803643,0.009181628,0.787684,-5.248692,3.7981822,-0.033856515,-0.93593967,4.9279203,1.4253914,0
0.37000000000000016,10.043926902556716,-1.0530344735628883,5.999998447880416,1.044089424273742,15.871573,-0.54706633,3.1381934,-0.4386347,8.938939,-9.072332,1.1954635,0.47585914,0.3617537,0.01735587,0.8014928,-5.187282,3.7638562,-0.06029322,-1.0530344,5.9999986,1.0440894,0
0.38000000000000017,10.043926902556716,-1.0530344735628883,5.999998447880416,1.044089424273742,15.871573,-0.54706633,3.1381934,-0.4386347,8.8873625,-9.034848,1.1947447,0.47283226,0.33512554,0.025513541,0.81453615,-5.128351,3.7336137,-0.082910374,-1.0530344,5.9999986,1.0440894,0
0.3900000000000002,10.043926902556716,-1.0530344735628883,5.999998447880416,1.044089424273742,15.871573,-0.54706633,3.1381934,-0.4386347,8.836362,-8.997646,1.1938176,0.46935385,0.30817735,0.03364685,0.8268017,-5.072162,3.707524,-0.10197096,-1.0530344,5.9999986,1.0440894,0
0.4000000000000002,10.003436796787918,-0.9587125553759628,5.999997048716251,0.8455672725287741,14.222629,-1.458376,3.1803155,-0.19393641,8.785909,-8.960685,1.1927166,0.46542728,0.28093493,0.041748032,0.83827776,-5.018967,3.6856403,-0.11775155,-1.0530344,5.9999986,1.0440894,0
0.4100000000000002,10.003436796787918,-0.9587125553759628,5.999997048716251,0.8455672725287741,14.222629,-1.458376,3.1803155,-0.19393641,8.735971,-8.92392,1.1914712,0.46175903,0.2536042,0.05048375,0.8484777,-4.9691796,3.6680923,-0.130897,-0.9587126,5.999997,0.8455673,0
0.4200000000000002,10.003436796787918,-0.9587125553759628,5.999997048716251,0.8455672725287741,14.222629,-1.458376,3.1803155,-0.19393641,8.686514,-8.887308,1.190108,0.45765638,0.22603485,0.05917197,0.85787946,-4.9227624,3.654852,-0.14139502,-0.9587126,5.999997,0.8455673,0
0.4300000000000002,10.003436796787918,-0.9587125553759628,5.999997048716251,0.8455672725287741,14.222629,-1.458376,3.1803155,-0.19393641,8.637504,-8.850807,1.1886516,0.45312318,0.19825284,0.06780452,0.86647403,-4.8799205,3.6459327,-0.14955588,-0.9587126,5.999997,0.8455673,0
0.4400000000000002,10.003436796787918,-0.9587125553759628,5.999997048716251,0.8455672725287741,13.304396,-0.9785284,2.7154584,-0.20819002,8.588903,-8.814373,1.1871239,0.4481637,0.17028433,0.07637329,0.8742535,-4.8408484,3.6413314,-0.15569863,-0.9587126,5.999997,0.8455673,0
0.45000000000000023,10.003436796787918,-0.9587125553759628,5.999997048716251,0.8455672725287741,13.304396,-0.9785284,2.7154584,-0.20819002,8.540674,-8.777965,1.1855435,0.44278258,0.14215563,0.0848702,0.88121057,-4.8057227,3.6410294,-0.16014992,-0.9587126,5.999997,0.8455673,0
0.46000000000000024,10.003436796787918,-0.9587125553759628,5.999997048716251,0.8455672725287741,13.304396,-0.9785284,2.7154584,-0.20819002,8.492776,-8.741538,1.1839256,0.4369849,0.1138932,0.093287274,0.8873386,-4.7747073,3.6449912,-0.16324277,-0.9587126,5.999997,0.8455673,0
0.47000000000000025,10.003436796787918,-0.9587125553759628,5.999997048716251,0.8455672725287741,13.304396,-0.9785284,2.7154584,-0.20819002,8.445166,-8.705051,1.1822821,0.4307761,0.08552361,0.101616584,0.89263177,-4.7479506,3.653165,-0.16531533,-0.9587126,5.999997,0.8455673,0
0.48000000000000026,10.30219887528902,-0.9053642111373225,5.999996822582208,0.5923370547085346,12.345306,-1.9742748,2.8190308,0.26615113,8.3978,-8.668462,1.1806216,0.42416203,0.05707356,0.109850295,0.8970852,-4.725585,3.6654844,-0.16670953,-0.9587126,5.999997,0.8455673,0
0.49000000000000027,10.30219887528902,-0.9053642111373225,5.999996822582208,0.5923370547085346,12.345306,-1.9742748,2.8190308,0.26615113,8.350641,-8.631726,1.1789635,0.41827178,0.028544156,0.11829282,0.90013355,-4.707176,3.6823692,-0.16487709,-0.9053642,5.9999967,0.5923371,0
0.5000000000000002,10.30219887528902,-0.9053642111373225,5.999996822582208,0.5923370547085346,12.345306,-1.9742748,2.8190308,0.26615113,8.30364,-8.594801,1.1773239,0.4119929,-1.1771452e-05,0.12662543,0.90234554,-4.69346,3.7033808,-0.1630729,-0.9053642,5.9999967,0.5923371,0
0.5100000000000002,10.30219887528902,-0.9053642111373225,5.999996822582208,0.5923370547085346,12.345306,-1.9742748,2.8190308,0.26615113,8.256754,-8.557645,1.1757008,0.40533122,-0.028567687,0.13484038,0.90371907,-4.684511,3.7284153,-0.16165574,-0.9053642,5.9999967,0.5923371,0
0.5200000000000002,10.9372734148232,-0.7371031401932184,5.999982634587485,0.3604094746534424,11.465594,-1.8912903,2.9971647,0.46417326,8.209933,-8.520219,1.1740882,0.3982929,-0.057097055,0.14293005,0.90425295,-4.6803856,3.757353,-0.16098295,-0.9053642,5.9999967,0.5923371,0
0.5300000000000002,10.9372734148232,-0.7371031401932184,5.999982634587485,0.3604094746534424,11.465594,-1.8912903,2.9971647,0.46417326,8.16313,-8.482474,1.1725074,0.39198345,-0.08540441,0.15158218,0.9033702,-4.6811147,3.7921224,-0.15540291,-0.73710316,5.999983,0.36040947,0
0.5400000000000003,10.9372734148232,-0.7371031401932184,5.999982634587485,0.3604094746534424,11.465594,-1.8912903,2.9971647,0.46417326,8.116294,-8.444363,1.1709746,0.38531467,-0.113633476,0.16009538,0.9016592,-4.6868844,3.8308659,-0.15140176,-0.73710316,5.999983,0.36040947,0
0.5500000000000003,10.9372734148232,-0.7371031401932184,5.999982634587485,0.3604094746534424,11.465594,-1.8912903,2.9971647,0.46417326,8.069374,-8.405844,1.1694726,0.37829262,-0.14175835,0.1684618,0.8991215,-4.697688,3.8734243,-0.14934678,-0.73710316,5.999983,0.36040947,0
0.5600000000000003,11.500576306424644,-0.5274423718585399,3.4913705604463354,0.2194204778754716,11.065341,-1.3296192,1.9920139,0.16922826,8.022323,-8.366881,1.1679798,0.3709238,-0.16975328,0.17667378,0.89575964,-4.7135024,3.9196255,-0.14959815,-0.73710316,5.999983,0.36040947,0
0.5700000000000003,11.500576306424644,-0.5274423718585399,3.4913705604463354,0.2194204778754716,11.065341,-1.3296192,1.9920139,0.16922826,7.9750843,-8.327429,1.1664976,0.36635143,-0.18614738,0.18094502,0.8935291,-4.7345715,3.9712613,-0.14712536,-0.5274424,3.4913707,0.21942048,0
0.5800000000000003,11.500576306424644,-0.5274423718585399,3.4913705604463354,0.2194204778754716,11.065341,-1.3296192,1.9920139,0.16922826,7.92762,-8.287449,1.1650313,0.36166444,-0.20248324,0.18515962,0.891019,-4.75874,4.02486,-0.14639178,-0.5274424,3.4913707,0.21942048,0
0.5900000000000003,11.500576306424644,-0.5274423718585399,3.4913705604463354,0.2194204778754716,11.065341,-1.3296192,1.9920139,0.16922826,7.8798985,-8.246924,1.1635633,0.35686427,-0.21875574,0.18931629,0.8882301,-4.7859836,4.0803485,-0.14751835,-0.5274424,3.4913707,0.21942048,0
0.6000000000000003,11.755918202137869,-0.3626144575087403,0.42231085136710717,0.15328360186007364,11.368747,-1.2874818,2.1258562,0.16186947,7.8318896,-8.205835,1.1620741,0.35195243,-0.23495981,0.19341373,0.88516325,-4.8162737,4.137651,-0.15062372,-0.5274424,3.4913707,0.21942048,0
0.6100000000000003,11.755918202137869,-0.3626144575087403,0.42231085136710717,0.15328360186007364,11.368747,-1.2874818,2.1258562,0.16186947,7.7835617,-8.164161,1.1605561,0.35043815,-0.23731777,0.1927313,0.8852838,-4.8494015,4.1973376,-0.1530148,-0.36261445,0.42231086,0.1532836,0
0.6200000000000003,11.755918202137869,-0.3626144575087403,0.42231085136710717,0.15328360186007364,11.368747,-1.2874818,2.1258562,0.16186947,7.734899,-8.121888,1.1590132,0.34892097,-0.23967375,0.19204727,0.885397,-4.8831515,4.256997,-0.15560666,-0.36261445,0.42231086,0.1532836,0
0.6300000000000003,11.755918202137869,-0.3626144575087403,0.42231085136710717,0.15328360186007364,11.368747,-1.2874818,2.1258562,0.16186947,7.6858964,-8.0790205,1.1574434,0.34740087,-0.24202774,0.19136164,0.8855029,-4.917523,4.3166265,-0.15840177,-0.36261445,0.42231086,0.1532836,0
0.6400000000000003,11.755918202137869,-0.3626144575087403,0.42231085136710717,0.15328360186007364,11.275251,-0.79116833,1.7423226,-0.04389983,7.636547,-8.035558,1.1558444,0.34587786,-0.24437971,0.19067441,0.88560134,-4.9525146,4.376224,-0.16140261,-0.36261445,0.42231086,0.1532836,0
0.6500000000000004,11.755918202137869,-0.3626144575087403,0.42231085136710717,0.15328360186007364,11.275251,-0.79116833,1.7423226,-0.04389983,7.586844,-7.9914966,1.1542145,0.34435198,-0.24672966,0.1899856,0.8856924,-4.988126,4.4357862,-0.16461162,-0.36261445,0.42231086,0.1532836,0
0.6600000000000004,11.755918202137869,-0.3626144575087403,0.42231085136710717,0.15328360186007364,11.275251,-0.79116833,1.7423226,-0.04389983,7.536782,-7.9468417,1.1525514,0.34282324,-0.24907754,0.1892952,0.8857761,-5.024355,4.4953113,-0.16803125,-0.36261445,0.42231086,0.1532836,0
0.6700000000000004,11.755918202137869,-0.3626144575087403,0.42231085136710717,0.15328360186007364,11.275251,-0.79116833,1.7423226,-0.04389983,7.486355,-7.901592,1.1508532,0.34129164,-0.25142333,0.18860322,0.8858524,-5.061202,4.5547957,-0.1716639,-0.36261445,0.42231086,0.1532836,0
0.6800000000000004,12.12117527158994,-0.24012301642244213,-0.4842443307461099,0.13096278497449648,11.903879,0.6841353,1.7078921,-0.21921355,7.4355555,-7.8557467,1.1491175,0.33975717,-0.25376704,0.18790966,0.88592136,-5.098665,4.6142364,-0.17551203,-0.36261445,0.42231086,0.1532836,0
0.6900000000000004,12.12117527158994,-0.24012301642244213,-0.4842443307461099,0.13096278497449648,11.903879,0.6841353,1.7078921,-0.21921355,7.3843746,-7.809299,1.1473573,0.33932605,-0.25190595,0.18618882,0.8869805,-5.137624,4.675307,-0.1764275,-0.24012302,-0.48424432,0.13096279,0
0.7000000000000004,12.12117527158994,-0.24012301642244213,-0.4842443307461099,0.13096278497449648,11.903879,0.6841353,1.7078921,-0.21921355,7.3328047,-7.762243,1.1455901,0.3388923,-0.25004286,0.18446654,0.88803273,-5.176409,4.7358756,-0.1769598,-0.24012302,-0.48424432,0.13096279,0
0.7100000000000004,12.12117527158994,-0.24012301642244213,-0.4842443307461099,0.13096278497449648,11.903879,0.6841353,1.7078921,-0.21921355,7.2808475,-7.7145834,1.1438195,0.33845595,-0.24817786,0.18274283,0.8890781,-5.2150164,4.7959414,-0.17711164,-0.24012302,-0.48424432,0.13096279,0
0.7200000000000004,12.481264361841218,-0.1135480797722053,-1.517935088966671,0.11165777647758443,11.762097,0.54973245,1.6164707,-0.12436706,7.228505,-7.6663256,1.1420492,0.33801696,-0.24631092,0.18101771,0.8901166,-5.2534456,4.8555017,-0.17688583,-0.24012302,-0.48424432,0.13096279,0
0.7300000000000004,12.481264361841218,-0.1135480797722053,-1.517935088966671,0.11165777647758443,11.762097,0.54973245,1.6164707,-0.12436706,7.175774,-7.6174664,1.1402985,0.33874416,-0.23963895,0.1780792,0.8922515,-5.2924747,4.916103,-0.17309316,-0.11354808,-1.517935,0.111657776,0
0.7400000000000004,12.481264361841218,-0.1135480797722053,-1.517935088966671,0.11165777647758443,11.762097,0.54973245,1.6164707,-0.12436706,7.1226587,-7.568007,1.138591,0.33945167,-0.23295306,0.17513031,0.8943345,-5.330361,4.975622,-0.1682367,-0.11354808,-1.517935,0.111657776,0
0.7500000000000004,12.481264361841218,-0.1135480797722053,-1.517935088966671,0.11165777647758443,11.762097,0.54973245,1.6164707,-0.12436706,7.069171,-7.5179577,1.1369374,0.3401394,-0.22625357,0.1721712,0.8963654,-5.367093,5.034047,-0.1623406,-0.11354808,-1.517935,0.111657776,0
0.7600000000000005,12.922641313644894,-0.030748362731504688,-1.6918289093473913,0.09808796212317449,12.47213,0.26053098,0.8872085,0.061592285,7.0153213,-7.46733,1.1353478,0.34080732,-0.21954091,0.16920207,0.89834416,-5.4026623,5.091365,-0.15542914,-0.11354808,-1.517935,0.111657776,0
0.7700000000000005,12.922641313644894,-0.030748362731504688,-1.6918289093473913,0.09808796212317449,12.47213,0.26053098,0.8872085,0.061592285,6.961116,-7.4161243,1.1338512,0.34175205,-0.2119033,0.16628265,0.9003622,-5.4381905,5.149534,-0.14374223,-0.030748364,-1.691829,0.09808796,0
0.7800000000000005,12.922641313644894,-0.030748362731504688,-1.6918289093473913,0.09808796212317449,12.47213,0.26053098,0.8872085,0.061592285,6.906563,-7.364343,1.1324769,0.34267223,-0.20425047,0.1633513,0.90231556,-5.4722676,5.206486,-0.13096252,-0.030748364,-1.691829,0.09808796,0
0.7900000000000005,12.922641313644894,-0.030748362731504688,-1.6918289093473913,0.09808796212317449,12.47213,0.26053098,0.8872085,0.061592285,6.8516765,-7.311999,1.1312357,0.3435678,-0.19658299,0.1604082,0.9042041,-5.504883,5.2622056,-0.11712202,-0.030748364,-1.691829,0.09808796,0
0.8000000000000005,13.169864701663027,0.008521129214506616,-1.3280732956863963,0.08599895657876126,12.772518,0.39731076,1.6523831,-0.12433535,6.7964706,-7.259104,1.130138,0.34443867,-0.18890138,0.1574536,0.9060277,-5.5360255,5.316678,-0.10225311,-0.030748364,-1.691829,0.09808796,0
0.8100000000000005,13.169864701663027,0.008521129214506616,-1.3280732956863963,0.08599895657876126,12.772518,0.39731076,1.6523831,-0.12433535,6.7409577,-7.2056646,1.1292046,0.34509504,-0.1827985,0.15528277,0.90740335,-5.566364,5.371023,-0.08429078,0.008521129,-1.3280733,0.08599896,0
0.8200000000000005,13.169864701663027,0.008521129214506616,-1.3280732956863963,0.08599895657876126,12.772518,0.39731076,1.6523831,-0.12433535,6.6851473,-7.1516867,1.1284548,0.34573615,-0.17668754,0.15310505,0.9087389,-5.59548,5.4243813,-0.06555991,0.008521129,-1.3280733,0.08599896,0
0.8300000000000005,13.169864701663027,0.008521129214506616,-1.3280732956863963,0.08599895657876126,12.772518,0.39731076,1.6523831,-0.12433535,6.6290517,-7.09718,1.1278961,0.34636194,-0.17056873,0.15092055,0.9100342,-5.6233673,5.4767447,-0.046081353,0.008521129,-1.3280733,0.08599896,0
0.8400000000000005,13.169864701663027,0.008521129214506616,-1.3280732956863963,0.08599895657876126,13.124494,0.34458843,1.69869,-0.13026744,6.572684,-7.042155,1.1275358,0.3469724,-0.16444238,0.14872937,0.91128916,-5.65002,5.528104,-0.025876086,0.008521129,-1.3280733,0.08599896,0
0.8500000000000005,13.169864701663027,0.008521129214506616,-1.3280732956863963,0.08599895657876126,13.124494,0.34458843,1.69869,-0.13026744,6.516056,-6.9866214,1.127381,0.3475675,-0.15830876,0.14653161,0.9125038,-5.6754327,5.578451,-0.004965215,0.008521129,-1.3280733,0.08599896,0
0.8600000000000005,13.169864701663027,0.008521129214506616,-1.3280732956863963,0.08599895657876126,13.124494,0.34458843,1.69869,-0.13026744,6.4591794,-6.930589,1.1274387,0.34814718,-0.15216814,0.14432734,0.913678,-5.6995997,5.6277795,0.016630027,0.008521129,-1.3280733,0.08599896,0
0.8700000000000006,13.169864701663027,0.008521129214506616,-1.3280732956863963,0.08599895657876126,13.124494,0.34458843,1.69869,-0.13026744,6.4020677,-6.8740687,1.1277157,0.34871146,-0.14602077,0.1421167,0.9148118,-5.7225156,5.676081,0.038888287,0.008521129,-1.3280733,0.08599896,0
0.8800000000000006,13.273027355530967,0.01993154405077035,-0.9089954979458948,0.07757388026820032,13.935942,-0.12247643,1.5948,-0.059293088,6.344733,-6.817071,1.1282185,0.3492603,-0.13986693,0.13989976,0.91590506,-5.7441754,5.7233486,0.061788093,0.008521129,-1.3280733,0.08599896,0
0.8900000000000006,13.273027355530967,0.01993154405077035,-0.9089954979458948,0.07757388026820032,13.935942,-0.12247643,1.5948,-0.059293088,6.2871876,-6.7596035,1.1289581,0.3495512,-0.13561366,0.13845645,0.91665274,-5.7648797,5.770066,0.08618707,0.019931544,-0.9089955,0.07757388,0
0.9000000000000006,13.273027355530967,0.01993154405077035,-0.9089954979458948,0.07757388026820032,13.935942,-0.12247643,1.5948,-0.059293088,6.229439,-6.701672,1.1299437,0.34983483,-0.13135757,0.13701026,0.91738135,-5.784699,5.816075,0.11099988,0.019931544,-0.9089955,0.07757388,0
0.9100000000000006,13.273027355530967,0.01993154405077035,-0.9089954979458948,0.07757388026820032,13.935942,-0.12247643,1.5948,-0.059293088,6.1714964,-6.6432843,1.1311795,0.35011116,-0.12709874,0.13556121,0.9180909,-5.8036313,5.8613725,0.1362162,0.019931544,-0.9089955,0.07757388,0
0.9200000000000006,13.201316953442397,0.020294457025892783,-0.7255683186125697,0.06948597057132218,14.473822,-0.2050899,1.5811766,-0.01204234,6.113369,-6.584447,1.1326692,0.3503802,-0.12283726,0.13410935,0.91878134,-5.8216743,5.905955,0.16182567,0.019931544,-0.9089955,0.07757388,0
0.9300000000000006,13.201316953442397,0.020294457025892783,-0.7255683186125697,0.06948597057132218,14.473822,-0.2050899,1.5811766,-0.01204234,6.055066,-6.5251684,1.1344138,0.35055766,-0.11942111,0.13297325,0.919329,-5.838799,5.9496384,0.18711886,0.020294458,-0.7255683,0.06948597,0
0.9400000000000006,13.201316953442397,0.020294457025892783,-0.7255683186125697,0.06948597057132218,14.473822,-0.2050899,1.5811766,-0.01204234,5.9965954,-6.465456,1.1364127,0.35073045,-0.11600337,0.13183539,0.9198644,-5.855211,5.992755,0.21270818,0.020294458,-0.7255683,0.06948597,0
0.9500000000000006,13.201316953442397,0.020294457025892783,-0.7255683186125697,0.06948597057132218,14.473822,-0.2050899,1.5811766,-0.01204234,5.9379644,-6.4053154,1.1386689,0.35089856,-0.11258409,0.13069576,0.9203876,-5.870908,6.035302,0.238587,0.020294458,-0.7255683,0.06948597,0
0.9600000000000006,12.913924218818261,0.0167584761361995,-0.5262308037316352,0.06572735953291234,13.602466,-0.15378568,0.45977122,0.10052413,5.8791804,-6.3447523,1.1411854,0.35106203,-0.109163314,0.12955439,0.9208986,-5.8858895,6.077278,0.2647487,0.020294458,-0.7255683,0.06948597,1
0.9700000000000006,12.913924218818261,0.0167584761361995,-0.5262308037316352,0.06572735953291234,13.602466,-0.15378568,0.45977122,0.10052413,5.8202457,-6.2837644,1.1439834,0.3502163,-0.11148482,0.1297078,0.9209209,-5.9010887,6.1202497,0.29480916,-0.15378568,0.45977122,0.10052413,1
0.9800000000000006,12.913924218818261,0.0167584761361995,-0.5262308037316352,0.06572735953291234,13.602466,-0.15378568,0.45977122,0.10052413,5.7611566,-6.222346,1.1470811,0.34936842,-0.11380564,0.1298604,0.9209376,-5.916886,6.1634555,0.32471842,-0.15378568,0.45977122,0.10052413,1
0.9900000000000007,12.913924218818261,0.0167584761361995,-0.5262308037316352,0.06572735953291234,13.602466,-0.15378568,0.45977122,0.10052413,5.701906,-6.1604943,1.1504772,0.34851843,-0.11612575,0.13001221,0.92094857,-5.93328,6.2068944,0.35447356,-0.15378568,0.45977122,0.10052413,1
1.0000000000000007,12.223374320512411,0.06043452450441708,-1.4205400022143562,0.06400361937458152,13.482513,-0.43624946,0.8261037,0.5065865,5.642489,-6.098207,1.15417,0.34766632,-0.11844514,0.13016324,0.9209539,-5.9502716,6.250565,0.3840718,-0.15378568,0.45977122,0.10052413,0
1.0100000000000007,12.223374320512411,0.06043452450441708,-1.4205400022143562,0.06400361937458152,13.482513,-0.43624946,0.8261037,0.5065865,5.5829096,-6.035506,1.1580942,0.3483231,-0.11175422,0.12800679,0.9218438,-5.9653807,6.28956,0.400828,0.060434524,-1.42054,0.06400362,0
1.0200000000000007,12.223374320512411,0.06043452450441708,-1.4205400022143562,0.06400361937458152,13.482513,-0.43624946,0.8261037,0.5065865,5.5231857,-5.9724193,1.1621884,0.34896225,-0.10505766,0.12584384,0.922687,-5.9791694,6.3275437,0.41808808,0.060434524,-1.42054,0.06400362,0
1.0300000000000007,12.223374320512411,0.06043452450441708,-1.4205400022143562,0.06400361937458152,13.482513,-0.43624946,0.8261037,0.5065865,5.4633303,-5.9089584,1.1664575,0.34958375,-0.09835576,0.12367453,0.92348343,-5.991634,6.3645096,0.43582848,0.060434524,-1.42054,0.06400362,0
1.0400000000000007,12.223374320512411,0.06043452450441708,-1.4205400022143562,0.06400361937458152,12.99807,-0.5131898,0.109642036,0.5341193,5.403357,-5.845133,1.1709063,0.35018748,-0.0916489,0.12149896,0.92423314,-6.002771,6.4004507,0.4540256,0.060434524,-1.42054,0.06400362,0
1.0500000000000007,12.223374320512411,0.06043452450441708,-1.4205400022143562,0.06400361937458152,12.99807,-0.5131898,0.109642036,0.5341193,5.343279,-5.780953,1.1755394,0.3507735,-0.084937386,0.11931723,0.9249361,-6.0125775,6.435361,0.47265577,0.060434524,-1.42054,0.06400362,0
1.0600000000000007,12.223374320512411,0.06043452450441708,-1.4205400022143562,0.06400361937458152,12.99807,-0.5131898,0.109642036,0.5341193,5.2831097,-5.7164297,1.1803608,0.35134178,-0.078221574,0.11712946,0.9255921,-6.021051,6.4692345,0.4916952,0.060434524,-1.42054,0.06400362,0
1.0700000000000007,12.223374320512411,0.06043452450441708,-1.4205400022143562,0.06400361937458152,12.99807,-0.5131898,0.109642036,0.5341193,5.2228622,-5.651572,1.1853746,0.35189226,-0.07150179,0.11493576,0.92620134,-6.028189,6.5020647,0.51111996,0.060434524,-1.42054,0.06400362,0
1.0800000000000007,11.721444806542273,0.022411717450029338,-1.15229324035432,0.06541636461471537,11.769984,-0.20444879,0.2597705,0.1920715,5.1625504,-5.5863914,1.1905845,0.3524249,-0.06477839,0.11273624,0.92676365,-6.0339894,6.5338464,0.5309062,0.060434524,-1.42054,0.06400362,0
1.0900000000000007,11.721444806542273,0.022411717450029338,-1.15229324035432,0.06541636461471537,11.769984,-0.20444879,0.2597705,0.1920715,5.1021876,-5.5209045,1.1959696,0.35277265,-0.059361454,0.11082893,0.9272241,-6.0383663,6.5633745,0.5461552,0.022411717,-1.1522932,0.065416366,0
1.1000000000000008,11.721444806542273,0.022411717450029338,-1.15229324035432,0.06541636461471537,11.769984,-0.20444879,0.2597705,0.1920715,5.041786,-5.455127,1.2015084,0.3531087,-0.053942546,0.10891792,0.9276536,-6.041721,6.5920563,0.5616562,0.022411717,-1.1522932,0.065416366,0
1.1100000000000008,11.721444806542273,0.022411717450029338,-1.15229324035432,0.06541636461471537,11.769984,-0.20444879,0.2597705,0.1920715,4.9813566,-5.389066,1.2072035,0.35343298,-0.04852184,0.10700329,0.92805225,-6.0440516,6.6198893,0.5773938,0.022411717,-1.1522932,0.065416366,0
1.1200000000000008,11.155910467383759,-0.04398643468781353,-0.7168283565172919,0.07080877205404636,11.117916,0.14213839,0.16383654,0.1711039,4.9209094,-5.322732,1.213057,0.35374546,-0.043099515,0.1050851,0.92841995,-6.045358,6.6468687,0.5933528,0.022411717,-1.1522932,0.065416366,1
1.1300000000000008,11.155910467383759,-0.04398643468781353,-0.7168283565172919,0.07080877205404636,11.117916,0.14213839,0.16383654,0.1711039,4.8604527,-5.256138,1.2190416,0.35289538,-0.043518715,0.10607147,0.9286117,-6.046001,6.67204,0.60354316,0.14213839,0.16383654,0.1711039,1
1.1400000000000008,11.155910467383759,-0.04398643468781353,-0.7168283565172919,0.07080877205404636,11.117916,0.14213839,0.16383654,0.1711039,4.7999887,-5.1892905,1.2251277,0.35204464,-0.04393783,0.107057646,0.9288017,-6.046675,6.697444,0.6136789,0.14213839,0.16383654,0.1711039,1
1.1500000000000008,11.155910467383759,-0.04398643468781353,-0.7168283565172919,0.07080877205404636,11.117916,0.14213839,0.16383654,0.1711039,4.739519,-5.122188,1.2313149,0.35119322,-0.04435686,0.10804361,0.92898995,-6.047381,6.7230806,0.62375945,0.14213839,0.16383654,0.1711039,1
1.1600000000000008,10.65453852185544,-0.15194357112948537,-0.9840802569050864,0.07018160384138616,11.352516,0.43825033,-0.64519477,0.06670135,4.679042,-5.054828,1.2376027,0.3503411,-0.044775806,0.109029375,0.9291764,-6.0481186,6.74895,0.6337845,0.14213839,0.16383654,0.1711039,1
1.1700000000000008,10.65453852185544,-0.15194357112948537,-0.9840802569050864,0.07018160384138616,11.352516,0.43825033,-0.64519477,0.06670135,4.6185575,-4.987206,1.244002,0.35047838,-0.04097393,0.10994934,0.92919165,-6.0485625,6.7754736,0.64606655,0.43825033,-0.64519477,0.06670135,1
1.1800000000000008,10.65453852185544,-0.15194357112948537,-0.9840802569050864,0.07018160384138616,11.352516,0.43825033,-0.64519477,0.06670135,4.558073,-4.919319,1.2505242,0.3506103,-0.037171423,0.11086762,0.9291927,-6.048128,6.8018904,0.65837437,0.43825033,-0.64519477,0.06670135,1
1.1900000000000008,10.65453852185544,-0.15194357112948537,-0.9840802569050864,0.07018160384138616,11.352516,0.43825033,-0.64519477,0.06670135,4.497597,-4.8511686,1.2571695,0.35073683,-0.033368345,0.111784205,0.9291795,-6.046815,6.828199,0.67070097,0.43825033,-0.64519477,0.06670135,1
1.2000000000000008,10.105592955237242,-0.45939023154833636,-1.058721577348761,0.0683725818971224,12.133887,0.071468264,-0.82095766,0.081422746,4.437139,-4.7827554,1.2639382,0.35085797,-0.029564757,0.11269908,0.92915195,-6.0446234,6.8543983,0.6830396,0.43825033,-0.64519477,0.06670135,0
1.2100000000000009,10.105592955237242,-0.45939023154833636,-1.058721577348761,0.0683725818971224,12.133887,0.071468264,-0.82095766,0.081422746,4.3767056,-4.7140965,1.27077,0.35106313,-0.025413096,0.1087158,0.9296717,-6.0419965,6.877272,0.68333703,-0.45939022,-1.0587215,0.068372585,0
1.2200000000000009,10.105592955237242,-0.45939023154833636,-1.058721577348761,0.0683725818971224,12.133887,0.071468264,-0.82095766,0.081422746,4.3163004,-4.645214,1.2776058,0.35125658,-0.021260586,0.10472889,0.93016046,-6.0388703,6.8991156,0.68385386,-0.45939022,-1.0587215,0.068372585,0
1.2300000000000009,10.105592955237242,-0.45939023154833636,-1.058721577348761,0.0683725818971224,12.133887,0.071468264,-0.82095766,0.081422746,4.2559295,-4.576118,1.2844478,0.35143828,-0.017107364,0.10073848,0.9306181,-6.0352445,6.9199257,0.6845769,-0.45939022,-1.0587215,0.068372585,0
1.2400000000000009,10.105592955237242,-0.45939023154833636,-1.058721577348761,0.0683725818971224,12.486081,-0.20652673,-0.32591754,0.16350907,4.1955976,-4.506819,1.2912979,0.35160825,-0.012953572,0.09674471,0.93104464,-6.031119,6.939699,0.6854929,-0.45939022,-1.0587215,0.068372585,0
1.2500000000000009,10.105592955237242,-0.45939023154833636,-1.058721577348761,0.0683725818971224,12.486081,-0.20652673,-0.32591754,0.16350907,4.1353087,-4.4373274,1.2981583,0.35176644,-0.008799346,0.0927477,0.9314401,-6.0264935,6.958435,0.6865885,-0.45939022,-1.0587215,0.068372585,0
1.260000000000001,10.105592955237242,-0.45939023154833636,-1.058721577348761,0.0683725818971224,12.486081,-0.20652673,-0.32591754,0.16350907,4.075069,-4.3676534,1.3050303,0.35191292,-0.004644827,0.0887476,0.9318044,-6.0213685,6.9761305,0.68785053,-0.45939022,-1.0587215,0.068372585,0
1.270000000000001,10.105592955237242,-0.45939023154833636,-1.058721577348761,0.0683725818971224,12.486081,-0.20652673,-0.32591754,0.16350907,4.0148826,-4.297808,1.3119158,0.35204762,-0.00049015286,0.08474453,0.93213755,-6.0157437,6.9927835,0.6892655,-0.45939022,-1.0587215,0.068372585,0
1.280000000000001,9.75544697963645,-0.4083348990939709,-1.0680346712865594,0.10279408473597108,12.2458515,-0.42632982,-0.21216942,0.1492092,3.9547553,-4.2278013,1.3188161,0.35217056,0.0036645376,0.08073863,0.93243957,-6.0096188,7.0083923,0.69082016,-0.45939022,-1.0587215,0.068372585,0
1.290000000000001,9.75544697963645,-0.4083348990939709,-1.0680346712865594,0.10279408473597108,12.2458515,-0.42632982,-0.21216942,0.1492092,3.8946908,-4.157646,1.3257153,0.35212415,0.007966322,0.07695105,0.93275046,-6.0032086,7.022462,0.68904114,-0.4083349,-1.0680346,0.10279409,0
1.300000000000001,9.75544697963645,-0.4083348990939709,-1.0680346712865594,0.10279408473597108,12.2458515,-0.42632982,-0.21216942,0.1492092,3.834693,-4.0873556,1.3325973,0.35206616,0.012267844,0.07316093,0.93303066,-5.9962764,7.035551,0.68736416,-0.4083349,-1.0680346,0.10279409,0
1.310000000000001,9.75544697963645,-0.4083348990939709,-1.0680346712865594,0.10279408473597108,12.2458515,-0.42632982,-0.21216942,0.1492092,3.7747672,-4.0169387,1.3394629,0.35199657,0.016568962,0.06936841,0.9332801,-5.9888215,7.0476584,0.6857765,-0.4083349,-1.0680346,0.10279409,0
1.320000000000001,9.32130286627551,-0.37519415051357735,-1.407638526770017,0.14164952293271507,12.038143,-0.4534789,-0.3520112,0.1501376,3.7149184,-3.9464056,1.3463131,0.35191536,0.020869533,0.06557359,0.9334988,-5.9808445,7.058783,0.6842652,-0.4083349,-1.0680346,0.10279409,0
1.330000000000001,9.32130286627551,-0.37519415051357735,-1.407638526770017,0.14164952293271507,12.038143,-0.4534789,-0.3520112,0.1501376,3.6551504,-3.8757687,1.3531271,0.35174546,0.026825326,0.061329022,0.9336992,-5.9726267,7.0684032,0.6785148,-0.37519416,-1.4076385,0.14164953,0
1.340000000000001,9.32130286627551,-0.37519415051357735,-1.407638526770017,0.14164952293271507,12.038143,-0.4534789,-0.3520112,0.1501376,3.5954683,-3.8050413,1.3598838,0.35155672,0.03277968,0.057081174,0.9338495,-5.9636517,7.076897,0.67280436,-0.37519416,-1.4076385,0.14164953,0
1.350000000000001,9.32130286627551,-0.37519415051357735,-1.407638526770017,0.14164952293271507,12.038143,-0.4534789,-0.3520112,0.1501376,3.5358796,-3.7342346,1.3665833,0.35134917,0.03873228,0.052830268,0.9339499,-5.95392,7.0842633,0.66711414,-0.37519416,-1.4076385,0.14164953,0
1.360000000000001,8.87600138105234,-0.3328188597571713,-1.4046924780331238,0.17945720704535212,11.581628,-0.32181105,-0.95151407,0.08339077,3.476392,-3.6633596,1.373226,0.3511228,0.044682804,0.048576534,0.9340002,-5.9434323,7.0905023,0.66142416,-0.37519416,-1.4076385,0.14164953,0
1.370000000000001,8.87600138105234,-0.3328188597571713,-1.4046924780331238,0.17945720704535212,11.581628,-0.32181105,-0.95151407,0.08339077,3.4170108,-3.5924294,1.3797897,0.35069096,0.050700773,0.044514827,0.93405753,-5.932718,7.09538,0.65129936,-0.33281887,-1.4046925,0.1794572,0
1.380000000000001,8.87600138105234,-0.3328188597571713,-1.4046924780331238,0.17945720704535212,11.581628,-0.32181105,-0.95151407,0.08339077,3.3577404,-3.5214555,1.3862519,0.3502406,0.05671606,0.040450767,0.93406546,-5.9212613,7.099213,0.6411327,-0.33281887,-1.4046925,0.1794572,0
1.390000000000001,8.87600138105234,-0.3328188597571713,-1.4046924780331238,0.17945720704535212,11.581628,-0.32181105,-0.95151407,0.08339077,3.2985883,-3.4504485,1.3926122,0.34977168,0.062728345,0.036384568,0.934024,-5.909065,7.102003,0.63090575,-0.33281887,-1.4046925,0.1794572,0
1.400000000000001,8.61267462333286,-0.31245053346095963,-1.9887704565567488,0.2225248585937627,11.4710455,-0.16838643,-1.0903615,-0.16146487,3.2395618,-3.3794188,1.3988698,0.3492843,0.068737306,0.032316446,0.93393314,-5.8961267,7.10375,0.6205997,-0.33281887,-1.4046925,0.1794572,0
1.410000000000001,8.61267462333286,-0.31245053346095963,-1.9887704565567488,0.2225248585937627,11.4710455,-0.16838643,-1.0903615,-0.16146487,3.1806667,-3.3083775,1.4050108,0.348656,0.077510804,0.027306125,0.93364084,-5.8827105,7.1043153,0.6075718,-0.31245053,-1.9887705,0.22252485,0
1.420000000000001,8.61267462333286,-0.31245053346095963,-1.9887704565567488,0.2225248585937627,11.4710455,-0.16838643,-1.0903615,-0.16146487,3.1219113,-3.2373369,1.4110205,0.34799194,0.08627636,0.022293001,0.9332528,-5.868192,7.1035547,0.5943613,-0.31245053,-1.9887705,0.22252485,0
1.430000000000001,8.61267462333286,-0.31245053346095963,-1.9887704565567488,0.2225248585937627,11.4710455,-0.16838643,-1.0903615,-0.16146487,3.0633066,-3.1663108,1.4168972,0.3472922,0.09503306,0.017277593,0.932769,-5.852575,7.101471,0.5809332,-0.31245053,-1.9887705,0.22252485,0
1.440000000000001,8.61267462333286,-0.31245053346095963,-1.9887704565567488,0.2225248585937627,11.317464,-0.13049254,-1.2278134,-0.27593857,3.0048637,-3.0953119,1.4226382,0.34655687,0.10378002,0.012260414,0.9321896,-5.835862,7.0980678,0.5672528,-0.31245053,-1.9887705,0.22252485,0
1.450000000000001,8.61267462333286,-0.31245053346095963,-1.9887704565567488,0.2225248585937627,11.317464,-0.13049254,-1.2278134,-0.27593857,2.946593,-3.0243537,1.4282411,0.345786,0.11251634,0.0072419774,0.93151456,-5.818057,7.0933485,0.5532854,-0.31245053,-1.9887705,0.22252485,0
1.460000000000001,8.61267462333286,-0.31245053346095963,-1.9887704565567488,0.2225248585937627,11.317464,-0.13049254,-1.2278134,-0.27593857,2.888506,-2.9534495,1.4337028,0.34497964,0.12124112,0.0022227974,0.930744,-5.799165,7.087318,0.53899646,-0.31245053,-1.9887705,0.22252485,0
1.470000000000001,8.61267462333286,-0.31245053346095963,-1.9887704565567488,0.2225248585937627,11.317464,-0.13049254,-1.2278134,-0.27593857,2.8306134,-2.882612,1.4390198,0.3441379,0.12995346,-0.0027966104,0.92987806,-5.7791896,7.079981,0.5243515,-0.31245053,-1.9887705,0.22252485,0
1.480000000000001,8.369932281289488,-0.2816715951445627,-0.43792272098340884,0.2476762700404644,11.281559,-0.014036152,-0.76935005,-0.40290934,2.7729259,-2.8118544,1.4441884,0.34326088,0.13865247,-0.007815732,0.92891675,-5.758137,7.0713425,0.50931615,-0.31245053,-1.9887705,0.22252485,0
1.490000000000001,8.369932281289488,-0.2816715951445627,-0.43792272098340884,0.2476762700404644,11.281559,-0.014036152,-0.76935005,-0.40290934,2.7154503,-2.7411873,1.4491932,0.3422873,0.14019275,-0.010047257,0.9290233,-5.736983,7.062005,0.4916578,-0.28167158,-0.43792272,0.24767627,0
1.500000000000001,8.369932281289488,-0.2816715951445627,-0.43792272098340884,0.2476762700404644,11.281559,-0.014036152,-0.76935005,-0.40290934,2.6581867,-2.6706157,1.4540212,0.34131086,0.14173186,-0.012278698,0.92912227,-5.715713,7.0522547,0.47392,-0.28167158,-0.43792272,0.24767627,0
1.5100000000000011,8.369932281289488,-0.2816715951445627,-0.43792272098340884,0.2476762700404644,11.281559,-0.014036152,-0.76935005,-0.40290934,2.6011362,-2.6001437,1.4586713,0.34033155,0.1432698,-0.014510038,0.9292134,-5.694327,7.0420923,0.45610029,-0.28167158,-0.43792272,0.24767627,0
1.5200000000000011,8.272935800979578,-0.2583031348032933,0.6850046253661121,0.2752403706488898,11.776321,0.14771762,-0.6885576,-0.5794812,2.5443003,-2.5297751,1.463143,0.3393494,0.14480656,-0.016741257,0.92929685,-5.6728244,7.031519,0.43819633,-0.28167158,-0.43792272,0.24767627,0
1.5300000000000011,8.272935800979578,-0.2583031348032933,0.6850046253661121,0.2752403706488898,11.776321,0.14771762,-0.6885576,-0.5794812,2.487678,-2.4595132,1.4674307,0.33831224,0.1411613,-0.016978335,0.9302311,-5.6517043,7.0208855,0.41937435,-0.25830314,0.68500465,0.27524036,0
1.5400000000000011,8.272935800979578,-0.2583031348032933,0.6850046253661121,0.2752403706488898,11.776321,0.14771762,-0.6885576,-0.5794812,2.4312644,-2.3893566,1.471531,0.33726993,0.13751388,-0.017215151,0.93115103,-5.631134,7.0104413,0.4007219,-0.25830314,0.68500465,0.27524036,0
1.5500000000000012,8.272935800979578,-0.2583031348032933,0.6850046253661121,0.2752403706488898,11.776321,0.14771762,-0.6885576,-0.5794812,2.3750536,-2.3193038,1.4754456,0.33622247,0.13386434,-0.017451704,0.9320569,-5.6111155,7.0001855,0.3822347,-0.25830314,0.68500465,0.27524036,0
1.5600000000000012,8.172096825279292,-0.2472560815201479,2.066678447614838,0.2802323505961843,11.632304,-0.022650216,-0.48631376,-0.52499765,2.31904,-2.2493525,1.4791763,0.33516985,0.13021275,-0.017687988,0.93294847,-5.59165,6.9901175,0.36390835,-0.25830314,0.68500465,0.27524036,0
1.5700000000000012,8.172096825279292,-0.2472560815201479,2.066678447614838,0.2802323505961843,11.632304,-0.022650216,-0.48631376,-0.52499765,2.2632165,-2.1794996,1.4827198,0.33418792,0.12012608,-0.015559445,0.93469036,-5.573282,6.980622,0.34486872,-0.24725609,2.0666785,0.28023234,0
1.5800000000000012,8.172096825279292,-0.2472560815201479,2.066678447614838,0.2802323505961843,11.632304,-0.022650216,-0.48631376,-0.52499765,2.2075696,-2.1097372,1.4860749,0.33316916,0.11002617,-0.013429186,0.9363291,-5.5563025,6.9720182,0.32624054,-0.24725609,2.0666785,0.28023234,0
1.5900000000000012,8.172096825279292,-0.2472560815201479,2.066678447614838,0.2802323505961843,11.632304,-0.022650216,-0.48631376,-0.52499765,2.1520858,-2.0400562,1.4892459,0.33211362,0.09991413,-0.011297447,0.93786466,-5.5407214,6.964306,0.30798948,-0.24725609,2.0666785,0.28023234,0
1.6000000000000012,8.197430922368852,-0.26515801453829585,2.231998736102873,0.2794585176316407,11.247251,-0.18747613,-0.88466674,-0.5122674,2.0967507,-1.9704479,1.492236,0.33102152,0.08979107,-0.009164462,0.9392967,-5.526549,6.9574847,0.29008108,-0.24725609,2.0666785,0.28023234,0
1.6100000000000012,8.197430922368852,-0.26515801453829585,2.231998736102873,0.2794585176316407,11.247251,-0.18747613,-0.88466674,-0.5122674,2.0415502,-1.9009035,1.4950498,0.32990915,0.07885133,-0.0068405,0.9406889,-5.513795,6.9515624,0.27273867,-0.26515803,2.2319987,0.27945852,0
1.6200000000000012,8.197430922368852,-0.26515801453829585,2.231998736102873,0.2794585176316407,11.247251,-0.18747613,-0.88466674,-0.5122674,1.9864696,-1.8314133,1.4976919,0.32875448,0.06790148,-0.0045156614,0.94196045,-5.5025835,6.9466033,0.2556895,-0.26515803,2.2319987,0.27945852,0
1.6300000000000012,8.197430922368852,-0.26515801453829585,2.231998736102873,0.2794585176316407,11.247251,-0.18747613,-0.88466674,-0.5122674,1.9314933,-1.761968,1.5001647,0.32755765,0.056942917,-0.0021902442,0.9431112,-5.4929233,6.942607,0.23889285,-0.26515803,2.2319987,0.27945852,0
1.6400000000000012,8.197430922368852,-0.26515801453829585,2.231998736102873,0.2794585176316407,10.07295,-0.3927221,-0.7078471,-0.2666865,1.8766057,-1.6925579,1.5024705,0.32631883,0.045977052,0.0001354547,0.94414103,-5.4848223,6.9395695,0.22230767,-0.26515803,2.2319987,0.27945852,0
1.6500000000000012,8.197430922368852,-0.26515801453829585,2.231998736102873,0.2794585176316407,10.07295,-0.3927221,-0.7078471,-0.2666865,1.8217914,-1.6231734,1.5046115,0.32503814,0.03500529,0.002461136,0.94504976,-5.4782863,6.937489,0.20589286,-0.26515803,2.2319987,0.27945852,0
1.6600000000000013,8.197430922368852,-0.26515801453829585,2.231998736102873,0.2794585176316407,10.07295,-0.3927221,-0.7078471,-0.2666865,1.7670348,-1.5538048,1.5065889,0.32371575,0.024029037,0.004786502,0.9458372,-5.473322,6.936362,0.18960728,-0.26515803,2.2319987,0.27945852,0
1.6700000000000013,8.197430922368852,-0.26515801453829585,2.231998736102873,0.2794585176316407,10.07295,-0.3927221,-0.7078471,-0.2666865,1.7123197,-1.4844427,1.508404,0.3223518,0.013049703,0.0071112537,0.94650334,-5.4699335,6.9361844,0.1734097,-0.26515803,2.2319987,0.27945852,0
1.6800000000000013,8.29687819320027,-0.2715157472803851,1.8358674085505928,0.2746237136205722,9.306703,-0.40204498,-0.81847876,-0.15979809,1.6576307,-1.4150779,1.5100573,0.32094657,0.002068696,0.009435093,0.9470481,-5.4681263,6.936952,0.15725885,-0.26515803,2.2319987,0.27945852,0
1.6900000000000013,8.29687819320027,-0.2715157472803851,1.8358674085505928,0.2746237136205722,9.306703,-0.40204498,-0.81847876,-0.15979809,1.602952,-1.3457007,1.5115541,0.3195483,-0.00704729,0.011092198,0.94747895,-5.467804,6.9386044,0.14210942,-0.27151576,1.8358674,0.27462372,0
1.7000000000000013,8.29687819320027,-0.2715157472803851,1.8358674085505928,0.2746237136205722,9.306703,-0.40204498,-0.81847876,-0.15979809,1.5482697,-1.2763033,1.5128994,0.3181219,-0.016162656,0.012748327,0.9478264,-5.4688296,6.9410005,0.12693614,-0.27151576,1.8358674,0.27462372,0
1.7100000000000013,8.29687819320027,-0.2715157472803851,1.8358674085505928,0.2746237136205722,9.306703,-0.40204498,-0.81847876,-0.15979809,1.4935706,-1.2068782,1.5140927,0.3166675,-0.025276601,0.014403335,0.94809043,-5.471205,6.944135,0.111710526,-0.27151576,1.8358674,0.27462372,0
1.7200000000000013,8.497227530894019,-0.30263193044250564,1.2352284813729624,0.27201358484586197,9.177916,-0.39049408,-0.77139086,-0.11114591,1.4388409,-1.1374182,1.5151334,0.31518522,-0.03438832,0.016057074,0.94827104,-5.4749317,6.9480033,0.09640411,-0.27151576,1.8358674,0.27462372,0
1.7300000000000013,8.497227530894019,-0.30263193044250564,1.2352284813729624,0.27201358484586197,9.177916,-0.39049408,-0.77139086,-0.11114591,1.384067,-1.0679156,1.5160306,0.31373766,-0.040699292,0.016615245,0.9484916,-5.479986,6.9525895,0.0830013,-0.30263194,1.2352285,0.27201357,0
1.7400000000000013,8.497227530894019,-0.30263193044250564,1.2352284813729624,0.27201358484586197,9.177916,-0.39049408,-0.77139086,-0.11114591,1.3292376,-0.9983649,1.5167931,0.3122768,-0.047008544,0.017172713,0.94867206,-5.486033,6.9575934,0.06950975,-0.30263194,1.2352285,0.27201357,0
1.7500000000000013,8.497227530894019,-0.30263193044250564,1.2352284813729624,0.27201358484586197,9.177916,-0.39049408,-0.77139086,-0.11114591,1.2743428,-0.9287622,1.5174203,0.31080276,-0.053315807,0.017729454,0.94881237,-5.493073,6.963012,0.055915862,-0.30263194,1.2352285,0.27201357,0
1.7600000000000013,8.80123134799348,-0.3059073528457843,0.7106677606849007,0.27307680669077583,9.573642,0.16032532,-1.1822851,-0.18914181,1.2193726,-0.8591032,1.517911,0.30931556,-0.05962082,0.018285446,0.9489125,-5.501106,6.96884,0.042206038,-0.30263194,1.2352285,0.27201357,0
1.7700000000000014,8.80123134799348,-0.3059073528457843,0.7106677606849007,0.27307680669077583,9.573642,0.16032532,-1.1822851,-0.18914181,1.164316,-0.7893832,1.5182791,0.30786115,-0.063440256,0.018014405,0.949143,-5.5103164,6.975196,0.031403817,-0.30590734,0.7106678,0.2730768,0
1.7800000000000014,8.80123134799348,-0.3059073528457843,0.7106677606849007,0.27307680669077583,9.573642,0.16032532,-1.1822851,-0.18914181,1.109164,-0.71959877,1.5185387,0.30640158,-0.067258626,0.017743062,0.9493575,-5.520187,6.9816985,0.02051866,-0.30590734,0.7106678,0.2730768,0
1.7900000000000014,8.80123134799348,-0.3059073528457843,0.7106677606849007,0.27307680669077583,9.573642,0.16032532,-1.1822851,-0.18914181,1.05391,-0.6497487,1.5186892,0.30493686,-0.071075864,0.017471422,0.949556,-5.530717,6.9883447,0.009545442,-0.30590734,0.7106678,0.2730768,0
1.8000000000000014,9.121059716601858,-0.34023815782257216,0.15903909396808,0.28496033450342106,9.945437,0.23008493,-1.2908698,-0.20115954,0.99854743,-0.57983136,1.5187292,0.30346698,-0.07489191,0.017199485,0.9497385,-5.5419064,6.995133,-0.0015209643,-0.30590734,0.7106678,0.2730768,0
1.8100000000000014,9.121059716601858,-0.34023815782257216,0.15903909396808,0.28496033450342106,9.945437,0.23008493,-1.2908698,-0.20115954,0.94306797,-0.5098446,1.5186741,0.30197185,-0.076138675,0.015931772,0.950138,-5.5540404,7.002195,-0.009497421,-0.34023815,0.1590391,0.28496033,0
1.8200000000000014,9.121059716601858,-0.34023815782257216,0.15903909396808,0.28496033450342106,9.945437,0.23008493,-1.2908698,-0.20115954,0.88746566,-0.43978804,1.5185392,0.30047506,-0.07738502,0.014663972,0.95053214,-5.5664706,7.009086,-0.017500993,-0.34023815,0.1590391,0.28496033,0
1.8300000000000014,9.121059716601858,-0.34023815782257216,0.15903909396808,0.28496033450342106,9.945437,0.23008493,-1.2908698,-0.20115954,0.8317375,-0.36966342,1.5183241,0.2989766,-0.07863094,0.013396091,0.950921,-5.579196,7.0158057,-0.025532823,-0.34023815,0.1590391,0.28496033,0
1.8400000000000014,9.121059716601858,-0.34023815782257216,0.15903909396808,0.28496033450342106,10.033709,0.31880394,-1.0316684,-0.11321348,0.7758807,-0.29947248,1.5180285,0.29747647,-0.079876415,0.012128135,0.9513046,-5.5922155,7.022353,-0.03359405,-0.34023815,0.1590391,0.28496033,0
1.8500000000000014,9.121059716601858,-0.34023815782257216,0.15903909396808,0.28496033450342106,10.033709,0.31880394,-1.0316684,-0.11321348,0.71989214,-0.22921695,1.517652,0.29597467,-0.08112145,0.010860112,0.9516829,-5.605529,7.028727,-0.04168581,-0.34023815,0.1590391,0.28496033,0
1.8600000000000014,9.121059716601858,-0.34023815782257216,0.15903909396808,0.28496033450342106,10.033709,0.31880394,-1.0316684,-0.11321348,0.663769,-0.15889855,1.5171946,0.29447126,-0.082366034,0.009592027,0.95205593,-5.6191354,7.034927,-0.04980925,-0.34023815,0.1590391,0.28496033,0
1.8700000000000014,9.121059716601858,-0.34023815782257216,0.15903909396808,0.28496033450342106,10.033709,0.31880394,-1.0316684,-0.11321348,0.60750836,-0.088519014,1.5166558,0.29296622,-0.08361016,0.00832389,0.9524237,-5.6330347,7.0409513,-0.057965506,-0.34023815,0.1590391,0.28496033,0
1.8800000000000014,9.454414278045075,-0.33498144897163573,0.3539212618518364,0.2928623501833897,9.973129,0.2647362,-0.31163806,0.011286441,0.55110735,-0.018080119,1.5160352,0.29145953,-0.08485381,0.007055707,0.95278615,-5.647226,7.0468,-0.06615571,-0.34023815,0.1590391,0.28496033,1
1.8900000000000015,9.454414278045075,-0.33498144897163573,0.3539212618518364,0.2928623501833897,9.973129,0.2647362,-0.31163806,0.011286441,0.4945569,0.052419305,1.5153745,0.29152846,-0.08298281,0.007867516,0.9529235,-5.6627917,7.0530915,-0.06594781,0.2647362,-0.31163806,0.011286441,1
1.9000000000000015,9.454414278045075,-0.33498144897163573,0.3539212618518364,0.2928623501833897,9.973129,0.2647362,-0.31163806,0.011286441,0.43785286,0.12298188,1.5147164,0.29159617,-0.08111147,0.008679292,0.9530568,-5.677957,7.0594296,-0.0656803,0.2647362,-0.31163806,0.011286441,1
1.9100000000000015,9.454414278045075,-0.33498144897163573,0.3539212618518364,0.2928623501833897,9.973129,0.2647362,-0.31163806,0.011286441,0.38099915,0.19360809,1.5140612,0.2916627,-0.079239786,0.009491031,0.95318615,-5.692721,7.065815,-0.06535484,0.2647362,-0.31163806,0.011286441,1
1.9200000000000015,9.723015949637832,-0.4850584832146312,0.22779436726702174,0.32578472357650823,10.430084,0.17548838,-0.25276574,0.014625374,0.3239998,0.26429838,1.5134094,0.29172796,-0.077367775,0.010302731,0.95331156,-5.7070837,7.0722466,-0.06497308,0.2647362,-0.31163806,0.011286441,1
1.9300000000000015,9.723015949637832,-0.4850584832146312,0.22779436726702174,0.32578472357650823,10.430084,0.17548838,-0.25276574,0.014625374,0.2668555,0.33505464,1.5127842,0.2917388,-0.075906135,0.0107761575,0.95342046,-5.721723,7.0790057,-0.060026206,0.17548838,-0.25276574,0.014625374,1
1.9400000000000015,9.723015949637832,-0.4850584832146312,0.22779436726702174,0.32578472357650823,10.430084,0.17548838,-0.25276574,0.014625374,0.20956643,0.40587854,1.5122088,0.29174894,-0.07444432,0.011249559,0.95352715,-5.7360444,7.0857706,-0.055035047,0.17548838,-0.25276574,0.014625374,1
1.9500000000000015,9.723015949637832,-0.4850584832146312,0.22779436726702174,0.32578472357650823,10.430084,0.17548838,-0.25276574,0.014625374,0.15213571,0.47677004,1.5116836,0.29175842,-0.07298232,0.0117229335,0.9536316,-5.7500477,7.092541,-0.050000586,0.17548838,-0.25276574,0.014625374,1
1.9600000000000015,9.818387553985984,-0.8086247548485617,0.6148883748964146,0.38461684831101056,10.650802,-0.6222489,-0.16283996,0.35839123,0.09456656,0.54772925,1.511209,0.29176718,-0.07152015,0.01219628,0.95373374,-5.7637334,7.099317,-0.04492379,0.17548838,-0.25276574,0.014625374,1
1.9700000000000015,9.818387553985984,-0.8086247548485617,0.6148883748964146,0.38461684831101056,10.650802,-0.6222489,-0.16283996,0.35839123,0.036860116,0.6187563,1.5107962,0.28984356,-0.07162905,0.009119511,0.9543463,-5.7775908,7.1059976,-0.037632756,-0.6222489,-0.16283996,0.35839123,1
1.9800000000000015,9.818387553985984,-0.8086247548485617,0.6148883748964146,0.38461684831101056,10.650802,-0.6222489,-0.16283996,0.35839123,-0.020986032,0.68984693,1.5104563,0.28791603,-0.07173696,0.0060426164,0.9549459,-5.791673,7.1120315,-0.03033258,-0.6222489,-0.16283996,0.35839123,1
1.9900000000000015,9.818387553985984,-0.8086247548485617,0.6148883748964146,0.38461684831101056,10.650802,-0.6222489,-0.16283996,0.35839123,-0.07897412,0.7609947,1.5101895,0.2859846,-0.07184391,0.0029656403,0.95553255,-5.805978,7.117417,-0.023027265,-0.6222489,-0.16283996,0.35839123,1
2.0000000000000013,,,,,10.442996,-0.42830572,-0.30516937,0.114715874,-0.13710634,0.832193,1.5099958,0.28404927,-0.071949884,-0.00011137582,0.9561063,-5.8205023,7.1221538,-0.01572082,-0.6222489,-0.16283996,0.35839123,0
2.010000000000001,,,,,10.442996,-0.42830572,-0.30516937,0.114715874,-0.19537982,0.90343404,1.5098315,0.28177038,-0.076879635,-0.0033230009,0.9563912,-5.8343673,7.1259923,-0.017162727,-0.9269826,0.7560771,0.40585196,0
2.020000000000001,,,,,10.442996,-0.42830572,-0.30516937,0.114715874,-0.25379747,0.97471166,1.5096521,0.27948025,-0.081806324,-0.0065344935,0.956638,-5.8493333,7.129468,-0.018755225,-0.9269826,0.7560771,0.40585196,0
2.0300000000000007,,,,,10.442996,-0.42830572,-0.30516937,0.114715874,-0.31237027,1.0460222,1.5094559,0.27717894,-0.08672975,-0.009745726,0.9568466,-5.8653965,7.132576,-0.020511743,-0.9269826,0.7560771,0.40585196,0
2.0400000000000005,,,,,10.442996,-0.42830572,-0.30516937,0.114715874,-0.3711092,1.1173619,1.5092413,0.27486658,-0.09164972,-0.012956571,0.9570168,-5.882554,7.1353116,-0.022445679,-0.9269826,0.7560771,0.40585196,0
2.0500000000000003,,,,,10.498219,-0.65475965,-0.043352976,0.23661226,-0.43002507,1.1887271,1.5090064,0.27254325,-0.09656602,-0.016166897,0.9571489,-5.9008007,7.137669,-0.024570394,-0.9269826,0.7560771,0.40585196,1
2.06,,,,,10.498219,-0.65475965,-0.043352976,0.23661226,-0.48913506,1.2601146,1.5087849,0.27108955,-0.09726933,-0.019245138,0.9574335,-5.921252,7.1397176,-0.019720001,-0.65475965,-0.043352976,0.23661226,1
2.07,,,,,10.498219,-0.65475965,-0.043352976,0.23661226,-0.5484511,1.3315194,1.5086117,0.2696326,-0.09797146,-0.022323146,0.9577065,-5.9420195,7.141156,-0.014922672,-0.65475965,-0.043352976,0.23661226,1
2.0799999999999996,,,,,10.498219,-0.65475965,-0.043352976,0.23661226,-0.6079765,1.4029356,1.5084862,0.26817235,-0.09867241,-0.025400883,0.9579678,-5.9631004,7.1419845,-0.01018254,-0.65475965,-0.043352976,0.23661226,1
2.0899999999999994,,,,,10.929836,-0.2622989,0.17698506,0.16015643,-0.66771424,1.474357,1.5084077,0.26670885,-0.09937214,-0.028478311,0.9582175,-5.984494,7.142202,-0.0055037374,-0.65475965,-0.043352976,0.23661226,1
2.099999999999999,,,,,10.929836,-0.2622989,0.17698506,0.16015643,-0.7276719,1.5457779,1.508397,0.26583597,-0.100592524,-0.029419368,0.9583043,-6.0070844,7.141976,0.003334339,-0.2622989,0.17698506,0.16015643,1
2.109999999999999,,,,,10.929836,-0.2622989,0.17698506,0.16015643,-0.787857,1.617196,1.5084742,0.26496226,-0.10181259,-0.030360335,0.9583881,-6.029981,7.1416035,0.012106779,-0.2622989,0.17698506,0.16015643,1
2.1199999999999988,,,,,10.929836,-0.2622989,0.17698506,0.16015643,-0.8482726,1.6886096,1.508639,0.2640877,-0.10303234,-0.031301204,0.9584688,-6.053184,7.141085,0.020812556,-0.2622989,0.17698506,0.16015643,1
2.1299999999999986,,,,,11.120288,-0.22465381,0.16106643,0.1567902,-0.9089218,1.7600173,1.5088904,0.26321235,-0.10425177,-0.032241978,0.9585465,-6.076692,7.1404195,0.029450651,-0.2622989,0.17698506,0.16015643,1
2.1399999999999983,,,,,11.120288,-0.22465381,0.16106643,0.1567902,-0.96980953,1.8314174,1.509237,0.26236942,-0.10534453,-0.03302494,0.9586315,-6.100908,7.1396027,0.03988182,-0.22465381,0.16106643,0.1567902,1
2.149999999999998,,,,,11.120288,-0.22465381,0.16106643,0.1567902,-1.0309408,1.9028088,1.5096878,0.26152584,-0.10643701,-0.033807818,0.958714,-6.125398,7.1386623,0.050250392,-0.22465381,0.16106643,0.1567902,1
2.159999999999998,,,,,11.120288,-0.22465381,0.16106643,0.1567902,-1.0923184,1.9741902,1.5102419,0.2606816,-0.10752923,-0.034590613,0.9587941,-6.150162,7.137598,0.060555577,-0.22465381,0.16106643,0.1567902,1
2.1699999999999977,,,,,10.56717,-0.37634143,0.14251702,0.29987139,-1.1539451,2.0455601,1.5108987,0.2598367,-0.10862117,-0.03537332,0.95887184,-6.1752,7.1364093,0.07079659,-0.22465381,0.16106643,0.1567902,1
