time-since-start [s],throttle_mpc,roll_mpc,pitch_mpc,yaw_mpc,throttle_nw,roll_nw,pitch_nw,yaw_nw,position_x [m],position_y [m],position_z [m],rotation_w [quaternion],rotation_x [quaternion],rotation_y [quaternion],rotation_z [quaternion],velocity_x [m/s],velocity_y [m/s],velocity_z [m/s],omega_x [rad/s],omega_y [rad/s],omega_z [rad/s],network_used
0.0,12.324508218034348,5.999999112767486,-5.999999441067947,1.351733061394215,-80917.06,53277.605,-34170.664,75268.305,16.895943,-10.525616,1.9402275,0.35898176,-0.36687893,0.25025013,0.82091826,-9.020298,-1.2454412,-0.308133,0.8503667,0.090936854,-0.2329007,0
0.01,12.324508218034348,5.999999112767486,-5.999999441067947,1.351733061394215,-7852.3613,16765.412,-915.5769,8469.189,16.80549,-10.537653,1.9370337,0.3716121,-0.32946345,0.2663519,0.8260841,-9.068893,-1.1618087,-0.3299121,5.999999,-5.9999995,1.3517331,0
0.02,12.324508218034348,5.999999112767486,-5.999999441067947,1.351733061394215,-7852.3613,16765.412,-915.5769,8469.189,16.7146,-10.548848,1.9336433,0.38355666,-0.29144,0.2819622,0.82972544,-9.107954,-1.077053,-0.34756544,5.999999,-5.9999995,1.3517331,0
0.03,12.324508218034348,5.999999112767486,-5.999999441067947,1.351733061394215,-7852.3613,16765.412,-915.5769,8469.189,16.623367,-10.559194,1.9300942,0.39479342,-0.25287876,0.2970521,0.83183557,-9.137167,-0.99168175,-0.36176586,5.999999,-5.9999995,1.3517331,0
0.04,12.324508218034348,5.999999112767486,-5.999999441067947,1.351733061394215,-769.1773,8730.1045,1812.6074,1932.4529,16.531893,-10.568685,1.9264176,0.40530163,-0.21385083,0.31159383,0.8324107,-9.156299,-0.9062078,-0.3732116,5.999999,-5.9999995,1.3517331,0
0.05,12.324508218034348,5.999999112767486,-5.999999441067947,1.351733061394215,-769.1773,8730.1045,1812.6074,1932.4529,16.440279,-10.577321,1.9226371,0.4150619,-0.17442824,0.32556057,0.8314497,-9.165188,-0.8211442,-0.38262117,5.999999,-5.9999995,1.3517331,0
0.060000000000000005,12.324508218034348,5.999999112767486,-5.999999441067947,1.351733061394215,-769.1773,8730.1045,1812.6074,1932.4529,16.348627,-10.585111,1.9187697,0.4240562,-0.13468377,0.3389265,0.8289544,-9.163749,-0.7370014,-0.39072818,5.999999,-5.9999995,1.3517331,0
0.07,12.324508218034348,5.999999112767486,-5.999999441067947,1.351733061394215,-769.1773,8730.1045,1812.6074,1932.4529,16.25704,-10.592066,1.9148246,0.43226796,-0.09469077,0.351667,0.8249293,-9.15197,-0.65428287,-0.3982759,5.999999,-5.9999995,1.3517331,0
0.08,15.724715924092031,5.035197313760633,-5.999999140813478,0.3675643773034375,-97.02203,2.5204222,31.535242,-1051.1921,16.165623,-10.598203,1.9108037,0.439682,-0.05452302,0.36375847,0.8193819,-9.129919,-0.5734815,-0.4060116,5.999999,-5.9999995,1.3517331,0
0.09,15.724715924092031,5.035197313760633,-5.999999140813478,0.3675643773034375,-97.02203,2.5204222,31.535242,-1051.1921,16.074518,-10.6034355,1.9068258,0.4501209,-0.018171016,0.37101546,0.81203973,-9.089288,-0.4736424,-0.38967332,5.0351973,-5.999999,0.36756438,0
0.09999999999999999,15.724715924092031,5.035197313760633,-5.999999140813478,0.3675643773034375,-97.02203,2.5204222,31.535242,-1051.1921,15.983876,-10.607691,1.9030063,0.45986798,0.018208917,0.3777022,0.80344945,-9.0371275,-0.37797084,-0.37445486,5.0351973,-5.999999,0.36756438,0
0.10999999999999999,15.724715924092031,5.035197313760633,-5.999999140813478,0.3675643773034375,-97.02203,2.5204222,31.535242,-1051.1921,15.893813,-10.6110115,1.8993304,0.4689082,0.054560866,0.38380843,0.7936242,-8.973748,-0.28702146,-0.36108208,5.0351973,-5.999999,0.36756438,0
0.11999999999999998,15.724715924092031,5.035197313760633,-5.999999140813478,0.3675643773034375,-97.02203,2.5204222,31.535242,-1051.1921,15.804439,-10.613449,1.8957759,0.47722772,0.09082895,0.38932475,0.7825792,-8.899532,-0.20131996,-0.35026935,5.0351973,-5.999999,0.36756438,0
0.12999999999999998,16.306860797869117,0.6496800696482977,-2.885920449741269,0.2566967898518828,-237.45164,-151.10191,140.54097,-685.92474,15.715858,-10.615058,1.892314,0.48481375,0.12695743,0.39424267,0.7703313,-8.814924,-0.12135983,-0.34271538,5.0351973,-5.999999,0.36756438,0
0.13999999999999999,16.306860797869117,0.6496800696482977,-2.885920449741269,0.2566967898518828,-237.45164,-151.10191,140.54097,-685.92474,15.628184,-10.615881,1.888932,0.48904783,0.1401394,0.38954312,0.76775616,-8.719565,-0.043801486,-0.3336662,0.6496801,-2.8859205,0.2566968,0
0.15,16.306860797869117,0.6496800696482977,-2.885920449741269,0.2566967898518828,-237.45164,-151.10191,140.54097,-685.92474,15.541477,-10.615947,1.8856406,0.49317408,0.1532905,0.3847577,0.76501185,-8.621246,0.029948141,-0.32460272,0.6496801,-2.8859205,0.2566968,0
0.16,15.565565724616082,-1.5220834404042813,1.416044915472267,0.19116308580787092,14.255614,-2.7124672,4.177831,-2.3080914,15.45577,-10.615295,1.8824395,0.49719167,0.1664078,0.3798875,0.76209885,-8.520048,0.099829525,-0.31562793,0.6496801,-2.8859205,0.2566968,0
0.17,15.565565724616082,-1.5220834404042813,1.416044915472267,0.19116308580787092,14.255614,-2.7124672,4.177831,-2.3080914,15.3710575,-10.613974,1.8793048,0.49501297,0.15758234,0.37742814,0.7666018,-8.422707,0.16473553,-0.3110653,-1.5220834,1.416045,0.1911631,0
0.18000000000000002,15.565565724616082,-1.5220834404042813,1.416044915472267,0.19116308580787092,14.255614,-2.7124672,4.177831,-2.3080914,15.287306,-10.611996,1.8762231,0.4927803,0.14873973,0.3749276,0.7710211,-8.32789,0.23104757,-0.30504802,-1.5220834,1.416045,0.1911631,0
0.19000000000000003,15.565565724616082,-1.5220834404042813,1.416044915472267,0.19116308580787092,14.255614,-2.7124672,4.177831,-2.3080914,15.20449,-10.609347,1.8732088,0.49049392,0.1398809,0.37238628,0.7753565,-8.235641,0.29873204,-0.29761744,-1.5220834,1.416045,0.1911631,0
0.20000000000000004,14.741062441205703,-1.975713207650947,3.1315928582482075,-0.056554712560332704,14.477803,-3.5584981,6.0456357,-1.7263268,15.122583,-10.606015,1.8702756,0.4881541,0.1310068,0.36980438,0.77960736,-8.145998,0.3677548,-0.28881544,-1.5220834,1.416045,0.1911631,0
0.21000000000000005,14.741062441205703,-1.975713207650947,3.1315928582482075,-0.056554712560332704,14.477803,-3.5584981,6.0456357,-1.7263268,15.041535,-10.602004,1.8674085,0.48379493,0.113851435,0.36972013,0.7850398,-8.064249,0.4351008,-0.28440067,-1.9757133,3.1315928,-0.056554712,0
0.22000000000000006,14.741062441205703,-1.975713207650947,3.1315928582482075,-0.056554712560332704,14.477803,-3.5584981,6.0456357,-1.7263268,14.961283,-10.597303,1.8645917,0.47926986,0.09665704,0.36950913,0.7902031,-7.9867887,0.50560033,-0.27878287,-1.9757133,3.1315928,-0.056554712,0
0.23000000000000007,14.741062441205703,-1.975713207650947,3.1315928582482075,-0.056554712560332704,14.477803,-3.5584981,6.0456357,-1.7263268,14.8817835,-10.591882,1.8618366,0.47458053,0.0794295,0.36917147,0.7950955,-7.913723,0.5791588,-0.27210632,-1.9757133,3.1315928,-0.056554712,0
0.24000000000000007,14.741062441205703,-1.975713207650947,3.1315928582482075,-0.056554712560332704,14.981738,-2.9976625,5.0186334,-1.6472578,14.802992,-10.58571,1.8591528,0.46972847,0.062174726,0.36870724,0.7997154,-7.8451505,0.65567744,-0.26451674,-1.9757133,3.1315928,-0.056554712,0
0.25000000000000006,14.741062441205703,-1.975713207650947,3.1315928582482075,-0.056554712560332704,14.981738,-2.9976625,5.0186334,-1.6472578,14.724865,-10.578758,1.8565489,0.4647154,0.044898637,0.36811662,0.804061,-7.7811646,0.7350535,-0.2561611,-1.9757133,3.1315928,-0.056554712,0
0.26000000000000006,14.741062441205703,-1.975713207650947,3.1315928582482075,-0.056554712560332704,14.981738,-2.9976625,5.0186334,-1.6472578,14.647354,-10.570999,1.8540317,0.45954296,0.027607154,0.36739975,0.808131,-7.721852,0.8171801,-0.24718745,-1.9757133,3.1315928,-0.056554712,0
0.2700000000000001,14.741062441205703,-1.975713207650947,3.1315928582482075,-0.056554712560332704,14.981738,-2.9976625,5.0186334,-1.6472578,14.570412,-10.562406,1.8516066,0.454213,0.0103062065,0.36655694,0.8119239,-7.667292,0.9019467,-0.23774466,-1.9757133,3.1315928,-0.056554712,0
0.2800000000000001,14.149755976527086,-1.89976463048516,2.546982777303986,-0.23354995981246343,15.095557,-2.747872,4.1516232,-1.4243162,14.493992,-10.552951,1.8492777,0.4487273,-0.006998273,0.36558846,0.8154385,-7.61756,0.98923934,-0.22798228,-1.9757133,3.1315928,-0.056554712,0
0.2900000000000001,14.149755976527086,-1.89976463048516,2.546982777303986,-0.23354995981246343,15.095557,-2.747872,4.1516232,-1.4243162,14.418036,-10.542631,1.8470261,0.44490054,-0.022070583,0.36350277,0.81819445,-7.5743046,1.0751339,-0.22229867,-1.8997647,2.5469828,-0.23354995,0
0.3000000000000001,14.149755976527086,-1.89976463048516,2.546982777303986,-0.23354995981246343,15.095557,-2.747872,4.1516232,-1.4243162,14.342493,-10.531444,1.8448327,0.44096088,-0.037137296,0.36132488,0.8207427,-7.5352173,1.1626908,-0.2163507,-1.8997647,2.5469828,-0.23354995,0
0.3100000000000001,14.149755976527086,-1.89976463048516,2.546982777303986,-0.23354995981246343,15.095557,-2.747872,4.1516232,-1.4243162,14.267318,-10.519372,1.8426998,0.43690935,-0.05219458,0.35905528,0.8230828,-7.5003357,1.2518288,-0.21025053,-1.8997647,2.5469828,-0.23354995,0
0.3200000000000001,14.038877139351019,-1.9561032429165384,2.8091802691360224,-0.3921633607196338,14.661464,-2.5683398,3.4628198,-1.1457622,14.1924715,-10.506402,1.8406279,0.4327469,-0.06723863,0.35669455,0.825214,-7.4696927,1.3424654,-0.20411044,-1.8997647,2.5469828,-0.23354995,0
0.3300000000000001,14.038877139351019,-1.9561032429165384,2.8091802691360224,-0.3921633607196338,14.661464,-2.5683398,3.4628198,-1.1457622,14.117909,-10.49252,1.8386129,0.42863324,-0.083750606,0.35451716,0.82678723,-7.443631,1.4338748,-0.1989037,-1.9561032,2.8091803,-0.39216337,0
0.34000000000000014,14.038877139351019,-1.9561032429165384,2.8091802691360224,-0.3921633607196338,14.661464,-2.5683398,3.4628198,-1.1457622,14.043585,-10.477717,1.8366487,0.4243924,-0.10023774,0.35223457,0.828115,-7.4221153,1.5268104,-0.19401225,-1.9561032,2.8091803,-0.39216337,0
0.35000000000000014,14.038877139351019,-1.9561032429165384,2.8091802691360224,-0.3921633607196338,14.661464,-2.5683398,3.4628198,-1.1457622,13.969451,-10.461978,1.8347311,0.42002562,-0.11669512,0.34984744,0.82919693,-7.4051647,1.621176,-0.18956953,-1.9561032,2.8091803,-0.39216337,0
0.36000000000000015,13.779694442303487,-1.5573268524716881,1.5640843797439292,-0.4511401379921129,14.253901,-2.299617,2.567324,-1.2745854,13.895464,-10.445289,1.8328552,0.41553414,-0.13311785,0.3473565,0.8300328,-7.3927946,1.716874,-0.18570839,-1.9561032,2.8091803,-0.39216337,0
0.37000000000000016,13.779694442303487,-1.5573268524716881,1.5640843797439292,-0.4511401379921129,14.253901,-2.299617,2.567324,-1.2745854,13.821579,-10.427646,1.8310059,0.4136271,-0.14361955,0.34382075,0.83070654,-7.384598,1.8117232,-0.18419053,-1.5573268,1.5640844,-0.45114014,0
0.38000000000000017,13.779694442303487,-1.5573268524716881,1.5640843797439292,-0.4511401379921129,14.253901,-2.299617,2.567324,-1.2745854,13.747762,-10.409053,1.8291711,0.41166756,-0.15410301,0.34024137,0.8312748,-7.3794155,1.9069408,-0.18282183,-1.5573268,1.5640844,-0.45114014,0
0.3900000000000002,13.779694442303487,-1.5573268524716881,1.5640843797439292,-0.4511401379921129,14.253901,-2.299617,2.567324,-1.2745854,13.673981,-10.389506,1.827349,0.4096558,-0.16456692,0.33661884,0.83173764,-7.3772492,2.0024905,-0.18166022,-1.5573268,1.5640844,-0.45114014,0
0.4000000000000002,14.16863329667936,-1.3794264942331775,1.4405358233634464,-0.43566345980078863,14.018724,-2.1989298,1.930446,-1.2851639,13.600205,-10.369002,1.8255371,0.4075921,-0.17500995,0.33295357,0.83209497,-7.3780985,2.098335,-0.1807635,-1.5573268,1.5640844,-0.45114014,1
0.4100000000000002,14.16863329667936,-1.3794264942331775,1.4405358233634464,-0.43566345980078863,14.018724,-2.1989298,1.930446,-1.2851639,13.526406,-10.347529,1.8237412,0.40774903,-0.18963939,0.32657236,0.8313411,-7.3824124,2.1960618,-0.1784543,-2.1989298,1.930446,-1.2851639,1
0.4200000000000002,14.16863329667936,-1.3794264942331775,1.4405358233634464,-0.43566345980078863,14.018724,-2.1989298,1.930446,-1.2851639,13.452543,-10.32508,1.8219668,0.40780187,-0.2042204,0.32010776,0.830375,-7.3908105,2.2938938,-0.17650671,-2.1989298,1.930446,-1.2851639,1
0.4300000000000002,14.16863329667936,-1.3794264942331775,1.4405358233634464,-0.43566345980078863,14.018724,-2.1989298,1.930446,-1.2851639,13.378575,-10.301651,1.8202095,0.40775055,-0.21874927,0.3135614,0.8291969,-7.403281,2.3917851,-0.17504291,-2.1989298,1.930446,-1.2851639,1
0.4400000000000002,14.16863329667936,-1.3794264942331775,1.4405358233634464,-0.43566345980078863,14.22892,-2.016904,1.2991549,-1.3046813,13.304463,-10.277245,1.8184638,0.40759513,-0.23322229,0.30693498,0.827807,-7.4198084,2.4896894,-0.17418458,-2.1989298,1.930446,-1.2851639,1
0.45000000000000023,14.16863329667936,-1.3794264942331775,1.4405358233634464,-0.43566345980078863,14.22892,-2.016904,1.2991549,-1.3046813,13.2301655,-10.251852,1.8167311,0.4086115,-0.24469012,0.2996848,0.8266513,-7.440414,2.588898,-0.17239279,-2.016904,1.2991549,-1.3046813,1
0.46000000000000024,14.16863329667936,-1.3794264942331775,1.4405358233634464,-0.43566345980078863,14.22892,-2.016904,1.2991549,-1.3046813,13.155644,-10.225469,1.8150148,0.4095517,-0.2561123,0.29237872,0.8253414,-7.4643908,2.6876912,-0.1709424,-2.016904,1.2991549,-1.3046813,1
0.47000000000000025,14.16863329667936,-1.3794264942331775,1.4405358233634464,-0.43566345980078863,14.22892,-2.016904,1.2991549,-1.3046813,13.080867,-10.1981,1.8133109,0.41041556,-0.26748675,0.28501815,0.8238777,-7.491725,2.7860444,-0.1699221,-2.016904,1.2991549,-1.3046813,1
0.48000000000000026,13.851055746341185,-0.46114289012154935,-0.16832177190710212,-0.2895778522736267,14.047222,-1.6645324,0.24759674,-0.8846406,13.005799,-10.169749,1.8116145,0.41120285,-0.27881134,0.27760446,0.8222604,-7.522401,2.883932,-0.1694203,-2.016904,1.2991549,-1.3046813,0
0.49000000000000027,13.851055746341185,-0.46114289012154935,-0.16832177190710212,-0.2895778522736267,14.047222,-1.6645324,0.24759674,-0.8846406,12.930415,-10.140435,1.8099083,0.41198254,-0.27946824,0.2749577,0.82253635,-7.5544424,2.9787583,-0.17177853,-0.4611429,-0.16832177,-0.28957784,0
0.5000000000000002,13.851055746341185,-0.46114289012154935,-0.16832177190710212,-0.2895778522736267,14.047222,-1.6645324,0.24759674,-0.8846406,12.854709,-10.110175,1.8081801,0.4127589,-0.28012288,0.27230865,0.82280564,-7.586897,3.0731373,-0.17383447,-0.4611429,-0.16832177,-0.28957784,0
0.5100000000000002,13.851055746341185,-0.46114289012154935,-0.16832177190710212,-0.2895778522736267,14.047222,-1.6645324,0.24759674,-0.8846406,12.778676,-10.078973,1.8064328,0.4135318,-0.28077525,0.26965743,0.82306826,-7.6197653,3.1670675,-0.1755916,-0.4611429,-0.16832177,-0.28957784,0
0.5200000000000002,14.196050626325581,0.06212756996652699,-0.3618605887420195,-0.14606963943547926,13.589643,-1.1149073,0.04178384,-0.1499503,12.702312,-10.046834,1.8046693,0.41430137,-0.28142533,0.267004,0.8233242,-7.6530485,3.260547,-0.17705333,-0.4611429,-0.16832177,-0.28957784,0
0.5300000000000002,14.196050626325581,0.06212756996652699,-0.3618605887420195,-0.14606963943547926,13.589643,-1.1149073,0.04178384,-0.1499503,12.62561,-10.013751,1.8029048,0.4154724,-0.28000143,0.26630414,0.8234463,-7.6873035,3.3559794,-0.17579556,0.06212757,-0.3618606,-0.14606965,0
0.5400000000000003,14.196050626325581,0.06212756996652699,-0.3618605887420195,-0.14606963943547926,13.589643,-1.1149073,0.04178384,-0.1499503,12.548568,-9.979714,1.8011545,0.41664177,-0.27857646,0.26560318,0.82356507,-7.7212286,3.4511826,-0.17420524,0.06212757,-0.3618606,-0.14606965,0
0.5500000000000003,14.196050626325581,0.06212756996652699,-0.3618605887420195,-0.14606963943547926,13.589643,-1.1149073,0.04178384,-0.1499503,12.471187,-9.944728,1.7994218,0.41780955,-0.2771504,0.2649012,0.8236807,-7.754825,3.5461547,-0.1722835,0.06212757,-0.3618606,-0.14606965,0
0.5600000000000003,13.742931734190023,0.33776277621956985,-1.0557628397303493,-0.11648311657043099,13.44985,-0.9074444,-0.057558537,-0.14428604,12.393472,-9.908793,1.7977101,0.41897568,-0.27572325,0.26419818,0.8237931,-7.788092,3.640894,-0.17003141,0.06212757,-0.3618606,-0.14606965,0
0.5700000000000003,13.742931734190023,0.33776277621956985,-1.0557628397303493,-0.11648311657043099,13.44985,-0.9074444,-0.057558537,-0.14428604,12.315432,-9.871928,1.796007,0.42130923,-0.27081662,0.26321304,0.8245456,-7.8196826,3.7322586,-0.17045225,0.33776277,-1.0557629,-0.116483115,0
0.5800000000000003,13.742931734190023,0.33776277621956985,-1.0557628397303493,-0.11648311657043099,13.44985,-0.9074444,-0.057558537,-0.14428604,12.237082,-9.834151,1.7943041,0.4236297,-0.26590163,0.26221973,0.82527244,-7.8501616,3.8230586,-0.16999744,0.33776277,-1.0557629,-0.116483115,0
0.5900000000000003,13.742931734190023,0.33776277621956985,-1.0557628397303493,-0.11648311657043099,13.44985,-0.9074444,-0.057558537,-0.14428604,12.158433,-9.795468,1.79261,0.42593703,-0.26097834,0.2612183,0.82597375,-7.8795266,3.913282,-0.1686784,0.33776277,-1.0557629,-0.116483115,0
0.6000000000000003,13.981668026077154,0.11620672701913758,-0.1531547241475638,-0.08647139392618208,13.432362,-0.52224034,-0.17578945,-0.10135293,12.079495,-9.755887,1.7909335,0.42823112,-0.25604695,0.2602088,0.8266493,-7.9077754,4.002916,-0.16650666,0.33776277,-1.0557629,-0.116483115,1
0.6100000000000003,13.981668026077154,0.11620672701913758,-0.1531547241475638,-0.08647139392618208,13.432362,-0.52224034,-0.17578945,-0.10135293,12.000282,-9.715423,1.7892709,0.4282085,-0.25656945,0.25754306,0.82733357,-7.934879,4.0899763,-0.16597298,-0.52224034,-0.17578945,-0.10135293,1
0.6200000000000003,13.981668026077154,0.11620672701913758,-0.1531547241475638,-0.08647139392618208,13.432362,-0.52224034,-0.17578945,-0.10135293,11.920795,-9.674089,1.7876151,0.42818245,-0.2570899,0.25487533,0.82801133,-7.962454,4.176551,-0.16514175,-0.52224034,-0.17578945,-0.10135293,1
0.6300000000000003,13.981668026077154,0.11620672701913758,-0.1531547241475638,-0.08647139392618208,13.432362,-0.52224034,-0.17578945,-0.10135293,11.841031,-9.631893,1.785969,0.42815307,-0.25760835,0.2522056,0.8286826,-7.9905,4.262635,-0.16401637,-0.52224034,-0.17578945,-0.10135293,1
0.6400000000000003,13.981668026077154,0.11620672701913758,-0.1531547241475638,-0.08647139392618208,13.815124,-0.42927718,-0.15326658,-0.054319218,11.760983,-9.588838,1.7843357,0.42812034,-0.25812477,0.24953389,0.8293474,-8.019017,4.348228,-0.16260028,-0.52224034,-0.17578945,-0.10135293,1
0.6500000000000004,13.981668026077154,0.11620672701913758,-0.1531547241475638,-0.08647139392618208,13.815124,-0.42927718,-0.15326658,-0.054319218,11.680644,-9.544917,1.7827322,0.42798164,-0.25847518,0.24735495,0.8299623,-8.048796,4.435783,-0.15806961,-0.42927718,-0.15326658,-0.054319218,1
0.6600000000000004,13.981668026077154,0.11620672701913758,-0.1531547241475638,-0.08647139392618208,13.815124,-0.42927718,-0.15326658,-0.054319218,11.600005,-9.500123,1.7811751,0.4278407,-0.2588243,0.2451747,0.8305729,-8.078965,4.5229125,-0.15329067,-0.42927718,-0.15326658,-0.054319218,1
0.6700000000000004,13.981668026077154,0.11620672701913758,-0.1531547241475638,-0.08647139392618208,13.815124,-0.42927718,-0.15326658,-0.054319218,11.519064,-9.45446,1.7796671,0.4276975,-0.259172,0.24299318,0.8311791,-8.109527,4.609613,-0.14826581,-0.42927718,-0.15326658,-0.054319218,1
0.6800000000000004,13.444764992311503,0.6113748370226652,-1.1387493486984148,-0.06282156784444759,13.676032,0.006915182,-0.39297584,-0.02250366,11.437814,-9.407932,1.7782106,0.42755207,-0.25951836,0.24081035,0.8317809,-8.140478,4.6958838,-0.14299732,-0.42927718,-0.15326658,-0.054319218,1
0.6900000000000004,13.444764992311503,0.6113748370226652,-1.1387493486984148,-0.06282156784444759,13.676032,0.006915182,-0.39297584,-0.02250366,11.356256,-9.360548,1.7768029,0.42812696,-0.2578958,0.23996934,0.8322328,-8.171255,4.780903,-0.13849221,0.006915182,-0.39297584,-0.02250366,1
0.7000000000000004,13.444764992311503,0.6113748370226652,-1.1387493486984148,-0.06282156784444759,13.676032,0.006915182,-0.39297584,-0.02250366,11.27439,-9.312315,1.7754419,0.42870018,-0.2562723,0.23912743,0.8326814,-8.2017565,4.865611,-0.13364746,0.006915182,-0.39297584,-0.02250366,1
0.7100000000000004,13.444764992311503,0.6113748370226652,-1.1387493486984148,-0.06282156784444759,13.676032,0.006915182,-0.39297584,-0.02250366,11.192222,-9.263236,1.774131,0.42927176,-0.25464773,0.23828456,0.83312684,-8.23198,4.9500065,-0.12846465,0.006915182,-0.39297584,-0.02250366,1
0.7200000000000004,13.452151291520712,0.7796192935115818,-0.7730703252418121,-0.02688046739634749,13.488418,0.48441896,-0.42059794,-0.016328327,11.109753,-9.213315,1.7728736,0.4298417,-0.2530222,0.2374408,0.83356905,-8.261927,5.0340877,-0.12294533,0.006915182,-0.39297584,-0.02250366,1
0.7300000000000004,13.452151291520712,0.7796192935115818,-0.7730703252418121,-0.02688046739634749,13.488418,0.48441896,-0.42059794,-0.016328327,11.026987,-9.16256,1.771666,0.43101972,-0.25024617,0.23853394,0.8334867,-8.290979,5.116821,-0.118551806,0.48441896,-0.42059794,-0.016328327,1
0.7400000000000004,13.452151291520712,0.7796192935115818,-0.7730703252418121,-0.02688046739634749,13.488418,0.48441896,-0.42059794,-0.016328327,10.943935,-9.110978,1.7705035,0.4321933,-0.24746758,0.23962463,0.8333957,-8.319199,5.1995506,-0.113923304,0.48441896,-0.42059794,-0.016328327,1
0.7500000000000004,13.452151291520712,0.7796192935115818,-0.7730703252418121,-0.02688046739634749,13.488418,0.48441896,-0.42059794,-0.016328327,10.860607,-9.058569,1.7693884,0.43336242,-0.24468642,0.24071287,0.8332962,-8.346584,5.2822733,-0.109063976,0.48441896,-0.42059794,-0.016328327,1
0.7600000000000005,12.696559654605226,0.927072330786047,-1.9845440735971525,-2.4224889195840654e-05,13.175516,0.703823,-0.7073759,-0.060572058,10.777008,-9.005333,1.7683231,0.4345271,-0.24190277,0.24179861,0.83318806,-8.373135,5.3649864,-0.10397798,0.48441896,-0.42059794,-0.016328327,0
0.7700000000000005,12.696559654605226,0.927072330786047,-1.9845440735971525,-2.4224889195840654e-05,13.175516,0.703823,-0.7073759,-0.060572058,10.693156,-8.951295,1.7672806,0.4380217,-0.23160681,0.24133453,0.83441746,-8.396785,5.442481,-0.10432888,0.92707235,-1.984544,-2.422489e-05,0
0.7800000000000005,12.696559654605226,0.927072330786047,-1.9845440735971525,-2.4224889195840654e-05,13.175516,0.703823,-0.7073759,-0.060572058,10.60908,-8.896486,1.7662408,0.44146374,-0.22128308,0.2408415,0.83554673,-8.418162,5.519009,-0.103402555,0.92707235,-1.984544,-2.422489e-05,0
0.7900000000000005,12.696559654605226,0.927072330786047,-1.9845440735971525,-2.4224889195840654e-05,13.175516,0.703823,-0.7073759,-0.060572058,10.524801,-8.840918,1.7652167,0.44485283,-0.2109328,0.24031956,0.83657587,-8.437255,5.5945334,-0.10124653,0.92707235,-1.984544,-2.422489e-05,0
0.8000000000000005,12.628956502725122,0.5153531695565313,-0.6709634655135731,-0.008323067207310563,12.874242,1.0572556,-0.8794546,0.015389293,10.440342,-8.784599,1.76422,0.44818854,-0.20055723,0.23976882,0.8375047,-8.454056,5.669017,-0.09790888,0.92707235,-1.984544,-2.422489e-05,1
0.8100000000000005,12.628956502725122,0.5153531695565313,-0.6709634655135731,-0.008323067207310563,12.874242,1.0572556,-0.8794546,0.015389293,10.355725,-8.727533,1.7632686,0.45022804,-0.19448212,0.24223503,0.8371338,-8.468983,5.743834,-0.0923074,1.0572556,-0.8794546,0.015389293,1
0.8200000000000005,12.628956502725122,0.5153531695565313,-0.6709634655135731,-0.008323067207310563,12.874242,1.0572556,-0.8794546,0.015389293,10.270969,-8.66972,1.7623748,0.45224622,-0.1883978,0.24468979,0.8367234,-8.482168,5.818555,-0.086401485,1.0572556,-0.8794546,0.015389293,1
0.8300000000000005,12.628956502725122,0.5153531695565313,-0.6709634655135731,-0.008323067207310563,12.874242,1.0572556,-0.8794546,0.015389293,10.1860895,-8.611162,1.7615415,0.45424303,-0.18230456,0.24713299,0.8362734,-8.49361,5.893167,-0.08021095,1.0572556,-0.8794546,0.015389293,1
0.8400000000000005,12.628956502725122,0.5153531695565313,-0.6709634655135731,-0.008323067207310563,12.770356,0.8205413,-0.3541359,-0.041095875,10.101103,-8.551858,1.7607715,0.45621836,-0.1762027,0.2495645,0.8357838,-8.503305,5.9676557,-0.07375568,1.0572556,-0.8794546,0.015389293,1
0.8500000000000005,12.628956502725122,0.5153531695565313,-0.6709634655135731,-0.008323067207310563,12.770356,0.8205413,-0.3541359,-0.041095875,10.016027,-8.491813,1.7600628,0.45755035,-0.17290059,0.25214693,0.8349698,-8.5114155,6.041526,-0.06800228,0.8205413,-0.3541359,-0.041095875,1
0.8600000000000005,12.628956502725122,0.5153531695565313,-0.6709634655135731,-0.008323067207310563,12.770356,0.8205413,-0.3541359,-0.041095875,9.930878,-8.431027,1.7594115,0.45887315,-0.16959502,0.25472435,0.83413917,-8.518399,6.1155667,-0.062288374,0.8205413,-0.3541359,-0.041095875,1
0.8700000000000006,12.628956502725122,0.5153531695565313,-0.6709634655135731,-0.008323067207310563,12.770356,0.8205413,-0.3541359,-0.041095875,9.845663,-8.369501,1.758817,0.4601868,-0.16628607,0.25729665,0.8332918,-8.524255,6.189771,-0.056621987,0.8205413,-0.3541359,-0.041095875,1
0.8800000000000006,11.958601700650275,0.08551927828004134,-1.546312058546218,0.020617139799369022,12.363165,0.60800666,-0.30892363,-0.04510642,9.760395,-8.307232,1.7582788,0.46149123,-0.16297378,0.2598638,0.8324278,-8.528981,6.264134,-0.051011134,0.8205413,-0.3541359,-0.041095875,0
0.8900000000000006,11.958601700650275,0.08551927828004134,-1.546312058546218,0.020617139799369022,12.363165,0.60800666,-0.30892363,-0.04510642,9.675088,-8.244244,1.7577647,0.4634704,-0.15630886,0.25666073,0.8335993,-8.5323515,6.3334002,-0.05168765,0.08551928,-1.5463121,0.02061714,0
0.9000000000000006,11.958601700650275,0.08551927828004134,-1.546312058546218,0.020617139799369022,12.363165,0.60800666,-0.30892363,-0.04510642,9.589752,-8.180569,1.7572483,0.4654218,-0.14963458,0.25344232,0.83472085,-8.534669,6.4014335,-0.05146835,0.08551928,-1.5463121,0.02061714,0
0.9100000000000006,11.958601700650275,0.08551927828004134,-1.546312058546218,0.020617139799369022,12.363165,0.60800666,-0.30892363,-0.04510642,9.504398,-8.1162195,1.7567384,0.46734527,-0.14295134,0.25020868,0.8357923,-8.5359335,6.468217,-0.050376937,0.08551928,-1.5463121,0.02061714,0
0.9200000000000006,11.72973490627053,-0.4186723321717793,-0.8023285157212494,0.041132978351889844,11.843439,0.55630493,-0.61220026,0.022471413,9.419037,-8.0512085,1.7562437,0.46924073,-0.13625951,0.24696001,0.8368137,-8.536145,6.533735,-0.048437316,0.08551928,-1.5463121,0.02061714,1
0.9300000000000006,11.72973490627053,-0.4186723321717793,-0.8023285157212494,0.041132978351889844,11.843439,0.55630493,-0.61220026,0.022471413,9.333679,-7.9855504,1.7557669,0.47027767,-0.13236392,0.24786448,0.83658946,-8.535353,6.5977435,-0.0468935,0.55630493,-0.61220026,0.022471413,1
0.9400000000000006,11.72973490627053,-0.4186723321717793,-0.8023285157212494,0.041132978351889844,11.843439,0.55630493,-0.61220026,0.022471413,9.248335,-7.919254,1.7553061,0.4713065,-0.12846605,0.2487647,0.8363509,-8.533619,6.661516,-0.045210425,0.55630493,-0.61220026,0.022471413,1
0.9500000000000006,11.72973490627053,-0.4186723321717793,-0.8023285157212494,0.041132978351889844,11.843439,0.55630493,-0.61220026,0.022471413,9.163012,-7.8523207,1.754863,0.47232732,-0.124565974,0.24966067,0.8360981,-8.530944,6.725049,-0.04339503,0.55630493,-0.61220026,0.022471413,1
0.9600000000000006,11.28101540276904,-0.7847964444307094,-1.2913411077071766,0.09674950339363812,11.651782,0.34974658,-0.27083018,-0.06323683,9.07772,-7.784754,1.7544386,0.47334006,-0.120663784,0.2505524,0.8358309,-8.527329,6.7883377,-0.041454274,0.55630493,-0.61220026,0.022471413,0
0.9700000000000006,11.28101540276904,-0.7847964444307094,-1.2913411077071766,0.09674950339363812,11.651782,0.34974658,-0.27083018,-0.06323683,8.992466,-7.7165713,1.7540114,0.47406647,-0.11699982,0.24426763,0.8377982,-8.523324,6.8479304,-0.043854248,-0.7847964,-1.2913411,0.09674951,0
0.9800000000000006,11.28101540276904,-0.7847964444307094,-1.2913411077071766,0.09674950339363812,11.651782,0.34974658,-0.27083018,-0.06323683,8.907253,-7.6478004,1.7535646,0.4747657,-0.11332915,0.23796888,0.8397174,-8.51931,6.9060698,-0.04536436,-0.7847964,-1.2913411,0.09674951,0
0.9900000000000007,11.28101540276904,-0.7847964444307094,-1.2913411077071766,0.09674950339363812,11.651782,0.34974658,-0.27083018,-0.06323683,8.82208,-7.5784554,1.7531071,0.47543764,-0.10965198,0.23165648,0.8415885,-8.515287,6.962742,-0.046006724,-0.7847964,-1.2913411,0.09674951,0
1.0000000000000007,11.208478794812539,-0.9271275895443765,-0.2845907002841864,0.12483992481180321,11.54767,-0.15184665,-0.4647204,0.030125558,8.736947,-7.508551,1.7526474,0.47608235,-0.105968535,0.2253308,0.8434114,-8.511255,7.017934,-0.045803647,-0.7847964,-1.2913411,0.09674951,1
1.0100000000000007,11.208478794812539,-0.9271275895443765,-0.2845907002841864,0.12483992481180321,11.54767,-0.15184665,-0.4647204,0.030125558,8.651855,-7.4380946,1.7522049,0.47639707,-0.104335986,0.22359951,0.8438979,-8.5070715,7.0732956,-0.042649582,-0.15184665,-0.4647204,0.030125558,1
1.0200000000000007,11.208478794812539,-0.9271275895443765,-0.2845907002841864,0.12483992481180321,11.54767,-0.15184665,-0.4647204,0.030125558,8.566806,-7.3670864,1.7517953,0.47670892,-0.102702804,0.22186689,0.8443793,-8.502756,7.128173,-0.039237633,-0.15184665,-0.4647204,0.030125558,1
1.0300000000000007,11.208478794812539,-0.9271275895443765,-0.2845907002841864,0.12483992481180321,11.54767,-0.15184665,-0.4647204,0.030125558,8.481801,-7.295532,1.751421,0.4770179,-0.10106901,0.22013293,0.84485567,-8.498308,7.1825647,-0.035570256,-0.15184665,-0.4647204,0.030125558,1
1.0400000000000007,11.208478794812539,-0.9271275895443765,-0.2845907002841864,0.12483992481180321,11.813061,-0.01390931,-0.20682701,-0.020434663,8.396842,-7.2234364,1.7510847,0.47732404,-0.09943461,0.21839766,0.84532696,-8.493728,7.2364697,-0.03164991,-0.15184665,-0.4647204,0.030125558,1
1.0500000000000007,11.208478794812539,-0.9271275895443765,-0.2845907002841864,0.12483992481180321,11.813061,-0.01390931,-0.20682701,-0.020434663,8.311929,-7.150798,1.7508005,0.47762907,-0.098615885,0.21783496,0.84539574,-8.488914,7.2912283,-0.02518821,-0.01390931,-0.20682701,-0.020434663,1
1.0600000000000007,11.208478794812539,-0.9271275895443765,-0.2845907002841864,0.12483992481180321,11.813061,-0.01390931,-0.20682701,-0.020434663,8.227064,-7.077613,1.7505813,0.4779336,-0.09779705,0.21727203,0.8454636,-8.483987,7.345793,-0.018630365,-0.01390931,-0.20682701,-0.020434663,1
1.0700000000000007,11.208478794812539,-0.9271275895443765,-0.2845907002841864,0.12483992481180321,11.813061,-0.01390931,-0.20682701,-0.020434663,8.142249,-7.003883,1.7504281,0.47823763,-0.09697811,0.21670885,0.84553045,-8.478946,7.4001627,-0.011976818,-0.01390931,-0.20682701,-0.020434663,1
1.0800000000000007,10.844093320623315,-1.1621779939480295,-0.8676169653115571,0.17331691687936002,11.902185,-0.28634506,-0.3047708,-0.0028276965,8.057486,-6.92961,1.750342,0.4785411,-0.09615907,0.21614544,0.8455965,-8.47379,7.454338,-0.00522801,-0.01390931,-0.20682701,-0.020434663,0
1.0900000000000007,10.844093320623315,-1.1621779939480295,-0.8676169653115571,0.17331691687936002,11.902185,-0.28634506,-0.3047708,-0.0028276965,7.9727707,-6.8548193,1.7502816,0.47817448,-0.09508169,0.20923346,0.84766173,-8.469209,7.5034738,-0.006767522,-1.162178,-0.86761695,0.17331691,0
1.1000000000000008,10.844093320623315,-1.1621779939480295,-0.8676169653115571,0.17331691687936002,11.902185,-0.28634506,-0.3047708,-0.0028276965,7.8880987,-6.7795444,1.7502091,0.47778234,-0.09399924,0.20231032,0.8496818,-8.465207,7.5513124,-0.007632169,-1.162178,-0.86761695,0.17331691,0
1.1100000000000008,10.844093320623315,-1.1621779939480295,-0.8676169653115571,0.17331691687936002,11.902185,-0.28634506,-0.3047708,-0.0028276965,7.803464,-6.703798,1.7501312,0.4773647,-0.09291177,0.19537638,0.8516565,-8.4617815,7.597842,-0.007842048,-1.162178,-0.86761695,0.17331691,0
1.1200000000000008,10.622891257564753,-1.3518964411960932,-0.6178514966698266,0.1949410374677831,11.765829,-0.49545187,-0.22715119,0.070351094,7.718861,-6.6275926,1.7500545,0.4769216,-0.091819346,0.18843201,0.85358584,-8.458931,7.643053,-0.007417394,-1.162178,-0.86761695,0.17331691,0
1.1300000000000008,10.622891257564753,-1.3518964411960932,-0.6178514966698266,0.1949410374677831,11.765829,-0.49545187,-0.22715119,0.070351094,7.6342826,-6.550946,1.7499748,0.47603765,-0.09221989,0.18127315,0.8555841,-8.456816,7.6860805,-0.008416713,-1.3518964,-0.6178515,0.19494104,0
1.1400000000000008,10.622891257564753,-1.3518964411960932,-0.6178514966698266,0.1949410374677831,11.765829,-0.49545187,-0.22715119,0.070351094,7.5497217,-6.4738755,1.7498881,0.475127,-0.09261526,0.1741041,0.8575342,-8.45557,7.727906,-0.008877214,-1.3518964,-0.6178515,0.19494104,0
1.1500000000000008,10.622891257564753,-1.3518964411960932,-0.6178514966698266,0.1949410374677831,11.765829,-0.49545187,-0.22715119,0.070351094,7.4651685,-6.396393,1.749799,0.47418967,-0.093005426,0.16692527,0.8594362,-8.455194,7.768519,-0.008819824,-1.3518964,-0.6178515,0.19494104,0
1.1600000000000008,10.459288284745453,-1.0576104835779863,-1.145393379651445,0.23863717547444735,11.800853,-0.4590305,-0.7388445,0.08557841,7.3806143,-6.3185096,1.7497132,0.47322565,-0.09339035,0.15973705,0.8612899,-8.455684,7.807908,-0.008265594,-1.3518964,-0.6178515,0.19494104,0
1.1700000000000008,10.459288284745453,-1.0576104835779863,-1.145393379651445,0.23863717547444735,11.800853,-0.4590305,-0.7388445,0.08557841,7.296052,-6.240242,1.7496278,0.47260424,-0.09076674,0.15257888,0.8632073,-8.456807,7.8453712,-0.008719645,-1.0576105,-1.1453934,0.23863718,0
1.1800000000000008,10.459288284745453,-1.0576104835779863,-1.145393379651445,0.23863717547444735,11.800853,-0.4590305,-0.7388445,0.08557841,7.2114773,-6.1616073,1.7495408,0.47195342,-0.088137485,0.14541122,0.86507094,-8.4582205,7.88133,-0.00861378,-1.0576105,-1.1453934,0.23863718,0
1.1900000000000008,10.459288284745453,-1.0576104835779863,-1.145393379651445,0.23863717547444735,11.800853,-0.4590305,-0.7388445,0.08557841,7.126887,-6.0826206,1.7494576,0.47127327,-0.08550274,0.13823453,0.8668809,-8.459921,7.9157763,-0.007971584,-1.0576105,-1.1453934,0.23863718,0
1.2000000000000008,10.34699863461241,-0.7695278455248944,-0.8406948704759077,0.2569539922581264,11.886374,-0.13567156,-0.9280771,0.079731494,7.042278,-6.0032973,1.7493833,0.4705638,-0.08286269,0.13104925,0.8686369,-8.461904,7.948701,-0.0068167723,-1.0576105,-1.1453934,0.23863718,0
1.2100000000000009,10.34699863461241,-0.7695278455248944,-0.8406948704759077,0.2569539922581264,11.886374,-0.13567156,-0.9280771,0.079731494,6.957648,-5.923653,1.7493174,0.46967182,-0.08085219,0.1258333,0.8700792,-8.46411,7.979911,-0.0062911524,-0.76952785,-0.84069484,0.25695398,0
1.2200000000000009,10.34699863461241,-0.7695278455248944,-0.8406948704759077,0.2569539922581264,11.886374,-0.13567156,-0.9280771,0.079731494,6.872995,-5.8437023,1.7492586,0.4687638,-0.07883892,0.12061306,0.8714918,-8.46651,8.010008,-0.0054248753,-0.76952785,-0.84069484,0.25695398,0
1.2300000000000009,10.34699863461241,-0.7695278455248944,-0.8406948704759077,0.2569539922581264,11.886374,-0.13567156,-0.9280771,0.079731494,6.7883167,-5.7634563,1.7492101,0.4678398,-0.07682297,0.11538869,0.8728746,-8.469098,8.038988,-0.0042305836,-0.76952785,-0.84069484,0.25695398,0
1.2400000000000009,10.34699863461241,-0.7695278455248944,-0.8406948704759077,0.2569539922581264,11.722198,0.10058898,-0.9679425,0.07796773,6.7036123,-5.682926,1.7491751,0.46689984,-0.074804395,0.11016039,0.8742277,-8.471871,8.066848,-0.0027209693,-0.76952785,-0.84069484,0.25695398,0
1.2500000000000009,10.34699863461241,-0.7695278455248944,-0.8406948704759077,0.2569539922581264,11.722198,0.10058898,-0.9679425,0.07796773,6.6188784,-5.6021233,1.7491567,0.46594393,-0.07278328,0.10492833,0.8755509,-8.474828,8.093581,-0.00090876874,-0.76952785,-0.84069484,0.25695398,0
1.260000000000001,10.34699863461241,-0.7695278455248944,-0.8406948704759077,0.2569539922581264,11.722198,0.10058898,-0.9679425,0.07796773,6.534114,-5.5210586,1.7491579,0.46497214,-0.07075967,0.09969269,0.8768443,-8.477964,8.119185,0.001193244,-0.76952785,-0.84069484,0.25695398,0
1.270000000000001,10.34699863461241,-0.7695278455248944,-0.8406948704759077,0.2569539922581264,11.722198,0.10058898,-0.9679425,0.07796773,6.449318,-5.4397435,1.7491815,0.46398446,-0.06873365,0.09445365,0.8781077,-8.4812765,8.143659,0.003572256,-0.76952785,-0.84069484,0.25695398,0
1.280000000000001,10.232559095318418,-0.5510788656425852,-1.1787191141937061,0.2656331485114232,11.998882,0.24928162,-1.2913405,0.08992013,6.3644876,-5.358189,1.7492303,0.46298096,-0.06670527,0.08921139,0.8793412,-8.484761,8.166995,0.006215417,-0.76952785,-0.84069484,0.25695398,0
1.290000000000001,10.232559095318418,-0.5510788656425852,-1.1787191141937061,0.2656331485114232,11.998882,0.24928162,-1.2913405,0.08992013,6.279622,-5.276409,1.7493012,0.46214482,-0.06267856,0.0841465,0.88057566,-8.488233,8.188888,0.008010328,-0.55107886,-1.1787192,0.26563314,0
1.300000000000001,10.232559095318418,-0.5510788656425852,-1.1787191141937061,0.2656331485114232,11.998882,0.24928162,-1.2913405,0.08992013,6.194723,-5.194416,1.7493916,0.4612883,-0.058649078,0.07907791,0.8817713,-8.491488,8.209498,0.010085199,-0.55107886,-1.1787192,0.26563314,0
1.310000000000001,10.232559095318418,-0.5510788656425852,-1.1787191141937061,0.2656331485114232,11.998882,0.24928162,-1.2913405,0.08992013,6.1097927,-5.112224,1.7495039,0.46041146,-0.05461701,0.07400583,0.8829281,-8.494523,8.228822,0.012423063,-0.55107886,-1.1787192,0.26563314,0
1.320000000000001,10.095588447847978,-0.29686825514080817,-1.186642162656175,0.26127543975365836,11.6485405,0.5248181,-1.1044705,0.116711885,6.024833,-5.0298443,1.7496408,0.4595143,-0.050582536,0.06893048,0.8840459,-8.4973345,8.246857,0.015006905,-0.55107886,-1.1787192,0.26563314,0
1.330000000000001,10.095588447847978,-0.29686825514080817,-1.186642162656175,0.26127543975365836,11.6485405,0.5248181,-1.1044705,0.116711885,5.939847,-4.947292,1.7497979,0.4586843,-0.04592837,0.064956605,0.88503134,-8.499803,8.263428,0.016462281,-0.29686826,-1.1866422,0.26127544,0
1.340000000000001,10.095588447847978,-0.29686825514080817,-1.186642162656175,0.26127543975365836,11.6485405,0.5248181,-1.1044705,0.116711885,5.8548384,-4.8645797,1.7499706,0.4578364,-0.04127241,0.060980197,0.8859822,-8.501826,8.278862,0.018110143,-0.29686826,-1.1866422,0.26127544,0
1.350000000000001,10.095588447847978,-0.29686825514080817,-1.186642162656175,0.26127543975365836,11.6485405,0.5248181,-1.1044705,0.116711885,5.7698126,-4.7817183,1.7501606,0.45697057,-0.036614835,0.057001404,0.8868984,-8.503405,8.2931595,0.019935453,-0.29686826,-1.1866422,0.26127544,0
1.360000000000001,10.04457223573448,-0.140524182291411,-0.8184736846862581,0.24908473286828936,11.441205,0.47970736,-1.3914353,0.12674657,5.6847725,-4.6987195,1.7503697,0.45608687,-0.03195583,0.053020388,0.8877799,-8.504533,8.306318,0.021923132,-0.29686826,-1.1866422,0.26127544,0
1.370000000000001,10.04457223573448,-0.140524182291411,-0.8184736846862581,0.24908473286828936,11.441205,0.47970736,-1.3914353,0.12674657,5.599723,-4.6155953,1.7505969,0.45517147,-0.028576842,0.05056945,0.88850754,-8.505239,8.318423,0.023534046,-0.14052418,-0.8184737,0.24908473,0
1.380000000000001,10.04457223573448,-0.140524182291411,-0.8184736846862581,0.24908473286828936,11.441205,0.47970736,-1.3914353,0.12674657,5.5146685,-4.532354,1.7508408,0.45424747,-0.025197316,0.04811756,0.8892185,-8.505578,8.329783,0.02523444,-0.14052418,-0.8184737,0.24908473,0
1.390000000000001,10.04457223573448,-0.140524182291411,-0.8184736846862581,0.24908473286828936,11.441205,0.47970736,-1.3914353,0.12674657,5.429612,-4.4490027,1.751102,0.45331496,-0.021817317,0.045664765,0.8899128,-8.505551,8.340399,0.027017329,-0.14052418,-0.8184737,0.24908473,0
1.400000000000001,9.978314230006417,-0.0226539811885288,-0.7702174902627017,0.23229040782744972,11.025898,0.45450643,-1.1859709,0.13961706,5.3445587,-4.365549,1.7513814,0.45237392,-0.018436909,0.04321111,0.89059037,-8.505155,8.35027,0.028875737,-0.14052418,-0.8184737,0.24908473,0
1.410000000000001,9.978314230006417,-0.0226539811885288,-0.7702174902627017,0.23229040782744972,11.025898,0.45450643,-1.1859709,0.13961706,5.259511,-4.282,1.7516764,0.4515002,-0.015008081,0.04138917,0.89118445,-8.504367,8.359379,0.030138997,-0.022653982,-0.7702175,0.2322904,0
1.420000000000001,9.978314230006417,-0.0226539811885288,-0.7702174902627017,0.23229040782744972,11.025898,0.45450643,-1.1859709,0.13961706,5.174473,-4.198364,1.7519842,0.45061916,-0.011579009,0.039566558,0.89176416,-8.503142,8.367855,0.03145365,-0.022653982,-0.7702175,0.2322904,0
1.430000000000001,9.978314230006417,-0.0226539811885288,-0.7702174902627017,0.23229040782744972,11.025898,0.45450643,-1.1859709,0.13961706,5.0894494,-4.1146455,1.7523055,0.44973084,-0.00814975,0.037743308,0.89232934,-8.50148,8.375702,0.03281369,-0.022653982,-0.7702175,0.2322904,0
1.440000000000001,9.978314230006417,-0.0226539811885288,-0.7702174902627017,0.23229040782744972,10.795827,0.50829744,-1.159173,0.14239568,5.0044446,-4.030852,1.7526406,0.44883522,-0.004720359,0.03591945,0.89288014,-8.499379,8.382918,0.03421311,-0.022653982,-0.7702175,0.2322904,1
1.450000000000001,9.978314230006417,-0.0226539811885288,-0.7702174902627017,0.23229040782744972,10.795827,0.50829744,-1.159173,0.14239568,4.9194646,-3.9469867,1.7530307,0.4484106,0.0016209894,0.035589937,0.8931176,-8.496363,8.390047,0.043792844,0.50829744,-1.159173,0.14239568,1
1.460000000000001,9.978314230006417,-0.0226539811885288,-0.7702174902627017,0.23229040782744972,10.795827,0.50829744,-1.159173,0.14239568,4.8345213,-3.8630533,1.7535166,0.44796777,0.007962272,0.035258982,0.89331883,-8.492159,8.3965,0.05337539,0.50829744,-1.159173,0.14239568,1
1.470000000000001,9.978314230006417,-0.0226539811885288,-0.7702174902627017,0.23229040782744972,10.795827,0.50829744,-1.159173,0.14239568,4.749626,-3.779059,1.7540982,0.4475068,0.014303232,0.034926597,0.8934838,-8.486768,8.402277,0.06294336,0.50829744,-1.159173,0.14239568,1
1.480000000000001,9.979189760795869,-0.05830999396820946,0.20676069572096095,0.22577493017335687,10.606317,0.59896165,-1.0892859,0.1283842,4.6647906,-3.6950104,1.7547753,0.44702768,0.020643609,0.0345928,0.89361256,-8.480187,8.407381,0.07247936,0.50829744,-1.159173,0.14239568,0
1.490000000000001,9.979189760795869,-0.05830999396820946,0.20676069572096095,0.22577493017335687,10.606317,0.59896165,-1.0892859,0.1283842,4.5800223,-3.610915,1.755507,0.44598863,0.019628484,0.034771062,0.8941475,-8.473483,8.411758,0.07384954,-0.058309995,0.20676069,0.22577493,0
1.500000000000001,9.979189760795869,-0.05830999396820946,0.20676069572096095,0.22577493017335687,10.606317,0.59896165,-1.0892859,0.1283842,4.4953203,-3.526775,1.7562524,0.44494846,0.018613312,0.034949236,0.8946803,-8.466949,8.4162655,0.07522525,-0.058309995,0.20676069,0.22577493,0
1.5100000000000011,9.979189760795869,-0.05830999396820946,0.20676069572096095,0.22577493017335687,10.606317,0.59896165,-1.0892859,0.1283842,4.4106827,-3.4425893,1.7570115,0.44390723,0.017598096,0.035127327,0.895211,-8.460587,8.420902,0.076606065,-0.058309995,0.20676069,0.22577493,0
1.5200000000000011,9.832084702904178,-0.15795084804060086,0.44672606234794104,0.23033204697671728,10.006647,0.096627474,-1.0464705,0.207048,4.326108,-3.3583565,1.7577845,0.44286492,0.016582835,0.035305332,0.89573944,-8.454394,8.425668,0.07799157,-0.058309995,0.20676069,0.22577493,0
1.5300000000000011,9.832084702904178,-0.15795084804060086,0.44672606234794104,0.23033204697671728,10.006647,0.096627474,-1.0464705,0.207048,4.241594,-3.2740757,1.758564,0.44176605,0.014272935,0.03556789,0.8963113,-8.4485445,8.430538,0.077917285,-0.15795085,0.44672605,0.23033205,0
1.5400000000000011,9.832084702904178,-0.15795084804060086,0.44672606234794104,0.23033204697671728,10.006647,0.096627474,-1.0464705,0.207048,4.1571355,-3.1897452,1.7593429,0.4406641,0.011962935,0.035830207,0.89687693,-8.443086,8.435662,0.07785256,-0.15795085,0.44672605,0.23033205,0
1.5500000000000012,9.832084702904178,-0.15795084804060086,0.44672606234794104,0.23033204697671728,10.006647,0.096627474,-1.0464705,0.207048,4.07273,-3.105362,1.7601212,0.4395591,0.009652853,0.036092274,0.8974364,-8.438018,8.441039,0.077795275,-0.15795085,0.44672605,0.23033205,0
1.5600000000000012,9.984092692299004,-0.15744027188496212,1.4085959214515278,0.2311050873970871,10.063217,0.2347574,-0.9390377,0.16902891,3.9883738,-3.0209236,1.760899,0.43845105,0.0073427036,0.036354087,0.8979895,-8.433342,8.446668,0.0777433,-0.15795085,0.44672605,0.23033205,0
1.5700000000000012,9.984092692299004,-0.15744027188496212,1.4085959214515278,0.2311050873970871,10.063217,0.2347574,-0.9390377,0.16902891,3.9040616,-2.9364264,1.7616837,0.43715188,0.00071490847,0.038725752,0.8985534,-8.429213,8.452923,0.079201765,-0.15744027,1.4085959,0.23110509,0
1.5800000000000012,9.984092692299004,-0.15744027188496212,1.4085959214515278,0.2311050873970871,10.063217,0.2347574,-0.9390377,0.16902891,3.819786,-2.8518617,1.7624829,0.43583015,-0.005912924,0.041095417,0.89907086,-8.426076,8.460186,0.08062793,-0.15744027,1.4085959,0.23110509,0
1.5900000000000012,9.984092692299004,-0.15744027188496212,1.4085959214515278,0.2311050873970871,10.063217,0.2347574,-0.9390377,0.16902891,3.7355366,-2.767219,1.7632961,0.4344859,-0.012540452,0.043462962,0.899542,-8.423935,8.468454,0.08200204,-0.15744027,1.4085959,0.23110509,0
1.6000000000000012,10.02759756826719,-0.07374445496101752,0.0744885542806592,0.2304517652585472,10.071491,0.1546312,-0.516268,0.19149035,3.6513038,-2.682489,1.7641227,0.4331193,-0.019167334,0.045828268,0.8999668,-8.422791,8.477724,0.083304346,-0.15744027,1.4085959,0.23110509,1
1.6100000000000012,10.02759756826719,-0.07374445496101752,0.0744885542806592,0.2304517652585472,10.071491,0.1546312,-0.516268,0.19149035,3.567079,-2.5976622,1.7649665,0.43238896,-0.016465392,0.04542422,0.9003918,-8.4221,8.487589,0.08543249,0.1546312,-0.516268,0.19149035,1
1.6200000000000012,10.02759756826719,-0.07374445496101752,0.0744885542806592,0.2304517652585472,10.071491,0.1546312,-0.516268,0.19149035,3.4828634,-2.512738,1.7658316,0.4316551,-0.013763316,0.0450198,0.9008095,-8.420962,8.497146,0.08758634,0.1546312,-0.516268,0.19149035,1
1.6300000000000012,10.02759756826719,-0.07374445496101752,0.0744885542806592,0.2304517652585472,10.071491,0.1546312,-0.516268,0.19149035,3.3986616,-2.42772,1.7667184,0.4309177,-0.011061126,0.04461501,0.90121984,-8.419378,8.506396,0.08976288,0.1546312,-0.516268,0.19149035,1
1.6400000000000012,10.02759756826719,-0.07374445496101752,0.0744885542806592,0.2304517652585472,10.510844,0.37648237,-0.72383606,0.14501327,3.3144777,-2.342611,1.767627,0.4301768,-0.0083588455,0.044209864,0.90162283,-8.417345,8.515342,0.09195911,0.1546312,-0.516268,0.19149035,1
1.6500000000000012,10.02759756826719,-0.07374445496101752,0.0744885542806592,0.2304517652585472,10.510844,0.37648237,-0.72383606,0.14501327,3.230317,-2.2574122,1.7685795,0.42969513,-0.0042538247,0.044355884,0.901874,-8.414637,8.524349,0.09854562,0.37648237,-0.72383606,0.14501327,1
1.6600000000000013,10.02759756826719,-0.07374445496101752,0.0744885542806592,0.2304517652585472,10.510844,0.37648237,-0.72383606,0.14501327,3.1461875,-2.172125,1.7695979,0.42920607,-0.00014873093,0.04450114,0.90210974,-8.411141,8.533014,0.105137624,0.37648237,-0.72383606,0.14501327,1
1.6700000000000013,10.02759756826719,-0.07374445496101752,0.0744885542806592,0.2304517652585472,10.510844,0.37648237,-0.72383606,0.14501327,3.062097,-2.0867531,1.7706822,0.42870963,0.0039563654,0.044645634,0.90233,-8.406859,8.541339,0.11172806,0.37648237,-0.72383606,0.14501327,1
1.6800000000000013,10.233924290078663,-0.2226923332354279,1.8044457322088143,0.24684194428714543,10.534835,0.1649071,-0.45451602,0.1349,2.9780533,-2.0012996,1.7718323,0.42820585,0.008061394,0.044789363,0.9025347,-8.401791,8.549324,0.11830984,0.37648237,-0.72383606,0.14501327,0
1.6900000000000013,10.233924290078663,-0.2226923332354279,1.8044457322088143,0.24684194428714543,10.534835,0.1649071,-0.45451602,0.1349,2.8940613,-1.9157671,1.7730345,0.4266788,-0.0005032108,0.04763592,0.9031478,-8.396881,8.557373,0.12211254,-0.22269234,1.8044457,0.24684194,0
1.7000000000000013,10.233924290078663,-0.2226923332354279,1.8044457322088143,0.24684194428714543,10.534835,0.1649071,-0.45451602,0.1349,2.8101115,-1.8301477,1.7742745,0.42511585,-0.009067774,0.05047847,0.9036849,-8.393321,8.566702,0.12586217,-0.22269234,1.8044457,0.24684194,0
1.7100000000000013,10.233924290078663,-0.2226923332354279,1.8044457322088143,0.24684194428714543,10.534835,0.1649071,-0.45451602,0.1349,2.7261906,-1.7444288,1.7755516,0.4235171,-0.017631574,0.053316772,0.90414596,-8.391114,8.577304,0.12952547,-0.22269234,1.8044457,0.24684194,0
1.7200000000000013,10.157041181159029,-0.32366881318848123,0.8256494011480301,0.27293143099154227,10.557226,-0.18038371,-0.7496716,-0.015545003,2.6422849,-1.6585972,1.7768648,0.42188275,-0.026193889,0.056150585,0.9045309,-8.390265,8.589173,0.1330692,-0.22269234,1.8044457,0.24684194,0
1.7300000000000013,10.157041181159029,-0.32366881318848123,0.8256494011480301,0.27293143099154227,10.557226,-0.18038371,-0.7496716,-0.015545003,2.5583813,-1.5726422,1.778209,0.42036968,-0.030533845,0.05646352,0.9050796,-8.390563,8.601895,0.13573891,-0.3236688,0.8256494,0.27293143,0
1.7400000000000013,10.157041181159029,-0.32366881318848123,0.8256494011480301,0.27293143099154227,10.557226,-0.18038371,-0.7496716,-0.015545003,2.4744709,-1.4865578,1.7795795,0.41884756,-0.03487314,0.05677524,0.90560883,-8.391653,8.615043,0.13834858,-0.3236688,0.8256494,0.27293143,0
1.7500000000000013,10.157041181159029,-0.32366881318848123,0.8256494011480301,0.27293143099154227,10.557226,-0.18038371,-0.7496716,-0.015545003,2.3905456,-1.40034,1.7809758,0.41731638,-0.039211687,0.057085734,0.9061186,-8.393534,8.6286125,0.14089054,-0.3236688,0.8256494,0.27293143,0
1.7600000000000013,10.364617104699203,-0.33445208874923793,1.361060279920654,0.2744720090052237,10.926353,0.17635152,-0.49684373,-0.030951634,2.3065975,-1.3139843,1.782397,0.41577625,-0.043549392,0.057395004,0.9066088,-8.396211,8.642601,0.14335716,-0.3236688,0.8256494,0.27293143,0
1.7700000000000014,10.364617104699203,-0.33445208874923793,1.361060279920654,0.2744720090052237,10.926353,0.17635152,-0.49684373,-0.030951634,2.2226179,-1.2274847,1.7838527,0.41405806,-0.05033449,0.058766693,0.90695596,-8.399892,8.657453,0.14776698,-0.3344521,1.3610603,0.274472,0
1.7800000000000014,10.364617104699203,-0.33445208874923793,1.361060279920654,0.2744720090052237,10.926353,0.17635152,-0.49684373,-0.030951634,2.1385956,-1.1408324,1.7853518,0.41231874,-0.057117023,0.060135383,0.90725684,-8.404754,8.673131,0.15200432,-0.3344521,1.3610603,0.274472,0
1.7900000000000014,10.364617104699203,-0.33445208874923793,1.361060279920654,0.2744720090052237,10.926353,0.17635152,-0.49684373,-0.030951634,2.0545185,-1.0540192,1.7868922,0.41055837,-0.06389664,0.061501008,0.9075115,-8.4108,8.689629,0.15604946,-0.3344521,1.3610603,0.274472,0
1.8000000000000014,10.247803831511332,-0.27515301153895294,-1.131981024582963,0.3196136478113268,11.063744,0.09588927,-0.99501216,-0.026236296,1.9703751,-0.967037,1.7884719,0.40877712,-0.070673004,0.0628635,0.90771973,-8.418031,8.706941,0.15988272,-0.3344521,1.3610603,0.274472,1
1.8100000000000014,10.247803831511332,-0.27515301153895294,-1.131981024582963,0.3196136478113268,11.063744,0.09588927,-0.99501216,-0.026236296,1.8861532,-0.87987334,1.7901238,0.40923774,-0.06596845,0.061254963,0.90797627,-8.426239,8.725683,0.17051126,0.09588927,-0.99501216,-0.026236296,1
1.8200000000000014,10.247803831511332,-0.27515301153895294,-1.131981024582963,0.3196136478113268,11.063744,0.09588927,-0.99501216,-0.026236296,1.8018532,-0.7925259,1.7918828,0.40968812,-0.061262235,0.059644893,0.9082101,-8.433645,8.743687,0.18132217,0.09588927,-0.99501216,-0.026236296,1
1.8300000000000014,10.247803831511332,-0.27515301153895294,-1.131981024582963,0.3196136478113268,11.063744,0.09588927,-0.99501216,-0.026236296,1.7174832,-0.70500207,1.7937508,0.41012824,-0.056554493,0.058033332,0.90842116,-8.4402485,8.760948,0.19230458,0.09588927,-0.99501216,-0.026236296,1
1.8400000000000014,10.247803831511332,-0.27515301153895294,-1.131981024582963,0.3196136478113268,11.2872925,0.31855404,-1.2672261,-0.06581518,1.633051,-0.61730945,1.7957294,0.4105581,-0.051845334,0.056420326,0.9086095,-8.446049,8.777467,0.2034476,0.09588927,-0.99501216,-0.026236296,0
1.8500000000000014,10.247803831511332,-0.27515301153895294,-1.131981024582963,0.3196136478113268,11.2872925,0.31855404,-1.2672261,-0.06581518,1.5485667,-0.52946156,1.79778,0.4093466,-0.047176443,0.052928414,0.9096201,-8.450748,8.791945,0.20668826,-0.275153,-1.131981,0.31961364,0
1.8600000000000014,10.247803831511332,-0.27515301153895294,-1.131981024582963,0.3196136478113268,11.2872925,0.31855404,-1.2672261,-0.06581518,1.464038,-0.44147414,1.7998638,0.4081202,-0.04250583,0.049434576,0.9105975,-8.454895,8.805379,0.21009673,-0.275153,-1.131981,0.31961364,0
1.8700000000000014,10.247803831511332,-0.27515301153895294,-1.131981024582963,0.3196136478113268,11.2872925,0.31855404,-1.2672261,-0.06581518,1.3794708,-0.35335758,1.8019824,0.40687886,-0.03783367,0.045938935,0.9115417,-8.458483,8.817769,0.21365915,-0.275153,-1.131981,0.31961364,0
1.8800000000000014,10.195519549181352,-0.45602885897531836,0.4528281579903719,0.37219588940398607,10.99077,0.05787903,-0.88742936,0.07513538,1.2948705,-0.26512232,1.8041375,0.4056227,-0.03316012,0.042441618,0.9124526,-8.46151,8.829116,0.21736161,-0.275153,-1.131981,0.31961364,0
1.8900000000000015,10.195519549181352,-0.45602885897531836,0.4528281579903719,0.37219588940398607,10.99077,0.05787903,-0.88742936,0.07513538,1.2102414,-0.17677794,1.8063273,0.40375012,-0.036071703,0.041340902,0.9132228,-8.464415,8.8397665,0.22061722,-0.45602885,0.45282817,0.3721959,0
1.9000000000000015,10.195519549181352,-0.45602885897531836,0.4528281579903719,0.37219588940398607,10.99077,0.05787903,-0.88742936,0.07513538,1.1255801,-0.0883269,1.8085496,0.401872,-0.038982783,0.040239617,0.9139804,-8.467974,8.850445,0.22384904,-0.45602885,0.45282817,0.3721959,0
1.9100000000000015,10.195519549181352,-0.45602885897531836,0.4528281579903719,0.37219588940398607,10.99077,0.05787903,-0.88742936,0.07513538,1.0408797,0.00023103692,1.8108042,0.39998835,-0.041893326,0.039137773,0.9147255,-8.472187,8.861147,0.22705318,-0.45602885,0.45282817,0.3721959,0
1.9200000000000015,10.093287470541851,-0.45483984047783904,-1.14560696138914,0.4578767086144952,11.1811905,-0.17700177,-1.7732433,-0.09615013,0.95613396,0.08889611,1.8130907,0.39809918,-0.0448033,0.038035393,0.91545796,-8.477054,8.871871,0.23022567,-0.45602885,0.45282817,0.3721959,0
1.9300000000000015,10.093287470541851,-0.45483984047783904,-1.14560696138914,0.4578767086144952,11.1811905,-0.17700177,-1.7732433,-0.09615013,0.8713378,0.17766671,1.8154038,0.39611077,-0.040376864,0.033774916,0.91669273,-8.482107,8.882069,0.23241417,-0.45483983,-1.145607,0.4578767,0
1.9400000000000015,10.093287470541851,-0.45483984047783904,-1.14560696138914,0.4578767086144952,11.1811905,-0.17700177,-1.7732433,-0.09615013,0.78649336,0.26653355,1.8177395,0.3941052,-0.035948686,0.029512975,0.9178878,-8.486708,8.891116,0.23473485,-0.45483983,-1.145607,0.4578767,0
1.9500000000000015,10.093287470541851,-0.45483984047783904,-1.14560696138914,0.4578767086144952,11.1811905,-0.17700177,-1.7732433,-0.09615013,0.7016052,0.35548508,1.8200989,0.3920826,-0.031518955,0.025249759,0.91904324,-8.490848,8.8990135,0.2371725,-0.45483983,-1.145607,0.4578767,0
1.9600000000000015,10.148695041272921,-0.5003074313279966,-0.10160896134336894,0.4827996900228176,11.168472,0.09556255,-1.291661,0.1597929,0.616678,0.44450986,1.8224832,0.39004305,-0.027087862,0.020985454,0.920159,-8.494521,8.905762,0.2397119,-0.45483983,-1.145607,0.4578767,0
1.9700000000000015,10.148695041272921,-0.5003074313279966,-0.10160896134336894,0.4827996900228176,11.168472,0.09556255,-1.291661,0.1597929,0.53171545,0.5335973,1.824896,0.3877623,-0.02754526,0.018550748,0.92116106,-8.498029,8.911667,0.24286614,-0.50030744,-0.10160896,0.48279968,0
1.9800000000000015,10.148695041272921,-0.5003074313279966,-0.10160896134336894,0.4827996900228176,11.168472,0.09556255,-1.291661,0.1597929,0.44671637,0.6227417,1.8273405,0.3854767,-0.02800232,0.016115813,0.92215186,-8.501826,8.917142,0.24603394,-0.50030744,-0.10160896,0.48279968,0
1.9900000000000015,10.148695041272921,-0.5003074313279966,-0.10160896134336894,0.4827996900228176,11.168472,0.09556255,-1.291661,0.1597929,0.36167786,0.7119386,1.8298167,0.3831864,-0.028459031,0.01368068,0.9231313,-8.505914,8.922188,0.24921277,-0.50030744,-0.10160896,0.48279968,0
2.0000000000000013,,,,,11.102469,-0.17835239,-1.6730696,0.17205673,0.27659705,0.80118394,1.8323247,0.38089138,-0.028915394,0.011245376,0.92409927,-8.510289,8.926803,0.25240016,-0.50030744,-0.10160896,0.48279968,1
2.010000000000001,,,,,11.102469,-0.17835239,-1.6730696,0.17205673,0.19147055,0.89047414,1.8349124,0.38015103,-0.021514026,0.007259532,0.9246458,-8.514831,8.931013,0.26515076,-0.17835239,-1.6730696,0.17205673,1
2.020000000000001,,,,,11.102469,-0.17835239,-1.6730696,0.17205673,0.106304504,0.9797992,1.837628,0.3793835,-0.01411112,0.0032731683,0.9251262,-8.518192,8.933778,0.2779889,-0.17835239,-1.6730696,0.17205673,1
2.0300000000000007,,,,,11.102469,-0.17835239,-1.6730696,0.17205673,0.021110756,1.0691448,1.8404723,0.37858889,-0.0067072045,-0.00071342895,0.92554045,-8.520371,8.935098,0.29088315,-0.17835239,-1.6730696,0.17205673,1
2.0400000000000005,,,,,11.102469,-0.17835239,-1.6730696,0.17205673,-0.06409885,1.1584964,1.8434458,0.37776718,0.0006971904,-0.0046999753,0.92588854,-8.521365,8.934974,0.3038021,-0.17835239,-1.6730696,0.17205673,1
2.0500000000000003,,,,,11.114,-0.060708374,-1.0617034,0.34684655,-0.14931247,1.2478395,1.8465483,0.37691846,0.008101535,-0.008686186,0.92617035,-8.521171,8.933409,0.31671438,-0.17835239,-1.6730696,0.17205673,1
2.06,,,,,11.114,-0.060708374,-1.0617034,0.34684655,-0.23451862,1.3371603,1.8497804,0.37526274,0.012888501,-0.010982098,0.9267639,-8.519932,8.930614,0.32971185,-0.060708374,-1.0617034,0.34684655,1
2.07,,,,,11.114,-0.060708374,-1.0617034,0.34684655,-0.31970835,1.426449,1.8531425,0.37359527,0.017675065,-0.013277667,0.9273284,-8.517893,8.926951,0.34267226,-0.060708374,-1.0617034,0.34684655,1
2.0799999999999996,,,,,11.114,-0.060708374,-1.0617034,0.34684655,-0.4048737,1.5156964,1.8566338,0.37191612,0.022461072,-0.015572819,0.92786396,-8.515051,8.922422,0.35558307,-0.060708374,-1.0617034,0.34684655,1
2.0899999999999994,,,,,10.669864,-0.3524846,-0.8577062,0.52874625,-0.4900066,1.6048943,1.8602539,0.3702253,0.02724638,-0.017867483,0.9283705,-8.511402,8.91703,0.36843178,-0.060708374,-1.0617034,0.34684655,1
2.099999999999999,,,,,10.669864,-0.3524846,-0.8577062,0.52874625,-0.57510024,1.6940352,1.86398,0.36773705,0.030527592,-0.021163149,0.9291877,-8.507264,8.911001,0.3767791,-0.3524846,-0.8577062,0.52874625,1
2.109999999999999,,,,,10.669864,-0.3524846,-0.8577062,0.52874625,-0.6601504,1.7831112,1.8677893,0.36523834,0.033807937,-0.02445821,0.9299785,-8.502719,8.904073,0.38505512,-0.3524846,-0.8577062,0.52874625,1
2.1199999999999988,,,,,10.669864,-0.3524846,-0.8577062,0.52874625,-0.7451532,1.8721133,1.871681,0.36272922,0.037087318,-0.027752576,0.93074274,-8.497761,8.896249,0.39325055,-0.3524846,-0.8577062,0.52874625,1
2.1299999999999986,,,,,10.625834,-0.67202616,-0.8651593,0.6384264,-0.83010423,1.961033,1.8756541,0.3602098,0.04036564,-0.031046154,0.93148047,-8.492386,8.887531,0.40135622,-0.3524846,-0.8577062,0.52874625,1
2.1399999999999983,,,,,10.625834,-0.67202616,-0.8651593,0.6384264,-0.9149998,2.049861,1.8797055,0.3572305,0.04308475,-0.03586244,0.93233263,-8.486696,8.877868,0.4089207,-0.67202616,-0.8651593,0.6384264,1
2.149999999999998,,,,,10.625834,-0.67202616,-0.8651593,0.6384264,-0.9998374,2.1385868,1.8838321,0.3542368,0.045802128,-0.040677283,0.9331473,-8.480804,8.867064,0.41636363,-0.67202616,-0.8651593,0.6384264,1
