time-since-start [s],throttle_mpc,roll_mpc,pitch_mpc,yaw_mpc,throttle_nw,roll_nw,pitch_nw,yaw_nw,position_x [m],position_y [m],position_z [m],rotation_w [quaternion],rotation_x [quaternion],rotation_y [quaternion],rotation_z [quaternion],velocity_x [m/s],velocity_y [m/s],velocity_z [m/s],omega_x [rad/s],omega_y [rad/s],omega_z [rad/s],network_used
0.0,9.795976763269834,5.999999669514339,-5.99999992395478,-4.783314414119073,11.761879,-1.4470199,-3.9976177,-1.1667346,20.15574,-8.777501,2.0057964,-0.109633654,-0.453784,0.273556,0.8409683,-9.820533,-6.597431,0.22611356,1.7295816,-0.4094239,-0.36768043,0
0.01,9.795976763269834,5.999999669514339,-5.99999992395478,-4.783314414119073,12.695641,-4.199408,-5.595108,0.30388412,20.056845,-8.84317,2.0079339,-0.10325081,-0.45327452,0.279937,0.83995044,-9.9582615,-6.5359926,0.2010984,1.6702329,-0.55619407,-0.51951075,0
0.02,9.795976763269834,5.999999669514339,-5.99999992395478,-4.783314414119073,12.695641,-4.199408,-5.595108,0.30388412,19.956583,-8.9082155,2.0098114,-0.096121386,-0.45229366,0.28585586,0.8393316,-10.0933275,-6.4727583,0.17411639,1.6447245,-0.7046849,-0.6660902,0
0.03,9.795976763269834,5.999999669514339,-5.99999992395478,-4.783314414119073,12.695641,-4.199408,-5.595108,0.30388412,19.854988,-8.97262,2.0114102,-0.088188834,-0.45084465,0.29144996,0.8390583,-10.225525,-6.407781,0.14536095,1.6483405,-0.85519737,-0.80772674,0
0.04,9.795976763269834,5.999999669514339,-5.99999992395478,-4.783314414119073,8.589029,-3.6434867,-5.8536544,0.9751988,19.752085,-9.036366,2.0127132,-0.07940497,-0.44892332,0.29683587,0.8390776,-10.354654,-6.3410788,0.1150013,1.6769923,-1.0078745,-0.94470334,0
0.05,9.795976763269834,5.999999669514339,-5.99999992395478,-4.783314414119073,8.589029,-3.6434867,-5.8536544,0.9751988,19.647905,-9.099437,2.0137053,-0.069729194,-0.44651926,0.30211148,0.8393372,-10.48052,-6.272643,0.083186164,1.7271307,-1.1627369,-1.0772805,0
0.060000000000000005,9.795976763269834,5.999999669514339,-5.99999992395478,-4.783314414119073,8.589029,-3.6434867,-5.8536544,0.9751988,19.542484,-9.161815,2.0143723,-0.059127785,-0.443617,0.30735844,0.83978486,-10.602926,-6.2024493,0.050047133,1.7956712,-1.319713,-1.205698,0
0.07,9.795976763269834,5.999999669514339,-5.99999992395478,-4.783314414119073,8.589029,-3.6434867,-5.8536544,0.9751988,19.43586,-9.22348,2.0147018,-0.047573432,-0.4401968,0.31264383,0.8403674,-10.721677,-6.130462,0.015701469,1.8799311,-1.4786617,-1.3301766,0
0.08,12.064796643456875,5.9999998432981405,-5.999999958635176,-4.49825619766665,12.886743,-3.8048654,-7.31944,1.9344345,19.328066,-9.284418,2.0146825,-0.035044692,-0.43623555,0.31802154,0.84103066,-10.8365755,-6.0566444,-0.019745372,1.9775746,-1.6393911,-1.45092,0
0.09,12.064796643456875,5.9999998432981405,-5.999999958635176,-4.49825619766665,12.886743,-3.8048654,-7.31944,1.9344345,19.219093,-9.344574,2.0143309,-0.021342983,-0.43149373,0.32376158,0.84174573,-10.957163,-5.9742813,-0.05077012,2.1875377,-1.9028393,-1.5631561,0
0.09999999999999999,12.064796643456875,5.9999998432981405,-5.999999958635176,-4.49825619766665,12.886743,-3.8048654,-7.31944,1.9344345,19.10894,-9.403897,2.013663,-0.006294323,-0.42574397,0.33008748,0.8424634,-11.072672,-5.8899465,-0.08296074,2.3982966,-2.158797,-1.6728858,0
0.10999999999999999,12.064796643456875,5.9999998432981405,-5.999999958635176,-4.49825619766665,12.886743,-3.8048654,-7.31944,1.9344345,18.997658,-9.462366,2.0126681,0.010078701,-0.41897574,0.33696926,0.8430951,-11.182794,-5.803476,-0.11619185,2.6091275,-2.4078288,-1.7801781,0
0.11999999999999998,12.064796643456875,5.9999998432981405,-5.999999958635176,-4.49825619766665,12.886743,-3.8048654,-7.31944,1.9344345,18.885302,-9.519959,2.011336,0.027749993,-0.41117424,0.34437105,0.84354854,-11.287215,-5.714762,-0.15035298,2.8194244,-2.6504161,-1.885099,0
0.12999999999999998,15.791587754463505,5.999999921855816,-5.999999981058159,-3.885080804450037,13.114914,-1.9168587,-7.137111,1.6010808,18.77193,-9.576653,2.0096583,0.046689514,-0.40232143,0.3522514,0.84372765,-11.385621,-5.623753,-0.18534765,3.0286794,-2.8869708,-1.9877124,0
0.13999999999999999,15.791587754463505,5.999999921855816,-5.999999981058159,-3.885080804450037,13.114914,-1.9168587,-7.137111,1.6010808,18.657545,-9.632363,2.0076687,0.06718956,-0.39195675,0.36094695,0.84354764,-11.489972,-5.5179505,-0.2127501,3.4224951,-3.3043156,-2.0746279,0
0.15,15.791587754463505,5.999999921855816,-5.999999981058159,-3.885080804450037,13.114914,-1.9168587,-7.137111,1.6010808,18.542158,-9.687004,2.0053995,0.08949555,-0.37964293,0.37071404,0.8428717,-11.58603,-5.409929,-0.24122764,3.7977388,-3.6994522,-2.1611104,0
0.16,19.640230648568984,5.999999945982879,-5.999999986490162,-3.194169092164083,13.710017,-0.9178965,-7.5743933,1.0514282,18.425854,-9.740551,2.0028424,0.11348115,-0.36541325,0.38136986,0.84151775,-11.67402,-5.298615,-0.27002937,4.140337,-4.0588155,-2.2456954,0
0.17,19.640230648568984,5.999999945982879,-5.999999986490162,-3.194169092164083,13.710017,-0.9178965,-7.5743933,1.0514282,18.308605,-9.792819,2.000087,0.13883853,-0.34938675,0.3926777,0.83931935,-11.7741375,-5.153935,-0.28091118,4.429775,-4.3620996,-2.2922373,0
0.18000000000000002,19.640230648568984,5.999999945982879,-5.999999986490162,-3.194169092164083,13.710017,-0.9178965,-7.5743933,1.0514282,18.190407,-9.843609,1.997228,0.16524655,-0.33171204,0.4044002,0.8361346,-11.863836,-5.003197,-0.29072884,4.6741366,-4.618028,-2.3364952,0
0.19000000000000003,19.640230648568984,5.999999945982879,-5.999999986490162,-3.194169092164083,13.710017,-0.9178965,-7.5743933,1.0514282,18.071367,-9.892863,1.9942762,0.19248267,-0.31255293,0.4163059,0.83183557,-11.942088,-4.8468065,-0.29950276,4.8804436,-4.8339934,-2.3785818,0
0.20000000000000004,20.99999970451609,5.919473422702931,-5.999999803450998,-3.160016377484999,14.90389,0.63601387,-7.007932,0.2652522,17.951607,-9.940527,1.9912416,0.22034514,-0.29205889,0.4281968,0.8263154,-12.007958,-4.6853595,-0.3072962,5.054625,-5.016233,-2.418603,0
0.21000000000000005,20.99999970451609,5.919473422702931,-5.999999803450998,-3.160016377484999,14.90389,0.63601387,-7.007932,0.2652522,17.831234,-9.986497,1.988165,0.24863753,-0.27037328,0.43987852,0.81950265,-12.06427,-4.5081453,-0.30789542,5.189133,-5.169986,-2.4549844,0
0.22000000000000006,20.99999970451609,5.919473422702931,-5.999999803450998,-3.160016377484999,14.90389,0.63601387,-7.007932,0.2652522,17.710373,-10.030676,1.9850866,0.27718264,-0.24763,0.45118815,0.8113436,-12.105716,-4.3273187,-0.30768424,5.302703,-5.299727,-2.4895806,0
0.23000000000000007,20.99999970451609,5.919473422702931,-5.999999803450998,-3.160016377484999,14.90389,0.63601387,-7.007932,0.2652522,17.589174,-10.073034,1.9820136,0.30583075,-0.22394843,0.46201146,0.8017856,-12.131688,-4.143982,-0.3068217,5.398595,-5.4092054,-2.522479,0
0.24000000000000007,20.99999970451609,5.919473422702931,-5.999999803450998,-3.160016377484999,15.633642,0.26140133,-5.9528728,-0.1116201,17.467794,-10.113552,1.9789518,0.33444378,-0.19944046,0.47225124,0.79079056,-12.141721,-3.9593391,-0.305493,5.479562,-5.5015845,-2.5537632,0
0.25000000000000006,20.99999970451609,5.919473422702931,-5.999999803450998,-3.160016377484999,15.633642,0.26140133,-5.9528728,-0.1116201,17.346395,-10.152221,1.9759046,0.36289382,-0.17421147,0.48182496,0.7783336,-12.135491,-3.7746708,-0.3039044,5.5479283,-5.5795336,-2.583512,0
0.26000000000000006,20.99999970451609,5.919473422702931,-5.999999803450998,-3.160016377484999,15.633642,0.26140133,-5.9528728,-0.1116201,17.225142,-10.189049,1.9728738,0.39106223,-0.148361,0.4906626,0.76440156,-12.112827,-3.5913146,-0.30227837,5.605656,-5.6453056,-2.6118014,0
0.2700000000000001,20.99999970451609,5.919473422702931,-5.999999803450998,-3.160016377484999,15.633642,0.26140133,-5.9528728,-0.1116201,17.104195,-10.224056,1.9698584,0.41883856,-0.121983476,0.49870506,0.7489912,-12.073708,-3.4106445,-0.30084905,5.654402,-5.7008023,-2.6387024,0
0.2800000000000001,20.999999003951256,3.4749190070923404,-5.0042147984533125,-0.6318909431066836,14.382641,-0.31836346,-3.6161666,0.124863,16.983723,-10.257276,1.9668553,0.44612002,-0.095168754,0.50590247,0.7321084,-12.018264,-3.2340527,-0.299858,5.6955633,-5.7476277,-2.6642835,0
0.2900000000000001,20.999999003951256,3.4749190070923404,-5.0042147984533125,-0.6318909431066836,14.382641,-0.31836346,-3.6161666,0.124863,16.863884,-10.288756,1.9638591,0.47230875,-0.06858158,0.51172817,0.71439165,-11.946864,-3.0629137,-0.2995117,5.349824,-5.630744,-2.5645533,0
0.3000000000000001,20.999999003951256,3.4749190070923404,-5.0042147984533125,-0.6318909431066836,14.382641,-0.31836346,-3.6161666,0.124863,16.744835,-10.318558,1.960863,0.49697456,-0.04276405,0.51584697,0.6964838,-11.860505,-2.898436,-0.29979086,5.05794,-5.5322356,-2.4697168,0
0.3100000000000001,20.999999003951256,3.4749190070923404,-5.0042147984533125,-0.6318909431066836,14.382641,-0.31836346,-3.6161666,0.124863,16.62672,-10.346752,1.9578613,0.5202521,-0.01762268,0.51847047,0.6783921,-11.760343,-2.7416387,-0.30061284,4.8115225,-5.449211,-2.379534,0
0.3200000000000001,20.37147514720222,1.4506613183925767,-2.786545478564207,0.21302758921739495,14.880658,-1.1222975,-1.1650988,0.3811241,16.50967,-10.373421,1.954849,0.5422514,0.0069248616,0.51977164,0.6601161,-11.647482,-2.5933974,-0.3019182,4.603489,-5.3792334,-2.2937765,0
0.3300000000000001,20.37147514720222,1.4506613183925767,-2.786545478564207,0.21302758921739495,14.880658,-1.1222975,-1.1650988,0.3811241,16.393791,-10.398673,1.9518071,0.5625593,0.029979235,0.51986414,0.6421602,-11.526793,-2.4585574,-0.30654687,4.112813,-4.97384,-2.1707668,0
0.34000000000000014,20.37147514720222,1.4506613183925767,-2.786545478564207,0.21302758921739495,14.880658,-1.1222975,-1.1650988,0.3811241,16.279167,-10.422623,1.948717,0.58092505,0.050844908,0.5189307,0.6250216,-11.396394,-2.3328106,-0.31152678,3.6984897,-4.631863,-2.0537934,0
0.35000000000000014,20.37147514720222,1.4506613183925767,-2.786545478564207,0.21302758921739495,14.880658,-1.1222975,-1.1650988,0.3811241,16.165892,-10.445359,1.9455757,0.5976409,0.06986712,0.51717645,0.6086647,-11.257723,-2.2160392,-0.31676227,3.3486433,-4.3433743,-1.9425598,0
0.36000000000000015,18.869787370571803,-0.407209700539323,-0.6165072608195582,1.0634053067049754,15.476795,-2.385695,0.966503,1.0623882,16.054039,-10.466973,1.9423813,0.61294484,0.08734185,0.5147571,0.59303904,-11.111989,-2.1080678,-0.3221574,3.0532453,-4.100003,-1.8367846,0
0.37000000000000016,18.869787370571803,-0.407209700539323,-0.6165072608195582,1.0634053067049754,15.476795,-2.385695,0.966503,1.0623882,15.943617,-10.487587,1.9390982,0.62660354,0.10260735,0.51189137,0.57862514,-10.9714575,-2.0159419,-0.33444393,2.5145724,-3.5558727,-1.6944714,0
0.38000000000000017,18.869787370571803,-0.407209700539323,-0.6165072608195582,1.0634053067049754,15.476795,-2.385695,0.966503,1.0623882,15.834623,-10.507317,1.9356927,0.6384877,0.1151712,0.5088042,0.56585103,-10.826523,-1.93097,-0.3466616,2.0597038,-3.0967946,-1.5591415,0
0.3900000000000002,18.869787370571803,-0.407209700539323,-0.6165072608195582,1.0634053067049754,15.476795,-2.385695,0.966503,1.0623882,15.7270975,-10.526228,1.9321657,0.6489024,0.12549303,0.50559473,0.554573,-10.6781845,-1.8523077,-0.35867146,1.6756122,-2.709463,-1.4304523,0
0.4000000000000002,19.026655920164952,-3.553731033343857,2.4578401090532016,3.0992526813567363,17.81037,-3.6359763,2.6964874,0.82324404,15.621069,-10.54438,1.9285203,0.65809005,0.1339592,0.50232583,0.5446478,-10.527227,-1.7791888,-0.37034285,1.351293,-2.382656,-1.308078,0
0.4100000000000002,19.026655920164952,-3.553731033343857,2.4578401090532016,3.0992526813567363,17.81037,-3.6359763,2.6964874,0.82324404,15.516646,-10.561788,1.9248097,0.6657069,0.13949788,0.49912664,0.53688675,-10.357686,-1.7033432,-0.37206513,0.58146286,-1.6327964,-1.1094769,0
0.4200000000000002,19.026655920164952,-3.553731033343857,2.4578401090532016,3.0992526813567363,17.81037,-3.6359763,2.6964874,0.82324404,15.413905,-10.578466,1.9210737,0.6714866,0.14130269,0.49614075,0.5319621,-10.191257,-1.6329222,-0.37536174,-0.06431286,-0.9958857,-0.9157943,0
0.4300000000000002,19.026655920164952,-3.553731033343857,2.4578401090532016,3.0992526813567363,17.81037,-3.6359763,2.6964874,0.82324404,15.312808,-10.594459,1.9172981,0.67568445,0.14002301,0.4933902,0.52953774,-10.028795,-1.5660957,-0.37992874,-0.6065423,-0.45546547,-0.7269086,0
0.4400000000000002,19.026655920164952,-3.553731033343857,2.4578401090532016,3.0992526813567363,19.61708,-5.223879,4.0568414,0.6221221,15.213313,-10.609795,1.9134715,0.67848706,0.1361985,0.49085855,0.5293044,-9.870905,-1.5013818,-0.3855441,-1.0623949,0.0024948567,-0.54270095,0
0.45000000000000023,19.026655920164952,-3.553731033343857,2.4578401090532016,3.0992526813567363,19.61708,-5.223879,4.0568414,0.6221221,15.1153755,-10.624489,1.9095855,0.6800375,0.13027664,0.48849934,0.5309852,-9.717072,-1.437198,-0.3914782,-1.4497626,0.38643694,-0.36417657,0
0.46000000000000024,19.026655920164952,-3.553731033343857,2.4578401090532016,3.0992526813567363,19.61708,-5.223879,4.0568414,0.6221221,15.018966,-10.638533,1.9056469,0.68045676,0.1226225,0.48624557,0.5343291,-9.565012,-1.3714682,-0.39599326,-1.7778753,0.70935416,-0.1942251,0
0.47000000000000025,19.026655920164952,-3.553731033343857,2.4578401090532016,3.0992526813567363,19.61708,-5.223879,4.0568414,0.6221221,14.924067,-10.651908,1.901671,0.67983294,0.11353948,0.48404902,0.5391035,-9.41501,-1.3033454,-0.39891246,-2.0548863,0.98184985,-0.03261321,0
0.48000000000000026,20.799066211907068,-5.76124485707941,4.480535944803349,3.34423069386915,19.431475,-5.5056095,4.531139,0.9550684,14.830657,-10.664589,1.8976742,0.67823416,0.10328142,0.48186523,0.5451031,-9.267488,-1.2321925,-0.40019384,-2.2887456,1.2118067,0.12106836,0
0.49000000000000027,20.799066211907068,-5.76124485707941,4.480535944803349,3.34423069386915,19.431475,-5.5056095,4.531139,0.9550684,14.738775,-10.676505,1.8937186,0.6753889,0.091033064,0.47971034,0.5526672,-9.109419,-1.1504446,-0.39064083,-2.8304944,1.7212317,0.27922982,0
0.5000000000000002,20.799066211907068,-5.76124485707941,4.480535944803349,3.34423069386915,19.431475,-5.5056095,4.531139,0.9550684,14.648455,-10.687579,1.8898678,0.6710336,0.07615201,0.47755805,0.56200826,-8.955367,-1.0636805,-0.37921435,-3.28783,2.151141,0.42963028,0
0.5100000000000002,20.799066211907068,-5.76124485707941,4.480535944803349,3.34423069386915,19.431475,-5.5056095,4.531139,0.9550684,14.559651,-10.697757,1.8861407,0.6652208,0.059069145,0.47530845,0.5727777,-8.806253,-0.97090423,-0.36590472,-3.6738915,2.5139604,0.5726506,0
0.5200000000000002,20.999997981144844,-5.999998820729261,5.281617732929121,4.046140611313034,20.441278,-5.617155,4.8964434,1.2777197,14.47231,-10.706973,1.8825558,0.65798616,0.0401515,0.47287208,0.584666,-8.662985,-0.87137103,-0.35077885,-3.999776,2.8201723,0.70865285,0
0.5300000000000002,20.999997981144844,-5.999998820729261,5.281617732929121,4.046140611313034,20.441278,-5.617155,4.8964434,1.2777197,14.386375,-10.715154,1.8791364,0.6491548,0.019503193,0.47031954,0.5975095,-8.525148,-0.7635056,-0.3328737,-4.3122263,3.203431,0.87242436,0
0.5400000000000003,20.999997981144844,-5.999998820729261,5.281617732929121,4.046140611313034,20.441278,-5.617155,4.8964434,1.2777197,14.30178,-10.722217,1.8759032,0.63856584,-0.0027693687,0.4676898,0.6111404,-8.395098,-0.6477862,-0.3135625,-4.5759735,3.52691,1.0281595,0
0.5500000000000003,20.999997981144844,-5.999998820729261,5.281617732929121,4.046140611313034,20.441278,-5.617155,4.8964434,1.2777197,14.218443,-10.728083,1.8728688,0.62626547,-0.026367586,0.4648694,0.62529445,-8.273815,-0.5239136,-0.29319715,-4.798598,3.7999446,1.1762527,0
0.5600000000000003,20.999997443189237,-5.999998612792366,4.52458277758932,3.3815972144576154,21.043041,-4.5339966,4.4598775,0.7569746,14.13627,-10.732667,1.8700417,0.61229587,-0.0510304,0.4617639,0.6397375,-8.162261,-0.39181504,-0.2721671,-4.986501,4.0304103,1.3170788,0
0.5700000000000003,20.999997443189237,-5.999998612792366,4.52458277758932,3.3815972144576154,21.043041,-4.5339966,4.4598775,0.7569746,14.0551605,-10.735891,1.8674264,0.59689426,-0.07637108,0.45810977,0.6542327,-8.061353,-0.25164413,-0.25087285,-5.144892,4.1070013,1.4183851,0
0.5800000000000003,20.999997443189237,-5.999998612792366,4.52458277758932,3.3815972144576154,21.043041,-4.5339966,4.4598775,0.7569746,13.975003,-10.737675,1.8650241,0.5802769,-0.102064125,0.45370847,0.66858846,-7.9719143,-0.1038499,-0.2296315,-5.278567,4.1716685,1.5147206,0
0.5900000000000003,20.999997443189237,-5.999998612792366,4.52458277758932,3.3815972144576154,21.043041,-4.5339966,4.4598775,0.7569746,13.89568,-10.737945,1.8628327,0.5624588,-0.1279783,0.44857782,0.682671,-7.8946877,0.050950695,-0.20874839,-5.3913803,4.2262726,1.6063287,0
0.6000000000000003,20.59209297711687,-5.427605007322002,2.858793909241718,2.108939332678547,20.517397,-4.2045383,4.7030506,1.07531,13.817066,-10.736634,1.8608469,0.5434615,-0.153997,0.4427368,0.69636106,-7.83034,0.21203569,-0.18854955,-5.486585,4.2723827,1.6934417,0
0.6100000000000003,20.59209297711687,-5.427605007322002,2.858793909241718,2.108939332678547,20.517397,-4.2045383,4.7030506,1.07531,13.739022,-10.733701,1.8590468,0.5237608,-0.17949784,0.43598968,0.70948446,-7.780403,0.37531984,-0.1716182,-5.477198,4.051872,1.7138304,0
0.6200000000000003,20.59209297711687,-5.427605007322002,2.858793909241718,2.108939332678547,20.517397,-4.2045383,4.7030506,1.07531,13.661412,-10.729114,1.8574108,0.5037928,-0.20399216,0.4282209,0.72194666,-7.743828,0.54284453,-0.15576218,-5.4693055,3.8657515,1.7332184,0
0.6300000000000003,20.59209297711687,-5.427605007322002,2.858793909241718,2.108939332678547,20.517397,-4.2045383,4.7030506,1.07531,13.584101,-10.722834,1.8559277,0.48352754,-0.227566,0.41955316,0.73375076,-7.7206635,0.7134941,-0.14103091,-5.46267,3.708659,1.7516551,0
0.6400000000000003,20.59209297711687,-5.427605007322002,2.858793909241718,2.108939332678547,20.857231,-3.6978216,3.334422,0.97479886,13.506954,-10.714836,1.8545861,0.46294215,-0.25029203,0.41008878,0.74489325,-7.7109046,0.8862085,-0.12749027,-5.457091,3.5760667,1.7691872,0
0.6500000000000004,20.59209297711687,-5.427605007322002,2.858793909241718,2.108939332678547,20.857231,-3.6978216,3.334422,0.97479886,13.429838,-10.705105,1.8533736,0.4420206,-0.27223116,0.39991352,0.75536585,-7.714494,1.0599757,-0.11522048,-5.452401,3.4641547,1.785859,0
0.6600000000000004,20.59209297711687,-5.427605007322002,2.858793909241718,2.108939332678547,20.857231,-3.6978216,3.334422,0.97479886,13.352619,-10.693635,1.8522772,0.4207529,-0.2934339,0.3890996,0.7651571,-7.7313275,1.233826,-0.10431381,-5.448459,3.369697,1.8017126,0
0.6700000000000004,20.59209297711687,-5.427605007322002,2.858793909241718,2.108939332678547,20.857231,-3.6978216,3.334422,0.97479886,13.2751665,-10.680431,1.8512825,0.3991346,-0.3139418,0.37770826,0.7742538,-7.7612524,1.4068267,-0.0948722,-5.4451456,3.2899725,1.8167883,0
0.6800000000000004,19.237232064857103,-3.8786519030296267,1.3408318578810139,1.4582868199617964,19.356203,-3.6829154,0.98639965,1.4779458,13.1973505,-10.665505,1.8503743,0.37716588,-0.33378848,0.36579174,0.7826416,-7.804072,1.5780796,-0.08700504,-5.4423614,3.2226827,1.8311242,1
0.6900000000000004,19.237232064857103,-3.8786519030296267,1.3408318578810139,1.4582868199617964,19.356203,-3.6829154,0.98639965,1.4779458,13.119058,-10.648931,1.8495053,0.35542852,-0.35219008,0.35364822,0.7902949,-7.8561325,1.7366055,-0.08705221,-5.1675286,2.8743217,1.8137937,1
0.7000000000000004,19.237232064857103,-3.8786519030296267,1.3408318578810139,1.4582868199617964,19.356203,-3.6829154,0.98639965,1.4779458,13.040189,-10.630785,1.8486285,0.3344283,-0.3685682,0.3415636,0.79727644,-7.919207,1.8919849,-0.0885329,-4.935629,2.580228,1.7973136,1
0.7100000000000004,19.237232064857103,-3.8786519030296267,1.3408318578810139,1.4582868199617964,19.356203,-3.6829154,0.98639965,1.4779458,12.960638,-10.611104,1.8477304,0.3140599,-0.3832223,0.32955295,0.8036804,-7.9924135,2.0436532,-0.09126495,-4.739954,2.331949,1.7816421,1
0.7200000000000004,17.024170651765242,-1.8482571653095485,-0.3380606287801926,0.8782596006773999,18.456215,-3.299779,0.6692804,0.59892076,12.880308,-10.589927,1.8467994,0.2942294,-0.39640272,0.31762,0.8095751,-8.0749655,2.1911464,-0.09508152,-4.5748453,2.1223474,1.7667395,0
0.7300000000000004,17.024170651765242,-1.8482571653095485,-0.3380606287801926,0.8782596006773999,18.456215,-3.299779,0.6692804,0.59892076,12.799164,-10.567383,1.8457692,0.27537888,-0.4077071,0.30618024,0.8149818,-8.155113,2.3168828,-0.11106173,-4.149144,1.7392561,1.7231416,0
0.7400000000000004,17.024170651765242,-1.8482571653095485,-0.3380606287801926,0.8782596006773999,18.456215,-3.299779,0.6692804,0.59892076,12.717183,-10.543603,1.8445762,0.2578783,-0.41686276,0.29558393,0.8199724,-8.24186,2.4385448,-0.12760554,-3.7899203,1.4158056,1.6816831,0
0.7500000000000004,17.024170651765242,-1.8482571653095485,-0.3380606287801926,0.8782596006773999,18.456215,-3.299779,0.6692804,0.59892076,12.634307,-10.518626,1.8432161,0.24154733,-0.42423055,0.28573063,0.82464635,-8.334293,2.5561612,-0.14445674,-3.4867904,1.1427127,1.6422589,0
0.7600000000000005,15.954309032464925,0.19630479204622234,-1.7659750332921873,0.2864394744493461,18.894764,-3.300394,0.28208348,-0.19880202,12.550481,-10.492493,1.8416868,0.22622712,-0.43010804,0.2765252,0.8290733,-8.431645,2.6697984,-0.16138595,-3.230993,0.9121398,1.6047692,0
0.7700000000000005,15.954309032464925,0.19630479204622234,-1.7659750332921873,0.2864394744493461,18.894764,-3.300394,0.28208348,-0.19880202,12.465691,-10.465278,1.8399633,0.21235168,-0.43411,0.2684045,0.83331543,-8.526827,2.7726834,-0.18328092,-2.69605,0.49516308,1.5400783,0
0.7800000000000005,15.954309032464925,0.19630479204622234,-1.7659750332921873,0.2864394744493461,18.894764,-3.300394,0.28208348,-0.19880202,12.379933,-10.437051,1.8380227,0.20026876,-0.43596616,0.26172137,0.8374534,-8.625083,2.8723137,-0.20474893,-2.2446294,0.14308348,1.4785619,0
0.7900000000000005,15.954309032464925,0.19630479204622234,-1.7659750332921873,0.2864394744493461,18.894764,-3.300394,0.28208348,-0.19880202,12.293182,-10.407841,1.8358707,0.18972945,-0.43604812,0.2562729,0.84153986,-8.725584,2.9691114,-0.22549991,-1.8636858,-0.15419468,1.420064,0
0.8000000000000005,15.81518632358259,1.8540406412673376,-2.7903757008069654,-0.2987048628310061,17.499332,-1.3571827,-1.1707218,-0.6850165,12.205417,-10.377675,1.833516,0.18051833,-0.43465868,0.25187862,0.84560186,-8.82765,3.0634675,-0.24528722,-1.5422136,-0.40519723,1.3644367,0
0.8100000000000005,15.81518632358259,1.8540406412673376,-2.7903757008069654,-0.2987048628310061,17.499332,-1.3571827,-1.1707218,-0.6850165,12.116622,-10.346573,1.8309723,0.1728473,-0.43167272,0.2487925,0.8496382,-8.93112,3.1561618,-0.26356208,-1.0332651,-0.7556876,1.2847371,0
0.8200000000000005,15.81518632358259,1.8540406412673376,-2.7903757008069654,-0.2987048628310061,17.499332,-1.3571827,-1.1707218,-0.6850165,12.026799,-10.314561,1.828246,0.16695853,-0.42689955,0.24727371,0.85366136,-9.033506,3.24615,-0.2814699,-0.5827797,-1.0725886,1.2070372,0
0.8300000000000005,15.81518632358259,1.8540406412673376,-2.7903757008069654,-0.2987048628310061,17.499332,-1.3571827,-1.1707218,-0.6850165,11.935954,-10.281653,1.8253485,0.16262601,-0.4205973,0.24709944,0.8576671,-9.135455,3.3351848,-0.29777095,-0.20261255,-1.3401673,1.13315,0
0.8400000000000005,15.81518632358259,1.8540406412673376,-2.7903757008069654,-0.2987048628310061,16.254286,-0.61474144,-1.8379745,-0.88359016,11.844093,-10.247859,1.8222967,0.15962958,-0.4130107,0.24805325,0.8616324,-9.236377,3.4237432,-0.31230146,0.11821697,-1.5660944,1.0628884,0
0.8500000000000005,15.81518632358259,1.8540406412673376,-2.7903757008069654,-0.2987048628310061,16.254286,-0.61474144,-1.8379745,-0.88359016,11.751231,-10.21318,1.8191091,0.15778147,-0.4043406,0.2499484,0.8655286,-9.335767,3.5122313,-0.32494336,0.38897386,-1.7568494,0.9960747,0
0.8600000000000005,15.81518632358259,1.8540406412673376,-2.7903757008069654,-0.2987048628310061,16.254286,-0.61474144,-1.8379745,-0.88359016,11.657385,-10.177614,1.8158048,0.15692174,-0.39475313,0.25262448,0.8693254,-9.433187,3.6009867,-0.33561903,0.61747575,-1.9179043,0.93253946,0
0.8700000000000006,15.81518632358259,1.8540406412673376,-2.7903757008069654,-0.2987048628310061,16.254286,-0.61474144,-1.8379745,-0.88359016,11.562575,-10.141158,1.8124038,0.15691426,-0.38438627,0.25594434,0.8729936,-9.528256,3.6902878,-0.34428588,0.8103193,-2.0538802,0.87212193,0
0.8800000000000006,15.915867300334224,2.7763904987115438,-3.2144152390166405,-0.7181332582860833,16.36928,-0.62150645,-2.0939908,-1.0756534,11.466829,-10.1038065,1.8089261,0.15764312,-0.3733555,0.25979093,0.8765062,-9.620637,3.7803602,-0.3509316,0.9730713,-2.1686802,0.81466913,0
0.8900000000000006,15.915867300334224,2.7763904987115438,-3.2144152390166405,-0.7181332582860833,16.36928,-0.62150645,-2.0939908,-1.0756534,11.370171,-10.065545,1.805395,0.15923533,-0.3615633,0.26434204,0.8797952,-9.710576,3.8719816,-0.35497507,1.2542706,-2.3316736,0.73945403,0
0.9000000000000006,15.915867300334224,2.7763904987115438,-3.2144152390166405,-0.7181332582860833,16.36928,-0.62150645,-2.0939908,-1.0756534,11.27263,-10.026362,1.8018334,0.16178627,-0.34893423,0.26972896,0.8827891,-9.79708,3.9648483,-0.357039,1.491596,-2.4692912,0.6679298,0
0.9100000000000006,15.915867300334224,2.7763904987115438,-3.2144152390166405,-0.7181332582860833,16.36928,-0.62150645,-2.0939908,-1.0756534,11.174242,-9.986243,1.7982608,0.16516156,-0.33558747,0.27579615,0.8854599,-9.879742,4.059205,-0.35719272,1.6918951,-2.5854802,0.59991527,0
0.9200000000000006,16.188190014384222,3.2131600705852414,-3.3461164925564195,-1.130894716330234,16.151148,-0.044340633,-1.9291195,-1.3366779,11.075048,-9.945172,1.7946959,0.16924646,-0.3216239,0.2824112,0.88778245,-9.9582,4.1552334,-0.35553098,1.860947,-2.6835742,0.5352382,0
0.9300000000000006,16.188190014384222,3.2131600705852414,-3.3461164925564195,-1.130894716330234,16.151148,-0.044340633,-1.9291195,-1.3366779,10.975087,-9.903124,1.7911648,0.1740582,-0.3070667,0.289591,0.8896915,-10.033384,4.2547407,-0.3504367,2.0717118,-2.7869337,0.45348063,0
0.9400000000000006,16.188190014384222,3.2131600705852414,-3.3461164925564195,-1.130894716330234,16.151148,-0.044340633,-1.9291195,-1.3366779,10.874398,-9.86007,1.7876927,0.17960691,-0.29193935,0.29733932,0.8911241,-10.103595,4.3562207,-0.34377217,2.2496004,-2.874199,0.3757349,0
0.9500000000000006,16.188190014384222,3.2131600705852414,-3.3461164925564195,-1.130894716330234,16.151148,-0.044340633,-1.9291195,-1.3366779,10.773034,-9.815991,1.7842941,0.18579149,-0.27632204,0.3055339,0.89206326,-10.168489,4.459769,-0.33571553,2.399743,-2.9478729,0.30180416,0
0.9600000000000006,16.39067059998054,3.110736291496942,-3.065683756854662,-1.3884808203570809,16.358938,0.54010046,-1.7386193,-1.3202347,10.671048,-9.770867,1.7809824,0.19252472,-0.260284,0.31407088,0.8924943,-10.227765,4.5654273,-0.32645923,2.5264697,-3.0100696,0.23150124,0
0.9700000000000006,16.39067059998054,3.110736291496942,-3.065683756854662,-1.3884808203570809,16.358938,0.54010046,-1.7386193,-1.3202347,10.568496,-9.724669,1.7777752,0.1997138,-0.24400407,0.32283974,0.892385,-10.281826,4.6745353,-0.31485516,2.617431,-3.0188642,0.15200824,0
0.9800000000000006,16.39067059998054,3.110736291496942,-3.065683756854662,-1.3884808203570809,16.358938,0.54010046,-1.7386193,-1.3202347,10.465433,-9.677369,1.774688,0.2072843,-0.2276322,0.3317502,0.8917167,-10.32974,4.785719,-0.30248147,2.6942132,-3.0262904,0.07641601,0
0.9900000000000007,16.39067059998054,3.110736291496942,-3.065683756854662,-1.3884808203570809,16.358938,0.54010046,-1.7386193,-1.3202347,10.361922,-9.628948,1.7717274,0.21519026,-0.21118556,0.34074843,0.89049673,-10.371353,4.8988934,-0.2895778,2.7590282,-3.0325596,0.004533097,0
1.0000000000000007,16.06984461087403,2.45416255524063,-2.5854726779208255,-1.4783975850048214,15.247644,0.48384342,-1.3927437,-1.5997568,10.258029,-9.579385,1.7688975,0.22339085,-0.19467987,0.34978873,0.88873184,-10.406533,5.0139456,-0.27637953,2.8137414,-3.0378501,-0.06382251,0
1.0100000000000007,16.06984461087403,2.45416255524063,-2.5854726779208255,-1.4783975850048214,15.247644,0.48384342,-1.3927437,-1.5997568,10.153818,-9.528674,1.7661891,0.23174286,-0.17836435,0.35864195,0.8864861,-10.434625,5.128444,-0.26529363,2.7575338,-2.9674249,-0.13323613,0
1.0200000000000007,16.06984461087403,2.45416255524063,-2.5854726779208255,-1.4783975850048214,15.247644,0.48384342,-1.3927437,-1.5997568,10.049358,-9.4768095,1.7635912,0.24013737,-0.16244388,0.3671332,0.8838323,-10.456363,5.2444377,-0.25433502,2.7101033,-2.9079726,-0.19924358,0
1.0300000000000007,16.06984461087403,2.45416255524063,-2.5854726779208255,-1.4783975850048214,15.247644,0.48384342,-1.3927437,-1.5997568,9.944712,-9.4237795,1.7611015,0.24858536,-0.14687118,0.37529945,0.8807864,-10.471833,5.36171,-0.24367552,2.6700788,-2.8577828,-0.26201203,0
1.0400000000000007,16.06984461087403,2.45416255524063,-2.5854726779208255,-1.4783975850048214,14.554069,0.09098957,-0.9839623,-1.5626689,9.839943,-9.369572,1.7587161,0.25709367,-0.13160594,0.3831717,0.87736106,-10.481115,5.480056,-0.23347442,2.6363041,-2.815413,-0.32170042,0
1.0500000000000007,16.06984461087403,2.45416255524063,-2.5854726779208255,-1.4783975850048214,14.554069,0.09098957,-0.9839623,-1.5626689,9.735111,-9.314175,1.7564298,0.26566592,-0.116613775,0.3907758,0.8735659,-10.484282,5.599274,-0.22388028,2.6078038,-2.7796447,-0.37845987,0
1.0600000000000007,16.06984461087403,2.45416255524063,-2.5854726779208255,-1.4783975850048214,14.554069,0.09098957,-0.9839623,-1.5626689,9.630278,-9.257584,1.7542359,0.27430287,-0.101865485,0.3981334,0.86940867,-10.481398,5.7191696,-0.2150326,2.5837543,-2.7494488,-0.4324341,0
1.0700000000000007,16.06984461087403,2.45416255524063,-2.5854726779208255,-1.4783975850048214,14.554069,0.09098957,-0.9839623,-1.5626689,9.525503,-9.199789,1.7521261,0.28300312,-0.087336294,0.40526247,0.86489546,-10.472527,5.839551,-0.20706317,2.5634608,-2.7239568,-0.48375985,0
1.0800000000000007,15.993796685237623,1.5489432316471246,-1.89430873736255,-1.4450548478173233,14.164544,-0.5830487,-0.43194523,-1.6450837,9.420847,-9.140789,1.7500911,0.29176354,-0.07300526,0.41217792,0.8600313,-10.45773,5.9602294,-0.20009688,2.5463367,-2.702436,-0.53256696,0
1.0900000000000007,15.993796685237623,1.5489432316471246,-1.89430873736255,-1.4450548478173233,14.164544,-0.5830487,-0.43194523,-1.6450837,9.316368,-9.0805855,1.7481178,0.30043808,-0.059197605,0.4186653,0.85495746,-10.437199,6.080443,-0.19473405,2.390762,-2.576425,-0.57734305,0
1.1000000000000008,15.993796685237623,1.5489432316471246,-1.89430873736255,-1.4450548478173233,14.164544,-0.5830487,-0.43194523,-1.6450837,9.212123,-9.01918,1.7461925,0.30891863,-0.04617289,0.4245688,0.8498111,-10.411121,6.2005634,-0.1905168,2.259452,-2.4700632,-0.6199219,0
1.1100000000000008,15.993796685237623,1.5489432316471246,-1.89430873736255,-1.4450548478173233,14.164544,-0.5830487,-0.43194523,-1.6450837,9.108165,-8.956575,1.7443035,0.31725025,-0.033825114,0.42997712,0.84458745,-10.379789,6.320409,-0.18745649,2.148622,-2.3802867,-0.6604115,0
1.1200000000000008,15.20711251243423,0.34269438413039166,-1.3194326134427026,-1.2413405038672813,14.485349,-1.2195711,-0.058818836,-1.4410839,9.004544,-8.892774,1.7424393,0.32546863,-0.022063531,0.43496364,0.83927953,-10.3434515,6.439819,-0.18556131,2.055077,-2.3045104,-0.69891423,0
1.1300000000000008,15.20711251243423,0.34269438413039166,-1.3194326134427026,-1.2413405038672813,14.485349,-1.2195711,-0.058818836,-1.4410839,8.901301,-8.827809,1.740564,0.33347288,-0.011150868,0.43926308,0.834098,-10.30438,6.552801,-0.18967994,1.7880644,-2.1507978,-0.7255312,0
1.1400000000000008,15.20711251243423,0.34269438413039166,-1.3194326134427026,-1.2413405038672813,14.485349,-1.2195711,-0.058818836,-1.4410839,8.79847,-8.76172,1.7386425,0.34119096,-0.0012919093,0.4426799,0.82922953,-10.26117,6.6650815,-0.19477259,1.5626874,-2.0210662,-0.75084215,0
1.1500000000000008,15.20711251243423,0.34269438413039166,-1.3194326134427026,-1.2413405038672813,14.485349,-1.2195711,-0.058818836,-1.4410839,8.69609,-8.69451,1.7366657,0.34868497,0.0076643294,0.4453615,0.8246291,-10.214206,6.7765336,-0.20069158,1.3724537,-1.9115756,-0.774911,0
1.1600000000000008,14.870620732334794,-0.9497608518266224,-0.7034442969960304,-0.8880341077079276,14.323345,-1.8546658,0.7392951,-1.0001594,8.594197,-8.626191,1.7346262,0.35600433,0.015846875,0.4474292,0.82025427,-10.163814,6.8870583,-0.20730539,1.2118827,-1.8191682,-0.7977988,0
1.1700000000000008,14.870620732334794,-0.9497608518266224,-0.7034442969960304,-0.8880341077079276,14.323345,-1.8546658,0.7392951,-1.0001594,8.492819,-8.556784,1.7325075,0.3630527,0.022998136,0.44864896,0.8163199,-10.11149,6.9941506,-0.21648866,0.8748613,-1.6449993,-0.8022267,0
1.1800000000000008,14.870620732334794,-0.9497608518266224,-0.7034442969960304,-0.8880341077079276,14.323345,-1.8546658,0.7392951,-1.0001594,8.391977,-8.486311,1.7302953,0.36975694,0.02892082,0.44884753,0.8130065,-10.056558,7.1001863,-0.225978,0.59038514,-1.4980173,-0.8064373,0
1.1900000000000008,14.870620732334794,-0.9497608518266224,-0.7034442969960304,-0.8880341077079276,14.323345,-1.8546658,0.7392951,-1.0001594,8.291696,-8.4147835,1.7279879,0.3761818,0.033798665,0.44819582,0.8102257,-9.999451,7.2051153,-0.23552385,0.35026184,-1.373979,-0.81044126,0
1.2000000000000008,14.663880524792164,-2.042704160575046,-0.2697856875416005,-0.4459631191734351,14.224799,-2.8170938,0.81194437,-0.7308628,8.191994,-8.342213,1.7255855,0.38237867,0.037787914,0.44683415,0.8078974,-9.940536,7.3089056,-0.2449114,0.14757597,-1.269303,-0.81424874,0
1.2100000000000009,14.663880524792164,-2.042704160575046,-0.2697856875416005,-0.4459631191734351,14.224799,-2.8170938,0.81194437,-0.7308628,8.092886,-8.268617,1.7230846,0.38828412,0.04073745,0.44459015,0.80617356,-9.880987,7.4101076,-0.25517705,-0.19390096,-1.1132497,-0.79617685,0
1.2200000000000009,14.663880524792164,-2.042704160575046,-0.2697856875416005,-0.4459631191734351,14.224799,-2.8170938,0.81194437,-0.7308628,7.9943786,-8.194015,1.720484,0.39384437,0.04253591,0.44133314,0.80517244,-9.82041,7.510145,-0.26481366,-0.48214144,-0.98156786,-0.77899176,0
1.2300000000000009,14.663880524792164,-2.042704160575046,-0.2697856875416005,-0.4459631191734351,14.224799,-2.8170938,0.81194437,-0.7308628,7.89648,-8.118418,1.7177914,0.39910817,0.043359775,0.4372233,0.80477864,-9.759216,7.609005,-0.27355602,-0.7254447,-0.8704502,-0.76264995,0
1.2400000000000009,14.663880524792164,-2.042704160575046,-0.2697856875416005,-0.4459631191734351,14.512537,-3.451379,0.7553313,-0.2746795,7.7991953,-8.041838,1.7150167,0.40411413,0.04335865,0.43239266,0.8048904,-9.697758,7.7066793,-0.28118443,-0.9308159,-0.7766842,-0.74711,0
1.2500000000000009,14.663880524792164,-2.042704160575046,-0.2697856875416005,-0.4459631191734351,14.512537,-3.451379,0.7553313,-0.2746795,7.702525,-7.9642878,1.7121722,0.40889296,0.042659353,0.4269506,0.8054192,-9.636333,7.8031616,-0.2875192,-1.104169,-0.69755995,-0.73233265,0
1.260000000000001,14.663880524792164,-2.042704160575046,-0.2697856875416005,-0.4459631191734351,14.512537,-3.451379,0.7553313,-0.2746795,7.6064672,-7.885779,1.7092713,0.4134694,0.041369382,0.42098802,0.8062883,-9.575207,7.898446,-0.29241547,-1.2504954,-0.63079053,-0.71828043,0
1.270000000000001,14.663880524792164,-2.042704160575046,-0.2697856875416005,-0.4459631191734351,14.512537,-3.451379,0.7553313,-0.2746795,7.5110188,-7.806323,1.7063292,0.41786352,0.03957989,0.41458076,0.80743206,-9.514604,7.9925256,-0.29575846,-1.3740085,-0.5744463,-0.7049178,0
1.280000000000001,14.464593629984819,-2.7796493299380622,0.015793449556199785,0.004083285563210738,14.773302,-3.8778117,1.075941,-0.21003678,7.416173,-7.7259326,1.7033617,0.42209163,0.037368163,0.4077924,0.8087941,-9.454723,8.085392,-0.29745916,-1.4782649,-0.52689916,-0.69221073,0
1.290000000000001,14.464593629984819,-2.7796493299380622,0.015793449556199785,0.004083285563210738,14.773302,-3.8778117,1.075941,-0.21003678,7.321917,-7.6446257,1.7003793,0.4260862,0.034604855,0.40048337,0.8104729,-9.396561,8.175788,-0.29877323,-1.6811671,-0.44221243,-0.6580434,0
1.300000000000001,14.464593629984819,-2.7796493299380622,0.015793449556199785,0.004083285563210738,14.773302,-3.8778117,1.075941,-0.21003678,7.2282376,-7.562421,1.6973927,0.4297852,0.031192077,0.39254355,0.8125402,-9.339563,8.264958,-0.2982729,-1.8524361,-0.37075236,-0.62555265,0
1.310000000000001,14.464593629984819,-2.7796493299380622,0.015793449556199785,0.004083285563210738,14.773302,-3.8778117,1.075941,-0.21003678,7.1351213,-7.4793305,1.6944205,0.43320847,0.027232887,0.38406107,0.8149148,-9.284002,8.3528805,-0.29585138,-1.9970038,-0.31045198,-0.5946562,0
1.320000000000001,13.988618789404594,-3.1821953257519837,0.08351371463300157,0.3960833869386464,15.078272,-4.154291,1.1121461,0.18430468,7.0425525,-7.3953676,1.6914825,0.43637258,0.022814557,0.37511015,0.8175275,-9.230111,8.439527,-0.29143366,-2.1190321,-0.25956732,-0.5652759,0
1.330000000000001,13.988618789404594,-3.1821953257519837,0.08351371463300157,0.3960833869386464,15.078272,-4.154291,1.1121461,0.18430468,6.950505,-7.310559,1.6885817,0.43924457,0.017936397,0.36563212,0.8203998,-9.179815,8.522057,-0.28840724,-2.2848055,-0.20607302,-0.5181017,0
1.340000000000001,13.988618789404594,-3.1821953257519837,0.08351371463300157,0.3960833869386464,15.078272,-4.154291,1.1121461,0.18430468,6.858949,-7.224931,1.6857214,0.4417909,0.012603207,0.35558194,0.82354337,-9.131573,8.603273,-0.2833384,-2.424733,-0.16093558,-0.4732424,0
1.350000000000001,13.988618789404594,-3.1821953257519837,0.08351371463300157,0.3960833869386464,15.078272,-4.154291,1.1121461,0.18430468,6.767865,-7.1384974,1.6829221,0.4440238,0.006890651,0.34503627,0.8268891,-9.085603,8.683122,-0.27618474,-2.5428436,-0.122847974,-0.4305843,0
1.360000000000001,13.073029452917345,-3.201535119204349,-0.04729300099891251,0.679407934953432,13.825737,-4.405588,0.6358601,0.58105296,6.677228,-7.051273,1.6802049,0.44595408,0.0008627211,0.33406034,0.8303783,-9.0421,8.761542,-0.266931,-2.6425388,-0.090707645,-0.3900195,0
1.370000000000001,13.073029452917345,-3.201535119204349,-0.04729300099891251,0.679407934953432,13.825737,-4.405588,0.6358601,0.58105296,6.587,-6.963297,1.6775548,0.4475797,-0.005374779,0.32267994,0.8339792,-9.003907,8.833437,-0.26274747,-2.7297091,-0.08400835,-0.3375424,0
1.380000000000001,13.073029452917345,-3.201535119204349,-0.04729300099891251,0.679407934953432,13.825737,-4.405588,0.6358601,0.58105296,6.4971414,-6.8746095,1.6749566,0.44889522,-0.011733787,0.31091934,0.8376662,-8.968308,8.903864,-0.25662598,-2.8032866,-0.078357495,-0.28764036,0
1.390000000000001,13.073029452917345,-3.201535119204349,-0.04729300099891251,0.679407934953432,13.825737,-4.405588,0.6358601,0.58105296,6.4076247,-6.7852254,1.672429,0.44990578,-0.018188449,0.2988281,0.84140116,-8.935418,8.972747,-0.24859951,-2.8653898,-0.07358989,-0.24018703,0
1.400000000000001,12.109552315856844,-2.8845263168058324,-0.36882290937158124,0.8585327398407188,12.733815,-3.987964,0.37646577,0.887266,6.318423,-6.6951604,1.669991,0.45061693,-0.02471713,0.2864488,0.8451513,-8.905335,9.040007,-0.23871595,-2.9178088,-0.069566414,-0.19506226,0
1.410000000000001,12.109552315856844,-2.8845263168058324,-0.36882290937158124,0.8585327398407188,12.733815,-3.987964,0.37646577,0.887266,6.2294974,-6.604455,1.6676205,0.4510561,-0.0311294,0.27386856,0.8488672,-8.880139,9.100734,-0.23512743,-2.9126205,-0.11633422,-0.14336206,0
1.420000000000001,12.109552315856844,-2.8845263168058324,-0.36882290937158124,0.8585327398407188,12.733815,-3.987964,0.37646577,0.887266,6.1408105,-6.513151,1.6652939,0.45124495,-0.037272636,0.26116106,0.8525162,-8.857624,9.159803,-0.2299466,-2.908238,-0.15580326,-0.0941988,0
1.430000000000001,12.109552315856844,-2.8845263168058324,-0.36882290937158124,0.8585327398407188,12.733815,-3.987964,0.37646577,0.887266,6.0523353,-6.421265,1.6630268,0.45118183,-0.043181483,0.2483423,0.8560938,-8.837777,9.217135,-0.22325002,-2.9045362,-0.18911229,-0.047447987,0
1.440000000000001,12.109552315856844,-2.8845263168058324,-0.36882290937158124,0.8585327398407188,12.645826,-3.552138,-0.23196007,0.9533945,5.9640455,-6.328815,1.660834,0.45086682,-0.04888572,0.23542622,0.8595953,-8.820588,9.272654,-0.2151168,-2.9014103,-0.21722223,-0.0029912563,1
1.450000000000001,12.109552315856844,-2.8845263168058324,-0.36882290937158124,0.8585327398407188,12.645826,-3.552138,-0.23196007,0.9533945,5.8759174,-6.2358065,1.658753,0.45026377,-0.054575644,0.22221968,0.8630775,-8.805421,9.328657,-0.20085949,-3.0028844,-0.2196122,0.043938853,1
1.460000000000001,12.109552315856844,-2.8845263168058324,-0.36882290937158124,0.8585327398407188,12.645826,-3.552138,-0.23196007,0.9533945,5.7879267,-6.1422486,1.6568214,0.44933826,-0.06040299,0.20856754,0.86657166,-8.793119,9.382583,-0.18524426,-3.0885336,-0.22163002,0.088566095,1
1.470000000000001,12.109552315856844,-2.8845263168058324,-0.36882290937158124,0.8585327398407188,12.645826,-3.552138,-0.23196007,0.9533945,5.7000446,-6.048162,1.6550524,0.44809467,-0.066339426,0.19453306,0.87003875,-8.783781,9.434323,-0.16833897,-3.1608264,-0.22333232,0.13100348,1
1.480000000000001,11.584873557519717,-2.4034989007058907,-0.6523446116890792,0.9426502108466908,13.497631,-3.5563462,-1.4334815,1.2899336,5.612241,-5.95357,1.6534586,0.4465379,-0.07236109,0.18017067,0.8734452,-8.777485,9.483773,-0.15022622,-3.2218451,-0.22476777,0.17135844,0
1.490000000000001,11.584873557519717,-2.4034989007058907,-0.6523446116890792,0.9426502108466908,13.497631,-3.5563462,-1.4334815,1.2899336,5.5244827,-5.858515,1.6520025,0.44474053,-0.07809645,0.16585511,0.8766979,-8.77454,9.5268955,-0.14084727,-3.09421,-0.29151043,0.20920594,0
1.500000000000001,11.584873557519717,-2.4034989007058907,-0.6523446116890792,0.9426502108466908,13.497631,-3.5563462,-1.4334815,1.2899336,5.4367404,-5.763039,1.6506447,0.44277012,-0.083252,0.1518917,0.879746,-8.774304,9.567796,-0.13056365,-2.986478,-0.34783787,0.24519627,0
1.5100000000000011,11.584873557519717,-2.4034989007058907,-0.6523446116890792,0.9426502108466908,13.497631,-3.5563462,-1.4334815,1.2899336,5.348987,-5.6671658,1.6493937,0.44062507,-0.087914586,0.13822943,0.88261753,-8.776631,9.606453,-0.119483665,-2.8955462,-0.39537573,0.27942055,0
1.5200000000000011,11.319159785613278,-1.740705306034568,-0.8214829913401751,0.9330665503998632,13.821655,-3.0186877,-1.6700633,1.47266,5.261199,-5.5709176,1.6482571,0.4383047,-0.092157856,0.124824755,0.88533336,-8.781393,9.642843,-0.10770585,-2.8187952,-0.43549582,0.31196547,0
1.5300000000000011,11.319159785613278,-1.740705306034568,-0.8214829913401751,0.9330665503998632,13.821655,-3.0186877,-1.6700633,1.47266,5.1733522,-5.4743204,1.6472288,0.43584412,-0.09586858,0.11184624,0.88788515,-8.7883005,9.676169,-0.09785602,-2.6506455,-0.49570894,0.34244308,0
1.5400000000000011,11.319159785613278,-1.740705306034568,-0.8214829913401751,0.9330665503998632,13.821655,-3.0186877,-1.6700633,1.47266,5.085426,-5.377402,1.6463015,0.4332761,-0.09896188,0.09942715,0.890277,-8.797283,9.707286,-0.08749969,-2.5087194,-0.54652905,0.37142515,0
1.5500000000000012,11.319159785613278,-1.740705306034568,-0.8214829913401751,0.9330665503998632,13.821655,-3.0186877,-1.6700633,1.47266,4.9974,-5.280183,1.6454802,0.43059704,-0.101533465,0.087485105,0.892538,-8.80816,9.736216,-0.076712415,-2.3889272,-0.589422,0.3989851,0
1.5600000000000012,11.407616400792847,-1.0191748215520195,-0.7044628118975172,0.8436383689525706,15.516287,-3.1038487,-2.512095,1.6836265,4.909256,-5.182685,1.6447686,0.42780426,-0.1036641,0.07594985,0.8946896,-8.820777,9.762981,-0.065559864,-2.2878172,-0.6256248,0.42519262,0
1.5700000000000012,11.407616400792847,-1.0191748215520195,-0.7044628118975172,0.8436383689525706,15.516287,-3.1038487,-2.512095,1.6836265,4.8209777,-5.084929,1.6441743,0.4249334,-0.10534177,0.06503916,0.89671916,-8.835102,9.787805,-0.053245302,-2.0899613,-0.6378927,0.4457259,0
1.5800000000000012,11.407616400792847,-1.0191748215520195,-0.7044628118975172,0.8436383689525706,15.516287,-3.1038487,-2.512095,1.6836265,4.732549,-4.9869356,1.6437047,0.42201924,-0.10656238,0.05492291,0.8986258,-8.850854,9.810566,-0.040680666,-1.9229615,-0.6482504,0.46525156,0
1.5900000000000012,11.407616400792847,-1.0191748215520195,-0.7044628118975172,0.8436383689525706,15.516287,-3.1038487,-2.512095,1.6836265,4.643956,-4.888724,1.6433616,0.4190581,-0.10739911,0.045480937,0.9004376,-8.867858,9.831365,-0.027914768,-1.7820058,-0.65699565,0.48381913,0
1.6000000000000012,11.529548536399224,-0.38202361541739455,-0.6406939499339307,0.7217612267266641,13.522558,-1.999815,-1.5640485,1.0487121,4.5551877,-4.7903137,1.643147,0.41604653,-0.1079134,0.0366112,0.9021753,-8.885966,9.850284,-0.014986938,-1.6630327,-0.66437984,0.5014756,0
1.6100000000000012,11.529548536399224,-0.38202361541739455,-0.6406939499339307,0.7217612267266641,13.522558,-1.999815,-1.5640485,1.0487121,4.466233,-4.6917224,1.6430682,0.4130224,-0.108074754,0.028466333,0.9038378,-8.905246,9.867588,-0.00074115116,-1.4632566,-0.6606311,0.51228505,0
1.6200000000000012,11.529548536399224,-0.38202361541739455,-0.6406939499339307,0.7217612267266641,13.522558,-1.999815,-1.5640485,1.0487121,4.3770804,-4.592967,1.6431324,0.41001993,-0.107862845,0.021162737,0.90542924,-8.925337,9.883202,0.013610724,-1.2946354,-0.6574745,0.52256405,0
1.6300000000000012,11.529548536399224,-0.38202361541739455,-0.6406939499339307,0.7217612267266641,13.522558,-1.999815,-1.5640485,1.0487121,4.287724,-4.494064,1.6433407,0.40703088,-0.107338466,0.014571452,0.90696895,-8.946077,9.897249,0.028051151,-1.1523111,-0.6548167,0.53233874,0
1.6400000000000012,11.529548536399224,-0.38202361541739455,-0.6406939499339307,0.7217612267266641,13.753006,-1.6276056,-1.4787054,1.0195749,4.198157,-4.395027,1.6436937,0.40404788,-0.106552444,0.008583225,0.90847063,-8.967333,9.909841,0.04256805,-1.0321821,-0.6525789,0.5416338,0
1.6500000000000012,11.529548536399224,-0.38202361541739455,-0.6406939499339307,0.7217612267266641,13.753006,-1.6276056,-1.4787054,1.0195749,4.1083755,-4.2958713,1.6441922,0.40106443,-0.105547294,0.0031055617,0.909944,-8.988988,9.921068,0.057152953,-0.9307871,-0.650695,0.5504727,0
1.6600000000000013,11.529548536399224,-0.38202361541739455,-0.6406939499339307,0.7217612267266641,13.753006,-1.6276056,-1.4787054,1.0195749,4.018376,-4.19661,1.6448369,0.39807492,-0.104358576,-0.001939835,0.9113959,-9.010948,9.931011,0.07179977,-0.84520465,-0.6491093,0.5588779,0
1.6700000000000013,11.529548536399224,-0.38202361541739455,-0.6406939499339307,0.7217612267266641,13.753006,-1.6276056,-1.4787054,1.0195749,3.9281554,-4.0972557,1.6456283,0.39507473,-0.10301605,-0.0066192215,0.912831,-9.033129,9.939736,0.08650395,-0.77296877,-0.64777476,0.56687057,0
1.6800000000000013,11.61808804644533,0.06318268675864885,-0.5414084859922065,0.5790661997458464,15.084858,-1.472049,-2.2864869,1.5733671,3.8377128,-3.99782,1.6465671,0.39205998,-0.10154461,-0.010988658,0.9142524,-9.055462,9.947302,0.101261824,-0.71199816,-0.6466516,0.5744711,0
1.6900000000000013,11.61808804644533,0.06318268675864885,-0.5414084859922065,0.5790661997458464,15.084858,-1.472049,-2.2864869,1.5733671,3.7470453,-3.8983135,1.6476581,0.3890624,-0.09993171,-0.0149188405,0.9156539,-9.078055,9.953814,0.11693789,-0.5911152,-0.6301939,0.57469666,0
1.7000000000000013,11.61808804644533,0.06318268675864885,-0.5414084859922065,0.5790661997458464,15.084858,-1.472049,-2.2864869,1.5733671,3.6561518,-3.7987473,1.6489061,0.38611004,-0.098169036,-0.018309943,0.91703165,-9.100653,9.959308,0.13266693,-0.48908302,-0.6163097,0.57491106,0
1.7100000000000013,11.61808804644533,0.06318268675864885,-0.5414084859922065,0.5790661997458464,15.084858,-1.472049,-2.2864869,1.5733671,3.5650325,-3.6991308,1.6503117,0.38319477,-0.09628134,-0.021245476,0.9183903,-9.123173,9.963882,0.14845219,-0.4029618,-0.60459673,0.57511497,0
1.7200000000000013,11.680316602022737,0.39324086468989894,-0.4751541189734272,0.40907404675617715,15.43255,-1.2686905,-2.6220527,1.6431015,3.4736886,-3.5994725,1.6518755,0.3803096,-0.09428922,-0.023796016,0.9197327,-9.145546,9.967619,0.16429697,-0.3302704,-0.59471536,0.57530886,0
1.7300000000000013,11.680316602022737,0.39324086468989894,-0.4751541189734272,0.40907404675617715,15.43255,-1.2686905,-2.6220527,1.6431015,3.3821216,-3.499781,1.653601,0.37748107,-0.09218369,-0.025891563,0.9210539,-9.1678295,9.970611,0.1808156,-0.21744941,-0.5760264,0.56715167,0
1.7400000000000013,11.680316602022737,0.39324086468989894,-0.4751541189734272,0.40907404675617715,15.43255,-1.2686905,-2.6220527,1.6431015,3.2903328,-3.4000628,1.655492,0.3747326,-0.08995873,-0.027479904,0.9223493,-9.189829,9.972936,0.19740452,-0.1222212,-0.56025964,0.5593947,0
1.7500000000000013,11.680316602022737,0.39324086468989894,-0.4751541189734272,0.40907404675617715,15.43255,-1.2686905,-2.6220527,1.6431015,3.1983259,-3.3003244,1.6575493,0.37205446,-0.08763397,-0.028640024,0.92362106,-9.211475,9.9746895,0.21407078,-0.041842528,-0.5469579,0.5520184,0
1.7600000000000013,11.725399844555207,0.6104309977092263,-0.1858277691612761,0.26258405568456733,15.593125,-1.5093048,-3.0074642,1.8690287,3.1061049,-3.2005708,1.6597737,0.36943802,-0.08522577,-0.029438622,0.9248707,-9.23271,9.975956,0.23082031,0.026001934,-0.5357359,0.54500407,0
1.7700000000000014,11.725399844555207,0.6104309977092263,-0.1858277691612761,0.26258405568456733,15.593125,-1.5093048,-3.0074642,1.8690287,3.0136728,-3.1008065,1.6621683,0.36690357,-0.082822345,-0.029810484,0.92608535,-9.253566,9.976815,0.24810122,0.11711958,-0.48113674,0.5311457,0
1.7800000000000014,11.725399844555207,0.6104309977092263,-0.1858277691612761,0.26258405568456733,15.593125,-1.5093048,-3.0074642,1.8690287,2.9210348,-3.0010355,1.6647362,0.36446905,-0.08049456,-0.029707253,0.9272545,-9.27393,9.977372,0.26547205,0.19403161,-0.43505844,0.51796734,0
1.7900000000000014,11.725399844555207,0.6104309977092263,-0.1858277691612761,0.26258405568456733,15.593125,-1.5093048,-3.0074642,1.8690287,2.8281958,-2.9012597,1.6674781,0.36212438,-0.07823141,-0.029203527,0.9283821,-9.293775,9.977735,0.28293377,0.2589525,-0.39617115,0.50543565,0
1.8000000000000014,11.540471117051593,0.6420153419861381,-0.08520781440036804,0.15551938101275917,16.826563,-1.7749813,-3.994863,2.4168282,2.735161,-2.8014808,1.670395,0.35986072,-0.07602342,-0.028362216,0.9294712,-9.313083,9.977996,0.30048677,0.31375173,-0.3633526,0.49351883,0
1.8100000000000014,11.540471117051593,0.6420153419861381,-0.08520781440036804,0.15551938101275917,16.826563,-1.7749813,-3.994863,2.4168282,2.6419377,-2.7016997,1.673479,0.35768464,-0.07389499,-0.02721117,0.9305166,-9.331542,9.9782295,0.3163052,0.36492673,-0.3199637,0.47693312,0
1.8200000000000014,11.540471117051593,0.6420153419861381,-0.08520781440036804,0.15551938101275917,16.826563,-1.7749813,-3.994863,2.4168282,2.5485325,-2.601916,1.6767215,0.35560253,-0.071864985,-0.025775354,0.93151397,-9.349452,9.978518,0.33221102,0.40812442,-0.28334448,0.46116126,0
1.8300000000000014,11.540471117051593,0.6420153419861381,-0.08520781440036804,0.15551938101275917,16.826563,-1.7749813,-3.994863,2.4168282,2.4549506,-2.5021288,1.6801234,0.35360658,-0.069918394,-0.024099771,0.93246627,-9.366813,9.97893,0.3482017,0.44458786,-0.2524385,0.4461633,0
1.8400000000000014,11.540471117051593,0.6420153419861381,-0.08520781440036804,0.15551938101275917,16.609503,-1.7733811,-4.184983,2.3913054,2.361198,-2.4023368,1.6836858,0.35168996,-0.06804247,-0.022222353,0.933376,-9.38362,9.979527,0.36427417,0.47536683,-0.2263545,0.43190134,0
1.8500000000000014,11.540471117051593,0.6420153419861381,-0.08520781440036804,0.15551938101275917,16.609503,-1.7733811,-4.184983,2.3913054,2.2672799,-2.3025377,1.6874093,0.34984648,-0.0662264,-0.020175062,0.93424547,-9.399876,9.980358,0.38042518,0.5013475,-0.20433988,0.4183392,0
1.8600000000000014,11.540471117051593,0.6420153419861381,-0.08520781440036804,0.15551938101275917,16.609503,-1.7733811,-4.184983,2.3913054,2.1732023,-2.2027285,1.6912948,0.34807065,-0.06446099,-0.01798484,0.93507653,-9.415578,9.981465,0.39665115,0.5232778,-0.18575986,0.40544254,0
1.8700000000000014,11.540471117051593,0.6420153419861381,-0.08520781440036804,0.15551938101275917,16.609503,-1.7733811,-4.184983,2.3913054,2.0789702,-2.1029072,1.6953427,0.34635755,-0.06273848,-0.01567438,0.935871,-9.430728,9.982885,0.4129481,0.54178923,-0.17007828,0.39317876,0
1.8800000000000014,11.141865688386844,0.4894243504350135,-0.1917454477333599,0.0925115712127087,15.713533,-1.9573212,-4.2599964,2.397906,1.9845895,-2.0030699,1.6995538,0.3447028,-0.061052293,-0.013262814,0.9366305,-9.445327,9.984648,0.42931205,0.5574148,-0.15684304,0.38151675,0
1.8900000000000015,11.141865688386844,0.4894243504350135,-0.1917454477333599,0.0925115712127087,15.713533,-1.9573212,-4.2599964,2.397906,1.8900679,-1.9032134,1.7039093,0.3431055,-0.05937782,-0.010838609,0.9373555,-9.458889,9.986704,0.4417829,0.5468115,-0.16229378,0.36733517,0
1.9000000000000015,11.141865688386844,0.4894243504350135,-0.1917454477333599,0.0925115712127087,15.713533,-1.9573212,-4.2599964,2.397906,1.7954135,-1.8033346,1.7083898,0.34156588,-0.05769515,-0.008472705,0.938047,-9.471923,9.98911,0.45431027,0.5378615,-0.16689369,0.35384947,0
1.9100000000000015,11.141865688386844,0.4894243504350135,-0.1917454477333599,0.0925115712127087,15.713533,-1.9573212,-4.2599964,2.397906,1.7006313,-1.7034299,1.7129956,0.3400816,-0.056005497,-0.0061563477,0.9387065,-9.484432,9.991857,0.4668903,0.5303073,-0.17077547,0.34102553,0
1.9200000000000015,10.729563252193914,0.21509542427763426,-0.3219411454517539,0.07872331906843251,15.565107,-2.0873759,-4.497774,2.479602,1.6057267,-1.6034962,1.7177277,0.33865035,-0.054309923,-0.0038821173,0.9393355,-9.496418,9.994937,0.4795194,0.52393097,-0.17405134,0.3288309,0
1.9300000000000015,10.729563252193914,0.21509542427763426,-0.3219411454517539,0.07872331906843251,15.565107,-2.0873759,-4.497774,2.479602,1.510707,-1.5035307,1.7225659,0.3372654,-0.052597493,-0.0017645886,0.9399374,-9.5074625,9.998213,0.48809475,0.47577175,-0.19712877,0.31655803,0
1.9400000000000015,10.729563252193914,0.21509542427763426,-0.3219411454517539,0.07872331906843251,15.565107,-2.0873759,-4.497774,2.479602,1.4155793,-1.4035311,1.72749,0.33592173,-0.05085942,0.000105788145,0.9405157,-9.518019,10.001756,0.49671093,0.4351218,-0.21660507,0.3048874,0
1.9500000000000015,10.729563252193914,0.21509542427763426,-0.3219411454517539,0.07872331906843251,15.565107,-2.0873759,-4.497774,2.479602,1.3203483,-1.3034948,1.7325003,0.33461934,-0.0490995,0.0017673156,0.9410716,-9.528099,10.005519,0.5053655,0.40081054,-0.2330418,0.2937895,0
1.9600000000000015,10.635221201433943,-0.1381973344317306,-0.21392490238728384,0.14408250536169756,15.52879,-1.9813776,-4.6451344,2.5250914,1.2250189,-1.20342,1.7375975,0.3333577,-0.04732098,0.0032523477,0.9416064,-9.537715,10.009464,0.51405644,0.37184948,-0.24691364,0.28323615,0
1.9700000000000015,10.635221201433943,-0.1381973344317306,-0.21392490238728384,0.14408250536169756,15.52879,-1.9813776,-4.6451344,2.5250914,1.129596,-1.1033052,1.742777,0.33212173,-0.045614377,0.0044698175,0.94212216,-9.5468,10.013517,0.52184236,0.2923059,-0.24178502,0.27640784,0
1.9800000000000015,10.635221201433943,-0.1381973344317306,-0.21392490238728384,0.14408250536169756,15.52879,-1.9813776,-4.6451344,2.5250914,1.0340842,-1.0031494,1.7480344,0.33089852,-0.04405143,0.0053488784,0.9426223,-9.555482,10.01766,0.52965844,0.22516729,-0.23745333,0.26991457,0
1.9900000000000015,10.635221201433943,-0.1381973344317306,-0.21392490238728384,0.14408250536169756,15.52879,-1.9813776,-4.6451344,2.5250914,0.93848747,-0.9029519,1.75337,0.3296899,-0.04260944,0.0059420154,0.94310844,-9.563813,10.021838,0.53750145,0.16849901,-0.2337947,0.26373994,0
2.0000000000000013,,,,,15.758558,-2.3816328,-4.890189,2.69559,0.842809,-0.8027127,1.7587844,0.3284972,-0.041269287,0.0062935688,0.9435818,-9.571834,10.02601,0.54536873,0.12066846,-0.2307046,0.25786832,0
2.010000000000001,,,,,15.758558,-2.3816328,-4.890189,2.69559,0.7470517,-0.7024319,1.7642776,0.32729903,-0.040044673,0.006275411,0.94405097,-9.579583,10.030127,0.55326056,0.015220741,-0.2383716,0.2588138,0
2.020000000000001,,,,,15.758558,-2.3816328,-4.890189,2.69559,0.65121806,-0.6021106,1.7698497,0.32607627,-0.038945388,0.005787981,0.9445231,-9.587115,10.034112,0.561173,-0.07378277,-0.24484015,0.25971287,0
2.0300000000000007,,,,,15.758558,-2.3816328,-4.890189,2.69559,0.55530995,-0.50175047,1.775501,0.3248325,-0.037951354,0.0049043205,0.944997,-9.594485,10.037886,0.5691047,-0.14890641,-0.2502978,0.2605678,0
2.0400000000000005,,,,,15.758558,-2.3816328,-4.890189,2.69559,0.4593288,-0.4013539,1.7812318,0.32357055,-0.0370457,0.003686102,0.94547135,-9.601738,10.041379,0.57705396,-0.21231458,-0.25490233,0.2613808,0
2.0500000000000003,,,,,16.038652,-2.640731,-4.9276385,2.770236,0.3632755,-0.30092403,1.7870421,0.3222927,-0.036214225,0.0021854048,0.94594455,-9.608911,10.044536,0.5850193,-0.26583445,-0.25878713,0.2621539,1
2.06,,,,,16.038652,-2.640731,-4.9276385,2.770236,0.26712665,-0.20045502,1.7932934,0.32073885,-0.034259588,-0.00030957337,0.94654775,-9.620772,10.049091,0.6645868,-0.45181847,-0.8027209,0.36872232,1
2.07,,,,,16.038652,-2.640731,-4.9276385,2.770236,0.17086293,-0.09994725,1.8003201,0.31864193,-0.030141853,-0.00453711,0.94738483,-9.631805,10.0521755,0.7401627,-0.65109926,-1.3042204,0.47384924,1
2.0799999999999996,,,,,16.038652,-2.640731,-4.9276385,2.770236,0.07449496,0.00058093853,1.8080833,0.31598973,-0.024064772,-0.010485939,0.9483993,-9.641556,10.053067,0.81189704,-0.86024666,-1.7685391,0.57748324,1
2.0899999999999994,,,,,15.964951,-2.6401427,-5.1400905,2.8457406,-0.021962488,0.10110435,1.8165451,0.31276727,-0.01620416,-0.018137978,0.94951826,-9.649649,10.051125,0.87989134,-1.076443,-2.2001894,0.6795826,1
2.099999999999999,,,,,15.964951,-2.6401427,-5.1400905,2.8457406,-0.11849148,0.20159158,1.8256747,0.30895323,-0.006665633,-0.027428932,0.9506582,-9.655815,10.045741,0.94543016,-1.2766969,-2.6155913,0.7819794,1
2.109999999999999,,,,,15.964951,-2.6401427,-5.1400905,2.8457406,-0.21507098,0.3020057,1.8354412,0.3045247,0.0044531864,-0.038295615,0.9517238,-9.65971,10.0364275,1.0074513,-1.4810125,-3.001565,0.8825175,1
2.1199999999999988,,,,,15.964951,-2.6401427,-5.1400905,2.8457406,-0.3116771,0.40230435,1.8458207,0.29947102,0.01697582,-0.050628427,0.95260984,-9.661096,10.022539,1.0683818,-1.6613783,-3.3352742,0.9788534,1
2.1299999999999986,,,,,14.146915,-2.4372137,-4.6552553,2.7764564,-0.40828326,0.50243884,1.8568071,0.29379553,0.030681832,-0.0642004,0.9532161,-9.659672,10.003524,1.1287789,-1.8136214,-3.616939,1.0704621,1
2.1399999999999983,,,,,14.146915,-2.4372137,-4.6552553,2.7764564,-0.5048622,0.60236925,1.8683037,0.2875238,0.04521399,-0.078672096,0.9534654,-9.655674,9.981783,1.1704009,-1.9105517,-3.7790356,1.1541756,1
2.149999999999998,,,,,14.146915,-2.4372137,-4.6552553,2.7764564,-0.60138667,0.702057,1.8802117,0.2806862,0.060274795,-0.09376384,0.95330495,-9.648757,9.954948,1.211019,-1.9923786,-3.9158463,1.2337813,1
2.159999999999998,,,,,14.146915,-2.4372137,-4.6552553,2.7764564,-0.6978268,0.8014504,1.8925196,0.2732964,0.07576194,-0.109365605,0.9526847,-9.638773,9.922902,1.2503374,-2.0614593,-4.031314,1.3094808,1
2.1699999999999977,,,,,13.132763,-2.1048894,-3.7260756,2.5135412,-0.7941512,0.9004969,1.9052129,0.2653694,0.09158565,-0.12538248,0.951562,-9.625588,9.885579,1.2880439,-2.1197815,-4.128766,1.3814658,1
2.1799999999999975,,,,,13.132763,-2.1048894,-3.7260756,2.5135412,-0.89033294,0.99915874,1.9182259,0.25698975,0.10735284,-0.14150614,0.9499513,-9.610279,9.846033,1.314225,-2.1173682,-4.066042,1.4370172,1
2.1899999999999973,,,,,13.132763,-2.1048894,-3.7260756,2.5135412,-0.9863462,1.0974013,1.9314905,0.24824396,0.12274857,-0.15749243,0.94789433,-9.591897,9.801718,1.3383641,-2.1153336,-4.013095,1.4898425,1
2.199999999999997,,,,,13.132763,-2.1048894,-3.7260756,2.5135412,-1.0821604,1.1951774,1.9449854,0.23914956,0.13780528,-0.17335114,0.9453922,-9.570465,9.752808,1.3602333,-2.1136181,-3.9684021,1.5400758,1
