time-since-start [s],throttle_mpc,roll_mpc,pitch_mpc,yaw_mpc,throttle_nw,roll_nw,pitch_nw,yaw_nw,position_x [m],position_y [m],position_z [m],rotation_w [quaternion],rotation_x [quaternion],rotation_y [quaternion],rotation_z [quaternion],velocity_x [m/s],velocity_y [m/s],velocity_z [m/s],omega_x [rad/s],omega_y [rad/s],omega_z [rad/s],network_used
0.0,11.391677725042607,-5.999998790157913,-6.0,5.999999964131854,11.414516,-1.8272548,-5.290781,-1.3761047,18.355885,-9.814914,1.9594383,0.11226715,0.48129898,-0.20184672,-0.84557986,-11.745883,-6.44068,0.09428011,1.8713328,-0.18862069,-0.27076226,0
0.01,11.391677725042607,-5.999998790157913,-6.0,5.999999964131854,13.340648,-5.0078335,-5.8365207,0.71433383,18.237476,-9.879059,1.9603918,0.107150644,0.48199835,-0.20906048,-0.8440913,-11.934905,-6.3879633,0.09577039,1.7097049,-0.028770763,-0.061903127,0
0.02,11.391677725042607,-5.999998790157913,-6.0,5.999999964131854,13.340648,-5.0078335,-5.8365207,0.71433383,18.117199,-9.942665,1.9613408,0.10341063,0.4829771,-0.21604063,-0.8422386,-12.119876,-6.332978,0.09357489,1.5645022,0.09736113,0.14095646,0
0.03,11.391677725042607,-5.999998790157913,-6.0,5.999999964131854,13.340648,-5.0078335,-5.8365207,0.71433383,17.995085,-10.005711,1.9622532,0.100969456,0.4840632,-0.22281325,-0.8401442,-12.302425,-6.2757883,0.08844728,1.4137266,0.17558122,0.33646405,0
0.04,11.391677725042607,-5.999998790157913,-6.0,5.999999964131854,7.3925247,-2.9621058,-5.9595747,1.6134742,17.871157,-10.068174,1.9630997,0.09976491,0.48507005,-0.22936334,-0.8379418,-12.482565,-6.216853,0.0803892,1.2566547,0.21175228,0.52504134,0
0.05,11.391677725042607,-5.999998790157913,-6.0,5.999999964131854,7.3925247,-2.9621058,-5.9595747,1.6134742,17.745441,-10.130043,1.9638511,0.09974044,0.4858349,-0.23567186,-0.8357482,-12.660246,-6.156601,0.06947057,1.0933223,0.21147117,0.7071143,0
0.060000000000000005,11.391677725042607,-5.999998790157913,-6.0,5.999999964131854,7.3925247,-2.9621058,-5.9595747,1.6134742,17.617962,-10.191303,1.9644797,0.1008442,0.4862161,-0.2417178,-0.8336647,-12.835407,-6.0954237,0.05583694,0.92393464,0.1796421,0.883072,0
0.07,11.391677725042607,-5.999998790157913,-6.0,5.999999964131854,7.3925247,-2.9621058,-5.9595747,1.6134742,17.488743,-10.251949,1.9649593,0.10302844,0.48609018,-0.2474793,-0.83177847,-13.0079775,-6.033682,0.039696816,0.7488217,0.12056327,1.0532703,0
0.08,12.5859935122101,-5.9999996040434995,-6.0,5.99999999913493,11.382933,-3.1035528,-7.733188,2.0406451,17.357811,-10.311976,1.9652659,0.10624881,0.48534918,-0.25293452,-0.83016354,-13.177877,-5.9717007,0.021309922,0.56839985,0.038003743,1.218035,0
0.09,12.5859935122101,-5.9999996040434995,-6.0,5.99999999913493,11.382933,-3.1035528,-7.733188,2.0406451,17.225157,-10.371369,1.9653965,0.11048841,0.48382005,-0.25800675,-0.8289409,-13.352627,-5.906958,0.0045253728,0.3509181,-0.09701441,1.3805455,0
0.09999999999999999,12.5859935122101,-5.9999996040434995,-6.0,5.99999999913493,11.382933,-3.1035528,-7.733188,2.0406451,17.090769,-10.430117,1.9653506,0.115730464,0.48134702,-0.262626,-0.82821447,-13.524267,-5.8426104,-0.013927538,0.13129443,-0.24712655,1.5383085,0
0.10999999999999999,12.5859935122101,-5.9999996040434995,-6.0,5.99999999913493,11.382933,-3.1035528,-7.733188,2.0406451,16.954681,-10.488223,1.9651138,0.12193433,0.47786385,-0.2667806,-0.82801354,-13.692683,-5.778917,-0.033599928,-0.09013721,-0.40997756,1.691557,0
0.11999999999999998,12.5859935122101,-5.9999996040434995,-6.0,5.99999999913493,11.382933,-3.1035528,-7.733188,2.0406451,16.816925,-10.545697,1.964676,0.12906061,0.47331017,-0.27045864,-0.8283557,-13.857754,-5.7161007,-0.05403898,-0.3130216,-0.58350575,1.8405062,0
0.12999999999999998,16.888869036562717,6.0,-6.0,-4.624525621913621,12.033962,-2.5316389,-8.191203,3.358199,16.677536,-10.602549,1.9640319,0.13707073,0.4676305,-0.27364767,-0.82924694,-14.019347,-5.6543503,-0.074795306,-0.5369944,-0.7659059,1.9853547,0
0.13999999999999999,16.888869036562717,6.0,-6.0,-4.624525621913621,12.033962,-2.5316389,-8.191203,3.358199,16.53625,-10.658673,1.9633269,0.14493105,0.46175018,-0.27648953,-0.83026236,-14.237245,-5.570837,-0.06617667,-0.4241346,-0.67558885,1.7426856,0
0.15,16.888869036562717,6.0,-6.0,-4.624525621913621,12.033962,-2.5316389,-8.191203,3.358199,16.392803,-10.713969,1.9627098,0.15161096,0.45652846,-0.27919552,-0.8310512,-14.451188,-5.4885235,-0.057195522,-0.2985572,-0.6296231,1.5085864,0
0.16,20.999999572494627,6.0,-6.0,-4.91472087311877,13.340163,0.8972564,-6.4763484,0.70309097,16.247238,-10.768447,1.9621834,0.15705454,0.45179835,-0.28189352,-0.8317142,-14.66144,-5.407128,-0.04809321,-0.15744269,-0.62592065,1.2828411,0
0.17,20.999999572494627,6.0,-6.0,-4.91472087311877,13.340163,0.8972564,-6.4763484,0.70309097,16.099445,-10.822058,1.9618219,0.16103828,0.44730607,-0.2848573,-0.83237046,-14.8967285,-5.3151193,-0.024262607,0.06849233,-0.72953594,1.0443982,0
0.18000000000000002,20.999999572494627,6.0,-6.0,-4.91472087311877,13.340163,0.8972564,-6.4763484,0.70309097,15.949322,-10.87475,1.9616958,0.1633532,0.4428217,-0.2883419,-0.83311695,-15.127281,-5.2234178,-0.0010996121,0.3045865,-0.86246157,0.8135976,0
0.19000000000000003,20.999999572494627,6.0,-6.0,-4.91472087311877,13.340163,0.8972564,-6.4763484,0.70309097,15.796918,-10.926525,1.9617968,0.16397232,0.4382369,-0.29243436,-0.8339927,-15.352892,-5.131385,0.021143507,0.5497686,-1.0206546,0.59001714,0
0.20000000000000004,21.0,6.0,-6.0,-5.008605494426444,13.281454,2.4705334,-7.7559743,0.20069328,15.6422825,-10.977375,1.9621147,0.16287255,0.43345332,-0.29721007,-0.8350193,-15.573336,-5.038363,0.04224558,0.80298096,-1.2005452,0.37326932,0
0.21000000000000005,21.0,6.0,-6.0,-5.008605494426444,13.281454,2.4705334,-7.7559743,0.20069328,15.485464,-11.027286,1.9626399,0.16005145,0.42840597,-0.30269557,-0.8361983,-15.78939,-4.943245,0.06257353,1.0500834,-1.3858782,0.15956223,0
0.22000000000000006,21.0,6.0,-6.0,-5.008605494426444,13.281454,2.4705334,-7.7559743,0.20069328,15.326514,-11.076233,1.963361,0.15550639,0.423033,-0.30891138,-0.8375171,-15.999791,-4.8458285,0.08141113,1.3047297,-1.5884979,-0.047781076,0
0.23000000000000007,21.0,6.0,-6.0,-5.008605494426444,13.281454,2.4705334,-7.7559743,0.20069328,15.16549,-11.124192,1.9642624,0.14921902,0.41725087,-0.3159055,-0.83895135,-16.204237,-4.745518,0.09859214,1.565827,-1.8057956,-0.24908075,0
0.24000000000000007,21.0,6.0,-6.0,-5.008605494426444,13.642384,3.0065706,-8.574545,-0.11149219,15.002452,-11.171132,1.9653267,0.14117394,0.4109801,-0.32371342,-0.84046125,-16.40238,-4.6417456,0.11396205,1.832349,-2.035465,-0.44463196,0
0.25000000000000006,21.0,6.0,-6.0,-5.008605494426444,13.642384,3.0065706,-8.574545,-0.11149219,14.837465,-11.217013,1.9665349,0.13135871,0.40414414,-0.33235785,-0.8419922,-16.59384,-4.533981,0.12737472,2.10334,-2.2754676,-0.63470715,0
0.26000000000000006,21.0,6.0,-6.0,-5.008605494426444,13.642384,3.0065706,-8.574545,-0.11149219,14.670599,-11.261796,1.9678669,0.119763985,0.39666843,-0.341849,-0.8434751,-16.778187,-4.4217424,0.13868977,2.377913,-2.5240018,-0.81955826,0
0.2700000000000001,21.0,6.0,-6.0,-5.008605494426444,13.642384,3.0065706,-8.574545,-0.11149219,14.501927,-11.305432,1.969301,0.10638395,0.38848007,-0.35218436,-0.84482664,-16.954947,-4.3046126,0.14777024,2.65525,-2.7794757,-0.9994184,0
0.2800000000000001,21.0,6.0,-6.0,-4.931338030649086,14.807873,4.9963913,-10.846471,-1.954261,14.331528,-11.347871,1.9708142,0.09121683,0.37950742,-0.36334884,-0.84594995,-17.123596,-4.1822443,0.1544809,2.9345996,-3.0404835,-1.1745038,0
0.2900000000000001,21.0,6.0,-6.0,-4.931338030649086,14.807873,4.9963913,-10.846471,-1.954261,14.159488,-11.389061,1.9723798,0.07425117,0.3696564,-0.37534276,-0.84673417,-17.282845,-4.054954,0.15822431,3.2260568,-3.3165748,-1.3421876,0
0.3000000000000001,21.0,6.0,-6.0,-4.931338030649086,14.807873,4.9963913,-10.846471,-1.954261,13.985903,-11.428951,1.9739697,0.05548349,0.35883635,-0.38814786,-0.8470534,-17.432785,-3.9220407,0.15931016,3.5169528,-3.5946078,-1.505661,0
0.3100000000000001,21.0,6.0,-6.0,-4.931338030649086,14.807873,4.9963913,-10.846471,-1.954261,13.810867,-11.4674835,1.9755564,0.034932498,0.34698266,-0.4017024,-0.8467692,-17.572756,-3.7834284,0.15760233,3.8068442,-3.8737433,-1.6650828,0
0.3200000000000001,21.0,6.0,-6.0,-4.718625774458397,15.63504,6.4714108,-11.9023285,-3.7897007,13.634484,-11.504601,1.9771116,0.012624389,0.33403298,-0.4159321,-0.8457324,-17.702063,-3.6391654,0.15296273,4.0953293,-4.153246,-1.8206017,0
0.3300000000000001,21.0,6.0,-6.0,-4.718625774458397,15.63504,6.4714108,-11.9023285,-3.7897007,13.45687,-11.540254,1.9786016,-0.011418896,0.31988198,-0.43079332,-0.8437786,-17.819424,-3.4901042,0.14483313,4.3916087,-4.442003,-1.9628085,0
0.34000000000000014,21.0,6.0,-6.0,-4.718625774458397,15.63504,6.4714108,-11.9023285,-3.7897007,13.278131,-11.574375,1.9800031,-0.03704238,0.3045522,-0.44610667,-0.8407524,-17.926796,-3.3328562,0.13522176,4.641713,-4.6856995,-2.0980372,0
0.35000000000000014,21.0,6.0,-6.0,-4.718625774458397,15.63504,6.4714108,-11.9023285,-3.7897007,13.098372,-11.606884,1.9813002,-0.06402562,0.2881683,-0.46161157,-0.83652526,-18.023066,-3.1676764,0.123910226,4.8528476,-4.8913584,-2.2266302,0
0.36000000000000015,21.0,6.0,-6.0,-4.489568594424583,18.867342,11.04608,-10.541027,-6.6064696,12.917711,-11.637703,1.9824748,-0.09216539,0.27084395,-0.47708344,-0.83098763,-18.107183,-2.9950416,0.11069005,5.031091,-5.0649095,-2.348913,0
0.37000000000000016,21.0,6.0,-6.0,-4.489568594424583,18.867342,11.04608,-10.541027,-6.6064696,12.736274,-11.666761,1.9835068,-0.12124944,0.25267035,-0.4923365,-0.8240516,-18.17818,-2.8156278,0.09536776,5.1816125,-5.2113214,-2.4539557,0
0.38000000000000017,21.0,6.0,-6.0,-4.489568594424583,18.867342,11.04608,-10.541027,-6.6064696,12.554195,-11.693995,1.9843743,-0.1510797,0.23373184,-0.50721115,-0.8156478,-18.235182,-2.6302865,0.0777688,5.3086953,-5.3348637,-2.5538437,0
0.3900000000000002,21.0,6.0,-6.0,-4.489568594424583,18.867342,11.04608,-10.541027,-6.6064696,12.371621,-11.71935,1.9850538,-0.18149321,0.21412034,-0.5215627,-0.80572027,-18.277422,-2.440022,0.05774099,5.4159946,-5.439105,-2.6488302,0
0.4000000000000002,21.0,4.069334416342691,-5.999999809990206,-2.2555426430779093,20.788324,8.313489,-12.654498,-5.2838416,12.1887,-11.742783,1.9855202,-0.21233626,0.19392231,-0.5352669,-0.79422724,-18.304255,-2.245969,0.035157766,5.506593,-5.5270567,-2.7391558,0
0.4100000000000002,21.0,4.069334416342691,-5.999999809990206,-2.2555426430779093,20.788324,8.313489,-12.654498,-5.2838416,12.0055895,-11.76426,1.9857479,-0.2431033,0.17324682,-0.54766816,-0.78163034,-18.315208,-2.0493932,0.009976478,5.282409,-5.6003304,-2.715425,0
0.4200000000000002,21.0,4.069334416342691,-5.999999809990206,-2.2555426430779093,20.788324,8.313489,-12.654498,-5.2838416,11.822449,-11.783767,1.9857119,-0.27338022,0.15220517,-0.55828905,-0.7683816,-18.310179,-1.8517382,-0.017504998,5.0932045,-5.662249,-2.6928585,0
0.4300000000000002,21.0,4.069334416342691,-5.999999809990206,-2.2555426430779093,20.788324,8.313489,-12.654498,-5.2838416,11.63944,-11.801297,1.9853913,-0.3031527,0.13087176,-0.5672692,-0.75443804,-18.289265,-1.6544473,-0.04690965,4.933521,-5.714572,-2.6713994,0
0.4400000000000002,21.0,4.069334416342691,-5.999999809990206,-2.2555426430779093,22.043587,7.299138,-12.153681,-3.963516,11.4567175,-11.816862,1.9847683,-0.3324002,0.109309316,-0.57472634,-0.73976433,-18.252663,-1.4589025,-0.077904925,4.7987514,-5.758786,-2.6509933,0
0.45000000000000023,21.0,4.069334416342691,-5.999999809990206,-2.2555426430779093,22.043587,7.299138,-12.153681,-3.963516,11.274439,-11.830485,1.9838288,-0.3610975,0.08757176,-0.5807598,-0.7243327,-18.200672,-1.2664264,-0.11019752,4.6850076,-5.796148,-2.6315885,0
0.46000000000000024,21.0,4.069334416342691,-5.999999809990206,-2.2555426430779093,22.043587,7.299138,-12.153681,-3.963516,11.092756,-11.842206,1.9825609,-0.3892161,0.06570632,-0.5854535,-0.7081227,-18.133675,-1.0782846,-0.14352867,4.58901,-5.827719,-2.6131358,0
0.47000000000000025,21.0,4.069334416342691,-5.999999809990206,-2.2555426430779093,22.043587,7.299138,-12.153681,-3.963516,10.911817,-11.852071,1.9809554,-0.41672495,0.04375509,-0.58887863,-0.6911207,-18.052141,-0.8956848,-0.17766994,4.5079885,-5.8543963,-2.5955887,0
0.48000000000000026,21.0,2.420341819802286,-4.479140654897425,-0.853669933566258,21.159021,7.051169,-10.550138,-3.418039,10.731762,-11.860143,1.9790053,-0.44359145,0.021756442,-0.59109586,-0.6733194,-17.956621,-0.7197757,-0.21241961,4.4396067,-5.876939,-2.5789027,0
0.49000000000000027,21.0,2.420341819802286,-4.479140654897425,-0.853669933566258,21.159021,7.051169,-10.550138,-3.418039,10.55273,-11.866493,1.9767054,-0.4693065,0.00034839055,-0.5920098,-0.65519136,-17.847813,-0.55160373,-0.24758308,4.1253834,-5.658196,-2.494245,0
0.5000000000000002,21.0,2.420341819802286,-4.479140654897425,-0.853669933566258,21.159021,7.051169,-10.550138,-3.418039,10.374847,-11.871204,1.974053,-0.49350548,-0.019968264,-0.59162825,-0.63720447,-17.72686,-0.39188063,-0.28289467,3.86007,-5.473688,-2.4137416,0
0.5100000000000002,21.0,2.420341819802286,-4.479140654897425,-0.853669933566258,21.159021,7.051169,-10.550138,-3.418039,10.19823,-11.874362,1.9710479,-0.5163502,-0.039349742,-0.590128,-0.6193407,-17.59496,-0.2411124,-0.3180914,3.6360552,-5.318054,-2.3371882,0
0.5200000000000002,21.0,1.2790923508255554,-2.5088990479614757,-0.8118083080794,21.465006,7.055661,-9.20145,-2.758546,10.022982,-11.87606,1.9676923,-0.5379747,-0.05793057,-0.5876497,-0.60157716,-17.453215,-0.09970887,-0.35294688,3.4469113,-5.186774,-2.2643914,0
0.5300000000000002,21.0,1.2790923508255554,-2.5088990479614757,-0.8118083080794,21.465006,7.055661,-9.20145,-2.758546,9.849196,-11.87639,1.9639908,-0.55806303,-0.07511157,-0.58447444,-0.58422047,-17.30269,0.032060497,-0.3872766,3.1096804,-4.768518,-2.1931129,0
0.5400000000000003,21.0,1.2790923508255554,-2.5088990479614757,-0.8118083080794,21.465006,7.055661,-9.20145,-2.758546,9.676954,-11.875451,1.959949,-0.57641894,-0.09043649,-0.5808923,-0.56756204,-17.144642,0.15437959,-0.42097095,2.824901,-4.415599,-2.1253319,0
0.5500000000000003,21.0,1.2790923508255554,-2.5088990479614757,-0.8118083080794,21.465006,7.055661,-9.20145,-2.758546,9.506325,-11.873334,1.9555739,-0.5932999,-0.10420475,-0.5770047,-0.5515454,-16.980228,0.26759875,-0.45394796,2.5844188,-4.117808,-2.0608768,0
0.5600000000000003,21.0,0.08918580959240169,-0.8391575902762072,0.2736152917008447,20.830343,6.505924,-6.675451,-1.9312934,9.337367,-11.870129,1.9508729,-0.60891753,-0.11666994,-0.57288194,-0.5361099,-16.810423,0.3720665,-0.4861332,2.381346,-3.8665314,-1.9995847,0
0.5700000000000003,21.0,0.08918580959240169,-0.8391575902762072,0.2736152917008447,20.830343,6.505924,-6.675451,-1.9312934,9.170132,-11.865921,1.9458542,-0.6230573,-0.12747736,-0.568722,-0.52163625,-16.636076,0.468183,-0.51746213,2.0247488,-3.3938007,-1.8880382,0
0.5800000000000003,21.0,0.08918580959240169,-0.8391575902762072,0.2736152917008447,20.830343,6.505924,-6.675451,-1.9312934,9.004658,-11.860792,1.9405267,-0.6355846,-0.13637632,-0.56471527,-0.50845885,-16.458094,0.5567164,-0.54789114,1.7235979,-2.9949148,-1.7819651,0
0.5900000000000003,21.0,0.08918580959240169,-0.8391575902762072,0.2736152917008447,20.830343,6.505924,-6.675451,-1.9312934,8.84098,-11.854811,1.9348997,-0.6467596,-0.14370209,-0.56088346,-0.49644879,-16.277258,0.63849705,-0.5773877,1.4692785,-2.6583328,-1.6810973,0
0.6000000000000003,21.0,-0.6885726323256793,0.4261577133489836,1.4181076080923019,22.741243,5.925008,-4.2593346,-0.96633965,8.679122,-11.8480425,1.9289825,-0.6567941,-0.1497349,-0.5572303,-0.48548463,-16.09418,0.7142621,-0.6059257,1.254514,-2.374319,-1.5851791,0
0.6100000000000003,21.0,-0.6885726323256793,0.4261577133489836,1.4181076080923019,22.741243,5.925008,-4.2593346,-0.96633965,8.519102,-11.840544,1.9227847,-0.6655614,-0.15433885,-0.55391467,-0.4758004,-15.909356,0.78471136,-0.6334915,0.9521301,-1.937181,-1.437807,0
0.6200000000000003,21.0,-0.6885726323256793,0.4261577133489836,1.4181076080923019,22.741243,5.925008,-4.2593346,-0.96633965,8.360937,-11.832364,1.9163159,-0.672974,-0.15743186,-0.55106896,-0.46759394,-15.723272,0.8507584,-0.6601144,0.6967539,-1.5683155,-1.2976665,0
0.6300000000000003,21.0,-0.6885726323256793,0.4261577133489836,1.4181076080923019,22.741243,5.925008,-4.2593346,-0.96633965,8.2046385,-11.823541,1.9095855,-0.6792379,-0.15929888,-0.54864264,-0.4607069,-15.536324,0.913297,-0.68583786,0.4810866,-1.2570534,-1.1644026,0
0.6400000000000003,21.0,-0.6885726323256793,0.4261577133489836,1.4181076080923019,22.235863,5.389686,-3.0479016,-0.46962407,8.050214,-11.814106,1.9026021,-0.68452024,-0.16017604,-0.54658353,-0.45499653,-15.348812,0.9730947,-0.7107052,0.29896134,-0.99439406,-1.037678,0
0.6500000000000004,21.0,-0.6885726323256793,0.4261577133489836,1.4181076080923019,22.235863,5.389686,-3.0479016,-0.46962407,7.897665,-11.804085,1.8953741,-0.6889578,-0.16025892,-0.5448409,-0.45033568,-15.160966,1.0308071,-0.7347588,0.14516768,-0.772744,-0.91717184,0
0.6600000000000004,21.0,-0.6885726323256793,0.4261577133489836,1.4181076080923019,22.235863,5.389686,-3.0479016,-0.46962407,7.746995,-11.793494,1.8879094,-0.69266313,-0.15970942,-0.5433674,-0.44661188,-14.972962,1.0869929,-0.75804,0.01530266,-0.5856969,-0.802579,0
0.6700000000000004,21.0,-0.6885726323256793,0.4261577133489836,1.4181076080923019,22.235863,5.389686,-3.0479016,-0.46962407,7.5982056,-11.782348,1.8802158,-0.6957294,-0.15866147,-0.54212,-0.443726,-14.784941,1.1421266,-0.78058845,-0.09435268,-0.4278479,-0.69360924,0
0.6800000000000004,21.0,-1.0793854059051902,1.0793831353182448,1.9050147276900256,22.469534,4.476198,-1.9891238,-0.6677236,7.451296,-11.770654,1.8723,-0.6982343,-0.1572257,-0.5410601,-0.4415909,-14.59701,1.1966101,-0.80244184,-0.18694046,-0.2946365,-0.5899867,0
0.6900000000000004,21.0,-1.0793854059051902,1.0793831353182448,1.9050147276900256,22.469534,4.476198,-1.9891238,-0.6677236,7.306265,-11.758416,1.864169,-0.7000999,-0.15530148,-0.54025835,-0.44029775,-14.409264,1.2508112,-0.82364035,-0.3260269,-0.08033105,-0.46755624,0
0.7000000000000004,21.0,-1.0793854059051902,1.0793831353182448,1.9050147276900256,22.469534,4.476198,-1.9891238,-0.6677236,7.16311,-11.745636,1.8558291,-0.70126337,-0.15281649,-0.53976744,-0.43991756,-14.221815,1.3051988,-0.84424984,-0.44346455,0.10052864,-0.35113347,0
0.7100000000000004,21.0,-1.0793854059051902,1.0793831353182448,1.9050147276900256,22.469534,4.476198,-1.9891238,-0.6677236,7.021827,-11.73231,1.8472859,-0.70180464,-0.14989182,-0.5395309,-0.4403506,-14.034767,1.3602219,-0.86434007,-0.5426188,0.2531644,-0.24042359,0
0.7200000000000004,21.0,-1.2637555158333131,1.3172700715709218,2.0758758015941132,21.961065,4.052656,-1.3117062,-0.54628223,6.8824124,-11.71843,1.838544,-0.70179045,-0.14662759,-0.53949946,-0.44150922,-13.848213,1.4162581,-0.88397366,-0.6263326,0.38198304,-0.1351463,0
0.7300000000000004,21.0,-1.2637555158333131,1.3172700715709218,2.0758758015941132,21.961065,4.052656,-1.3117062,-0.54628223,6.7448606,-11.703981,1.8296078,-0.70122635,-0.14302391,-0.539662,-0.44338495,-13.662236,1.4736351,-0.90320736,-0.72576195,0.5277983,-0.026650827,0
0.7400000000000004,21.0,-1.2637555158333131,1.3172700715709218,2.0758758015941132,21.961065,4.052656,-1.3117062,-0.54628223,6.609165,-11.6889515,1.8204811,-0.70011705,-0.13908477,-0.54000545,-0.44596553,-13.476931,1.5326889,-0.922097,-0.8097029,0.6508634,0.076520756,0
0.7500000000000004,21.0,-1.2637555158333131,1.3172700715709218,2.0758758015941132,21.961065,4.052656,-1.3117062,-0.54628223,6.475319,-11.673321,1.8111669,-0.6985124,-0.13489078,-0.54048836,-0.4491735,-13.292394,1.5937216,-0.9406939,-0.88056517,0.7547295,0.17462967,0
0.7600000000000005,21.0,-1.293085381742788,1.2566861131556497,2.079545621005439,21.340382,3.9557736,-0.6006241,-0.7611398,6.3433137,-11.657069,1.8016679,-0.69645464,-0.13050845,-0.54107547,-0.45294088,-13.108717,1.656984,-0.95904344,-0.9403845,0.8423939,0.2679244,0
0.7700000000000005,21.0,-1.293085381742788,1.2566861131556497,2.079545621005439,21.340382,3.9557736,-0.6006241,-0.7611398,6.213141,-11.640172,1.7919866,-0.69399405,-0.12599571,-0.5417146,-0.45721135,-12.925989,1.722682,-0.9771829,-0.99545145,0.90693545,0.35682115,0
0.7800000000000005,21.0,-1.293085381742788,1.2566861131556497,2.079545621005439,21.340382,3.9557736,-0.6006241,-0.7611398,6.08479,-11.622606,1.7821248,-0.6911728,-0.12140017,-0.5423631,-0.46193516,-12.744301,1.7909784,-0.9951321,-1.0419328,0.96141076,0.44135574,0
0.7900000000000005,21.0,-1.293085381742788,1.2566861131556497,2.079545621005439,21.340382,3.9557736,-0.6006241,-0.7611398,5.958251,-11.604342,1.7720844,-0.6880131,-0.116758004,-0.5430062,-0.4670648,-12.563741,1.8620033,-1.0129033,-1.0811658,1.0073907,0.52174217,0
0.8000000000000005,21.0,-1.241435671752418,1.0235969222993344,1.9194309545956567,20.787928,2.8163812,0.24480627,-0.76597387,5.8335114,-11.585356,1.7618673,-0.68453425,-0.1120986,-0.5436314,-0.4725582,-12.384396,1.9358606,-1.0305068,-1.1142796,1.0462017,0.59818405,0
0.8100000000000005,21.0,-1.241435671752418,1.0235969222993344,1.9194309545956567,20.787928,2.8163812,0.24480627,-0.76597387,5.7105584,-11.565616,1.751475,-0.68081146,-0.10749336,-0.544177,-0.4783429,-12.20635,2.0126252,-1.0479461,-1.1341522,1.0426207,0.663018,0
0.8200000000000005,21.0,-1.241435671752418,1.0235969222993344,1.9194309545956567,20.787928,2.8163812,0.24480627,-0.76597387,5.5893793,-11.545094,1.7409091,-0.67690843,-0.10299824,-0.5445954,-0.48435715,-12.029678,2.0923092,-1.0651981,-1.1509234,1.0396004,0.7246705,0
0.8300000000000005,21.0,-1.241435671752418,1.0235969222993344,1.9194309545956567,20.787928,2.8163812,0.24480627,-0.76597387,5.4699597,-11.52376,1.7301717,-0.6728257,-0.0986138,-0.5448962,-0.49058,-11.854447,2.1749032,-1.0822334,-1.1650771,1.0370535,0.7832978,0
0.8400000000000005,21.0,-1.241435671752418,1.0235969222993344,1.9194309545956567,21.029043,2.130554,1.0240965,-0.66766214,5.3522854,-11.501585,1.7192652,-0.6685642,-0.094339564,-0.5450875,-0.49699217,-11.680723,2.2603912,-1.0990255,-1.1770217,1.0349059,0.83904815,0
0.8500000000000005,21.0,-1.241435671752418,1.0235969222993344,1.9194309545956567,21.029043,2.130554,1.0240965,-0.66766214,5.2363405,-11.478541,1.7081921,-0.66412544,-0.09017423,-0.54517615,-0.50357586,-11.508572,2.3487566,-1.11555,-1.187102,1.0330958,0.8920629,0
0.8600000000000005,21.0,-1.241435671752418,1.0235969222993344,1.9194309545956567,21.029043,2.130554,1.0240965,-0.66766214,5.122109,-11.454599,1.6969552,-0.65951085,-0.086115845,-0.54516804,-0.5103146,-11.338055,2.4399772,-1.1317841,-1.1956084,1.0315703,0.9424762,0
0.8700000000000006,21.0,-1.241435671752418,1.0235969222993344,1.9194309545956567,21.029043,2.130554,1.0240965,-0.66766214,5.009574,-11.42973,1.6855575,-0.6547223,-0.08216197,-0.545068,-0.517193,-11.169235,2.5340278,-1.1477058,-1.2027864,1.0302849,0.99041563,0
0.8800000000000006,21.0,-1.0798898241404833,0.720896860771719,1.682020251774759,22.526896,1.2862382,1.901181,-0.15434977,4.898719,-11.403908,1.6740022,-0.6497617,-0.07830978,-0.5448803,-0.52419686,-11.002171,2.6308815,-1.1632947,-1.2088435,1.0292021,1.0360028,0
0.8900000000000006,21.0,-1.0798898241404833,0.720896860771719,1.682020251774759,22.526896,1.2862382,1.901181,-0.15434977,4.7895246,-11.377103,1.6622927,-0.644708,-0.07464596,-0.5445667,-0.53124964,-10.836916,2.730497,-1.1785275,-1.1887213,0.981111,1.067703,0
0.9000000000000006,21.0,-1.0798898241404833,0.720896860771719,1.682020251774759,22.526896,1.2862382,1.901181,-0.15434977,4.6819744,-11.349288,1.650433,-0.639629,-0.07123691,-0.54410017,-0.5382885,-10.673492,2.832767,-1.1933649,-1.1717395,0.94051945,1.0978478,0
0.9100000000000006,21.0,-1.0798898241404833,0.720896860771719,1.682020251774759,22.526896,1.2862382,1.901181,-0.15434977,4.5760493,-11.320438,1.638427,-0.6345116,-0.0680521,-0.54349864,-0.54531884,-10.511911,2.9375749,-1.2077651,-1.1574081,0.9062581,1.1265132,0
0.9200000000000006,21.0,-0.8769767524360897,0.3950781217555202,1.3753510695161761,22.124662,0.7542509,2.1482804,-0.3415204,4.47173,-11.290528,1.6262794,-0.6293447,-0.06506517,-0.54277694,-0.5523445,-10.352182,3.044816,-1.2216909,-1.1453137,0.87733966,1.1537721,0
0.9300000000000006,21.0,-0.8769767524360897,0.3950781217555202,1.3753510695161761,22.124662,0.7542509,2.1482804,-0.3415204,4.368999,-11.259534,1.6139951,-0.6242063,-0.062356092,-0.5419134,-0.5592921,-10.194315,3.154385,-1.2351058,-1.103416,0.80215496,1.1646451,0
0.9400000000000006,21.0,-0.8769767524360897,0.3950781217555202,1.3753510695161761,22.124662,0.7542509,2.1482804,-0.3415204,4.2678375,-11.227433,1.6015793,-0.61916333,-0.05998439,-0.54089475,-0.5661017,-10.038274,3.2661183,-1.2479641,-1.0680597,0.7386912,1.1749845,0
0.9500000000000006,21.0,-0.8769767524360897,0.3950781217555202,1.3753510695161761,22.124662,0.7542509,2.1482804,-0.3415204,4.1682277,-11.194204,1.5890379,-0.6141924,-0.057901267,-0.53974277,-0.5727936,-9.884015,3.3798497,-1.2602218,-1.0382236,0.68512124,1.1848165,0
0.9600000000000006,21.0,-0.6649811853578147,0.10569298576407325,1.0349362899608374,22.061598,0.23570547,2.7813454,-0.64630675,4.0701513,-11.159829,1.5763769,-0.6092738,-0.056065146,-0.53847533,-0.57938427,-9.7315035,3.4954362,-1.2718396,-1.0130463,0.6399025,1.1941661,0
0.9700000000000006,21.0,-0.6649811853578147,0.10569298576407325,1.0349362899608374,22.061598,0.23570547,2.7813454,-0.64630675,3.9735913,-11.1242895,1.5636033,-0.60447305,-0.0545369,-0.5370889,-0.58581,-9.580698,3.6127434,-1.2827826,-0.95869815,0.55663997,1.1863526,0
0.9800000000000006,21.0,-0.6649811853578147,0.10569298576407325,1.0349362899608374,22.061598,0.23570547,2.7813454,-0.64630675,3.8785317,-11.087569,1.5507238,-0.5998467,-0.05336002,-0.53558385,-0.59201884,-9.431521,3.7315922,-1.293015,-0.91283655,0.4863548,1.1789225,0
0.9900000000000007,21.0,-0.6649811853578147,0.10569298576407325,1.0349362899608374,22.061598,0.23570547,2.7813454,-0.64630675,3.7849562,-11.049653,1.5377456,-0.59536684,-0.05247835,-0.53397864,-0.5980392,-9.283888,3.8518088,-1.3025049,-0.87413603,0.42702445,1.1718571,0
1.0000000000000007,21.0,-0.5686955178250659,-0.07282322036684913,0.749330523272396,20.003153,0.39724204,2.056725,-0.5946064,3.6928494,-11.010529,1.5246763,-0.59100944,-0.0518444,-0.53228813,-0.60389495,-9.137723,3.9732456,-1.311225,-0.84147865,0.37694165,1.1651385,0
1.0100000000000007,21.0,-0.5686955178250659,-0.07282322036684913,0.749330523272396,20.003153,0.39724204,2.056725,-0.5946064,3.602197,-10.970183,1.5115237,-0.5868116,-0.051465265,-0.5305076,-0.6095612,-8.992962,4.09577,-1.319151,-0.79888105,0.30684406,1.1447346,0
1.0200000000000007,21.0,-0.5686955178250659,-0.07282322036684913,0.749330523272396,20.003153,0.39724204,2.056725,-0.5946064,3.5129855,-10.928609,1.498296,-0.58280534,-0.051342204,-0.52863526,-0.61501735,-8.849517,4.219233,-1.3262552,-0.7629366,0.24767154,1.125332,0
1.0300000000000007,21.0,-0.5686955178250659,-0.07282322036684913,0.749330523272396,20.003153,0.39724204,2.056725,-0.5946064,3.4252021,-10.885797,1.4850014,-0.5789648,-0.051430397,-0.5266855,-0.6202876,-8.707308,4.3434963,-1.3325125,-0.73260564,0.19772168,1.1068814,0
1.0400000000000007,21.0,-0.5686955178250659,-0.07282322036684913,0.749330523272396,20.00876,0.059447028,2.1525412,-0.5980859,3.3388352,-10.841737,1.4716487,-0.5752678,-0.051692154,-0.52467006,-0.62539244,-8.566264,4.4684415,-1.3379022,-0.7070118,0.15555702,1.0893362,0
1.0500000000000007,21.0,-0.5686955178250659,-0.07282322036684913,0.749330523272396,20.00876,0.059447028,2.1525412,-0.5980859,3.2538733,-10.796425,1.4582465,-0.57169545,-0.052095804,-0.52259856,-0.6303496,-8.426325,4.5939674,-1.3424075,-0.685415,0.11996408,1.072652,0
1.0600000000000007,21.0,-0.5686955178250659,-0.07282322036684913,0.749330523272396,20.00876,0.059447028,2.1525412,-0.5980859,3.1703053,-10.749855,1.4448036,-0.5682313,-0.052614786,-0.5204789,-0.635174,-8.2874365,4.7199874,-1.3460144,-0.6671908,0.08991874,1.0567865,0
1.0700000000000007,21.0,-0.5686955178250659,-0.07282322036684913,0.749330523272396,20.00876,0.059447028,2.1525412,-0.5980859,3.088121,-10.7020235,1.4313294,-0.56486154,-0.05322684,-0.5183176,-0.6398786,-8.149555,4.8464265,-1.3487116,-0.65181243,0.06455624,1.0416996,0
1.0800000000000007,21.0,-0.49630157325208724,-0.12507696150042294,0.6755048439353556,19.864466,-0.6498016,2.312769,-0.4896824,3.0073106,-10.652926,1.4178326,-0.5615742,-0.05391334,-0.5161199,-0.6444745,-8.012641,4.9732194,-1.35049,-0.63883555,0.043147005,1.0273529,0
1.0900000000000007,21.0,-0.49630157325208724,-0.12507696150042294,0.6755048439353556,19.864466,-0.6498016,2.312769,-0.4896824,2.9278648,-10.602559,1.4043227,-0.5583741,-0.054683775,-0.5138977,-0.6489503,-7.876658,5.100308,-1.3513427,-0.6165896,0.016934486,1.0100876,0
1.1000000000000008,21.0,-0.49630157325208724,-0.12507696150042294,0.6755048439353556,19.864466,-0.6498016,2.312769,-0.4896824,2.8497744,-10.55092,1.390809,-0.5552655,-0.0555444,-0.5116612,-0.65329707,-7.7415605,5.2276287,-1.3512703,-0.5978161,-0.005193295,0.99366945,0
1.1100000000000008,21.0,-0.49630157325208724,-0.12507696150042294,0.6755048439353556,19.864466,-0.6498016,2.312769,-0.4896824,2.7730308,-10.498006,1.3773007,-0.55223775,-0.056476634,-0.5094118,-0.6575277,-7.607304,5.3551245,-1.3502754,-0.58197314,-0.023872921,0.978057,0
1.1200000000000008,21.0,-0.4438314983183542,-0.1284200533086131,0.4039185811258888,19.695358,-1.383043,2.407016,-0.6067947,2.6976254,-10.443816,1.363807,-0.5492819,-0.05746499,-0.50715065,-0.661653,-7.4738507,5.4827447,-1.3483608,-0.5686031,-0.039641578,0.96321064,0
1.1300000000000008,21.0,-0.4438314983183542,-0.1284200533086131,0.4039185811258888,19.695358,-1.383043,2.407016,-0.6067947,2.623551,-10.38835,1.3503368,-0.5464117,-0.05849199,-0.5048938,-0.66565335,-7.3411655,5.610446,-1.3455304,-0.5491373,-0.05346443,0.93576604,0
1.1400000000000008,21.0,-0.4438314983183542,-0.1284200533086131,0.4039185811258888,19.695358,-1.383043,2.407016,-0.6067947,2.5507996,-10.331607,1.3368994,-0.5436413,-0.05954094,-0.5026548,-0.6695121,-7.2092113,5.738187,-1.341796,-0.5327088,-0.065134525,0.9096681,0
1.1500000000000008,21.0,-0.4438314983183542,-0.1284200533086131,0.4039185811258888,19.695358,-1.383043,2.407016,-0.6067947,2.4793644,-10.273586,1.323504,-0.54096353,-0.060601283,-0.5004307,-0.6732417,-7.0779543,5.8659325,-1.3371708,-0.5188436,-0.074987195,0.8848508,0
1.1600000000000008,21.0,-0.38453396344188995,-0.11756474752263271,0.06745270773529251,19.535315,-1.9669356,2.153121,-0.5747906,2.4092386,-10.214289,1.3101592,-0.5383717,-0.06166447,-0.49821907,-0.6768533,-6.9473643,5.9936514,-1.3316661,-0.5071421,-0.083305426,0.8612513,0
1.1700000000000008,21.0,-0.38453396344188995,-0.11756474752263271,0.06745270773529251,19.535315,-1.9669356,2.153121,-0.5747906,2.340415,-10.153713,1.2968737,-0.5358847,-0.06271276,-0.4960389,-0.68032306,-6.817415,6.121317,-1.3252937,-0.4880207,-0.08862499,0.8222993,0
1.1800000000000008,21.0,-0.38453396344188995,-0.11756474752263271,0.06745270773529251,19.535315,-1.9669356,2.153121,-0.5747906,2.272888,-10.091863,1.2836561,-0.53352106,-0.06372916,-0.49390593,-0.68363017,-6.688075,6.248906,-1.3180746,-0.47188184,-0.093117915,0.78525877,0
1.1900000000000008,21.0,-0.38453396344188995,-0.11756474752263271,0.06745270773529251,19.535315,-1.9669356,2.153121,-0.5747906,2.2066512,-10.028736,1.270515,-0.5312751,-0.06470873,-0.49181372,-0.6867884,-6.559317,6.3763995,-1.31003,-0.45826024,-0.09691295,0.7500358,0
1.2000000000000008,21.0,-0.4988073443927635,-0.006681737839303556,-0.3158721228860817,19.596855,-3.0551813,2.2685,-0.50043577,2.1416993,-9.9643345,1.2574582,-0.5291412,-0.06564784,-0.48975667,-0.68981,-6.431116,6.50378,-1.3011786,-0.44676325,-0.10011835,0.71654123,0
1.2100000000000009,21.0,-0.4988073443927635,-0.006681737839303556,-0.3158721228860817,19.596855,-3.0551813,2.2685,-0.50043577,2.0780265,-9.898661,1.244494,-0.5271282,-0.06646593,-0.4877252,-0.69270605,-6.303457,6.6310363,-1.2915348,-0.45488903,-0.085535586,0.66588044,0
1.2200000000000009,21.0,-0.4988073443927635,-0.006681737839303556,-0.3158721228860817,19.596855,-3.0551813,2.2685,-0.50043577,2.0156279,-9.831714,1.2316301,-0.5252475,-0.06709628,-0.4857116,-0.6954832,-6.1763515,6.7581773,-1.2811025,-0.4617456,-0.07322697,0.6177056,0
1.2300000000000009,21.0,-0.4988073443927635,-0.006681737839303556,-0.3158721228860817,19.596855,-3.0551813,2.2685,-0.50043577,1.9544973,-9.763496,1.2188746,-0.52349687,-0.06755557,-0.48371428,-0.69814557,-6.0498214,6.885217,-1.2698828,-0.46753147,-0.06283777,0.5718947,0
1.2400000000000009,21.0,-0.4988073443927635,-0.006681737839303556,-0.3158721228860817,19.258635,-3.7475042,2.0634794,-0.06915024,1.8946294,-9.69401,1.206235,-0.5218736,-0.06785857,-0.4817318,-0.70069754,-5.9238844,7.0121665,-1.257876,-0.4724139,-0.054068677,0.52833176,0
1.2500000000000009,21.0,-0.4988073443927635,-0.006681737839303556,-0.3158721228860817,19.258635,-3.7475042,2.0634794,-0.06915024,1.8360176,-9.623253,1.1937195,-0.5203747,-0.0680184,-0.47976297,-0.7031433,-5.798555,7.139033,-1.2450829,-0.47653365,-0.04666726,0.48690647,0
1.260000000000001,21.0,-0.4988073443927635,-0.006681737839303556,-0.3158721228860817,19.258635,-3.7475042,2.0634794,-0.06915024,1.7786561,-9.5512295,1.181336,-0.5189967,-0.06804673,-0.47780666,-0.70548713,-5.673847,7.2658224,-1.231504,-0.48001012,-0.040420275,0.44751388,0
1.270000000000001,21.0,-0.4988073443927635,-0.006681737839303556,-0.3158721228860817,19.258635,-3.7475042,2.0634794,-0.06915024,1.7225386,-9.477937,1.1690922,-0.51773596,-0.06795396,-0.4758619,-0.7077333,-5.5497723,7.392539,-1.2171402,-0.4829439,-0.035147786,0.41005427,0
1.280000000000001,21.0,-0.38292283368647956,0.18213079276165275,2.3171024206262634,19.350622,-3.404815,1.548831,0.4099755,1.6676584,-9.403377,1.1569959,-0.5165887,-0.067749426,-0.47392777,-0.70988584,-5.4263396,7.519186,-1.2019925,-0.48541978,-0.03069792,0.37443286,0
1.290000000000001,21.0,-0.38292283368647956,0.18213079276165275,2.3171024206262634,19.350622,-3.404815,1.548831,0.4099755,1.6140095,-9.327552,1.1450549,-0.51528054,-0.06756588,-0.47205314,-0.7120997,-5.3035593,7.6457686,-1.1860682,-0.4694436,0.0024671024,0.4697602,0
1.300000000000001,21.0,-0.38292283368647956,0.18213079276165275,2.3171024206262634,19.350622,-3.404815,1.548831,0.4099755,1.561585,-9.250463,1.1332769,-0.5135587,-0.06753027,-0.47027284,-0.71452075,-5.181441,7.7723265,-1.1694075,-0.45596123,0.03046278,0.5604098,0
1.310000000000001,21.0,-0.38292283368647956,0.18213079276165275,2.3171024206262634,19.350622,-3.404815,1.548831,0.4099755,1.5103784,-9.172107,1.1216692,-0.5114496,-0.0676415,-0.46856695,-0.71713895,-5.059993,7.898901,-1.1520559,-0.44458237,0.05409436,0.64661115,0
1.320000000000001,21.0,-0.4373477497423295,0.31020644837946676,2.614012529342998,18.76383,-3.5307314,1.1816646,1.2086072,1.4603829,-9.092484,1.1102381,-0.5089766,-0.06789746,-0.46691847,-0.7199439,-4.9392223,8.025526,-1.134051,-0.43497887,0.074042335,0.7285826,0
1.330000000000001,21.0,-0.4373477497423295,0.31020644837946676,2.614012529342998,18.76383,-3.5307314,1.1816646,1.2086072,1.4115916,-9.011596,1.0989901,-0.5061117,-0.06826437,-0.46532062,-0.722957,-4.8191395,8.152234,-1.1154239,-0.43537217,0.110845566,0.8211012,0
1.340000000000001,21.0,-0.4373477497423295,0.31020644837946676,2.614012529342998,18.76383,-3.5307314,1.1816646,1.2086072,1.3639977,-8.92944,1.0879315,-0.50283086,-0.06871643,-0.4637662,-0.72619504,-4.6997743,8.279071,-1.0962015,-0.43570504,0.14191082,0.9090799,0
1.350000000000001,21.0,-0.4373477497423295,0.31020644837946676,2.614012529342998,18.76383,-3.5307314,1.1816646,1.2086072,1.3175936,-8.846014,1.077068,-0.49915937,-0.06926113,-0.462241,-0.7296405,-4.5811596,8.406078,-1.0764061,-0.43598583,0.16813248,0.9927414,0
1.360000000000001,21.0,-0.7486037231818848,0.2958163393406964,2.3510558404707043,18.685034,-4.146546,0.5689051,1.6048144,1.2723718,-8.761317,1.0664053,-0.49511948,-0.069903694,-0.4607329,-0.73327655,-4.4633236,8.533294,-1.056055,-0.43622237,0.19026607,1.0722977,0
1.370000000000001,21.0,-0.7486037231818848,0.2958163393406964,2.3510558404707043,18.685034,-4.146546,0.5689051,1.6048144,1.2283244,-8.675347,1.0559489,-0.49076656,-0.07057523,-0.45913935,-0.73712784,-4.3462973,8.660743,-1.0351521,-0.48495787,0.20667273,1.1350467,0
1.380000000000001,21.0,-0.7486037231818848,0.2958163393406964,2.3510558404707043,18.685034,-4.146546,0.5689051,1.6048144,1.1854429,-8.588102,1.0457044,-0.48615003,-0.07121883,-0.45737806,-0.7412088,-4.2301517,8.788432,-1.0136486,-0.52609205,0.22052372,1.1947167,0
1.390000000000001,21.0,-0.7486037231818848,0.2958163393406964,2.3510558404707043,18.685034,-4.146546,0.5689051,1.6048144,1.143718,-8.499578,1.0356781,-0.4812809,-0.07185317,-0.45546678,-0.7454897,-4.11496,8.916366,-0.9914843,-0.5608102,0.2322177,1.2514586,0
1.400000000000001,21.0,-1.6271673674351974,0.05996528898497941,2.148221733363268,18.59735,-4.110639,1.2948953,1.3755912,1.10314,-8.409773,1.025877,-0.47616917,-0.07249308,-0.45342043,-0.7499444,-4.0007854,9.044539,-0.96860677,-0.59011304,0.24209131,1.3054162,0
1.410000000000001,21.0,-1.6271673674351974,0.05996528898497941,2.148221733363268,18.59735,-4.110639,1.2948953,1.3755912,1.0636984,-8.318686,1.0163085,-0.47091118,-0.07304315,-0.45094422,-0.7546892,-3.8876965,9.172931,-0.9449434,-0.75182265,0.21353154,1.346773,0
1.420000000000001,21.0,-1.6271673674351974,0.05996528898497941,2.148221733363268,18.59735,-4.110639,1.2948953,1.3755912,1.0253818,-8.226314,1.0069817,-0.46558598,-0.07342845,-0.44780278,-0.759809,-3.7758467,9.30145,-0.92027396,-0.88831604,0.18944088,1.3861004,0
1.430000000000001,21.0,-1.6271673674351974,0.05996528898497941,2.148221733363268,18.59735,-4.110639,1.2948953,1.3755912,0.9881768,-8.132656,0.99790746,-0.46017885,-0.07368634,-0.44408795,-0.76523906,-3.665395,9.429981,-0.8943593,-1.0035255,0.16912094,1.4234979,0
1.440000000000001,21.0,-1.6271673674351974,0.05996528898497941,2.148221733363268,19.331419,-4.2429867,0.912035,1.5149139,0.95206875,-8.037714,0.98909944,-0.45467746,-0.073847115,-0.43987727,-0.77092296,-3.5564735,9.558415,-0.86699975,-1.1007698,0.15198256,1.4590604,0
1.450000000000001,21.0,-1.6271673674351974,0.05996528898497941,2.148221733363268,19.331419,-4.2429867,0.912035,1.5149139,0.9170417,-7.9414883,0.98057294,-0.44907188,-0.073935255,-0.4352362,-0.7768119,-3.449192,9.686647,-0.83802956,-1.1828507,0.13752867,1.4928778,0
1.460000000000001,21.0,-1.6271673674351974,0.05996528898497941,2.148221733363268,19.331419,-4.2429867,0.912035,1.5149139,0.88307893,-7.8439817,0.97234476,-0.44335416,-0.073970445,-0.43022016,-0.7828635,-3.3436415,9.814571,-0.8073119,-1.2521324,0.1253392,1.5250357,0
1.470000000000001,21.0,-1.6271673674351974,0.05996528898497941,2.148221733363268,19.331419,-4.2429867,0.912035,1.5149139,0.85016274,-7.745198,0.9644331,-0.4375181,-0.0739684,-0.4248762,-0.78904116,-3.2398965,9.942085,-0.7747346,-1.310611,0.115060255,1.5556157,0
1.480000000000001,20.999999867399463,-2.8425692255007253,0.8144332617037826,5.999999725109504,18.668608,-4.6355257,0.78042555,1.5825287,0.8182747,-7.645141,0.9568568,-0.43155894,-0.0739416,-0.4192443,-0.79531306,-3.1380177,10.069088,-0.7402071,-1.359971,0.10639252,1.5846949,0
1.490000000000001,20.999999867399463,-2.8425692255007253,0.8144332617037826,5.999999725109504,18.668608,-4.6355257,0.78042555,1.5825287,0.78741986,-7.5437875,0.94966817,-0.4249534,-0.07358852,-0.41323283,-0.8020206,-3.0337,10.201067,-0.6977229,-1.5384107,0.26939416,1.7927706,0
1.500000000000001,20.999999867399463,-2.8425692255007253,0.8144332617037826,5.999999725109504,18.668608,-4.6355257,0.78042555,1.5825287,0.7575844,-7.4411325,0.9428989,-0.41722298,-0.07270584,-0.40672687,-0.8094512,-2.9340458,10.329558,-0.65611726,-1.6991427,0.39683282,1.9951519,0
1.5100000000000011,20.999999867399463,-2.8425692255007253,0.8144332617037826,5.999999725109504,18.668608,-4.6355257,0.78042555,1.5825287,0.72872484,-7.3372045,0.93654734,-0.4084645,-0.07146089,-0.39963412,-0.81752175,-2.838519,10.45567,-0.61413383,-1.8643287,0.47479752,2.1904566,0
1.5200000000000011,20.999999721024462,-3.4594469910725936,1.884625554429543,5.9999996334969685,19.180624,-5.1047955,0.78999877,2.2319286,0.70080173,-7.2320237,0.9306223,-0.39877045,-0.06999906,-0.3918557,-0.8261541,-2.7465947,10.580374,-0.5704679,-2.0170238,0.5273011,2.377392,0
1.5300000000000011,20.999999721024462,-3.4594469910725936,1.884625554429543,5.9999996334969685,19.180624,-5.1047955,0.78999877,2.2319286,0.67378163,-7.1256,0.9251475,-0.3880279,-0.067944445,-0.3833948,-0.8353596,-2.6579807,10.704319,-0.52405655,-2.24238,0.7383683,2.5551543,0
1.5400000000000011,20.999999721024462,-3.4594469910725936,1.884625554429543,5.9999996334969685,19.180624,-5.1047955,0.78999877,2.2319286,0.6476291,-7.0179405,0.9201513,-0.37614202,-0.06498838,-0.3742705,-0.84511214,-2.5731692,10.827444,-0.4746947,-2.4325774,0.91654354,2.7241938,0
1.5500000000000012,20.999999721024462,-3.4594469910725936,1.884625554429543,5.9999996334969685,19.180624,-5.1047955,0.78999877,2.2319286,0.6223034,-6.9090543,0.9156643,-0.36317635,-0.06129611,-0.36452955,-0.85525626,-2.492658,10.949664,-0.42220467,-2.593095,1.0669603,2.8849387,0
1.5600000000000012,20.999999476981486,-3.3325836201725405,3.262515037519907,5.999999157381857,18.844984,-5.7805805,1.367909,2.494629,0.59775966,-6.798951,0.9117184,-0.3491865,-0.057004895,-0.35421354,-0.8656508,-2.4168653,11.070834,-0.36645234,-2.7285593,1.1939495,3.0377955,0
1.5700000000000012,20.999999476981486,-3.3325836201725405,3.262515037519907,5.999999157381857,18.844984,-5.7805805,1.367909,2.494629,0.5739486,-6.6876416,0.9083468,-0.33402532,-0.05176645,-0.3435924,-0.8761797,-2.3461773,11.190785,-0.30735353,-2.8235357,1.5160867,3.1831515,0
1.5800000000000012,20.999999476981486,-3.3325836201725405,3.262515037519907,5.999999157381857,18.844984,-5.7805805,1.367909,2.494629,0.5508167,-6.575139,0.9055828,-0.31758606,-0.04530137,-0.33287242,-0.88672554,-2.2811272,11.3095,-0.24491754,-2.9036448,1.7880144,3.3213751,0
1.5900000000000012,20.999999476981486,-3.3325836201725405,3.262515037519907,5.999999157381857,18.844984,-5.7805805,1.367909,2.494629,0.5283049,-6.461456,0.90345967,-0.29996955,-0.037809245,-0.3220048,-0.89716274,-2.2222426,11.42693,-0.17919296,-2.9712057,2.0175622,3.452816,0
1.6000000000000012,20.999999238184305,-2.5980486931501647,4.800060888918915,5.999993868371853,18.908018,-5.8144093,2.4029179,2.0454094,0.50634915,-6.3466053,0.90200996,-0.2812637,-0.029459883,-0.31095192,-0.90737593,-2.1699698,11.542938,-0.11024497,-3.0281773,2.2113376,3.577807,0
1.6100000000000012,20.999999238184305,-2.5980486931501647,4.800060888918915,5.999993868371853,18.908018,-5.8144093,2.4029179,2.0454094,0.48488137,-6.2306023,0.9012655,-0.261349,-0.01991763,-0.3001212,-0.91718405,-2.1247156,11.657353,-0.038179636,-2.9622397,2.6149724,3.696664,0
1.6200000000000012,20.999999238184305,-2.5980486931501647,4.800060888918915,5.999993868371853,18.908018,-5.8144093,2.4029179,2.0454094,0.46382877,-6.1134634,0.9012562,-0.24014786,-0.008912207,-0.28982374,-0.9264185,-2.0870268,11.770198,0.0367523,-2.9064803,2.9556563,3.8096893,0
1.6300000000000012,20.999999238184305,-2.5980486931501647,4.800060888918915,5.999993868371853,18.908018,-5.8144093,2.4029179,2.0454094,0.44311294,-5.995204,0.9020093,-0.21778922,0.0033297816,-0.27990675,-0.9349912,-2.0574436,11.881462,0.11426239,-2.8593197,3.2432072,3.9171681,0
1.6400000000000012,20.999999238184305,-2.5980486931501647,4.800060888918915,5.999993868371853,20.552647,-5.078102,3.085457,2.0088055,0.4226505,-5.8758407,0.9035493,-0.19438568,0.016610874,-0.27024525,-0.94281775,-2.036423,11.99101,0.19406904,-2.8194249,3.485912,4.019373,0
1.6500000000000012,20.999999238184305,-2.5980486931501647,4.800060888918915,5.999993868371853,20.552647,-5.078102,3.085457,2.0088055,0.4023538,-5.755391,0.9058976,-0.17003743,0.030758418,-0.26073802,-0.94981915,-2.0243406,12.098597,0.2758912,-2.7856703,3.690765,4.116563,0
1.6600000000000013,20.999999238184305,-2.5980486931501647,4.800060888918915,5.999993868371853,20.552647,-5.078102,3.085457,2.0088055,0.38213193,-5.633877,0.9090731,-0.1448353,0.04562093,-0.2513041,-0.95592225,-2.0214915,12.203888,0.359445,-2.7571065,3.86367,4.2089834,0
1.6700000000000013,20.999999238184305,-2.5980486931501647,4.800060888918915,5.999993868371853,20.552647,-5.078102,3.085457,2.0088055,0.36189148,-5.511323,0.9130915,-0.11886288,0.061065048,-0.24187943,-0.9610601,-2.02809,12.306475,0.44444185,-2.7329307,4.00961,4.296869,0
1.6800000000000013,20.999840731073434,-1.998731107594503,5.9999998870699915,5.930837022481528,22.86489,-4.1142473,3.012936,1.8111061,0.3415372,-5.3877587,0.9179659,-0.092198305,0.07697291,-0.23241428,-0.9651724,-2.0442708,12.405889,0.5305879,-2.7124653,4.1327906,4.380441,0
1.6900000000000013,20.999840731073434,-1.998731107594503,5.9999998870699915,5.930837022481528,22.86489,-4.1142473,3.012936,1.8111061,0.32097283,-5.263218,0.9237061,-0.064832754,0.09368623,-0.22313954,-0.9681053,-2.070129,12.501642,0.6175643,-2.6022081,4.4241667,4.45652,0
1.7000000000000013,20.999840731073434,-1.998731107594503,5.9999998870699915,5.930837022481528,22.86489,-4.1142473,3.012936,1.8111061,0.30010048,-5.1377397,0.9303185,-0.036781497,0.11147221,-0.21422096,-0.9697061,-2.1059077,12.59334,0.7049405,-2.509029,4.6700697,4.528865,0
1.7100000000000013,20.999840731073434,-1.998731107594503,5.9999998870699915,5.930837022481528,22.86489,-4.1142473,3.012936,1.8111061,0.2788198,-5.011366,0.93780464,-0.008148858,0.1301274,-0.20553973,-0.9699244,-2.1518223,12.680552,0.7922466,-2.430278,4.8775954,4.59766,0
1.7200000000000013,19.11246802181039,-1.0692455002789791,5.999999915238829,5.999995805249779,23.62311,-3.4500744,3.5582104,2.1239376,0.25702885,-4.8841453,0.9461615,0.020968609,0.14947054,-0.19700108,-0.96871513,-2.2079716,12.762769,0.8790154,-2.3637176,5.052733,4.6630793,0
1.7300000000000013,19.11246802181039,-1.0692455002789791,5.999999915238829,5.999995805249779,23.62311,-3.4500744,3.5582104,2.1239376,0.23465435,-4.7561646,0.9552988,0.05043097,0.16935073,-0.18889222,-0.9659691,-2.2683747,12.832567,0.94824576,-2.1625168,5.2009773,4.728682,0
1.7400000000000013,19.11246802181039,-1.0692455002789791,5.999999915238829,5.999995805249779,23.62311,-3.4500744,3.5582104,2.1239376,0.21162975,-4.627513,0.96512157,0.080106646,0.18964572,-0.18144234,-0.9616109,-2.3379717,12.896979,1.0160581,-1.9926225,5.3260264,4.791066,0
1.7500000000000013,19.11246802181039,-1.0692455002789791,5.999999915238829,5.999995805249779,23.62311,-3.4500744,3.5582104,2.1239376,0.18786393,-4.4982452,0.9756133,0.109920606,0.21023817,-0.17450534,-0.9556488,-2.416582,12.955656,1.0819602,-1.8491606,5.4315085,4.8503885,0
1.7600000000000013,17.961083375553972,-0.5988975173404227,5.999999917726026,5.999998478004034,21.62226,-3.0954854,4.0119343,2.1692452,0.16326797,-4.3684206,0.98675257,0.13980211,0.23101893,-0.16796076,-0.9480898,-2.5039523,13.008207,1.1454897,-1.7280167,5.520484,4.9068003,0
1.7700000000000014,17.961083375553972,-0.5988975173404227,5.999999917726026,5.999998478004034,21.62226,-3.0954854,4.0119343,2.1692452,0.13778435,-4.2381177,0.9984654,0.16963907,0.2519154,-0.1618877,-0.9389105,-2.5939875,13.05145,1.1966388,-1.5523666,5.5957713,4.960444,0
1.7800000000000014,17.961083375553972,-0.5988975173404227,5.999999917726026,5.999998478004034,21.62226,-3.0954854,4.0119343,2.1692452,0.111362174,-4.1074142,1.0106748,0.19932719,0.27286354,-0.1563448,-0.9281001,-2.6916006,13.088225,1.2447261,-1.4040661,5.659243,5.011455,0
1.7900000000000014,17.961083375553972,-0.5988975173404227,5.999999917726026,5.999998478004034,21.62226,-3.0954854,4.0119343,2.1692452,0.08392767,-3.9763768,1.023348,0.22881146,0.29377574,-0.15121405,-0.9156827,-2.7963886,13.118216,1.2893547,-1.2788551,5.7127523,5.0599627,0
1.8000000000000014,17.539049533160732,-0.9697532313617299,5.999999830042264,5.999999345024972,22.628386,-3.1359284,3.5168328,2.436201,0.05541132,-3.8450744,1.0364488,0.25803816,0.31456903,-0.1463979,-0.90168154,-2.9078906,13.141086,1.3301636,-1.1731375,5.7578616,5.10609,0
1.8100000000000014,17.539049533160732,-0.9697532313617299,5.999999830042264,5.999999345024972,22.628386,-3.1359284,3.5168328,2.436201,0.025762282,-3.7135825,1.0499212,0.28700185,0.33512467,-0.14168298,-0.8861415,-3.022818,13.156125,1.3636652,-1.1417111,5.7956953,5.149954,0
1.8200000000000014,17.539049533160732,-0.9697532313617299,5.999999830042264,5.999999345024972,22.628386,-3.1359284,3.5168328,2.436201,-0.005063792,-3.5819786,1.0637072,0.3156907,0.35533112,-0.13690062,-0.86910117,-3.1431992,13.163488,1.3928742,-1.1151596,5.8276153,5.1916656,0
1.8300000000000014,17.539049533160732,-0.9697532313617299,5.999999830042264,5.999999345024972,22.628386,-3.1359284,3.5168328,2.436201,-0.03711821,-3.4503407,1.0777632,0.34404257,0.37512365,-0.13203782,-0.8505777,-3.268381,13.162803,1.4175842,-1.092726,5.8545465,5.231331,0
1.8400000000000014,17.539049533160732,-0.9697532313617299,5.999999830042264,5.999999345024972,22.14306,-3.104481,2.9676328,2.0808392,-0.07044553,-3.3187516,1.0920428,0.3719962,0.39444226,-0.1270855,-0.83059186,-3.3976662,13.153736,1.4376217,-1.0737705,5.8772683,5.2690496,0
1.8500000000000014,17.539049533160732,-0.9697532313617299,5.999999830042264,5.999999345024972,22.14306,-3.104481,2.9676328,2.0808392,-0.10508311,-3.187296,1.106499,0.39949143,0.41323102,-0.122037835,-0.809168,-3.5303156,13.136002,1.4528476,-1.0577526,5.8964386,5.3049173,0
1.8600000000000014,17.539049533160732,-0.9697532313617299,5.999999830042264,5.999999345024972,22.14306,-3.104481,2.9676328,2.0808392,-0.14106077,-3.056062,1.1210829,0.42646912,0.43143782,-0.11689163,-0.78633404,-3.665558,13.10936,1.4631582,-1.0442166,5.9126124,5.3390245,0
1.8700000000000014,17.539049533160732,-0.9697532313617299,5.999999830042264,5.999999345024972,22.14306,-3.104481,2.9676328,2.0808392,-0.17840044,-2.92514,1.135745,0.4528713,0.449014,-0.11164589,-0.7621211,-3.8025944,13.073626,1.468486,-1.032777,5.9262586,5.3714585,0
1.8800000000000014,15.78722725742771,-1.9323405981676867,5.046156241201183,5.999999815358177,21.275639,-3.25068,2.5427196,1.6975644,-0.21711601,-2.794621,1.1504353,0.47864112,0.46591422,-0.106301434,-0.7365636,-3.940604,13.028669,1.4688002,-1.0231081,5.937772,5.4023013,0
1.8900000000000015,15.78722725742771,-1.9323405981676867,5.046156241201183,5.999999815358177,21.275639,-3.25068,2.5427196,1.6975644,-0.25714394,-2.6645718,1.165057,0.50386703,0.48163334,-0.10076813,-0.70992434,-4.0649347,12.979843,1.4548101,-1.1645232,5.798205,5.43163,0
1.9000000000000015,15.78722725742771,-1.9323405981676867,5.046156241201183,5.999999815358177,21.275639,-3.25068,2.5427196,1.6975644,-0.29841205,-2.5350525,1.1795171,0.5286304,0.49577823,-0.095001735,-0.68244267,-4.188503,12.922705,1.4366034,-1.2839516,5.680477,5.45952,0
1.9100000000000015,15.78722725742771,-1.9323405981676867,5.046156241201183,5.999999815358177,21.275639,-3.25068,2.5427196,1.6975644,-0.34090847,-2.4061456,1.1937758,0.55286497,0.50846046,-0.08906176,-0.6541221,-4.310454,12.857377,1.4145126,-1.3848116,5.5811725,5.486041,0
1.9200000000000015,15.550054306520419,-2.474601875456458,3.7184242258605376,5.999999826262372,20.751734,-3.5347064,2.0696418,2.2102602,-0.38461286,-2.2779324,1.2077954,0.57650614,0.51977307,-0.082995094,-0.6249703,-4.429991,12.784042,1.3888707,-1.4699901,5.4974084,5.511261,0
1.9300000000000015,15.550054306520419,-2.474601875456458,3.7184242258605376,5.999999826262372,20.751734,-3.5347064,2.0696418,2.2102602,-0.4294886,-2.1504858,1.221537,0.5995656,0.5293448,-0.077017635,-0.5953007,-4.5446205,12.704174,1.3590014,-1.6257441,5.2193913,5.535244,0
1.9400000000000015,15.550054306520419,-2.474601875456458,3.7184242258605376,5.999999826262372,20.751734,-3.5347064,2.0696418,2.2102602,-0.47549227,-2.023874,1.2349665,0.6220675,0.5369147,-0.07132379,-0.56539094,-4.6554694,12.617106,1.3265265,-1.7573528,4.984815,5.5580497,0
1.9500000000000015,15.550054306520419,-2.474601875456458,3.7184242258605376,5.999999826262372,20.751734,-3.5347064,2.0696418,2.2102602,-0.522583,-1.8981668,1.2480607,0.64396495,0.54269964,-0.06591203,-0.535202,-4.7619615,12.52334,1.2920083,-1.8685598,4.7868934,5.579736,0
1.9600000000000015,15.337543707636264,-3.255556438744546,2.468553942447175,5.999999847357372,17.514124,-4.380828,0.9108367,2.5829813,-0.57071483,-1.7734286,1.2608016,0.6652099,0.5468796,-0.06077397,-0.5047023,-4.8636055,12.423377,1.255968,-1.9625281,4.619898,5.6003585,0
1.9700000000000015,15.337543707636264,-3.255556438744546,2.468553942447175,5.999999847357372,17.514124,-4.380828,0.9108367,2.5829813,-0.61983037,-1.6497116,1.2731724,0.68589866,0.54915065,-0.056079995,-0.47416356,-4.958673,12.319189,1.2180885,-2.1630054,4.283637,5.6199684,0
1.9800000000000015,15.337543707636264,-3.255556438744546,2.468553942447175,5.999999847357372,17.514124,-4.380828,0.9108367,2.5829813,-0.6698693,-1.5270617,1.2851622,0.7061151,0.54929924,-0.05198329,-0.44381183,-5.0482492,12.210058,1.1798756,-2.3323998,3.9999268,5.6386166,0
1.9900000000000015,15.337543707636264,-3.255556438744546,2.468553942447175,5.999999847357372,17.514124,-4.380828,0.9108367,2.5829813,-0.7207757,-1.4055251,1.296771,0.7257918,0.5475815,-0.0484411,-0.41356194,-5.1321287,12.096658,1.1419799,-2.4755313,3.760555,5.6563497,0
2.0000000000000013,,,,,19.5367,-4.273054,1.4574513,3.3195744,-0.7724919,-1.285141,1.3080049,0.74486285,0.5442101,-0.045408234,-0.3833433,-5.2101793,11.979629,1.1049751,-2.596472,3.5585935,5.673213,0
2.010000000000001,,,,,19.5367,-4.273054,1.4574513,3.3195744,-0.8249919,-1.1659964,1.3189033,0.7634897,0.5388547,-0.043012906,-0.3533671,-5.2888193,11.848828,1.0750201,-2.8738372,3.2107294,5.6892486,0
2.020000000000001,,,,,19.5367,-4.273054,1.4574513,3.3195744,-0.87824625,-1.0481727,1.3295132,0.7817901,0.5312692,-0.041373193,-0.32379782,-5.3610773,11.715588,1.0473664,-3.1081402,2.9172707,5.704497,0
2.0300000000000007,,,,,19.5367,-4.273054,1.4574513,3.3195744,-0.9321918,-0.9316902,1.3398609,0.7996399,0.5217264,-0.040424716,-0.29452148,-5.42708,11.580734,1.0227164,-3.3060677,2.669709,5.7189975,0
2.0400000000000005,,,,,19.5367,-4.273054,1.4574513,3.3195744,-0.98676693,-0.816561,1.3499798,0.8169246,0.51045465,-0.04010248,-0.26544574,-5.4870152,11.44505,1.0016524,-3.4732668,2.4608672,5.732786,0
2.0500000000000003,,,,,18.3779,-4.8884764,0.99206686,3.6818225,-1.0419121,-0.7027895,1.3599079,0.8335402,0.4976458,-0.04034258,-0.23649806,-5.541121,11.309282,0.9846485,-3.6145086,2.2846901,5.7458982,1
2.06,,,,,18.3779,-4.8884764,0.99206686,3.6818225,-1.0975949,-0.59044033,1.3697301,0.8494248,0.48327607,-0.041011523,-0.20794052,-5.5945053,11.16071,0.98060423,-3.8122897,2.0826163,5.6446133,1
2.07,,,,,18.3779,-4.8884764,0.99206686,3.6818225,-1.1537826,-0.47957006,1.3795383,0.8645311,0.46734703,-0.041988518,-0.18002518,-5.642161,11.013656,0.98187107,-3.979374,1.91218,5.548299,1
2.0799999999999996,,,,,18.3779,-4.8884764,0.99206686,3.6818225,-1.2104199,-0.37015933,1.389387,0.8787929,0.4500443,-0.043231323,-0.15268822,-5.6845016,10.868915,0.9887797,-4.120523,1.7684238,5.45671,1
2.0899999999999994,,,,,18.52299,-5.563245,-0.17917015,4.579351,-1.2674558,-0.26218125,1.3993341,0.89215446,0.4315278,-0.0447001,-0.12587897,-5.721963,10.727233,1.0015502,-4.2397604,1.6471676,5.369615,1
2.099999999999999,,,,,18.52299,-5.563245,-0.17917015,4.579351,-1.3248454,-0.15560715,1.4094433,0.9046729,0.41163388,-0.046794564,-0.09967011,-5.755294,10.588244,1.0212446,-4.445125,1.361744,5.330837,1
2.109999999999999,,,,,18.52299,-5.563245,-0.17917015,4.579351,-1.382549,-0.05040048,1.4197803,0.9163689,0.39024767,-0.049844548,-0.07409274,-5.7848983,10.453875,1.0471305,-4.618633,1.1209471,5.2939615,1
2.1199999999999988,,,,,18.52299,-5.563245,-0.17917015,4.579351,-1.4405333,0.053488895,1.4304073,0.9271489,0.3675626,-0.053715758,-0.04905887,-5.811535,10.3249,1.0792602,-4.765224,0.91779715,5.2588954,1
2.1299999999999986,,,,,18.557434,-5.8147755,-0.8842001,5.230872,-1.4987721,0.15611845,1.4413867,0.9369319,0.34374464,-0.05828751,-0.02450084,-5.835942,10.202014,1.117568,-4.8890715,0.74640703,5.22555,1
2.1399999999999983,,,,,18.557434,-5.8147755,-0.8842001,5.230872,-1.5572473,0.25755116,1.4527806,0.94566447,0.3188337,-0.063742585,-0.0003931853,-5.858901,10.085629,1.162151,-5.0325685,0.49162483,5.2258115,1
2.149999999999998,,,,,18.557434,-5.8147755,-0.8842001,5.230872,-1.6159481,0.35785624,1.4646496,0.9532834,0.29287592,-0.070220664,0.02329975,-5.881214,9.976568,1.2125052,-5.153823,0.2766514,5.22606,1
2.159999999999998,,,,,18.557434,-5.8147755,-0.8842001,5.230872,-1.6748724,0.4571095,1.4770495,0.95971143,0.26601383,-0.07755909,0.046633013,-5.9037304,9.875356,1.2682871,-5.2562814,0.09526721,5.226296,1
2.1699999999999977,,,,,17.748972,-5.647855,-1.468307,5.5719666,-1.7340262,0.5553917,1.4900327,0.96488243,0.2383724,-0.085613206,0.06964427,-5.927248,9.782428,1.3290632,-5.342858,-0.05777607,5.2265205,1
2.1799999999999975,,,,,17.748972,-5.647855,-1.468307,5.5719666,-1.793418,0.65280634,1.5036107,0.9687022,0.21014202,-0.09448464,0.092350125,-5.95143,9.701802,1.3872012,-5.3896704,-0.27796745,5.2434716,1
2.1899999999999973,,,,,17.748972,-5.647855,-1.468307,5.5719666,-1.8530635,0.7494569,1.5177891,0.97109336,0.18149057,-0.10424023,0.11477135,-5.978076,9.629641,1.4490327,-5.429295,-0.4637932,5.2595906,1
2.199999999999997,,,,,17.748972,-5.647855,-1.468307,5.5719666,-1.9129907,0.84542865,1.5326017,0.9720276,0.15249118,-0.11471121,0.13692951,-6.007925,9.56606,1.5139103,-5.4628363,-0.6206167,5.2749186,1
2.209999999999997,,,,,19.25768,-5.0807295,-1.7640176,5.4618106,-1.9732354,0.94080776,1.5480754,0.97148234,0.12321021,-0.12574913,0.15883332,-6.0416417,9.5111,1.5811514,-5.4912286,-0.7529637,5.289495,1
2.2199999999999966,,,,,19.25768,-5.0807295,-1.7640176,5.4618106,-2.033855,1.0356599,1.5643013,0.96940553,0.09395129,-0.13729863,0.18048474,-6.083068,9.460769,1.6642354,-5.426664,-0.9104454,5.2979507,1
2.2299999999999964,,,,,19.25768,-5.0807295,-1.7640176,5.4618106,-2.0949154,1.1300544,1.5813633,0.9657798,0.06496757,-0.14930058,0.20188485,-6.129919,9.41949,1.7482842,-5.3722515,-1.0434005,5.305991,1
2.239999999999996,,,,,19.25768,-5.0807295,-1.7640176,5.4618106,-2.1564736,1.2240797,1.5992672,0.9606357,0.036248222,-0.16162853,0.22302659,-6.1826973,9.386926,1.8324783,-5.3263955,-1.1556491,5.3136373,1
2.249999999999996,,,,,18.937967,-4.61852,-2.7979672,5.410753,-2.2185912,1.3178215,1.6180105,0.9540008,0.007787637,-0.17417285,0.24389593,-6.2418256,9.362691,1.9160203,-5.2877502,-1.2504156,5.320908,1
2.259999999999996,,,,,18.937967,-4.61852,-2.7979672,5.410753,-2.281328,1.411362,1.6375676,0.94583017,-0.02013298,-0.18718497,0.26450175,-6.306579,9.346605,1.995134,-5.182545,-1.4914068,5.325317,1
2.2699999999999956,,,,,18.937967,-4.61852,-2.7979672,5.410753,-2.3447468,1.5047778,1.6579056,0.9360976,-0.047278773,-0.20084883,0.2848598,-6.3783426,9.33761,2.0720356,-5.0938754,-1.6948719,5.3295097,1
2.2799999999999954,,,,,18.937967,-4.61852,-2.7979672,5.410753,-2.40892,1.5981361,1.6789982,0.9248513,-0.07371342,-0.21498479,0.30495465,-6.457454,9.334972,2.1459556,-5.0191426,-1.8666537,5.3334966,1
2.289999999999995,,,,,17.11569,-4.475212,-5.1610017,5.061459,-2.473922,1.6914966,1.7008121,0.91213375,-0.099488735,-0.22943875,0.32476333,-6.5441475,9.3379545,2.2161767,-4.956157,-2.0116858,5.3372874,1
2.299999999999995,,,,,17.11569,-4.475212,-5.1610017,5.061459,-2.539785,1.7849085,1.7232275,0.89777863,-0.124267384,-0.24491955,0.34433243,-6.629521,9.345011,2.2662308,-4.879471,-2.5025122,5.3237524,1
2.3099999999999947,,,,,17.11569,-4.475212,-5.1610017,5.061459,-2.606538,1.8784084,1.7461207,0.8816264,-0.14775601,-0.2619571,0.36370417,-6.7222457,9.355415,2.3115933,-4.8150153,-2.9168403,5.3108816,1
2.3199999999999945,,,,,17.11569,-4.475212,-5.1610017,5.061459,-2.6742566,1.9720246,1.769441,0.86372215,-0.17005381,-0.28018486,0.38283345,-6.8225718,9.36807,2.351558,-4.7608395,-3.2665925,5.2986426,1
2.3299999999999943,,,,,15.46076,-4.1337037,-6.55988,4.619632,-2.7430165,2.0657737,1.7931312,0.8441072,-0.19124389,-0.2992876,0.4016654,-6.9305735,9.381916,2.3854835,-4.715305,-3.561833,5.287004,1
