time-since-start [s],throttle_mpc,roll_mpc,pitch_mpc,yaw_mpc,throttle_nw,roll_nw,pitch_nw,yaw_nw,position_x [m],position_y [m],position_z [m],rotation_w [quaternion],rotation_x [quaternion],rotation_y [quaternion],rotation_z [quaternion],velocity_x [m/s],velocity_y [m/s],velocity_z [m/s],omega_x [rad/s],omega_y [rad/s],omega_z [rad/s],network_used
0.0,8.153397032324788,5.999999632331766,-5.999999853594769,-0.968612350854959,12.61242,0.52606887,-5.844501,-0.688852,20.668882,-9.257061,2.4669077,0.050191548,0.54516506,-0.11933013,-0.82827306,-10.180127,-5.8289723,-0.48990312,1.4164588,-0.15426615,-0.06364053,0
0.01,8.153397032324788,5.999999632331766,-5.999999853594769,-0.968612350854959,12.425906,-0.14189991,-6.307949,-0.54244715,20.56671,-9.315285,2.4616754,0.026206836,0.5219105,-0.14292781,-0.8405322,-10.253854,-5.815167,-0.5561028,5.9999995,-6.0,-0.9686124,0
0.02,8.153397032324788,5.999999632331766,-5.999999853594769,-0.968612350854959,12.425906,-0.14189991,-6.307949,-0.54244715,20.463812,-9.373343,2.455796,0.0021743462,0.49770436,-0.1662649,-0.8512589,-10.324917,-5.795714,-0.6193346,5.9999995,-6.0,-0.9686124,0
0.03,8.153397032324788,5.999999632331766,-5.999999853594769,-0.968612350854959,12.425906,-0.14189991,-6.307949,-0.54244715,20.360222,-9.431181,2.4492984,-0.021862108,0.47259083,-0.18929888,-0.8604335,-10.392785,-5.77079,-0.6797955,5.9999995,-6.0,-0.9686124,0
0.04,8.153397032324788,5.999999632331766,-5.999999853594769,-0.968612350854959,13.294144,-0.98442626,-4.263836,-0.32869107,20.25597,-9.488743,2.442209,-0.045858704,0.44661567,-0.21198773,-0.8680395,-10.456957,-5.7406116,-0.7377029,5.9999995,-6.0,-0.9686124,0
0.05,8.153397032324788,5.999999632331766,-5.999999853594769,-0.968612350854959,13.294144,-0.98442626,-4.263836,-0.32869107,20.151098,-9.545977,2.4345527,-0.069771685,0.4198263,-0.23429008,-0.87406284,-10.5169525,-5.705433,-0.79329276,5.9999995,-6.0,-0.9686124,0
0.060000000000000005,8.153397032324788,5.999999632331766,-5.999999853594769,-0.968612350854959,13.294144,-0.98442626,-4.263836,-0.32869107,20.045647,-9.602836,2.4263508,-0.09355746,0.3922715,-0.25616527,-0.87849265,-10.572325,-5.6655455,-0.8468179,5.9999995,-6.0,-0.9686124,0
0.07,8.153397032324788,5.999999632331766,-5.999999853594769,-0.968612350854959,13.294144,-0.98442626,-4.263836,-0.32869107,19.939669,-9.659274,2.4176228,-0.11717267,0.36400148,-0.27757344,-0.8813208,-10.622662,-5.621274,-0.8985462,5.9999995,-6.0,-0.9686124,0
0.08,15.90945221827021,5.999999325666069,-5.999999752227972,-0.26647697371285345,14.62445,-1.2821519,-2.4073465,-0.28022462,19.833214,-9.715248,2.4083853,-0.14057425,0.33506787,-0.29847553,-0.88254213,-10.667584,-5.572976,-0.94875866,5.9999995,-6.0,-0.9686124,0
0.09,15.90945221827021,5.999999325666069,-5.999999752227972,-0.26647697371285345,14.62445,-1.2821519,-2.4073465,-0.28022462,19.726149,-9.770477,2.3988848,-0.16062374,0.30447936,-0.32001275,-0.88265735,-10.744025,-5.4716253,-0.9510374,5.9999995,-5.9999995,-0.26647696,0
0.09999999999999999,15.90945221827021,5.999999325666069,-5.999999752227972,-0.26647697371285345,14.62445,-1.2821519,-2.4073465,-0.28022462,19.618376,-9.824659,2.3893707,-0.18038388,0.2733423,-0.34097344,-0.8811825,-10.808686,-5.3639297,-0.9515802,5.9999995,-5.9999995,-0.26647696,0
0.10999999999999999,15.90945221827021,5.999999325666069,-5.999999752227972,-0.26647697371285345,14.62445,-1.2821519,-2.4073465,-0.28022462,19.510015,-9.877736,2.3798568,-0.19981904,0.24171284,-0.36131984,-0.8781202,-10.861096,-5.250685,-0.9510609,5.9999995,-5.9999995,-0.26647696,0
0.11999999999999998,15.90945221827021,5.999999325666069,-5.999999752227972,-0.26647697371285345,14.62445,-1.2821519,-2.4073465,-0.28022462,19.401197,-9.929656,2.3703508,-0.21889424,0.20964794,-0.38101536,-0.8734759,-10.900869,-5.1327276,-0.950161,5.9999995,-5.9999995,-0.26647696,0
0.12999999999999998,20.99993328435801,3.826066319557032,-5.999998679515557,-0.16295709949312165,14.493467,-1.9415936,-0.8280706,-0.27569538,19.292044,-9.980377,2.360853,-0.23757511,0.17720534,-0.40002447,-0.8672581,-10.927713,-5.010927,-0.9495647,5.9999995,-5.9999995,-0.26647696,0
0.13999999999999999,20.99993328435801,3.826066319557032,-5.999998679515557,-0.16295709949312165,14.493467,-1.9415936,-0.8280706,-0.27569538,19.18266,-10.029668,2.351516,-0.25351864,0.1468628,-0.4090885,-0.8641795,-10.94677,-4.8471985,-0.91761833,3.8260663,-5.9999986,-0.1629571,0
0.15,20.99993328435801,3.826066319557032,-5.999998679515557,-0.16295709949312165,14.493467,-1.9415936,-0.8280706,-0.27569538,19.073158,-10.077319,2.342503,-0.2691411,0.116334274,-0.4176344,-0.86000633,-10.950916,-4.6830587,-0.88486296,3.8260663,-5.9999986,-0.1629571,0
0.16,20.999980808463498,1.047994210198737,-2.214758507296821,-0.4075513633786899,14.102094,-3.4522512,0.9664212,-0.51382166,18.963692,-10.123331,2.3338192,-0.28442267,0.08565841,-0.42565137,-0.854744,-10.940132,-4.519354,-0.85194176,3.8260663,-5.9999986,-0.1629571,0
0.17,20.999980808463498,1.047994210198737,-2.214758507296821,-0.4075513633786899,14.102094,-3.4522512,0.9664212,-0.51382166,18.854397,-10.16771,2.325464,-0.29130474,0.07556382,-0.42677313,-0.8528167,-10.918139,-4.356656,-0.81910825,1.0479943,-2.2147584,-0.40755138,0
0.18000000000000002,20.999980808463498,1.047994210198737,-2.214758507296821,-0.4075513633786899,14.102094,-3.4522512,0.9664212,-0.51382166,18.745346,-10.210467,2.3174384,-0.2981419,0.06545756,-0.4278291,-0.85075784,-10.891101,-4.1949296,-0.7860161,1.0479943,-2.2147584,-0.40755138,0
0.19000000000000003,20.999980808463498,1.047994210198737,-2.214758507296821,-0.4075513633786899,14.102094,-3.4522512,0.9664212,-0.51382166,18.636591,-10.251613,2.3097446,-0.30493304,0.055341214,-0.42881906,-0.8485678,-10.859036,-4.0342846,-0.75272787,1.0479943,-2.2147584,-0.40755138,0
0.20000000000000004,20.16815664668971,0.3522679971201111,-0.04579915451353544,-0.5712248977418297,16.382185,-3.866895,4.756478,-0.10233837,18.528181,-10.291158,2.3023844,-0.31167716,0.04521633,-0.42974287,-0.8462469,-10.821968,-3.87483,-0.71930605,1.0479943,-2.2147584,-0.40755138,0
0.21000000000000005,20.16815664668971,0.3522679971201111,-0.04579915451353544,-0.5712248977418297,16.382185,-3.866895,4.756478,-0.10233837,18.420155,-10.3291445,2.2953322,-0.31427044,0.045700718,-0.43103045,-0.8446054,-10.783196,-3.722356,-0.6912162,0.352268,-0.045799155,-0.57122487,0
0.22000000000000006,20.16815664668971,0.3522679971201111,-0.04579915451353544,-0.5712248977418297,16.382185,-3.866895,4.756478,-0.10233837,18.312517,-10.365605,2.2885587,-0.31686014,0.04618459,-0.43231314,-0.84295434,-10.743947,-3.5696208,-0.663591,0.352268,-0.045799155,-0.57122487,0
0.23000000000000007,20.16815664668971,0.3522679971201111,-0.04579915451353544,-0.5712248977418297,16.382185,-3.866895,4.756478,-0.10233837,18.205275,-10.400537,2.282059,-0.31944627,0.046667933,-0.43359095,-0.84129375,-10.704216,-3.4166284,-0.6364305,0.352268,-0.045799155,-0.57122487,0
0.24000000000000007,20.16815664668971,0.3522679971201111,-0.04579915451353544,-0.5712248977418297,16.101856,-3.5344682,5.302818,-0.20159656,18.098433,-10.433936,2.2758286,-0.3220288,0.047150753,-0.43486384,-0.83962363,-10.664001,-3.2633832,-0.60973424,0.352268,-0.045799155,-0.57122487,0
0.25000000000000006,20.16815664668971,0.3522679971201111,-0.04579915451353544,-0.5712248977418297,16.101856,-3.5344682,5.302818,-0.20159656,17.991995,-10.465802,2.2698627,-0.32460767,0.047633037,-0.43613183,-0.837944,-10.623302,-3.109889,-0.583502,0.352268,-0.045799155,-0.57122487,0
0.26000000000000006,20.16815664668971,0.3522679971201111,-0.04579915451353544,-0.5712248977418297,16.101856,-3.5344682,5.302818,-0.20159656,17.885967,-10.496133,2.2641568,-0.32718286,0.048114784,-0.4373949,-0.8362548,-10.582115,-2.9561505,-0.55773365,0.352268,-0.045799155,-0.57122487,0
0.2700000000000001,20.16815664668971,0.3522679971201111,-0.04579915451353544,-0.5712248977418297,16.101856,-3.5344682,5.302818,-0.20159656,17.780355,-10.524924,2.2587063,-0.32975435,0.048595987,-0.438653,-0.8345562,-10.540436,-2.8021715,-0.53242886,0.352268,-0.045799155,-0.57122487,0
0.2800000000000001,19.010932770599318,-0.18835586046816638,1.2543200262286363,-0.6496659550533218,15.779409,-3.0325713,5.0423846,-0.3642407,17.675161,-10.552175,2.2535064,-0.33232212,0.04907664,-0.43990615,-0.8328482,-10.498263,-2.6479564,-0.5075872,0.352268,-0.045799155,-0.57122487,0
0.2900000000000001,19.010932770599318,-0.18835586046816638,1.2543200262286363,-0.6496659550533218,15.779409,-3.0325713,5.0423846,-0.3642407,17.570375,-10.577926,2.2485173,-0.3322139,0.05604056,-0.44103536,-0.8318541,-10.458993,-2.5020506,-0.49031642,-0.18835586,1.25432,-0.64966595,0
0.3000000000000001,19.010932770599318,-0.18835586046816638,1.2543200262286363,-0.6496659550533218,15.779409,-3.0325713,5.0423846,-0.3642407,17.465973,-10.602212,2.2436976,-0.33208886,0.06300163,-0.44214216,-0.83081776,-10.421782,-2.3550825,-0.47371352,-0.18835586,1.25432,-0.64966595,0
0.3100000000000001,19.010932770599318,-0.18835586046816638,1.2543200262286363,-0.6496659550533218,15.779409,-3.0325713,5.0423846,-0.3642407,17.361933,-10.625023,2.2390406,-0.3319469,0.069959514,-0.44322655,-0.8297392,-10.386627,-2.207069,-0.45780864,-0.18835586,1.25432,-0.64966595,0
0.3200000000000001,18.160534031599617,-0.6760829089719456,2.364450358196904,-0.6611878474005134,15.499992,-2.9398608,4.884195,-0.47391373,17.258234,-10.646349,2.234539,-0.33178812,0.07691383,-0.44428843,-0.8286186,-10.353528,-2.0580256,-0.44263175,-0.18835586,1.25432,-0.64966595,0
0.3300000000000001,18.160534031599617,-0.6760829089719456,2.364450358196904,-0.6611878474005134,15.499992,-2.9398608,4.884195,-0.47391373,17.154846,-10.666212,2.2301598,-0.32898816,0.08929377,-0.44511953,-0.82804716,-10.324658,-1.9144521,-0.43334413,-0.6760829,2.3644505,-0.6611878,0
0.34000000000000014,18.160534031599617,-0.6760829089719456,2.364450358196904,-0.6611878474005134,15.499992,-2.9398608,4.884195,-0.47391373,17.051727,-10.684631,2.2258682,-0.32613486,0.10165923,-0.44587848,-0.82734144,-10.2998495,-1.769347,-0.42510515,-0.6760829,2.3644505,-0.6611878,0
0.35000000000000014,18.160534031599617,-0.6760829089719456,2.364450358196904,-0.6611878474005134,15.499992,-2.9398608,4.884195,-0.47391373,16.948835,-10.701593,2.2216535,-0.3232287,0.11400822,-0.44656512,-0.8265016,-10.279105,-1.6227832,-0.41800198,-0.6760829,2.3644505,-0.6611878,0
0.36000000000000015,17.59218920954242,-0.7154329137066412,2.0414432576610544,-0.6623214640117351,15.821597,-2.3285742,4.139429,-0.68310124,16.84613,-10.717083,2.217504,-0.32027012,0.12633872,-0.4471794,-0.8255278,-10.262427,-1.4748347,-0.412121,-0.6760829,2.3644505,-0.6611878,0
0.37000000000000016,17.59218920954242,-0.7154329137066412,2.0414432576610544,-0.6623214640117351,15.821597,-2.3285742,4.139429,-0.68310124,16.743568,-10.73111,2.213391,-0.31796712,0.13738327,-0.4470484,-0.8247245,-10.250063,-1.3303443,-0.4106367,-0.71543294,2.0414433,-0.66232145,0
0.38000000000000017,17.59218920954242,-0.7154329137066412,2.0414432576610544,-0.6623214640117351,15.821597,-2.3285742,4.139429,-0.68310124,16.641115,-10.743687,2.2092876,-0.3156234,0.14841025,-0.44686022,-0.82381564,-10.241243,-1.1849058,-0.4101608,-0.71543294,2.0414433,-0.66232145,0
0.3900000000000002,17.59218920954242,-0.7154329137066412,2.0414432576610544,-0.6623214640117351,15.821597,-2.3285742,4.139429,-0.68310124,16.538733,-10.754806,2.205184,-0.31323934,0.15941826,-0.4466149,-0.8228014,-10.235963,-1.0385742,-0.41075918,-0.71543294,2.0414433,-0.66232145,0
0.4000000000000002,17.265869302909007,-0.5899526564802066,1.2072116737037284,-0.6345263393059467,14.809838,-2.4915485,3.5394058,-0.7641247,16.436384,-10.764456,2.2010686,-0.3108152,0.17040585,-0.4463124,-0.82168186,-10.234216,-0.89140546,-0.41249704,-0.71543294,2.0414433,-0.66232145,0
0.4100000000000002,17.265869302909007,-0.5899526564802066,1.2072116737037284,-0.6345263393059467,14.809838,-2.4915485,3.5394058,-0.7641247,16.334036,-10.772644,2.1969218,-0.31021687,0.17769362,-0.4452118,-0.820961,-10.235502,-0.74635637,-0.41695035,-0.58995265,1.2072117,-0.6345263,0
0.4200000000000002,17.265869302909007,-0.5899526564802066,1.2072116737037284,-0.6345263393059467,14.809838,-2.4915485,3.5394058,-0.7641247,16.231667,-10.779381,2.1927278,-0.30960143,0.18497159,-0.44408658,-0.82019484,-10.23902,-0.60099185,-0.42195162,-0.58995265,1.2072117,-0.6345263,0
0.4300000000000002,17.265869302909007,-0.5899526564802066,1.2072116737037284,-0.6345263393059467,14.809838,-2.4915485,3.5394058,-0.7641247,16.12925,-10.784662,2.1884809,-0.3089689,0.19223934,-0.4429369,-0.8193834,-10.244765,-0.45533037,-0.42752957,-0.58995265,1.2072117,-0.6345263,0
0.4400000000000002,17.265869302909007,-0.5899526564802066,1.2072116737037284,-0.6345263393059467,14.539263,-2.4916835,3.3632987,-0.7381988,16.026764,-10.7884865,2.184175,-0.30831933,0.19949646,-0.44176275,-0.81852674,-10.252734,-0.30939066,-0.43371272,-0.58995265,1.2072117,-0.6345263,0
0.45000000000000023,17.265869302909007,-0.5899526564802066,1.2072116737037284,-0.6345263393059467,14.539263,-2.4916835,3.3632987,-0.7381988,15.924188,-10.79085,2.1798043,-0.30765274,0.20674257,-0.4405642,-0.81762487,-10.2629175,-0.16319132,-0.44052947,-0.58995265,1.2072117,-0.6345263,0
0.46000000000000024,17.265869302909007,-0.5899526564802066,1.2072116737037284,-0.6345263393059467,14.539263,-2.4916835,3.3632987,-0.7381988,15.821499,-10.79175,2.1753619,-0.30696917,0.21397728,-0.4393413,-0.81667787,-10.275312,-0.016751103,-0.4480081,-0.58995265,1.2072117,-0.6345263,0
0.47000000000000025,17.265869302909007,-0.5899526564802066,1.2072116737037284,-0.6345263393059467,14.539263,-2.4916835,3.3632987,-0.7381988,15.718675,-10.791185,2.1708417,-0.30626863,0.22120017,-0.4380942,-0.8156858,-10.289911,0.12991121,-0.45617676,-0.58995265,1.2072117,-0.6345263,0
0.48000000000000026,17.004312237919304,-0.344869918286039,0.34102165772953213,-0.596207916364062,15.099604,-2.7896678,2.8248515,-0.478597,15.615693,-10.789152,2.166236,-0.3055512,0.22841084,-0.43682292,-0.81464875,-10.306706,0.2767768,-0.46506345,-0.58995265,1.2072117,-0.6345263,0
0.49000000000000027,17.004312237919304,-0.344869918286039,0.34102165772953213,-0.596207916364062,15.099604,-2.7896678,2.8248515,-0.478597,15.512536,-10.78566,2.1615314,-0.30683878,0.23162727,-0.43525508,-0.8140956,-10.3249035,0.4215038,-0.4757703,-0.3448699,0.34102166,-0.5962079,0
0.5000000000000002,17.004312237919304,-0.344869918286039,0.34102165772953213,-0.596207916364062,15.099604,-2.7896678,2.8248515,-0.478597,15.409192,-10.780722,2.1567202,-0.3081218,0.23484029,-0.4336808,-0.8135305,-10.343921,0.56614995,-0.4865177,-0.3448699,0.34102166,-0.5962079,0
0.5100000000000002,17.004312237919304,-0.344869918286039,0.34102165772953213,-0.596207916364062,15.099604,-2.7896678,2.8248515,-0.478597,15.3056555,-10.774337,2.1518009,-0.30940026,0.23804983,-0.4321001,-0.81295335,-10.363756,0.7107143,-0.49731198,-0.3448699,0.34102166,-0.5962079,0
0.5200000000000002,16.817430114861395,-0.12078462569014961,-0.3377592163364324,-0.5297370130244579,14.832704,-2.6243365,2.0911834,-0.507659,15.201915,-10.766507,2.1467736,-0.31067416,0.24125586,-0.43051302,-0.8123642,-10.384411,0.855196,-0.50815934,-0.3448699,0.34102166,-0.5962079,0
0.5300000000000002,16.817430114861395,-0.12078462569014961,-0.3377592163364324,-0.5297370130244579,14.832704,-2.6243365,2.0911834,-0.507659,15.097966,-10.757241,2.1416333,-0.3134056,0.24121064,-0.42885655,-0.8122046,-10.4052515,0.9979415,-0.519819,-0.120784625,-0.33775923,-0.529737,0
0.5400000000000003,16.817430114861395,-0.12078462569014961,-0.3377592163364324,-0.5297370130244579,14.832704,-2.6243365,2.0911834,-0.507659,14.99381,-10.746549,2.136379,-0.31613386,0.24116293,-0.42719567,-0.8120367,-10.425847,1.1404272,-0.5309926,-0.120784625,-0.33775923,-0.529737,0
0.5500000000000003,16.817430114861395,-0.12078462569014961,-0.3377592163364324,-0.5297370130244579,14.832704,-2.6243365,2.0911834,-0.507659,14.88945,-10.734433,2.1310155,-0.31885886,0.24111275,-0.42553043,-0.8118605,-10.4462,1.2826504,-0.5416804,-0.120784625,-0.33775923,-0.529737,0
0.5600000000000003,16.498545220815434,0.04821412527885023,-0.8540370928417412,-0.4601457263008213,15.4457445,-2.1431146,0.6705108,-0.31590468,14.784887,-10.720897,2.1255472,-0.3215806,0.24106011,-0.42386085,-0.81167597,-10.466313,1.424608,-0.55188245,-0.120784625,-0.33775923,-0.529737,0
0.5700000000000003,16.498545220815434,0.04821412527885023,-0.8540370928417412,-0.4601457263008213,15.4457445,-2.1431146,0.6705108,-0.31590468,14.680127,-10.705956,2.1199715,-0.32531232,0.23848893,-0.42212367,-0.8118537,-10.48552,1.5635535,-0.5631189,0.048214126,-0.8540371,-0.4601457,0
0.5800000000000003,16.498545220815434,0.04821412527885023,-0.8540370928417412,-0.4601457263008213,15.4457445,-2.1431146,0.6705108,-0.31590468,14.575181,-10.689628,2.1142879,-0.32903636,0.23591213,-0.4203766,-0.81201226,-10.50372,1.7020743,-0.5734645,0.048214126,-0.8540371,-0.4601457,0
0.5900000000000003,16.498545220815434,0.04821412527885023,-0.8540370928417412,-0.4601457263008213,15.4457445,-2.1431146,0.6705108,-0.31590468,14.4700575,-10.671916,2.1085055,-0.33275265,0.23332976,-0.41861957,-0.81215173,-10.520913,1.8401575,-0.58292216,0.048214126,-0.8540371,-0.4601457,0
0.6000000000000003,16.43369652592716,0.0763027490378772,-0.6937301072268417,-0.40065655222360336,15.083465,-1.6879305,0.7736029,-0.25445586,14.364767,-10.652826,2.1026328,-0.33646107,0.23074187,-0.41685268,-0.8122721,-10.537104,1.9777901,-0.5914946,0.048214126,-0.8540371,-0.4601457,0
0.6100000000000003,16.43369652592716,0.0763027490378772,-0.6937301072268417,-0.40065655222360336,15.083465,-1.6879305,0.7736029,-0.25445586,14.259319,-10.632365,2.0966768,-0.33961952,0.22862923,-0.4155299,-0.8122328,-10.552287,2.1144629,-0.5996138,0.07630275,-0.6937301,-0.40065655,0
0.6200000000000003,16.43369652592716,0.0763027490378772,-0.6937301072268417,-0.40065655222360336,15.083465,-1.6879305,0.7736029,-0.25445586,14.153724,-10.6105385,2.0906432,-0.34277242,0.22651288,-0.41420037,-0.81218034,-10.56662,2.2507772,-0.60705274,0.07630275,-0.6937301,-0.40065655,0
0.6300000000000003,16.43369652592716,0.0763027490378772,-0.6937301072268417,-0.40065655222360336,15.083465,-1.6879305,0.7736029,-0.25445586,14.04799,-10.587351,2.0845382,-0.34591982,0.22439286,-0.41286415,-0.8121148,-10.580104,2.386725,-0.61381316,0.07630275,-0.6937301,-0.40065655,0
0.6400000000000003,16.43369652592716,0.0763027490378772,-0.6937301072268417,-0.40065655222360336,15.024503,-1.4398876,0.5412038,-0.22124583,13.942125,-10.562805,2.0783691,-0.34906158,0.22226922,-0.41152126,-0.81203604,-10.592742,2.5222971,-0.6198968,0.07630275,-0.6937301,-0.40065655,0
0.6500000000000004,16.43369652592716,0.0763027490378772,-0.6937301072268417,-0.40065655222360336,15.024503,-1.4398876,0.5412038,-0.22124583,13.836139,-10.536906,2.0721426,-0.35219774,0.22014196,-0.4101717,-0.8119442,-10.604536,2.657485,-0.62530553,0.07630275,-0.6937301,-0.40065655,0
0.6600000000000004,16.43369652592716,0.0763027490378772,-0.6937301072268417,-0.40065655222360336,15.024503,-1.4398876,0.5412038,-0.22124583,13.730039,-10.509657,2.0658653,-0.35532817,0.21801116,-0.40881544,-0.81183916,-10.61549,2.79228,-0.6300412,0.07630275,-0.6937301,-0.40065655,0
0.6700000000000004,16.43369652592716,0.0763027490378772,-0.6937301072268417,-0.40065655222360336,15.024503,-1.4398876,0.5412038,-0.22124583,13.623833,-10.481062,2.059544,-0.35845286,0.21587682,-0.40745264,-0.811721,-10.625605,2.9266734,-0.6341057,0.07630275,-0.6937301,-0.40065655,0
0.6800000000000004,16.13434951916571,0.09998309469226657,-0.7864423932424233,-0.3464339514662124,15.152925,-1.2356445,0.7949224,-0.19766933,13.517529,-10.451125,2.0531855,-0.36157173,0.21373898,-0.40608323,-0.8115897,-10.634882,3.0606563,-0.6375009,0.07630275,-0.6937301,-0.40065655,0
0.6900000000000004,16.13434951916571,0.09998309469226657,-0.7864423932424233,-0.3464339514662124,15.152925,-1.2356445,0.7949224,-0.19766933,13.411138,-10.419864,2.0467875,-0.36467782,0.21106829,-0.40469313,-0.8115933,-10.643126,3.19177,-0.64193743,0.099983096,-0.7864424,-0.34643394,0
0.7000000000000004,16.13434951916571,0.09998309469226657,-0.7864423932424233,-0.3464339514662124,15.152925,-1.2356445,0.7949224,-0.19766933,13.304668,-10.387292,2.040349,-0.36777708,0.20839365,-0.4032955,-0.8115816,-10.650427,3.3224163,-0.64564544,0.099983096,-0.7864424,-0.34643394,0
0.7100000000000004,16.13434951916571,0.09998309469226657,-0.7864423932424233,-0.3464339514662124,15.152925,-1.2356445,0.7949224,-0.19766933,13.198132,-10.353416,2.0338771,-0.37086943,0.20571512,-0.40189028,-0.81155485,-10.656789,3.4525847,-0.6486283,0.099983096,-0.7864424,-0.34643394,0
0.7200000000000004,15.912595300031873,0.034384374738965356,-0.6722230277043356,-0.2948476077283473,15.155186,-1.1647924,0.78643864,-0.06587273,13.091536,-10.318243,2.027379,-0.37395486,0.20303273,-0.40047756,-0.8115129,-10.662214,3.5822656,-0.65088946,0.099983096,-0.7864424,-0.34643394,0
0.7300000000000004,15.912595300031873,0.034384374738965356,-0.6722230277043356,-0.2948476077283473,15.155186,-1.1647924,0.78643864,-0.06587273,12.98489,-10.281782,2.0208552,-0.37652966,0.2008299,-0.39905813,-0.81156963,-10.666718,3.7096877,-0.6537827,0.034384374,-0.67222303,-0.2948476,0
0.7400000000000004,15.912595300031873,0.034384374738965356,-0.6722230277043356,-0.2948476077283473,15.155186,-1.1647924,0.78643864,-0.06587273,12.878203,-10.24405,2.0143056,-0.37909937,0.19862434,-0.39763334,-0.8116154,-10.670498,3.8366501,-0.6560327,0.034384374,-0.67222303,-0.2948476,0
0.7500000000000004,15.912595300031873,0.034384374738965356,-0.6722230277043356,-0.2948476077283473,15.155186,-1.1647924,0.78643864,-0.06587273,12.771483,-10.20505,2.007737,-0.38166395,0.1964161,-0.3962032,-0.81165034,-10.673559,3.9631457,-0.657642,0.034384374,-0.67222303,-0.2948476,0
0.7600000000000005,15.52258580228623,0.011815002112505626,-0.7825967871419189,-0.24548896365090034,15.518307,-1.2474848,0.3794431,-0.059163626,12.664735,-10.164788,2.0011554,-0.3842234,0.19420521,-0.39476767,-0.8116743,-10.675901,4.089168,-0.65861344,0.034384374,-0.67222303,-0.2948476,0
0.7700000000000005,15.52258580228623,0.011815002112505626,-0.7825967871419189,-0.24548896365090034,15.518307,-1.2474848,0.3794431,-0.059163626,12.557967,-10.123284,1.9945552,-0.38677263,0.19148937,-0.3930705,-0.81193244,-10.677456,4.2115965,-0.66129977,0.011815002,-0.78259677,-0.24548896,0
0.7800000000000005,15.52258580228623,0.011815002112505626,-0.7825967871419189,-0.24548896365090034,15.518307,-1.2474848,0.3794431,-0.059163626,12.451188,-10.08056,1.987932,-0.38931537,0.18877031,-0.39136666,-0.81217694,-10.678236,4.333453,-0.6632474,0.011815002,-0.78259677,-0.24548896,0
0.7900000000000005,15.52258580228623,0.011815002112505626,-0.7825967871419189,-0.24548896365090034,15.518307,-1.2474848,0.3794431,-0.059163626,12.344405,-10.036618,1.9812928,-0.39185154,0.18604808,-0.38965625,-0.8124078,-10.678241,4.45473,-0.66446084,0.011815002,-0.78259677,-0.24548896,0
0.8000000000000005,15.250201831052081,-0.11718104502176027,-0.5525914198025824,-0.2033613046737392,14.737196,-1.3516762,0.3602414,-0.006823119,12.237626,-9.9914665,1.9746453,-0.39438117,0.1833227,-0.3879393,-0.81262493,-10.677474,4.575417,-0.6649444,0.011815002,-0.78259677,-0.24548896,0
0.8100000000000005,15.250201831052081,-0.11718104502176027,-0.5525914198025824,-0.2033613046737392,14.737196,-1.3516762,0.3602414,-0.006823119,12.130858,-9.945122,1.9679878,-0.39617014,0.18170214,-0.38618538,-0.81295407,-10.676103,4.693437,-0.6664718,-0.11718105,-0.55259144,-0.2033613,0
0.8200000000000005,15.250201831052081,-0.11718104502176027,-0.5525914198025824,-0.2033613046737392,14.737196,-1.3516762,0.3602414,-0.006823119,12.024106,-9.8976,1.9613178,-0.39795554,0.18007997,-0.38442796,-0.8132759,-10.67435,4.810963,-0.6674055,-0.11718105,-0.55259144,-0.2033613,0
0.8300000000000005,15.250201831052081,-0.11718104502176027,-0.5525914198025824,-0.2033613046737392,14.737196,-1.3516762,0.3602414,-0.006823119,11.917373,-9.848905,1.9546416,-0.39973733,0.17845616,-0.3826671,-0.8135904,-10.672215,4.927992,-0.66774803,-0.11718105,-0.55259144,-0.2033613,0
0.8400000000000005,15.250201831052081,-0.11718104502176027,-0.5525914198025824,-0.2033613046737392,14.641202,-1.2524687,0.24078658,-0.03215533,11.810662,-9.799042,1.9479648,-0.4015155,0.17683074,-0.38090277,-0.81389755,-10.669702,5.0445194,-0.66750205,-0.11718105,-0.55259144,-0.2033613,0
0.8500000000000005,15.250201831052081,-0.11718104502176027,-0.5525914198025824,-0.2033613046737392,14.641202,-1.2524687,0.24078658,-0.03215533,11.70398,-9.748016,1.9412935,-0.4032901,0.17520373,-0.379135,-0.81419736,-10.66681,5.16054,-0.6666699,-0.11718105,-0.55259144,-0.2033613,0
0.8600000000000005,15.250201831052081,-0.11718104502176027,-0.5525914198025824,-0.2033613046737392,14.641202,-1.2524687,0.24078658,-0.03215533,11.597329,-9.695833,1.9346334,-0.40506104,0.17357515,-0.37736386,-0.81448984,-10.663543,5.276051,-0.6652543,-0.11718105,-0.55259144,-0.2033613,0
0.8700000000000006,15.250201831052081,-0.11718104502176027,-0.5525914198025824,-0.2033613046737392,14.641202,-1.2524687,0.24078658,-0.03215533,11.490711,-9.642497,1.9279903,-0.40682834,0.17194499,-0.37558928,-0.814775,-10.659902,5.391048,-0.6632577,-0.11718105,-0.55259144,-0.2033613,0
0.8800000000000006,14.83613435816698,-0.15347446186442656,-0.8998157029919858,-0.15128613652594272,14.430783,-1.3138326,0.5938894,0.025568191,11.384132,-9.588014,1.9213701,-0.408592,0.17031328,-0.37381133,-0.8150528,-10.655888,5.505526,-0.6606828,-0.11718105,-0.55259144,-0.2033613,0
0.8900000000000006,14.83613435816698,-0.15347446186442656,-0.8998157029919858,-0.15128613652594272,14.430783,-1.3138326,0.5938894,0.025568191,11.277595,-9.532403,1.9147652,-0.41075525,0.16724078,-0.37121478,-0.81578815,-10.65152,5.6162753,-0.66015965,-0.15347447,-0.8998157,-0.15128614,0
0.9000000000000006,14.83613435816698,-0.15347446186442656,-0.8998157029919858,-0.15128613652594272,14.430783,-1.3138326,0.5938894,0.025568191,11.1711035,-9.47569,1.9081699,-0.41290972,0.1641647,-0.3686103,-0.81650597,-10.646523,5.7262087,-0.65875757,-0.15347447,-0.8998157,-0.15128614,0
0.9100000000000006,14.83613435816698,-0.15347446186442656,-0.8998157029919858,-0.15128613652594272,14.430783,-1.3138326,0.5938894,0.025568191,11.064667,-9.417882,1.9015931,-0.41505536,0.16108511,-0.36599788,-0.8172063,-10.640899,5.835316,-0.65648407,-0.15347447,-0.8998157,-0.15128614,0
0.9200000000000006,14.52178087498195,-0.2876829866301392,-0.7034961289666845,-0.10173249272375169,14.419352,-1.1771923,0.5623026,0.08359355,10.958288,-9.358986,1.8950433,-0.4171921,0.15800208,-0.36337766,-0.8178892,-10.63465,5.9435887,-0.65334684,-0.15347447,-0.8998157,-0.15128614,0
0.9300000000000006,14.52178087498195,-0.2876829866301392,-0.7034961289666845,-0.10173249272375169,14.419352,-1.1771923,0.5623026,0.08359355,10.8519745,-9.299025,1.8885182,-0.41865593,0.15590896,-0.3606507,-0.8187494,-10.628048,6.048773,-0.65154266,-0.28768298,-0.70349616,-0.10173249,0
0.9400000000000006,14.52178087498195,-0.2876829866301392,-0.7034961289666845,-0.10173249272375169,14.419352,-1.1771923,0.5623026,0.08359355,10.745728,-9.238014,1.8820151,-0.42011368,0.15381353,-0.35791844,-0.81959766,-10.621164,6.153209,-0.6489763,-0.28768298,-0.70349616,-0.10173249,0
0.9500000000000006,14.52178087498195,-0.2876829866301392,-0.7034961289666845,-0.10173249272375169,14.419352,-1.1771923,0.5623026,0.08359355,10.639552,-9.175964,1.8755413,-0.42156523,0.15171584,-0.35518086,-0.8204338,-10.614002,6.2568927,-0.6456534,-0.28768298,-0.70349616,-0.10173249,0
0.9600000000000006,14.04341464503253,-0.3955636831063998,-0.8319623378243692,-0.028127409001528127,14.196509,-0.6484436,-0.23254535,-0.12901503,10.533448,-9.112881,1.8691046,-0.4230106,0.14961593,-0.35243815,-0.8212578,-10.606563,6.3598166,-0.6415795,-0.28768298,-0.70349616,-0.10173249,1
0.9700000000000006,14.04341464503253,-0.3955636831063998,-0.8319623378243692,-0.028127409001528127,14.196509,-0.6484436,-0.23254535,-0.12901503,10.42742,-9.048782,1.8627007,-0.42346245,0.15025896,-0.349185,-0.82229656,-10.599322,6.4597583,-0.63911504,-0.6484436,-0.23254535,-0.12901503,1
0.9800000000000006,14.04341464503253,-0.3955636831063998,-0.8319623378243692,-0.028127409001528127,14.196509,-0.6484436,-0.23254535,-0.12901503,10.321461,-8.983686,1.8563242,-0.42390913,0.15090014,-0.34592754,-0.82332516,-10.592624,6.5591397,-0.6360591,-0.6484436,-0.23254535,-0.12901503,1
0.9900000000000007,14.04341464503253,-0.3955636831063998,-0.8319623378243692,-0.028127409001528127,14.196509,-0.6484436,-0.23254535,-0.12901503,10.215565,-8.917601,1.8499813,-0.42435062,0.15153946,-0.3426658,-0.8243437,-10.586467,6.657956,-0.63241714,-0.6484436,-0.23254535,-0.12901503,1
1.0000000000000007,13.734208036103047,-0.40735843245012066,-1.0905866596314215,0.03921732318751938,14.24038,-0.47552618,-0.32279974,-0.013535317,10.109729,-8.850529,1.8436778,-0.42478687,0.15217693,-0.33939984,-0.8253521,-10.580853,6.7562037,-0.62819433,-0.6484436,-0.23254535,-0.12901503,1
1.0100000000000007,13.734208036103047,-0.40735843245012066,-1.0905866596314215,0.03921732318751938,14.24038,-0.47552618,-0.32279974,-0.013535317,10.003947,-8.782476,1.837421,-0.42502695,0.15187714,-0.33674017,-0.8263725,-10.575665,6.854189,-0.62309164,-0.47552618,-0.32279974,-0.013535317,1
1.0200000000000007,13.734208036103047,-0.40735843245012066,-1.0905866596314215,0.03921732318751938,14.24038,-0.47552618,-0.32279974,-0.013535317,9.898215,-8.713447,1.8312179,-0.4252635,0.15157609,-0.33407772,-0.82738614,-10.57075,6.951619,-0.6174521,-0.47552618,-0.32279974,-0.013535317,1
1.0300000000000007,13.734208036103047,-0.40735843245012066,-1.0905866596314215,0.03921732318751938,14.24038,-0.47552618,-0.32279974,-0.013535317,9.792531,-8.643445,1.8250738,-0.42549655,0.15127379,-0.3314125,-0.82839286,-10.566108,7.048492,-0.61127913,-0.47552618,-0.32279974,-0.013535317,1
1.0400000000000007,13.734208036103047,-0.40735843245012066,-1.0905866596314215,0.03921732318751938,14.1890335,-0.41148147,-0.31337512,0.045337383,9.6868925,-8.572478,1.8189942,-0.4257261,0.15097024,-0.32874453,-0.8293928,-10.561739,7.1448045,-0.6045763,-0.47552618,-0.32279974,-0.013535317,1
1.0500000000000007,13.734208036103047,-0.40735843245012066,-1.0905866596314215,0.03921732318751938,14.1890335,-0.41148147,-0.31337512,0.045337383,9.581295,-8.500552,1.8129823,-0.4257411,0.15047154,-0.32640418,-0.8303994,-10.557632,7.240225,-0.5977436,-0.41148147,-0.31337512,0.045337383,1
1.0600000000000007,13.734208036103047,-0.40735843245012066,-1.0905866596314215,0.03921732318751938,14.1890335,-0.41148147,-0.31337512,0.045337383,9.475739,-8.427675,1.807041,-0.42575327,0.14997183,-0.32406163,-0.83140045,-10.553734,7.335127,-0.5904341,-0.41148147,-0.31337512,0.045337383,1
1.0700000000000007,13.734208036103047,-0.40735843245012066,-1.0905866596314215,0.03921732318751938,14.1890335,-0.41148147,-0.31337512,0.045337383,9.37022,-8.353851,1.8011754,-0.42576256,0.1494711,-0.3217169,-0.83239585,-10.550041,7.429508,-0.5826506,-0.41148147,-0.31337512,0.045337383,1
1.0800000000000007,13.200514936856251,-0.5019603644968053,-1.6673904305193965,0.1321152897489398,14.099244,-0.19559583,-0.4468887,0.06719774,9.264737,-8.279087,1.7953898,-0.425769,0.14896938,-0.31937003,-0.8333857,-10.5465555,7.5233665,-0.57439595,-0.41148147,-0.31337512,0.045337383,0
1.0900000000000007,13.200514936856251,-0.5019603644968053,-1.6673904305193965,0.1321152897489398,14.099244,-0.19559583,-0.4468887,0.06719774,9.159288,-8.203421,1.789653,-0.42749092,0.14287351,-0.3138151,-0.83567864,-10.543142,7.6097627,-0.5727512,-0.50196034,-1.6673905,0.13211529,0
1.1000000000000008,13.200514936856251,-0.5019603644968053,-1.6673904305193965,0.1321152897489398,14.099244,-0.19559583,-0.4468887,0.06719774,9.053877,-8.126898,1.7839395,-0.42918023,0.13676676,-0.30823624,-0.8379079,-10.538956,7.6944966,-0.56971985,-0.50196034,-1.6673905,0.13211529,0
1.1100000000000008,13.200514936856251,-0.5019603644968053,-1.6673904305193965,0.1321152897489398,14.099244,-0.19559583,-0.4468887,0.06719774,8.948511,-8.049537,1.7782632,-0.43083683,0.13064958,-0.30263385,-0.84007335,-10.533995,7.7775435,-0.5653333,-0.50196034,-1.6673905,0.13211529,0
1.1200000000000008,12.799698980980704,-0.7485324609397558,-1.8950982836883377,0.20238748461597927,13.820543,-0.35291454,-0.5564894,0.18654436,8.8432,-7.9713535,1.7726375,-0.43246064,0.12452244,-0.2970084,-0.84217465,-10.528255,7.8588796,-0.55962336,-0.50196034,-1.6673905,0.13211529,0
1.1300000000000008,12.799698980980704,-0.7485324609397558,-1.8950982836883377,0.20238748461597927,13.820543,-0.35291454,-0.5564894,0.18654436,8.737948,-7.892378,1.7670597,-0.43393397,0.117854014,-0.28986922,-0.8448596,-10.521967,7.9359374,-0.5557173,-0.7485325,-1.8950983,0.20238748,0
1.1400000000000008,12.799698980980704,-0.7485324609397558,-1.8950982836883377,0.20238748461597927,13.820543,-0.35291454,-0.5564894,0.18654436,8.632763,-7.8126416,1.7615283,-0.43536183,0.111173235,-0.28269967,-0.8474561,-10.515002,8.01095,-0.55034125,-0.7485325,-1.8950983,0.20238748,0
1.1500000000000008,12.799698980980704,-0.7485324609397558,-1.8950982836883377,0.20238748461597927,13.820543,-0.35291454,-0.5564894,0.18654436,8.527651,-7.7321653,1.7560577,-0.43674406,0.1044808,-0.27550048,-0.84996367,-10.507359,8.083887,-0.54353917,-0.7485325,-1.8950983,0.20238748,0
1.1600000000000008,12.437357361392689,-0.9102420921254845,-1.5624250388312657,0.31393433669275644,13.554956,-0.7140088,-0.74519664,0.26176256,8.422619,-7.650971,1.7506621,-0.43808052,0.09777742,-0.26827237,-0.8523821,-10.499035,8.154719,-0.5353558,-0.7485325,-1.8950983,0.20238748,0
1.1700000000000008,12.437357361392689,-0.9102420921254845,-1.5624250388312657,0.31393433669275644,13.554956,-0.7140088,-0.74519664,0.26176256,8.317671,-7.5690885,1.7453398,-0.43837488,0.09268715,-0.26111296,-0.8550186,-10.490437,8.221547,-0.528916,-0.9102421,-1.562425,0.31393433,0
1.1800000000000008,12.437357361392689,-0.9102420921254845,-1.5624250388312657,0.31393433669275644,13.554956,-0.7140088,-0.74519664,0.26176256,8.2128105,-7.486547,1.7400877,-0.4386323,0.087589085,-0.25393155,-0.85758317,-10.481579,8.286471,-0.52130544,-0.9102421,-1.562425,0.31393433,0
1.1900000000000008,12.437357361392689,-0.9102420921254845,-1.5624250388312657,0.31393433669275644,13.554956,-0.7140088,-0.74519664,0.26176256,8.10804,-7.4033656,1.7349176,-0.43885285,0.082483634,-0.24672878,-0.8600755,-10.472458,8.349472,-0.5125596,-0.9102421,-1.562425,0.31393433,0
1.2000000000000008,12.20636922163095,-1.116705814841225,-0.7357895663306709,0.3599703665618779,13.292398,-0.66084754,-0.7520184,0.25272554,8.003362,-7.3195643,1.7298404,-0.43903643,0.07737124,-0.2395052,-0.8624954,-10.46307,8.41053,-0.5027142,-0.9102421,-1.562425,0.31393433,0
1.2100000000000009,12.20636922163095,-1.116705814841225,-0.7357895663306709,0.3599703665618779,13.292398,-0.66084754,-0.7520184,0.25272554,7.898778,-7.2351665,1.7248567,-0.43792266,0.07621662,-0.2332078,-0.8648869,-10.453894,8.468754,-0.49392557,-1.1167058,-0.73578954,0.35997036,0
1.2200000000000009,12.20636922163095,-1.116705814841225,-0.7357895663306709,0.3599703665618779,13.292398,-0.66084754,-0.7520184,0.25272554,7.7942824,-7.1501937,1.7199646,-0.4367879,0.07505834,-0.22689922,-0.86723685,-10.445255,8.525639,-0.48437384,-1.1167058,-0.73578954,0.35997036,0
1.2300000000000009,12.20636922163095,-1.116705814841225,-0.7357895663306709,0.3599703665618779,13.292398,-0.66084754,-0.7520184,0.25272554,7.689871,-7.064658,1.7151717,-0.43563217,0.07389647,-0.22057976,-0.8695453,-10.437151,8.581171,-0.47407776,-1.1167058,-0.73578954,0.35997036,0
1.2400000000000009,12.20636922163095,-1.116705814841225,-0.7357895663306709,0.3599703665618779,13.406083,-0.6855215,-0.8933135,0.17990845,7.585537,-6.9785748,1.7104855,-0.43445557,0.07273105,-0.21424972,-0.8718119,-10.429577,8.635342,-0.46305618,-1.1167058,-0.73578954,0.35997036,0
1.2500000000000009,12.20636922163095,-1.116705814841225,-0.7357895663306709,0.3599703665618779,13.406083,-0.6855215,-0.8933135,0.17990845,7.4812765,-6.891956,1.7059131,-0.43325815,0.07156214,-0.2079094,-0.87403685,-10.422529,8.688138,-0.45132807,-1.1167058,-0.73578954,0.35997036,0
1.260000000000001,12.20636922163095,-1.116705814841225,-0.7357895663306709,0.3599703665618779,13.406083,-0.6855215,-0.8933135,0.17990845,7.3770843,-6.8048162,1.7014613,-0.43203995,0.07038981,-0.20155911,-0.8762198,-10.416002,8.73955,-0.43891254,-1.1167058,-0.73578954,0.35997036,0
1.270000000000001,12.20636922163095,-1.116705814841225,-0.7357895663306709,0.3599703665618779,13.406083,-0.6855215,-0.8933135,0.17990845,7.2729545,-6.7171693,1.6971371,-0.43080103,0.0692141,-0.19519918,-0.8783608,-10.409993,8.789564,-0.42582878,-1.1167058,-0.73578954,0.35997036,0
1.280000000000001,11.902146119673617,-1.1658935931410495,-1.2475249881050272,0.46511684110801255,13.312216,-0.8732084,-0.8715996,0.3720023,7.1688824,-6.6290293,1.6929469,-0.42954147,0.068035066,-0.18882987,-0.8804596,-10.404497,8.838171,-0.41209626,-1.1167058,-0.73578954,0.35997036,0
1.290000000000001,11.902146119673617,-1.1658935931410495,-1.2475249881050272,0.46511684110801255,13.312216,-0.8732084,-0.8715996,0.3720023,7.0648623,-6.5404167,1.6888833,-0.42825833,0.06460533,-0.18116887,-0.8829492,-10.399509,8.884004,-0.40046832,-1.1658936,-1.247525,0.46511683,0
1.300000000000001,11.902146119673617,-1.1658935931410495,-1.2475249881050272,0.46511684110801255,13.312216,-0.8732084,-0.8715996,0.3720023,6.9608917,-6.4513555,1.6849399,-0.42694166,0.06117054,-0.17349368,-0.8853696,-10.394676,8.927962,-0.38806942,-1.1658936,-1.247525,0.46511683,0
1.310000000000001,11.902146119673617,-1.1658935931410495,-1.2475249881050272,0.46511684110801255,13.312216,-0.8732084,-0.8715996,0.3720023,6.856968,-6.361864,1.6811242,-0.42559156,0.057730958,-0.16580492,-0.88772076,-10.38999,8.970035,-0.37493184,-1.1658936,-1.247525,0.46511683,0
1.320000000000001,11.688287767482382,-1.350141060087862,-0.5195047936161635,0.47932692017218365,12.975137,-0.8449178,-0.8903965,0.45944828,6.7530913,-6.2719607,1.6774435,-0.42420813,0.054286852,-0.15810317,-0.8900023,-10.385443,9.010205,-0.3610882,-1.1658936,-1.247525,0.46511683,0
1.330000000000001,11.688287767482382,-1.350141060087862,-0.5195047936161635,0.47932692017218365,12.975137,-0.8449178,-0.8903965,0.45944828,6.6492577,-6.1816688,1.6738944,-0.422107,0.054458264,-0.15111871,-0.8922014,-10.381371,9.047964,-0.3486482,-1.350141,-0.5195048,0.47932693,0
1.340000000000001,11.688287767482382,-1.350141060087862,-0.5195047936161635,0.47932692017218365,12.975137,-0.8449178,-0.8903965,0.45944828,6.545461,-6.091006,1.6704723,-0.4199814,0.05462651,-0.14412548,-0.89434874,-10.378128,9.084333,-0.33571595,-1.350141,-0.5195048,0.47932693,0
1.350000000000001,11.688287767482382,-1.350141060087862,-0.5195047936161635,0.47932692017218365,12.975137,-0.8449178,-0.8903965,0.45944828,6.441693,-5.9999866,1.6671817,-0.4178314,0.054791585,-0.13712388,-0.89644414,-10.375706,9.119302,-0.3223137,-1.350141,-0.5195048,0.47932693,0
1.360000000000001,11.451224983945522,-1.3853455509686015,-0.9369689391711509,0.5755359887456922,13.051006,-1.0457158,-1.9355727,0.39542788,6.3379445,-5.9086246,1.6640275,-0.41565713,0.05495348,-0.13011433,-0.89848745,-10.374099,9.152858,-0.3084637,-1.350141,-0.5195048,0.47932693,0
1.370000000000001,11.451224983945522,-1.3853455509686015,-0.9369689391711509,0.5755359887456922,13.051006,-1.0457158,-1.9355727,0.39542788,6.2342086,-5.816938,1.6610026,-0.41328427,0.053246796,-0.122096606,-0.90080714,-10.373211,9.184198,-0.29642853,-1.3853456,-0.9369689,0.575536,0
1.380000000000001,11.451224983945522,-1.3853455509686015,-0.9369689391711509,0.5755359887456922,13.051006,-1.0457158,-1.9355727,0.39542788,6.130479,-5.7249465,1.6581007,-0.41087908,0.051535945,-0.11406934,-0.9030564,-10.372827,9.2137575,-0.28389925,-1.3853456,-0.9369689,0.575536,0
1.390000000000001,11.451224983945522,-1.3853455509686015,-0.9369689391711509,0.5755359887456922,13.051006,-1.0457158,-1.9355727,0.39542788,6.0267506,-5.632669,1.6553262,-0.40844178,0.049821064,-0.10603316,-0.905235,-10.372933,9.241525,-0.2709061,-1.3853456,-0.9369689,0.575536,0
1.400000000000001,11.428393666168198,-1.4453833386488277,-0.05362247699280984,0.5684147361753308,13.372546,-1.1324431,-1.3680849,0.5028016,5.9230185,-5.5401225,1.652684,-0.40597254,0.048102293,-0.09798868,-0.9073428,-10.373523,9.26749,-0.25747946,-1.3853456,-0.9369689,0.575536,0
1.410000000000001,11.428393666168198,-1.4453833386488277,-0.05362247699280984,0.5684147361753308,13.372546,-1.1324431,-1.3680849,0.5028016,5.8192773,-5.4473248,1.6501768,-0.40306023,0.050512984,-0.09145635,-0.90919024,-10.374853,9.291854,-0.24393167,-1.4453833,-0.053622477,0.56841475,0
1.420000000000001,11.428393666168198,-1.4453833386488277,-0.05362247699280984,0.5684147361753308,13.372546,-1.1324431,-1.3680849,0.5028016,5.7155175,-5.354289,1.647806,-0.40012357,0.052920625,-0.084918514,-0.9109828,-10.377368,9.315087,-0.23016354,-1.4453833,-0.053622477,0.56841475,0
1.430000000000001,11.428393666168198,-1.4453833386488277,-0.05362247699280984,0.5684147361753308,13.372546,-1.1324431,-1.3680849,0.5028016,5.6117263,-5.2610264,1.6455742,-0.39716277,0.055325072,-0.07837555,-0.9127203,-10.3810625,9.337179,-0.216197,-1.4453833,-0.053622477,0.56841475,0
1.440000000000001,11.428393666168198,-1.4453833386488277,-0.05362247699280984,0.5684147361753308,13.3040905,-1.2447278,-1.0962796,0.5432505,5.5078917,-5.1675487,1.6434828,-0.394178,0.057726175,-0.071827844,-0.9144028,-10.385928,9.358118,-0.20205398,-1.4453833,-0.053622477,0.56841475,0
1.450000000000001,11.428393666168198,-1.4453833386488277,-0.05362247699280984,0.5684147361753308,13.3040905,-1.2447278,-1.0962796,0.5432505,5.404003,-5.073868,1.6415337,-0.39116943,0.060123798,-0.0652758,-0.91603,-10.391955,9.377893,-0.18775646,-1.4453833,-0.053622477,0.56841475,0
1.460000000000001,11.428393666168198,-1.4453833386488277,-0.05362247699280984,0.5684147361753308,13.3040905,-1.2447278,-1.0962796,0.5432505,5.300049,-4.979995,1.6397282,-0.38813722,0.062517785,-0.05871982,-0.9176019,-10.399139,9.396494,-0.17332645,-1.4453833,-0.053622477,0.56841475,0
1.470000000000001,11.428393666168198,-1.4453833386488277,-0.05362247699280984,0.5684147361753308,13.3040905,-1.2447278,-1.0962796,0.5432505,5.196017,-4.885942,1.6380675,-0.3850816,0.064908005,-0.052160297,-0.91911846,-10.407472,9.41391,-0.15878601,-1.4453833,-0.053622477,0.56841475,0
1.480000000000001,11.370457591822563,-1.3568571031276468,-0.786844718585733,0.5968163088660338,13.310299,-1.1198455,-2.0230134,0.5863101,5.0918956,-4.7917204,1.6365527,-0.3820027,0.06729431,-0.045597624,-0.9205795,-10.416943,9.430131,-0.14415723,-1.4453833,-0.053622477,0.56841475,0
1.490000000000001,11.370457591822563,-1.3568571031276468,-0.786844718585733,0.5968163088660338,13.310299,-1.1198455,-2.0230134,0.5863101,4.987675,-4.6973443,1.6351819,-0.37896505,0.06612573,-0.03804856,-0.92226106,-10.427244,9.444881,-0.12998609,-1.3568571,-0.78684473,0.5968163,0
1.500000000000001,11.370457591822563,-1.3568571031276468,-0.786844718585733,0.5968163088660338,13.310299,-1.1198455,-2.0230134,0.5863101,4.883349,-4.602829,1.6339536,-0.37590072,0.0649525,-0.030496819,-0.9238778,-10.438004,9.457916,-0.11564579,-1.3568571,-0.78684473,0.5968163,0
1.5100000000000011,11.370457591822563,-1.3568571031276468,-0.786844718585733,0.5968163088660338,13.310299,-1.1198455,-2.0230134,0.5863101,4.7789135,-4.5081916,1.6328694,-0.37280992,0.0637747,-0.02294293,-0.9254294,-10.449208,9.469229,-0.101162694,-1.3568571,-0.78684473,0.5968163,0
1.5200000000000011,11.42421614590563,-1.2629172171672438,-0.46487380576509857,0.5652701356882537,12.842018,-0.86109436,-1.2265255,0.6053342,4.6743636,-4.4134502,1.6319307,-0.3696929,0.0625924,-0.015387424,-0.9269158,-10.460844,9.478816,-0.08656324,-1.3568571,-0.78684473,0.5968163,0
1.5300000000000011,11.42421614590563,-1.2629172171672438,-0.46487380576509857,0.5652701356882537,12.842018,-0.86109436,-1.2265255,0.6053342,4.569694,-4.318621,1.6311411,-0.36670378,0.0627272,-0.008851589,-0.92817867,-10.473027,9.486833,-0.07135669,-1.2629172,-0.46487382,0.5652701,0
1.5400000000000011,11.42421614590563,-1.2629172171672438,-0.46487380576509857,0.5652701356882537,12.842018,-0.86109436,-1.2265255,0.6053342,4.4649005,-4.2237186,1.6305035,-0.36369514,0.062858656,-0.0023152814,-0.92939204,-10.485812,9.493434,-0.056125104,-1.2629172,-0.46487382,0.5652701,0
1.5500000000000012,11.42421614590563,-1.2629172171672438,-0.46487380576509857,0.5652701356882537,12.842018,-0.86109436,-1.2265255,0.6053342,4.3599763,-4.128757,1.6300186,-0.36066717,0.062986776,0.0042211497,-0.930556,-10.499188,9.498616,-0.040887892,-1.2629172,-0.46487382,0.5652701,0
1.5600000000000012,11.461317535703076,-1.0753650760274407,-0.5594142858822114,0.5416405941280789,13.477721,-0.69789004,-1.0004221,0.61505526,4.254915,-4.033751,1.6296858,-0.35761994,0.06311153,0.010757355,-0.93167037,-10.5131445,9.502375,-0.025664497,-1.2629172,-0.46487382,0.5652701,0
1.5700000000000012,11.461317535703076,-1.0753650760274407,-0.5594142858822114,0.5416405941280789,13.477721,-0.69789004,-1.0004221,0.61505526,4.1497116,-3.9387143,1.629507,-0.35471952,0.062456187,0.016595874,-0.93273693,-10.527634,9.504746,-0.010096304,-1.0753651,-0.55941427,0.5416406,0
1.5800000000000012,11.461317535703076,-1.0753650760274407,-0.5594142858822114,0.5416405941280789,13.477721,-0.69789004,-1.0004221,0.61505526,4.044361,-3.8436606,1.6294838,-0.35180345,0.061798092,0.02243366,-0.9337625,-10.542461,9.505771,0.005448239,-1.0753651,-0.55941427,0.5416406,0
1.5900000000000012,11.461317535703076,-1.0753650760274407,-0.5594142858822114,0.5416405941280789,13.477721,-0.69789004,-1.0004221,0.61505526,3.9388607,-3.7486033,1.6296159,-0.3488719,0.061137278,0.02827046,-0.93474686,-10.557621,9.505446,0.020953398,-1.0753651,-0.55941427,0.5416406,0
1.6000000000000012,11.584862677296961,-0.8874033433873204,-0.22426774954242745,0.499596135594816,13.894455,-0.79106534,-2.1242237,0.68587536,3.8332071,-3.6535563,1.6299027,-0.3459249,0.060473766,0.034106012,-0.9356901,-10.573101,9.503772,0.036403444,-1.0753651,-0.55941427,0.5416406,0
1.6100000000000012,11.584862677296961,-0.8874033433873204,-0.22426774954242745,0.499596135594816,13.894455,-0.79106534,-2.1242237,0.68587536,3.7273965,-3.5585325,1.6303498,-0.34327632,0.061043788,0.038494036,-0.936458,-10.589119,9.500869,0.053002223,-0.88740337,-0.22426775,0.49959615,0
1.6200000000000012,11.584862677296961,-0.8874033433873204,-0.22426774954242745,0.499596135594816,13.894455,-0.79106534,-2.1242237,0.68587536,3.6214235,-3.4635422,1.6309625,-0.34061837,0.061612148,0.042881016,-0.9372004,-10.605598,9.497015,0.06950777,-0.88740337,-0.22426775,0.49959615,0
1.6300000000000012,11.584862677296961,-0.8874033433873204,-0.22426774954242745,0.499596135594816,13.894455,-0.79106534,-2.1242237,0.68587536,3.515283,-3.3685951,1.6317397,-0.33795118,0.062178835,0.047266833,-0.93791735,-10.622531,9.4922085,0.085911065,-0.88740337,-0.22426775,0.49959615,0
1.6400000000000012,11.584862677296961,-0.8874033433873204,-0.22426774954242745,0.499596135594816,13.7583885,-0.59731185,-2.2307255,0.6719205,3.408971,-3.2737012,1.6326804,-0.33527482,0.062743835,0.051651362,-0.9386088,-10.639912,9.486447,0.10220314,-0.88740337,-0.22426775,0.49959615,0
1.6500000000000012,11.584862677296961,-0.8874033433873204,-0.22426774954242745,0.499596135594816,13.7583885,-0.59731185,-2.2307255,0.6719205,3.302483,-3.1788697,1.6337835,-0.33258933,0.06330712,0.056034487,-0.9392747,-10.657734,9.47973,0.118374996,-0.88740337,-0.22426775,0.49959615,0
1.6600000000000013,11.584862677296961,-0.8874033433873204,-0.22426774954242745,0.499596135594816,13.7583885,-0.59731185,-2.2307255,0.6719205,3.1958146,-3.08411,1.6350476,-0.32989478,0.06386869,0.060416088,-0.9399151,-10.675992,9.472054,0.13441768,-0.88740337,-0.22426775,0.49959615,0
1.6700000000000013,11.584862677296961,-0.8874033433873204,-0.22426774954242745,0.499596135594816,13.7583885,-0.59731185,-2.2307255,0.6719205,3.0889616,-2.9894319,1.6364714,-0.3271913,0.06442852,0.064796045,-0.94052994,-10.69468,9.463419,0.15032226,-0.88740337,-0.22426775,0.49959615,0
1.6800000000000013,11.65503055467269,-0.7026430129155877,-0.48092517633023346,0.440883906001433,14.121084,-0.3694379,-1.5713003,0.50250286,2.9819193,-2.8948448,1.6380535,-0.32447892,0.06498661,0.069174245,-0.9411192,-10.71379,9.453823,0.16607977,-0.88740337,-0.22426775,0.49959615,0
1.6900000000000013,11.65503055467269,-0.7026430129155877,-0.48092517633023346,0.440883906001433,14.121084,-0.3694379,-1.5713003,0.50250286,2.8746839,-2.800359,1.6397959,-0.32200593,0.06401528,0.07311679,-0.94173694,-10.733298,9.443193,0.18239273,-0.70264304,-0.48092517,0.4408839,0
1.7000000000000013,11.65503055467269,-0.7026430129155877,-0.48092517633023346,0.440883906001433,14.121084,-0.3694379,-1.5713003,0.50250286,2.7672532,-2.7059844,1.6417011,-0.31952554,0.06304248,0.077057645,-0.942333,-10.752857,9.431578,0.19860128,-0.70264304,-0.48092517,0.4408839,0
1.7100000000000013,11.65503055467269,-0.7026430129155877,-0.48092517633023346,0.440883906001433,14.121084,-0.3694379,-1.5713003,0.50250286,2.6596265,-2.6117308,1.6437676,-0.3170378,0.06206823,0.08099673,-0.9429074,-10.77246,9.418978,0.21469784,-0.70264304,-0.48092517,0.4408839,0
1.7200000000000013,11.790094482879427,-0.45128700487339696,-0.269679278423444,0.3793359034265474,13.82384,-0.16428277,-1.1754912,0.4083318,2.5518036,-2.5176082,1.6459945,-0.31454277,0.061092556,0.084933944,-0.9434601,-10.792101,9.405394,0.23067486,-0.70264304,-0.48092517,0.4408839,0
1.7300000000000013,11.790094482879427,-0.45128700487339696,-0.269679278423444,0.3793359034265474,13.82384,-0.16428277,-1.1754912,0.4083318,2.443783,-2.4236267,1.6483873,-0.31249934,0.060690913,0.087370604,-0.9439425,-10.812013,9.3908,0.24786212,-0.451287,-0.26967928,0.3793359,0
1.7400000000000013,11.790094482879427,-0.45128700487339696,-0.269679278423444,0.3793359034265474,13.82384,-0.16428277,-1.1754912,0.4083318,2.3355632,-2.3297942,1.6509515,-0.31045258,0.060288638,0.08980635,-0.9444149,-10.831981,9.375595,0.26496086,-0.451287,-0.26967928,0.3793359,0
1.7500000000000013,11.790094482879427,-0.45128700487339696,-0.269679278423444,0.3793359034265474,13.82384,-0.16428277,-1.1754912,0.4083318,2.2271433,-2.236117,1.6536863,-0.30840257,0.059885725,0.09224114,-0.94487745,-10.852,9.359779,0.28196824,-0.451287,-0.26967928,0.3793359,0
1.7600000000000013,11.875253985953199,-0.2373082061242523,-0.6538722656855807,0.31638384958929167,13.270388,-0.3279625,-1.3559036,0.639805,2.118523,-2.1426008,1.6565907,-0.3063493,0.059482187,0.09467497,-0.9453301,-10.872069,9.343353,0.29888144,-0.451287,-0.26967928,0.3793359,0
1.7700000000000014,11.875253985953199,-0.2373082061242523,-0.6538722656855807,0.31638384958929167,13.270388,-0.3279625,-1.3559036,0.639805,2.0097017,-2.0492527,1.6596678,-0.30447152,0.056904398,0.09670342,-0.9458899,-10.8921385,9.326169,0.31655735,-0.2373082,-0.65387225,0.31638384,0
1.7800000000000014,11.875253985953199,-0.2373082061242523,-0.6538722656855807,0.31638384958929167,13.270388,-0.3279625,-1.3559036,0.639805,1.9006819,-1.9560797,1.6629218,-0.3025893,0.054325774,0.09873045,-0.946436,-10.911739,9.308305,0.33421046,-0.2373082,-0.65387225,0.31638384,0
1.7900000000000014,11.875253985953199,-0.2373082061242523,-0.6538722656855807,0.31638384958929167,13.270388,-0.3279625,-1.3559036,0.639805,1.7914685,-1.8630888,1.666352,-0.30070266,0.05174636,0.10075605,-0.94696826,-10.930868,9.2897625,0.35183567,-0.2373082,-0.65387225,0.31638384,0
1.8000000000000014,11.941971727450863,-0.08489373840070998,-0.09656390747987793,0.26437837778136936,13.053554,0.07143667,-1.0291517,0.56866664,1.6820661,-1.7702868,1.6699584,-0.29881164,0.04916619,0.10278018,-0.9474867,-10.949524,9.270544,0.36942804,-0.2373082,-0.65387225,0.31638384,0
1.8100000000000014,11.941971727450863,-0.08489373840070998,-0.09656390747987793,0.26437837778136936,13.053554,0.07143667,-1.0291517,0.56866664,1.5724785,-1.6776803,1.6737437,-0.29748833,0.048971374,0.10326152,-0.9478608,-10.967972,9.250739,0.38764024,-0.08489374,-0.096563905,0.26437837,0
1.8200000000000014,11.941971727450863,-0.08489373840070998,-0.09656390747987793,0.26437837778136936,13.053554,0.07143667,-1.0291517,0.56866664,1.4627068,-1.5852726,1.6777111,-0.2961644,0.04877645,0.10374265,-0.9482328,-10.986382,9.230786,0.4058332,-0.08489374,-0.096563905,0.26437837,0
1.8300000000000014,11.941971727450863,-0.08489373840070998,-0.09656390747987793,0.26437837778136936,13.053554,0.07143667,-1.0291517,0.56866664,1.3527511,-1.493065,1.6818603,-0.29483983,0.04858142,0.10422354,-0.94860286,-11.004752,9.210686,0.4240069,-0.08489374,-0.096563905,0.26437837,0
1.8400000000000014,11.941971727450863,-0.08489373840070998,-0.09656390747987793,0.26437837778136936,13.117939,0.21131554,-0.8429778,0.46764344,1.2426119,-1.4010593,1.6861912,-0.2935146,0.048386287,0.10470422,-0.94897074,-11.023084,9.190438,0.44216123,-0.08489374,-0.096563905,0.26437837,0
1.8500000000000014,11.941971727450863,-0.08489373840070998,-0.09656390747987793,0.26437837778136936,13.117939,0.21131554,-0.8429778,0.46764344,1.1322894,-1.3092569,1.6907035,-0.29218876,0.04819105,0.10518467,-0.94933665,-11.041375,9.170044,0.460296,-0.08489374,-0.096563905,0.26437837,0
1.8600000000000014,11.941971727450863,-0.08489373840070998,-0.09656390747987793,0.26437837778136936,13.117939,0.21131554,-0.8429778,0.46764344,1.0217844,-1.217659,1.6953973,-0.2908623,0.047995705,0.10566489,-0.9497005,-11.059628,9.149503,0.4784112,-0.08489374,-0.096563905,0.26437837,0
1.8700000000000014,11.941971727450863,-0.08489373840070998,-0.09656390747987793,0.26437837778136936,13.117939,0.21131554,-0.8429778,0.46764344,0.91109705,-1.1262673,1.7002717,-0.28953516,0.047800258,0.10614488,-0.9500623,-11.077839,9.128814,0.49650663,-0.08489374,-0.096563905,0.26437837,0
1.8800000000000014,11.926713827585347,0.010596040851657117,-0.5071536544666614,0.21062510566829468,12.969419,0.18042603,-1.2748238,0.56174535,0.80022776,-1.0350832,1.7053272,-0.28820744,0.047604706,0.10662464,-0.95042205,-11.09601,9.107979,0.5145822,-0.08489374,-0.096563905,0.26437837,0
1.8900000000000015,11.926713827585347,0.010596040851657117,-0.5071536544666614,0.21062510566829468,12.969419,0.18042603,-1.2748238,0.56174535,0.68917763,-0.9441083,1.7105625,-0.2869376,0.0452915,0.10725458,-0.95084834,-11.113942,9.086956,0.5325043,0.010596041,-0.50715363,0.21062511,0
1.9000000000000015,11.926713827585347,0.010596040851657117,-0.5071536544666614,0.21062510566829468,12.969419,0.18042603,-1.2748238,0.56174535,0.57795066,-0.8533453,1.7159772,-0.28566557,0.04297795,0.10788371,-0.9512675,-11.131364,9.065608,0.55044454,0.010596041,-0.50715363,0.21062511,0
1.9100000000000015,11.926713827585347,0.010596040851657117,-0.5071536544666614,0.21062510566829468,12.969419,0.18042603,-1.2748238,0.56174535,0.46655202,-0.76279736,1.7215714,-0.2843914,0.04066408,0.108512014,-0.95167947,-11.148276,9.043935,0.56840014,0.010596041,-0.50715363,0.21062511,0
1.9200000000000015,11.9234963438048,0.1287611450343446,-0.27716604517579113,0.16680040146983902,13.029965,0.22752002,-1.026506,0.5188102,0.35498685,-0.6724677,1.7273452,-0.2831151,0.038349908,0.10913952,-0.95208424,-11.164677,9.021939,0.58636844,0.010596041,-0.50715363,0.21062511,0
1.9300000000000015,11.9234963438048,0.1287611450343446,-0.27716604517579113,0.16680040146983902,13.029965,0.22752002,-1.026506,0.5188102,0.24326007,-0.5823593,1.7332987,-0.28219408,0.03693917,0.108886756,-0.9524422,-11.180618,8.999728,0.60432667,0.12876114,-0.27716604,0.1668004,0
1.9400000000000015,11.9234963438048,0.1287611450343446,-0.27716604517579113,0.16680040146983902,13.029965,0.22752002,-1.026506,0.5188102,0.1313757,-0.4924733,1.7394319,-0.2812722,0.03552833,0.10863367,-0.95279735,-11.196201,8.977462,0.622323,0.12876114,-0.27716604,0.1668004,0
1.9500000000000015,11.9234963438048,0.1287611450343446,-0.27716604517579113,0.16680040146983902,13.029965,0.22752002,-1.026506,0.5188102,0.019337285,-0.40281028,1.7457452,-0.28034946,0.034117375,0.10838025,-0.9531496,-11.211426,8.955142,0.6403564,0.12876114,-0.27716604,0.1668004,0
1.9600000000000015,11.832640513534399,0.2051814269130609,-0.27045353974957376,0.12568298228158553,12.252228,-0.087884754,-0.8213032,0.35070413,-0.09285158,-0.3133707,1.7522391,-0.2794259,0.032706317,0.108126506,-0.953499,-11.226292,8.932769,0.6584261,0.12876114,-0.27716604,0.1668004,1
1.9700000000000015,11.832640513534399,0.2051814269130609,-0.27045353974957376,0.12568298228158553,12.252228,-0.087884754,-0.8213032,0.35070413,-0.20518884,-0.22415882,1.7589298,-0.2772927,0.029102828,0.10963452,-0.9540662,-11.241039,8.909508,0.6797122,-0.087884754,-0.8213032,0.35070413,1
1.9800000000000015,11.832640513534399,0.2051814269130609,-0.27045353974957376,0.12568298228158553,12.252228,-0.087884754,-0.8213032,0.35070413,-0.31766963,-0.13518271,1.7658333,-0.27515393,0.025498753,0.11114032,-0.95461416,-11.254993,8.885618,0.7009696,-0.087884754,-0.8213032,0.35070413,1
1.9900000000000015,11.832640513534399,0.2051814269130609,-0.27045353974957376,0.12568298228158553,12.252228,-0.087884754,-0.8213032,0.35070413,-0.430286,-0.046448603,1.7729491,-0.27300963,0.021894166,0.11264389,-0.955143,-11.268153,8.861106,0.72219104,-0.087884754,-0.8213032,0.35070413,1
2.0000000000000013,,,,,12.444598,0.09846726,-0.5005995,0.19748992,-0.54302996,0.042037286,1.7802769,-0.2708598,0.018289138,0.1141452,-0.9556525,-11.280513,8.835975,0.74336916,-0.087884754,-0.8213032,0.35070413,1
2.010000000000001,,,,,12.444598,0.09846726,-0.5005995,0.19748992,-0.6558947,0.1302672,1.7878257,-0.26963845,0.015876435,0.114334166,-0.9560183,-11.292336,8.809974,0.7663929,0.09846726,-0.5005995,0.19748992,1
2.020000000000001,,,,,12.444598,0.09846726,-0.5005995,0.19748992,-0.76887465,0.21823601,1.7956048,-0.26841506,0.013463613,0.114522286,-0.956377,-11.303565,8.7837515,0.7894253,0.09846726,-0.5005995,0.19748992,1
2.0300000000000007,,,,,12.444598,0.09846726,-0.5005995,0.19748992,-0.8819639,0.30594146,1.8036143,-0.26718968,0.011050691,0.11470955,-0.9567286,-11.3141985,8.757309,0.8124636,0.09846726,-0.5005995,0.19748992,1
2.0400000000000005,,,,,12.444598,0.09846726,-0.5005995,0.19748992,-0.9951566,0.39338142,1.8118541,-0.2659623,0.008637685,0.11489595,-0.957073,-11.324234,8.730647,0.83550483,0.09846726,-0.5005995,0.19748992,1
2.0500000000000003,,,,,12.446262,0.3538188,-0.4500467,0.031194154,-1.1084465,0.4805537,1.8203244,-0.2647329,0.006224615,0.11508149,-0.9574102,-11.3336735,8.703769,0.8585462,0.09846726,-0.5005995,0.19748992,1
2.06,,,,,12.446262,0.3538188,-0.4500467,0.031194154,-1.2218277,0.5674564,1.8290251,-0.26433453,0.0036198085,0.113982014,-0.95766515,-11.342477,8.676784,0.8816287,0.3538188,-0.4500467,0.031194154,1
2.07,,,,,12.446262,0.3538188,-0.4500467,0.031194154,-1.3352935,0.6540896,1.8379571,-0.263934,0.0010149722,0.11288159,-0.9579122,-11.350575,8.649881,0.9047788,0.3538188,-0.4500467,0.031194154,1
2.0799999999999996,,,,,12.446262,0.3538188,-0.4500467,0.031194154,-1.4488368,0.7404543,1.847121,-0.2635313,-0.0015898724,0.11178025,-0.9581514,-11.357969,8.623063,0.9279925,0.3538188,-0.4500467,0.031194154,1
2.0899999999999994,,,,,12.040848,0.41165367,-0.4980957,-0.0030358396,-1.5624504,0.8265512,1.8565171,-0.26312643,-0.004194704,0.11067799,-0.9583827,-11.364658,8.596331,0.95126605,0.3538188,-0.4500467,0.031194154,1
2.099999999999999,,,,,12.040848,0.41165367,-0.4980957,-0.0030358396,-1.6761264,0.9123855,1.8661265,-0.26285532,-0.007124773,0.109360054,-0.9585911,-11.370416,8.570563,0.97064394,0.41165367,-0.4980957,-0.0030358396,1
2.109999999999999,,,,,12.040848,0.41165367,-0.4980957,-0.0030358396,-1.7898561,0.9979628,1.8759303,-0.26258147,-0.010054768,0.10804097,-0.95878947,-11.375406,8.5449095,0.9900818,0.41165367,-0.4980957,-0.0030358396,1
2.1199999999999988,,,,,12.040848,0.41165367,-0.4980957,-0.0030358396,-1.9036319,1.0832841,1.8859286,-0.26230487,-0.012984659,0.10672076,-0.9589778,-11.379628,8.519371,1.0095748,0.41165367,-0.4980957,-0.0030358396,1
2.1299999999999986,,,,,11.87447,0.3313028,-0.21508664,-0.029548462,-2.017446,1.1683507,1.8961221,-0.26202554,-0.015914412,0.10539944,-0.95915616,-11.383082,8.493948,1.029118,0.41165367,-0.4980957,-0.0030358396,1
