time-since-start [s],throttle_mpc,roll_mpc,pitch_mpc,yaw_mpc,throttle_nw,roll_nw,pitch_nw,yaw_nw,position_x [m],position_y [m],position_z [m],rotation_w [quaternion],rotation_x [quaternion],rotation_y [quaternion],rotation_z [quaternion],velocity_x [m/s],velocity_y [m/s],velocity_z [m/s],omega_x [rad/s],omega_y [rad/s],omega_z [rad/s],network_used
0.0,12.833108635872861,5.999999878752774,-5.999999841989975,2.5508640442647375,15.8610325,2.3924544,-4.833068,-0.26944992,20.259108,-9.321837,2.0695574,-0.11373563,0.4853313,-0.15674663,-0.8526126,-10.404446,-6.276682,0.25989562,2.7818003,-0.19832158,-0.7166527,0
0.01,12.833108635872861,5.999999878752774,-5.999999841989975,2.5508640442647375,14.830604,3.512971,-5.9556594,-0.19058387,20.154564,-9.384355,2.0719795,-0.12200913,0.45387563,-0.18493994,-0.8630805,-10.50355,-6.225682,0.22533298,6.0,-6.0,2.550864,0
0.02,12.833108635872861,5.999999878752774,-5.999999841989975,2.5508640442647375,14.830604,3.512971,-5.9556594,-0.19058387,20.049063,-9.446328,2.074081,-0.13004322,0.42152926,-0.21277033,-0.8718547,-10.595527,-6.1680446,0.19562717,6.0,-6.0,2.550864,0
0.03,12.833108635872861,5.999999878752774,-5.999999841989975,2.5508640442647375,14.830604,3.512971,-5.9556594,-0.19058387,19.94268,-9.507693,2.0759065,-0.13782212,0.3883557,-0.24018317,-0.8789181,-10.679752,-6.1040015,0.17008145,6.0,-6.0,2.550864,0
0.04,12.833108635872861,5.999999878752774,-5.999999841989975,2.5508640442647375,15.282185,1.8444782,-4.8404226,-0.61261666,19.835495,-9.568387,2.0774944,-0.14533053,0.35442004,-0.2671247,-0.88425666,-10.755662,-6.033834,0.14796636,6.0,-6.0,2.550864,0
0.05,12.833108635872861,5.999999878752774,-5.999999841989975,2.5508640442647375,15.282185,1.8444782,-4.8404226,-0.61261666,19.727596,-9.628349,2.078875,-0.15255378,0.31978887,-0.29354203,-0.8878601,-10.822759,-5.9578705,0.12852554,6.0,-6.0,2.550864,0
0.060000000000000005,12.833108635872861,5.999999878752774,-5.999999841989975,2.5508640442647375,15.282185,1.8444782,-4.8404226,-0.61261666,19.619072,-9.687525,2.0800714,-0.15947765,0.28453022,-0.31938335,-0.8897212,-10.88061,-5.8764863,0.1109817,6.0,-6.0,2.550864,0
0.07,12.833108635872861,5.999999878752774,-5.999999841989975,2.5508640442647375,15.282185,1.8444782,-4.8404226,-0.61261666,19.510017,-9.745861,2.0810986,-0.1660886,0.2487132,-0.34459794,-0.8898364,-10.928864,-5.7900987,0.09454261,6.0,-6.0,2.550864,0
0.08,19.290100287334965,5.999999797342264,-5.9999997401100895,0.9623389419209999,16.423876,0.5981047,0.7322308,-0.745131,19.400528,-9.80331,2.0819633,-0.1723736,0.21240808,-0.3691363,-0.88820535,-10.967234,-5.699164,0.07840738,6.0,-6.0,2.550864,0
0.09,19.290100287334965,5.999999797342264,-5.9999997401100895,0.9623389419209999,16.423876,0.5981047,0.7322308,-0.745131,19.29063,-9.859592,2.08287,-0.18538503,0.17863116,-0.39128998,-0.88352454,-11.00974,-5.556397,0.102783985,6.0,-5.9999995,0.9623389,0
0.09999999999999999,19.290100287334965,5.999999797342264,-5.9999997401100895,0.9623389419209999,16.423876,0.5981047,0.7322308,-0.745131,19.180386,-9.914421,2.0840125,-0.19805856,0.1445286,-0.4127304,-0.8772332,-11.036831,-5.408452,0.12538266,6.0,-5.9999995,0.9623389,0
0.10999999999999999,19.290100287334965,5.999999797342264,-5.9999997401100895,0.9623389419209999,16.423876,0.5981047,0.7322308,-0.745131,19.069948,-9.967748,2.0853677,-0.21037103,0.110162586,-0.43341848,-0.86934274,-11.048356,-5.2563033,0.14521411,6.0,-5.9999995,0.9623389,0
0.11999999999999998,19.290100287334965,5.999999797342264,-5.9999997401100895,0.9623389419209999,16.423876,0.5981047,0.7322308,-0.745131,18.95947,-10.019536,2.0869036,-0.22230002,0.07559576,-0.45331648,-0.8598676,-11.04428,-5.1009564,0.16130918,6.0,-5.9999995,0.9623389,0
0.12999999999999998,20.999999429039146,4.495878299188649,-5.6568407829267,-0.6391942632877026,16.293953,-0.86069393,-0.32239497,-0.4178628,18.849113,-10.069758,2.0885777,-0.23382379,0.040891137,-0.47238818,-0.848825,-11.02468,-4.9434385,0.17272599,6.0,-5.9999995,0.9623389,0
0.13999999999999999,20.999999429039146,4.495878299188649,-5.6568407829267,-0.6391942632877026,16.293953,-0.86069393,-0.32239497,-0.4178628,18.739042,-10.118331,2.0903878,-0.25065944,0.013115514,-0.48441163,-0.8380592,-10.98739,-4.771141,0.18866512,4.495878,-5.656841,-0.63919425,0
0.15,20.999999429039146,4.495878299188649,-5.6568407829267,-0.6391942632877026,16.293953,-0.86069393,-0.32239497,-0.4178628,18.629416,-10.165184,2.092336,-0.26716536,-0.0146773625,-0.49579793,-0.82619107,-10.93561,-4.59974,0.2002117,4.495878,-5.656841,-0.63919425,0
0.16,20.99999908398929,1.3381616175668378,-1.1780739941156861,-1.3793428735189768,17.872025,-1.9138217,2.914321,-0.6978679,18.520378,-10.210332,2.0943754,-0.28331986,-0.04245093,-0.506532,-0.8132362,-10.86959,-4.4301853,0.20687065,4.495878,-5.656841,-0.63919425,0
0.17,20.99999908398929,1.3381616175668378,-1.1780739941156861,-1.3793428735189768,17.872025,-1.9138217,2.914321,-0.6978679,18.41206,-10.253793,2.0964592,-0.29160997,-0.04564066,-0.51056486,-0.8075915,-10.793601,-4.262359,0.20956166,1.3381616,-1.178074,-1.3793429,0
0.18000000000000002,20.99999908398929,1.3381616175668378,-1.1780739941156861,-1.3793428735189768,17.872025,-1.9138217,2.914321,-0.6978679,18.304516,-10.295579,2.0985603,-0.29986304,-0.04882459,-0.51453286,-0.8018443,-10.7143755,-4.094936,0.21041411,1.3381616,-1.178074,-1.3793429,0
0.19000000000000003,20.99999908398929,1.3381616175668378,-1.1780739941156861,-1.3793428735189768,17.872025,-1.9138217,2.914321,-0.6978679,18.197784,-10.335693,2.100661,-0.30807802,-0.052002322,-0.51843554,-0.79599524,-10.631922,-3.9279985,0.2094344,1.3381616,-1.178074,-1.3793429,0
0.20000000000000004,20.999997887607385,0.2847394781869335,0.43555724562084946,-1.4090035548332553,17.40384,-2.9894562,3.4601762,-0.90098184,18.09189,-10.37414,2.1027427,-0.31625387,-0.05517345,-0.52227235,-0.7900451,-10.546249,-3.7616317,0.20662987,1.3381616,-1.178074,-1.3793429,0
0.21000000000000005,20.999997887607385,0.2847394781869335,0.43555724562084946,-1.4090035548332553,17.40384,-2.9894562,3.4601762,-0.90098184,17.986866,-10.410927,2.1047885,-0.32059485,-0.05022222,-0.5244597,-0.7871714,-10.458742,-3.5954127,0.20241106,0.28473946,0.43555725,-1.4090035,0
0.22000000000000006,20.999997887607385,0.2847394781869335,0.43555724562084946,-1.4090035548332553,17.40384,-2.9894562,3.4601762,-0.90098184,17.882713,-10.446047,2.1067884,-0.32491773,-0.045268167,-0.5266175,-0.7842533,-10.371688,-3.4285374,0.19744551,0.28473946,0.43555725,-1.4090035,0
0.23000000000000007,20.999997887607385,0.2847394781869335,0.43555724562084946,-1.4090035548332553,17.40384,-2.9894562,3.4601762,-0.90098184,17.77943,-10.479495,2.1087348,-0.3292223,-0.040311556,-0.5287457,-0.781291,-10.285076,-3.2610114,0.19172183,0.28473946,0.43555725,-1.4090035,0
0.24000000000000007,20.999997887607385,0.2847394781869335,0.43555724562084946,-1.4090035548332553,15.457027,-2.7465127,3.4668262,-0.4303071,17.677011,-10.511265,2.1106203,-0.33350828,-0.03535267,-0.5308441,-0.7782846,-10.198898,-3.092841,0.18522881,0.28473946,0.43555725,-1.4090035,0
0.25000000000000006,20.999997887607385,0.2847394781869335,0.43555724562084946,-1.4090035548332553,15.457027,-2.7465127,3.4668262,-0.4303071,17.575449,-10.541349,2.1124368,-0.33777547,-0.03039179,-0.5329125,-0.7752343,-10.113141,-2.9240324,0.17795545,0.28473946,0.43555725,-1.4090035,0
0.26000000000000006,20.999997887607385,0.2847394781869335,0.43555724562084946,-1.4090035548332553,15.457027,-2.7465127,3.4668262,-0.4303071,17.474745,-10.569744,2.1141765,-0.3420236,-0.025429197,-0.53495085,-0.7721403,-10.027796,-2.754593,0.16989094,0.28473946,0.43555725,-1.4090035,0
0.2700000000000001,20.999997887607385,0.2847394781869335,0.43555724562084946,-1.4090035548332553,15.457027,-2.7465127,3.4668262,-0.4303071,17.374891,-10.59644,2.1158314,-0.34625247,-0.020465171,-0.53695905,-0.7690028,-9.942853,-2.5845287,0.16102459,0.28473946,0.43555725,-1.4090035,0
0.2800000000000001,20.52008890665166,-0.7909665545290042,1.629882287423905,-1.385131190586737,18.461435,-3.3489525,4.5697646,-1.2384479,17.275887,-10.621433,2.1173937,-0.35046178,-0.015499989,-0.538937,-0.7658219,-9.8583,-2.4138467,0.15134592,0.28473946,0.43555725,-1.4090035,0
0.2900000000000001,20.52008890665166,-0.7909665545290042,1.629882287423905,-1.385131190586737,18.461435,-3.3489525,4.5697646,-1.2384479,17.177711,-10.644733,2.1188462,-0.3514121,-0.0041397205,-0.5388366,-0.76560265,-9.777178,-2.2461061,0.1392026,-0.7909666,1.6298823,-1.3851312,0
0.3000000000000001,20.52008890665166,-0.7909665545290042,1.629882287423905,-1.385131190586737,18.461435,-3.3489525,4.5697646,-1.2384479,17.080332,-10.666349,2.120178,-0.35231665,0.007221087,-0.53866625,-0.7652838,-9.699437,-2.0768266,0.1271671,-0.7909666,1.6298823,-1.3851312,0
0.3100000000000001,20.52008890665166,-0.7909665545290042,1.629882287423905,-1.385131190586737,18.461435,-3.3489525,4.5697646,-1.2384479,16.983711,-10.686265,2.1213896,-0.35317543,0.018580955,-0.5384258,-0.7648655,-9.625095,-1.9060432,0.11516446,-0.7909666,1.6298823,-1.3851312,0
0.3200000000000001,19.215767344940517,-1.8220563641757075,2.2658325681321734,-1.2847605168057465,18.024687,-3.8919332,5.532446,-0.6224183,16.88782,-10.704466,2.122481,-0.35398832,0.029938405,-0.5381154,-0.7643478,-9.55417,-1.7337924,0.103119686,-0.7909666,1.6298823,-1.3851312,0
0.3300000000000001,19.215767344940517,-1.8220563641757075,2.2658325681321734,-1.2847605168057465,18.024687,-3.8919332,5.532446,-0.6224183,16.792595,-10.720992,2.1234252,-0.35248455,0.04527508,-0.5349022,-0.7665404,-9.491736,-1.5710518,0.08588841,-1.8220564,2.2658327,-1.2847605,0
0.34000000000000014,19.215767344940517,-1.8220563641757075,2.2658325681321734,-1.2847605168057465,18.024687,-3.8919332,5.532446,-0.6224183,16.69797,-10.735883,2.1242015,-0.35089174,0.06060032,-0.53155386,-0.76853937,-9.434612,-1.406784,0.06948905,-1.8220564,2.2658327,-1.2847605,0
0.35000000000000014,19.215767344940517,-1.8220563641757075,2.2658325681321734,-1.2847605168057465,18.024687,-3.8919332,5.532446,-0.6224183,16.603888,-10.749124,2.1248174,-0.3492103,0.07591025,-0.52807134,-0.7703442,-9.382846,-1.2410954,0.053788338,-1.8220564,2.2658327,-1.2847605,0
0.36000000000000015,18.224416483971538,-2.2676103208578047,2.1226904372488336,-1.2291217506281407,17.925106,-3.8122363,5.1843624,-0.8787643,16.510294,-10.760701,2.1252792,-0.34744063,0.091201,-0.5244554,-0.7719544,-9.336481,-1.0740945,0.038652264,-1.8220564,2.2658327,-1.2847605,0
0.37000000000000016,18.224416483971538,-2.2676103208578047,2.1226904372488336,-1.2291217506281407,17.925106,-3.8122363,5.1843624,-0.8787643,16.417126,-10.770646,2.125571,-0.34553608,0.106543064,-0.51875716,-0.77468973,-9.297787,-0.9146767,0.019919572,-2.2676103,2.1226904,-1.2291218,0
0.38000000000000017,18.224416483971538,-2.2676103208578047,2.1226904372488336,-1.2291217506281407,17.925106,-3.8122363,5.1843624,-0.8787643,16.324318,-10.778993,2.125681,-0.34353513,0.12185541,-0.5129142,-0.777209,-9.264613,-0.75452185,0.0021959613,-2.2676103,2.1226904,-1.2291218,0
0.3900000000000002,18.224416483971538,-2.2676103208578047,2.1226904372488336,-1.2291217506281407,17.925106,-3.8122363,5.1843624,-0.8787643,16.231815,-10.785734,2.1256182,-0.34143832,0.13713376,-0.50692815,-0.77951133,-9.236998,-0.5937522,-0.014657497,-2.2676103,2.1226904,-1.2291218,0
0.4000000000000002,17.510836281633235,-2.0530255363650856,1.140072457865565,-1.1655262914646327,17.026638,-3.8102489,3.1850746,-0.5325481,16.13956,-10.790866,2.1253905,-0.33924627,0.15237385,-0.5008007,-0.78159624,-9.214974,-0.43249092,-0.030780664,-2.2676103,2.1226904,-1.2291218,0
0.4100000000000002,17.510836281633235,-2.0530255363650856,1.140072457865565,-1.1655262914646327,17.026638,-3.8102489,3.1850746,-0.5325481,16.047497,-10.794415,2.1249893,-0.33935308,0.16321672,-0.49378058,-0.78382415,-9.198648,-0.27738997,-0.04926427,-2.0530255,1.1400725,-1.1655263,0
0.4200000000000002,17.510836281633235,-2.0530255363650856,1.140072457865565,-1.1655262914646327,17.026638,-3.8102489,3.1850746,-0.5325481,15.955575,-10.796414,2.1244092,-0.3394016,0.17403154,-0.48667556,-0.78591746,-9.186241,-0.12255482,-0.066532664,-2.0530255,1.1400725,-1.1655263,0
0.4300000000000002,17.510836281633235,-2.0530255363650856,1.140072457865565,-1.1655262914646327,17.026638,-3.8102489,3.1850746,-0.5325481,15.863758,-10.796867,2.1236625,-0.3393918,0.18481646,-0.47948694,-0.7878757,-9.177774,0.031951316,-0.08267067,-2.0530255,1.1400725,-1.1655263,0
0.4400000000000002,17.510836281633235,-2.0530255363650856,1.140072457865565,-1.1655262914646327,16.904657,-3.3967013,2.4802136,-0.33283538,15.772007,-10.795778,2.1227596,-0.33932367,0.19556965,-0.47221592,-0.7896986,-9.173265,0.18606539,-0.09776388,-2.0530255,1.1400725,-1.1655263,0
0.45000000000000023,17.510836281633235,-2.0530255363650856,1.140072457865565,-1.1655262914646327,16.904657,-3.3967013,2.4802136,-0.33283538,15.680282,-10.793149,2.1217105,-0.33919725,0.20628922,-0.46486378,-0.79138577,-9.1727295,0.33972466,-0.11189865,-2.0530255,1.1400725,-1.1655263,0
0.46000000000000024,17.510836281633235,-2.0530255363650856,1.140072457865565,-1.1655262914646327,16.904657,-3.3967013,2.4802136,-0.33283538,15.588541,-10.788985,2.120525,-0.33901253,0.21697333,-0.45743173,-0.792937,-9.176178,0.49286658,-0.12516193,-2.0530255,1.1400725,-1.1655263,0
0.47000000000000025,17.510836281633235,-2.0530255363650856,1.140072457865565,-1.1655262914646327,16.904657,-3.3967013,2.4802136,-0.33283538,15.496745,-10.783294,2.1192105,-0.33876958,0.22762017,-0.4499211,-0.7943519,-9.18362,0.64542913,-0.13764134,-2.0530255,1.1400725,-1.1655263,0
0.48000000000000026,17.17051278828256,-1.7566732653154695,0.733368747235628,-1.0647586915448626,18.018152,-3.2667875,2.5126147,-0.5116734,15.404855,-10.776079,2.1177747,-0.33846846,0.23822789,-0.44233316,-0.79563034,-9.195065,0.7973505,-0.14942497,-2.0530255,1.1400725,-1.1655263,0
0.49000000000000027,17.17051278828256,-1.7566732653154695,0.733368747235628,-1.0647586915448626,18.018152,-3.2667875,2.5126147,-0.5116734,15.312832,-10.7673645,2.1162157,-0.33896968,0.24645881,-0.4352915,-0.7967927,-9.2099,0.9456196,-0.16221365,-1.7566732,0.73336875,-1.0647587,0
0.5000000000000002,17.17051278828256,-1.7566732653154695,0.733368747235628,-1.0647586915448626,18.018152,-3.2667875,2.5126147,-0.5116734,15.220645,-10.757171,2.1145327,-0.33943057,0.2546604,-0.4281981,-0.7978603,-9.227827,1.0931233,-0.17427264,-1.7566732,0.73336875,-1.0647587,0
0.5100000000000002,17.17051278828256,-1.7566732653154695,0.733368747235628,-1.0647586915448626,18.018152,-3.2667875,2.5126147,-0.5116734,15.128263,-10.745505,2.1127324,-0.3398511,0.2628317,-0.42105377,-0.798833,-9.248852,1.239824,-0.1856623,-1.7566732,0.73336875,-1.0647587,0
0.5200000000000002,16.612837902498,-1.26378620279165,-0.09854959970216123,-0.9471163788440966,17.656126,-2.9629247,1.989885,-0.35308012,15.035657,-10.732377,2.1108215,-0.3402312,0.27097175,-0.41385937,-0.7997107,-9.272976,1.3856844,-0.19644332,-1.7566732,0.73336875,-1.0647587,0
0.5300000000000002,16.612837902498,-1.26378620279165,-0.09854959970216123,-0.9471163788440966,17.656126,-2.9629247,1.989885,-0.35308012,14.9428,-10.717817,2.108792,-0.34249932,0.27467892,-0.4073423,-0.80082315,-9.2987585,1.5259255,-0.209303,-1.2637862,-0.0985496,-0.9471164,0
0.5400000000000003,16.612837902498,-1.26378620279165,-0.09854959970216123,-0.9471163788440966,17.656126,-2.9629247,1.989885,-0.35308012,14.849676,-10.70186,2.1066394,-0.344746,0.2783689,-0.40079975,-0.8018855,-9.326061,1.6652055,-0.22106686,-1.2637862,-0.0985496,-0.9471164,0
0.5500000000000003,16.612837902498,-1.26378620279165,-0.09854959970216123,-0.9471163788440966,17.656126,-2.9629247,1.989885,-0.35308012,14.756271,-10.684516,2.1043744,-0.34697106,0.28204143,-0.3942321,-0.8028976,-9.354893,1.8035076,-0.23176238,-1.2637862,-0.0985496,-0.9471164,0
0.5600000000000003,16.25032898689293,-0.8582096913216074,-0.5494912287028169,-0.8254472857439643,16.131086,-3.1621497,2.048723,-0.09214464,14.662571,-10.665793,2.1020079,-0.34917444,0.28569633,-0.3876398,-0.8038594,-9.3852625,1.9408154,-0.24141729,-1.2637862,-0.0985496,-0.9471164,0
0.5700000000000003,16.25032898689293,-0.8582096913216074,-0.5494912287028169,-0.8254472857439643,16.131086,-3.1621497,2.048723,-0.09214464,14.568564,-10.645718,2.0995402,-0.3523237,0.28657982,-0.38204363,-0.8048493,-9.416125,2.0741584,-0.25191435,-0.85820967,-0.5494912,-0.82544726,0
0.5800000000000003,16.25032898689293,-0.8582096913216074,-0.5494912287028169,-0.8254472857439643,16.131086,-3.1621497,2.048723,-0.09214464,14.474246,-10.624313,2.096974,-0.35545784,0.287451,-0.37643102,-0.8058046,-9.447557,2.206551,-0.26118127,-0.85820967,-0.5494912,-0.82544726,0
0.5900000000000003,16.25032898689293,-0.8582096913216074,-0.5494912287028169,-0.8254472857439643,16.131086,-3.1621497,2.048723,-0.09214464,14.37961,-10.601589,2.0943208,-0.3585767,0.28830978,-0.37080222,-0.80672526,-9.479569,2.3379798,-0.26923263,-0.85820967,-0.5494912,-0.82544726,0
0.6000000000000003,15.783880165233041,-0.5278052633323718,-0.7227936052880053,-0.7221200602196104,15.600427,-3.0555856,1.6264391,-0.001122579,14.284652,-10.577557,2.0915933,-0.36168012,0.28915617,-0.36515749,-0.8076112,-9.512172,2.468432,-0.27608332,-0.85820967,-0.5494912,-0.82544726,0
0.6100000000000003,15.783880165233041,-0.5278052633323718,-0.7227936052880053,-0.7221200602196104,15.600427,-3.0555856,1.6264391,-0.001122579,14.18937,-10.552242,2.08879,-0.36514667,0.28850564,-0.36066905,-0.80830073,-9.544204,2.5942328,-0.28440034,-0.52780527,-0.7227936,-0.72212005,0
0.6200000000000003,15.783880165233041,-0.5278052633323718,-0.7227936052880053,-0.7221200602196104,15.600427,-3.0555856,1.6264391,-0.001122579,14.093768,-10.525674,2.0859091,-0.3686011,0.28784558,-0.3561687,-0.80896354,-9.576254,2.7192051,-0.29157355,-0.52780527,-0.7227936,-0.72212005,0
0.6300000000000003,15.783880165233041,-0.5278052633323718,-0.7227936052880053,-0.7221200602196104,15.600427,-3.0555856,1.6264391,-0.001122579,13.997846,-10.49786,2.0829625,-0.37204337,0.28717598,-0.35165656,-0.8095994,-9.608328,2.843337,-0.29761153,-0.52780527,-0.7227936,-0.72212005,0
0.6400000000000003,15.783880165233041,-0.5278052633323718,-0.7227936052880053,-0.7221200602196104,15.6156845,-2.9009664,1.6029319,-0.1530277,13.901603,-10.468809,2.079961,-0.37547338,0.28649688,-0.3471328,-0.81020856,-9.640434,2.966617,-0.30252308,-0.52780527,-0.7227936,-0.72212005,0
0.6500000000000004,15.783880165233041,-0.5278052633323718,-0.7227936052880053,-0.7221200602196104,15.6156845,-2.9009664,1.6029319,-0.1530277,13.805038,-10.43853,2.076916,-0.37889096,0.28580832,-0.34259754,-0.810791,-9.672581,3.089034,-0.3063171,-0.52780527,-0.7227936,-0.72212005,0
0.6600000000000004,15.783880165233041,-0.5278052633323718,-0.7227936052880053,-0.7221200602196104,15.6156845,-2.9009664,1.6029319,-0.1530277,13.708151,-10.407031,2.0738385,-0.382296,0.28511032,-0.33805096,-0.8113466,-9.704774,3.2105765,-0.30900264,-0.52780527,-0.7227936,-0.72212005,0
0.6700000000000004,15.783880165233041,-0.5278052633323718,-0.7227936052880053,-0.7221200602196104,15.6156845,-2.9009664,1.6029319,-0.1530277,13.610943,-10.374322,2.0707395,-0.3856884,0.28440288,-0.3334932,-0.8118754,-9.737023,3.3312333,-0.31058902,-0.52780527,-0.7227936,-0.72212005,0
0.6800000000000004,15.407629124448066,-0.3765169058792124,-0.6835556914586521,-0.634004090197364,15.568325,-2.4654973,1.1698043,-0.18905431,13.513411,-10.34041,2.0676303,-0.38906804,0.28368604,-0.32892445,-0.8123773,-9.769334,3.4509935,-0.31108552,-0.52780527,-0.7227936,-0.72212005,0
0.6900000000000004,15.407629124448066,-0.3765169058792124,-0.6835556914586521,-0.634004090197364,15.568325,-2.4654973,1.1698043,-0.18905431,13.41556,-10.305319,2.0645096,-0.39222848,0.28268105,-0.32516187,-0.81272244,-9.800882,3.5670652,-0.31289744,-0.3765169,-0.68355566,-0.6340041,0
0.7000000000000004,15.407629124448066,-0.3765169058792124,-0.6835556914586521,-0.634004090197364,15.568325,-2.4654973,1.1698043,-0.18905431,13.317393,-10.269072,2.0613754,-0.395379,0.2816689,-0.3213911,-0.81304705,-9.832346,3.6823814,-0.313778,-0.3765169,-0.68355566,-0.6340041,0
0.7100000000000004,15.407629124448066,-0.3765169058792124,-0.6835556914586521,-0.634004090197364,15.568325,-2.4654973,1.1698043,-0.18905431,13.218913,-10.231674,2.058237,-0.39851952,0.28064972,-0.31761223,-0.81335115,-9.863731,3.7969332,-0.31373373,-0.3765169,-0.68355566,-0.6340041,0
0.7200000000000004,14.8825700312667,-0.08533461209463501,-0.8798147648826212,-0.563901363772652,15.435357,-2.3305726,0.65438193,-0.18696354,13.12012,-10.193134,2.055104,-0.40164998,0.2796234,-0.3138253,-0.8136347,-9.895041,3.9107122,-0.31277126,-0.3765169,-0.68355566,-0.6340041,0
0.7300000000000004,14.8825700312667,-0.08533461209463501,-0.8798147648826212,-0.563901363772652,15.435357,-2.3305726,0.65438193,-0.18696354,13.021019,-10.153481,2.0519679,-0.40519974,0.2770965,-0.3109185,-0.813855,-9.925026,4.019885,-0.3142731,-0.085334614,-0.87981474,-0.56390136,0
0.7400000000000004,14.8825700312667,-0.08533461209463501,-0.8798147648826212,-0.563901363772652,15.435357,-2.3305726,0.65438193,-0.18696354,12.921621,-10.112738,2.0488214,-0.40873834,0.274562,-0.30800325,-0.814053,-9.954437,4.1283603,-0.31481794,-0.085334614,-0.87981474,-0.56390136,0
0.7500000000000004,14.8825700312667,-0.08533461209463501,-0.8798147648826212,-0.563901363772652,15.435357,-2.3305726,0.65438193,-0.18696354,12.821934,-10.070914,2.0456743,-0.41226572,0.27201998,-0.3050795,-0.8142286,-9.983279,4.236127,-0.31441185,-0.085334614,-0.87981474,-0.56390136,0
0.7600000000000005,14.406292715129053,0.08392946092929038,-0.8145484982178931,-0.5035485516861476,15.555335,-1.9432639,0.26047155,-0.39578095,12.721959,-10.028018,2.042536,-0.41578177,0.26947048,-0.30214736,-0.8143818,-10.011557,4.3431726,-0.31306097,-0.085334614,-0.87981474,-0.56390136,0
0.7700000000000005,14.406292715129053,0.08392946092929038,-0.8145484982178931,-0.5035485516861476,15.555335,-1.9432639,0.26047155,-0.39578095,12.621709,-9.984071,2.0394,-0.419171,0.26673684,-0.3001138,-0.81429625,-10.038328,4.446146,-0.31403294,0.083929464,-0.8145485,-0.50354856,0
0.7800000000000005,14.406292715129053,0.08392946092929038,-0.8145484982178931,-0.5035485516861476,15.555335,-1.9432639,0.26047155,-0.39578095,12.5211935,-9.939097,2.036258,-0.42255056,0.26399705,-0.2980733,-0.8141919,-10.064404,4.5485635,-0.3142314,0.083929464,-0.8145485,-0.50354856,0
0.7900000000000005,14.406292715129053,0.08392946092929038,-0.8145484982178931,-0.5035485516861476,15.555335,-1.9432639,0.26047155,-0.39578095,12.420422,-9.893103,2.0331178,-0.42592037,0.26125115,-0.29602593,-0.81406873,-10.089786,4.6504164,-0.31366092,0.083929464,-0.8145485,-0.50354856,0
0.8000000000000005,13.873173746150384,0.18861900840490908,-1.043575609025576,-0.4611320308918827,15.097656,-1.5518876,0.13551445,-0.35003003,12.319401,-9.846091,2.029987,-0.4292803,0.25849923,-0.29397172,-0.81392676,-10.114476,4.7516937,-0.3123262,0.083929464,-0.8145485,-0.50354856,0
0.8100000000000005,13.873173746150384,0.18861900840490908,-1.043575609025576,-0.4611320308918827,15.097656,-1.5518876,0.13551445,-0.35003003,12.218142,-9.798089,2.0268555,-0.43292746,0.25452086,-0.2918985,-0.81399494,-10.137486,4.848619,-0.3138739,0.188619,-1.0435756,-0.46113202,0
0.8200000000000005,13.873173746150384,0.18861900840490908,-1.043575609025576,-0.4611320308918827,15.097656,-1.5518876,0.13551445,-0.35003003,12.116655,-9.749122,2.0237129,-0.43656012,0.25053406,-0.2898155,-0.81403595,-10.159555,4.9448605,-0.31452143,0.188619,-1.0435756,-0.46113202,0
0.8300000000000005,13.873173746150384,0.18861900840490908,-1.043575609025576,-0.4611320308918827,15.097656,-1.5518876,0.13551445,-0.35003003,12.014953,-9.699195,2.0205684,-0.4401782,0.24653885,-0.2877228,-0.8140497,-10.180685,5.040402,-0.31427726,0.188619,-1.0435756,-0.46113202,0
0.8400000000000005,13.873173746150384,0.18861900840490908,-1.043575609025576,-0.4611320308918827,14.444506,-1.2767911,0.073394366,-0.20973884,11.913045,-9.648315,2.0174305,-0.44378158,0.2425354,-0.2856205,-0.81403625,-10.200879,5.1352305,-0.31315,0.188619,-1.0435756,-0.46113202,0
0.8500000000000005,13.873173746150384,0.18861900840490908,-1.043575609025576,-0.4611320308918827,14.444506,-1.2767911,0.073394366,-0.20973884,11.81094,-9.596492,2.0143085,-0.4473701,0.23852384,-0.28350866,-0.8139956,-10.220141,5.229331,-0.3111483,0.188619,-1.0435756,-0.46113202,0
0.8600000000000005,13.873173746150384,0.18861900840490908,-1.043575609025576,-0.4611320308918827,14.444506,-1.2767911,0.073394366,-0.20973884,11.708645,-9.543731,2.0112107,-0.45094368,0.23450431,-0.28138733,-0.81392777,-10.238473,5.3226895,-0.30828094,0.188619,-1.0435756,-0.46113202,0
0.8700000000000006,13.873173746150384,0.18861900840490908,-1.043575609025576,-0.4611320308918827,14.444506,-1.2767911,0.073394366,-0.20973884,11.606173,-9.49004,2.0081458,-0.45450217,0.23047695,-0.2792566,-0.81383264,-10.255878,5.4152923,-0.30455694,0.188619,-1.0435756,-0.46113202,0
0.8800000000000006,13.572501848636858,0.22508390086159275,-0.8248013217495224,-0.42481960766384397,13.769509,-0.8792183,0.05310923,-0.052186273,11.5035305,-9.435427,2.0051222,-0.45804542,0.22644189,-0.27711654,-0.81371033,-10.27236,5.507125,-0.29998532,0.188619,-1.0435756,-0.46113202,0
0.8900000000000006,13.572501848636858,0.22508390086159275,-0.8248013217495224,-0.42481960766384397,13.769509,-0.8792183,0.05310923,-0.052186273,11.40073,-9.3799095,2.0021374,-0.4611663,0.2231567,-0.27565917,-0.8133501,-10.287621,5.5962777,-0.29689196,0.2250839,-0.8248013,-0.42481962,0
0.9000000000000006,13.572501848636858,0.22508390086159275,-0.8248013217495224,-0.42481960766384397,13.769509,-0.8792183,0.05310923,-0.052186273,11.297781,-9.323503,1.9991865,-0.4642766,0.21986644,-0.27419555,-0.81297135,-10.302083,5.6848583,-0.29318106,0.2250839,-0.8248013,-0.42481962,0
0.9100000000000006,13.572501848636858,0.22508390086159275,-0.8248013217495224,-0.42481960766384397,13.769509,-0.8792183,0.05310923,-0.052186273,11.194691,-9.266214,1.9962758,-0.46737638,0.21657117,-0.27272564,-0.8125741,-10.315748,5.772858,-0.2888581,0.2250839,-0.8248013,-0.42481962,0
0.9200000000000006,13.213271716065824,0.23801928238510348,-0.7261208901201661,-0.379905518864827,13.733137,-0.7645041,0.09987663,0.029910713,11.091469,-9.208048,1.9934114,-0.4704655,0.21327095,-0.27124953,-0.8121583,-10.328619,5.860268,-0.2839286,0.2250839,-0.8248013,-0.42481962,0
0.9300000000000006,13.213271716065824,0.23801928238510348,-0.7261208901201661,-0.379905518864827,13.733137,-0.7645041,0.09987663,0.029910713,10.988123,-9.149022,1.9905856,-0.47324255,0.21027574,-0.2701004,-0.81170875,-10.340397,5.944814,-0.28117183,0.23801929,-0.7261209,-0.37990552,0
0.9400000000000006,13.213271716065824,0.23801928238510348,-0.7261208901201661,-0.379905518864827,13.733137,-0.7645041,0.09987663,0.029910713,10.884664,-9.089152,1.9877898,-0.47601095,0.20727669,-0.26894638,-0.8112444,-10.351453,6.0288615,-0.27791706,0.23801929,-0.7261209,-0.37990552,0
0.9500000000000006,13.213271716065824,0.23801928238510348,-0.7261208901201661,-0.379905518864827,13.733137,-0.7645041,0.09987663,0.029910713,10.781096,-9.028445,1.985029,-0.4787707,0.20427388,-0.26778746,-0.8107653,-10.361789,6.1124024,-0.27416858,0.23801929,-0.7261209,-0.37990552,0
0.9600000000000006,12.992682651176626,0.24566409202171544,-0.7075329472336156,-0.3387957695708406,13.731418,-0.5508046,0.050386213,0.032962274,10.67743,-8.966906,1.9823081,-0.48152176,0.20126735,-0.26662365,-0.81027144,-10.3714075,6.1954293,-0.26993078,0.23801929,-0.7261209,-0.37990552,1
0.9700000000000006,12.992682651176626,0.24566409202171544,-0.7075329472336156,-0.3387957695708406,13.731418,-0.5508046,0.050386213,0.032962274,10.5736685,-8.904522,1.9796519,-0.4807649,0.20275287,-0.26454562,-0.8110313,-10.3812,6.28128,-0.26131213,-0.5508046,0.050386213,0.032962274,1
0.9800000000000006,12.992682651176626,0.24566409202171544,-0.7075329472336156,-0.3387957695708406,13.731418,-0.5508046,0.050386213,0.032962274,10.469804,-8.841282,1.9770824,-0.48000434,0.20423685,-0.26246554,-0.8117849,-10.391694,6.366877,-0.2525563,-0.5508046,0.050386213,0.032962274,1
0.9900000000000007,12.992682651176626,0.24566409202171544,-0.7075329472336156,-0.3387957695708406,13.731418,-0.5508046,0.050386213,0.032962274,10.365831,-8.777187,1.9746013,-0.47924012,0.20571926,-0.26038343,-0.8125323,-10.40289,6.4522176,-0.24366647,-0.5508046,0.050386213,0.032962274,1
1.0000000000000007,12.617480849115386,0.5603488001760701,-1.1448353429621196,-0.32343798000852353,13.801889,-0.58356714,0.33881605,0.13093309,10.261744,-8.712239,1.9722096,-0.4784722,0.2072001,-0.25829932,-0.81327343,-10.414788,6.537298,-0.23464577,-0.5508046,0.050386213,0.032962274,0
1.0100000000000007,12.617480849115386,0.5603488001760701,-1.1448353429621196,-0.32343798000852353,13.801889,-0.58356714,0.33881605,0.13093309,10.15754,-8.646476,1.9698659,-0.4818361,0.2016175,-0.25749838,-0.8129445,-10.425642,6.6150694,-0.23398505,0.5603488,-1.1448354,-0.323438,0
1.0200000000000007,12.617480849115386,0.5603488001760701,-1.1448353429621196,-0.32343798000852353,13.801889,-0.58356714,0.33881605,0.13093309,10.053236,-8.57994,1.9675323,-0.48517922,0.19602618,-0.25668633,-0.8125803,-10.435213,6.6921463,-0.23264933,0.5603488,-1.1448354,-0.323438,0
1.0300000000000007,12.617480849115386,0.5603488001760701,-1.1448353429621196,-0.32343798000852353,13.801889,-0.58356714,0.33881605,0.13093309,9.948842,-8.512637,1.9652153,-0.48850134,0.1904264,-0.25586316,-0.81218106,-10.443502,6.7685122,-0.23065235,0.5603488,-1.1448354,-0.323438,0
1.0400000000000007,12.617480849115386,0.5603488001760701,-1.1448353429621196,-0.32343798000852353,14.034951,-0.06678509,-0.011420751,0.08179577,9.844372,-8.444573,1.9629215,-0.49180233,0.18481837,-0.25502893,-0.81174666,-10.45051,6.8441515,-0.22800805,0.5603488,-1.1448354,-0.323438,0
1.0500000000000007,12.617480849115386,0.5603488001760701,-1.1448353429621196,-0.32343798000852353,14.034951,-0.06678509,-0.011420751,0.08179577,9.739838,-8.375758,1.9606574,-0.49508208,0.17920236,-0.25418368,-0.81127715,-10.456239,6.919049,-0.22473042,0.5603488,-1.1448354,-0.323438,0
1.0600000000000007,12.617480849115386,0.5603488001760701,-1.1448353429621196,-0.32343798000852353,14.034951,-0.06678509,-0.011420751,0.08179577,9.635252,-8.306196,1.9584291,-0.49834037,0.1735786,-0.25332746,-0.8107726,-10.460692,6.993189,-0.2208336,0.5603488,-1.1448354,-0.323438,0
1.0700000000000007,12.617480849115386,0.5603488001760701,-1.1448353429621196,-0.32343798000852353,14.034951,-0.06678509,-0.011420751,0.08179577,9.530627,-8.235896,1.9562428,-0.50157714,0.16794735,-0.25246027,-0.810233,-10.463872,7.066555,-0.21633182,0.5603488,-1.1448354,-0.323438,0
1.0800000000000007,12.441400788107059,0.4416909320966421,-0.9322162811839628,-0.2883343832925707,14.1509905,-0.19438922,0.18086147,-0.021522716,9.425978,-8.164867,1.9541045,-0.5047923,0.16230883,-0.25158215,-0.80965835,-10.46578,7.139133,-0.21123944,0.5603488,-1.1448354,-0.323438,0
1.0900000000000007,12.441400788107059,0.4416909320966421,-0.9322162811839628,-0.2883343832925707,14.1509905,-0.19438922,0.18086147,-0.021522716,9.321316,-8.093122,1.9520127,-0.50748336,0.15778053,-0.25077978,-0.80911994,-10.466504,7.2099586,-0.20705624,0.44169092,-0.9322163,-0.28833437,0
1.1000000000000008,12.441400788107059,0.4416909320966421,-0.9322162811839628,-0.2883343832925707,14.1509905,-0.19438922,0.18086147,-0.021522716,9.216652,-8.02067,1.9499649,-0.5101599,0.1532477,-0.24997017,-0.80855834,-10.4662285,7.2801228,-0.20241554,0.44169092,-0.9322163,-0.28833437,0
1.1100000000000008,12.441400788107059,0.4416909320966421,-0.9322162811839628,-0.2883343832925707,14.1509905,-0.19438922,0.18086147,-0.021522716,9.111995,-7.9475207,1.9479659,-0.51282185,0.14871047,-0.2491534,-0.80797356,-10.464955,7.349615,-0.19732666,0.44169092,-0.9322163,-0.28833437,0
1.1200000000000008,12.249887886096158,0.2802948398763416,-0.7548251044701144,-0.2527877578655317,14.16215,-0.12849703,0.02740653,0.056290384,9.007356,-7.87368,1.9460199,-0.515469,0.14416899,-0.2483295,-0.80736554,-10.4626875,7.4184256,-0.19179896,0.44169092,-0.9322163,-0.28833437,0
1.1300000000000008,12.249887886096158,0.2802948398763416,-0.7548251044701144,-0.2527877578655317,14.16215,-0.12849703,0.02740653,0.056290384,8.902745,-7.79916,1.9441234,-0.51762414,0.14071208,-0.24733113,-0.8069029,-10.4595785,7.4855328,-0.18746433,0.28029484,-0.7548251,-0.25278777,0
1.1400000000000008,12.249887886096158,0.2802948398763416,-0.7548251044701144,-0.2527877578655317,14.16215,-0.12849703,0.02740653,0.056290384,8.798167,-7.723972,1.942272,-0.5197701,0.13725266,-0.24632835,-0.8064259,-10.455768,7.55205,-0.18276928,0.28029484,-0.7548251,-0.25278777,0
1.1500000000000008,12.249887886096158,0.2802948398763416,-0.7548251044701144,-0.2527877578655317,14.16215,-0.12849703,0.02740653,0.056290384,8.693631,-7.6481214,1.9404691,-0.52190673,0.13379079,-0.24532118,-0.80593467,-10.451255,7.6179714,-0.17771952,0.28029484,-0.7548251,-0.25278777,0
1.1600000000000008,12.035570903064711,0.20301459602951613,-0.702086520974382,-0.21983693592414166,14.362927,-0.51257074,0.049037054,0.077421024,8.589145,-7.5716147,1.9387188,-0.52403414,0.13032654,-0.24430965,-0.8054289,-10.446042,7.6832914,-0.17232066,0.28029484,-0.7548251,-0.25278777,0
1.1700000000000008,12.035570903064711,0.20301459602951613,-0.702086520974382,-0.21983693592414166,14.362927,-0.51257074,0.049037054,0.077421024,8.484713,-7.494464,1.9370149,-0.5259055,0.12723479,-0.24314262,-0.8050566,-10.440276,7.7468786,-0.16839723,0.2030146,-0.7020865,-0.21983694,0
1.1800000000000008,12.035570903064711,0.20301459602951613,-0.702086520974382,-0.21983693592414166,14.362927,-0.51257074,0.049037054,0.077421024,8.380342,-7.41668,1.9353518,-0.5277692,0.1241412,-0.24197203,-0.8046725,-10.433938,7.809884,-0.16414694,0.2030146,-0.7020865,-0.21983694,0
1.1900000000000008,12.035570903064711,0.20301459602951613,-0.702086520974382,-0.21983693592414166,14.362927,-0.51257074,0.049037054,0.077421024,8.276036,-7.3382688,1.933733,-0.5296253,0.1210458,-0.24079792,-0.80427665,-10.42703,7.8723025,-0.15957455,0.2030146,-0.7020865,-0.21983694,0
1.2000000000000008,11.84022807489876,0.11226524109601776,-0.700257604210857,-0.1872128891835183,14.000946,-0.5163928,0.06894847,0.15891905,8.1718025,-7.259237,1.9321615,-0.5314737,0.117948644,-0.23962031,-0.8038691,-10.419552,7.93413,-0.15468483,0.2030146,-0.7020865,-0.21983694,0
1.2100000000000009,11.84022807489876,0.11226524109601776,-0.700257604210857,-0.1872128891835183,14.000946,-0.5163928,0.06894847,0.15891905,8.067646,-7.1795945,1.9306321,-0.5331277,0.11505925,-0.2380987,-0.8036447,-10.4116745,7.9943566,-0.15114908,0.112265244,-0.7002576,-0.18721288,0
1.2200000000000009,11.84022807489876,0.11226524109601776,-0.700257604210857,-0.1872128891835183,14.000946,-0.5163928,0.06894847,0.15891905,7.96357,-7.0993524,1.9291397,-0.5347746,0.112168305,-0.23657387,-0.80340946,-10.403339,8.05396,-0.1472835,0.112265244,-0.7002576,-0.18721288,0
1.2300000000000009,11.84022807489876,0.11226524109601776,-0.700257604210857,-0.1872128891835183,14.000946,-0.5163928,0.06894847,0.15891905,7.8595805,-7.018517,1.9276875,-0.5364143,0.109275855,-0.23504587,-0.8031634,-10.39455,8.112937,-0.14309269,0.112265244,-0.7002576,-0.18721288,0
1.2400000000000009,11.84022807489876,0.11226524109601776,-0.700257604210857,-0.1872128891835183,13.780124,-0.6455731,0.045395628,0.21000597,7.7556815,-6.937095,1.9262791,-0.53804684,0.10638193,-0.2335147,-0.8029066,-10.385306,8.171286,-0.13858128,0.112265244,-0.7002576,-0.18721288,0
1.2500000000000009,11.84022807489876,0.11226524109601776,-0.700257604210857,-0.1872128891835183,13.780124,-0.6455731,0.045395628,0.21000597,7.6518764,-6.855093,1.9249171,-0.5396721,0.103486575,-0.23198038,-0.8026389,-10.375611,8.229,-0.13375394,0.112265244,-0.7002576,-0.18721288,0
1.260000000000001,11.84022807489876,0.11226524109601776,-0.700257604210857,-0.1872128891835183,13.780124,-0.6455731,0.045395628,0.21000597,7.5481706,-6.772517,1.9236051,-0.5412901,0.100589834,-0.23044297,-0.8023604,-10.365466,8.286078,-0.12861533,0.112265244,-0.7002576,-0.18721288,0
1.270000000000001,11.84022807489876,0.11226524109601776,-0.700257604210857,-0.1872128891835183,13.780124,-0.6455731,0.045395628,0.21000597,7.444569,-6.689374,1.9223459,-0.5429008,0.09769174,-0.22890246,-0.8020712,-10.354873,8.342517,-0.12317014,0.112265244,-0.7002576,-0.18721288,0
1.280000000000001,11.660502927746123,0.09097043279598124,-1.0535751562000337,-0.16481205217666428,13.360108,-0.6214385,-0.2243003,0.13770999,7.3410754,-6.605669,1.9211427,-0.5445042,0.09479232,-0.22735885,-0.8017712,-10.343832,8.39831,-0.117423065,0.112265244,-0.7002576,-0.18721288,0
1.290000000000001,11.660502927746123,0.09097043279598124,-1.0535751562000337,-0.16481205217666428,13.360108,-0.6214385,-0.2243003,0.13770999,7.237694,-6.5214148,1.9199908,-0.5463979,0.090507045,-0.2247738,-0.801707,-10.33247,8.452488,-0.11289617,0.090970434,-1.0535752,-0.16481206,0
1.300000000000001,11.660502927746123,0.09097043279598124,-1.0535751562000337,-0.16481205217666428,13.360108,-0.6214385,-0.2243003,0.13770999,7.1344285,-6.436623,1.9188864,-0.548276,0.08621917,-0.2221823,-0.80161977,-10.320536,8.505672,-0.107915595,0.090970434,-1.0535752,-0.16481206,0
1.310000000000001,11.660502927746123,0.09097043279598124,-1.0535751562000337,-0.16481205217666428,13.360108,-0.6214385,-0.2243003,0.13770999,7.0312853,-6.3513045,1.917834,-0.5501384,0.08192883,-0.21958447,-0.8015096,-10.308032,8.557857,-0.10249227,0.090970434,-1.0535752,-0.16481206,0
1.320000000000001,11.480626279601175,0.023363019135955777,-0.8891838168577889,-0.13486667715996412,13.156469,-0.64571345,-0.6766972,0.14446914,6.9282703,-6.265469,1.9168382,-0.551985,0.077636145,-0.21698034,-0.8013766,-10.294961,8.609035,-0.09663721,0.090970434,-1.0535752,-0.16481206,0
1.330000000000001,11.480626279601175,0.023363019135955777,-0.8891838168577889,-0.13486667715996412,13.156469,-0.64571345,-0.6766972,0.14446914,6.825387,-6.1791306,1.9158946,-0.55349356,0.074154355,-0.21456532,-0.80131614,-10.281592,8.658477,-0.09198933,0.023363018,-0.8891838,-0.13486667,0
1.340000000000001,11.480626279601175,0.023363019135955777,-0.8891838168577889,-0.13486667715996412,13.156469,-0.64571345,-0.6766972,0.14446914,6.72264,-6.092303,1.9149995,-0.5549909,0.07067107,-0.21214597,-0.8012395,-10.267814,8.707055,-0.08698371,0.023363018,-0.8891838,-0.13486667,0
1.350000000000001,11.480626279601175,0.023363019135955777,-0.8891838168577889,-0.13486667715996412,13.156469,-0.64571345,-0.6766972,0.14446914,6.6200323,-6.004993,1.9141562,-0.556477,0.06718635,-0.20972233,-0.8011466,-10.253629,8.754764,-0.08162814,0.023363018,-0.8891838,-0.13486667,0
1.360000000000001,11.359545007974845,-0.07535967402229884,-0.8956730273978227,-0.11076843413495199,12.606701,-0.5763208,-1.3835905,0.04097179,6.5175686,-5.9172106,1.9133681,-0.55795187,0.063700266,-0.20729443,-0.80103755,-10.239039,8.8015995,-0.07593043,0.023363018,-0.8891838,-0.13486667,0
1.370000000000001,11.359545007974845,-0.07535967402229884,-0.8956730273978227,-0.11076843413495199,12.606701,-0.5763208,-1.3835905,0.04097179,6.415252,-5.828966,1.9126333,-0.55929416,0.06043733,-0.2044565,-0.8010837,-10.224244,8.847058,-0.07098479,-0.07535967,-0.89567304,-0.11076844,0
1.380000000000001,11.359545007974845,-0.07535967402229884,-0.8956730273978227,-0.11076843413495199,12.606701,-0.5763208,-1.3835905,0.04097179,6.313085,-5.740272,1.9119496,-0.560625,0.057173155,-0.20161436,-0.8011134,-10.209154,8.891606,-0.06568467,-0.07535967,-0.89567304,-0.11076844,0
1.390000000000001,11.359545007974845,-0.07535967402229884,-0.8956730273978227,-0.11076843413495199,12.606701,-0.5763208,-1.3835905,0.04097179,6.2110705,-5.6511374,1.9113208,-0.56194437,0.053907808,-0.1987681,-0.8011267,-10.193771,8.935239,-0.060038168,-0.07535967,-0.89567304,-0.11076844,0
1.400000000000001,11.30574532737279,-0.10521959102917895,-0.6205446764771809,-0.08309484697903963,12.5272455,-0.7261308,-0.73353386,0.13222948,6.1092105,-5.56157,1.91075,-0.5632521,0.050641354,-0.19591777,-0.80112356,-10.178099,8.977954,-0.054053407,-0.07535967,-0.89567304,-0.11076844,0
1.410000000000001,11.30574532737279,-0.10521959102917895,-0.6205446764771809,-0.08309484697903963,12.5272455,-0.7261308,-0.73353386,0.13222948,6.0075083,-5.4715815,1.9102381,-0.5641633,0.04853316,-0.19372666,-0.80114573,-10.162267,9.019648,-0.04826455,-0.10521959,-0.6205447,-0.08309485,0
1.420000000000001,11.30574532737279,-0.10521959102917895,-0.6205446764771809,-0.08309484697903963,12.5272455,-0.7261308,-0.73353386,0.13222948,5.905966,-5.3811793,1.9097854,-0.56506884,0.046424482,-0.1915336,-0.8011598,-10.146293,9.060688,-0.042236865,-0.10521959,-0.6205447,-0.08309485,0
1.430000000000001,11.30574532737279,-0.10521959102917895,-0.6205446764771809,-0.08309484697903963,12.5272455,-0.7261308,-0.73353386,0.13222948,5.8045835,-5.2903695,1.9093941,-0.56596863,0.044315334,-0.1893386,-0.80116576,-10.1301775,9.10107,-0.03597437,-0.10521959,-0.6205447,-0.08309485,0
1.440000000000001,11.30574532737279,-0.10521959102917895,-0.6205446764771809,-0.08309484697903963,12.500517,-0.83023185,-0.9217886,0.11647385,5.703363,-5.19916,1.9090666,-0.5668627,0.04220574,-0.18714169,-0.80116373,-10.113922,9.140795,-0.029481068,-0.10521959,-0.6205447,-0.08309485,0
1.450000000000001,11.30574532737279,-0.10521959102917895,-0.6205446764771809,-0.08309484697903963,12.500517,-0.83023185,-0.9217886,0.11647385,5.602306,-5.107557,1.9088051,-0.56775105,0.040095717,-0.1849429,-0.8011536,-10.097528,9.179858,-0.022760991,-0.10521959,-0.6205447,-0.08309485,0
1.460000000000001,11.30574532737279,-0.10521959102917895,-0.6205446764771809,-0.08309484697903963,12.500517,-0.83023185,-0.9217886,0.11647385,5.5014133,-5.015566,1.9086121,-0.5686337,0.03798529,-0.18274225,-0.80113536,-10.080997,9.218261,-0.015818167,-0.10521959,-0.6205447,-0.08309485,0
1.470000000000001,11.30574532737279,-0.10521959102917895,-0.6205446764771809,-0.08309484697903963,12.500517,-0.83023185,-0.9217886,0.11647385,5.4006863,-4.923194,1.9084896,-0.5695106,0.035874486,-0.18053977,-0.801109,-10.064331,9.256,-0.008656643,-0.10521959,-0.6205447,-0.08309485,0
1.480000000000001,11.319494545368329,-0.21796529878326634,-0.02535990886171835,-0.05680232269157123,12.764577,-0.8377065,-1.5119452,0.025792684,5.300127,-4.830448,1.9084399,-0.57038176,0.03376332,-0.17833547,-0.8010747,-10.04753,9.293073,-0.0012804682,-0.10521959,-0.6205447,-0.08309485,0
1.490000000000001,11.319494545368329,-0.21796529878326634,-0.02535990886171835,-0.05680232269157123,12.764577,-0.8377065,-1.5119452,0.025792684,5.1997356,-4.7373333,1.9084653,-0.5705947,0.03433399,-0.1773804,-0.8011108,-10.030706,9.329739,0.0063819783,-0.2179653,-0.025359908,-0.05680232,0
1.500000000000001,11.319494545368329,-0.21796529878326634,-0.02535990886171835,-0.05680232269157123,12.764577,-0.8377065,-1.5119452,0.025792684,5.0995116,-4.6438527,1.9085677,-0.570807,0.034904614,-0.17642508,-0.801146,-10.014102,9.366308,0.014112336,-0.2179653,-0.025359908,-0.05680232,0
1.5100000000000011,11.319494545368329,-0.21796529878326634,-0.02535990886171835,-0.05680232269157123,12.764577,-0.8377065,-1.5119452,0.025792684,4.9994526,-4.5500073,1.9087477,-0.57101846,0.035475194,-0.17546959,-0.80118,-9.997716,9.4027815,0.021910064,-0.2179653,-0.025359908,-0.05680232,0
1.5200000000000011,11.285144564494107,-0.23089462194178792,0.1721910512280475,-0.018167093787619767,13.087783,-1.0279964,-2.241073,-0.10269426,4.899556,-4.455797,1.909006,-0.5712292,0.03604573,-0.17451386,-0.801213,-9.981548,9.4391575,0.029774623,-0.2179653,-0.025359908,-0.05680232,0
1.5300000000000011,11.285144564494107,-0.23089462194178792,0.1721910512280475,-0.018167093787619767,13.087783,-1.0279964,-2.241073,-0.10269426,4.79982,-4.361224,1.9093417,-0.57110953,0.03741082,-0.17407723,-0.80133075,-9.965683,9.475401,0.037363473,-0.23089463,0.17219105,-0.018167093,0
1.5400000000000011,11.285144564494107,-0.23089462194178792,0.1721910512280475,-0.018167093787619767,13.087783,-1.0279964,-2.241073,-0.10269426,4.700241,-4.2662888,1.9097532,-0.57098866,0.03877584,-0.17364024,-0.8014468,-9.950127,9.5117445,0.04496371,-0.23089463,0.17219105,-0.018167093,0
1.5500000000000012,11.285144564494107,-0.23089462194178792,0.1721910512280475,-0.018167093787619767,13.087783,-1.0279964,-2.241073,-0.10269426,4.6008167,-4.170989,1.910241,-0.5708666,0.04014077,-0.17320289,-0.8015612,-9.934879,9.548189,0.052574437,-0.23089463,0.17219105,-0.018167093,0
1.5600000000000012,11.3280033617442,-0.31418781779436566,0.5142789998252625,0.014258034317407395,13.028959,-0.98421836,-1.8432837,-0.08219882,4.5015426,-4.075324,1.9108047,-0.5707433,0.04150562,-0.17276518,-0.8016739,-9.919941,9.584734,0.06019475,-0.23089463,0.17219105,-0.018167093,0
1.5700000000000012,11.3280033617442,-0.31418781779436566,0.5142789998252625,0.014258034317407395,13.028959,-0.98421836,-1.8432837,-0.08219882,4.4024167,-3.9792924,1.9114466,-0.5701741,0.044451132,-0.17297558,-0.80187565,-9.90534,9.621638,0.06819476,-0.31418782,0.514279,0.0142580345,0
1.5800000000000012,11.3280033617442,-0.31418781779436566,0.5142789998252625,0.014258034317407395,13.028959,-0.98421836,-1.8432837,-0.08219882,4.303434,-3.88289,1.9121683,-0.56959975,0.047396243,-0.17318441,-0.8020701,-9.89127,9.658963,0.0761195,-0.31418782,0.514279,0.0142580345,0
1.5900000000000012,11.3280033617442,-0.31418781779436566,0.5142789998252625,0.014258034317407395,13.028959,-0.98421836,-1.8432837,-0.08219882,4.204589,-3.7861118,1.9129686,-0.56902015,0.05034092,-0.17339166,-0.80225724,-9.877733,9.696707,0.08396514,-0.31418782,0.514279,0.0142580345,0
1.6000000000000012,11.26769858216605,-0.2612299036893964,-0.10873786464376903,0.06786360987712706,13.726995,-1.2432698,-2.8720963,-0.12259403,4.105877,-3.6889544,1.9138471,-0.56843543,0.053285144,-0.17359734,-0.8024371,-9.864731,9.734869,0.091727875,-0.31418782,0.514279,0.0142580345,0
1.6100000000000012,11.26769858216605,-0.2612299036893964,-0.10873786464376903,0.06786360987712706,13.726995,-1.2432698,-2.8720963,-0.12259403,4.0072927,-3.5914145,1.9148002,-0.56818736,0.05353237,-0.17225808,-0.8028849,-9.852216,9.773014,0.098910704,-0.2612299,-0.10873786,0.06786361,0
1.6200000000000012,11.26769858216605,-0.2612299036893964,-0.10873786464376903,0.06786360987712706,13.726995,-1.2432698,-2.8720963,-0.12259403,3.9088323,-3.4934945,1.9158256,-0.567938,0.053779475,-0.17091846,-0.80333096,-9.8399315,9.810962,0.10619166,-0.2612299,-0.10873786,0.06786361,0
1.6300000000000012,11.26769858216605,-0.2612299036893964,-0.10873786464376903,0.06786360987712706,13.726995,-1.2432698,-2.8720963,-0.12259403,3.8104935,-3.395196,1.9169242,-0.5676875,0.054026477,-0.1695785,-0.8037753,-9.827879,9.848714,0.11356994,-0.2612299,-0.10873786,0.06786361,0
1.6400000000000012,11.26769858216605,-0.2612299036893964,-0.10873786464376903,0.06786360987712706,13.775378,-1.2483206,-2.76575,0.045639943,3.712274,-3.2965207,1.9180971,-0.5674358,0.05427336,-0.16823816,-0.80421793,-9.816057,9.886268,0.12104473,-0.2612299,-0.10873786,0.06786361,0
1.6500000000000012,11.26769858216605,-0.2612299036893964,-0.10873786464376903,0.06786360987712706,13.775378,-1.2483206,-2.76575,0.045639943,3.6141715,-3.1974711,1.9193454,-0.5671829,0.054520123,-0.16689748,-0.8046589,-9.804466,9.923623,0.12861523,-0.2612299,-0.10873786,0.06786361,0
1.6600000000000013,11.26769858216605,-0.2612299036893964,-0.10873786464376903,0.06786360987712706,13.775378,-1.2483206,-2.76575,0.045639943,3.5161839,-3.098049,1.9206698,-0.5669288,0.054766778,-0.16555643,-0.8050981,-9.793107,9.96078,0.13628063,-0.2612299,-0.10873786,0.06786361,0
1.6700000000000013,11.26769858216605,-0.2612299036893964,-0.10873786464376903,0.06786360987712706,13.775378,-1.2483206,-2.76575,0.045639943,3.4183087,-2.998256,1.9220713,-0.5666735,0.055013318,-0.16421503,-0.8055356,-9.781978,9.997739,0.14404014,-0.2612299,-0.10873786,0.06786361,0
1.6800000000000013,11.303342983842366,-0.348543039513933,0.14000080244590765,0.11285884408640473,13.551429,-1.2513311,-2.496593,-0.20996308,3.3205438,-2.8980947,1.9235508,-0.56641704,0.055259738,-0.16287327,-0.80597144,-9.771081,10.034499,0.15189292,-0.2612299,-0.10873786,0.06786361,0
1.6900000000000013,11.303342983842366,-0.348543039513933,0.14000080244590765,0.11285884408640473,13.551429,-1.2513311,-2.496593,-0.20996308,3.2228866,-2.7975657,1.925111,-0.56575084,0.05671901,-0.16189605,-0.8065347,-9.760452,10.071259,0.16015214,-0.34854305,0.1400008,0.11285885,0
1.7000000000000013,11.303342983842366,-0.348543039513933,0.14000080244590765,0.11285884408640473,13.551429,-1.2513311,-2.496593,-0.20996308,3.1253335,-2.6966693,1.926754,-0.56508243,0.058178063,-0.16091822,-0.8070948,-9.750246,10.108039,0.16844565,-0.34854305,0.1400008,0.11285885,0
1.7100000000000013,11.303342983842366,-0.348543039513933,0.14000080244590765,0.11285884408640473,13.551429,-1.2513311,-2.496593,-0.20996308,3.0278802,-2.5954049,1.92848,-0.5644119,0.05963689,-0.15993977,-0.8076518,-9.740463,10.144839,0.17677213,-0.34854305,0.1400008,0.11285885,0
1.7200000000000013,11.20958962529425,-0.3357264517087129,-0.4622194447263307,0.19037453650911143,13.407229,-1.210755,-2.9993145,0.08452058,2.9305227,-2.4937723,1.9302896,-0.5637392,0.06109549,-0.1589607,-0.8082057,-9.731103,10.181658,0.18513022,-0.34854305,0.1400008,0.11285885,0
1.7300000000000013,11.20958962529425,-0.3357264517087129,-0.4622194447263307,0.19037453650911143,13.407229,-1.210755,-2.9993145,0.08452058,2.8332565,-2.3917737,1.9321786,-0.5632321,0.060022376,-0.1563586,-0.8091467,-9.722144,10.217964,0.19270447,-0.33572644,-0.46221945,0.19037454,0
1.7400000000000013,11.20958962529425,-0.3357264517087129,-0.4622194447263307,0.19037453650911143,13.407229,-1.210755,-2.9993145,0.08452058,2.7360795,-2.2894151,1.9341445,-0.56272,0.05894871,-0.15375507,-0.81008035,-9.71335,10.253689,0.20049052,-0.33572644,-0.46221945,0.19037454,0
1.7500000000000013,11.20958962529425,-0.3357264517087129,-0.4622194447263307,0.19037453650911143,13.407229,-1.210755,-2.9993145,0.08452058,2.6389892,-2.186702,1.9361892,-0.56220275,0.057874512,-0.15115017,-0.81100667,-9.7047205,10.288831,0.20848492,-0.33572644,-0.46221945,0.19037454,0
1.7600000000000013,11.212221448531176,-0.45706099379695064,-0.4342075298407851,0.24719953582609827,13.907872,-1.3102167,-3.1800761,0.21723104,2.5419843,-2.0836403,1.9383149,-0.5616804,0.05679979,-0.14854388,-0.8119256,-9.696253,10.323388,0.2166842,-0.33572644,-0.46221945,0.19037454,0
1.7700000000000014,11.212221448531176,-0.45706099379695064,-0.4342075298407851,0.24719953582609827,13.907872,-1.3102167,-3.1800761,0.21723104,2.445063,-1.9802362,1.9405237,-0.5608663,0.056136757,-0.1455383,-0.8130779,-9.687997,10.357362,0.22511588,-0.457061,-0.43420753,0.24719954,0
1.7800000000000014,11.212221448531176,-0.45706099379695064,-0.4342075298407851,0.24719953582609827,13.907872,-1.3102167,-3.1800761,0.21723104,2.3482232,-1.8764952,1.9428179,-0.5600458,0.055473078,-0.14253105,-0.81422096,-9.680039,10.390731,0.23376101,-0.457061,-0.43420753,0.24719954,0
1.7900000000000014,11.212221448531176,-0.45706099379695064,-0.4342075298407851,0.24719953582609827,13.907872,-1.3102167,-3.1800761,0.21723104,2.2514615,-1.7724237,1.9451996,-0.5592189,0.054808766,-0.13952218,-0.81535465,-9.6723795,10.423494,0.24261546,-0.457061,-0.43420753,0.24719954,0
1.8000000000000014,11.099920402992481,-0.47514265852696813,-0.9217829133286699,0.3450055924670226,15.664443,-1.5191594,-4.676115,0.5447819,2.1547747,-1.6680276,1.9476709,-0.55838555,0.054143824,-0.13651171,-0.816479,-9.665014,10.455648,0.2516751,-0.457061,-0.43420753,0.24719954,0
1.8100000000000014,11.099920402992481,-0.47514265852696813,-0.9217829133286699,0.3450055924670226,15.664443,-1.5191594,-4.676115,0.5447819,2.0581598,-1.563315,1.9502286,-0.5574693,0.051471025,-0.13208982,-0.8180039,-9.657948,10.486692,0.25990972,-0.47514266,-0.9217829,0.3450056,0
1.8200000000000014,11.099920402992481,-0.47514265852696813,-0.9217829133286699,0.3450055924670226,15.664443,-1.5191594,-4.676115,0.5447819,1.9616153,-1.4582976,1.9528701,-0.5565364,0.04879669,-0.127664,-0.8195044,-9.650988,10.516637,0.26846638,-0.47514266,-0.9217829,0.3450056,0
1.8300000000000014,11.099920402992481,-0.47514265852696813,-0.9217829133286699,0.3450055924670226,15.664443,-1.5191594,-4.676115,0.5447819,1.8651397,-1.3529862,1.955599,-0.5555869,0.046120893,-0.12323437,-0.82098037,-9.64413,10.545478,0.2773334,-0.47514266,-0.9217829,0.3450056,0
1.8400000000000014,11.099920402992481,-0.47514265852696813,-0.9217829133286699,0.3450055924670226,15.2421665,-1.5286148,-4.285735,0.9553711,1.7687323,-1.2473918,1.958418,-0.5546208,0.043443725,-0.11880104,-0.82243186,-9.637373,10.573211,0.28649914,-0.47514266,-0.9217829,0.3450056,0
1.8500000000000014,11.099920402992481,-0.47514265852696813,-0.9217829133286699,0.3450055924670226,15.2421665,-1.5286148,-4.285735,0.9553711,1.6723919,-1.1415257,1.9613302,-0.5536381,0.040765256,-0.11436418,-0.8238588,-9.630713,10.5998335,0.29595193,-0.47514266,-0.9217829,0.3450056,0
1.8600000000000014,11.099920402992481,-0.47514265852696813,-0.9217829133286699,0.3450055924670226,15.2421665,-1.5286148,-4.285735,0.9553711,1.5761178,-1.0353988,1.9643381,-0.5526389,0.03808557,-0.10992389,-0.8252611,-9.624148,10.625342,0.30568007,-0.47514266,-0.9217829,0.3450056,0
1.8700000000000014,11.099920402992481,-0.47514265852696813,-0.9217829133286699,0.3450055924670226,15.2421665,-1.5286148,-4.285735,0.9553711,1.4799087,-0.9290225,1.9674448,-0.5516232,0.03540475,-0.10548032,-0.82663876,-9.617674,10.6497345,0.3156718,-0.47514266,-0.9217829,0.3450056,0
1.8800000000000014,11.093758821384336,-0.6645554159278404,-0.6338581850471163,0.3989708735511151,14.366476,-1.6648502,-2.4509063,0.74445206,1.383764,-0.82240796,1.9706526,-0.55059105,0.032722868,-0.101033606,-0.8279918,-9.611286,10.673006,0.3259153,-0.47514266,-0.9217829,0.3450056,0
1.8900000000000015,11.093758821384336,-0.6645554159278404,-0.6338581850471163,0.3989708735511151,14.366476,-1.6648502,-2.4509063,0.74445206,1.2876824,-0.7155661,1.9739636,-0.5491439,0.031726256,-0.09660142,-0.82951915,-9.605105,10.695223,0.3363294,-0.66455543,-0.6338582,0.39897087,0
1.9000000000000015,11.093758821384336,-0.6645554159278404,-0.6338581850471163,0.3989708735511151,14.366476,-1.6648502,-2.4509063,0.74445206,1.1916606,-0.6085066,1.9773798,-0.547683,0.03072885,-0.09216681,-0.8310257,-9.599322,10.716524,0.34694868,-0.66455543,-0.6338582,0.39897087,0
1.9100000000000015,11.093758821384336,-0.6645554159278404,-0.6338581850471163,0.3989708735511151,14.366476,-1.6648502,-2.4509063,0.74445206,1.0956947,-0.5012388,1.9809031,-0.5462084,0.029730676,-0.087729886,-0.83251154,-9.593936,10.736908,0.35776412,-0.66455543,-0.6338582,0.39897087,0
1.9200000000000015,10.974209022987061,-0.7594476673932654,-1.0982774006784293,0.5252015592103075,14.686629,-1.6228055,-3.336052,0.97420794,0.9997806,-0.3937717,1.9845358,-0.54472005,0.028731756,-0.08329077,-0.8339764,-9.588942,10.756371,0.36876667,-0.66455543,-0.6338582,0.39897087,0
1.9300000000000015,10.974209022987061,-0.7594476673932654,-1.0982774006784293,0.5252015592103075,14.686629,-1.6228055,-3.336052,0.97420794,0.90391433,-0.28611615,1.9882735,-0.54286426,0.026001062,-0.07720605,-0.83585936,-9.584344,10.774519,0.3787991,-0.7594477,-1.0982774,0.52520156,0
1.9400000000000015,10.974209022987061,-0.7594476673932654,-1.0982774006784293,0.5252015592103075,14.686629,-1.6228055,-3.336052,0.97420794,0.8080928,-0.17828621,1.9921126,-0.5409806,0.023269031,-0.071117364,-0.83769935,-9.580014,10.791247,0.38907143,-0.7594477,-1.0982774,0.52520156,0
1.9500000000000015,10.974209022987061,-0.7594476673932654,-1.0982774006784293,0.5252015592103075,14.686629,-1.6228055,-3.336052,0.97420794,0.7123132,-0.070296094,1.9960556,-0.53906906,0.0205358,-0.06502502,-0.83949625,-9.575945,10.806551,0.39956424,-0.7594477,-1.0982774,0.52520156,0
1.9600000000000015,10.934060932914548,-1.0313820605909727,-0.7651146378901533,0.5841614690497724,15.391418,-1.3649901,-4.1057935,0.9433066,0.616573,0.037839904,2.0001044,-0.5371299,0.017801514,-0.05892932,-0.8412499,-9.572129,10.820425,0.41025808,-0.7594477,-1.0982774,0.52520156,0
1.9700000000000015,10.934060932914548,-1.0313820605909727,-0.7651146378901533,0.5841614690497724,15.391418,-1.3649901,-4.1057935,0.9433066,0.5208692,0.14610747,2.0042593,-0.53479314,0.017180623,-0.052586824,-0.84316987,-9.568732,10.832897,0.42073116,-1.0313821,-0.76511467,0.58416146,0
1.9800000000000015,10.934060932914548,-1.0313820605909727,-0.7651146378901533,0.5841614690497724,15.391418,-1.3649901,-4.1057935,0.9433066,0.42519608,0.25449362,2.0085196,-0.5324297,0.016558878,-0.046241704,-0.8450479,-9.565998,10.844141,0.43135703,-1.0313821,-0.76511467,0.58416146,0
1.9900000000000015,10.934060932914548,-1.0313820605909727,-0.7651146378901533,0.5841614690497724,15.391418,-1.3649901,-4.1057935,0.9433066,0.329547,0.36298606,2.0128868,-0.5300397,0.015936306,-0.039894287,-0.8468838,-9.563919,10.854151,0.44211796,-1.0313821,-0.76511467,0.58416146,0
2.0000000000000013,10.86082491301994,-1.0710977254034306,-1.9235934630620126,0.7625979104751772,13.078999,-1.0656638,-2.277016,0.62994844,0.23391545,0.47157237,2.0173624,-0.5276234,0.015312943,-0.033544883,-0.8486775,-9.562488,10.862921,0.45299622,-1.0313821,-0.76511467,0.58416146,0
2.010000000000001,10.86082491301994,-1.0710977254034306,-1.9235934630620126,0.7625979104751772,13.078999,-1.0656638,-2.277016,0.62994844,0.13829556,0.5802387,2.0219433,-0.5245923,0.00984725,-0.023981463,-0.8509586,-9.561508,10.8699665,0.46326926,-1.0710977,-1.9235935,0.7625979,0
2.020000000000001,10.86082491301994,-1.0710977254034306,-1.9235934630620126,0.7625979104751772,13.078999,-1.0656638,-2.277016,0.62994844,0.042684935,0.6889636,2.026628,-0.52149,0.00438022,-0.014414789,-0.8531242,-9.560631,10.874626,0.4736719,-1.0710977,-1.9235935,0.7625979,0
2.0300000000000007,10.86082491301994,-1.0710977254034306,-1.9235934630620126,0.7625979104751772,13.078999,-1.0656638,-2.277016,0.62994844,-0.052917354,0.79772305,2.0314171,-0.51831686,-0.0010874042,-0.0048461584,-0.855174,-9.559839,10.876898,0.48415148,-1.0710977,-1.9235935,0.7625979,0
2.0400000000000005,10.86082491301994,-1.0710977254034306,-1.9235934630620126,0.7625979104751772,13.078999,-1.0656638,-2.277016,0.62994844,-0.14851208,0.9064933,2.0363111,-0.5150734,-0.00655488,0.00472313,-0.85710776,-9.5591135,10.87678,0.49465522,-1.0710977,-1.9235935,0.7625979,0
2.0500000000000003,10.86082491301994,-1.0710977254034306,-1.9235934630620126,0.7625979104751772,13.209812,-1.2197293,-2.2526507,0.54815936,-0.24409983,1.0152504,2.0413103,-0.51176,-0.012021467,0.014291777,-0.8589252,-9.558437,10.87427,0.5051303,-1.0710977,-1.9235935,0.7625979,0
2.06,10.86082491301994,-1.0710977254034306,-1.9235934630620126,0.7625979104751772,13.209812,-1.2197293,-2.2526507,0.54815936,-0.33968094,1.1239704,2.0464137,-0.5083772,-0.017486423,0.023858486,-0.86062604,-9.557793,10.869372,0.515524,-1.0710977,-1.9235935,0.7625979,0
2.07,10.86082491301994,-1.0710977254034306,-1.9235934630620126,0.7625979104751772,13.209812,-1.2197293,-2.2526507,0.54815936,-0.4352557,1.2326295,2.0516202,-0.5049254,-0.022949006,0.033421952,-0.8622101,-9.557161,10.862087,0.5257837,-1.0710977,-1.9235935,0.7625979,0
2.0799999999999996,10.86082491301994,-1.0710977254034306,-1.9235934630620126,0.7625979104751772,13.209812,-1.2197293,-2.2526507,0.54815936,-0.5308241,1.3412038,2.0569289,-0.501405,-0.028408475,0.042980883,-0.86367714,-9.556525,10.852417,0.53585666,-1.0710977,-1.9235935,0.7625979,0
2.0899999999999994,10.830764088321411,-1.267391259645551,-1.2119841109572218,0.8865914478469337,13.870457,-1.2089489,-2.5047386,0.7038333,-0.6263861,1.4496695,2.062337,-0.4978166,-0.03386409,0.052533984,-0.86502695,-9.555865,10.840368,0.54569036,-1.0710977,-1.9235935,0.7625979,0
2.099999999999999,10.830764088321411,-1.267391259645551,-1.2119841109572218,0.8865914478469337,13.870457,-1.2089489,-2.5047386,0.7038333,-0.72194195,1.5580038,2.0678403,-0.49385425,-0.035716895,0.061179794,-0.86665386,-9.555381,10.826194,0.55496407,-1.2673912,-1.2119842,0.88659143,0
