time-since-start [s],throttle_mpc,roll_mpc,pitch_mpc,yaw_mpc,throttle_nw,roll_nw,pitch_nw,yaw_nw,position_x [m],position_y [m],position_z [m],rotation_w [quaternion],rotation_x [quaternion],rotation_y [quaternion],rotation_z [quaternion],velocity_x [m/s],velocity_y [m/s],velocity_z [m/s],omega_x [rad/s],omega_y [rad/s],omega_z [rad/s],network_used
0.0,11.138093256665606,5.9999998865547015,-5.999999939980666,-1.430036106720338,15.7786045,4.156632,-2.840351,-0.31938568,17.685022,-9.831293,1.6765018,0.10329844,0.4072435,-0.107960835,-0.9010142,-10.9619,-7.5363984,1.2729505,3.444658,-0.5718716,-0.7940781,0
0.01,11.138093256665606,5.9999998865547015,-5.999999939980666,-1.430036106720338,15.816519,3.5514374,-6.1091795,-0.5371518,17.574947,-9.906587,1.6891289,0.09179592,0.40515044,-0.12300698,-0.90127456,-11.052455,-7.52156,1.2519745,3.7548425,-1.3306953,-0.8173896,0
0.02,11.138093256665606,5.9999998865547015,-5.999999939980666,-1.430036106720338,15.816519,3.5514374,-6.1091795,-0.5371518,17.463987,-9.981712,1.7015312,0.07907815,0.3997981,-0.13967034,-0.9024413,-11.139223,-7.502763,1.2280588,4.0600953,-2.014622,-0.8434413,0
0.03,11.138093256665606,5.9999998865547015,-5.999999939980666,-1.430036106720338,15.816519,3.5514374,-6.1091795,-0.5371518,17.352179,-10.056629,1.7136819,0.06513994,0.39143863,-0.15782262,-0.904226,-11.221973,-7.4797273,1.2019044,4.3555465,-2.6296911,-0.87160575,0
0.04,11.138093256665606,5.9999998865547015,-5.999999939980666,-1.430036106720338,16.08457,3.9679086,-7.0105333,0.22271468,17.239555,-10.13129,1.7255695,0.050039306,0.38034788,-0.17725609,-0.9063178,-11.302274,-7.4516025,1.1756649,4.611644,-3.1555166,-0.89900804,0
0.05,11.138093256665606,5.9999998865547015,-5.999999939980666,-1.430036106720338,16.08457,3.9679086,-7.0105333,0.22271468,17.126143,-10.205642,1.737197,0.033902135,0.3668444,-0.19768594,-0.9084031,-11.3799515,-7.417938,1.149921,4.8278365,-3.599321,-0.92506576,0
0.060000000000000005,11.138093256665606,5.9999998865547015,-5.999999939980666,-1.430036106720338,16.08457,3.9679086,-7.0105333,0.22271468,17.01197,-10.279629,1.7485698,0.016850982,0.35120627,-0.21885881,-0.9102039,-11.454343,-7.378528,1.1247231,5.010345,-3.9738963,-0.9498448,0
0.07,11.138093256665606,5.9999998865547015,-5.999999939980666,-1.430036106720338,16.08457,3.9679086,-7.0105333,0.22271468,16.89707,-10.353192,1.7596934,-0.000998578,0.33367488,-0.24055421,-0.91147894,-11.524798,-7.3332725,1.1000367,5.1644197,-4.2900405,-0.97340786,0
0.08,18.15705428024514,5.999999937791692,-5.999999967103137,-0.737151902045027,19.699305,4.1388907,-3.678942,-0.46367347,16.781488,-10.426274,1.7705721,-0.019537058,0.31446227,-0.26257953,-0.9120219,-11.590685,-7.282172,1.0757537,5.2944927,-4.556867,-0.9958148,0
0.09,18.15705428024514,5.999999937791692,-5.999999967103137,-0.737151902045027,19.699305,4.1388907,-3.678942,-0.46367347,16.66508,-10.49864,1.7814425,-0.03858238,0.29373428,-0.28479257,-0.9116605,-11.689655,-7.1895003,1.098367,5.40441,-4.7819495,-0.98312217,0
0.09999999999999999,18.15705428024514,5.999999937791692,-5.999999967103137,-0.737151902045027,19.699305,4.1388907,-3.678942,-0.46367347,16.547728,-10.570034,1.7925395,-0.05796285,0.27163684,-0.30706766,-0.91025454,-11.779254,-7.0877585,1.1209936,5.4972095,-4.9719195,-0.97105235,0
0.10999999999999999,18.15705428024514,5.999999937791692,-5.999999967103137,-0.737151902045027,19.699305,4.1388907,-3.678942,-0.46367347,16.42953,-10.640367,1.803861,-0.07759254,0.2483226,-0.32926816,-0.90768814,-11.85861,-6.9773784,1.1431948,5.5755563,-5.132256,-0.9595748,0
0.11999999999999998,18.15705428024514,5.999999937791692,-5.999999967103137,-0.737151902045027,19.699305,4.1388907,-3.678942,-0.46367347,16.310593,-10.709555,1.8154002,-0.09739016,0.2239311,-0.3512726,-0.90386814,-11.9269285,-6.858912,1.1644739,5.641701,-5.267581,-0.9486605,0
0.12999999999999998,20.999999904885005,5.99999981954791,-5.999999881573836,-0.6822314243404953,20.989538,3.6240427,-4.2203164,-0.23893146,16.191032,-10.77752,1.8271455,-0.1172789,0.19859073,-0.3729728,-0.8987206,-11.983498,-6.733022,1.1842889,5.6975436,-5.3817983,-0.9382817,0
0.13999999999999999,20.999999904885005,5.99999981954791,-5.999999881573836,-0.6822314243404953,20.989538,3.6240427,-4.2203164,-0.23893146,16.07093,-10.8440895,1.83917,-0.13718012,0.17241783,-0.39427304,-0.89218974,-12.03462,-6.5797124,1.2202086,5.744697,-5.478188,-0.92571723,0
0.15,20.999999904885005,5.99999981954791,-5.999999881573836,-0.6822314243404953,20.989538,3.6240427,-4.2203164,-0.23893146,15.950391,-10.909092,1.851539,-0.15701967,0.14552058,-0.41508743,-0.8842347,-12.070841,-6.419674,1.2530819,5.784506,-5.559543,-0.9137693,0
0.16,21.0,5.157766498835401,-5.999998832343388,-0.6364243320229601,18.406315,2.6740546,-3.5688992,-0.5192692,15.829565,-10.972464,1.8642186,-0.1767336,0.11800266,-0.43533725,-0.8748269,-12.091677,-6.253972,1.2822076,5.818113,-5.628209,-0.90240765,0
0.17,21.0,5.157766498835401,-5.999998832343388,-0.6364243320229601,18.406315,2.6740546,-3.5688992,-0.5192692,15.708611,-11.034155,1.8771678,-0.19622111,0.09002162,-0.4546613,-0.86410445,-12.0967865,-6.083761,1.306907,5.715147,-5.68608,-0.8893558,0
0.18000000000000002,21.0,5.157766498835401,-5.999998832343388,-0.6364243320229601,18.406315,2.6740546,-3.5688992,-0.5192692,15.587685,-11.094128,1.8903397,-0.21540883,0.06172612,-0.47278202,-0.8522125,-12.086031,-5.910339,1.3266485,5.628242,-5.7349396,-0.8769443,0
0.19000000000000003,21.0,5.157766498835401,-5.999998832343388,-0.6364243320229601,18.406315,2.6740546,-3.5688992,-0.5192692,15.466945,-11.152356,1.9036821,-0.23427431,0.03319544,-0.48974526,-0.83914435,-12.059413,-5.7350307,1.3409593,5.554893,-5.776191,-0.8651419,0
0.20000000000000004,21.0,2.639754158014399,-3.2360527991432257,-0.7785177902449918,18.130905,0.51942647,-1.7800632,-0.6597766,15.34655,-11.208827,1.9171386,-0.25279236,0.0045022005,-0.5055875,-0.82489824,-12.017045,-5.559144,1.3493804,5.4929843,-5.811019,-0.8539187,0
0.21000000000000005,21.0,2.639754158014399,-3.2360527991432257,-0.7785177902449918,18.130905,0.51942647,-1.7800632,-0.6597766,15.226657,-11.263541,1.930648,-0.2704007,-0.023109995,-0.51981807,-0.81002384,-11.959271,-5.3839517,1.3515254,5.048261,-5.4091954,-0.8502187,0
0.22000000000000006,21.0,2.639754158014399,-3.2360527991432257,-0.7785177902449918,18.130905,0.51942647,-1.7800632,-0.6597766,15.107413,-11.316513,1.9441472,-0.2867047,-0.048650723,-0.5321665,-0.79513043,-11.8872385,-5.210549,1.3473669,4.672855,-5.0700765,-0.8467003,0
0.23000000000000007,21.0,2.639754158014399,-3.2360527991432257,-0.7785177902449918,18.130905,0.51942647,-1.7800632,-0.6597766,14.988956,-11.367763,1.957574,-0.30190194,-0.07240748,-0.54294324,-0.78027236,-11.802231,-5.0398026,1.3370379,4.3559623,-4.7838774,-0.8433546,0
0.24000000000000007,21.0,2.639754158014399,-3.2360527991432257,-0.7785177902449918,18.706957,-1.4830996,0.95699817,-0.5731618,14.871409,-11.41732,1.9708674,-0.316155,-0.0946294,-0.55239874,-0.7654717,-11.70538,-4.8724055,1.3206965,4.088463,-4.5423393,-0.84017307,0
0.25000000000000006,21.0,2.639754158014399,-3.2360527991432257,-0.7785177902449918,18.706957,-1.4830996,0.95699817,-0.5731618,14.754887,-11.465224,1.983968,-0.32959726,-0.11553079,-0.56073475,-0.75072956,-11.597685,-4.7089224,1.2985086,3.8626578,-4.3384933,-0.8371476,0
0.26000000000000006,21.0,2.639754158014399,-3.2360527991432257,-0.7785177902449918,18.706957,-1.4830996,0.95699817,-0.5731618,14.63949,-11.511514,1.9968181,-0.3423382,-0.13529497,-0.56811386,-0.7360343,-11.480026,-4.549822,1.27064,3.6720483,-4.1664577,-0.83427066,0
0.2700000000000001,21.0,2.639754158014399,-3.2360527991432257,-0.7785177902449918,18.706957,-1.4830996,0.95699817,-0.5731618,14.525317,-11.556236,2.0093617,-0.35446742,-0.15407799,-0.5746674,-0.7213669,-11.35319,-4.3954997,1.2372484,3.5111487,-4.0212674,-0.83153486,0
0.2800000000000001,20.99999996343361,-0.38935008094949697,0.4393993462346121,-1.0414741927164741,18.716997,-3.1805594,2.471042,-0.30515894,14.4124565,-11.599442,2.0215445,-0.36605817,-0.1720122,-0.5805013,-0.7067047,-11.217879,-4.246299,1.1984825,3.375328,-3.898734,-0.82893336,0
0.2900000000000001,20.99999996343361,-0.38935008094949697,0.4393993462346121,-1.0414741927164741,18.716997,-3.1805594,2.471042,-0.30515894,14.300987,-11.641181,2.0333135,-0.3765629,-0.18771538,-0.58541834,-0.69299984,-11.074854,-4.102423,1.154563,2.7885716,-3.2219074,-0.8393628,0
0.3000000000000001,20.99999996343361,-0.38935008094949697,0.4393993462346121,-1.0414741927164741,18.716997,-3.1805594,2.471042,-0.30515894,14.190981,-11.681506,2.0446203,-0.38560656,-0.20012547,-0.589365,-0.6811067,-10.925477,-3.9634643,1.1061755,2.293271,-2.6506727,-0.8492805,0
0.3100000000000001,20.99999996343361,-0.38935008094949697,0.4393993462346121,-1.0414741927164741,18.716997,-3.1805594,2.471042,-0.30515894,14.082495,-11.720464,2.0554242,-0.39346313,-0.20977296,-0.592587,-0.6708373,-10.771074,-3.8287854,1.0540929,1.8751708,-2.1685584,-0.8587115,0
0.3200000000000001,20.999999933945933,-3.630728663322219,4.391265168931973,-0.7894583923241393,18.422768,-4.699616,5.2145205,-0.23527886,13.975574,-11.758094,2.0656917,-0.40035033,-0.21710117,-0.5952653,-0.6620014,-10.612696,-3.6977687,0.99898624,1.5222368,-1.7616606,-0.8676797,0
0.3300000000000001,20.999999933945933,-3.630728663322219,4.391265168931973,-0.7894583923241393,18.422768,-4.699616,5.2145205,-0.23527886,13.870251,-11.794429,2.0753958,-0.40576717,-0.22093657,-0.5973159,-0.6555561,-10.451298,-3.5697143,0.94151986,0.7191792,-0.8016597,-0.86384135,0
0.34000000000000014,20.999999933945933,-3.630728663322219,4.391265168931973,-0.7894583923241393,18.422768,-4.699616,5.2145205,-0.23527886,13.766552,-11.829493,2.0845177,-0.4093274,-0.22037683,-0.5986973,-0.65226275,-10.288312,-3.443272,0.88276577,0.041268855,0.008555472,-0.86019135,0
0.35000000000000014,20.999999933945933,-3.630728663322219,4.391265168931973,-0.7894583923241393,18.422768,-4.699616,5.2145205,-0.23527886,13.664484,-11.863295,2.0930502,-0.41132244,-0.21611519,-0.599551,-0.6516492,-10.125138,-3.3170035,0.8237895,-0.5309956,0.6923561,-0.8567205,0
0.36000000000000015,20.99999997232513,-5.792223564814959,5.999998091463095,-0.6304903724707778,18.792856,-7.0288815,6.7030544,0.2738155,13.564045,-11.895829,2.1009958,-0.41197324,-0.20872264,-0.5999548,-0.65327424,-9.962954,-3.1896722,0.7654643,-1.0140781,1.2694662,-0.85341996,0
0.37000000000000016,20.99999997232513,-5.792223564814959,5.999998091463095,-0.6304903724707778,18.792856,-7.0288815,6.7030544,0.2738155,13.465218,-11.92708,2.1083643,-0.4112251,-0.19790496,-0.5996363,-0.6573917,-9.802838,-3.0601919,0.70855784,-1.7588311,2.0075917,-0.8424808,0
0.38000000000000017,20.99999997232513,-5.792223564814959,5.999998091463095,-0.6304903724707778,18.792856,-7.0288815,6.7030544,0.2738155,13.367975,-11.957022,2.115175,-0.40900323,-0.18343984,-0.59833217,-0.6641271,-9.646122,-2.927386,0.65403986,-2.3875124,2.630534,-0.83207834,0
0.3900000000000002,20.99999997232513,-5.792223564814959,5.999998091463095,-0.6304903724707778,18.792856,-7.0288815,6.7030544,0.2738155,13.272279,-11.985615,2.1214561,-0.40542814,-0.16585886,-0.5960707,-0.672918,-9.494162,-2.7902427,0.6027891,-2.9182107,3.1562688,-0.82218635,0
0.4000000000000002,21.0,-5.999996347193631,5.999997157508659,-0.3459796512396382,19.250214,-8.924634,6.52716,0.6552939,13.178072,-12.012811,2.1272442,-0.40059102,-0.14561118,-0.592854,-0.68326306,-9.348254,-2.6480262,0.55546975,-3.3661957,3.599966,-0.8127798,0
0.4100000000000002,21.0,-5.999996347193631,5.999997157508659,-0.3459796512396382,19.250214,-8.924634,6.52716,0.6552939,13.085288,-12.038556,2.132581,-0.39455107,-0.123068504,-0.5886089,-0.69478285,-9.209656,-2.500259,0.51256186,-3.776796,3.9744105,-0.7898738,0
0.4200000000000002,21.0,-5.999996347193631,5.999997157508659,-0.3459796512396382,19.250214,-8.924634,6.52716,0.6552939,12.993849,-12.062796,2.137512,-0.3873511,-0.098556414,-0.5832672,-0.70713884,-9.079595,-2.3467047,0.47441462,-4.1234007,4.2904196,-0.76809174,0
0.4300000000000002,21.0,-5.999996347193631,5.999997157508659,-0.3459796512396382,19.250214,-8.924634,6.52716,0.6552939,12.903664,-12.08547,2.1420863,-0.37903824,-0.072373204,-0.5768272,-0.7199741,-8.959263,-2.1873515,0.44122955,-4.4159822,4.557114,-0.7473786,0
0.4400000000000002,21.0,-5.999996347193631,5.999997157508659,-0.3459796512396382,19.966,-8.889753,7.0679336,0.975511,12.814627,-12.106523,2.1463537,-0.36965707,-0.044781994,-0.5692887,-0.73297936,-8.849795,-2.0223908,0.41306055,-4.6629605,4.7821913,-0.7276818,0
0.45000000000000023,21.0,-5.999996347193631,5.999997157508659,-0.3459796512396382,19.966,-8.889753,7.0679336,0.975511,12.726625,-12.125899,2.1503642,-0.35925117,-0.01601694,-0.5606548,-0.74588764,-8.752257,-1.8521993,0.38982916,-4.8714414,4.972147,-0.7089516,0
0.46000000000000024,21.0,-5.999996347193631,5.999997157508659,-0.3459796512396382,19.966,-8.889753,7.0679336,0.975511,12.639536,-12.143551,2.1541665,-0.3478642,0.013712056,-0.5509333,-0.7584689,-8.667635,-1.6773162,0.37133864,-5.0474243,5.132462,-0.6911404,0
0.47000000000000025,21.0,-5.999996347193631,5.999997157508659,-0.3459796512396382,19.966,-8.889753,7.0679336,0.975511,12.553225,-12.159432,2.1578064,-0.33554032,0.04421562,-0.54013646,-0.7705261,-8.596817,-1.4984237,0.35728696,-5.1959743,5.267763,-0.6742032,0
0.48000000000000026,21.0,-4.635840542326435,3.8414266956594654,-0.7439650280557638,22.054466,-7.646297,7.6381416,0.7478632,12.467549,-12.173509,2.1613262,-0.32232434,0.07532193,-0.52828133,-0.78189045,-8.540591,-1.316327,0.34727922,-5.3213677,5.3819537,-0.6580972,0
0.49000000000000027,21.0,-4.635840542326435,3.8414266956594654,-0.7439650280557638,22.054466,-7.646297,7.6381416,0.7478632,12.38236,-12.185751,2.1647642,-0.30880788,0.106050566,-0.51555204,-0.7922103,-8.499534,-1.1319537,0.3408389,-5.214549,5.141678,-0.6623108,0
0.5000000000000002,21.0,-4.635840542326435,3.8414266956594654,-0.7439650280557638,22.054466,-7.646297,7.6381416,0.7478632,12.297506,-12.196143,2.1681533,-0.2955114,0.13561977,-0.50217026,-0.8013148,-8.473563,-0.9463764,0.33744115,-5.1243744,4.938879,-0.6663176,0
0.5100000000000002,21.0,-4.635840542326435,3.8414266956594654,-0.7439650280557638,22.054466,-7.646297,7.6381416,0.7478632,12.212839,-12.204678,2.1715214,-0.2823772,0.1641559,-0.48819995,-0.8093064,-8.462372,-0.7606248,0.33657292,-5.04825,4.767711,-0.67012775,0
0.5200000000000002,20.999999982065802,-1.9302319215273334,0.7596679657097684,-1.2181143164921167,23.714394,-4.776458,7.1246567,0.18953755,12.12821,-12.211357,2.1748917,-0.2693559,0.19176562,-0.47369274,-0.816265,-8.465641,-0.5756411,0.33774003,-4.983987,4.6232414,-0.67375094,0
0.5300000000000002,20.999999982065802,-1.9302319215273334,0.7596679657097684,-1.2181143164921167,23.714394,-4.776458,7.1246567,0.18953755,12.043478,-12.216195,2.1782818,-0.25725862,0.21727659,-0.4592545,-0.82200617,-8.482889,-0.3922768,0.34046385,-4.50795,4.0205894,-0.700463,0
0.5400000000000003,20.999999982065802,-1.9302319215273334,0.7596679657097684,-1.2181143164921167,23.714394,-4.776458,7.1246567,0.18953755,11.958509,-12.219212,2.181705,-0.2467768,0.23980421,-0.44544554,-0.82654303,-8.512775,-0.21116894,0.34432063,-4.1061296,3.5119355,-0.72586423,0
0.5500000000000003,20.999999982065802,-1.9302319215273334,0.7596679657097684,-1.2181143164921167,23.714394,-4.776458,7.1246567,0.18953755,11.873184,-12.220428,2.185171,-0.23769765,0.25981838,-0.4322229,-0.8301672,-8.553835,-0.03272797,0.34899992,-3.7669535,3.08262,-0.7500191,0
0.5600000000000003,20.99999991974868,1.1813392130770397,-2.198851204980273,-1.20855469066729,23.73591,-2.080666,5.7009187,-0.31734133,11.787398,-12.219875,2.188687,-0.22982982,0.2777152,-0.41953105,-0.8330943,-8.604819,0.14278501,0.35428336,-3.4806535,2.7202697,-0.7729887,0
0.5700000000000003,20.99999991974868,1.1813392130770397,-2.198851204980273,-1.20855469066729,23.73591,-2.080666,5.7009187,-0.31734133,11.701057,-12.217583,2.1922581,-0.2238526,0.29256275,-0.40808758,-0.8353212,-8.6645155,0.31525964,0.36002582,-2.753977,1.9528089,-0.79436207,0
0.5800000000000003,20.99999991974868,1.1813392130770397,-2.198851204980273,-1.20855469066729,23.73591,-2.080666,5.7009187,-0.31734133,11.614084,-12.21358,2.195889,-0.22031136,0.3036657,-0.39848843,-0.836933,-8.7310295,0.48496312,0.3662015,-2.140584,1.3050716,-0.8146867,0
0.5900000000000003,20.99999991974868,1.1813392130770397,-2.198851204980273,-1.20855469066729,23.73591,-2.080666,5.7009187,-0.31734133,11.52642,-12.207893,2.199584,-0.21885748,0.31163868,-0.3904923,-0.8381518,-8.802495,0.6523269,0.37288907,-1.6228118,0.75838286,-0.83401394,0
0.6000000000000003,20.999999867155033,3.5852606775792406,-3.7767292944136783,-0.9498396426105585,25.24316,-0.72054344,1.6277213,-0.7943207,11.438023,-12.2005415,2.2033489,-0.21918459,0.3169881,-0.38387287,-0.8391175,-8.877365,0.8177888,0.38022098,-1.1857526,0.29698104,-0.8523928,0
0.6100000000000003,20.999999867155033,3.5852606775792406,-3.7767292944136783,-0.9498396426105585,25.24316,-0.72054344,1.6277213,-0.7943207,11.348865,-12.191543,2.207191,-0.22154744,0.31937906,-0.3791041,-0.8397581,-8.954262,0.98180664,0.3883507,-0.44206953,-0.33872297,-0.8571745,0
0.6200000000000003,20.999999867155033,3.5852606775792406,-3.7767292944136783,-0.9498396426105585,25.24316,-0.72054344,1.6277213,-0.7943207,11.258936,-12.180909,2.2111192,-0.22612423,0.31855595,-0.37654126,-0.84000385,-9.031477,1.1450604,0.39742342,0.18568844,-0.8752288,-0.8617216,0
0.6300000000000003,20.999999867155033,3.5852606775792406,-3.7767292944136783,-0.9498396426105585,25.24316,-0.72054344,1.6277213,-0.7943207,11.16824,-12.168643,2.2151434,-0.23255953,0.31500256,-0.37582365,-0.83990824,-9.107379,1.3082113,0.4075832,0.715592,-1.3280153,-0.8660456,0
0.6400000000000003,20.999999867155033,3.5852606775792406,-3.7767292944136783,-0.9498396426105585,26.321554,0.57594395,-1.9452442,-0.8936917,11.0767975,-12.154743,2.2192752,-0.2405453,0.3091171,-0.3766336,-0.83948284,-9.18058,1.471782,0.4189606,1.1628954,-1.7101463,-0.87015736,0
0.6500000000000004,20.999999867155033,3.5852606775792406,-3.7767292944136783,-0.9498396426105585,26.321554,0.57594395,-1.9452442,-0.8936917,10.984641,-12.139204,2.2235272,-0.24981561,0.30123007,-0.37869453,-0.8387149,-9.2498865,1.6361556,0.4316581,1.5404743,-2.0326467,-0.8740674,0
0.6600000000000004,20.999999867155033,3.5852606775792406,-3.7767292944136783,-0.9498396426105585,26.321554,0.57594395,-1.9452442,-0.8936917,10.891816,-12.122017,2.2279131,-0.26014155,0.291618,-0.38176727,-0.8375791,-9.31427,1.801585,0.445743,1.8591971,-2.304821,-0.8777856,0
0.6700000000000004,20.999999867155033,3.5852606775792406,-3.7767292944136783,-0.9498396426105585,26.321554,0.57594395,-1.9452442,-0.8936917,10.798375,-12.103169,2.232447,-0.27132627,0.28051385,-0.38564637,-0.8360446,-9.372833,1.968203,0.46124503,2.128239,-2.534523,-0.8813213,0
0.6800000000000004,20.999999779413045,4.482129358716339,-3.5578719480807717,-0.8517977055684004,25.176716,1.1380781,-3.1282518,-0.9495959,10.704383,-12.08265,2.2371428,-0.2832006,0.26811558,-0.39015594,-0.83408,-9.4248,2.136036,0.47815642,2.3553436,-2.7283795,-0.8846835,0
0.6900000000000004,20.999999779413045,4.482129358716339,-3.5578719480807717,-0.8517977055684004,25.176716,1.1380781,-3.1282518,-0.9495959,10.609905,-12.060446,2.2420146,-0.29566902,0.25455678,-0.39547256,-0.83149374,-9.469475,2.305035,0.49641123,2.6869433,-2.8579266,-0.88306975,0
0.7000000000000004,20.999999779413045,4.482129358716339,-3.5578719480807717,-0.8517977055684004,25.176716,1.1380781,-3.1282518,-0.9495959,10.51502,-12.036546,2.2470748,-0.3086357,0.23994629,-0.40172377,-0.82812285,-9.50616,2.4751787,0.51578337,2.9668417,-2.9672403,-0.8815353,0
0.7100000000000004,20.999999779413045,4.482129358716339,-3.5578719480807717,-0.8517977055684004,25.176716,1.1380781,-3.1282518,-0.9495959,10.419812,-12.010938,2.2523332,-0.32196563,0.2244095,-0.4087035,-0.8239779,-9.534214,2.646381,0.5359899,3.2031002,-3.0594816,-0.8800761,0
0.7200000000000004,20.99999970513606,4.364564218372966,-2.0194175327752064,-0.9987506168870236,22.844336,2.973289,-2.6102054,-0.52516705,10.324368,-11.983614,2.2577963,-0.33554325,0.20805657,-0.4162357,-0.81906694,-9.553089,2.8184597,0.556741,3.4025226,-3.1373167,-0.8786885,0
0.7300000000000004,20.99999970513606,4.364564218372966,-2.0194175327752064,-0.9987506168870236,22.844336,2.973289,-2.6102054,-0.52516705,10.228783,-11.954566,2.2634683,-0.34901932,0.191513,-0.4243402,-0.8132916,-9.562366,2.991172,0.577708,3.5526407,-2.9630802,-0.88457996,0
0.7400000000000004,20.99999970513606,4.364564218372966,-2.0194175327752064,-0.9987506168870236,22.844336,2.973289,-2.6102054,-0.52516705,10.133154,-11.923789,2.2693493,-0.36211777,0.17528658,-0.43304485,-0.8066083,-9.561945,3.1643362,0.5983789,3.6793342,-2.8160026,-0.8901824,0
0.7500000000000004,20.99999970513606,4.364564218372966,-2.0194175327752064,-0.9987506168870236,22.844336,2.973289,-2.6102054,-0.52516705,10.037578,-11.891278,2.2754333,-0.3748463,0.15930943,-0.44221848,-0.79909515,-9.551837,3.3377688,0.6182263,3.7862582,-2.6918507,-0.8955099,0
0.7600000000000005,20.99999944205146,3.1865460923354707,0.16051413289259978,-1.174057116379009,20.675093,2.8399787,-0.40781137,-0.47212213,9.942151,-11.857033,2.2817097,-0.387212,0.14352691,-0.4517474,-0.7908165,-9.532064,3.5112455,0.63677686,3.8764973,-2.5870507,-0.90057594,1
0.7700000000000005,20.99999944205146,3.1865460923354707,0.16051413289259978,-1.174057116379009,20.675093,2.8399787,-0.40781137,-0.47212213,9.846968,-11.821068,2.2881541,-0.39879718,0.1286147,-0.46132028,-0.78205,-9.5032015,3.681842,0.65182596,3.715083,-2.2470539,-0.8795516,1
0.7800000000000005,20.99999944205146,3.1865460923354707,0.16051413289259978,-1.174057116379009,20.675093,2.8399787,-0.40781137,-0.47212213,9.752117,-11.783398,2.294739,-0.40928924,0.115110934,-0.47072163,-0.7730799,-9.465524,3.8520782,0.6648115,3.578801,-1.9601003,-0.85955894,1
0.7900000000000005,20.99999944205146,3.1865460923354707,0.16051413289259978,-1.174057116379009,20.675093,2.8399787,-0.40781137,-0.47212213,9.657685,-11.744028,2.3014424,-0.4188343,0.10278805,-0.47998405,-0.76395506,-9.419691,4.0218434,0.67543,3.463739,-1.7179142,-0.8405473,1
0.8000000000000005,20.9999989912845,1.494539026125853,1.9553961041212786,-1.2102759762380908,17.660378,1.6966141,2.2761242,-0.46754542,9.563748,-11.702963,2.3082387,-0.4275553,0.09145309,-0.4891295,-0.7547083,-9.366267,4.1910467,0.6834307,3.3665938,-1.5135114,-0.8224686,0
0.8100000000000005,20.9999989912845,1.494539026125853,1.9553961041212786,-1.2102759762380908,17.660378,1.6966141,2.2761242,-0.46754542,9.470387,-11.660196,2.3151093,-0.43511605,0.081931084,-0.49817148,-0.7455105,-9.304874,4.362297,0.6902115,3.074925,-0.9724193,-0.8414984,0
0.8200000000000005,20.9999989912845,1.494539026125853,1.9553961041212786,-1.2102759762380908,17.660378,1.6966141,2.2761242,-0.46754542,9.377672,-11.615718,2.322032,-0.44127452,0.074871756,-0.50714797,-0.73652655,-9.237369,4.5331564,0.6938305,2.8287084,-0.51572675,-0.8595944,0
0.8300000000000005,20.9999989912845,1.494539026125853,1.9553961041212786,-1.2102759762380908,17.660378,1.6966141,2.2761242,-0.46754542,9.285658,-11.569533,2.328974,-0.446248,0.06988738,-0.5160948,-0.72775275,-9.164771,4.703926,0.69403946,2.6208594,-0.1302698,-0.87680244,0
0.8400000000000005,20.9999989912845,1.494539026125853,1.9553961041212786,-1.2102759762380908,15.68139,0.05921454,3.8578389,-0.30410445,9.194392,-11.52164,2.3359,-0.45021507,0.06665003,-0.52503127,-0.7191702,-9.087933,4.8748827,0.6906366,2.4453979,0.19506285,-0.8931661,0
0.8500000000000005,20.9999989912845,1.494539026125853,1.9553961041212786,-1.2102759762380908,15.68139,0.05921454,3.8578389,-0.30410445,9.103911,-11.472034,2.3427734,-0.45332325,0.064882986,-0.5339654,-0.71075225,-9.00756,5.0462675,0.68345225,2.297276,0.4696487,-0.9087268,0
0.8600000000000005,20.9999989912845,1.494539026125853,1.9553961041212786,-1.2102759762380908,15.68139,0.05921454,3.8578389,-0.30410445,9.01425,-11.420712,2.3495555,-0.45569506,0.06435293,-0.54289776,-0.7024687,-8.924243,5.218283,0.67233986,2.172233,0.7014031,-0.92352396,0
0.8700000000000006,20.9999989912845,1.494539026125853,1.9553961041212786,-1.2102759762380908,15.68139,0.05921454,3.8578389,-0.30410445,8.925434,-11.367666,2.3562062,-0.45743287,0.064863406,-0.5518245,-0.69428897,-8.838473,5.391096,0.65717,2.0666728,0.8970069,-0.93759495,0
0.8800000000000006,20.999996379748154,-0.04972474685704845,2.9172500375243557,-1.0812446756216605,15.111292,-1.7980351,3.085497,-0.068386056,8.837487,-11.312887,2.3626847,-0.45862237,0.06624902,-0.56073874,-0.6861838,-8.750664,5.5648346,0.63782614,1.9775589,1.0620991,-0.95097554,0
0.8900000000000006,20.999996379748154,-0.04972474685704845,2.9172500375243557,-1.0812446756216605,15.111292,-1.7980351,3.085497,-0.068386056,8.750427,-11.256366,2.3689482,-0.45906734,0.06890864,-0.5693889,-0.67845744,-8.6612215,5.7396164,0.61422133,1.66159,1.3515977,-0.9573679,0
0.9000000000000006,20.999996379748154,-0.04972474685704845,2.9172500375243557,-1.0812446756216605,15.111292,-1.7980351,3.085497,-0.068386056,8.664267,-11.19809,2.3749545,-0.45861194,0.07314735,-0.57758296,-0.6713583,-8.570841,5.9156647,0.58638287,1.3948698,1.5959209,-0.96344656,0
0.9100000000000006,20.999996379748154,-0.04972474685704845,2.9172500375243557,-1.0812446756216605,15.111292,-1.7980351,3.085497,-0.068386056,8.579012,-11.138045,2.3806617,-0.45737562,0.07871056,-0.5853876,-0.66478044,-8.4802265,6.093207,0.5543584,1.1697222,1.8021182,-0.9692269,0
0.9200000000000006,20.231004393814306,-1.7233669134783056,2.6832030840401746,-0.9419979703576514,15.210914,-2.8046348,2.742766,0.08203973,8.494661,-11.076219,2.3860273,-0.45545802,0.08538368,-0.59285367,-0.65862864,-8.38997,6.2724237,0.5181731,0.9796671,1.9761388,-0.97472364,0
0.9300000000000006,20.231004393814306,-1.7233669134783056,2.6832030840401746,-0.9419979703576514,15.210914,-2.8046348,2.742766,0.08203973,8.411194,-11.012623,2.391,-0.4529294,0.09321912,-0.5995404,-0.653235,-8.303885,6.446825,0.47576538,0.55819833,2.086673,-0.97311777,0
0.9400000000000006,20.231004393814306,-1.7233669134783056,2.6832030840401746,-0.9419979703576514,15.210914,-2.8046348,2.742766,0.08203973,8.32858,-10.947275,2.3955302,-0.4498468,0.10224704,-0.6051068,-0.6488673,-8.219329,6.6230903,0.4297085,0.2024463,2.179927,-0.9715907,0
0.9500000000000006,20.231004393814306,-1.7233669134783056,2.6832030840401746,-0.9419979703576514,15.210914,-2.8046348,2.742766,0.08203973,8.2468,-10.880155,2.3995829,-0.44626823,0.11227031,-0.60971767,-0.64535564,-8.136935,6.8013167,0.38033882,-0.09783552,2.2586029,-0.97013855,0
0.9600000000000006,18.847115524327673,-2.916397145501582,0.9278227954719196,-0.8789854438369009,12.946687,-3.5524347,1.0156018,0.3633004,8.1658325,-10.811242,2.4031265,-0.4422422,0.12312228,-0.6135069,-0.64255077,-8.057249,6.9815683,0.32792255,-0.3512965,2.3249788,-0.9687576,0
0.9700000000000006,18.847115524327673,-2.916397145501582,0.9278227954719196,-0.8789854438369009,12.946687,-3.5524347,1.0156018,0.3633004,8.085618,-10.74058,2.406117,-0.43817785,0.13441789,-0.61597097,-0.6407115,-7.985964,7.151391,0.26980442,-0.7514658,2.1073434,-0.9643525,0
0.9800000000000006,18.847115524327673,-2.916397145501582,0.9278227954719196,-0.8789854438369009,12.946687,-3.5524347,1.0156018,0.3633004,8.006102,-10.668209,2.408516,-0.43440396,0.14584541,-0.61672765,-0.64005375,-7.9179707,7.323008,0.2097125,-1.0892061,1.9236069,-0.9601635,0
0.9900000000000007,18.847115524327673,-2.916397145501582,0.9278227954719196,-0.8789854438369009,12.946687,-3.5524347,1.0156018,0.3633004,7.9272466,-10.594114,2.410307,-0.43084878,0.15737303,-0.6160357,-0.64039254,-7.8535547,7.496289,0.14828128,-1.3742571,1.7684897,-0.9561801,0
1.0000000000000007,17.887150327030746,-3.67937294309543,-1.2987088313991368,-0.8884324791507258,12.246819,-4.119674,-2.2001493,-0.16537996,7.849017,-10.518278,2.4114792,-0.42745084,0.16897334,-0.6141081,-0.6415642,-7.7929688,7.6711135,0.08603479,-1.6148386,1.6375339,-0.95239216,0
1.0100000000000007,17.887150327030746,-3.67937294309543,-1.2987088313991368,-0.8884324791507258,12.246819,-4.119674,-2.2001493,-0.16537996,7.7713594,-10.440732,2.4120176,-0.42465332,0.18018228,-0.61054593,-0.64376795,-7.7392945,7.8383713,0.021664886,-1.9370879,1.1798244,-0.9492536,0
1.0200000000000007,17.887150327030746,-3.67937294309543,-1.2987088313991368,-0.8884324791507258,12.246819,-4.119674,-2.2001493,-0.16537996,7.694218,-10.361507,2.411914,-0.42280024,0.19062862,-0.605045,-0.6471636,-7.689491,8.006723,-0.04221539,-2.2090368,0.7934623,-0.9462691,0
1.0300000000000007,17.887150327030746,-3.67937294309543,-1.2987088313991368,-0.8884324791507258,12.246819,-4.119674,-2.2001493,-0.16537996,7.617556,-10.280596,2.4111776,-0.42170718,0.20041434,-0.59788865,-0.6515565,-7.6435685,8.175911,-0.10481487,-2.438537,0.46732622,-0.9434311,0
1.0400000000000007,17.887150327030746,-3.67937294309543,-1.2987088313991368,-0.8884324791507258,11.847803,-4.2196827,-3.4200191,-0.26305887,7.5413337,-10.1979885,2.4098244,-0.42121646,0.20962423,-0.589309,-0.65677154,-7.6015563,8.3456955,-0.16547644,-2.632214,0.1920284,-0.9407323,0
1.0500000000000007,17.887150327030746,-3.67937294309543,-1.2987088313991368,-0.8884324791507258,11.847803,-4.2196827,-3.4200191,-0.26305887,7.465512,-10.113682,2.4078765,-0.4211944,0.21832886,-0.579498,-0.6626533,-7.563498,8.515846,-0.2236587,-2.7956603,-0.040355977,-0.93816596,0
1.0600000000000007,17.887150327030746,-3.67937294309543,-1.2987088313991368,-0.8884324791507258,11.847803,-4.2196827,-3.4200191,-0.26305887,7.3900504,-10.027672,2.4053612,-0.42152825,0.2265872,-0.5686155,-0.6690652,-7.5294504,8.686135,-0.27892005,-2.9335942,-0.23651582,-0.9357255,0
1.0700000000000007,17.887150327030746,-3.67937294309543,-1.2987088313991368,-0.8884324791507258,11.847803,-4.2196827,-3.4200191,-0.26305887,7.3149095,-9.939959,2.4023094,-0.42212334,0.23444861,-0.5567955,-0.6758877,-7.499477,8.856335,-0.33090532,-3.049998,-0.40209782,-0.9334048,0
1.0800000000000007,16.601143813135185,-3.6301680454848064,-3.8479040502945496,-0.7412716199542534,11.637175,-4.2563305,-5.278199,-0.3348676,7.240047,-9.850546,2.3987556,-0.4229007,0.24195448,-0.54415107,-0.683017,-7.4736476,9.026212,-0.37933388,-3.148233,-0.5418686,-0.93119806,0
1.0900000000000007,16.601143813135185,-3.6301680454848064,-3.8479040502945496,-0.7412716199542534,11.637175,-4.2563305,-5.278199,-0.3348676,7.1654143,-9.759499,2.3947172,-0.42433655,0.24842186,-0.5303629,-0.6906083,-7.4535494,9.183333,-0.42777342,-3.2236967,-1.0574169,-0.92187834,0
1.1000000000000008,16.601143813135185,-3.6301680454848064,-3.8479040502945496,-0.7412716199542534,11.637175,-4.2563305,-5.278199,-0.3348676,7.090964,-9.666883,2.3902142,-0.42678198,0.25329825,-0.5151761,-0.69877774,-7.437129,9.339531,-0.4721144,-3.2873385,-1.4925727,-0.9130159,0
1.1100000000000008,16.601143813135185,-3.6301680454848064,-3.8479040502945496,-0.7412716199542534,11.637175,-4.2563305,-5.278199,-0.3348676,7.0166593,-9.572713,2.3852909,-0.430007,0.2567911,-0.49876308,-0.70738053,-7.4241595,9.494377,-0.51180905,-3.3410108,-1.8598716,-0.90458834,0
1.1200000000000008,16.093688684850683,-3.348322371515085,-5.336616660301497,-0.5132460852407794,11.842671,-4.2315903,-6.2328,-0.14340687,6.9424686,-9.477003,2.3799953,-0.433817,0.25907576,-0.48126736,-0.71628475,-7.414468,9.647452,-0.54642403,-3.386276,-2.1698952,-0.8965743,0
1.1300000000000008,16.093688684850683,-3.348322371515085,-5.336616660301497,-0.5132460852407794,11.842671,-4.2315903,-6.2328,-0.14340687,6.868358,-9.379795,2.3743706,-0.4383386,0.25980905,-0.46263742,-0.7254824,-7.4080973,9.793712,-0.57770425,-3.380613,-2.6637883,-0.8777642,0
1.1400000000000008,16.093688684850683,-3.348322371515085,-5.336616660301497,-0.5132460852407794,11.842671,-4.2315903,-6.2328,-0.14340687,6.794297,-9.281137,2.3684611,-0.443641,0.25871554,-0.4428317,-0.73494804,-7.4044776,9.937322,-0.6032805,-3.37578,-3.0806563,-0.8598772,0
1.1500000000000008,16.093688684850683,-3.348322371515085,-5.336616660301497,-0.5132460852407794,11.842671,-4.2315903,-6.2328,-0.14340687,6.72026,-9.181059,2.362326,-0.4494953,0.25602502,-0.42197543,-0.7445411,-7.403337,10.077741,-0.62278175,-3.371657,-3.4325118,-0.8428679,0
1.1600000000000008,15.40310349446903,-2.764120260464369,-5.999991348829643,-0.05944136388867513,13.347188,-4.0313787,-5.80859,0.23422118,6.646223,-9.079596,2.3560274,-0.45570847,0.25193387,-0.400176,-0.75413376,-7.404461,10.214422,-0.6359536,-3.3681417,-3.7294931,-0.82669324,0
1.1700000000000008,15.40310349446903,-2.764120260464369,-5.999991348829643,-0.05944136388867513,13.347188,-4.0313787,-5.80859,0.23422118,6.5721645,-8.976814,2.34961,-0.46223846,0.24628034,-0.37759644,-0.76361114,-7.407517,10.341137,-0.6465627,-3.274036,-4.083707,-0.78904396,0
1.1800000000000008,15.40310349446903,-2.764120260464369,-5.999991348829643,-0.05944136388867513,13.347188,-4.0313787,-5.80859,0.23422118,6.4980674,-8.872789,2.3431182,-0.46902737,0.23894146,-0.3543756,-0.7728762,-7.412274,10.463202,-0.6508658,-3.1945665,-4.382666,-0.75324214,0
1.1900000000000008,15.40310349446903,-2.764120260464369,-5.999991348829643,-0.05944136388867513,13.347188,-4.0313787,-5.80859,0.23422118,6.423915,-8.767569,2.3366148,-0.4759055,0.23012803,-0.33056894,-0.78184307,-7.418457,10.580067,-0.6488424,-3.1274595,-4.6349897,-0.7191971,0
1.2000000000000008,15.149317484902955,-2.1164713529995365,-5.233154408156509,0.35428750423642424,14.548505,-3.6707988,-5.763064,0.4230369,6.349694,-8.661207,2.330163,-0.48273137,0.22002313,-0.30622736,-0.790433,-7.4258375,10.691189,-0.6405611,-3.0707948,-4.8479524,-0.6868227,0
1.2100000000000009,15.149317484902955,-2.1164713529995365,-5.233154408156509,0.35428750423642424,14.548505,-3.6707988,-5.763064,0.4230369,6.2753954,-8.553774,2.3238156,-0.4893155,0.2088904,-0.2817663,-0.79846233,-7.43408,10.794339,-0.62804234,-2.9218318,-4.9081883,-0.63573515,0
1.2200000000000009,15.149317484902955,-2.1164713529995365,-5.233154408156509,0.35428750423642424,14.548505,-3.6707988,-5.763064,0.4230369,6.20101,-8.445342,2.317622,-0.4955182,0.19695866,-0.2575359,-0.8058185,-7.443104,10.89099,-0.6098599,-2.7961004,-4.959007,-0.5871544,0
1.2300000000000009,15.149317484902955,-2.1164713529995365,-5.233154408156509,0.35428750423642424,14.548505,-3.6707988,-5.763064,0.4230369,6.1265316,-8.3359785,2.3116367,-0.50129867,0.18432987,-0.23349139,-0.8125288,-7.4527225,10.980846,-0.5863964,-2.6899781,-5.0018816,-0.5409575,0
1.2400000000000009,15.149317484902955,-2.1164713529995365,-5.233154408156509,0.35428750423642424,14.902122,-3.4013834,-5.785941,0.6333908,6.0519547,-8.225751,2.3059108,-0.5066245,0.17109369,-0.20959605,-0.81861293,-7.4627786,11.063633,-0.5580468,-2.6004086,-5.0380545,-0.4970276,0
1.2500000000000009,15.149317484902955,-2.1164713529995365,-5.233154408156509,0.35428750423642424,14.902122,-3.4013834,-5.785941,0.6333908,5.9772754,-8.114732,2.3004913,-0.5114704,0.15732923,-0.18582055,-0.8240846,-7.4731345,11.139098,-0.5252186,-2.5248106,-5.0685735,-0.45525333,0
1.260000000000001,15.149317484902955,-2.1164713529995365,-5.233154408156509,0.35428750423642424,14.902122,-3.4013834,-5.785941,0.6333908,5.9024916,-8.0029955,2.2954204,-0.5158167,0.14310652,-0.16214187,-0.82895285,-7.483672,11.207008,-0.48833156,-2.4610062,-5.094322,-0.41552892,0
1.270000000000001,15.149317484902955,-2.1164713529995365,-5.233154408156509,0.35428750423642424,14.902122,-3.4013834,-5.785941,0.6333908,5.8276014,-7.8906183,2.2907372,-0.51964885,0.12848777,-0.13854265,-0.8332233,-7.49429,11.267155,-0.4478169,-2.4071562,-5.116047,-0.3777538,0
1.280000000000001,14.496890288099722,-1.4628399532635448,-3.7561822665152866,0.7655906356297015,14.758081,-2.9739466,-5.93696,0.77214426,5.7526054,-7.777679,2.2864752,-0.52295625,0.11352843,-0.1150103,-0.8368989,-7.504897,11.319352,-0.4041167,-2.3617084,-5.134376,-0.34183234,0
1.290000000000001,14.496890288099722,-1.4628399532635448,-3.7561822665152866,0.7655906356297015,14.758081,-2.9739466,-5.93696,0.77214426,5.6775064,-7.664268,2.282633,-0.52566034,0.098631926,-0.092072286,-0.8399254,-7.514965,11.36158,-0.3639187,-2.2213075,-4.9195576,-0.28749076,0
1.300000000000001,14.496890288099722,-1.4628399532635448,-3.7561822665152866,0.7655906356297015,14.758081,-2.9739466,-5.93696,0.77214426,5.6023064,-7.550473,2.279204,-0.52772963,0.084129095,-0.0701544,-0.84231895,-7.5248904,11.396224,-0.32161722,-2.102831,-4.738223,-0.23581573,0
1.310000000000001,14.496890288099722,-1.4628399532635448,-3.7561822665152866,0.7655906356297015,14.758081,-2.9739466,-5.93696,0.77214426,5.5270085,-7.4363685,2.2762063,-0.52921796,0.069966674,-0.049109276,-0.8441685,-7.534622,11.423496,-0.27768478,-2.002854,-4.585154,-0.18667641,0
1.320000000000001,13.827593452266113,-0.8959787258139472,-0.8774535730676208,0.9834886299559683,14.333528,-2.2595074,-5.1363735,0.76593196,5.451615,-7.322027,2.2736545,-0.5301693,0.056099433,-0.028810654,-0.8455427,-7.5441155,11.443587,-0.23254308,-1.9184875,-4.4559455,-0.1399484,0
1.330000000000001,13.827593452266113,-0.8959787258139472,-0.8774535730676208,0.9834886299559683,14.333528,-2.2595074,-5.1363735,0.76593196,5.3761296,-7.207524,2.2715251,-0.5305925,0.043343533,-0.009955565,-0.8464591,-7.5529213,11.456138,-0.19323143,-1.7588356,-3.8979597,-0.084821016,0
1.340000000000001,13.827593452266113,-0.8959787258139472,-0.8774535730676208,0.9834886299559683,14.333528,-2.2595074,-5.1363735,0.76593196,5.300557,-7.092925,2.2697914,-0.53054893,0.03234752,0.006909589,-0.8470082,-7.561563,11.462691,-0.15349054,-1.6241297,-3.4269767,-0.032398757,0
1.350000000000001,13.827593452266113,-0.8959787258139472,-0.8774535730676208,0.9834886299559683,14.333528,-2.2595074,-5.1363735,0.76593196,5.2248983,-6.978288,2.268456,-0.5301309,0.02284757,0.02209011,-0.8473196,-7.5701475,11.463917,-0.113593936,-1.5104673,-3.0294318,0.01745113,0
1.360000000000001,13.191379598522804,-0.4390154413885638,1.654141544030692,1.0869878178344763,14.824448,-1.6062044,-3.14432,0.82452625,5.1491537,-6.8636627,2.2675195,-0.52940583,0.014618521,0.035846524,-0.8474845,-7.5787654,11.46039,-0.073737614,-1.4145583,-2.6938748,0.064854875,0
1.370000000000001,13.191379598522804,-0.4390154413885638,1.654141544030692,1.0869878178344763,14.824448,-1.6062044,-3.14432,0.82452625,5.073324,-6.749093,2.26695,-0.5284595,0.008229836,0.047715724,-0.8475761,-7.5871124,11.453012,-0.040300965,-1.2633398,-2.0167944,0.114921845,0
1.380000000000001,13.191379598522804,-0.4390154413885638,1.654141544030692,1.0869878178344763,14.824448,-1.6062044,-3.14432,0.82452625,4.9974103,-6.634613,2.2667127,-0.52738273,0.004125094,0.057334512,-0.84768057,-7.595744,11.4424095,-0.007200119,-1.1347837,-1.4443399,0.16262141,0
1.390000000000001,13.191379598522804,-0.4390154413885638,1.654141544030692,1.0869878178344763,14.824448,-1.6062044,-3.14432,0.82452625,4.921408,-6.520252,2.2668052,-0.52621543,0.0019535138,0.06505742,-0.8478562,-7.6048455,11.429349,0.025648171,-1.0263011,-0.96115255,0.20798033,0
1.400000000000001,12.787161502319353,-0.24575393289386877,3.3167092143813055,1.0784528958020743,15.618519,-0.9020319,-1.5182929,1.3250316,4.8453116,-6.406032,2.2672248,-0.52497834,0.0014180263,0.07118387,-0.8481319,-7.6145697,11.414482,0.058259442,-0.9347531,-0.5533131,0.25111347,0
1.410000000000001,12.787161502319353,-0.24575393289386877,3.3167092143813055,1.0784528958020743,15.618519,-0.9020319,-1.5182929,1.3250316,4.7691154,-6.2919645,2.2679496,-0.5237296,0.0027912492,0.07555121,-0.84852266,-7.6247396,11.398885,0.08666766,-0.8274032,0.050210312,0.29171124,0
1.420000000000001,12.787161502319353,-0.24575393289386877,3.3167092143813055,1.0784528958020743,15.618519,-0.9020319,-1.5182929,1.3250316,4.6928134,-6.1780567,2.2689576,-0.52251256,0.006276289,0.07804342,-0.8490287,-7.6358495,11.382782,0.11493354,-0.7368052,0.5596176,0.33031684,0
1.430000000000001,12.787161502319353,-0.24575393289386877,3.3167092143813055,1.0784528958020743,15.618519,-0.9020319,-1.5182929,1.3250316,4.6163945,-6.064309,2.270248,-0.52130777,0.011547478,0.07895427,-0.84962964,-7.6480947,11.366818,0.14311182,-0.66034156,0.9895849,0.36702812,0
1.440000000000001,12.787161502319353,-0.24575393289386877,3.3167092143813055,1.0784528958020743,15.628014,-0.72671753,-0.43784326,1.495777,4.5398464,-5.950718,2.2718198,-0.5200904,0.01832929,0.078530036,-0.85029554,-7.661642,11.351534,0.17124087,-0.59580386,1.3525007,0.40193793,0
1.450000000000001,12.787161502319353,-0.24575393289386877,3.3167092143813055,1.0784528958020743,15.628014,-0.72671753,-0.43784326,1.495777,4.463156,-5.8372746,2.2736726,-0.51883405,0.02638835,0.07697738,-0.8509929,-7.6766357,11.337385,0.19933848,-0.5413294,1.6588204,0.4351347,0
1.460000000000001,12.787161502319353,-0.24575393289386877,3.3167092143813055,1.0784528958020743,15.628014,-0.72671753,-0.43784326,1.495777,4.3863087,-5.723965,2.2758064,-0.51751304,0.0355267,0.07446992,-0.85168767,-7.693199,11.324759,0.2274009,-0.49534705,1.9173701,0.4667025,0
1.470000000000001,12.787161502319353,-0.24575393289386877,3.3167092143813055,1.0784528958020743,15.628014,-0.72671753,-0.43784326,1.495777,4.309287,-5.610773,2.2782204,-0.51610345,0.04557619,0.07115366,-0.85234773,-7.711436,11.313977,0.25540322,-0.45653087,2.1355991,0.49672127,0
1.480000000000001,12.499599850864577,-0.30643194798263323,3.35319349762212,1.0303089832945356,16.14479,-0.5242383,-1.2121949,1.3455681,4.2320743,-5.497678,2.280914,-0.51458406,0.056393743,0.06715155,-0.85294384,-7.7314363,11.305316,0.28330112,-0.42376274,2.3197954,0.525267,0
1.490000000000001,12.499599850864577,-0.30643194798263323,3.35319349762212,1.0303089832945356,16.14479,-0.5242383,-1.2121949,1.3455681,4.1546545,-5.384657,2.2838717,-0.5129408,0.06788199,0.062580794,-0.85344416,-7.7527857,11.299144,0.3082027,-0.40555996,2.4809527,0.5500496,0
1.500000000000001,12.499599850864577,-0.30643194798263323,3.35319349762212,1.0303089832945356,16.14479,-0.5242383,-1.2121949,1.3455681,4.077012,-5.2716866,2.2870772,-0.5111618,0.079956196,0.05753978,-0.85382044,-7.7760057,11.295453,0.33286434,-0.39018974,2.6169782,0.5736161,0
1.5100000000000011,12.499599850864577,-0.30643194798263323,3.35319349762212,1.0303089832945356,16.14479,-0.5242383,-1.2121949,1.3455681,3.9991276,-5.1587396,2.2905276,-0.50923276,0.09252041,0.05209884,-0.85405344,-7.801159,11.294398,0.35719523,-0.37721038,2.7317898,0.5960261,0
1.5200000000000011,11.983219237929056,-0.469336638662394,1.6787940504955805,0.9837440108763795,15.416645,-0.39850792,-2.2931674,0.9164559,3.920982,-5.0457892,2.2942195,-0.50714225,0.105492495,0.046317503,-0.8541267,-7.8282967,11.296107,0.38109398,-0.36624935,2.8286967,0.6173365,0
1.5300000000000011,11.983219237929056,-0.469336638662394,1.6787940504955805,0.9837440108763795,15.416645,-0.39850792,-2.2931674,0.9164559,3.8425608,-4.932809,2.2981226,-0.5048523,0.11826304,0.040641934,-0.85409945,-7.8562407,11.300459,0.3994374,-0.382285,2.649359,0.63531625,0
1.5400000000000011,11.983219237929056,-0.469336638662394,1.6787940504955805,0.9837440108763795,15.416645,-0.39850792,-2.2931674,0.9164559,3.7638507,-4.819772,2.3022063,-0.5023493,0.13034748,0.035427794,-0.8540487,-7.886054,11.307383,0.4171915,-0.395826,2.49799,0.6524137,0
1.5500000000000012,11.983219237929056,-0.469336638662394,1.6787940504955805,0.9837440108763795,15.416645,-0.39850792,-2.2931674,0.9164559,3.6848335,-4.7066536,2.3064642,-0.49965635,0.1418493,0.03059974,-0.8539821,-7.917661,11.316691,0.4343017,-0.40726098,2.3702276,0.6686722,0
1.5600000000000012,11.622817930303848,-0.7828127509443785,-0.09393300763488174,0.8489066125261335,14.705003,-0.62537533,-3.8530934,0.5203441,3.6054914,-4.593431,2.3108897,-0.49679223,0.15285586,0.026094263,-0.8539035,-7.9509964,11.328226,0.45072165,-0.4169176,2.2623904,0.6841328,0
1.5700000000000012,11.622817930303848,-0.7828127509443785,-0.09393300763488174,0.8489066125261335,14.705003,-0.62537533,-3.8530934,0.5203441,3.5258129,-4.480084,2.3154588,-0.49375185,0.1628975,0.022319242,-0.85391736,-7.9849405,11.341404,0.46299663,-0.47382513,1.8948953,0.69221836,0
1.5800000000000012,11.622817930303848,-0.7828127509443785,-0.09393300763488174,0.8489066125261335,14.705003,-0.62537533,-3.8530934,0.5203441,3.4457872,-4.366597,2.3201473,-0.49054375,0.17160822,0.0195937,-0.854127,-8.020375,11.356227,0.47459292,-0.5218798,1.5847147,0.69990706,0
1.5900000000000012,11.622817930303848,-0.7828127509443785,-0.09393300763488174,0.8489066125261335,14.705003,-0.62537533,-3.8530934,0.5203441,3.3654006,-4.2529554,2.3249483,-0.4871971,0.1791954,0.017748944,-0.8545246,-8.057177,11.372337,0.48555633,-0.5624592,1.3229091,0.70721847,0
1.6000000000000012,11.170123694462726,-0.9713667529897201,-3.2582657336611422,0.7544028147768104,14.419618,-0.5972766,-4.9821086,0.1717474,3.2846394,-4.1391473,2.3298562,-0.48373362,0.18583357,0.016642993,-0.8550965,-8.095241,11.389433,0.49593526,-0.5967264,1.101935,0.7141712,0
1.6100000000000012,11.170123694462726,-0.9713667529897201,-3.2582657336611422,0.7544028147768104,14.419618,-0.5972766,-4.9821086,0.1717474,3.203499,-4.0251675,2.334844,-0.48014626,0.19062315,0.016833905,-0.8560598,-8.132924,11.40651,0.5015917,-0.6548358,0.42193636,0.7161454,0
1.6200000000000012,11.170123694462726,-0.9713667529897201,-3.2582657336611422,0.7544028147768104,14.419618,-0.5972766,-4.9821086,0.1717474,3.1219776,-3.911016,2.3398871,-0.47643244,0.19285797,0.018753516,-0.85759294,-8.171462,11.423672,0.5069198,-0.70393074,-0.15201287,0.7180227,0
1.6300000000000012,11.170123694462726,-0.9713667529897201,-3.2582657336611422,0.7544028147768104,14.419618,-0.5972766,-4.9821086,0.1717474,3.0400677,-3.7966955,2.3449821,-0.47260478,0.19293137,0.02212266,-0.85961163,-8.21059,11.440338,0.5121072,-0.74541,-0.6364517,0.71980786,0
1.6400000000000012,11.170123694462726,-0.9713667529897201,-3.2582657336611422,0.7544028147768104,14.41833,-0.7529956,-6.01549,0.4426198,2.9577646,-3.6822126,2.3501294,-0.4686658,0.19117253,0.026706696,-0.8620275,-8.250077,11.456022,0.5173119,-0.7804552,-1.0453393,0.7215054,0
1.6500000000000012,11.170123694462726,-0.9713667529897201,-3.2582657336611422,0.7544028147768104,14.41833,-0.7529956,-6.01549,0.4426198,2.8750658,-3.5675795,2.3553288,-0.4646126,0.18785764,0.03230831,-0.8647544,-8.289716,11.470315,0.5226596,-0.8100643,-1.3904588,0.72311974,0
1.6600000000000013,11.170123694462726,-0.9713667529897201,-3.2582657336611422,0.7544028147768104,14.41833,-0.7529956,-6.01549,0.4426198,2.7919705,-3.4528122,2.3605833,-0.46043968,0.18321903,0.038761448,-0.86771137,-8.329322,11.482872,0.52824473,-0.83508074,-1.6817551,0.72465485,0
1.6700000000000013,11.170123694462726,-0.9713667529897201,-3.2582657336611422,0.7544028147768104,14.41833,-0.7529956,-6.01549,0.4426198,2.70848,-3.3379292,2.365895,-0.45614082,0.17745268,0.045926232,-0.870825,-8.368725,11.493404,0.53413165,-0.8562167,-1.9276218,0.72611463,0
1.6800000000000013,11.004522544044981,-1.1606044983683361,-3.4659550316107586,0.5554797028669579,14.020165,-0.25252208,-5.9810095,0.0022854977,2.624597,-3.2229521,2.3712673,-0.45171005,0.17072426,0.053684697,-0.87403,-8.40777,11.501668,0.54035753,-0.87407434,-2.1351445,0.7275027,0
1.6900000000000013,11.004522544044981,-1.1606044983683361,-3.4659550316107586,0.5554797028669579,14.020165,-0.25252208,-5.9810095,0.0022854977,2.540329,-3.1079051,2.3766956,-0.447146,0.16313401,0.062045027,-0.877267,-8.445743,11.507366,0.54538363,-0.918673,-2.3426995,0.71906143,0
1.7000000000000013,11.004522544044981,-1.1606044983683361,-3.4659550316107586,0.5554797028669579,14.020165,-0.25252208,-5.9810095,0.0022854977,2.4556842,-2.9928138,2.3821762,-0.44244906,0.15476769,0.071008414,-0.88047874,-8.483094,11.510418,0.55074793,-0.9563332,-2.5178833,0.7110344,0
1.7100000000000013,11.004522544044981,-1.1606044983683361,-3.4659550316107586,0.5554797028669579,14.020165,-0.25252208,-5.9810095,0.0022854977,2.3706694,-2.8777063,2.3877118,-0.43761697,0.1457359,0.08047322,-0.88361514,-8.519705,11.510644,0.55642116,-0.98813397,-2.6657445,0.7034013,0
1.7200000000000013,10.787706087457291,-1.1067499711559992,-5.4883981407620075,0.4836647524465415,13.882856,-0.8824154,-6.0102434,0.5778706,2.2852929,-2.7626112,2.3933055,-0.43264812,0.13613309,0.09035316,-0.8866335,-8.55546,11.507894,0.56235576,-1.0149868,-2.7905443,0.69614273,0
1.7300000000000013,10.787706087457291,-1.1067499711559992,-5.4883981407620075,0.4836647524465415,13.882856,-0.8824154,-6.0102434,0.5778706,2.1995668,-2.6475585,2.3989494,-0.42747313,0.12531036,0.100904666,-0.8895963,-8.5895405,11.502131,0.56644124,-1.0291282,-3.2112725,0.68571633,0
1.7400000000000013,10.787706087457291,-1.1067499711559992,-5.4883981407620075,0.4836647524465415,13.882856,-0.8824154,-6.0102434,0.5778706,2.1135058,-2.53258,2.4046347,-0.42201403,0.11275202,0.11231802,-0.8925106,-8.62239,11.493011,0.5706846,-1.0410975,-3.5663874,0.67580163,0
1.7500000000000013,10.787706087457291,-1.1067499711559992,-5.4883981407620075,0.4836647524465415,13.882856,-0.8824154,-6.0102434,0.5778706,2.0271242,-2.4177105,2.4103632,-0.4162586,0.09871382,0.12443545,-0.89526504,-8.653713,11.48024,0.5750143,-1.0512279,-3.866122,0.66637343,0
1.7600000000000013,10.368579034227562,-1.0594937747915616,-4.258481443718311,0.34838192708376237,13.663924,-0.3337803,-5.993345,0.14047979,1.940438,-2.3029885,2.4161348,-0.41019717,0.08341465,0.1371219,-0.89776236,-8.683243,11.46358,0.57931715,-1.0598009,-4.119113,0.6574078,0
1.7700000000000014,10.368579034227562,-1.0594937747915616,-4.258481443718311,0.34838192708376237,13.663924,-0.3337803,-5.993345,0.14047979,1.8534719,-2.1884491,2.421929,-0.40391177,0.06747544,0.15004604,-0.8998822,-8.709681,11.443677,0.5794726,-1.0597847,-4.1408367,0.64224386,0
1.7800000000000014,10.368579034227562,-1.0594937747915616,-4.258481443718311,0.34838192708376237,13.663924,-0.3337803,-5.993345,0.14047979,1.7662514,-2.0741284,2.4277232,-0.39748934,0.0514037,0.16294542,-0.9015587,-8.734052,11.419871,0.57929343,-1.0597706,-4.1591735,0.627824,0
1.7900000000000014,10.368579034227562,-1.0594937747915616,-4.258481443718311,0.34838192708376237,13.663924,-0.3337803,-5.993345,0.14047979,1.6787981,-1.9600649,2.4335132,-0.3909296,0.035220284,0.17580527,-0.90278757,-8.756275,11.392203,0.578609,-1.0597583,-4.174651,0.6141117,0
1.8000000000000014,10.545456070315645,-0.7503688677982182,-5.9998983052644,0.3173430075588871,12.490699,0.012483741,-4.80203,0.39264312,1.5911335,-1.8462973,2.4392931,-0.38423282,0.018944174,0.18861209,-0.90356576,-8.776277,11.360726,0.5772473,-1.0597473,-4.187715,0.60107225,0
1.8100000000000014,10.545456070315645,-0.7503688677982182,-5.9998983052644,0.3173430075588871,12.490699,0.012483741,-4.80203,0.39264312,1.503279,-1.732866,2.4450636,-0.37726662,0.0019148346,0.20150582,-0.9039143,-8.794259,11.32488,0.57666945,-1.0114297,-4.470296,0.58714956,0
1.8200000000000014,10.545456070315645,-0.7503688677982182,-5.9998983052644,0.3173430075588871,12.490699,0.012483741,-4.80203,0.39264312,1.4152573,-1.6198128,2.4508228,-0.36989975,-0.016387723,0.21458189,-0.9038029,-8.809635,11.28515,0.575026,-0.9706666,-4.708812,0.57391006,0
1.8300000000000014,10.545456070315645,-0.7503688677982182,-5.9998983052644,0.3173430075588871,12.490699,0.012483741,-4.80203,0.39264312,1.3270961,-1.5071766,2.4565594,-0.36213666,-0.03575526,0.22776774,-0.903161,-8.822134,11.24149,0.57209074,-0.93627626,-4.9101353,0.5613203,0
1.8400000000000014,10.545456070315645,-0.7503688677982182,-5.9998983052644,0.3173430075588871,12.081404,0.26050246,-5.5794272,0.49827906,1.2388253,-1.3949966,2.4622593,-0.3539841,-0.056007646,0.24100004,-0.90192944,-8.831517,11.193904,0.5676172,-0.90726155,-5.0800653,0.54934824,0
1.8500000000000014,10.545456070315645,-0.7503688677982182,-5.9998983052644,0.3173430075588871,12.081404,0.26050246,-5.5794272,0.49827906,1.150477,-1.2833121,2.4679055,-0.34545058,-0.07698849,0.25422335,-0.90005916,-8.837583,11.14243,0.56134313,-0.8827817,-5.223498,0.5379637,0
1.8600000000000014,10.545456070315645,-0.7503688677982182,-5.9998983052644,0.3173430075588871,12.081404,0.26050246,-5.5794272,0.49827906,1.0620856,-1.1721612,2.473479,-0.33654624,-0.09856149,0.26738894,-0.8975103,-8.840157,11.08715,0.55299586,-0.8621272,-5.344564,0.52713776,0
1.8700000000000014,10.545456070315645,-0.7503688677982182,-5.9998983052644,0.3173430075588871,12.081404,0.26050246,-5.5794272,0.49827906,0.9736865,-1.0615817,2.4789574,-0.3272826,-0.12060742,0.2804539,-0.894251,-8.839097,11.028174,0.542296,-0.84469986,-5.446751,0.5168431,0
1.8800000000000014,9.863142852877742,-0.48772170737137865,-4.842924568338509,0.29840769089656144,11.024695,0.528315,-5.8060045,0.41251335,0.8853166,-0.9516099,2.4843156,-0.317672,-0.14302152,0.29338026,-0.89025646,-8.834287,10.965647,0.5289616,-0.8299953,-5.533004,0.50705355,0
1.8900000000000015,9.863142852877742,-0.48772170737137865,-4.842924568338509,0.29840769089656144,11.024695,0.528315,-5.8060045,0.41251335,0.7970113,-0.8422592,2.4894998,-0.30785438,-0.16533506,0.3058977,-0.88561606,-8.82621,10.904016,0.5074271,-0.77668965,-5.4253635,0.49681526,0
1.9000000000000015,9.863142852877742,-0.48772170737137865,-4.842924568338509,0.29840769089656144,11.024695,0.528315,-5.8060045,0.41251335,0.70880467,-0.7335395,2.4944541,-0.29795855,-0.18717575,0.3178055,-0.8804458,-8.814578,10.839495,0.4829998,-0.73168856,-5.334513,0.48707935,0
1.9100000000000015,9.863142852877742,-0.48772170737137865,-4.842924568338509,0.29840769089656144,11.024695,0.528315,-5.8060045,0.41251335,0.62073183,-0.6254783,2.499149,-0.28798068,-0.20858853,0.32916522,-0.8747613,-8.799445,10.772358,0.45553643,-0.69369805,-5.2578335,0.4778212,0
1.9200000000000015,10.558215116312697,-0.007033422357476352,-5.296477915215026,0.1866273084320507,11.314168,0.35825974,-5.5396423,0.32815617,0.5328276,-0.51810044,2.5035539,-0.27791768,-0.22961013,0.34002763,-0.8685743,-8.780869,10.702866,0.4249024,-0.66162604,-5.1931148,0.4690173,1
1.9300000000000015,10.558215116312697,-0.007033422357476352,-5.296477915215026,0.1866273084320507,11.314168,0.35825974,-5.5396423,0.32815617,0.44514188,-0.41148067,2.5076835,-0.26758716,-0.2506024,0.35021687,-0.8619413,-8.755659,10.620741,0.40041065,-0.50258255,-5.2471046,0.4621052,1
1.9400000000000015,10.558215116312697,-0.007033422357476352,-5.296477915215026,0.1866273084320507,11.314168,0.35825974,-5.5396423,0.32815617,0.35772803,-0.3056928,2.5115485,-0.25682867,-0.2718411,0.3595884,-0.85488987,-8.726486,10.53653,0.37199244,-0.36834365,-5.2926836,0.4555323,1
1.9500000000000015,10.558215116312697,-0.007033422357476352,-5.296477915215026,0.1866273084320507,11.314168,0.35825974,-5.5396423,0.32815617,0.27062607,-0.20075607,2.5151093,-0.24567275,-0.29323664,0.36822233,-0.8473892,-8.6932745,10.450563,0.33950478,-0.25504062,-5.331162,0.44928193,1
1.9600000000000015,9.82856611383345,0.46139220916432416,-2.7716596469520387,0.10343476803016904,11.207467,0.84344846,-4.772367,0.3884793,0.18387659,-0.09668641,2.5183241,-0.23414886,-0.3147113,0.37618512,-0.83941346,-8.655984,10.363173,0.3028074,-0.15940812,-5.363646,0.44333825,0
1.9700000000000015,9.82856611383345,0.46139220916432416,-2.7716596469520387,0.10343476803016904,11.207467,0.84344846,-4.772367,0.3884793,0.09749363,0.0065616127,2.5211127,-0.22271928,-0.33529684,0.38324103,-0.8313227,-8.620072,10.286309,0.25430837,-0.06276552,-4.9593987,0.42665908,0
1.9800000000000015,9.82856611383345,0.46139220916432416,-2.7716596469520387,0.10343476803016904,11.207467,0.84344846,-4.772367,0.3884793,0.011486473,0.1090376,2.523398,-0.21178204,-0.35425845,0.38924712,-0.82348955,-8.580867,10.208813,0.20220271,0.0188339,-4.618199,0.41079837,0
1.9900000000000015,9.82856611383345,0.46139220916432416,-2.7716596469520387,0.10343476803016904,11.207467,0.84344846,-4.772367,0.3884793,-0.074113265,0.21073663,2.5251448,-0.201272,-0.37184635,0.394374,-0.81589705,-8.538624,10.13096,0.14668468,0.087730944,-4.330215,0.39571595,0
2.0000000000000013,,,,,10.910813,0.939543,-0.77031714,0.05031906,-0.15927634,0.31165636,2.5263207,-0.19113092,-0.38827,0.398761,-0.80851966,-8.4935665,10.052983,0.08792894,0.14590228,-4.087146,0.3813736,0
2.010000000000001,,,,,10.910813,0.939543,-0.77031714,0.05031906,-0.24396358,0.4117766,2.526903,-0.18191528,-0.40243715,0.40208158,-0.8020477,-8.443487,9.971089,0.028007535,0.2596546,-3.2463286,0.35947177,0
2.020000000000001,,,,,10.910813,0.939543,-0.77031714,0.05031906,-0.3281383,0.511079,2.526872,-0.17407955,-0.41353005,0.40412477,-0.7971018,-8.391129,9.889443,-0.034525968,0.35572222,-2.5366433,0.33864465,0
2.0300000000000007,,,,,10.910813,0.939543,-0.77031714,0.05031906,-0.41177985,0.6095667,2.5262053,-0.16743132,-0.42206818,0.40513563,-0.79352957,-8.336925,9.808158,-0.09905079,0.43685165,-1.9376385,0.31883955,0
2.0400000000000005,,,,,10.910813,0.939543,-0.77031714,0.05031906,-0.49487165,0.70724356,2.524886,-0.16180104,-0.42847762,0.4053057,-0.7911722,-8.281225,9.727295,-0.16502981,0.5053634,-1.4320526,0.30000627,0
2.0500000000000003,,,,,10.572725,1.640265,3.9492538,0.19088255,-0.5774002,0.8041141,2.5229013,-0.15704097,-0.43310884,0.40478536,-0.78987503,-8.224316,9.646887,-0.23200196,0.5632184,-1.0053158,0.28209713,1
2.06,,,,,10.572725,1.640265,3.9492538,0.19088255,-0.6593479,0.90017354,2.5202475,-0.15329431,-0.43545046,0.40330213,-0.79008234,-8.165096,9.565081,-0.2988121,0.7310405,-0.23262484,0.2776212,1
2.07,,,,,10.572725,1.640265,3.9492538,0.19088255,-0.74069995,0.9954174,2.5169253,-0.15065931,-0.4351026,0.40064627,-0.7921294,-8.10523,9.483782,-0.36553007,0.87271667,0.41956007,0.2733649,1
2.0799999999999996,,,,,10.572725,1.640265,3.9492538,0.19088255,-0.8214514,1.089851,2.5129395,-0.1489552,-0.43247327,0.39700207,-0.7957182,-8.045038,9.403016,-0.43150643,0.9923197,0.9700325,0.2693175,1
2.0899999999999994,,,,,10.157092,1.9081814,5.5339737,0.51917505,-0.90160054,1.1834797,2.5082998,-0.14802667,-0.42789716,0.39251408,-0.8005771,-7.984798,9.322809,-0.49619693,1.0932885,1.4346554,0.26546866,1
2.099999999999999,,,,,10.157092,1.9081814,5.5339737,0.51917505,-0.9811599,1.2763249,2.5030148,-0.14791022,-0.42114,0.38713297,-0.80677795,-7.927134,9.246328,-0.5605056,1.2202435,2.0739737,0.27791807,1
2.109999999999999,,,,,10.157092,1.9081814,5.5339737,0.51917505,-1.060145,1.3684083,2.4970975,-0.14861575,-0.41201156,0.38081428,-0.81433356,-7.8699937,9.170471,-0.6225959,1.3274095,2.6135883,0.28975663,1
2.1199999999999988,,,,,10.157092,1.9081814,5.5339737,0.51917505,-1.1385628,1.4597367,2.4905722,-0.14998437,-0.4008243,0.37366652,-0.82293177,-7.8136992,9.095311,-0.6819936,1.4178723,3.0690484,0.30101424,1
2.1299999999999986,,,,,10.117464,2.003159,5.525814,0.38129705,-1.216423,1.5503174,2.483468,-0.15188092,-0.38784015,0.36577678,-0.8322971,-7.758555,9.020947,-0.73832095,1.4942366,3.4534774,0.31171942,1
2.1399999999999983,,,,,10.117464,2.003159,5.525814,0.38129705,-1.2937398,1.6401603,2.4758165,-0.15418915,-0.37329572,0.35717854,-0.8421986,-7.7050586,8.947791,-0.79146135,1.573529,3.776677,0.3151336,1
2.149999999999998,,,,,10.117464,2.003159,5.525814,0.38129705,-1.37053,1.7292769,2.4676511,-0.15681352,-0.35739318,0.34790018,-0.85243416,-7.6532655,8.875699,-0.8410321,1.6404651,4.0494714,0.3183803,1
2.159999999999998,,,,,10.117464,2.003159,5.525814,0.38129705,-1.4468119,1.8176786,2.4590087,-0.15967587,-0.34029305,0.3380018,-0.86281973,-7.603432,8.804839,-0.8868808,1.6969706,4.2797217,0.32146764,1
2.1699999999999977,,,,,10.031407,2.226568,5.512697,0.48396018,-1.5226063,1.9053785,2.4499266,-0.16270994,-0.322135,0.3275356,-0.87319744,-7.5558066,8.735391,-0.92891645,1.7446715,4.4740624,0.3244035,1
2.1799999999999975,,,,,10.031407,2.226568,5.512697,0.48396018,-1.5979384,1.9923947,2.4404411,-0.16581841,-0.30305636,0.31647405,-0.8834614,-7.511007,8.668122,-0.9676113,1.8197653,4.636062,0.33223298,1
2.1899999999999973,,,,,10.031407,2.226568,5.512697,0.48396018,-1.6728355,2.078747,2.4305875,-0.16892113,-0.28317633,0.30479866,-0.8935175,-7.468837,8.602655,-1.002491,1.8831534,4.7727957,0.3396783,1
2.199999999999997,,,,,10.031407,2.226568,5.512697,0.48396018,-1.7473248,2.1644545,2.4204044,-0.17198896,-0.2625858,0.29256567,-0.9032567,-7.4294925,8.539211,-1.0336013,1.9366606,4.888204,0.34675825,1
