time-since-start [s],throttle_mpc,roll_mpc,pitch_mpc,yaw_mpc,throttle_nw,roll_nw,pitch_nw,yaw_nw,position_x [m],position_y [m],position_z [m],rotation_w [quaternion],rotation_x [quaternion],rotation_y [quaternion],rotation_z [quaternion],velocity_x [m/s],velocity_y [m/s],velocity_z [m/s],omega_x [rad/s],omega_y [rad/s],omega_z [rad/s],network_used
0.0,6.068986465659686,-2.2214358307877338,-5.999999701118602,1.4741796908831575,8.4446745,0.4110426,0.94712704,0.7934003,12.912894,-11.834263,1.0952393,-0.28953838,0.46283114,-0.235157,-0.80414927,-3.2239192,3.3651,0.09970869,0.13888502,0.9221162,0.8751289,0
0.01,6.068986465659686,-2.2214358307877338,-5.999999701118602,1.4741796908831575,8.014496,-0.054886192,-0.18475509,-0.40076566,12.880389,-11.80033,1.0959464,-0.28562206,0.46371028,-0.23829708,-0.804119,-3.2767549,3.4212508,0.04140948,0.042526856,0.11383341,0.8802469,0
0.02,6.068986465659686,-2.2214358307877338,-5.999999701118602,1.4741796908831575,8.014496,-0.054886192,-0.18475509,-0.40076566,12.847365,-11.765845,1.0960617,-0.28233284,0.46166155,-0.2399312,-0.8059714,-3.3276312,3.4753509,-0.018565461,-0.073091246,-0.60265046,0.88817626,0
0.03,6.068986465659686,-2.2214358307877338,-5.999999701118602,1.4741796908831575,8.014496,-0.054886192,-0.18475509,-0.40076566,12.813843,-11.73083,1.0955718,-0.27952442,0.4570378,-0.24012916,-0.8095187,-3.3764966,3.5273297,-0.079578176,-0.20270832,-1.2394011,0.8985781,0
0.04,6.068986465659686,-2.2214358307877338,-5.999999701118602,1.4741796908831575,7.7082067,-0.102095515,-0.57390046,0.1534716,12.779841,-11.695307,1.0944685,-0.27706623,0.45012686,-0.23895244,-0.8145685,-3.4233303,3.5771356,-0.14111416,-0.34207508,-1.8067923,0.91114676,0
0.05,6.068986465659686,-2.2214358307877338,-5.999999701118602,1.4741796908831575,7.7082067,-0.102095515,-0.57390046,0.1534716,12.745382,-11.659295,1.092749,-0.2748432,0.44116467,-0.23645581,-0.8209286,-3.4681277,3.624727,-0.20276347,-0.48777926,-2.3137531,0.92560726,0
0.060000000000000005,6.068986465659686,-2.2214358307877338,-5.999999701118602,1.4741796908831575,7.7082067,-0.102095515,-0.57390046,0.1534716,12.710485,-11.62282,1.0904139,-0.27275464,0.43034586,-0.23268859,-0.82841027,-3.5108917,3.6700673,-0.26420468,-0.6370994,-2.7679782,0.9417121,0
0.07,6.068986465659686,-2.2214358307877338,-5.999999701118602,1.4741796908831575,7.7082067,-0.102095515,-0.57390046,0.1534716,12.675172,-11.585902,1.0874666,-0.27071318,0.41783217,-0.22769581,-0.8368306,-3.5516262,3.713122,-0.32519153,-0.78788364,-3.1761065,0.95923877,0
0.08,9.423342393431033,-2.9387204535348603,-5.9999997725904395,2.1439361239688064,8.026673,-0.49177995,-1.0268743,0.455771,12.6394615,-11.548567,1.0839124,-0.26864332,0.40375924,-0.22151919,-0.84601337,-3.5903325,3.753857,-0.38554168,-0.93844676,-3.5438712,0.9779875,0
0.09,9.423342393431033,-2.9387204535348603,-5.9999997725904395,2.1439361239688064,8.026673,-0.49177995,-1.0268743,0.455771,12.603271,-11.510728,1.0798647,-0.26631558,0.38834864,-0.21407376,-0.85582346,-3.6473908,3.8135552,-0.42373058,-1.1691937,-3.8462107,1.0279489,0
0.09999999999999999,9.423342393431033,-2.9387204535348603,-5.9999997725904395,2.1439361239688064,8.026673,-0.49177995,-1.0268743,0.455771,12.566523,-11.472309,1.0754433,-0.26353288,0.37176916,-0.2052765,-0.8661407,-3.7016144,3.869783,-0.46029872,-1.3908756,-4.1283345,1.0778661,0
0.10999999999999999,9.423342393431033,-2.9387204535348603,-5.9999997725904395,2.1439361239688064,8.026673,-0.49177995,-1.0268743,0.455771,12.529246,-11.433345,1.0706646,-0.26027775,0.35405615,-0.19516823,-0.87681764,-3.7529857,3.922385,-0.4951932,-1.6037962,-4.392284,1.1276424,0
0.11999999999999998,9.423342393431033,-2.9387204535348603,-5.9999997725904395,2.1439361239688064,8.026673,-0.49177995,-1.0268743,0.455771,12.491472,-11.393874,1.0655454,-0.25653458,0.33524176,-0.18378867,-0.8877076,-3.8015347,3.971283,-0.52831995,-1.8068519,-4.638418,1.177069,0
0.12999999999999998,13.255325539909014,-1.7237352919698659,-5.831932265428709,0.557520601408218,9.41998,0.050814897,-0.034896374,0.35966045,12.453223,-11.35393,1.0601087,-0.2523002,0.31538638,-0.17122851,-0.8986417,-3.8480287,4.0171523,-0.55850464,-1.9830536,-4.8509526,1.2245134,0
0.13999999999999999,13.255325539909014,-1.7237352919698659,-5.831932265428709,0.557520601408218,9.41998,0.050814897,-0.034896374,0.35966045,12.414428,-11.313455,1.0545301,-0.24790397,0.29456365,-0.1580382,-0.9092854,-3.9105954,4.077389,-0.55648744,-1.9425977,-5.003862,1.1917839,0
0.15,13.255325539909014,-1.7237352919698659,-5.831932265428709,0.557520601408218,9.41998,0.050814897,-0.034896374,0.35966045,12.375022,-11.272399,1.0489941,-0.2436319,0.27285832,-0.14467618,-0.91938066,-3.9699483,4.133141,-0.55001557,-1.9084702,-5.1329336,1.1606605,0
0.16,15.026409992562344,-0.5235739506902481,-4.179188170647638,-0.6153435541946582,9.839715,-0.18724212,0.4333152,-0.23117003,12.335041,-11.230808,1.0435442,-0.2394376,0.2503775,-0.13115902,-0.9288586,-4.0256996,4.184275,-0.53928906,-1.8796794,-5.2418838,1.1310642,0
0.17,15.026409992562344,-0.5235739506902481,-4.179188170647638,-0.6153435541946582,9.839715,-0.18724212,0.4333152,-0.23117003,12.294487,-11.188698,1.0382969,-0.23545453,0.2277412,-0.11807372,-0.9374187,-4.0844264,4.2369146,-0.50950515,-1.6686016,-5.075907,1.0453675,0
0.18000000000000002,15.026409992562344,-0.5235739506902481,-4.179188170647638,-0.6153435541946582,9.839715,-0.18724212,0.4333152,-0.23117003,12.253368,-11.146088,1.0333681,-0.23181967,0.20547162,-0.10589513,-0.9448954,-4.138431,4.2844024,-0.4756853,-1.490393,-4.935863,0.963876,0
0.19000000000000003,15.026409992562344,-0.5235739506902481,-4.179188170647638,-0.6153435541946582,9.839715,-0.18724212,0.4333152,-0.23117003,12.211735,-11.103026,1.0287955,-0.22850108,0.18352075,-0.09448554,-0.9514094,-4.187542,4.326984,-0.43832445,-1.3399361,-4.8176975,0.8863833,0
0.20000000000000004,15.239924217068406,-0.02962304100539675,-2.816203894330008,-1.094844472119695,11.52467,0.41046336,1.2499781,-0.5724534,12.169636,-11.059565,1.0246122,-0.22547033,0.1618457,-0.08372804,-0.95705736,-4.23162,4.364874,-0.3978733,-1.2129095,-4.717991,0.8126931,0
0.21000000000000005,15.239924217068406,-0.02962304100539675,-2.816203894330008,-1.094844472119695,11.52467,0.41046336,1.2499781,-0.5724534,12.127118,-11.015742,1.0208572,-0.22274783,0.14089377,-0.07382685,-0.96181184,-4.27113,4.398762,-0.35275334,-1.0288044,-4.4212475,0.7190897,0
0.22000000000000006,15.239924217068406,-0.02962304100539675,-2.816203894330008,-1.094844472119695,11.52467,0.41046336,1.2499781,-0.5724534,12.084231,-10.971603,1.0175648,-0.22036496,0.121024445,-0.06494064,-0.96569926,-4.305525,4.4284563,-0.30539832,-0.87334293,-4.170818,0.63007945,0
0.23000000000000007,15.239924217068406,-0.02962304100539675,-2.816203894330008,-1.094844472119695,11.52467,0.41046336,1.2499781,-0.5724534,12.041025,-10.927187,1.0147554,-0.21831053,0.10208134,-0.056915987,-0.9688552,-4.3349376,4.4543104,-0.25622705,-0.74207103,-3.9594712,0.5454369,0
0.24000000000000007,15.239924217068406,-0.02962304100539675,-2.816203894330008,-1.094844472119695,12.032696,0.21666762,1.8919277,-0.66874874,11.99755,-10.88253,1.0124452,-0.21657196,0.083929144,-0.049622804,-0.9713856,-4.3594923,4.476628,-0.20559348,-0.63122743,-3.7811065,0.46494782,0
0.25000000000000006,15.239924217068406,-0.02962304100539675,-2.816203894330008,-1.094844472119695,12.032696,0.21666762,1.8919277,-0.66874874,11.953853,-10.8376665,1.0106474,-0.21513589,0.06645135,-0.042951033,-0.97337353,-4.3793044,4.4956684,-0.15380068,-0.53763473,-3.630575,0.38840836,0
0.26000000000000006,15.239924217068406,-0.02962304100539675,-2.816203894330008,-1.094844472119695,12.032696,0.21666762,1.8919277,-0.66874874,11.909981,-10.792627,1.0093722,-0.21398863,0.049548093,-0.036807764,-0.97488415,-4.3944798,4.511655,-0.10111177,-0.45860907,-3.5035322,0.3156247,0
0.2700000000000001,15.239924217068406,-0.02962304100539675,-2.816203894330008,-1.094844472119695,12.032696,0.21666762,1.8919277,-0.66874874,11.865978,-10.747443,1.0086275,-0.21311651,0.033134054,-0.031114692,-0.9759689,-4.4051127,4.5247765,-0.047758523,-0.39188448,-3.396312,0.24641258,0
0.2800000000000001,16.059331832455406,0.4772389446214906,-0.36730107142360285,-1.318654710469407,12.746352,-0.76500416,2.2981744,-0.52641183,11.821894,-10.702142,1.0084188,-0.21250597,0.0171366,-0.025805898,-0.9766686,-4.41129,4.5351934,0.0060519017,-0.33554664,-3.3058207,0.18059672,0
0.2900000000000001,16.059331832455406,0.4772389446214906,-0.36730107142360285,-1.318654710469407,12.746352,-0.76500416,2.2981744,-0.52641183,11.777768,-10.656746,1.0087905,-0.21215177,0.0024091108,-0.021231992,-0.97700304,-4.4132447,4.5435057,0.068311825,-0.20898487,-2.847535,0.10702804,0
0.3000000000000001,16.059331832455406,0.4772389446214906,-0.36730107142360285,-1.318654710469407,12.746352,-0.76500416,2.2981744,-0.52641183,11.733643,-10.611279,1.0097854,-0.21206093,-0.010375487,-0.017668843,-0.9770416,-4.4111023,4.5495543,0.13067225,-0.10210906,-2.4607315,0.037069388,0
0.3100000000000001,16.059331832455406,0.4772389446214906,-0.36730107142360285,-1.318654710469407,12.746352,-0.76500416,2.2981744,-0.52641183,11.689557,-10.565761,1.0114039,-0.21223438,-0.021518508,-0.01496416,-0.97686726,-4.405368,4.553762,0.19300455,-0.011861235,-2.1342592,-0.029456383,0
0.3200000000000001,16.5867626627046,0.8482111337562475,2.009860253021762,-1.3951935451281632,12.39408,-0.97658074,3.3174648,-0.5158999,11.645545,-10.520209,1.0136452,-0.21266893,-0.031275425,-0.012988972,-0.97653735,-4.396471,4.5564837,0.25522554,0.06434171,-1.858707,-0.09271771,0
0.3300000000000001,16.5867626627046,0.8482111337562475,2.009860253021762,-1.3951935451281632,12.39408,-0.97658074,3.3174648,-0.5158999,11.601639,-10.474637,1.0165341,-0.21335207,-0.03896525,-0.011982031,-0.9761246,-4.3844523,4.558109,0.3225474,0.18656832,-1.2554209,-0.15663058,0
0.34000000000000014,16.5867626627046,0.8482111337562475,2.009860253021762,-1.3951935451281632,12.39408,-0.97658074,3.3174648,-0.5158999,11.557864,-10.429051,1.0200956,-0.21427508,-0.044060905,-0.012127569,-0.97570384,-4.370311,4.559068,0.38970754,0.28977236,-0.74622387,-0.21740726,0
0.35000000000000014,16.5867626627046,0.8482111337562475,2.009860253021762,-1.3951935451281632,12.39408,-0.97658074,3.3174648,-0.5158999,11.514237,-10.383456,1.024328,-0.21543397,-0.046968553,-0.013250984,-0.97529835,-4.354759,4.55988,0.4567422,0.37690842,-0.31644046,-0.27520156,0
0.36000000000000015,17.416968937650168,1.0915553987861861,3.960646577197107,-1.3693694425661653,12.676523,-0.5536665,4.7847643,-0.33433712,11.470772,-10.3378525,1.0292301,-0.21682085,-0.048030294,-0.015204292,-0.97491074,-4.3383956,4.5609813,0.5236969,0.45047373,0.046315603,-0.3301599,0
0.37000000000000016,17.416968937650168,1.0915553987861861,3.960646577197107,-1.3693694425661653,12.676523,-0.5536665,4.7847643,-0.33433712,11.427475,-10.292233,1.034843,-0.21840513,-0.04679436,-0.018126553,-0.9745672,-4.3209405,4.5628653,0.59887916,0.55060196,0.6567137,-0.38115418,0
0.38000000000000017,17.416968937650168,1.0915553987861861,3.960646577197107,-1.3693694425661653,12.676523,-0.5536665,4.7847643,-0.33433712,11.384352,-10.246591,1.0412079,-0.22015435,-0.04291709,-0.022121986,-0.9742695,-4.303994,4.566027,0.6740928,0.6351272,1.1719191,-0.42964622,0
0.3900000000000002,17.416968937650168,1.0915553987861861,3.960646577197107,-1.3693694425661653,12.676523,-0.5536665,4.7847643,-0.33433712,11.341392,-10.200907,1.0483252,-0.22205405,-0.03680919,-0.027026864,-0.9739646,-4.2883153,4.570998,0.74938256,0.7064761,1.6067785,-0.4757587,0
0.4000000000000002,17.649083166166644,1.096122972904899,4.789480693249383,-1.2692647268585067,13.353087,-0.2434245,4.8616247,-0.02896724,11.298579,-10.155162,1.0561957,-0.22408837,-0.028816875,-0.032701448,-0.9735939,-4.274541,4.5782356,0.82475334,0.76669854,1.9738226,-0.5196085,0
0.4100000000000002,17.649083166166644,1.096122972904899,4.789480693249383,-1.2692647268585067,13.353087,-0.2434245,4.8616247,-0.02896724,11.255894,-10.109331,1.064832,-0.22621705,-0.018910427,-0.03910221,-0.9731083,-4.2630777,4.5882716,0.9024817,0.8182778,2.4128857,-0.55639434,0
0.4200000000000002,17.649083166166644,1.096122972904899,4.789480693249383,-1.2692647268585067,13.353087,-0.2434245,4.8616247,-0.02896724,11.213307,-10.063385,1.0742453,-0.22839859,-0.007082225,-0.046187256,-0.97244596,-4.2547164,4.601424,0.980178,0.8618049,2.7834792,-0.5913751,0
0.4300000000000002,17.649083166166644,1.096122972904899,4.789480693249383,-1.2692647268585067,13.353087,-0.2434245,4.8616247,-0.02896724,11.170787,-10.01729,1.084435,-0.23061565,0.0063672625,-0.053847153,-0.97153324,-4.25001,4.618071,1.0577126,0.89853394,3.0962806,-0.6246394,0
0.4400000000000002,17.649083166166644,1.096122972904899,4.789480693249383,-1.2692647268585067,13.58904,0.014813811,4.532899,0.1419707,11.128294,-9.971011,1.0953985,-0.232852,0.021182556,-0.06198729,-0.9703037,-4.249417,4.63853,1.1349049,0.9295242,3.3603027,-0.65627134,0
0.45000000000000023,17.649083166166644,1.096122972904899,4.789480693249383,-1.2692647268585067,13.58904,0.014813811,4.532899,0.1419707,11.085784,-9.924506,1.1071312,-0.23509274,0.03714583,-0.07052561,-0.9686992,-4.253312,4.6630692,1.211529,0.9556704,3.5831523,-0.68635106,0
0.46000000000000024,17.649083166166644,1.096122972904899,4.789480693249383,-1.2692647268585067,13.58904,0.014813811,4.532899,0.1419707,11.043211,-9.877734,1.1196262,-0.23732442,0.054070845,-0.07939079,-0.9666701,-4.261999,4.6919107,1.2873204,0.9777281,3.7712505,-0.71495485,0
0.47000000000000025,17.649083166166644,1.096122972904899,4.789480693249383,-1.2692647268585067,13.58904,0.014813811,4.532899,0.1419707,11.000526,-9.830652,1.1328737,-0.23953484,0.071797945,-0.088520594,-0.9641746,-4.275717,4.725236,1.3619816,0.9963351,3.9300165,-0.74215496,0
0.48000000000000026,15.940386866432352,0.8696552276968684,4.480021742442957,-1.1301908752487648,14.099697,-0.09774014,2.9523242,-0.34421554,10.957679,-9.783214,1.1468607,-0.24171314,0.090189874,-0.09786066,-0.9611786,-4.294645,4.763188,1.4351892,1.01203,4.0640244,-0.7680204,0
0.49000000000000027,15.940386866432352,0.8696552276968684,4.480021742442957,-1.1301908752487648,14.099697,-0.09774014,2.9523242,-0.34421554,10.914626,-9.735393,1.161489,-0.24383724,0.109029874,-0.10724807,-0.9576817,-4.3165593,4.801733,1.4901909,0.9899069,4.1288986,-0.78579223,0
0.5000000000000002,15.940386866432352,0.8696552276968684,4.480021742442957,-1.1301908752487648,14.099697,-0.09774014,2.9523242,-0.34421554,10.87133,-9.687165,1.176658,-0.24588774,0.12813891,-0.11655132,-0.95369595,-4.343338,4.844553,1.5432706,0.97122794,4.183655,-0.802692,0
0.5100000000000002,15.940386866432352,0.8696552276968684,4.480021742442957,-1.1301908752487648,14.099697,-0.09774014,2.9523242,-0.34421554,10.827742,-9.638487,1.1923468,-0.24785925,0.14745772,-0.12576835,-0.94921273,-4.374986,4.8916245,1.594129,0.95545626,4.2298717,-0.8187625,0
0.5200000000000002,12.521151575701142,0.4899077979909335,3.2018387863776234,-0.9618355179096255,11.89891,-0.08043197,2.1875303,-0.55354184,10.783813,-9.589318,1.208532,-0.24974717,0.16693434,-0.1348964,-0.94422597,-4.4114847,4.9429097,1.6424649,0.94213885,4.26888,-0.8340444,0
0.5300000000000002,12.521151575701142,0.4899077979909335,3.2018387863776234,-0.9618355179096255,11.89891,-0.08043197,2.1875303,-0.55354184,10.739539,-9.539675,1.225032,-0.25157392,0.18607771,-0.14366531,-0.93885374,-4.4439106,4.9864497,1.6571854,0.87154007,4.10251,-0.84031516,0
0.5400000000000003,12.521151575701142,0.4899077979909335,3.2018387863776234,-0.9618355179096255,11.89891,-0.08043197,2.1875303,-0.55354184,10.694922,-9.489579,1.2416675,-0.25336364,0.20450348,-0.15186545,-0.93323225,-4.479921,5.033077,1.6695617,0.8119634,3.96208,-0.84627825,0
0.5500000000000003,12.521151575701142,0.4899077979909335,3.2018387863776234,-0.9618355179096255,11.89891,-0.08043197,2.1875303,-0.55354184,10.649929,-9.439003,1.2584147,-0.25511426,0.22231285,-0.15957542,-0.92737794,-4.519321,5.0826044,1.6794925,0.76168793,3.8435457,-0.8519487,0
0.5600000000000003,9.791756800353236,0.08566158964914283,1.5076922566622897,-0.7716405899507882,9.6857605,-0.5595213,0.48666757,-0.14480774,10.604526,-9.3879175,1.2752486,-0.25682348,0.23959053,-0.16686153,-0.9213012,-4.561935,5.1348696,1.6868845,0.7192617,3.7434926,-0.8573409,0
0.5700000000000003,9.791756800353236,0.08566158964914283,1.5076922566622897,-0.7716405899507882,9.6857605,-0.5595213,0.48666757,-0.14480774,10.55873,-9.336356,1.2920308,-0.25854442,0.25582388,-0.17346333,-0.9152158,-4.597629,5.1777525,1.6692448,0.6202482,3.3948777,-0.8531355,0
0.5800000000000003,9.791756800353236,0.08566158964914283,1.5076922566622897,-0.7716405899507882,9.6857605,-0.5595213,0.48666757,-0.14480774,10.512566,-9.284356,1.3086267,-0.2603261,0.2706225,-0.17918405,-0.9093335,-4.6354613,5.2224345,1.6496255,0.5367081,3.1006203,-0.84913653,0
0.5900000000000003,9.791756800353236,0.08566158964914283,1.5076922566622897,-0.7716405899507882,9.6857605,-0.5595213,0.48666757,-0.14480774,10.466014,-9.231902,1.3250167,-0.26215914,0.28421456,-0.1841606,-0.90364826,-4.675202,5.2687073,1.6281197,0.46622324,2.8522441,-0.8453338,0
0.6000000000000003,7.7823389644664465,-0.32190905105254136,-0.5053508029326089,-0.5621783955158198,9.640751,-0.41117218,-2.0382824,-0.33963525,10.419056,-9.178978,1.3411828,-0.264034,0.296791,-0.18850814,-0.8981461,-4.716661,5.3163953,1.6048145,0.4067532,2.6425955,-0.84171766,0
0.6100000000000003,7.7823389644664465,-0.32190905105254136,-0.5053508029326089,-0.5621783955158198,9.640751,-0.41117218,-2.0382824,-0.33963525,10.371718,-9.12562,1.3570321,-0.2660239,0.30783,-0.19197282,-0.8930952,-4.750835,5.355292,1.5648127,0.29283032,2.15174,-0.82800055,0
0.6200000000000003,7.7823389644664465,-0.32190905105254136,-0.5053508029326089,-0.5621783955158198,9.640751,-0.41117218,-2.0382824,-0.33963525,10.324036,-9.07187,1.3724751,-0.26818976,0.31693667,-0.19436333,-0.8887344,-4.786024,5.394994,1.523649,0.19672374,1.7374216,-0.81495655,0
0.6300000000000003,7.7823389644664465,-0.32190905105254136,-0.5053508029326089,-0.5621783955158198,9.640751,-0.41117218,-2.0382824,-0.33963525,10.275996,-9.017718,1.3875017,-0.2705041,0.32442558,-0.1958518,-0.8849962,-4.822032,5.4353166,1.4815297,0.115646295,1.3877064,-0.8025527,0
0.6400000000000003,7.7823389644664465,-0.32190905105254136,-0.5053508029326089,-0.5621783955158198,7.6219163,-0.19609609,-3.1525836,-0.5104898,10.2275915,-8.963161,1.4021031,-0.27294123,0.33055848,-0.19658202,-0.8818108,-4.8587,5.4761086,1.4386371,0.04724712,1.0925213,-0.7907575,0
0.6500000000000004,7.7823389644664465,-0.32190905105254136,-0.5053508029326089,-0.5621783955158198,7.6219163,-0.19609609,-3.1525836,-0.5104898,10.178819,-8.908194,1.4162724,-0.275478,0.33555317,-0.19667426,-0.87911075,-4.8958993,5.517243,1.3951313,-0.010457081,0.8433637,-0.7795411,0
0.6600000000000004,7.7823389644664465,-0.32190905105254136,-0.5053508029326089,-0.5621783955158198,7.6219163,-0.19609609,-3.1525836,-0.5104898,10.129671,-8.852814,1.430004,-0.27809387,0.33959135,-0.19622931,-0.876833,-4.9335265,5.5586157,1.351151,-0.0591389,0.6330567,-0.768875,0
0.6700000000000004,7.7823389644664465,-0.32190905105254136,-0.5053508029326089,-0.5621783955158198,7.6219163,-0.19609609,-3.1525836,-0.5104898,10.080147,-8.79702,1.443294,-0.280771,0.34282473,-0.19533181,-0.87492,-4.971496,5.600139,1.3068154,-0.10020979,0.4555425,-0.7587324,0
0.6800000000000004,6.674854703737032,-0.6083484947330916,-1.8265433279489598,-0.35892603664413025,7.6236753,1.0279804,-2.963049,-1.6153104,10.030241,-8.74081,1.4561394,-0.28349397,0.34538013,-0.19405289,-0.87332004,-5.009738,5.6417394,1.2622268,-0.1348597,0.30570793,-0.74908745,0
0.6900000000000004,6.674854703737032,-0.6083484947330916,-1.8265433279489598,-0.35892603664413025,7.6236753,1.0279804,-2.963049,-1.6153104,9.979979,-8.684215,1.4685001,-0.28629053,0.3469302,-0.19221054,-0.8722001,-5.042716,5.6774225,1.2098929,-0.20886208,-0.026782066,-0.7299421,0
0.7000000000000004,6.674854703737032,-0.6083484947330916,-1.8265433279489598,-0.35892603664413025,7.6236753,1.0279804,-2.963049,-1.6153104,9.929386,-8.627262,1.4803374,-0.28917736,0.34722054,-0.18966311,-0.87168974,-5.0757847,5.7130084,1.1575693,-0.27129158,-0.30742747,-0.7117362,0
0.7100000000000004,6.674854703737032,-0.6083484947330916,-1.8265433279489598,-0.35892603664413025,7.6236753,1.0279804,-2.963049,-1.6153104,9.878463,-8.569955,1.491652,-0.29212704,0.34644577,-0.18651979,-0.8716927,-5.1088576,5.7483926,1.105398,-0.3239593,-0.54431194,-0.6944237,0
0.7200000000000004,5.866919784001333,-0.7843671108171777,-2.8577248339060257,-0.16891560738232506,7.2032437,0.9987234,-3.4834743,-1.4986523,9.827209,-8.512294,1.5024463,-0.29511607,0.34476843,-0.18287219,-0.87212366,-5.1418633,5.7834864,1.0534974,-0.36839208,-0.744259,-0.67796075,0
0.7300000000000004,5.866919784001333,-0.7843671108171777,-2.8577248339060257,-0.16891560738232506,7.2032437,0.9987234,-3.4834743,-1.4986523,9.775644,-8.454304,1.5126989,-0.29816106,0.3419979,-0.1786542,-0.8730526,-5.171154,5.8144217,0.99689555,-0.42525545,-1.0657012,-0.65372413,0
0.7400000000000004,5.866919784001333,-0.7843671108171777,-2.8577248339060257,-0.16891560738232506,7.2032437,0.9987234,-3.4834743,-1.4986523,9.723789,-8.3960085,1.5223838,-0.30125773,0.3379614,-0.17376702,-0.8745465,-5.1998525,5.844513,0.94018334,-0.48135698,-1.3451498,-0.62993443,0
0.7500000000000004,5.866919784001333,-0.7843671108171777,-2.8577248339060257,-0.16891560738232506,7.2032437,0.9987234,-3.4834743,-1.4986523,9.671649,-8.337415,1.5315044,-0.30437088,0.33283776,-0.16829568,-0.87650144,-5.2282767,5.8740797,0.8840341,-0.5286848,-1.5810235,-0.6073121,0
0.7600000000000005,5.1421075487337875,-0.8842493068781283,-3.4287103281860856,0.02622874094537802,7.9775333,-1.4194272,-3.0076401,0.9881818,9.6192255,-8.278529,1.5400667,-0.30747363,0.32678464,-0.16232696,-0.8788188,-5.2563596,5.903032,0.82853824,-0.56861216,-1.7801164,-0.5857999,0
0.7700000000000005,5.1421075487337875,-0.8842493068781283,-3.4287103281860856,0.02622874094537802,7.9775333,-1.4194272,-3.0076401,0.9881818,9.566535,-8.219369,1.5480589,-0.31055954,0.31977576,-0.15590295,-0.8814711,-5.2815375,5.928733,0.7698502,-0.5978175,-2.0171418,-0.5575736,0
0.7800000000000005,5.1421075487337875,-0.8842493068781283,-3.4287103281860856,0.02622874094537802,7.9775333,-1.4194272,-3.0076401,0.9881818,9.513598,-8.159959,1.5554627,-0.31360573,0.31176692,-0.14900504,-0.8844496,-5.3056536,5.953085,0.71086764,-0.6365868,-2.2313359,-0.5294685,0
0.7900000000000005,5.1421075487337875,-0.8842493068781283,-3.4287103281860856,0.02622874094537802,7.9775333,-1.4194272,-3.0076401,0.9881818,9.460424,-8.100311,1.5622774,-0.31657258,0.30286586,-0.14163749,-0.88769,-5.329017,5.9763927,0.65219986,-0.6752312,-2.4180646,-0.5022003,0
0.8000000000000005,4.979409059101315,-0.971832151480891,-3.7998390924901853,0.2155456633346004,8.261665,1.9380516,-1.9724424,-1.508561,9.407021,-8.040435,1.5685095,-0.3194375,0.29319027,-0.13385747,-0.8911128,-5.351846,5.998855,0.59432757,-0.7078355,-2.5756755,-0.47627014,0
0.8100000000000005,4.979409059101315,-0.971832151480891,-3.7998390924901853,0.2155456633346004,8.261665,1.9380516,-1.9724424,-1.508561,9.35339,-7.980337,1.5741678,-0.3221842,0.2827502,-0.1257116,-0.89467704,-5.3741136,6.020422,0.5373178,-0.73166054,-2.74925,-0.44388276,0
0.8200000000000005,4.979409059101315,-0.971832151480891,-3.7998390924901853,0.2155456633346004,8.261665,1.9380516,-1.9724424,-1.508561,9.299541,-7.920031,1.5792556,-0.32478508,0.27153468,-0.11719222,-0.8983598,-5.395253,6.0405364,0.48021254,-0.7637676,-2.907762,-0.412011,0
0.8300000000000005,4.979409059101315,-0.971832151480891,-3.7998390924901853,0.2155456633346004,8.261665,1.9380516,-1.9724424,-1.508561,9.245487,-7.8595304,1.5837735,-0.32721272,0.2596206,-0.10829627,-0.90210956,-5.415494,6.0594053,0.42350745,-0.79619145,-3.0468884,-0.38121662,0
0.8400000000000005,4.979409059101315,-0.971832151480891,-3.7998390924901853,0.2155456633346004,7.7665586,1.9331986,-1.5957413,-0.99871373,9.191234,-7.7988462,1.5877284,-0.32945335,0.24709658,-0.09906827,-0.9058642,-5.43501,6.0771704,0.3676305,-0.82355136,-3.1643195,-0.35193333,0
0.8500000000000005,4.979409059101315,-0.971832151480891,-3.7998390924901853,0.2155456633346004,7.7665586,1.9331986,-1.5957413,-0.99871373,9.136789,-7.737991,1.5911288,-0.33149812,0.23404391,-0.08955694,-0.90956736,-5.4537554,6.093767,0.31256998,-0.8466393,-3.2634385,-0.32408696,0
0.8600000000000005,4.979409059101315,-0.971832151480891,-3.7998390924901853,0.2155456633346004,7.7665586,1.9331986,-1.5957413,-0.99871373,9.082161,-7.6769753,1.5939827,-0.33334047,0.22053258,-0.07980407,-0.9131712,-5.4716883,6.109137,0.25830376,-0.866123,-3.3471007,-0.29760706,0
0.8700000000000006,4.979409059101315,-0.971832151480891,-3.7998390924901853,0.2155456633346004,7.7665586,1.9331986,-1.5957413,-0.99871373,9.027358,-7.615813,1.5962977,-0.33497557,0.20662312,-0.069845624,-0.91663545,-5.4887695,6.123228,0.2048008,-0.8825659,-3.4177165,-0.27242652,0
0.8800000000000006,5.242308856693882,-1.0452668194186763,-3.251472006440076,0.3843985788658032,7.1013517,1.8735887,-0.7098151,-0.40837708,8.972388,-7.554516,1.5980814,-0.33640036,0.19236803,-0.059712615,-0.9199264,-5.504963,6.1359925,0.15202235,-0.89644325,-3.4773197,-0.24848162,0
0.8900000000000006,5.242308856693882,-1.0452668194186763,-3.251472006440076,0.3843985788658032,7.1013517,1.8735887,-0.7098151,-0.40837708,8.917257,-7.493095,1.5993527,-0.33757672,0.17802425,-0.049482808,-0.9229852,-5.5210457,6.1479926,0.10234995,-0.91957676,-3.4421139,-0.21742602,0
0.9000000000000006,5.242308856693882,-1.0452668194186763,-3.251472006440076,0.3843985788658032,7.1013517,1.8735887,-0.7098151,-0.40837708,8.861971,-7.431561,1.6001304,-0.33847868,0.16380158,-0.039220646,-0.9257775,-5.5361586,6.158532,0.05332572,-0.93910825,-3.4123988,-0.18789431,0
0.9100000000000006,5.242308856693882,-1.0452668194186763,-3.251472006440076,0.3843985788658032,7.1013517,1.8735887,-0.7098151,-0.40837708,8.806539,-7.3699293,1.6004211,-0.3391209,0.14967872,-0.028932847,-0.9283088,-5.5503025,6.1675973,0.0048812423,-0.95559853,-3.3873177,-0.15981175,0
0.9200000000000006,5.241543491351449,-0.9725928001351264,-2.186689722045351,0.5405034837773323,6.903908,1.3067814,0.21853495,0.028633213,8.750969,-7.308214,1.6002297,-0.33951595,0.13563825,-0.018625284,-0.9305833,-5.5634794,6.175176,-0.043050483,-0.9695214,-3.3661482,-0.1331072,0
0.9300000000000006,5.241543491351449,-0.9725928001351264,-2.186689722045351,0.5405034837773323,6.903908,1.3067814,0.21853495,0.028633213,8.695272,-7.2464304,1.5995619,-0.33965588,0.122051805,-0.008474486,-0.9325591,-5.5757046,6.181272,-0.09049474,-0.97042704,-3.1827443,-0.10010077,0
0.9400000000000006,5.241543491351449,-0.9725928001351264,-2.186689722045351,0.5405034837773323,6.903908,1.3067814,0.21853495,0.028633213,8.639459,-7.184593,1.5984211,-0.3395436,0.109219536,0.0013733441,-0.93422717,-5.586999,6.1859097,-0.13762346,-0.97069246,-3.0274298,-0.06866614,0
0.9500000000000006,5.241543491351449,-0.9725928001351264,-2.186689722045351,0.5405034837773323,6.903908,1.3067814,0.21853495,0.028633213,8.583536,-7.1227174,1.5968105,-0.33920276,0.097027555,0.010962697,-0.9356324,-5.597427,6.189143,-0.18445967,-0.9709264,-2.8963356,-0.03877401,0
0.9600000000000006,5.256432959906584,-0.8704687031989601,-0.8185490302947417,0.6665589576301361,6.39565,1.2084181,0.783261,-0.24654104,8.5275135,-7.060816,1.5947326,-0.33865267,0.085378975,0.020331841,-0.9368097,-5.607031,6.1910124,-0.23106742,-0.9711318,-2.7856846,-0.010348697,0
0.9700000000000006,5.256432959906584,-0.8704687031989601,-0.8185490302947417,0.6665589576301361,6.39565,1.2084181,0.783261,-0.24654104,8.4713955,-6.998902,1.5922062,-0.3379099,0.07464019,0.029398315,-0.937754,-5.6163864,6.191595,-0.27441055,-0.9863555,-2.5099044,0.020086654,0
0.9800000000000006,5.256432959906584,-0.8704687031989601,-0.8185490302947417,0.6665589576301361,6.39565,1.2084181,0.783261,-0.24654104,8.415189,-6.9369884,1.5892404,-0.33699885,0.065127365,0.03803843,-0.93847984,-5.6248,6.190872,-0.31898135,-0.985024,-2.2629402,0.050297514,0
0.9900000000000007,5.256432959906584,-0.8704687031989601,-0.8185490302947417,0.6665589576301361,6.39565,1.2084181,0.783261,-0.24654104,8.358901,-6.875088,1.5858227,-0.3359421,0.05669534,0.046229735,-0.9390381,-5.6324153,6.188991,-0.36474591,-0.9706958,-2.041276,0.08020917,0
1.0000000000000007,5.458787958762277,-0.7009035705738265,-0.12225398017138893,0.772307555980877,5.453651,1.031282,1.5730591,0.2480046,8.302542,-6.8132124,1.5819448,-0.33475614,0.049206503,0.053984556,-0.93947005,-5.639463,6.186034,-0.41084123,-0.95504045,-1.8506095,0.10898153,0
1.0100000000000007,5.458787958762277,-0.7009035705738265,-0.12225398017138893,0.772307555980877,5.453651,1.031282,1.5730591,0.2480046,8.246111,-6.751373,1.5776268,-0.33345836,0.042724058,0.061282303,-0.939801,-5.646571,6.1817694,-0.4530032,-0.9356419,-1.6013391,0.13970889,0
1.0200000000000007,5.458787958762277,-0.7009035705738265,-0.12225398017138893,0.772307555980877,5.453651,1.031282,1.5730591,0.2480046,8.189612,-6.68958,1.57288,-0.3320655,0.037317738,0.06805441,-0.9400584,-5.653129,6.176641,-0.4965754,-0.9048047,-1.3764693,0.17022246,0
1.0300000000000007,5.458787958762277,-0.7009035705738265,-0.12225398017138893,0.772307555980877,5.453651,1.031282,1.5730591,0.2480046,8.133049,-6.627843,1.5676934,-0.33058578,0.032857,0.07431284,-0.9402725,-5.6593304,6.170698,-0.54076797,-0.8730052,-1.1808885,0.19976695,0
1.0400000000000007,5.458787958762277,-0.7009035705738265,-0.12225398017138893,0.772307555980877,5.813175,1.0886347,2.0737865,0.069034316,8.076426,-6.566169,1.5620643,-0.32902384,0.029202668,0.08012747,-0.9404634,-5.665314,6.1639743,-0.58502775,-0.84616864,-1.015807,0.22786167,0
1.0500000000000007,5.458787958762277,-0.7009035705738265,-0.12225398017138893,0.772307555980877,5.813175,1.0886347,2.0737865,0.069034316,8.019743,-6.5045657,1.5559925,-0.3273825,0.026231488,0.08556852,-0.9406445,-5.67114,6.1565404,-0.62936366,-0.82351995,-0.87646896,0.2545778,0
1.0600000000000007,5.458787958762277,-0.7009035705738265,-0.12225398017138893,0.772307555980877,5.813175,1.0886347,2.0737865,0.069034316,7.9630036,-6.4430404,1.5494767,-0.32566366,0.023839222,0.09069505,-0.94082445,-5.6768594,6.1484547,-0.67378205,-0.8044048,-0.7588597,0.27998295,0
1.0700000000000007,5.458787958762277,-0.7009035705738265,-0.12225398017138893,0.772307555980877,5.813175,1.0886347,2.0737865,0.069034316,7.9062066,-6.381599,1.5425165,-0.32386872,0.021937732,0.09555675,-0.941009,-5.682514,6.139768,-0.7182875,-0.78827155,-0.65959084,0.3041415,0
1.0800000000000007,6.556620005786729,-0.5130469864990662,0.790405473817111,0.8119533440658164,5.013096,0.31289294,3.0558507,0.1179937,7.8493533,-6.320247,1.5351107,-0.32199878,0.0204525,0.10019537,-0.9412017,-5.688141,6.1305237,-0.76288354,-0.7746545,-0.5758023,0.32711452,0
1.0900000000000007,6.556620005786729,-0.5130469864990662,0.790405473817111,0.8119533440658164,5.013096,0.31289294,3.0558507,0.1179937,7.792438,-6.259,1.527312,-0.32008913,0.019640706,0.104457915,-0.9414069,-5.694909,6.118799,-0.79683036,-0.7338966,-0.36274588,0.3509057,0
1.1000000000000008,6.556620005786729,-0.5130469864990662,0.790405473817111,0.8119533440658164,5.013096,0.31289294,3.0558507,0.1179937,7.735455,-6.197873,1.5191735,-0.31816977,0.0197032,0.10822583,-0.9416306,-5.701764,6.1065445,-0.8308855,-0.6994934,-0.18291514,0.3735294,0
1.1100000000000008,6.556620005786729,-0.5130469864990662,0.790405473817111,0.8119533440658164,5.013096,0.31289294,3.0558507,0.1179937,7.6784024,-6.1368704,1.510694,-0.31623375,0.020505838,0.11157751,-0.9418744,-5.7087865,6.0938516,-0.8650443,-0.67045367,-0.031128675,0.39504302,0
1.1200000000000008,8.67702457914234,-0.25334633347660335,1.7700727789364625,0.7755850588763877,6.3119264,0.30390498,3.6684053,-0.4076881,7.6212783,-6.0759964,1.5018724,-0.31427464,0.02193521,0.114578694,-0.9421376,-5.716044,6.0807953,-0.89930236,-0.6459403,0.096986584,0.41550094,0
1.1300000000000008,8.67702457914234,-0.25334633347660335,1.7700727789364625,0.7755850588763877,6.3119264,0.30390498,3.6684053,-0.4076881,7.5640683,-6.015277,1.4928107,-0.31233862,0.024231786,0.11706379,-0.94241965,-5.726045,6.0631337,-0.9130395,-0.58479005,0.35791326,0.43317035,0
1.1400000000000008,8.67702457914234,-0.25334633347660335,1.7700727789364625,0.7755850588763877,6.3119264,0.30390498,3.6684053,-0.4076881,7.506756,-5.954735,1.4836111,-0.31046334,0.02758125,0.1189048,-0.94271666,-5.7365723,6.04524,-0.9268898,-0.5331699,0.5781476,0.44997275,0
1.1500000000000008,8.67702457914234,-0.25334633347660335,1.7700727789364625,0.7755850588763877,6.3119264,0.30390498,3.6684053,-0.4076881,7.449335,-5.894372,1.4742725,-0.3086313,0.03182114,0.120202675,-0.94302,-5.747755,6.027263,-0.94084215,-0.48959392,0.7640354,0.46595064,0
1.1600000000000008,11.391990292581399,0.017180165134772312,2.656952463163081,0.6634703671360593,9.711289,0.33580092,3.4413598,-0.534369,7.391799,-5.8341894,1.4647938,-0.30682686,0.036813993,0.12104197,-0.9433197,-5.759703,6.0093303,-0.9548906,-0.45280796,0.92093307,0.48114452,0
1.1700000000000008,11.391990292581399,0.017180165134772312,2.656952463163081,0.6634703671360593,9.711289,0.33580092,3.4413598,-0.534369,7.334119,-5.774213,1.4553056,-0.30509615,0.0427435,0.12128318,-0.94359994,-5.776529,5.9859967,-0.9427633,-0.37960523,1.1916851,0.4900913,0
1.1800000000000008,11.391990292581399,0.017180165134772312,2.656952463163081,0.6634703671360593,9.711289,0.33580092,3.4413598,-0.534369,7.2762637,-5.7144675,1.445938,-0.30347583,0.049748734,0.12081928,-0.94383866,-5.7946725,5.963088,-0.93075633,-0.31780753,1.4202106,0.49859905,0
1.1900000000000008,11.391990292581399,0.017180165134772312,2.656952463163081,0.6634703671360593,9.711289,0.33580092,3.4413598,-0.534369,7.2182207,-5.6549487,1.43669,-0.30193946,0.05766185,0.11975879,-0.9440162,-5.8143096,5.940814,-0.91887546,-0.26563752,1.6130953,0.50668937,0
1.2000000000000008,12.879245935254287,0.2791291792009398,2.756907506693336,0.5167545538497103,11.270077,-0.24102578,3.3684216,-0.19755606,7.1599727,-5.595649,1.42756,-0.30046383,0.06634051,0.118192784,-0.9441144,-5.835586,5.919352,-0.9071386,-0.22159481,1.7758976,0.5143826,0
1.2100000000000009,12.879245935254287,0.2791291792009398,2.756907506693336,0.5167545538497103,11.270077,-0.24102578,3.3684216,-0.19755606,7.1014886,-5.536572,1.4186182,-0.2990577,0.07566816,0.116087995,-0.94412047,-5.861633,5.8961806,-0.8812559,-0.14355855,1.9289116,0.51449895,0
1.2200000000000009,12.879245935254287,0.2791291792009398,2.756907506693336,0.5167545538497103,11.270077,-0.24102578,3.3684216,-0.19755606,7.042733,-5.477721,1.4099342,-0.29772994,0.0855454,0.11342213,-0.9440208,-5.889779,5.874284,-0.8556009,-0.07768403,2.0580592,0.51460963,0
1.2300000000000009,12.879245935254287,0.2791291792009398,2.756907506693336,0.5167545538497103,11.270077,-0.24102578,3.3684216,-0.19755606,6.983685,-5.419082,1.4015054,-0.2964614,0.09588359,0.11028053,-0.94379884,-5.920111,5.853828,-0.8302162,-0.022075973,2.1670628,0.5147149,0
1.2400000000000009,12.879245935254287,0.2791291792009398,2.756907506693336,0.5167545538497103,12.806251,-0.12529108,3.1730366,-0.45731106,6.924323,-5.3606396,1.3933287,-0.29523543,0.10660731,0.106735125,-0.9434403,-5.9526978,5.834953,-0.80515516,0.024865827,2.2590647,0.514815,1
1.2500000000000009,12.879245935254287,0.2791291792009398,2.756907506693336,0.5167545538497103,12.806251,-0.12529108,3.1730366,-0.45731106,6.8646245,-5.302377,1.3853973,-0.2941506,0.117844135,0.10296331,-0.9428615,-5.987411,5.81787,-0.7811795,0.001475567,2.40159,0.46711245,1
1.260000000000001,12.879245935254287,0.2791291792009398,2.756907506693336,0.5167545538497103,12.806251,-0.12529108,3.1730366,-0.45731106,6.8045664,-5.2442765,1.3777034,-0.29329604,0.12968914,0.099112056,-0.94198513,-6.0245614,5.80256,-0.7576874,-0.018255778,2.5218916,0.42175072,1
1.270000000000001,12.879245935254287,0.2791291792009398,2.756907506693336,0.5167545538497103,12.806251,-0.12529108,3.1730366,-0.45731106,6.744124,-5.1863194,1.3702416,-0.29264507,0.14203888,0.09519646,-0.9408095,-6.0642743,5.789089,-0.73478895,-0.034902163,2.6234338,0.37861493,1
1.280000000000001,14.186578713322675,0.5401847534067427,2.621217084714201,0.3445001208252769,14.5004835,0.5611675,2.5212693,-0.8479706,6.6832714,-5.128488,1.3630053,-0.2921743,0.15480547,0.09122936,-0.93933356,-6.106646,5.7775164,-0.7125986,-0.048947077,2.709142,0.33759582,0
1.290000000000001,14.186578713322675,0.5401847534067427,2.621217084714201,0.3445001208252769,14.5004835,0.5611675,2.5212693,-0.8479706,6.621958,-5.070768,1.3560512,-0.29179305,0.16763838,0.087020665,-0.93764734,-6.156594,5.766857,-0.67834955,0.042930037,2.6954503,0.33793464,0
1.300000000000001,14.186578713322675,0.5401847534067427,2.621217084714201,0.3445001208252769,14.5004835,0.5611675,2.5212693,-0.8479706,6.5601296,-5.013143,1.3494347,-0.29142156,0.18025811,0.082417734,-0.9358359,-6.209483,5.758439,-0.64508504,0.12047866,2.6838908,0.3382568,0
1.310000000000001,14.186578713322675,0.5401847534067427,2.621217084714201,0.3445001208252769,14.5004835,0.5611675,2.5212693,-0.8479706,6.497758,-4.9555917,1.3431457,-0.29105493,0.19269119,0.07748108,-0.9338923,-6.26521,5.7523403,-0.61286986,0.18593313,2.6741314,0.3385632,0
1.320000000000001,15.406981143286517,0.8217844543220575,1.924340093793185,0.2074015781554621,15.635205,1.1162491,2.2890124,-0.6355413,6.434816,-4.898089,1.3371733,-0.29068822,0.20495968,0.072261885,-0.9318107,-6.323683,5.748625,-0.5817726,0.24117988,2.6658914,0.33885452,1
1.330000000000001,15.406981143286517,0.8217844543220575,1.924340093793185,0.2074015781554621,15.635205,1.1162491,2.2890124,-0.6355413,6.3712444,-4.840612,1.3315715,-0.29046848,0.21688262,0.06665262,-0.9295959,-6.391043,5.747222,-0.53878677,0.37774077,2.607136,0.29104063,1
1.340000000000001,15.406981143286517,0.8217844543220575,1.924340093793185,0.2074015781554621,15.635205,1.1162491,2.2890124,-0.6355413,6.3069854,-4.783135,1.3263928,-0.29053238,0.22831817,0.060576748,-0.92725044,-6.461135,5.748609,-0.49713734,0.49299607,2.557532,0.24557298,1
1.350000000000001,15.406981143286517,0.8217844543220575,1.924340093793185,0.2074015781554621,15.635205,1.1162491,2.2890124,-0.6355413,6.2420125,-4.72563,1.3216239,-0.2908591,0.23933558,0.054115806,-0.92476594,-6.533764,5.752884,-0.45684856,0.59026974,2.5156555,0.20233646,1
1.360000000000001,15.69727274096547,1.0435263441744174,0.961090986371567,0.11614072141197893,16.38841,1.1719012,0.8403614,-0.601128,6.176302,-4.668067,1.317251,-0.29142845,0.24999306,0.04733845,-0.9221351,-6.608759,5.760128,-0.41795227,0.672367,2.4803035,0.16122156,1
1.370000000000001,15.69727274096547,1.0435263441744174,0.961090986371567,0.11614072141197893,16.38841,1.1719012,0.8403614,-0.601128,6.1098113,-4.6104145,1.3132926,-0.2921978,0.25980037,0.04045014,-0.9195048,-6.6896567,5.77088,-0.37393725,0.7503505,2.2245455,0.123812854,1
1.380000000000001,15.69727274096547,1.0435263441744174,0.961090986371567,0.11614072141197893,16.38841,1.1719012,0.8403614,-0.601128,6.0425014,-4.552639,1.3097674,-0.29313958,0.2683776,0.033617467,-0.9170134,-6.7725024,5.784702,-0.3313162,0.81615525,2.0086691,0.088239804,1
1.390000000000001,15.69727274096547,1.0435263441744174,0.961090986371567,0.11614072141197893,16.38841,1.1719012,0.8403614,-0.601128,5.9743557,-4.49471,1.3066618,-0.29425335,0.27591795,0.026840836,-0.9146392,-6.8569493,5.8014727,-0.28997257,0.8716847,1.8264561,0.05441233,1
1.400000000000001,15.4888175829661,1.133174501397033,-0.30166482335280487,0.05543203999398597,16.744205,0.38013163,-0.4882935,-0.45750287,5.905359,-4.4365993,1.3039638,-0.29553548,0.28258368,0.020119917,-0.9123603,-6.9427047,5.8210907,-0.24980347,0.9185439,1.6726575,0.022244783,0
1.410000000000001,15.4888175829661,1.133174501397033,-0.30166482335280487,0.05543203999398597,16.744205,0.38013163,-0.4882935,-0.45750287,5.835522,-4.3782845,1.3016243,-0.2968943,0.28810146,0.0135802515,-0.910312,-7.024735,5.8422236,-0.21823421,0.95201844,1.3647646,0.02387328,0
1.420000000000001,15.4888175829661,1.133174501397033,-0.30166482335280487,0.05543203999398597,16.744205,0.38013163,-0.4882935,-0.45750287,5.7648616,-4.3197465,1.2995963,-0.29825,0.2922642,0.0073175705,-0.9086122,-7.107418,5.865759,-0.18749538,0.98027265,1.1048874,0.025421873,0
1.430000000000001,15.4888175829661,1.133174501397033,-0.30166482335280487,0.05543203999398597,16.744205,0.38013163,-0.4882935,-0.45750287,5.6933727,-4.2609615,1.2978723,-0.29961136,0.29528594,0.0012906503,-0.90721476,-7.190439,5.891502,-0.15739726,1.0041202,0.8855379,0.026894463,0
1.440000000000001,15.4888175829661,1.133174501397033,-0.30166482335280487,0.05543203999398597,16.559528,0.40272292,-1.2160513,-0.1676708,5.6210527,-4.2019095,1.2964467,-0.30098358,0.2973461,-0.004535719,-0.9060765,-7.2735353,5.9192886,-0.12777503,1.0242487,0.7003957,0.028294815,0
1.450000000000001,15.4888175829661,1.133174501397033,-0.30166482335280487,0.05543203999398597,16.559528,0.40272292,-1.2160513,-0.1676708,5.5479026,-4.14257,1.2953155,-0.30236924,0.2985952,-0.010191552,-0.90515786,-7.356486,5.948981,-0.09848735,1.0412381,0.5441262,0.029626437,0
1.460000000000001,15.4888175829661,1.133174501397033,-0.30166482335280487,0.05543203999398597,16.559528,0.40272292,-1.2160513,-0.1676708,5.4739246,-4.082924,1.2944762,-0.30376905,0.2991596,-0.015702393,-0.9044237,-7.439106,5.980461,-0.06941421,1.0555776,0.41222695,0.030892726,0
1.470000000000001,15.4888175829661,1.133174501397033,-0.30166482335280487,0.05543203999398597,16.559528,0.40272292,-1.2160513,-0.1676708,5.3991227,-4.0229545,1.2939268,-0.30518264,0.2991455,-0.021089958,-0.9038427,-7.521239,6.0136313,-0.040454753,1.0676808,0.300897,0.032096878,0
1.480000000000001,15.814775016218924,1.0999392124394636,-1.0188057604800642,0.021318074169363002,15.785158,0.82148767,-0.79927677,-0.03805633,5.323502,-3.9626455,1.2936668,-0.30660886,0.29864216,-0.026372686,-0.90338767,-7.602751,6.0484076,-0.011525077,1.0778964,0.20692873,0.03324193,1
1.490000000000001,15.814775016218924,1.0999392124394636,-1.0188057604800642,0.021318074169363002,15.785158,0.82148767,-0.79927677,-0.03805633,5.247062,-3.9019775,1.2937087,-0.30802512,0.2975837,-0.031388976,-0.90309477,-7.6850705,6.085398,0.019881703,1.037913,0.050008364,0.029743312,1
1.500000000000001,15.814775016218924,1.0999392124394636,-1.0188057604800642,0.021318074169363002,15.785158,0.82148767,-0.79927677,-0.03805633,5.169803,-3.8409326,1.2940651,-0.30941623,0.2959225,-0.036010936,-0.9029926,-7.7665153,6.12378,0.051437117,1.004164,-0.082439974,0.026416369,1
1.5100000000000011,15.814775016218924,1.0999392124394636,-1.0188057604800642,0.021318074169363002,15.785158,0.82148767,-0.79927677,-0.03805633,5.091735,-3.7794976,1.2947383,-0.31079003,0.29375216,-0.040298514,-0.9030482,-7.846972,6.16339,0.08323966,0.97567725,-0.19423275,0.023252679,1
1.5200000000000011,15.883487834146752,1.0511183972406868,-1.6464933794236258,-0.005235569656119278,15.528553,0.7789477,-1.3023555,-0.0057105585,5.012868,-3.717661,1.2957312,-0.31215224,0.29115155,-0.044302437,-0.903233,-7.926346,6.2040906,0.115371265,0.9516324,-0.2885912,0.020244224,1
1.5300000000000011,15.883487834146752,1.0511183972406868,-1.6464933794236258,-0.005235569656119278,15.528553,0.7789477,-1.3023555,-0.0057105585,4.9332185,-3.6554158,1.2970366,-0.31350747,0.2880101,-0.047988467,-0.90358233,-8.003275,6.2450786,0.1457834,0.9247041,-0.4466884,0.018970616,1
1.5400000000000011,15.883487834146752,1.0511183972406868,-1.6464933794236258,-0.005235569656119278,15.528553,0.7789477,-1.3023555,-0.0057105585,4.852806,-3.5927567,1.2986486,-0.31485915,0.28424305,-0.051331554,-0.9041214,-8.078927,6.286862,0.17669675,0.90197474,-0.58013034,0.017759511,1
1.5500000000000012,15.883487834146752,1.0511183972406868,-1.6464933794236258,-0.005235569656119278,15.528553,0.7789477,-1.3023555,-0.0057105585,4.771644,-3.5296762,1.3005726,-0.3162088,0.2799461,-0.054383717,-0.9048124,-8.153179,6.3292923,0.20821035,0.88278955,-0.6927617,0.016607825,1
1.5600000000000012,16.19774961959864,1.019641545107218,-2.0859501244369785,-0.053206703774593994,16.555983,0.112401694,-3.05582,0.11239295,4.689748,-3.466169,1.3028152,-0.317557,0.27519974,-0.057188947,-0.9056229,-8.225926,6.3722444,0.24040365,0.8665959,-0.7878284,0.015512643,1
1.5700000000000012,16.19774961959864,1.019641545107218,-2.0859501244369785,-0.053206703774593994,16.555983,0.112401694,-3.05582,0.11239295,4.6071076,-3.402216,1.3054267,-0.31885767,0.26951978,-0.059323568,-0.90673614,-8.301764,6.4184356,0.282035,0.74898684,-1.1415193,0.020266581,1
1.5800000000000012,16.19774961959864,1.019641545107218,-2.0859501244369785,-0.053206703774593994,16.555983,0.112401694,-3.05582,0.11239295,4.523719,-3.3378005,1.3084595,-0.3200728,0.26252314,-0.06045245,-0.9082848,-8.375648,6.464636,0.32470518,0.64971995,-1.4400527,0.02478724,1
1.5900000000000012,16.19774961959864,1.019641545107218,-2.0859501244369785,-0.053206703774593994,16.555983,0.112401694,-3.05582,0.11239295,4.439602,-3.272925,1.311925,-0.32121086,0.25440767,-0.060729153,-0.9101719,-8.447336,6.5104265,0.36863858,0.5659343,-1.6920305,0.029086078,1
1.6000000000000012,15.521583452109335,1.0385718802162909,-2.557114174232734,-0.11920801275447679,16.03904,0.37882015,-3.8044877,0.58160114,4.35478,-3.2075949,1.315837,-0.32227647,0.24533962,-0.060283344,-0.91231185,-8.516615,6.5554476,0.4140063,0.49521512,-1.9047127,0.03317397,0
1.6100000000000012,15.521583452109335,1.0385718802162909,-2.557114174232734,-0.11920801275447679,16.03904,0.37882015,-3.8044877,0.58160114,4.2692995,-3.1418335,1.3201653,-0.323376,0.23552357,-0.059620466,-0.91455054,-8.579119,6.5966725,0.4518654,0.5799438,-2.0064554,0.02569655,0
1.6200000000000012,15.521583452109335,1.0385718802162909,-2.557114174232734,-0.11920801275447679,16.03904,0.37882015,-3.8044877,0.58160114,4.1832066,-3.0756652,1.3248795,-0.32459342,0.22513002,-0.05914758,-0.9167649,-8.638976,6.6368484,0.49122137,0.6514583,-2.0923321,0.018586036,0
1.6300000000000012,15.521583452109335,1.0385718802162909,-2.557114174232734,-0.11920801275447679,16.03904,0.37882015,-3.8044877,0.58160114,4.0965295,-3.0091004,1.3299949,-0.3259012,0.21424268,-0.058833133,-0.9189275,-8.695993,6.6759696,0.5320799,0.71181977,-2.164817,0.011824436,0
1.6400000000000012,15.521583452109335,1.0385718802162909,-2.557114174232734,-0.11920801275447679,15.9774275,0.42072955,-4.1554,1.0458709,4.009297,-2.9421499,1.3355262,-0.3272762,0.20293269,-0.058650453,-0.9210154,-8.750006,6.7140265,0.57442683,0.76276785,-2.2259986,0.0053946367,0
1.6500000000000012,15.521583452109335,1.0385718802162909,-2.557114174232734,-0.11920801275447679,15.9774275,0.42072955,-4.1554,1.0458709,3.92154,-2.874824,1.3414884,-0.32869893,0.19126059,-0.058577027,-0.92300904,-8.800864,6.7510066,0.61823106,0.8057705,-2.2776392,-0.0007196388,0
1.6600000000000013,15.521583452109335,1.0385718802162909,-2.557114174232734,-0.11920801275447679,15.9774275,0.42072955,-4.1554,1.0458709,3.8332908,-2.8071337,1.3478957,-0.33015305,0.17927814,-0.058593847,-0.92489225,-8.848439,6.786895,0.66344714,0.8420669,-2.3212264,-0.0065339007,0
1.6700000000000013,15.521583452109335,1.0385718802162909,-2.557114174232734,-0.11920801275447679,15.9774275,0.42072955,-4.1554,1.0458709,3.744583,-2.73909,1.3547621,-0.3316248,0.1670295,-0.058684874,-0.92665136,-8.892617,6.821674,0.7100176,0.8727032,-2.3580163,-0.012062847,0
1.6800000000000013,15.639918716305205,1.0527915037019455,-1.91684058071819,-0.17211682109578352,17.437944,-0.52637434,-4.5042515,1.441628,3.6554503,-2.6707041,1.3621006,-0.3331027,0.15455255,-0.05883659,-0.9282752,-8.933298,6.8553243,0.7578748,0.898562,-2.3890686,-0.017320482,0
1.6900000000000013,15.639918716305205,1.0527915037019455,-1.91684058071819,-0.17211682109578352,17.437944,-0.52637434,-4.5042515,1.441628,3.5659275,-2.6019864,1.3699294,-0.33456948,0.14211652,-0.059127484,-0.9297154,-8.970689,6.888086,0.80805844,0.9226033,-2.3154294,-0.024916375,0
1.7000000000000013,15.639918716305205,1.0527915037019455,-1.91684058071819,-0.17211682109578352,17.437944,-0.52637434,-4.5042515,1.441628,3.476049,-2.532946,1.3782656,-0.33601442,0.12993847,-0.059620038,-0.9309438,-9.004488,6.9197555,0.8593376,0.94289637,-2.2532744,-0.03213954,0
1.7100000000000013,15.639918716305205,1.0527915037019455,-1.91684058071819,-0.17211682109578352,17.437944,-0.52637434,-4.5042515,1.441628,3.3858502,-2.4635942,1.3871195,-0.33743712,0.117977895,-0.06028206,-0.9319786,-9.034729,6.950398,0.9115909,0.96002585,-2.2008123,-0.03900826,0
1.7200000000000013,15.655775573693465,0.9605501246566295,-1.232619532292921,-0.22679295415323333,17.877293,-0.7485218,-4.87697,1.8606418,3.2953665,-2.393941,1.3965003,-0.33883712,0.10620061,-0.06108628,-0.93283427,-9.061439,6.980066,0.96470594,0.9744843,-2.1565316,-0.045539938,0
1.7300000000000013,15.655775573693465,0.9605501246566295,-1.232619532292921,-0.22679295415323333,17.877293,-0.7485218,-4.87697,1.8606418,3.2046335,-2.3239958,1.406417,-0.34020042,0.094846494,-0.06206749,-0.9334966,-9.08468,7.008842,1.018728,0.97230375,-2.0124536,-0.054434087,0
1.7400000000000013,15.655775573693465,0.9605501246566295,-1.232619532292921,-0.22679295415323333,17.877293,-0.7485218,-4.87697,1.8606418,3.1136847,-2.253767,1.4168772,-0.34151953,0.0841052,-0.06325288,-0.9339648,-9.10455,7.0367966,1.0733798,0.9704646,-1.8908442,-0.062891796,0
1.7500000000000013,15.655775573693465,0.9605501246566295,-1.232619532292921,-0.22679295415323333,17.877293,-0.7485218,-4.87697,1.8606418,3.0225534,-2.1832626,1.4278864,-0.3428024,0.07388228,-0.06461076,-0.93426645,-9.12119,7.064034,1.1285466,0.96891314,-1.7881995,-0.07093448,0
1.7600000000000013,15.21805513244889,0.718892765689434,-0.43131888564235454,-0.24209178161277906,17.798403,-0.81435156,-4.9089947,2.0651987,2.9312716,-2.1124887,1.4394495,-0.34405535,0.06409777,-0.0661142,-0.93442315,-9.134718,7.090641,1.1841301,0.9676044,-1.7015619,-0.0785825,0
1.7700000000000014,15.21805513244889,0.718892765689434,-0.43131888564235454,-0.24209178161277906,17.798403,-0.81435156,-4.9089947,2.0651987,2.839871,-2.0414555,1.4515487,-0.34525856,0.05501721,-0.06776049,-0.9344402,-9.144961,7.115972,1.2357354,0.9288203,-1.5034711,-0.086605944,0
1.7800000000000014,15.21805513244889,0.718892765689434,-0.43131888564235454,-0.24209178161277906,17.798403,-0.81435156,-4.9089947,2.0651987,2.7483816,-1.970171,1.464165,-0.34639966,0.046847966,-0.06954716,-0.9343319,-9.152518,7.1408896,1.28757,0.8960847,-1.3362722,-0.09423567,0
1.7900000000000014,15.21805513244889,0.718892765689434,-0.43131888564235454,-0.24209178161277906,17.798403,-0.81435156,-4.9089947,2.0651987,2.656829,-1.8986387,1.4773004,-0.34749237,0.03944897,-0.071453236,-0.934124,-9.1576185,7.165513,1.3395572,0.86845475,-1.1951478,-0.10149101,0
1.8000000000000014,14.07971818434034,0.3663357316904684,0.13306104078365874,-0.21486039703582857,16.887136,-1.0554967,-4.8753033,2.3901079,2.565237,-1.8268614,1.4909563,-0.34854758,0.032700855,-0.073460825,-0.93383574,-9.160456,7.1899414,1.3916363,0.8451337,-1.0760311,-0.108390324,0
1.8100000000000014,14.07971818434034,0.3663357316904684,0.13306104078365874,-0.21486039703582857,16.887136,-1.0554967,-4.8753033,2.3901079,2.4736276,-1.7548494,1.5050771,-0.34955016,0.026762612,-0.07550189,-0.9334872,-9.161153,7.2124443,1.4325209,0.77047575,-0.88747144,-0.11361486,0
1.8200000000000014,14.07971818434034,0.3663357316904684,0.13306104078365874,-0.21486039703582857,16.887136,-1.0554967,-4.8753033,2.3901079,2.3820198,-1.6826124,1.5196067,-0.35048956,0.021755021,-0.07752218,-0.93309945,-9.160162,7.234933,1.4734063,0.7074597,-0.7283176,-0.11858301,0
1.8300000000000014,14.07971818434034,0.3663357316904684,0.13306104078365874,-0.21486039703582857,16.887136,-1.0554967,-4.8753033,2.3901079,2.2904294,-1.6101503,1.5345451,-0.35137928,0.01753342,-0.079526,-0.93268496,-9.157714,7.2574835,1.5142637,0.6542701,-0.59398395,-0.123307355,0
1.8400000000000014,14.07971818434034,0.3663357316904684,0.13306104078365874,-0.21486039703582857,16.558577,-1.1676676,-4.837228,2.4418428,2.19887,-1.5374624,1.5498916,-0.35222998,0.013975579,-0.08151673,-0.93225217,-9.154005,7.2801623,1.5550724,0.6093745,-0.4805999,-0.12779988,0
1.8500000000000014,14.07971818434034,0.3663357316904684,0.13306104078365874,-0.21486039703582857,16.558577,-1.1676676,-4.837228,2.4418428,2.1073532,-1.4645467,1.565646,-0.35305023,0.010978254,-0.08349704,-0.9318066,-9.149201,7.3030243,1.5958176,0.57147956,-0.38489813,-0.13207196,0
1.8600000000000014,14.07971818434034,0.3663357316904684,0.13306104078365874,-0.21486039703582857,16.558577,-1.1676676,-4.837228,2.4418428,2.0158892,-1.391401,1.5818076,-0.35384685,0.00845426,-0.08546907,-0.9313518,-9.143443,7.3261185,1.6364882,0.5394936,-0.30412132,-0.13613442,0
1.8700000000000014,14.07971818434034,0.3663357316904684,0.13306104078365874,-0.21486039703582857,16.558577,-1.1676676,-4.837228,2.4418428,1.9244871,-1.3180233,1.5983756,-0.35462534,0.0063299863,-0.08743449,-0.93088996,-9.136847,7.3494844,1.6770761,0.51249516,-0.23594187,-0.13999753,0
1.8800000000000014,14.379804395513931,0.16588851871532073,0.5292806004870266,-0.20616422348210311,16.85083,-1.3721726,-4.757796,2.7266676,1.8331548,-1.2444104,1.6153489,-0.3553902,0.004543284,-0.08939466,-0.9304224,-9.129512,7.3731556,1.7175751,0.48970658,-0.17839524,-0.14367105,0
1.8900000000000015,14.379804395513931,0.16588851871532073,0.5292806004870266,-0.20616422348210311,16.85083,-1.3721726,-4.757796,2.7266676,1.7419,-1.1705565,1.6327416,-0.3561294,0.0032176322,-0.09133243,-0.92995703,-9.121364,7.397676,1.7609324,0.4392175,-0.06802972,-0.14673759,0
1.9000000000000015,14.379804395513931,0.16588851871532073,0.5292806004870266,-0.20616422348210311,16.85083,-1.3721726,-4.757796,2.7266676,1.6507293,-1.0964557,1.6505673,-0.3568335,0.002448138,-0.09323444,-0.9295006,-9.1127,7.422586,1.8041911,0.39660096,0.025123756,-0.14965369,0
1.9100000000000015,14.379804395513931,0.16588851871532073,0.5292806004870266,-0.20616422348210311,16.85083,-1.3721726,-4.757796,2.7266676,1.5596472,-1.0221034,1.6688251,-0.35750875,0.0021481887,-0.09510667,-0.92905205,-9.103667,7.4479294,1.8473498,0.36062932,0.10374966,-0.15242667,0
1.9200000000000015,13.529847332409812,-0.02879712643130388,0.06254932002031194,-0.15718006866481274,17.161993,-1.4561661,-4.937994,2.7047985,1.4686567,-0.9474954,1.6875141,-0.35816032,0.0022446755,-0.09695403,-0.9286098,-9.094387,7.4737444,1.8904068,0.33026645,0.17011338,-0.15506361,0
1.9300000000000015,13.529847332409812,-0.02879712643130388,0.06254932002031194,-0.15718006866481274,17.161993,-1.4561661,-4.937994,2.7047985,1.3777571,-0.8726346,1.7065914,-0.35880497,0.0025298125,-0.09864135,-0.92818236,-9.085511,7.498495,1.9250257,0.2742689,0.15334444,-0.15516746,0
1.9400000000000015,13.529847332409812,-0.02879712643130388,0.06254932002031194,-0.15718006866481274,17.161993,-1.4561661,-4.937994,2.7047985,1.2869467,-0.79752403,1.7260143,-0.35945594,0.00283581,-0.10006161,-0.9277774,-9.076538,7.523661,1.9595597,0.22700454,0.1391898,-0.15526624,0
1.9500000000000015,13.529847332409812,-0.02879712643130388,0.06254932002031194,-0.15718006866481274,17.161993,-1.4561661,-4.937994,2.7047985,1.1962265,-0.7221601,1.7457821,-0.36011237,0.0031595842,-0.10125652,-0.9273921,-9.067494,7.5491824,1.9940212,0.18711126,0.12724185,-0.15536015,0
1.9600000000000015,12.273262312106377,-0.18183135441696088,-0.4182840541611309,-0.08193637731097772,17.135567,-1.7339984,-5.809021,2.8197622,1.105597,-0.6465394,1.7658944,-0.36077353,0.0034985065,-0.10226126,-0.9270237,-9.058408,7.5750074,2.028421,0.15343948,0.11715645,-0.15544946,0
1.9700000000000015,12.273262312106377,-0.18183135441696088,-0.4182840541611309,-0.08193637731097772,17.135567,-1.7339984,-5.809021,2.8197622,1.0150542,-0.5706712,1.786289,-0.36144963,0.0036931406,-0.10297932,-0.92668,-9.050137,7.5986605,2.0504684,0.10114574,0.033660322,-0.15184216,0
1.9800000000000015,12.273262312106377,-0.18183135441696088,-0.4182840541611309,-0.08193637731097772,17.135567,-1.7339984,-5.809021,2.8197622,0.9245944,-0.49456576,1.8069037,-0.36214778,0.003616985,-0.103335634,-0.92636794,-9.041817,7.6224456,2.0724864,0.057008684,-0.036815736,-0.14841188,0
1.9900000000000015,12.273262312106377,-0.18183135441696088,-0.4182840541611309,-0.08193637731097772,17.135567,-1.7339984,-5.809021,2.8197622,0.83421814,-0.41822222,1.8277386,-0.36286297,0.0033123062,-0.10338647,-0.9260835,-9.033421,7.6462626,2.0944924,0.01975618,-0.096301936,-0.14514992,0
2.0000000000000013,,,,,16.347132,-1.6161371,-5.8471136,2.7222,0.74392635,-0.34164068,1.8487936,-0.36359087,0.0028147507,-0.1031793,-0.9258227,-9.024923,7.6700277,2.1165018,-0.011685672,-0.14651187,-0.142048,0
2.010000000000001,,,,,16.347132,-1.6161371,-5.8471136,2.7222,0.6537149,-0.2648366,1.8699948,-0.3643441,0.0019131566,-0.102634296,-0.9255894,-9.017358,7.690753,2.1237514,-0.04755482,-0.29357475,-0.13427176,0
2.020000000000001,,,,,16.347132,-1.6161371,-5.8471136,2.7222,0.5635799,-0.18782638,1.8912686,-0.36513034,0.00044164195,-0.101689935,-0.92538565,-9.009606,7.7112465,2.131033,-0.07782677,-0.41770414,-0.12687708,0
2.0300000000000007,,,,,16.347132,-1.6161371,-5.8471136,2.7222,0.47352368,-0.110612884,1.9126155,-0.36593938,-0.0015110762,-0.10040777,-0.9252049,-9.001592,7.7313914,2.1383622,-0.103375316,-0.5224762,-0.11984526,0
2.0400000000000005,,,,,16.347132,-1.6161371,-5.8471136,2.7222,0.3835492,-0.0332001,1.934036,-0.36676258,-0.0038701135,-0.09883974,-0.9250409,-8.993249,7.7510886,2.14575,-0.124937646,-0.6109097,-0.1131585,0
2.0500000000000003,,,,,16.386791,-1.4814826,-6.189024,2.5240133,0.29366,0.044407062,1.9555306,-0.36759248,-0.0065722484,-0.097029656,-0.9248878,-8.984523,7.770254,2.1532052,-0.14313564,-0.6855524,-0.10679986,1
2.06,,,,,16.386791,-1.4814826,-6.189024,2.5240133,0.20389158,0.1222668,1.9774629,-0.36831704,-0.010961901,-0.09444072,-0.9248259,-8.969052,7.801373,2.2326438,-0.17478694,-1.3373356,0.006437149,1
2.07,,,,,16.386791,-1.4814826,-6.189024,2.5240133,0.11428265,0.2004262,2.0001707,-0.368801,-0.018182851,-0.0904638,-0.9249168,-8.952515,7.830075,2.3083305,-0.24298926,-1.929057,0.11783508,1
2.0799999999999996,,,,,16.386791,-1.4814826,-6.189024,2.5240133,0.024847127,0.2788576,2.0236173,-0.3690021,-0.027911495,-0.08503998,-0.9251087,-8.934283,7.8556623,2.3804018,-0.34075513,-2.4687886,0.2273678,1
2.0899999999999994,,,,,16.43481,-2.606778,-6.7502794,3.4581146,-0.064395525,0.35752657,2.047767,-0.36887816,-0.039868616,-0.07812536,-0.9253298,-8.913875,7.8775067,2.4489381,-0.46226126,-2.9634187,0.33501732,1
2.099999999999999,,,,,16.43481,-2.606778,-6.7502794,3.4581146,-0.15341021,0.43640223,2.0726674,-0.36828592,-0.053406887,-0.06983837,-0.9255459,-8.8886,7.896861,2.530662,-0.60633755,-3.2470455,0.4712551,1
2.109999999999999,,,,,16.43481,-2.606778,-6.7502794,3.4581146,-0.24215725,0.51544636,2.0983684,-0.36710656,-0.06799028,-0.060287,-0.9257294,-8.860336,7.911137,2.609033,-0.7625921,-3.5211549,0.60390836,1
2.1199999999999988,,,,,16.43481,-2.606778,-6.7502794,3.4581146,-0.33060652,0.59460634,2.1248357,-0.36533493,-0.08354293,-0.049429063,-0.9258008,-8.8290415,7.919985,2.6839015,-0.92871374,-3.7868168,0.7331159,1
2.1299999999999986,,,,,15.454225,-2.6180577,-6.6219378,3.3843985,-0.4187277,0.67382634,2.1520338,-0.362965,-0.09999501,-0.037232444,-0.92567307,-8.794708,7.923086,2.7550774,-1.1027316,-4.044914,0.85900795,1
2.1399999999999983,,,,,15.454225,-2.6180577,-6.6219378,3.3843985,-0.5064993,0.7530478,2.179884,-0.35999644,-0.117255434,-0.023725418,-0.9252514,-8.759164,7.920306,2.8143196,-1.2681377,-4.2795486,0.97660637,1
2.149999999999998,,,,,15.454225,-2.6180577,-6.6219378,3.3843985,-0.5939012,0.83221203,2.2083068,-0.35642907,-0.13523807,-0.008943178,-0.9244395,-8.720778,7.9115915,2.8696005,-1.438761,-4.508654,1.0912087,1
2.159999999999998,,,,,15.454225,-2.6180577,-6.6219378,3.3843985,-0.6809053,0.91125876,2.2372615,-0.3522554,-0.15388478,0.0071220296,-0.9231382,-8.679598,7.8967786,2.9206772,-1.6127865,-4.7320867,1.2028745,1
2.1699999999999977,,,,,14.760815,-2.9934711,-6.7420635,4.097441,-0.7674818,0.99012524,2.2667117,-0.3474647,-0.17311291,0.024413247,-0.921251,-8.63514,7.875479,2.96903,-1.7690599,-4.9300623,1.3099225,1
