time-since-start [s],throttle_mpc,roll_mpc,pitch_mpc,yaw_mpc,throttle_nw,roll_nw,pitch_nw,yaw_nw,position_x [m],position_y [m],position_z [m],rotation_w [quaternion],rotation_x [quaternion],rotation_y [quaternion],rotation_z [quaternion],velocity_x [m/s],velocity_y [m/s],velocity_z [m/s],omega_x [rad/s],omega_y [rad/s],omega_z [rad/s],network_used
0.0,8.019556818739522,5.99997253044697,-5.999999978121251,-5.999999515297406,65.779625,698.08844,11.76797,-2272.9822,20.112762,-8.386233,1.9987928,-0.22254972,-0.46882477,0.36461872,0.7731288,-9.608006,-6.707891,-0.7064802,1.569262,-0.22384872,-0.037498042,0
0.01,8.019556818739522,5.99997253044697,-5.999999978121251,-5.999999515297406,136.0589,240.43004,-309.15036,-3204.1465,20.01633,-8.453163,1.9913546,-0.17407392,-0.46261567,0.37992498,0.78188366,-9.678258,-6.677051,-0.78131634,5.9999723,-6.0,-5.9999995,0
0.02,8.019556818739522,5.99997253044697,-5.999999978121251,-5.999999515297406,136.0589,240.43004,-309.15036,-3204.1465,19.919209,-8.519753,1.9831637,-0.12512824,-0.4551578,0.39420572,0.78852785,-9.745748,-6.640052,-0.85696906,5.9999723,-6.0,-5.9999995,0
0.03,8.019556818739522,5.99997253044697,-5.999999978121251,-5.999999515297406,136.0589,240.43004,-309.15036,-3204.1465,19.821426,-8.585944,1.9742132,-0.07584479,-0.44647124,0.4074223,0.79304355,-9.80987,-6.5971766,-0.9332105,5.9999723,-6.0,-5.9999995,0
0.04,8.019556818739522,5.99997253044697,-5.999999978121251,-5.999999515297406,82.021095,93.27602,-233.59557,-2070.3777,19.723024,-8.651678,1.9644984,-0.026356606,-0.43657953,0.41953912,0.7954185,-9.870053,-6.5487695,-1.0098064,5.9999723,-6.0,-5.9999995,0
0.05,8.019556818739522,5.99997253044697,-5.999999978121251,-5.999999515297406,82.021095,93.27602,-233.59557,-2070.3777,19.624043,-8.716902,1.9540168,0.023202725,-0.4255093,0.43052343,0.7956463,-9.925773,-6.495238,-1.086519,5.9999723,-6.0,-5.9999995,0
0.060000000000000005,8.019556818739522,5.99997253044697,-5.999999978121251,-5.999999515297406,82.021095,93.27602,-233.59557,-2070.3777,19.524527,-8.781567,1.9427685,0.07269943,-0.4132905,0.4403456,0.7937264,-9.976547,-6.4370403,-1.1631086,5.9999723,-6.0,-5.9999995,0
0.07,8.019556818739522,5.99997253044697,-5.999999978121251,-5.999999515297406,82.021095,93.27602,-233.59557,-2070.3777,19.42453,-8.845628,1.930756,0.12199988,-0.39995602,0.44897908,0.78966385,-10.021953,-6.374688,-1.2393377,5.9999723,-6.0,-5.9999995,0
0.08,17.2288773202959,5.999997407831231,-5.999999944488942,-3.802722533445422,17.116138,-1.2108257,-2.7456017,-0.88469815,19.324108,-8.909048,1.9179839,0.170971,-0.38554192,0.45640063,0.78346974,-10.06162,-6.3087373,-1.3149719,5.9999723,-6.0,-5.9999995,0
0.09,17.2288773202959,5.999997407831231,-5.999999944488942,-3.802722533445422,17.116138,-1.2108257,-2.7456017,-0.88469815,19.22312,-8.971399,1.904592,0.21092667,-0.3651771,0.46694788,0.77724856,-10.133856,-6.160586,-1.3630738,5.9999976,-6.0,-3.8027225,0
0.09999999999999999,17.2288773202959,5.999997407831231,-5.999999944488942,-3.802722533445422,17.116138,-1.2108257,-2.7456017,-0.88469815,19.121477,-9.032242,1.8907291,0.2504265,-0.34402308,0.476486,0.7693476,-10.192583,-6.0072336,-1.4092035,5.9999976,-6.0,-3.8027225,0
0.10999999999999999,17.2288773202959,5.999997407831231,-5.999999944488942,-3.802722533445422,17.116138,-1.2108257,-2.7456017,-0.88469815,19.019316,-9.09153,1.8764153,0.2893851,-0.32212558,0.48499435,0.759784,-10.237395,-5.849968,-1.453211,5.9999976,-6.0,-3.8027225,0
0.11999999999999998,17.2288773202959,5.999997407831231,-5.999999944488942,-3.802722533445422,17.116138,-1.2108257,-2.7456017,-0.88469815,18.91678,-9.149232,1.8616724,0.32771832,-0.29953197,0.4924546,0.74857837,-10.268009,-5.6901097,-1.4949646,5.9999976,-6.0,-3.8027225,0
0.12999999999999998,20.999999425404745,2.8866994472296605,-5.999999786533113,0.9405478524202545,18.246487,-1.7345445,-2.0671546,-0.48546728,18.814007,-9.205328,1.846524,0.36534327,-0.276291,0.49885058,0.735755,-10.284262,-5.5290027,-1.5343521,5.9999976,-6.0,-3.8027225,0
0.13999999999999999,20.999999425404745,2.8866994472296605,-5.999999786533113,0.9405478524202545,18.246487,-1.7345445,-2.0671546,-0.48546728,18.711134,-9.259639,1.8310641,0.3806272,-0.24644868,0.499527,0.73814535,-10.288493,-5.333247,-1.5566458,2.8866994,-6.0,0.9405478,0
0.15,20.999999425404745,2.8866994472296605,-5.999999786533113,0.9405478524202545,18.246487,-1.7345445,-2.0671546,-0.48546728,18.60828,-9.312002,1.8154122,0.39548084,-0.21632776,0.49963883,0.7397013,-10.280418,-5.140086,-1.5728419,2.8866994,-6.0,0.9405478,0
0.16,20.999999592634968,0.47098278296586515,-5.931803636919198,2.3690115467798627,19.264723,-2.7796328,-1.7020901,-0.24772035,18.50557,-9.362452,1.7996267,0.4098875,-0.1859623,0.49918586,0.7404211,-10.260011,-4.950332,-1.583411,2.8866994,-6.0,0.9405478,0
0.17,20.999999592634968,0.47098278296586515,-5.931803636919198,2.3690115467798627,19.264723,-2.7796328,-1.7020901,-0.24772035,18.403118,-9.411024,1.7837647,0.4161492,-0.15703359,0.49072084,0.749235,-10.228819,-4.765055,-1.5877701,0.4709828,-5.9318037,2.3690116,0
0.18000000000000002,20.999999592634968,0.47098278296586515,-5.931803636919198,2.3690115467798627,19.264723,-2.7796328,-1.7020901,-0.24772035,18.301022,-9.457771,1.767897,0.4219842,-0.12794384,0.48175263,0.7572806,-10.189344,-4.585381,-1.5846434,0.4709828,-5.9318037,2.3690116,0
0.19000000000000003,20.999999592634968,0.47098278296586515,-5.931803636919198,2.3690115467798627,19.264723,-2.7796328,-1.7020901,-0.24772035,18.199362,-9.502753,1.7520956,0.42738646,-0.098722905,0.47229046,0.7645496,-10.141513,-4.411883,-1.5745839,0.4709828,-5.9318037,2.3690116,0
0.20000000000000004,20.999999294952662,-0.1296304166051573,-2.635697762430023,2.030164900491598,18.379204,-3.0229857,-0.20922497,0.47163197,18.09822,-9.546033,1.7364272,0.4323505,-0.069400735,0.4623439,0.77103466,-10.085285,-4.245109,-1.5581733,0.4709828,-5.9318037,2.3690116,0
0.21000000000000005,20.999999294952662,-0.1296304166051573,-2.635697762430023,2.030164900491598,18.379204,-3.0229857,-0.20922497,0.47163197,17.997679,-9.587675,1.7209492,0.430512,-0.054817777,0.45678708,0.77653056,-10.0225935,-4.084065,-1.5369743,-0.12963042,-2.6356978,2.030165,0
0.22000000000000006,20.999999294952662,-0.1296304166051573,-2.635697762430023,2.030164900491598,18.379204,-3.0229857,-0.20922497,0.47163197,17.897781,-9.627725,1.7056975,0.42855427,-0.04021963,0.4511037,0.78181124,-9.956654,-3.9264905,-1.5129277,-0.12963042,-2.6356978,2.030165,0
0.23000000000000007,20.999999294952662,-0.1296304166051573,-2.635697762430023,2.030164900491598,18.379204,-3.0229857,-0.20922497,0.47163197,17.79856,-9.666217,1.6906999,0.42647773,-0.025610337,0.44529527,0.78687525,-9.887426,-3.7724745,-1.4861907,-0.12963042,-2.6356978,2.030165,0
0.24000000000000007,20.999999294952662,-0.1296304166051573,-2.635697762430023,2.030164900491598,17.396147,-2.8474715,2.6043522,0.21286917,17.700045,-9.703187,1.6759825,0.42428303,-0.0109939445,0.43936342,0.79172117,-9.814879,-3.6221018,-1.4569236,-0.12963042,-2.6356978,2.030165,0
0.25000000000000006,20.999999294952662,-0.1296304166051573,-2.635697762430023,2.030164900491598,17.396147,-2.8474715,2.6043522,0.21286917,17.602272,-9.738672,1.6615697,0.42197073,0.003625494,0.43330985,0.79634774,-9.738979,-3.475453,-1.4252893,-0.12963042,-2.6356978,2.030165,0
0.26000000000000006,20.999999294952662,-0.1296304166051573,-2.635697762430023,2.030164900491598,17.396147,-2.8474715,2.6043522,0.21286917,17.505276,-9.77271,1.6474843,0.4195415,0.018243928,0.42713618,0.8007536,-9.659701,-3.332605,-1.3914535,-0.12963042,-2.6356978,2.030165,0
0.2700000000000001,20.999999294952662,-0.1296304166051573,-2.635697762430023,2.030164900491598,17.396147,-2.8474715,2.6043522,0.21286917,17.409088,-9.805337,1.6337476,0.416996,0.032857306,0.42084417,0.8049376,-9.577023,-3.19363,-1.3555841,-0.12963042,-2.6356978,2.030165,0
0.2800000000000001,20.99999725429263,-1.1289726773754156,0.9466476645731953,1.5660485356651233,17.660332,-2.5868015,3.633414,0.1343483,17.313745,-9.836596,1.620379,0.41433492,0.04746158,0.41443554,0.8088985,-9.490922,-3.0585966,-1.3178518,-0.12963042,-2.6356978,2.030165,0
0.2900000000000001,20.99999725429263,-1.1289726773754156,0.9466476645731953,1.5660485356651233,17.660332,-2.5868015,3.633414,0.1343483,17.219275,-9.866518,1.6073958,0.40628356,0.044536453,0.41143504,0.8146601,-9.403726,-2.9258132,-1.2786033,-1.1289726,0.94664764,1.5660485,0
0.3000000000000001,20.99999725429263,-1.1289726773754156,0.9466476645731953,1.5660485356651233,17.660332,-2.5868015,3.633414,0.1343483,17.12566,-9.895109,1.594811,0.39818522,0.041606177,0.40838698,0.8203274,-9.319334,-2.7924182,-1.2382003,-1.1289726,0.94664764,1.5660485,0
0.3100000000000001,20.99999725429263,-1.1289726773754156,0.9466476645731953,1.5660485356651233,17.660332,-2.5868015,3.633414,0.1343483,17.032877,-9.922364,1.5826359,0.39004087,0.03867109,0.4052917,0.82589996,-9.237759,-2.6584773,-1.1966413,-1.1289726,0.94664764,1.5660485,0
0.3200000000000001,20.83414250387957,-1.2291440421271722,3.287765447649572,1.2866052770757839,17.675224,-2.9053836,6.3223205,0.017358959,16.940895,-9.948277,1.5708821,0.38185146,0.035731535,0.4021496,0.8313771,-9.159013,-2.5240557,-1.1539252,-1.1289726,0.94664764,1.5660485,0
0.3300000000000001,20.83414250387957,-1.2291440421271722,3.287765447649572,1.2866052770757839,17.675224,-2.9053836,6.3223205,0.017358959,16.84968,-9.972847,1.5595543,0.3700459,0.022299498,0.4030172,0.83674693,-9.085056,-2.3891172,-1.1115828,-1.2291441,3.2877655,1.2866052,0
0.34000000000000014,20.83414250387957,-1.2291440421271722,3.287765447649572,1.2866052770757839,17.675224,-2.9053836,6.3223205,0.017358959,16.75917,-9.996049,1.54865,0.35811105,0.008859668,0.40374398,0.84182435,-9.017591,-2.2508137,-1.0692455,-1.2291441,3.2877655,1.2866052,0
0.35000000000000014,20.83414250387957,-1.2291440421271722,3.287765447649572,1.2866052770757839,17.675224,-2.9053836,6.3223205,0.017358959,16.669304,-10.017851,1.5381688,0.34605113,-0.0045832573,0.40432975,0.8466077,-8.956731,-2.109372,-1.0270168,-1.2291441,3.2877655,1.2866052,0
0.36000000000000015,19.581022982742162,-1.4295349023817459,4.671858440535161,0.8834592277937968,17.215204,-2.281795,5.8511944,-0.0126903355,16.580015,-10.038225,1.5281088,0.33387026,-0.018024582,0.40477422,0.8510952,-8.9025755,-1.9650233,-0.9850001,-1.2291441,3.2877655,1.2866052,0
0.37000000000000016,19.581022982742162,-1.4295349023817459,4.671858440535161,0.8834592277937968,17.215204,-2.281795,5.8511944,-0.0126903355,16.491215,-10.057185,1.518425,0.32042515,-0.038496297,0.40644455,0.85477954,-8.858949,-1.8263664,-0.95193034,-1.4295349,4.6718583,0.8834592,0
0.38000000000000017,19.581022982742162,-1.4295349023817459,4.671858440535161,0.8834592277937968,17.215204,-2.281795,5.8511944,-0.0126903355,16.402807,-10.074741,1.5090667,0.30678257,-0.05894429,0.40786442,0.8579371,-8.824169,-1.6842368,-0.91993815,-1.4295349,4.6718583,0.8834592,0
0.3900000000000002,19.581022982742162,-1.4295349023817459,4.671858440535161,0.8834592277937968,17.215204,-2.281795,5.8511944,-0.0126903355,16.314701,-10.090859,1.5000218,0.292951,-0.079355955,0.40903297,0.86056596,-8.798346,-1.5390239,-0.8892717,-1.4295349,4.6718583,0.8834592,0
0.4000000000000002,18.717753332885447,-1.0969267583707347,2.352583619531906,0.5908444385389339,16.899971,-2.1060333,4.9795113,-0.2442664,16.226809,-10.105513,1.4912759,0.27893886,-0.09971872,0.40994948,0.8626646,-8.781567,-1.3911247,-0.8601758,-1.4295349,4.6718583,0.8834592,0
0.4100000000000002,18.717753332885447,-1.0969267583707347,2.352583619531906,0.5908444385389339,16.899971,-2.1060333,4.9795113,-0.2442664,16.139042,-10.11871,1.4827859,0.27099675,-0.11017582,0.4087575,0.86448765,-8.7727585,-1.2480657,-0.8379009,-1.0969268,2.3525836,0.59084445,0
0.4200000000000002,18.717753332885447,-1.0969267583707347,2.352583619531906,0.5908444385389339,16.899971,-2.1060333,4.9795113,-0.2442664,16.051336,-10.130472,1.4745164,0.26300663,-0.12061341,0.4074931,0.86615753,-8.768745,-1.1043913,-0.8161045,-1.0969268,2.3525836,0.59084445,0
0.4300000000000002,18.717753332885447,-1.0969267583707347,2.352583619531906,0.5908444385389339,16.899971,-2.1060333,4.9795113,-0.2442664,15.963649,-10.140795,1.4664621,0.25496992,-0.13102962,0.40615654,0.867674,-8.769535,-0.9602164,-0.7948456,-1.0969268,2.3525836,0.59084445,0
0.4400000000000002,18.717753332885447,-1.0969267583707347,2.352583619531906,0.5908444385389339,16.584764,-2.0750253,3.6989708,-0.25129443,15.875929,-10.149674,1.4586176,0.246888,-0.14142263,0.404748,0.8690366,-8.77513,-0.81565624,-0.7741827,-1.0969268,2.3525836,0.59084445,0
0.45000000000000023,18.717753332885447,-1.0969267583707347,2.352583619531906,0.5908444385389339,16.584764,-2.0750253,3.6989708,-0.25129443,15.78813,-10.157107,1.4509763,0.23876238,-0.15179059,0.40326777,0.8702453,-8.785533,-0.67082644,-0.75417393,-1.0969268,2.3525836,0.59084445,0
0.46000000000000024,18.717753332885447,-1.0969267583707347,2.352583619531906,0.5908444385389339,16.584764,-2.0750253,3.6989708,-0.25129443,15.700203,-10.163091,1.4435315,0.23059444,-0.16213164,0.40171608,0.8712998,-8.800739,-0.5258426,-0.73487705,-1.0969268,2.3525836,0.59084445,0
0.47000000000000025,18.717753332885447,-1.0969267583707347,2.352583619531906,0.5908444385389339,16.584764,-2.0750253,3.6989708,-0.25129443,15.612099,-10.167624,1.436276,0.22238567,-0.17244397,0.40009323,0.87219983,-8.820743,-0.38082057,-0.7163492,-1.0969268,2.3525836,0.59084445,0
0.48000000000000026,18.500093014781903,-0.952427441222927,2.578310349053478,0.3389704788258739,15.957486,-2.4514642,3.5426102,-0.46303782,15.523771,-10.170709,1.4292016,0.2141375,-0.18272576,0.39839947,0.87294537,-8.845531,-0.23587626,-0.698647,-1.0969268,2.3525836,0.59084445,0
0.49000000000000027,18.500093014781903,-0.952427441222927,2.578310349053478,0.3389704788258739,15.957486,-2.4514642,3.5426102,-0.46303782,15.435173,-10.172352,1.4222928,0.20663156,-0.19430602,0.3972745,0.8727662,-8.874831,-0.09271419,-0.68330336,-0.95242745,2.5783103,0.33897048,0
0.5000000000000002,18.500093014781903,-0.952427441222927,2.578310349053478,0.3389704788258739,15.957486,-2.4514642,3.5426102,-0.46303782,15.346258,-10.172564,1.415531,0.19908598,-0.20584902,0.39607334,0.8724197,-8.909042,0.05039143,-0.6692712,-0.95242745,2.5783103,0.33897048,0
0.5100000000000002,18.500093014781903,-0.952427441222927,2.578310349053478,0.3389704788258739,15.957486,-2.4514642,3.5426102,-0.46303782,15.256975,-10.171345,1.4089026,0.19150224,-0.21735254,0.3947962,0.8719059,-8.948144,0.19332157,-0.6566222,-0.95242745,2.5783103,0.33897048,0
0.5200000000000002,17.642891777152876,-0.6429376737447703,0.9913859526471558,0.17659004715978727,16.007902,-2.407789,2.768867,-0.68096507,15.167277,-10.168697,1.4023936,0.18388177,-0.2288144,0.3934434,0.871225,-8.992109,0.33595735,-0.6454271,-0.95242745,2.5783103,0.33897048,0
0.5300000000000002,17.642891777152876,-0.6429376737447703,0.9913859526471558,0.17659004715978727,16.007902,-2.407789,2.768867,-0.68096507,15.07713,-10.1646595,1.3959651,0.18042344,-0.23337261,0.3917492,0.8715024,-9.037679,0.4715804,-0.64029586,-0.64293766,0.99138594,0.17659004,0
0.5400000000000003,17.642891777152876,-0.6429376737447703,0.9913859526471558,0.17659004715978727,16.007902,-2.407789,2.768867,-0.68096507,14.986517,-10.159267,1.3895866,0.17695865,-0.2379225,0.39004102,0.8717487,-9.085258,0.60672396,-0.6354429,-0.64293766,0.99138594,0.17659004,0
0.5500000000000003,17.642891777152876,-0.6429376737447703,0.9913859526471558,0.17659004715978727,16.007902,-2.407789,2.768867,-0.68096507,14.895418,-10.152527,1.3832551,0.17348754,-0.2424639,0.3883189,0.87196386,-9.134839,0.7413671,-0.63087964,-0.64293766,0.99138594,0.17659004,0
0.5600000000000003,17.838943207067512,-0.3102674314642872,-0.10175124375047341,0.01585827784840297,16.604836,-1.6850283,1.7611448,-0.59067976,14.803814,-10.1444435,1.3769679,0.17001025,-0.24699666,0.3865829,0.8721479,-9.186416,0.8754887,-0.62661743,-0.64293766,0.99138594,0.17659004,0
0.5700000000000003,17.838943207067512,-0.3102674314642872,-0.10175124375047341,0.01585827784840297,16.604836,-1.6850283,1.7611448,-0.59067976,14.711683,-10.135013,1.3707283,0.16975437,-0.2467857,0.3851625,0.8728856,-9.239868,1.0106204,-0.6212527,-0.31026742,-0.101751246,0.015858278,0
0.5800000000000003,17.838943207067512,-0.3102674314642872,-0.10175124375047341,0.01585827784840297,16.604836,-1.6850283,1.7611448,-0.59067976,14.619018,-10.124233,1.3645443,0.16949803,-0.24657409,0.38374105,0.873621,-9.293442,1.1453755,-0.61546016,-0.31026742,-0.101751246,0.015858278,0
0.5900000000000003,17.838943207067512,-0.3102674314642872,-0.10175124375047341,0.01585827784840297,16.604836,-1.6850283,1.7611448,-0.59067976,14.525815,-10.112106,1.3584205,0.16924125,-0.24636182,0.38231856,0.874354,-9.347135,1.2797527,-0.6092409,-0.31026742,-0.101751246,0.015858278,0
0.6000000000000003,17.474094818831222,-0.15539558976520243,-0.8899312158092952,-0.06863852461606199,16.140148,-1.5738945,0.84598994,-0.6317476,14.432075,-10.098639,1.352361,0.168984,-0.2461489,0.38089508,0.8750847,-9.400947,1.4137508,-0.60259587,-0.31026742,-0.101751246,0.015858278,0
0.6100000000000003,17.474094818831222,-0.15539558976520243,-0.8899312158092952,-0.06863852461606199,16.140148,-1.5738945,0.84598994,-0.6317476,14.337803,-10.083846,1.34636,0.17078619,-0.2425146,0.37937486,0.876409,-9.4533,1.5446444,-0.59744817,-0.15539558,-0.8899312,-0.068638526,0
0.6200000000000003,17.474094818831222,-0.15539558976520243,-0.8899312158092952,-0.06863852461606199,16.140148,-1.5738945,0.84598994,-0.6317476,14.243013,-10.067746,1.3404156,0.17258486,-0.2388753,0.37784687,0.87771523,-9.504505,1.6751826,-0.5912788,-0.15539558,-0.8899312,-0.068638526,0
0.6300000000000003,17.474094818831222,-0.15539558976520243,-0.8899312158092952,-0.06863852461606199,16.140148,-1.5738945,0.84598994,-0.6317476,14.147717,-10.0503435,1.334538,0.17438,-0.2352311,0.3763111,0.8790035,-9.554556,1.8053538,-0.5840959,-0.15539558,-0.8899312,-0.068638526,0
0.6400000000000003,17.474094818831222,-0.15539558976520243,-0.8899312158092952,-0.06863852461606199,15.610727,-1.4106758,0.16953222,-0.69676805,14.051927,-10.031642,1.3287373,0.17617157,-0.23158206,0.3747676,0.8802737,-9.603449,1.935147,-0.5759074,-0.15539558,-0.8899312,-0.068638526,0
0.6500000000000004,17.474094818831222,-0.15539558976520243,-0.8899312158092952,-0.06863852461606199,15.610727,-1.4106758,0.16953222,-0.69676805,13.955653,-10.011643,1.3230232,0.17795952,-0.22792828,0.37321645,0.88152575,-9.651182,2.0645509,-0.5667215,-0.15539558,-0.8899312,-0.068638526,0
0.6600000000000004,17.474094818831222,-0.15539558976520243,-0.8899312158092952,-0.06863852461606199,15.610727,-1.4106758,0.16953222,-0.69676805,13.858908,-9.990353,1.3174062,0.17974381,-0.22426984,0.37165767,0.88275987,-9.697754,2.1935542,-0.55654645,-0.15539558,-0.8899312,-0.068638526,0
0.6700000000000004,17.474094818831222,-0.15539558976520243,-0.8899312158092952,-0.06863852461606199,15.610727,-1.4106758,0.16953222,-0.69676805,13.761703,-9.967774,1.3118957,0.18152441,-0.22060677,0.37009126,0.8839759,-9.743158,2.3221457,-0.5453906,-0.15539558,-0.8899312,-0.068638526,0
0.6800000000000004,17.264166092400785,-0.09115356920442523,-0.9331237840286003,-0.13426358172802325,15.077023,-1.3590944,-0.22958735,-0.7991396,13.664048,-9.943913,1.3065016,0.18330128,-0.21693918,0.36851722,0.8851737,-9.787394,2.4503143,-0.5332624,-0.15539558,-0.8899312,-0.068638526,0
0.6900000000000004,17.264166092400785,-0.09115356920442523,-0.9331237840286003,-0.13426358172802325,15.077023,-1.3590944,-0.22958735,-0.7991396,13.565961,-9.918778,1.3012271,0.18551394,-0.2131378,0.3671088,0.8862208,-9.829896,2.5765364,-0.5215153,-0.09115357,-0.93312377,-0.13426358,0
0.7000000000000004,17.264166092400785,-0.09115356920442523,-0.9331237840286003,-0.13426358172802325,15.077023,-1.3590944,-0.22958735,-0.7991396,13.467456,-9.892383,1.2960746,0.18772244,-0.20933165,0.36569214,0.88724804,-9.871121,2.7023787,-0.50884926,-0.09115357,-0.93312377,-0.13426358,0
0.7100000000000004,17.264166092400785,-0.09115356920442523,-0.9331237840286003,-0.13426358172802325,15.077023,-1.3590944,-0.22958735,-0.7991396,13.368545,-9.864731,1.2910533,0.18992673,-0.2055208,0.3642673,0.8882554,-9.911068,2.8278284,-0.49527276,-0.09115357,-0.93312377,-0.13426358,0
0.7200000000000004,16.85080723142427,-0.04659807637750772,-1.1556852511606375,-0.189073752815831,14.692666,-1.1958449,-0.41102257,-0.82295907,13.269239,-9.835827,1.2861722,0.19212674,-0.20170535,0.36283427,0.8892428,-9.949733,2.952873,-0.48079455,-0.09115357,-0.93312377,-0.13426358,0
0.7300000000000004,16.85080723142427,-0.04659807637750772,-1.1556852511606375,-0.189073752815831,14.692666,-1.1958449,-0.41102257,-0.82295907,13.169559,-9.80569,1.2814269,0.19501369,-0.19695127,0.36131996,0.8902959,-9.986086,3.0745065,-0.46808663,-0.046598077,-1.1556853,-0.18907376,0
0.7400000000000004,16.85080723142427,-0.04659807637750772,-1.1556852511606375,-0.189073752815831,14.692666,-1.1958449,-0.41102257,-0.82295907,13.069522,-9.774339,1.2768137,0.19789395,-0.19219041,0.35979325,0.8913185,-10.020829,3.1956913,-0.4543752,-0.046598077,-1.1556853,-0.18907376,0
0.7500000000000004,16.85080723142427,-0.04659807637750772,-1.1556852511606375,-0.189073752815831,14.692666,-1.1958449,-0.41102257,-0.82295907,12.969147,-9.741778,1.2723428,0.20076743,-0.18742298,0.3582542,0.89231056,-10.05396,3.3164089,-0.43967327,-0.046598077,-1.1556853,-0.18907376,0
0.7600000000000005,16.536971959618874,-0.05683936190214794,-1.1762413414491337,-0.2303767289770361,14.2243805,-0.9777817,-0.6357981,-0.82646644,12.868449,-9.708013,1.2680237,0.20363401,-0.1826491,0.35670283,0.89327186,-10.085477,3.4366405,-0.4239939,-0.046598077,-1.1556853,-0.18907376,0
0.7700000000000005,16.536971959618874,-0.05683936190214794,-1.1762413414491337,-0.2303767289770361,14.2243805,-0.9777817,-0.6357981,-0.82646644,12.7674465,-9.673057,1.2638556,0.20670523,-0.1778611,0.35503456,0.8941968,-10.114812,3.5541303,-0.40947774,-0.05683936,-1.1762414,-0.23037674,0
0.7800000000000005,16.536971959618874,-0.05683936190214794,-1.1762413414491337,-0.2303767289770361,14.2243805,-0.9777817,-0.6357981,-0.82646644,12.666159,-9.63693,1.2598374,0.20976898,-0.17306668,0.3533535,0.89508957,-10.142537,3.671087,-0.39400294,-0.05683936,-1.1762414,-0.23037674,0
0.7900000000000005,16.536971959618874,-0.05683936190214794,-1.1762413414491337,-0.2303767289770361,14.2243805,-0.9777817,-0.6357981,-0.82646644,12.564602,-9.599637,1.2559787,0.2128252,-0.16826601,0.35165972,0.8959501,-10.168653,3.7874913,-0.37758285,-0.05683936,-1.1762414,-0.23037674,0
0.8000000000000005,16.20037601894454,-0.10423890934380468,-1.1666862300062864,-0.2579265123335245,13.976518,-0.9085527,-0.69980276,-0.82195485,12.462791,-9.561182,1.2522889,0.21587373,-0.16345929,0.3499533,0.89677835,-10.193156,3.903324,-0.36023092,-0.05683936,-1.1762414,-0.23037674,0
0.8100000000000005,16.20037601894454,-0.10423890934380468,-1.1666862300062864,-0.2579265123335245,13.976518,-0.9085527,-0.69980276,-0.82195485,12.360747,-9.521585,1.2487655,0.21898258,-0.15878892,0.34800953,0.8976197,-10.215602,4.016203,-0.34431592,-0.10423891,-1.1666862,-0.25792652,0
0.8200000000000005,16.20037601894454,-0.10423890934380468,-1.1666862300062864,-0.2579265123335245,13.976518,-0.9085527,-0.69980276,-0.82195485,12.258485,-9.480862,1.2454057,0.22208355,-0.15411283,0.34605324,0.89842886,-10.236518,4.1284385,-0.32747862,-0.10423891,-1.1666862,-0.25792652,0
0.8300000000000005,16.20037601894454,-0.10423890934380468,-1.1666862300062864,-0.2579265123335245,13.976518,-0.9085527,-0.69980276,-0.82195485,12.156021,-9.43902,1.242219,0.22517654,-0.14943121,0.3440845,0.8992056,-10.255905,4.2400117,-0.3097323,-0.10423891,-1.1666862,-0.25792652,0
0.8400000000000005,16.20037601894454,-0.10423890934380468,-1.1666862300062864,-0.2579265123335245,13.702901,-0.8467507,-0.8902687,-0.88304555,12.053372,-9.396066,1.2392142,0.22826143,-0.1447442,0.3421034,0.8999501,-10.273766,4.3509045,-0.29109034,-0.10423891,-1.1666862,-0.25792652,0
0.8500000000000005,16.20037601894454,-0.10423890934380468,-1.1666862300062864,-0.2579265123335245,13.702901,-0.8467507,-0.8902687,-0.88304555,11.950551,-9.352006,1.2364002,0.2313381,-0.14005199,0.34011,0.90066224,-10.290096,4.461098,-0.2715663,-0.10423891,-1.1666862,-0.25792652,0
0.8600000000000005,16.20037601894454,-0.10423890934380468,-1.1666862300062864,-0.2579265123335245,13.702901,-0.8467507,-0.8902687,-0.88304555,11.847574,-9.306848,1.2337857,0.23440646,-0.13535473,0.33810437,0.901342,-10.304901,4.5705757,-0.25117376,-0.10423891,-1.1666862,-0.25792652,0
0.8700000000000006,16.20037601894454,-0.10423890934380468,-1.1666862300062864,-0.2579265123335245,13.702901,-0.8467507,-0.8902687,-0.88304555,11.744458,-9.260597,1.2313796,0.23746638,-0.1306526,0.33608657,0.9019893,-10.31818,4.679318,-0.22992653,-0.10423891,-1.1666862,-0.25792652,0
0.8800000000000006,15.90361026903692,-0.17086368742436275,-0.9631639908167029,-0.2740782778020057,13.680968,-0.80167276,-0.9662038,-0.909997,11.641216,-9.2132635,1.2291902,0.24051778,-0.12594579,0.33405668,0.90260416,-10.329933,4.7873073,-0.20783849,-0.10423891,-1.1666862,-0.25792652,0
0.8900000000000006,15.90361026903692,-0.17086368742436275,-0.9631639908167029,-0.2740782778020057,13.680968,-0.80167276,-0.9662038,-0.909997,11.537865,-9.164865,1.2272147,0.24325274,-0.12226067,0.33195037,0.9031548,-10.340098,4.892578,-0.18716551,-0.17086369,-0.963164,-0.27407828,0
0.9000000000000006,15.90361026903692,-0.17086368742436275,-0.9631639908167029,-0.2740782778020057,13.680968,-0.80167276,-0.9662038,-0.909997,11.434418,-9.115416,1.2254496,0.24598143,-0.11857239,0.32983547,0.9036822,-10.349101,4.997122,-0.16575894,-0.17086369,-0.963164,-0.27407828,0
0.9100000000000006,15.90361026903692,-0.17086368742436275,-0.9631639908167029,-0.2740782778020057,13.680968,-0.80167276,-0.9662038,-0.909997,11.330886,-9.064924,1.223902,0.24870376,-0.11488106,0.32771212,0.9041862,-10.35694,5.100927,-0.14362821,-0.17086369,-0.963164,-0.27407828,0
0.9200000000000006,15.546862749152197,-0.27878938351445287,-0.8693876158841632,-0.28885193277178123,13.6174345,-0.75182384,-1.0298522,-0.9296911,11.227283,-9.013399,1.2225794,0.2514197,-0.111186765,0.32558027,0.90466696,-10.363621,5.2039795,-0.12078287,-0.17086369,-0.963164,-0.27407828,0
0.9300000000000006,15.546862749152197,-0.27878938351445287,-0.8693876158841632,-0.28885193277178123,13.6174345,-0.75182384,-1.0298522,-0.9296911,11.123618,-8.960859,1.2214751,0.25398365,-0.10807366,0.323062,0.90523064,-10.3691,5.303953,-0.09994764,-0.27878937,-0.8693876,-0.28885195,0
0.9400000000000006,15.546862749152197,-0.27878938351445287,-0.8693876158841632,-0.28885193277178123,13.6174345,-0.75182384,-1.0298522,-0.9296911,11.019902,-8.907322,1.220583,0.2565418,-0.10495808,0.32053632,0.9057736,-10.373662,5.403114,-0.078395374,-0.27878937,-0.8693876,-0.28885195,0
0.9500000000000006,15.546862749152197,-0.27878938351445287,-0.8693876158841632,-0.28885193277178123,13.6174345,-0.75182384,-1.0298522,-0.9296911,10.916147,-8.852798,1.2199098,0.25909406,-0.101840094,0.3180033,0.9062957,-10.377312,5.5014515,-0.05613445,-0.27878937,-0.8693876,-0.28885195,0
0.9600000000000006,15.189927509745406,-0.35363687299207897,-0.7230742490215969,-0.29670001807896135,13.7009115,-0.7045408,-1.0041689,-0.92113185,10.81236,-8.797296,1.2194626,0.26164037,-0.09871977,0.31546298,0.9067971,-10.380051,5.598955,-0.033173285,-0.27878937,-0.8693876,-0.28885195,0
0.9700000000000006,15.189927509745406,-0.35363687299207897,-0.7230742490215969,-0.29670001807896135,13.7009115,-0.7045408,-1.0041689,-0.92113185,10.7085495,-8.740834,1.2192346,0.26394916,-0.09637107,0.31276432,0.9073153,-10.381932,5.6934023,-0.012321941,-0.35363686,-0.72307426,-0.29670003,0
0.9800000000000006,15.189927509745406,-0.35363687299207897,-0.7230742490215969,-0.29670001807896135,13.7009115,-0.7045408,-1.0041689,-0.92113185,10.604723,-8.683431,1.2192184,0.26625308,-0.09402061,0.31005993,0.9078168,-10.383178,5.7870336,0.009181185,-0.35363686,-0.72307426,-0.29670003,0
0.9900000000000007,15.189927509745406,-0.35363687299207897,-0.7230742490215969,-0.29670001807896135,13.7009115,-0.7045408,-1.0041689,-0.92113185,10.500888,-8.625095,1.2194203,0.2685521,-0.09166842,0.30734983,0.90830165,-10.383792,5.879841,0.031329483,-0.35363686,-0.72307426,-0.29670003,0
1.0000000000000007,14.840511389548142,-0.42520302337722526,-0.6208686381326791,-0.30122376354096475,13.707342,-0.66630876,-1.0907475,-0.9178517,10.397048,-8.565836,1.2198471,0.2708462,-0.08931454,0.30463406,0.9087698,-10.383776,5.971817,0.0541163,-0.35363686,-0.72307426,-0.29670003,0
1.0100000000000007,14.840511389548142,-0.42520302337722526,-0.6208686381326791,-0.30122376354096475,13.707342,-0.66630876,-1.0907475,-0.9178517,10.293213,-8.5056715,1.2204909,0.27296847,-0.08752732,0.3017242,0.90927935,-10.383219,6.060857,0.07474121,-0.42520303,-0.6208686,-0.30122375,0
1.0200000000000007,14.840511389548142,-0.42520302337722526,-0.6208686381326791,-0.30122376354096475,13.707342,-0.66630876,-1.0907475,-0.9178517,10.189385,-8.444621,1.2213441,0.27508628,-0.08573865,0.29880935,0.90977395,-10.3822365,6.1490664,0.095981374,-0.42520303,-0.6208686,-0.30122375,0
1.0300000000000007,14.840511389548142,-0.42520302337722526,-0.6208686381326791,-0.30122376354096475,13.707342,-0.66630876,-1.0907475,-0.9178517,10.08557,-8.382692,1.2224127,0.27719957,-0.08394858,0.29588962,0.9102536,-10.380835,6.23644,0.11783084,-0.42520303,-0.6208686,-0.30122375,0
1.0400000000000007,14.840511389548142,-0.42520302337722526,-0.6208686381326791,-0.30122376354096475,13.789609,-0.5698241,-1.0776244,-0.85718286,9.9817705,-8.319895,1.2237028,0.27930832,-0.082157135,0.29296505,0.9107183,-10.379015,6.3229713,0.14028357,-0.42520303,-0.6208686,-0.30122375,0
1.0500000000000007,14.840511389548142,-0.42520302337722526,-0.6208686381326791,-0.30122376354096475,13.789609,-0.5698241,-1.0776244,-0.85718286,9.877992,-8.256236,1.2252204,0.28141245,-0.08036434,0.2900356,0.9111681,-10.376781,6.408655,0.16333349,-0.42520303,-0.6208686,-0.30122375,0
1.0600000000000007,14.840511389548142,-0.42520302337722526,-0.6208686381326791,-0.30122376354096475,13.789609,-0.5698241,-1.0776244,-0.85718286,9.774237,-8.191724,1.2269716,0.28351197,-0.078570224,0.2871014,0.91160285,-10.374136,6.4934855,0.18697453,-0.42520303,-0.6208686,-0.30122375,0
1.0700000000000007,14.840511389548142,-0.42520302337722526,-0.6208686381326791,-0.30122376354096475,13.789609,-0.5698241,-1.0776244,-0.85718286,9.670511,-8.1263685,1.228962,0.28560683,-0.07677481,0.28416252,0.91202265,-10.371083,6.5774555,0.21120049,-0.42520303,-0.6208686,-0.30122375,0
1.0800000000000007,14.493635970004338,-0.4403303680703563,-0.7882476237429011,-0.2997717986193464,13.726608,-0.5053465,-1.0435563,-0.7959566,9.566817,-8.060178,1.2311976,0.28769702,-0.07497814,0.28121898,0.9124275,-10.367626,6.6605606,0.23600522,-0.42520303,-0.6208686,-0.30122375,1
1.0900000000000007,14.493635970004338,-0.4403303680703563,-0.7882476237429011,-0.2997717986193464,13.726608,-0.5053465,-1.0435563,-0.7959566,9.463159,-7.993192,1.233638,0.29259902,-0.07206159,0.27710703,0.91236174,-10.363902,6.7364883,0.25219822,-0.5053465,-1.0435563,-0.7959566,1
1.1000000000000008,14.493635970004338,-0.4403303680703563,-0.7882476237429011,-0.2997717986193464,13.726608,-0.5053465,-1.0435563,-0.7959566,9.359542,-7.9254527,1.2362441,0.29748654,-0.06914147,0.2729814,0.9122509,-10.359403,6.811242,0.26913482,-0.5053465,-1.0435563,-0.7959566,1
1.1100000000000008,14.493635970004338,-0.4403303680703563,-0.7882476237429011,-0.2997717986193464,13.726608,-0.5053465,-1.0435563,-0.7959566,9.255973,-7.8569717,1.2390232,0.30235937,-0.06621793,0.26884228,0.9120949,-10.354139,6.884807,0.28680322,-0.5053465,-1.0435563,-0.7959566,1
1.1200000000000008,14.204884720798015,-0.43645123782535356,-0.49745683381602,-0.2787527475584645,13.781763,-0.4053852,-1.0897528,-0.8133856,9.152461,-7.787761,1.2419826,0.30721724,-0.06329112,0.2646899,0.91189384,-10.348125,6.9571686,0.30519143,-0.5053465,-1.0435563,-0.7959566,1
1.1300000000000008,14.204884720798015,-0.43645123782535356,-0.49745683381602,-0.2787527475584645,13.781763,-0.4053852,-1.0897528,-0.8133856,9.049013,-7.717831,1.2451317,0.31223202,-0.060020037,0.26090357,0.91150284,-10.341292,7.0286193,0.32474202,-0.4053852,-1.0897528,-0.8133856,1
1.1400000000000008,14.204884720798015,-0.43645123782535356,-0.49745683381602,-0.2787527475584645,13.781763,-0.4053852,-1.0897528,-0.8133856,8.945637,-7.6471925,1.2484797,0.3172311,-0.056745935,0.2571041,0.91106594,-10.333595,7.09889,0.34494787,-0.4053852,-1.0897528,-0.8133856,1
1.1500000000000008,14.204884720798015,-0.43645123782535356,-0.49745683381602,-0.2787527475584645,13.781763,-0.4053852,-1.0897528,-0.8133856,8.842343,-7.575857,1.252033,0.3222142,-0.05346898,0.25329173,0.91058314,-10.325047,7.167966,0.36579713,-0.4053852,-1.0897528,-0.8133856,1
1.1600000000000008,13.908295362893805,-0.41315072481680293,-0.3106358852701564,-0.19349511131122732,13.90575,-0.2701742,-1.1777016,-0.70716643,8.73914,-7.503837,1.2557979,0.32718107,-0.05018933,0.24946658,0.91005456,-10.315658,7.2358317,0.38727772,-0.4053852,-1.0897528,-0.8133856,1
1.1700000000000008,13.908295362893805,-0.41315072481680293,-0.3106358852701564,-0.19349511131122732,13.90575,-0.2701742,-1.1777016,-0.70716643,8.636034,-7.4311414,1.259786,0.33179197,-0.04615332,0.24612708,0.90950793,-10.30527,7.3030934,0.4104408,-0.2701742,-1.1777016,-0.70716643,1
1.1800000000000008,13.908295362893805,-0.41315072481680293,-0.3106358852701564,-0.19349511131122732,13.90575,-0.2701742,-1.1777016,-0.70716643,8.533037,-7.357779,1.2640085,0.33638662,-0.04211505,0.24277551,0.9089167,-10.293846,7.3691583,0.43416724,-0.2701742,-1.1777016,-0.70716643,1
1.1900000000000008,13.908295362893805,-0.41315072481680293,-0.3106358852701564,-0.19349511131122732,13.90575,-0.2701742,-1.1777016,-0.70716643,8.43016,-7.2837625,1.2684711,0.3409648,-0.03807472,0.23941204,0.908281,-10.281397,7.434011,0.45844337,-0.2701742,-1.1777016,-0.70716643,1
1.2000000000000008,13.542663627531729,-0.43994132557409793,0.5456288176449628,-0.13646169481072867,14.074345,-0.12726596,-1.2369541,-0.64273334,8.327413,-7.209103,1.2731792,0.34552628,-0.034032516,0.23603684,0.9076008,-10.267935,7.497636,0.4832555,-0.2701742,-1.1777016,-0.70716643,0
1.2100000000000009,13.542663627531729,-0.43994132557409793,0.5456288176449628,-0.13646169481072867,14.074345,-0.12726596,-1.2369541,-0.64273334,8.224801,-7.1338205,1.2781214,0.34542453,-0.037429467,0.2349583,0.9077856,-10.254564,7.558869,0.50520575,-0.43994132,0.54562885,-0.13646169,0
1.2200000000000009,13.542663627531729,-0.43994132557409793,0.5456288176449628,-0.13646169481072867,14.074345,-0.12726596,-1.2369541,-0.64273334,8.122318,-7.0579257,1.2832835,0.34531838,-0.04082594,0.23387678,0.90795887,-10.24214,7.6201653,0.5272254,-0.43994132,0.54562885,-0.13646169,0
1.2300000000000009,13.542663627531729,-0.43994132557409793,0.5456288176449628,-0.13646169481072867,14.074345,-0.12726596,-1.2369541,-0.64273334,8.019955,-6.981417,1.2886661,0.34520784,-0.044221893,0.23279227,0.9081205,-10.230661,7.6815224,0.5493079,-0.43994132,0.54562885,-0.13646169,0
1.2400000000000009,13.542663627531729,-0.43994132557409793,0.5456288176449628,-0.13646169481072867,14.230796,-0.046936423,-1.1709005,-0.6137253,7.9177012,-6.9042945,1.2942699,0.3450929,-0.047617283,0.2317048,0.90827066,-10.220125,7.742938,0.5714468,-0.43994132,0.54562885,-0.13646169,0
1.2500000000000009,13.542663627531729,-0.43994132557409793,0.5456288176449628,-0.13646169481072867,14.230796,-0.046936423,-1.1709005,-0.6137253,7.815549,-6.8265576,1.3000953,0.34497353,-0.051012065,0.23061436,0.9084092,-10.210537,7.8044114,0.5936356,-0.43994132,0.54562885,-0.13646169,0
1.260000000000001,13.542663627531729,-0.43994132557409793,0.5456288176449628,-0.13646169481072867,14.230796,-0.046936423,-1.1709005,-0.6137253,7.713487,-6.7482057,1.3061428,0.3448498,-0.054406196,0.22952099,0.90853614,-10.201897,7.8659396,0.6158679,-0.43994132,0.54562885,-0.13646169,0
1.270000000000001,13.542663627531729,-0.43994132557409793,0.5456288176449628,-0.13646169481072867,14.230796,-0.046936423,-1.1709005,-0.6137253,7.611507,-6.669238,1.3124127,0.34472165,-0.057799637,0.2284247,0.90865153,-10.194202,7.927521,0.6381371,-0.43994132,0.54562885,-0.13646169,0
1.280000000000001,13.07115355195803,-0.3699356439163567,-0.08132567950521162,-0.1590600359568993,14.207625,0.13052163,-1.1772069,-0.54581535,7.5095997,-6.589655,1.3189056,0.3445891,-0.061192337,0.22732548,0.9087553,-10.187454,7.989155,0.6604367,-0.43994132,0.54562885,-0.13646169,0
1.290000000000001,13.07115355195803,-0.3699356439163567,-0.08132567950521162,-0.1590600359568993,14.207625,0.13052163,-1.1772069,-0.54581535,7.4077544,-6.509466,1.3256007,0.34529036,-0.061640855,0.22545533,0.90892464,-10.1816025,8.048529,0.6786376,-0.36993563,-0.08132568,-0.15906003,0
1.300000000000001,13.07115355195803,-0.3699356439163567,-0.08132567950521162,-0.1590600359568993,14.207625,0.13052163,-1.1772069,-0.54581535,7.305967,-6.4286857,1.332479,0.34599018,-0.06208911,0.22358422,0.9090901,-10.175987,8.107521,0.6970448,-0.36993563,-0.08132568,-0.15906003,0
1.310000000000001,13.07115355195803,-0.3699356439163567,-0.08132567950521162,-0.1590600359568993,14.207625,0.13052163,-1.1772069,-0.54581535,7.2042336,-6.347317,1.3395424,0.34668857,-0.062537104,0.22171216,0.90925175,-10.170609,8.166129,0.7156564,-0.36993563,-0.08132568,-0.15906003,0
1.320000000000001,12.571817850912623,-0.23922498003921444,-0.4835703723205216,-0.19593970713993009,13.758651,0.108727574,-1.4770794,-0.40288836,7.1025534,-6.2653646,1.3467929,0.3473854,-0.06298483,0.21983914,0.9094096,-10.165469,8.224355,0.73447067,-0.36993563,-0.08132568,-0.15906003,0
1.330000000000001,12.571817850912623,-0.23922498003921444,-0.4835703723205216,-0.19593970713993009,13.758651,0.108727574,-1.4770794,-0.40288836,7.000923,-6.1828427,1.3542103,0.34873116,-0.06141665,0.21784884,0.90948075,-10.160573,8.279912,0.7490404,-0.23922499,-0.48357037,-0.1959397,0
1.340000000000001,12.571817850912623,-0.23922498003921444,-0.4835703723205216,-0.19593970713993009,13.758651,0.108727574,-1.4770794,-0.40288836,6.899343,-6.099768,1.3617747,0.35007405,-0.059847962,0.21585673,0.9095444,-10.155419,8.334901,0.76387715,-0.23922499,-0.48357037,-0.1959397,0
1.350000000000001,12.571817850912623,-0.23922498003921444,-0.4835703723205216,-0.19593970713993009,13.758651,0.108727574,-1.4770794,-0.40288836,6.797816,-6.016146,1.3694888,0.35141397,-0.05827878,0.21386285,0.9096006,-10.15001,8.389319,0.77897775,-0.23922499,-0.48357037,-0.1959397,0
1.360000000000001,12.109960035163608,-0.1281479224957079,-0.3728873487012204,-0.20436199731980598,13.5471325,-0.030826211,-1.8329734,-0.30441022,6.696344,-5.9319835,1.3773552,0.35275102,-0.056709122,0.21186721,0.90964925,-10.144347,8.443166,0.79433924,-0.23922499,-0.48357037,-0.1959397,0
1.370000000000001,12.109960035163608,-0.1281479224957079,-0.3728873487012204,-0.20436199731980598,13.5471325,-0.030826211,-1.8329734,-0.30441022,6.5949283,-5.847295,1.3853556,0.3540383,-0.05545551,0.21056822,0.9095281,-10.138653,8.494544,0.80575097,-0.12814793,-0.37288734,-0.20436199,0
1.380000000000001,12.109960035163608,-0.1281479224957079,-0.3728873487012204,-0.20436199731980598,13.5471325,-0.030826211,-1.8329734,-0.30441022,6.4935713,-5.7620945,1.3934708,0.35532382,-0.05420162,0.2092682,0.9094024,-10.132727,8.545541,0.817329,-0.12814793,-0.37288734,-0.20436199,0
1.390000000000001,12.109960035163608,-0.1281479224957079,-0.3728873487012204,-0.20436199731980598,13.5471325,-0.030826211,-1.8329734,-0.30441022,6.3922744,-5.6763854,1.4017026,0.35660762,-0.05294747,0.20796713,0.9092722,-10.126568,8.596154,0.829072,-0.12814793,-0.37288734,-0.20436199,0
1.400000000000001,11.681295853047773,-0.023600090960648856,-0.2956795627869858,-0.2201868434367888,13.64696,0.0563789,-2.1234038,-0.29065758,6.2910404,-5.5901723,1.4100528,0.35788965,-0.051693052,0.20666504,0.90913755,-10.12018,8.646382,0.84097844,-0.12814793,-0.37288734,-0.20436199,0
1.410000000000001,11.681295853047773,-0.023600090960648856,-0.2956795627869858,-0.2201868434367888,13.64696,0.0563789,-2.1234038,-0.29065758,6.1898704,-5.503467,1.4185032,0.3591894,-0.050618656,0.20597139,0.9088428,-10.1137905,8.694511,0.8491236,-0.02360009,-0.29567957,-0.22018684,0
1.420000000000001,11.681295853047773,-0.023600090960648856,-0.2956795627869858,-0.2201868434367888,13.64696,0.0563789,-2.1234038,-0.29065758,6.088765,-5.416282,1.4270355,0.36048788,-0.04954408,0.20527703,0.90854496,-10.107166,8.742405,0.8573611,-0.02360009,-0.29567957,-0.22018684,0
1.430000000000001,11.681295853047773,-0.023600090960648856,-0.2956795627869858,-0.2201868434367888,13.64696,0.0563789,-2.1234038,-0.29065758,5.987728,-5.3286195,1.4356506,0.36178514,-0.048469342,0.20458198,0.908244,-10.1003065,8.79006,0.8656901,-0.02360009,-0.29567957,-0.22018684,0
1.440000000000001,11.681295853047773,-0.023600090960648856,-0.2956795627869858,-0.2201868434367888,13.850141,0.12128508,-2.5237422,-0.26115015,5.88676,-5.2404814,1.4443495,0.3630812,-0.047394436,0.20388624,0.90794,-10.093211,8.837478,0.87411,-0.02360009,-0.29567957,-0.22018684,0
1.450000000000001,11.681295853047773,-0.023600090960648856,-0.2956795627869858,-0.2201868434367888,13.850141,0.12128508,-2.5237422,-0.26115015,5.7858644,-5.1518703,1.4531331,0.36437598,-0.046319366,0.20318979,0.9076328,-10.085882,8.884656,0.8826201,-0.02360009,-0.29567957,-0.22018684,0
1.460000000000001,11.681295853047773,-0.023600090960648856,-0.2956795627869858,-0.2201868434367888,13.850141,0.12128508,-2.5237422,-0.26115015,5.685044,-5.0627885,1.4620022,0.36566952,-0.04524414,0.20249265,0.9073226,-10.07832,8.931595,0.89121974,-0.02360009,-0.29567957,-0.22018684,0
1.470000000000001,11.681295853047773,-0.023600090960648856,-0.2956795627869858,-0.2201868434367888,13.850141,0.12128508,-2.5237422,-0.26115015,5.5842996,-4.973239,1.4709578,0.36696184,-0.04416876,0.20179483,0.90700924,-10.070524,8.978293,0.89990824,-0.02360009,-0.29567957,-0.22018684,0
1.480000000000001,11.349262501968598,0.03990120963074233,-0.04044668877401936,-0.2128822901106935,13.946529,-0.04691437,-2.914669,-0.18262535,5.4836345,-4.8832235,1.4800005,0.36825287,-0.04309323,0.20109631,0.9066928,-10.062496,9.024749,0.9086849,-0.02360009,-0.29567957,-0.22018684,0
1.490000000000001,11.349262501968598,0.03990120963074233,-0.04044668877401936,-0.2128822901106935,13.946529,-0.04691437,-2.914669,-0.18262535,5.3830495,-4.7927513,1.4891163,0.36926705,-0.043050423,0.20115672,0.90626884,-10.054531,9.069737,0.914475,0.039901208,-0.040446687,-0.2128823,0
1.500000000000001,11.349262501968598,0.03990120963074233,-0.04044668877401936,-0.2128822901106935,13.946529,-0.04691437,-2.914669,-0.18262535,5.2825446,-4.701829,1.49829,0.37028074,-0.04300756,0.20121689,0.90584385,-10.046502,9.114724,0.9202604,0.039901208,-0.040446687,-0.2128823,0
1.5100000000000011,11.349262501968598,0.03990120963074233,-0.04044668877401936,-0.2128822901106935,13.946529,-0.04691437,-2.914669,-0.18262535,5.1821203,-4.6104565,1.5075214,0.37129396,-0.04296465,0.20127682,0.9054177,-10.038409,9.159711,0.92604125,0.039901208,-0.040446687,-0.2128823,0
1.5200000000000011,10.929893190041243,0.13207648462911492,0.0180837318617097,-0.21315683137793137,14.054145,-0.17966068,-3.3134665,-0.11543806,5.081777,-4.518634,1.5168107,0.3723067,-0.04292168,0.20133652,0.9049905,-10.0302515,9.204698,0.9318174,0.039901208,-0.040446687,-0.2128823,0
1.5300000000000011,10.929893190041243,0.13207648462911492,0.0180837318617097,-0.21315683137793137,14.054145,-0.17966068,-3.3134665,-0.11543806,4.9815145,-4.42637,1.5261385,0.37328106,-0.04297219,0.20192191,0.9044562,-10.022325,9.248061,0.93373275,0.13207649,0.018083733,-0.21315683,0
1.5400000000000011,10.929893190041243,0.13207648462911492,0.0180837318617097,-0.21315683137793137,14.054145,-0.17966068,-3.3134665,-0.11543806,4.881331,-4.333672,1.5354853,0.37425485,-0.043022633,0.20250699,0.9039205,-10.014312,9.29153,0.9355955,0.13207649,0.018083733,-0.21315683,0
1.5500000000000012,10.929893190041243,0.13207648462911492,0.0180837318617097,-0.21315683137793137,14.054145,-0.17966068,-3.3134665,-0.11543806,4.781228,-4.240539,1.5448503,0.37522805,-0.043073006,0.20309176,0.9033833,-10.006213,9.335103,0.9374056,0.13207649,0.018083733,-0.21315683,0
1.5600000000000012,10.584318885694277,0.15880064437972893,0.19113086080157735,-0.17968129432905583,13.844366,-0.25916535,-3.487874,-0.044526786,4.6812067,-4.14697,1.5542332,0.37620065,-0.043123312,0.2036762,0.9028447,-9.998029,9.378781,0.93916273,0.13207649,0.018083733,-0.21315683,0
1.5700000000000012,10.584318885694277,0.15880064437972893,0.19113086080157735,-0.17968129432905583,13.844366,-0.25916535,-3.487874,-0.044526786,4.5812664,-4.0529695,1.5636176,0.37685093,-0.04387035,0.20471361,0.90230274,-9.990061,9.421232,0.93769187,0.15880065,0.19113086,-0.1796813,0
1.5800000000000012,10.584318885694277,0.15880064437972893,0.19113086080157735,-0.17968129432905583,13.844366,-0.25916535,-3.487874,-0.044526786,4.4814057,-3.9585443,1.5729867,0.37750033,-0.04461728,0.20575055,0.9017587,-9.98212,9.463923,0.9361174,0.15880065,0.19113086,-0.1796813,0
1.5900000000000012,10.584318885694277,0.15880064437972893,0.19113086080157735,-0.17968129432905583,13.844366,-0.25916535,-3.487874,-0.044526786,4.381624,-3.8636904,1.5823396,0.37814882,-0.045364108,0.20678698,0.90121245,-9.974205,9.506855,0.9344386,0.15880065,0.19113086,-0.1796813,0
1.6000000000000012,10.279519043970687,0.1417955497938775,-0.06519863782930016,-0.15313615637021075,13.608308,-0.4128396,-3.7122571,0.057562754,4.281922,-3.7684062,1.5916752,0.37879646,-0.04611083,0.2078229,0.9006641,-9.966315,9.550026,0.93265474,0.15880065,0.19113086,-0.1796813,0
1.6100000000000012,10.279519043970687,0.1417955497938775,-0.06519863782930016,-0.15313615637021075,13.608308,-0.4128396,-3.7122571,0.057562754,4.182297,-3.6726956,1.6009786,0.37958628,-0.045707762,0.20830253,0.90024126,-9.958613,9.592115,0.9280207,0.14179555,-0.06519864,-0.15313615,0
1.6200000000000012,10.279519043970687,0.1417955497938775,-0.06519863782930016,-0.15313615637021075,13.608308,-0.4128396,-3.7122571,0.057562754,4.0827503,-3.5765638,1.6102355,0.38037562,-0.045304634,0.2087819,0.8998172,-9.950761,9.6342535,0.92335325,0.14179555,-0.06519864,-0.15313615,0
1.6300000000000012,10.279519043970687,0.1417955497938775,-0.06519863782930016,-0.15313615637021075,13.608308,-0.4128396,-3.7122571,0.057562754,3.9832826,-3.4800105,1.6194456,0.38116455,-0.044901457,0.20926103,0.89939225,-9.942759,9.676438,0.9186522,0.14179555,-0.06519864,-0.15313615,0
1.6400000000000012,10.279519043970687,0.1417955497938775,-0.06519863782930016,-0.15313615637021075,13.411441,-0.66572255,-3.9456499,0.23378447,3.8838956,-3.383035,1.6286085,0.38195306,-0.044498224,0.20973992,0.8989661,-9.934607,9.718669,0.9139173,0.14179555,-0.06519864,-0.15313615,0
1.6500000000000012,10.279519043970687,0.1417955497938775,-0.06519863782930016,-0.15313615637021075,13.411441,-0.66572255,-3.9456499,0.23378447,3.784591,-3.285637,1.6377239,0.3827411,-0.04409494,0.21021858,0.89853895,-9.926305,9.760945,0.9091486,0.14179555,-0.06519864,-0.15313615,0
1.6600000000000013,10.279519043970687,0.1417955497938775,-0.06519863782930016,-0.15313615637021075,13.411441,-0.66572255,-3.9456499,0.23378447,3.68537,-3.1878161,1.6467915,0.38352865,-0.0436916,0.21069695,0.8981106,-9.917852,9.8032675,0.9043458,0.14179555,-0.06519864,-0.15313615,0
1.6700000000000013,10.279519043970687,0.1417955497938775,-0.06519863782930016,-0.15313615637021075,13.411441,-0.66572255,-3.9456499,0.23378447,3.5862343,-3.089572,1.6558108,0.38431573,-0.04328821,0.21117507,0.89768136,-9.90925,9.845632,0.8995089,0.14179555,-0.06519864,-0.15313615,0
1.6800000000000013,10.033459985159713,0.05157845005441861,0.30729823226482406,-0.08523430800591694,13.149508,-0.81589156,-3.964638,0.36248177,3.4871852,-2.9909036,1.6647816,0.38510233,-0.042884767,0.21165295,0.8972509,-9.900497,9.8880415,0.8946377,0.14179555,-0.06519864,-0.15313615,0
1.6900000000000013,10.033459985159713,0.05157845005441861,0.30729823226482406,-0.08523430800591694,13.149508,-0.81589156,-3.964638,0.36248177,3.3882232,-2.891816,1.6736922,0.38517004,-0.044254214,0.21245751,0.89696515,-9.89193,9.929554,0.88747925,0.05157845,0.30729824,-0.08523431,0
1.7000000000000013,10.033459985159713,0.05157845005441861,0.30729823226482406,-0.08523430800591694,13.149508,-0.81589156,-3.964638,0.36248177,3.2893462,-2.7923117,1.6825309,0.3852368,-0.04562354,0.2132615,0.896677,-9.883541,9.971305,0.88022804,0.05157845,0.30729824,-0.08523431,0
1.7100000000000013,10.033459985159713,0.05157845005441861,0.30729823226482406,-0.08523430800591694,13.149508,-0.81589156,-3.964638,0.36248177,3.190552,-2.6923885,1.6912966,0.3853025,-0.04699275,0.21406494,0.89638656,-9.875331,10.013295,0.87288314,0.05157845,0.30729824,-0.08523431,0
1.7200000000000013,9.767250121452673,-0.10946745155543748,-0.039237404496070084,-0.024630875641773364,13.266675,-0.89167553,-4.363888,0.4710056,3.0918386,-2.5920448,1.6999881,0.38536724,-0.048361838,0.21486783,0.8960938,-9.8673,10.055523,0.86544347,0.05157845,0.30729824,-0.08523431,0
1.7300000000000013,9.767250121452673,-0.10946745155543748,-0.039237404496070084,-0.024630875641773364,13.266675,-0.89167553,-4.363888,0.4710056,2.9932039,-2.4912834,1.7085931,0.38549322,-0.048423417,0.21429577,0.8961733,-9.859609,10.096741,0.8555579,-0.109467454,-0.039237406,-0.024630876,0
1.7400000000000013,9.767250121452673,-0.10946745155543748,-0.039237404496070084,-0.024630875641773364,13.266675,-0.89167553,-4.363888,0.4710056,2.8946464,-2.3901103,1.7170995,0.38561904,-0.048484977,0.21372364,0.8962525,-9.851967,10.137867,0.84571916,-0.109467454,-0.039237406,-0.024630876,0
1.7500000000000013,9.767250121452673,-0.10946745155543748,-0.039237404496070084,-0.024630875641773364,13.266675,-0.89167553,-4.363888,0.4710056,2.7961648,-2.2885263,1.7255077,0.38574475,-0.048546523,0.21315143,0.89633137,-9.844375,10.178904,0.83592695,-0.109467454,-0.039237406,-0.024630876,0
1.7600000000000013,9.540902185891229,-0.31000934726725043,-0.18382871666446532,0.07400094902014248,13.005972,-1.0450499,-4.4510455,0.6444583,2.6977587,-2.1865325,1.7338183,0.3858703,-0.048608046,0.21257913,0.8964099,-9.836832,10.219851,0.8261813,-0.109467454,-0.039237406,-0.024630876,0
1.7700000000000014,9.540902185891229,-0.31000934726725043,-0.18382871666446532,0.07400094902014248,13.005972,-1.0450499,-4.4510455,0.6444583,2.5994267,-2.0841348,1.7420213,0.38565803,-0.048303496,0.2108526,0.8969254,-9.829527,10.25968,0.8144709,-0.31000936,-0.18382871,0.07400095,0
1.7800000000000014,9.540902185891229,-0.31000934726725043,-0.18382871666446532,0.07400094902014248,13.005972,-1.0450499,-4.4510455,0.6444583,2.5011673,-1.98134,1.750108,0.38544443,-0.047998782,0.20912534,0.8974378,-9.82231,10.29921,0.80290526,-0.31000936,-0.18382871,0.07400095,0
1.7900000000000014,9.540902185891229,-0.31000934726725043,-0.18382871666446532,0.07400094902014248,13.005972,-1.0450499,-4.4510455,0.6444583,2.4029799,-1.8781517,1.7580798,0.38522953,-0.047693904,0.20739739,0.8979472,-9.815182,10.338439,0.7914832,-0.31000936,-0.18382871,0.07400095,0
1.8000000000000014,9.389993010252693,-0.5585113241008394,-0.2015068465243408,0.1628760509835964,13.077754,-1.2109282,-4.728148,0.7609509,2.3048635,-1.7745724,1.765938,0.38501334,-0.047388867,0.20566876,0.8984535,-9.808142,10.377369,0.7802037,-0.31000936,-0.18382871,0.07400095,0
1.8100000000000014,9.389993010252693,-0.5585113241008394,-0.2015068465243408,0.1628760509835964,13.077754,-1.2109282,-4.728148,0.7609509,2.2068162,-1.6706085,1.7736775,0.38435474,-0.047391098,0.20280948,0.89938486,-9.801357,10.415328,0.7677205,-0.5585113,-0.20150685,0.16287605,0
1.8200000000000014,9.389993010252693,-0.5585113241008394,-0.2015068465243408,0.1628760509835964,13.077754,-1.2109282,-4.728148,0.7609509,2.1088352,-1.5662674,1.7812932,0.38369247,-0.04739288,0.19994828,0.90030766,-9.794813,10.452834,0.75545555,-0.5585113,-0.20150685,0.16287605,0
1.8300000000000014,9.389993010252693,-0.5585113241008394,-0.2015068465243408,0.1628760509835964,13.077754,-1.2109282,-4.728148,0.7609509,2.0109189,-1.4615536,1.7887874,0.38302657,-0.047394212,0.19708517,0.90122193,-9.788508,10.489885,0.7434058,-0.5585113,-0.20150685,0.16287605,0
1.8400000000000014,9.389993010252693,-0.5585113241008394,-0.2015068465243408,0.1628760509835964,12.935495,-1.3220496,-4.780232,0.8700342,1.9130642,-1.3564713,1.7961621,0.38235703,-0.0473951,0.19422022,0.9021278,-9.782442,10.52648,0.7315684,-0.5585113,-0.20150685,0.16287605,0
1.8500000000000014,9.389993010252693,-0.5585113241008394,-0.2015068465243408,0.1628760509835964,12.935495,-1.3220496,-4.780232,0.8700342,1.8152691,-1.2510254,1.8034195,0.3816839,-0.047395535,0.19135343,0.9030251,-9.776615,10.562616,0.7199404,-0.5585113,-0.20150685,0.16287605,0
1.8600000000000014,9.389993010252693,-0.5585113241008394,-0.2015068465243408,0.1628760509835964,12.935495,-1.3220496,-4.780232,0.8700342,1.717531,-1.1452205,1.8105615,0.3810071,-0.04739552,0.1884848,0.9039138,-9.771026,10.598291,0.708519,-0.5585113,-0.20150685,0.16287605,0
1.8700000000000014,9.389993010252693,-0.5585113241008394,-0.2015068465243408,0.1628760509835964,12.935495,-1.3220496,-4.780232,0.8700342,1.6198475,-1.0390612,1.8175905,0.38032672,-0.047395058,0.1856144,0.9047939,-9.765674,10.633506,0.69730103,-0.5585113,-0.20150685,0.16287605,0
1.8800000000000014,9.257700607835094,-0.7605958752523991,-1.053079798450336,0.3158369298059617,12.284989,-1.3380909,-4.421794,0.85441303,1.5222167,-0.93255204,1.8245082,0.37964275,-0.047394145,0.18274225,0.90566546,-9.760558,10.668257,0.6862836,-0.5585113,-0.20150685,0.16287605,0
1.8900000000000015,9.257700607835094,-0.7605958752523991,-1.053079798450336,0.3158369298059617,12.284989,-1.3380909,-4.421794,0.85441303,1.4246358,-0.8257008,1.8313109,0.37898603,-0.04377961,0.17736986,0.9071893,-9.755588,10.701816,0.67431986,-0.76059586,-1.0530798,0.31583694,0
1.9000000000000015,9.257700607835094,-0.7605958752523991,-1.053079798450336,0.3158369298059617,12.284989,-1.3380909,-4.421794,0.85441303,1.3271056,-0.71851957,1.837996,0.37831238,-0.040163122,0.17198953,0.9086726,-9.750421,10.7342615,0.6627698,-0.76059586,-1.0530798,0.31583694,0
1.9100000000000015,9.257700607835094,-0.7605958752523991,-1.053079798450336,0.3158369298059617,12.284989,-1.3380909,-4.421794,0.85441303,1.2296282,-0.61101943,1.8445677,0.3776218,-0.036544837,0.16660152,0.91011524,-9.745055,10.765592,0.65161824,-0.76059586,-1.0530798,0.31583694,0
1.9200000000000015,9.16446485019549,-1.112419473853684,-0.6003061224641099,0.42883814379376967,11.784054,-1.5367475,-4.142677,0.79254377,1.1322054,-0.5032116,1.8510296,0.37691438,-0.03292492,0.16120608,0.9115172,-9.73949,10.795799,0.6408503,-0.76059586,-1.0530798,0.31583694,0
1.9300000000000015,9.16446485019549,-1.112419473853684,-0.6003061224641099,0.42883814379376967,11.784054,-1.5367475,-4.142677,0.79254377,1.0348383,-0.39510873,1.8573815,0.37525228,-0.031939026,0.15507187,0.9133006,-9.733973,10.824614,0.62957186,-1.1124195,-0.6003061,0.42883813,0
1.9400000000000015,9.16446485019549,-1.112419473853684,-0.6003061224641099,0.42883814379376967,11.784054,-1.5367475,-4.142677,0.79254377,0.93752486,-0.28672296,1.8636222,0.37357342,-0.03095171,0.14893076,0.91504323,-9.728771,10.852373,0.61865556,-1.1124195,-0.6003061,0.42883813,0
1.9500000000000015,9.16446485019549,-1.112419473853684,-0.6003061224641099,0.42883814379376967,11.784054,-1.5367475,-4.142677,0.79254377,0.8402618,-0.17806491,1.8697556,0.37187797,-0.029963013,0.142783,0.9167451,-9.723881,10.879072,0.60808766,-1.1124195,-0.6003061,0.42883813,0
1.9600000000000015,9.136921182101966,-1.3743967795878256,-1.0409871974061171,0.6187680554444581,11.592004,-1.5824299,-3.6218543,0.68102896,0.74304616,-0.06914519,1.875785,0.3701659,-0.028972981,0.13662888,0.9184062,-9.719299,10.904707,0.5978543,-1.1124195,-0.6003061,0.42883813,0
1.9700000000000015,9.136921182101966,-1.3743967795878256,-1.0409871974061171,0.6187680554444581,11.592004,-1.5824299,-3.6218543,0.68102896,0.6458749,0.040024687,1.8817126,0.36782104,-0.026312625,0.12847495,0.9206026,-9.714985,10.929031,0.5877191,-1.3743968,-1.0409873,0.61876804,0
1.9800000000000015,9.136921182101966,-1.3743967795878256,-1.0409871974061171,0.6187680554444581,11.592004,-1.5824299,-3.6218543,0.68102896,0.5487459,0.14943025,1.8875408,0.36544532,-0.02365006,0.12031024,0.9227218,-9.710838,10.951845,0.5779959,-1.3743968,-1.0409873,0.61876804,0
1.9900000000000015,9.136921182101966,-1.3743967795878256,-1.0409871974061171,0.6187680554444581,11.592004,-1.5824299,-3.6218543,0.68102896,0.4516575,0.25905636,1.8932738,0.36303896,-0.02098551,0.112135425,0.92476356,-9.70685,10.97314,0.56865823,-1.3743968,-1.0409873,0.61876804,0
2.0000000000000013,,,,,11.5869055,-1.4894185,-3.4604785,0.8138118,0.3546083,0.3688878,1.8989153,0.36060214,-0.0183192,0.1039512,0.9267278,-9.703012,10.9929085,0.5596796,-1.3743968,-1.0409873,0.61876804,0
2.010000000000001,,,,,11.5869055,-1.4894185,-3.4604785,0.8138118,0.25759622,0.47890955,1.9044693,0.35720274,-0.018599326,0.09557853,0.9289374,-9.699511,11.01123,0.5511442,-1.6304579,-0.48934984,0.75293297,0
2.020000000000001,,,,,11.5869055,-1.4894185,-3.4604785,0.8138118,0.16061583,0.58910763,1.9099393,0.35377243,-0.01887784,0.08719757,0.9310666,-9.696672,11.0281725,0.54290307,-1.6304579,-0.48934984,0.75293297,0
2.0300000000000007,,,,,11.5869055,-1.4894185,-3.4604785,0.8138118,0.06366055,0.6994682,1.9153281,0.35031143,-0.019154718,0.078809075,0.9331151,-9.694488,11.043728,0.53493077,-1.6304579,-0.48934984,0.75293297,0
2.0400000000000005,,,,,11.5869055,-1.4894185,-3.4604785,0.8138118,-0.033276126,0.8099774,1.9206386,0.34682012,-0.019429935,0.07041375,0.93508285,-9.692946,11.057886,0.5272017,-1.6304579,-0.48934984,0.75293297,0
2.0500000000000003,,,,,11.362605,-1.4040036,-2.8353128,0.77477205,-0.13020055,0.9206211,1.9258728,0.34329876,-0.01970347,0.062012326,0.9369696,-9.692039,11.070638,0.51969033,-1.6304579,-0.48934984,0.75293297,1
2.06,,,,,11.362605,-1.4040036,-2.8353128,0.77477205,-0.22711615,1.0313976,1.9311429,0.34036446,-0.008588075,0.050636593,0.9388897,-9.690858,11.084151,0.53439915,-1.4040036,-2.8353128,0.77477205,1
2.07,,,,,11.362605,-1.4040036,-2.8353128,0.77477205,-0.32401273,1.142293,1.936562,0.33733988,0.0025295967,0.039247427,0.9405608,-9.688226,11.094392,0.54942775,-1.4040036,-2.8353128,0.77477205,1
2.0799999999999996,,,,,11.362605,-1.4040036,-2.8353128,0.77477205,-0.42087564,1.2532743,1.9421324,0.33422583,0.013646598,0.027847853,0.9419825,-9.684121,11.101359,0.56466115,-1.4040036,-2.8353128,0.77477205,1
2.0899999999999994,,,,,12.2679825,-1.5221648,-4.1178865,0.8529599,-0.51769,1.3643088,1.9478556,0.33102313,0.02475998,0.016440889,0.94315434,-9.678521,11.10506,0.5799843,-1.4040036,-2.8353128,0.77477205,1
2.099999999999999,,,,,12.2679825,-1.5221648,-4.1178865,0.8529599,-0.61443686,1.4753634,1.9537771,0.32744524,0.04172215,0.0023385969,0.9439455,-9.670414,11.105124,0.6042866,-1.5221648,-4.1178865,0.8529599,1
2.109999999999999,,,,,12.2679825,-1.5221648,-4.1178865,0.8529599,-0.7110887,1.5863955,1.9599403,0.32370362,0.058663454,-0.0117648635,0.94426465,-9.659512,11.100596,0.6282878,-1.5221648,-4.1178865,0.8529599,1
2.1199999999999988,,,,,12.2679825,-1.5221648,-4.1178865,0.8529599,-0.8076174,1.6973596,1.9663409,0.31980017,0.075575426,-0.025862442,0.9441117,-9.645798,11.091507,0.6517501,-1.5221648,-4.1178865,0.8529599,1
2.1299999999999986,,,,,12.066187,-1.5249186,-3.4207628,1.0310706,-0.903995,1.80821,1.9729726,0.3157368,0.092449605,-0.03994709,0.9434867,-9.62926,11.077899,0.6744366,-1.5221648,-4.1178865,0.8529599,1
2.1399999999999983,,,,,12.066187,-1.5249186,-3.4207628,1.0310706,-1.0001951,1.9189041,1.9798167,0.3108352,0.10595523,-0.05300935,0.9430507,-9.610456,11.060304,0.6942116,-1.5249186,-3.4207628,1.0310706,1
2.149999999999998,,,,,12.066187,-1.5249186,-3.4207628,1.0310706,-1.0961967,2.029403,1.9868535,0.30581632,0.11942088,-0.06605161,0.9422589,-9.589517,11.038854,0.71298397,-1.5249186,-3.4207628,1.0310706,1
