time-since-start [s],throttle_mpc,roll_mpc,pitch_mpc,yaw_mpc,throttle_nw,roll_nw,pitch_nw,yaw_nw,position_x [m],position_y [m],position_z [m],rotation_w [quaternion],rotation_x [quaternion],rotation_y [quaternion],rotation_z [quaternion],velocity_x [m/s],velocity_y [m/s],velocity_z [m/s],omega_x [rad/s],omega_y [rad/s],omega_z [rad/s],network_used
0.0,6.34284609892464,5.999999080209747,-5.999999872578259,-3.121371708918052,11.331892,2.192704,-3.6394453,-0.10327062,18.404099,-10.117969,2.1919658,0.009981953,-0.42930624,0.1681649,0.8873089,-10.513048,-2.8614645,-0.29049966,1.7673715,-0.15450773,-0.050796162,0
0.01,6.34284609892464,5.999999080209747,-5.999999872578259,-3.121371708918052,13.167705,2.3911648,-5.342053,-0.35067755,18.298729,-10.146482,2.1887546,0.04173317,-0.40458173,0.18760611,0.8940782,-10.559983,-2.840492,-0.35147583,5.999999,-6.0,-3.1213717,0
0.02,6.34284609892464,5.999999080209747,-5.999999872578259,-3.121371708918052,13.167705,2.3911648,-5.342053,-0.35067755,18.19291,-10.1747675,2.1849422,0.07339911,-0.37903056,0.20666401,0.8990208,-10.6035595,-2.81567,-0.41076958,5.999999,-6.0,-3.1213717,0
0.03,6.34284609892464,5.999999080209747,-5.999999872578259,-3.121371708918052,13.167705,2.3911648,-5.342053,-0.35067755,18.086672,-10.202785,2.1805446,0.10491509,-0.35270494,0.22529963,0.90212643,-10.643411,-2.7872798,-0.46853724,5.999999,-6.0,-3.1213717,0
0.04,6.34284609892464,5.999999080209747,-5.999999872578259,-3.121371708918052,12.795021,0.5026846,-4.6027966,-0.32633358,17.980055,-10.230501,2.1755762,0.13621671,-0.32565868,0.2434749,0.90338886,-10.679205,-2.755631,-0.5249475,5.999999,-6.0,-3.1213717,0
0.05,6.34284609892464,5.999999080209747,-5.999999872578259,-3.121371708918052,12.795021,0.5026846,-4.6027966,-0.32633358,17.8731,-10.257888,2.1700497,0.16724,-0.29794702,0.26115268,0.90280545,-10.71064,-2.72106,-0.58018017,5.999999,-6.0,-3.1213717,0
0.060000000000000005,6.34284609892464,5.999999080209747,-5.999999872578259,-3.121371708918052,12.795021,0.5026846,-4.6027966,-0.32633358,17.765856,-10.284914,2.163976,0.19792159,-0.2696266,0.2782969,0.9003774,-10.73745,-2.6839273,-0.6344247,5.999999,-6.0,-3.1213717,0
0.07,6.34284609892464,5.999999080209747,-5.999999872578259,-3.121371708918052,12.795021,0.5026846,-4.6027966,-0.32633358,17.65837,-10.311559,2.157364,0.22819877,-0.24075525,0.2948725,0.89610964,-10.759406,-2.6446142,-0.68787843,5.999999,-6.0,-3.1213717,0
0.08,13.462734225612136,5.99999785855199,-5.999999814258261,-1.2563152355916034,13.544584,-0.08510116,-2.5495057,-0.6164233,17.550686,-10.337801,2.1502206,0.2580097,-0.211392,0.3108456,0.890011,-10.776323,-2.60352,-0.7407455,5.999999,-6.0,-3.1213717,0
0.09,13.462734225612136,5.99999785855199,-5.999999814258261,-1.2563152355916034,13.544584,-0.08510116,-2.5495057,-0.6164233,17.442787,-10.363388,2.1428063,0.2790237,-0.17871955,0.3281865,0.8845897,-10.80122,-2.513378,-0.74205214,5.999998,-6.0,-1.2563152,0
0.09999999999999999,13.462734225612136,5.99999785855199,-5.999999814258261,-1.2563152355916034,13.544584,-0.08510116,-2.5495057,-0.6164233,17.334698,-10.388062,2.1353805,0.29952455,-0.14571841,0.34492382,0.8775415,-10.814902,-2.4211023,-0.7431351,5.999998,-6.0,-1.2563152,0
0.10999999999999999,13.462734225612136,5.99999785855199,-5.999999814258261,-1.2563152355916034,13.544584,-0.08510116,-2.5495057,-0.6164233,17.226528,-10.411805,2.1279426,0.31947452,-0.11244924,0.36102676,0.86887926,-10.817257,-2.3274589,-0.74459296,5.999998,-6.0,-1.2563152,0
0.11999999999999998,13.462734225612136,5.99999785855199,-5.999999814258261,-1.2563152355916034,13.544584,-0.08510116,-2.5495057,-0.6164233,17.11839,-10.434608,2.1204855,0.3388369,-0.07897328,0.3764657,0.858619,-10.808251,-2.2332237,-0.74702173,5.999998,-6.0,-1.2563152,0
0.12999999999999998,18.402038810960825,3.3393909643549033,-5.999999362130276,0.2035474587944559,15.299426,-0.5628453,-0.8433502,-0.5193187,17.010399,-10.45647,2.1129968,0.35757613,-0.045352064,0.39121228,0.8467796,-10.787937,-2.1391776,-0.75101024,5.999998,-6.0,-1.2563152,0
0.13999999999999999,18.402038810960825,3.3393909643549033,-5.999999362130276,0.2035474587944559,15.299426,-0.5628453,-0.8433502,-0.5193187,16.90272,-10.477225,2.1056306,0.3689947,-0.013559587,0.39443833,0.8414735,-10.746064,-2.0127022,-0.7222175,3.339391,-5.9999995,0.20354746,0
0.15,18.402038810960825,3.3393909643549033,-5.999999362130276,0.2035474587944559,15.299426,-0.5628453,-0.8433502,-0.5193187,16.795519,-10.4967375,2.0985506,0.379978,0.018248884,0.3971991,0.83517474,-10.692256,-1.8903333,-0.6938994,3.339391,-5.9999995,0.20354746,0
0.16,18.742242076188845,0.8689135160640342,-4.78447998496498,0.48293234344469027,15.741377,-1.3833373,0.55852544,-1.1157461,16.688913,-10.515048,2.0917487,0.39051303,0.050035823,0.39949128,0.8278907,-10.6267605,-1.7726303,-0.6666704,3.339391,-5.9999995,0.20354746,0
0.17,18.742242076188845,0.8689135160640342,-4.78447998496498,0.48293234344469027,15.741377,-1.3833373,0.55852544,-1.1157461,16.583023,-10.532198,2.0852258,0.39773607,0.07248503,0.39350662,0.82565415,-10.550081,-1.658087,-0.63780266,0.86891353,-4.78448,0.48293233,0
0.18000000000000002,18.742242076188845,0.8689135160640342,-4.78447998496498,0.48293234344469027,15.741377,-1.3833373,0.55852544,-1.1157461,16.477934,-10.54823,2.0789952,0.40472168,0.09489097,0.38728705,0.82292473,-10.46637,-1.5493045,-0.6083119,0.86891353,-4.78448,0.48293233,0
0.19000000000000003,18.742242076188845,0.8689135160640342,-4.78447998496498,0.48293234344469027,15.741377,-1.3833373,0.55852544,-1.1157461,16.373718,-10.563205,2.0730608,0.41146564,0.11724026,0.3808363,0.81970406,-10.375802,-1.4465182,-0.578532,0.86891353,-4.78448,0.48293233,0
0.20000000000000004,17.15376322218232,0.06662480893591491,-1.28306830968443,0.17743345010397849,15.320099,-2.2778618,2.7738323,-0.64502776,16.270441,-10.577183,2.0674245,0.417964,0.13951957,0.3741582,0.815994,-10.278573,-1.3499491,-0.54879725,0.86891353,-4.78448,0.48293233,0
0.21000000000000005,17.15376322218232,0.06662480893591491,-1.28306830968443,0.17743345010397849,15.320099,-2.2778618,2.7738323,-0.64502776,16.168121,-10.590261,2.0620303,0.4195852,0.14522265,0.37161702,0.8153279,-10.185335,-1.2658454,-0.5300298,0.066624805,-1.2830683,0.17743345,0
0.22000000000000006,17.15376322218232,0.06662480893591491,-1.28306830968443,0.17743345010397849,15.320099,-2.2778618,2.7738323,-0.64502776,16.066738,-10.602507,2.0568242,0.42118874,0.15091962,0.36906022,0.8146276,-10.090696,-1.183441,-0.5111776,0.066624805,-1.2830683,0.17743345,0
0.23000000000000007,17.15376322218232,0.06662480893591491,-1.28306830968443,0.17743345010397849,15.320099,-2.2778618,2.7738323,-0.64502776,15.966311,-10.613937,2.051807,0.42277452,0.15661024,0.36648786,0.813893,-9.994671,-1.1027482,-0.49226287,0.066624805,-1.2830683,0.17743345,0
0.24000000000000007,17.15376322218232,0.06662480893591491,-1.28306830968443,0.17743345010397849,14.262882,-2.041081,4.666574,-0.38015965,15.866851,-10.624569,2.046979,0.4243425,0.16229427,0.36390013,0.8131241,-9.897271,-1.0237783,-0.47330767,0.066624805,-1.2830683,0.17743345,0
0.25000000000000006,17.15376322218232,0.06662480893591491,-1.28306830968443,0.17743345010397849,14.262882,-2.041081,4.666574,-0.38015965,15.768371,-10.6344185,2.0423408,0.4258927,0.16797148,0.36129707,0.8123211,-9.798512,-0.946543,-0.45433426,0.066624805,-1.2830683,0.17743345,0
0.26000000000000006,17.15376322218232,0.06662480893591491,-1.28306830968443,0.17743345010397849,14.262882,-2.041081,4.666574,-0.38015965,15.670884,-10.643505,2.0378923,0.42742497,0.17364162,0.35867882,0.8114839,-9.698408,-0.8710533,-0.43536478,0.066624805,-1.2830683,0.17743345,0
0.2700000000000001,17.15376322218232,0.06662480893591491,-1.28306830968443,0.17743345010397849,14.262882,-2.041081,4.666574,-0.38015965,15.574407,-10.651845,2.0336335,0.42893925,0.17930447,0.35604548,0.8106126,-9.596973,-0.79732007,-0.4164214,0.066624805,-1.2830683,0.17743345,0
0.2800000000000001,15.80087242338117,-0.3819216384735813,0.9834158415169638,0.011634588841061255,14.003146,-1.6571178,4.8104057,-0.2646316,15.4789505,-10.659457,2.0295637,0.43043548,0.18495977,0.3533972,0.8097072,-9.494222,-0.72535384,-0.39752638,0.066624805,-1.2830683,0.17743345,0
0.2900000000000001,15.80087242338117,-0.3819216384735813,0.9834158415169638,0.011634588841061255,14.003146,-1.6571178,4.8104057,-0.2646316,15.384483,-10.666383,2.025637,0.42899787,0.18017441,0.35395175,0.8113053,-9.399279,-0.65968955,-0.38773444,-0.38192165,0.98341584,0.011634589,0
0.3000000000000001,15.80087242338117,-0.3819216384735813,0.9834158415169638,0.011634588841061255,14.003146,-1.6571178,4.8104057,-0.2646316,15.290959,-10.6726465,2.0218103,0.42754835,0.17538404,0.3544965,0.8128808,-9.305559,-0.5929746,-0.3775187,-0.38192165,0.98341584,0.011634589,0
0.3100000000000001,15.80087242338117,-0.3819216384735813,0.9834158415169638,0.011634588841061255,14.003146,-1.6571178,4.8104057,-0.2646316,15.198366,-10.678238,2.018088,0.42608693,0.17058879,0.35503137,0.8144337,-9.213074,-0.5252166,-0.36689118,-0.38192165,0.98341584,0.011634589,0
0.3200000000000001,14.326667824198807,-1.0474812940380729,4.628530947460391,-0.2146062422321029,14.1436405,-1.4766729,5.210439,-0.12979455,15.106693,-10.6831455,2.0144742,0.42461368,0.1657888,0.35555637,0.8159639,-9.121831,-0.45642313,-0.3558638,-0.38192165,0.98341584,0.011634589,0
0.3300000000000001,14.326667824198807,-1.0474812940380729,4.628530947460391,-0.2146062422321029,14.1436405,-1.4766729,5.210439,-0.12979455,15.01588,-10.68739,2.010922,0.41800985,0.14425507,0.36118662,0.8209766,-9.041607,-0.39168072,-0.35449433,-1.0474813,4.628531,-0.21460624,0
0.34000000000000014,14.326667824198807,-1.0474812940380729,4.628530947460391,-0.2146062422321029,14.1436405,-1.4766729,5.210439,-0.12979455,14.925843,-10.690964,2.0073867,0.4111702,0.12263998,0.3666131,0.8255261,-8.966272,-0.3222636,-0.35245624,-1.0474813,4.628531,-0.21460624,0
0.35000000000000014,14.326667824198807,-1.0474812940380729,4.628530947460391,-0.2146062422321029,14.1436405,-1.4766729,5.210439,-0.12979455,14.836535,-10.69382,2.0038743,0.40409863,0.1009557,0.37183273,0.82960993,-8.895991,-0.24831998,-0.34998545,-1.0474813,4.628531,-0.21460624,0
0.36000000000000015,13.7814037739139,-1.1093749924234768,4.556051876019515,-0.33146358793572245,13.203372,-1.7621579,5.103382,-0.17907542,14.747906,-10.695915,2.0003881,0.3967991,0.079214476,0.37684262,0.8332257,-8.830914,-0.17000833,-0.3473187,-1.0474813,4.628531,-0.21460624,1
0.37000000000000016,13.7814037739139,-1.1093749924234768,4.556051876019515,-0.33146358793572245,13.203372,-1.7621579,5.103382,-0.17907542,14.659875,-10.697238,1.9968894,0.38848346,0.05409376,0.37955946,0.8379075,-8.77624,-0.09394414,-0.35239232,-1.7621579,5.103382,-0.17907542,1
0.38000000000000017,13.7814037739139,-1.1093749924234768,4.556051876019515,-0.33146358793572245,13.203372,-1.7621579,5.103382,-0.17907542,14.57236,-10.6977825,1.9933412,0.37988448,0.028933581,0.3819994,0.8419781,-8.727631,-0.014143884,-0.35722947,-1.7621579,5.103382,-0.17907542,1
0.3900000000000002,13.7814037739139,-1.1093749924234768,4.556051876019515,-0.33146358793572245,13.203372,-1.7621579,5.103382,-0.17907542,14.485301,-10.69751,1.9897447,0.37100837,0.0037522945,0.38416067,0.84543437,-8.685223,0.06916772,-0.36211103,-1.7621579,5.103382,-0.17907542,1
0.4000000000000002,13.601099789589348,-0.7767361673841237,3.491482822172917,-0.49342858110817095,13.07309,-1.7043381,3.7017903,-0.559374,14.398635,-10.696387,1.9860979,0.3618616,-0.021431731,0.3860417,0.84827393,-8.649135,0.15575568,-0.36731765,-1.7621579,5.103382,-0.17907542,1
0.4100000000000002,13.601099789589348,-0.7767361673841237,3.491482822172917,-0.49342858110817095,13.07309,-1.7043381,3.7017903,-0.559374,14.312297,-10.694388,1.9823923,0.35683003,-0.041289844,0.38536912,0.84997535,-8.619233,0.24410659,-0.3738297,-1.7043381,3.7017903,-0.559374,1
0.4200000000000002,13.601099789589348,-0.7767361673841237,3.491482822172917,-0.49342858110817095,13.07309,-1.7043381,3.7017903,-0.559374,14.226233,-10.691499,1.9786204,0.35164756,-0.061130483,0.38453352,0.8513172,-8.594338,0.334256,-0.38059676,-1.7043381,3.7017903,-0.559374,1
0.4300000000000002,13.601099789589348,-0.7767361673841237,3.491482822172917,-0.49342858110817095,13.07309,-1.7043381,3.7017903,-0.559374,14.140392,-10.687698,1.9747789,0.34631634,-0.080945276,0.38353524,0.85229903,-8.574486,0.42607352,-0.38779163,-1.7043381,3.7017903,-0.559374,1
0.4400000000000002,13.601099789589348,-0.7767361673841237,3.491482822172917,-0.49342858110817095,13.151048,-1.6845746,2.6381886,-0.8434807,14.054725,-10.682973,1.9708626,0.3408386,-0.10072582,0.38237473,0.8529203,-8.559699,0.51942587,-0.39558655,-1.7043381,3.7017903,-0.559374,1
0.45000000000000023,13.601099789589348,-0.7767361673841237,3.491482822172917,-0.49342858110817095,13.151048,-1.6845746,2.6381886,-0.8434807,13.969181,-10.677303,1.9668679,0.33849874,-0.1164462,0.37921178,0.8532628,-8.549536,0.6144899,-0.4033913,-1.6845746,2.6381886,-0.8434807,1
0.46000000000000024,13.601099789589348,-0.7767361673841237,3.491482822172917,-0.49342858110817095,13.151048,-1.6845746,2.6381886,-0.8434807,13.8837185,-10.670681,1.9627937,0.33606997,-0.13213597,0.3759492,0.85338116,-8.543428,0.7101898,-0.41150296,-1.6845746,2.6381886,-0.8434807,1
0.47000000000000025,13.601099789589348,-0.7767361673841237,3.491482822172917,-0.49342858110817095,13.151048,-1.6845746,2.6381886,-0.8434807,13.798297,-10.663099,1.9586363,0.3335529,-0.14779104,0.37258786,0.85327524,-8.541376,0.80645525,-0.42003486,-1.6845746,2.6381886,-0.8434807,1
0.48000000000000026,13.504773791196653,-0.08810235841012587,1.5338026002332636,-0.4808415985391015,13.343086,-1.8144274,1.8571622,-1.1478444,13.712875,-10.6545515,1.954391,0.33094817,-0.16340728,0.36912864,0.85294515,-8.543376,0.90321505,-0.42909983,-1.6845746,2.6381886,-0.8434807,0
0.49000000000000027,13.504773791196653,-0.08810235841012587,1.5338026002332636,-0.4808415985391015,13.343086,-1.8144274,1.8571622,-1.1478444,13.627417,-10.6450205,1.9500636,0.33008528,-0.1709764,0.37088612,0.85103136,-8.548621,1.0031804,-0.4365523,-0.088102356,1.5338026,-0.4808416,0
0.5000000000000002,13.504773791196653,-0.08810235841012587,1.5338026002332636,-0.4808415985391015,13.343086,-1.8144274,1.8571622,-1.1478444,13.541898,-10.634484,1.9456564,0.329201,-0.17853443,0.37261954,0.8490624,-8.555448,1.1039888,-0.44504964,-0.088102356,1.5338026,-0.4808416,0
0.5100000000000002,13.504773791196653,-0.08810235841012587,1.5338026002332636,-0.4808415985391015,13.343086,-1.8144274,1.8571622,-1.1478444,13.456303,-10.622937,1.941159,0.3282954,-0.1860809,0.37432885,0.8470384,-8.5638485,1.2056215,-0.4546185,-0.088102356,1.5338026,-0.4808416,0
0.5200000000000002,13.568818180247534,0.344624139527978,0.8628916306152437,-0.4001623525258214,13.305809,-1.3777635,1.0063701,-0.9055276,13.370616,-10.61037,1.9365604,0.32736856,-0.19361533,0.37601393,0.8449595,-8.573814,1.30806,-0.46528524,-0.088102356,1.5338026,-0.4808416,0
0.5300000000000002,13.568818180247534,0.344624139527978,0.8628916306152437,-0.4001623525258214,13.305809,-1.3777635,1.0063701,-0.9055276,13.284822,-10.59677,1.9318519,0.3277663,-0.19744663,0.37849012,0.8428104,-8.584993,1.411748,-0.47658095,0.34462413,0.8628916,-0.40016234,0
0.5400000000000003,13.568818180247534,0.344624139527978,0.8628916306152437,-0.4001623525258214,13.305809,-1.3777635,1.0063701,-0.9055276,13.198915,-10.582131,1.9270256,0.32815567,-0.20127286,0.38095662,0.84063977,-8.596674,1.5161419,-0.48879358,0.34462413,0.8628916,-0.40016234,0
0.5500000000000003,13.568818180247534,0.344624139527978,0.8628916306152437,-0.4001623525258214,13.305809,-1.3777635,1.0063701,-0.9055276,13.112887,-10.566445,1.9220726,0.32853663,-0.20509394,0.38341334,0.83844763,-8.60885,1.6212343,-0.5019318,0.34462413,0.8628916,-0.40016234,0
0.5600000000000003,13.495540557511857,0.2681347573931328,-0.3869334823042426,-0.33375391877521265,13.377344,-1.3171644,0.456298,-0.8624829,13.026735,-10.549704,1.9169836,0.3289092,-0.20890976,0.38586026,0.83623403,-8.621514,1.7270178,-0.5160042,0.34462413,0.8628916,-0.40016234,0
0.5700000000000003,13.495540557511857,0.2681347573931328,-0.3869334823042426,-0.33375391877521265,13.377344,-1.3171644,0.456298,-0.8624829,12.940456,-10.531905,1.9117482,0.33132988,-0.20749402,0.38599482,0.83556855,-8.634179,1.8326453,-0.53106594,0.26813474,-0.38693348,-0.3337539,0
0.5800000000000003,13.495540557511857,0.2681347573931328,-0.3869334823042426,-0.33375391877521265,13.377344,-1.3171644,0.456298,-0.8624829,12.8540535,-10.513051,1.9063628,0.3337478,-0.20607655,0.38612616,0.8348961,-8.646223,1.9382424,-0.54599667,0.26813474,-0.38693348,-0.3337539,0
0.5900000000000003,13.495540557511857,0.2681347573931328,-0.3869334823042426,-0.33375391877521265,13.377344,-1.3171644,0.456298,-0.8624829,12.767534,-10.49314,1.9008287,0.33616298,-0.20465735,0.38625428,0.83421665,-8.657645,2.0438056,-0.5607966,0.26813474,-0.38693348,-0.3337539,0
0.6000000000000003,13.61151410907854,0.04902149658216889,-0.3176246121672953,-0.2848473602803773,13.425395,-1.1449714,0.000918597,-0.7396321,12.680904,-10.472175,1.8951474,0.33857533,-0.20323646,0.38637918,0.8335303,-8.6684475,2.149331,-0.57546604,0.26813474,-0.38693348,-0.3337539,0
0.6100000000000003,13.61151410907854,0.04902149658216889,-0.3176246121672953,-0.2848473602803773,13.425395,-1.1449714,0.000918597,-0.7396321,12.594168,-10.45015,1.8893236,0.34042513,-0.20237954,0.38575545,0.83327425,-8.6788225,2.255683,-0.58925164,0.049021497,-0.3176246,-0.28484735,0
0.6200000000000003,13.61151410907854,0.04902149658216889,-0.3176246121672953,-0.2848473602803773,13.425395,-1.1449714,0.000918597,-0.7396321,12.507329,-10.427061,1.883363,0.34227335,-0.20152171,0.38512993,0.83301437,-8.688851,2.361889,-0.6028116,0.049021497,-0.3176246,-0.28484735,0
0.6300000000000003,13.61151410907854,0.04902149658216889,-0.3176246121672953,-0.2848473602803773,13.425395,-1.1449714,0.000918597,-0.7396321,12.420391,-10.402912,1.8772681,0.34412,-0.20066293,0.38450262,0.8327507,-8.698537,2.4679468,-0.61614597,0.049021497,-0.3176246,-0.28484735,0
0.6400000000000003,13.61151410907854,0.04902149658216889,-0.3176246121672953,-0.2848473602803773,13.246673,-1.0624235,-0.09088963,-0.6168858,12.333359,-10.377703,1.8710409,0.34596503,-0.19980325,0.38387355,0.8324832,-8.707879,2.5738552,-0.629255,0.049021497,-0.3176246,-0.28484735,0
0.6500000000000004,13.61151410907854,0.04902149658216889,-0.3176246121672953,-0.2848473602803773,13.246673,-1.0624235,-0.09088963,-0.6168858,12.246235,-10.351435,1.8646839,0.34780848,-0.19894262,0.38324273,0.8322118,-8.716878,2.679612,-0.6421388,0.049021497,-0.3176246,-0.28484735,0
0.6600000000000004,13.61151410907854,0.04902149658216889,-0.3176246121672953,-0.2848473602803773,13.246673,-1.0624235,-0.09088963,-0.6168858,12.159022,-10.32411,1.858199,0.34965035,-0.19808109,0.3826101,0.8319364,-8.7255335,2.7852159,-0.6547974,0.049021497,-0.3176246,-0.28484735,0
0.6700000000000004,13.61151410907854,0.04902149658216889,-0.3176246121672953,-0.2848473602803773,13.246673,-1.0624235,-0.09088963,-0.6168858,12.071725,-10.295731,1.8515887,0.3514906,-0.19721864,0.38197574,0.83165723,-8.733848,2.8906648,-0.66723114,0.049021497,-0.3176246,-0.28484735,0
0.6800000000000004,13.683994622183615,-0.10806509939715159,-0.6889198096881552,-0.23456302052996786,13.017603,-0.81337506,-0.33258536,-0.4721363,11.984346,-10.266298,1.8448553,0.3533292,-0.19635528,0.3813396,0.8313742,-8.741821,2.9959571,-0.6794401,0.049021497,-0.3176246,-0.28484735,1
0.6900000000000004,13.683994622183615,-0.10806509939715159,-0.6889198096881552,-0.23456302052996786,13.017603,-0.81337506,-0.33258536,-0.4721363,11.896891,-10.235836,1.8379827,0.355123,-0.1973075,0.3769027,0.8324072,-8.749428,3.0963066,-0.6949699,-0.81337506,-0.33258536,-0.4721363,1
0.7000000000000004,13.683994622183615,-0.10806509939715159,-0.6889198096881552,-0.23456302052996786,13.017603,-0.81337506,-0.33258536,-0.4721363,11.809356,-10.204374,1.8309586,0.35690796,-0.1982548,0.37245643,0.8334194,-8.757526,3.1959743,-0.70972455,-0.81337506,-0.33258536,-0.4721363,1
0.7100000000000004,13.683994622183615,-0.10806509939715159,-0.6889198096881552,-0.23456302052996786,13.017603,-0.81337506,-0.33258536,-0.4721363,11.721738,-10.171919,1.8237909,0.35868406,-0.19919716,0.36800086,0.8344109,-8.766122,3.294954,-0.72371244,-0.81337506,-0.33258536,-0.4721363,1
0.7200000000000004,13.879947493132478,-0.07442630934582262,-0.8389607718211053,-0.16033093514359562,12.81696,-0.67199963,-0.5909476,-0.4687415,11.63403,-10.138477,1.8164871,0.36045122,-0.20013458,0.36353618,0.8353816,-8.775218,3.3932393,-0.7369422,-0.81337506,-0.33258536,-0.4721363,0
0.7300000000000004,13.879947493132478,-0.07442630934582262,-0.8389607718211053,-0.16033093514359562,12.81696,-0.67199963,-0.5909476,-0.4687415,11.546228,-10.104024,1.809083,0.36256808,-0.19705404,0.36154956,0.8360598,-8.784994,3.4973505,-0.7437709,-0.07442631,-0.83896077,-0.16033094,0
0.7400000000000004,13.879947493132478,-0.07442630934582262,-0.8389607718211053,-0.16033093514359562,12.81696,-0.67199963,-0.5909476,-0.4687415,11.458334,-10.068532,1.801614,0.36467832,-0.19396989,0.35955626,0.8367226,-8.79408,3.600874,-0.7498622,-0.07442631,-0.83896077,-0.16033094,0
0.7500000000000004,13.879947493132478,-0.07442630934582262,-0.8389607718211053,-0.16033093514359562,12.81696,-0.67199963,-0.5909476,-0.4687415,11.370351,-10.032008,1.7940879,0.36678177,-0.19088218,0.35755634,0.83737004,-8.802476,3.7038007,-0.7552219,-0.07442631,-0.83896077,-0.16033094,0
0.7600000000000005,14.1890951368248,-0.05610944573865172,-0.8342364503394418,-0.0996603185776748,12.929651,-0.25770202,-0.7075423,-0.3926176,11.282287,-9.994458,1.7865119,0.36887854,-0.18779096,0.35554984,0.8380021,-8.810184,3.806123,-0.7598558,-0.07442631,-0.83896077,-0.16033094,0
0.7700000000000005,14.1890951368248,-0.05610944573865172,-0.8342364503394418,-0.0996603185776748,12.929651,-0.25770202,-0.7075423,-0.3926176,11.194148,-9.955876,1.7789037,0.37072322,-0.18457451,0.3536794,0.83869386,-8.817353,3.9101043,-0.7616779,-0.056109447,-0.83423644,-0.09966032,0
0.7800000000000005,14.1890951368248,-0.05610944573865172,-0.8342364503394418,-0.0996603185776748,12.929651,-0.25770202,-0.7075423,-0.3926176,11.105942,-9.916258,1.7712808,0.3725613,-0.18135479,0.35180262,0.83937085,-8.823806,4.013467,-0.76278603,-0.056109447,-0.83423644,-0.09966032,0
0.7900000000000005,14.1890951368248,-0.05610944573865172,-0.8342364503394418,-0.0996603185776748,12.929651,-0.25770202,-0.7075423,-0.3926176,11.017674,-9.875608,1.7636502,0.37439284,-0.17813185,0.34991965,0.84003294,-8.829541,4.1162033,-0.7631864,-0.056109447,-0.83423644,-0.09966032,0
0.8000000000000005,14.248686817968562,-0.1278634501477075,-0.8341204023935689,-0.05170406964569844,13.063038,-0.19210023,-0.654099,-0.3665914,10.929353,-9.833935,1.7560194,0.3762177,-0.17490575,0.34803048,0.8406801,-8.834559,4.2183065,-0.76288545,-0.056109447,-0.83423644,-0.09966032,0
0.8100000000000005,14.248686817968562,-0.1278634501477075,-0.8341204023935689,-0.05170406964569844,13.063038,-0.19210023,-0.654099,-0.3665914,10.840984,-9.791242,1.7483971,0.37777135,-0.17172855,0.3458756,0.8415273,-8.838908,4.320176,-0.761456,-0.12786345,-0.8341204,-0.05170407,0
0.8200000000000005,14.248686817968562,-0.1278634501477075,-0.8341204023935689,-0.05170406964569844,13.063038,-0.19210023,-0.654099,-0.3665914,10.752577,-9.747534,1.7407928,0.37931824,-0.16854829,0.3437146,0.8423594,-8.842616,4.421345,-0.75928915,-0.12786345,-0.8341204,-0.05170407,0
0.8300000000000005,14.248686817968562,-0.1278634501477075,-0.8341204023935689,-0.05170406964569844,13.063038,-0.19210023,-0.654099,-0.3665914,10.664135,-9.702818,1.7332138,0.38085836,-0.16536501,0.34154743,0.8431765,-8.845683,4.521807,-0.7563918,-0.12786345,-0.8341204,-0.05170407,0
0.8400000000000005,14.248686817968562,-0.1278634501477075,-0.8341204023935689,-0.05170406964569844,13.127279,-0.23466602,-0.7100444,-0.39077917,10.575665,-9.657101,1.7256674,0.38239166,-0.16217877,0.33937418,0.8439785,-8.848109,4.621554,-0.7527711,-0.12786345,-0.8341204,-0.05170407,0
0.8500000000000005,14.248686817968562,-0.1278634501477075,-0.8341204023935689,-0.05170406964569844,13.127279,-0.23466602,-0.7100444,-0.39077917,10.487175,-9.610389,1.7181607,0.38391814,-0.15898962,0.33719486,0.8447655,-8.849895,4.720578,-0.74843377,-0.12786345,-0.8341204,-0.05170407,0
0.8600000000000005,14.248686817968562,-0.1278634501477075,-0.8341204023935689,-0.05170406964569844,13.127279,-0.23466602,-0.7100444,-0.39077917,10.398669,-9.562691,1.7107011,0.38543776,-0.15579765,0.33500952,0.8455373,-8.851039,4.818873,-0.7433871,-0.12786345,-0.8341204,-0.05170407,0
0.8700000000000006,14.248686817968562,-0.1278634501477075,-0.8341204023935689,-0.05170406964569844,13.127279,-0.23466602,-0.7100444,-0.39077917,10.310156,-9.514014,1.7032955,0.38695046,-0.1526029,0.33281818,0.84629405,-8.851542,4.916431,-0.7376381,-0.12786345,-0.8341204,-0.05170407,0
0.8800000000000006,14.524695494733521,-0.32356112289950656,-0.30777411819783795,-0.02617537623139615,13.292762,-0.2645275,-0.5715152,-0.37572297,10.22164,-9.464365,1.6959507,0.38845626,-0.1494054,0.33062088,0.8470357,-8.851405,5.013244,-0.731194,-0.12786345,-0.8341204,-0.05170407,0
0.8900000000000006,14.524695494733521,-0.32356112289950656,-0.30777411819783795,-0.02617537623139615,13.292762,-0.2645275,-0.5715152,-0.37572297,10.133128,-9.413742,1.6886839,0.3888332,-0.14877327,0.32863238,0.8477475,-8.850883,5.111277,-0.72212195,-0.32356113,-0.30777413,-0.026175376,0
0.9000000000000006,14.524695494733521,-0.32356112289950656,-0.30777411819783795,-0.02617537623139615,13.292762,-0.2645275,-0.5715152,-0.37572297,10.044621,-9.362141,1.68151,0.38920823,-0.1481404,0.32664225,0.84845513,-8.850425,5.2088327,-0.7126151,-0.32356113,-0.30777413,-0.026175376,0
0.9100000000000006,14.524695494733521,-0.32356112289950656,-0.30777411819783795,-0.02617537623139615,13.292762,-0.2645275,-0.5715152,-0.37572297,9.95612,-9.3095665,1.6744332,0.3895813,-0.14750677,0.32465047,0.84915847,-8.85003,5.30591,-0.7026756,-0.32356113,-0.30777413,-0.026175376,0
0.9200000000000006,14.428291376888925,-0.3997444748565956,-0.5863388299855757,0.02192145890090304,13.324325,-0.30738178,-0.47613695,-0.39838707,9.867621,-9.256023,1.667458,0.3899524,-0.14687243,0.32265705,0.84985757,-8.849699,5.4025064,-0.6923056,-0.32356113,-0.30777413,-0.026175376,0
0.9300000000000006,14.428291376888925,-0.3997444748565956,-0.5863388299855757,0.02192145890090304,13.324325,-0.30738178,-0.47613695,-0.39838707,9.779126,-9.201521,1.6605853,0.39050916,-0.14512403,0.3198293,0.85097045,-8.849367,5.4978757,-0.68213713,-0.39974448,-0.5863388,0.02192146,0
0.9400000000000006,14.428291376888925,-0.3997444748565956,-0.5863388299855757,0.02192145890090304,13.324325,-0.30738178,-0.47613695,-0.39838707,9.690635,-9.146069,1.6538175,0.391061,-0.1433738,0.31699747,0.8520726,-8.84892,5.5924788,-0.67129916,-0.39974448,-0.5863388,0.02192146,0
0.9500000000000006,14.428291376888925,-0.3997444748565956,-0.5863388299855757,0.02192145890090304,13.324325,-0.30738178,-0.47613695,-0.39838707,9.602148,-9.089674,1.6471615,0.3916079,-0.14162175,0.31416166,0.853164,-8.848357,5.6863112,-0.65979713,-0.39974448,-0.5863388,0.02192146,0
0.9600000000000006,14.690094377442927,-0.5216161602703723,-0.044758817235996846,0.03965604407649463,13.408356,-0.1861822,-0.36621854,-0.3879983,9.513668,-9.032345,1.6406238,0.3921499,-0.13986793,0.31132188,0.8542447,-8.847678,5.779369,-0.64763653,-0.39974448,-0.5863388,0.02192146,0
0.9700000000000006,14.690094377442927,-0.5216161602703723,-0.044758817235996846,0.03965604407649463,13.408356,-0.1861822,-0.36621854,-0.3879983,9.425195,-8.97408,1.6342207,0.39168406,-0.14063731,0.30903283,0.8551628,-8.847115,5.873461,-0.63292605,-0.52161616,-0.04475882,0.039656043,0
0.9800000000000006,14.690094377442927,-0.5216161602703723,-0.044758817235996846,0.03965604407649463,13.408356,-0.1861822,-0.36621854,-0.3879983,9.336724,-8.914876,1.6279665,0.3912155,-0.14140573,0.30674168,0.856075,-8.847088,5.9671297,-0.6178628,-0.52161616,-0.04475882,0.039656043,0
0.9900000000000007,14.690094377442927,-0.5216161602703723,-0.044758817235996846,0.03965604407649463,13.408356,-0.1861822,-0.36621854,-0.3879983,9.248252,-8.854739,1.6218648,0.39074424,-0.14217314,0.3044484,0.8569812,-8.847598,6.060374,-0.60244995,-0.52161616,-0.04475882,0.039656043,0
1.0000000000000007,14.366769422650515,-0.4850214352214432,-0.7274221961922057,0.07576540054342781,13.3045,-0.17103744,-0.2861913,-0.37256664,9.159771,-8.793672,1.6159189,0.39027032,-0.1429396,0.30215302,0.8578816,-8.848645,6.153189,-0.58669037,-0.52161616,-0.04475882,0.039656043,0
1.0100000000000007,14.366769422650515,-0.4850214352214432,-0.7274221961922057,0.07576540054342781,13.3045,-0.17103744,-0.2861913,-0.37256664,9.071278,-8.7316885,1.6101203,0.3906939,-0.14065,0.29870436,0.8592738,-8.849937,6.2433352,-0.57293224,-0.48502144,-0.7274222,0.0757654,0
1.0200000000000007,14.366769422650515,-0.4850214352214432,-0.7274221961922057,0.07576540054342781,13.3045,-0.17103744,-0.2861913,-0.37256664,8.982773,-8.668809,1.6044631,0.39110994,-0.1383577,0.2952499,0.86064947,-8.851072,6.332509,-0.5583954,-0.48502144,-0.7274222,0.0757654,0
1.0300000000000007,14.366769422650515,-0.4850214352214432,-0.7274221961922057,0.07576540054342781,13.3045,-0.17103744,-0.2861913,-0.37256664,8.894257,-8.605042,1.598955,0.39151847,-0.13606271,0.29178983,0.8620086,-8.852047,6.4207034,-0.54308844,-0.48502144,-0.7274222,0.0757654,0
1.0400000000000007,14.366769422650515,-0.4850214352214432,-0.7274221961922057,0.07576540054342781,13.194039,-0.069876134,-0.37777206,-0.36412436,8.805733,-8.540398,1.5936038,0.39191946,-0.13376512,0.28832412,0.8633511,-8.852861,6.507911,-0.5270202,-0.48502144,-0.7274222,0.0757654,0
1.0500000000000007,14.366769422650515,-0.4850214352214432,-0.7274221961922057,0.07576540054342781,13.194039,-0.069876134,-0.37777206,-0.36412436,8.717201,-8.474887,1.5884172,0.39231288,-0.13146496,0.28485286,0.86467695,-8.853515,6.594126,-0.5101994,-0.48502144,-0.7274222,0.0757654,0
1.0600000000000007,14.366769422650515,-0.4850214352214432,-0.7274221961922057,0.07576540054342781,13.194039,-0.069876134,-0.37777206,-0.36412436,8.628664,-8.408519,1.5834025,0.39269876,-0.12916225,0.28137612,0.8659862,-8.854007,6.6793427,-0.49263498,-0.48502144,-0.7274222,0.0757654,0
1.0700000000000007,14.366769422650515,-0.4850214352214432,-0.7274221961922057,0.07576540054342781,13.194039,-0.069876134,-0.37777206,-0.36412436,8.540122,-8.341303,1.5785671,0.3930771,-0.12685707,0.27789396,0.8672788,-8.854335,6.7635536,-0.4743358,-0.48502144,-0.7274222,0.0757654,0
1.0800000000000007,14.665096392182557,-0.5401554989442486,0.030951129047160356,0.08424708287589432,13.174223,-0.034312874,-0.15064272,-0.3377927,8.451578,-8.273251,1.5739183,0.39344785,-0.124549456,0.27440643,0.8685547,-8.854499,6.846752,-0.4553108,-0.48502144,-0.7274222,0.0757654,0
1.0900000000000007,14.665096392182557,-0.5401554989442486,0.030951129047160356,0.08424708287589432,13.174223,-0.034312874,-0.15064272,-0.3377927,8.363031,-8.204363,1.569475,0.39270166,-0.12563044,0.272173,0.869439,-8.8547945,6.9308796,-0.43329024,-0.5401555,0.03095113,0.08424708,0
1.1000000000000008,14.665096392182557,-0.5401554989442486,0.030951129047160356,0.08424708287589432,13.174223,-0.034312874,-0.15064272,-0.3377927,8.274479,-8.134636,1.5652534,0.39195254,-0.12671047,0.26993752,0.87031674,-8.855716,7.014605,-0.41099218,-0.5401555,0.03095113,0.08424708,0
1.1100000000000008,14.665096392182557,-0.5401554989442486,0.030951129047160356,0.08424708287589432,13.174223,-0.034312874,-0.15064272,-0.3377927,8.185915,-8.064073,1.5612562,0.39120045,-0.12778956,0.26770002,0.87118804,-8.857263,7.097925,-0.38841978,-0.5401555,0.03095113,0.08424708,0
1.1200000000000008,14.284757546224231,-0.5060952627234746,-0.43670727094514195,0.11703272762865607,13.07308,-0.13955113,-0.07568902,-0.34885216,8.097332,-7.9926786,1.5574859,0.39044547,-0.12886769,0.2654605,0.8720528,-8.859434,7.180837,-0.36557633,-0.5401555,0.03095113,0.08424708,0
1.1300000000000008,14.284757546224231,-0.5060952627234746,-0.43670727094514195,0.11703272762865607,13.07308,-0.13955113,-0.07568902,-0.34885216,8.008725,-7.920469,1.55393,0.3901865,-0.12779546,0.2624751,0.8732294,-8.861977,7.2610555,-0.34550726,-0.5060953,-0.43670726,0.11703273,0
1.1400000000000008,14.284757546224231,-0.5060952627234746,-0.43670727094514195,0.11703272762865607,13.07308,-0.13955113,-0.07568902,-0.34885216,7.9200926,-7.8474607,1.5505776,0.389923,-0.12672175,0.2594867,0.8743959,-8.864648,7.3404875,-0.32491124,-0.5060953,-0.43670726,0.11703273,0
1.1500000000000008,14.284757546224231,-0.5060952627234746,-0.43670727094514195,0.11703272762865607,13.07308,-0.13955113,-0.07568902,-0.34885216,7.8314323,-7.7736626,1.5474337,0.38965502,-0.1256466,0.25649533,0.87555236,-8.867445,7.4191303,-0.30379343,-0.5060953,-0.43670726,0.11703273,0
1.1600000000000008,14.487216488627528,-0.5496271578808127,0.036227065575929605,0.11744185690490039,13.0340805,-0.14100692,-0.07024291,-0.29136518,7.7427435,-7.6990814,1.5445035,0.38938257,-0.12457001,0.253501,0.87669873,-8.870367,7.4969797,-0.28215912,-0.5060953,-0.43670726,0.11703273,0
1.1700000000000008,14.487216488627528,-0.5496271578808127,0.036227065575929605,0.11744185690490039,13.0340805,-0.14100692,-0.07024291,-0.29136518,7.654024,-7.6237197,1.5418004,0.38847795,-0.12564953,0.25123438,0.877598,-8.873646,7.5752697,-0.25840768,-0.5496272,0.036227066,0.117441855,0
1.1800000000000008,14.487216488627528,-0.5496271578808127,0.036227065575929605,0.11744185690490039,13.0340805,-0.14100692,-0.07024291,-0.29136518,7.5652685,-7.547577,1.5393361,0.38757026,-0.12672806,0.2489658,0.8784903,-8.877553,7.653137,-0.23440427,-0.5496272,0.036227066,0.117441855,0
1.1900000000000008,14.487216488627528,-0.5496271578808127,0.036227065575929605,0.11744185690490039,13.0340805,-0.14100692,-0.07024291,-0.29136518,7.4764705,-7.4706583,1.5371131,0.3866595,-0.12780558,0.24669522,0.87937564,-8.882087,7.7305794,-0.21015215,-0.5496272,0.036227066,0.117441855,0
1.2000000000000008,13.928431881903373,-0.5164525403659378,-0.8684786528696938,0.1460163924473782,12.940228,-0.3073537,-0.22573432,-0.27820593,7.3876243,-7.392967,1.5351338,0.3857457,-0.12888208,0.24442267,0.880254,-8.887248,7.8075933,-0.18565467,-0.5496272,0.036227066,0.117441855,1
1.2100000000000009,13.928431881903373,-0.5164525403659378,-0.8684786528696938,0.1460163924473782,12.940228,-0.3073537,-0.22573432,-0.27820593,7.2987266,-7.314549,1.5333352,0.38704687,-0.12882102,0.24245459,0.88023597,-8.892245,7.875989,-0.17401823,-0.3073537,-0.22573432,-0.27820593,1
1.2200000000000009,13.928431881903373,-0.5164525403659378,-0.8684786528696938,0.1460163924473782,12.940228,-0.3073537,-0.22573432,-0.27820593,7.209779,-7.2354484,1.5316541,0.3883459,-0.12875924,0.24048516,0.88021314,-8.897343,7.943971,-0.1621304,-0.3073537,-0.22573432,-0.27820593,1
1.2300000000000009,13.928431881903373,-0.5164525403659378,-0.8684786528696938,0.1460163924473782,12.940228,-0.3073537,-0.22573432,-0.27820593,7.120779,-7.1556706,1.5300932,0.38964278,-0.12869674,0.2385144,0.88018537,-8.902543,8.01154,-0.14999297,-0.3073537,-0.22573432,-0.27820593,1
1.2400000000000009,13.928431881903373,-0.5164525403659378,-0.8684786528696938,0.1460163924473782,13.006541,-0.2967956,-0.41806546,-0.2894523,7.031728,-7.0752187,1.5286549,0.39093748,-0.12863353,0.23654228,0.8801527,-8.907846,8.078696,-0.13760775,-0.3073537,-0.22573432,-0.27820593,1
1.2500000000000009,13.928431881903373,-0.5164525403659378,-0.8684786528696938,0.1460163924473782,13.006541,-0.2967956,-0.41806546,-0.2894523,6.942623,-6.994096,1.5273448,0.39251313,-0.12771565,0.23423177,0.880203,-8.913217,8.145722,-0.124372244,-0.2967956,-0.41806546,-0.2894523,1
1.260000000000001,13.928431881903373,-0.5164525403659378,-0.8684786528696938,0.1460163924473782,13.006541,-0.2967956,-0.41806546,-0.2894523,6.853465,-6.912306,1.5261688,0.3940854,-0.12679666,0.23191923,0.8802457,-8.918517,8.212181,-0.11079366,-0.2967956,-0.41806546,-0.2894523,1
1.270000000000001,13.928431881903373,-0.5164525403659378,-0.8684786528696938,0.1460163924473782,13.006541,-0.2967956,-0.41806546,-0.2894523,6.7642536,-6.829854,1.5251303,0.39565426,-0.12587658,0.22960469,0.88028073,-8.923752,8.27807,-0.09687489,-0.2967956,-0.41806546,-0.2894523,1
1.280000000000001,14.412708297684393,-0.674573374321349,-0.3717843235582799,0.1997457897912779,13.241643,-0.3498804,-0.4903889,-0.22057915,6.67499,-6.746746,1.5242325,0.3972197,-0.12495539,0.22728817,0.88030815,-8.928921,8.343388,-0.08261888,-0.2967956,-0.41806546,-0.2894523,0
1.290000000000001,14.412708297684393,-0.674573374321349,-0.3717843235582799,0.1997457897912779,13.241643,-0.3498804,-0.4903889,-0.22057915,6.5856724,-6.662953,1.52354,0.39633843,-0.12443075,0.22370364,0.88169676,-8.934748,8.415029,-0.055794306,-0.67457336,-0.37178433,0.19974579,0
1.300000000000001,14.412708297684393,-0.674573374321349,-0.3717843235582799,0.1997457897912779,13.241643,-0.3498804,-0.4903889,-0.22057915,6.496294,-6.578448,1.5231184,0.39545086,-0.123904146,0.22011554,0.8830715,-8.940959,8.485757,-0.028468642,-0.67457336,-0.37178433,0.19974579,0
1.310000000000001,14.412708297684393,-0.674573374321349,-0.3717843235582799,0.1997457897912779,13.241643,-0.3498804,-0.4903889,-0.22057915,6.4068513,-6.4932404,1.5229723,0.3945571,-0.12337557,0.21652396,0.8844322,-8.947549,8.555565,-0.0006488729,-0.67457336,-0.37178433,0.19974579,0
1.320000000000001,13.9286552126691,-0.7027027470448065,-1.3470257871502254,0.26173272348641907,13.342031,-0.4758373,-0.9078704,-0.13981935,6.3173413,-6.4073396,1.5231069,0.393657,-0.122845046,0.21292895,0.8857789,-8.954518,8.624451,0.02765798,-0.67457336,-0.37178433,0.19974579,1
1.330000000000001,13.9286552126691,-0.7027027470448065,-1.3470257871502254,0.26173272348641907,13.342031,-0.4758373,-0.9078704,-0.13981935,6.2277627,-6.3207808,1.52348,0.3949453,-0.11990799,0.20894586,0.886556,-8.961066,8.687246,0.047093645,-0.4758373,-0.9078704,-0.13981935,1
1.340000000000001,13.9286552126691,-0.7027027470448065,-1.3470257871502254,0.26173272348641907,13.342031,-0.4758373,-0.9078704,-0.13981935,6.138121,-6.233599,1.5240508,0.39622298,-0.11696772,0.20495717,0.88730955,-8.967292,8.748874,0.06716336,-0.4758373,-0.9078704,-0.13981935,1
1.350000000000001,13.9286552126691,-0.7027027470448065,-1.3470257871502254,0.26173272348641907,13.342031,-0.4758373,-0.9078704,-0.13981935,6.0484185,-6.1458073,1.5248255,0.39749008,-0.114024326,0.200963,0.88803923,-8.973195,8.809326,0.08785485,-0.4758373,-0.9078704,-0.13981935,1
1.360000000000001,13.979515591308713,-0.7405653637062556,-0.165684791389047,0.2728924581299712,13.360318,-0.31738377,-0.9728879,-0.16033518,5.958658,-6.0574174,1.5258101,0.39874652,-0.11107788,0.19696346,0.8887452,-8.978779,8.868597,0.109155744,-0.4758373,-0.9078704,-0.13981935,1
1.370000000000001,13.979515591308713,-0.7405653637062556,-0.165684791389047,0.2728924581299712,13.360318,-0.31738377,-0.9728879,-0.16033518,5.868844,-5.96844,1.5270114,0.4002355,-0.10754383,0.19352174,0.8892665,-8.983973,8.926785,0.13120893,-0.31738377,-0.9728879,-0.16033518,1
1.380000000000001,13.979515591308713,-0.7405653637062556,-0.165684791389047,0.2728924581299712,13.360318,-0.31738377,-0.9728879,-0.16033518,5.778981,-5.8788857,1.5284361,0.40171376,-0.1040069,0.19007483,0.88976395,-8.988632,8.983847,0.15382305,-0.31738377,-0.9728879,-0.16033518,1
1.390000000000001,13.979515591308713,-0.7405653637062556,-0.165684791389047,0.2728924581299712,13.360318,-0.31738377,-0.9728879,-0.16033518,5.689074,-5.788767,1.5300896,0.40318123,-0.100467175,0.18662281,0.89023757,-8.992758,9.039775,0.17698577,-0.31738377,-0.9728879,-0.16033518,1
1.400000000000001,13.270837980365672,-0.7885221250774483,-0.9830921990943968,0.3428261553245854,13.543012,-0.28701192,-1.0424743,-0.18949008,5.5991282,-5.698094,1.5319775,0.40463787,-0.09692476,0.18316579,0.89068735,-8.996352,9.0945635,0.2006847,-0.31738377,-0.9728879,-0.16033518,1
1.410000000000001,13.270837980365672,-0.7885221250774483,-0.9830921990943968,0.3428261553245854,13.543012,-0.28701192,-1.0424743,-0.18949008,5.509149,-5.6068754,1.5341134,0.40629128,-0.093034945,0.1796839,0.89105856,-8.999425,9.148925,0.22658743,-0.28701192,-1.0424743,-0.18949008,1
1.420000000000001,13.270837980365672,-0.7885221250774483,-0.9830921990943968,0.3428261553245854,13.543012,-0.28701192,-1.0424743,-0.18949008,5.4191422,-5.515119,1.5365112,0.40793246,-0.08914233,0.1761966,0.891403,-9.001872,9.202075,0.25302723,-0.28701192,-1.0424743,-0.18949008,1
1.430000000000001,13.270837980365672,-0.7885221250774483,-0.9830921990943968,0.3428261553245854,13.543012,-0.28701192,-1.0424743,-0.18949008,5.329114,-5.4228377,1.539176,0.40956134,-0.085247025,0.17270401,0.8917206,-9.003694,9.254008,0.27998993,-0.28701192,-1.0424743,-0.18949008,1
1.440000000000001,13.270837980365672,-0.7885221250774483,-0.9830921990943968,0.3428261553245854,13.559924,-0.3453639,-1.220632,-0.19096279,5.2390704,-5.330043,1.5421128,0.4111779,-0.081349164,0.1692062,0.8920113,-9.004891,9.304719,0.30746138,-0.28701192,-1.0424743,-0.18949008,1
1.450000000000001,13.270837980365672,-0.7885221250774483,-0.9830921990943968,0.3428261553245854,13.559924,-0.3453639,-1.220632,-0.19096279,5.1490183,-5.2367473,1.5453278,0.41291335,-0.07677503,0.16507524,0.89238906,-9.005435,9.354177,0.33561683,-0.3453639,-1.220632,-0.19096279,1
1.460000000000001,13.270837980365672,-0.7885221250774483,-0.9830921990943968,0.3428261553245854,13.559924,-0.3453639,-1.220632,-0.19096279,5.0589647,-5.1429644,1.5488272,0.4146318,-0.07219773,0.16093749,0.8927301,-9.005262,9.402178,0.3643355,-0.3453639,-1.220632,-0.19096279,1
1.470000000000001,13.270837980365672,-0.7885221250774483,-0.9830921990943968,0.3428261553245854,13.559924,-0.3453639,-1.220632,-0.19096279,4.968916,-5.048709,1.5526165,0.41633323,-0.06761746,0.15679312,0.8930344,-9.004379,9.448708,0.39359742,-0.3453639,-1.220632,-0.19096279,1
1.480000000000001,13.08908598962651,-0.937348045965446,1.2030255987826275,0.3758270363841661,13.247651,-0.37603837,-1.5418724,-0.14455122,4.8788795,-4.9539957,1.556701,0.41801754,-0.06303441,0.1526423,0.8933019,-9.002787,9.493761,0.42338267,-0.3453639,-1.220632,-0.19096279,0
1.490000000000001,13.08908598962651,-0.937348045965446,1.2030255987826275,0.3758270363841661,13.247651,-0.37603837,-1.5418724,-0.14455122,4.78886,-4.8588448,1.5610629,0.41511244,-0.07007802,0.15108381,0.89439607,-9.0015545,9.536505,0.4489904,-0.93734807,1.2030256,0.37582704,0
1.500000000000001,13.08908598962651,-0.937348045965446,1.2030255987826275,0.3758270363841661,13.247651,-0.37603837,-1.5418724,-0.14455122,4.6988425,-4.763264,1.5656804,0.41218174,-0.07711732,0.149516,0.8954351,-9.002275,9.579638,0.47446674,-0.93734807,1.2030256,0.37582704,0
1.5100000000000011,13.08908598962651,-0.937348045965446,1.2030255987826275,0.3758270363841661,13.247651,-0.37603837,-1.5418724,-0.14455122,4.6088076,-4.667251,1.5705519,0.40922564,-0.08415185,0.14793898,0.8964188,-9.004953,9.623144,0.49978536,-0.93734807,1.2030256,0.37582704,0
1.5200000000000011,12.04773536732483,-0.8640182868885646,-0.12427908359926546,0.3968083759938017,13.558247,-0.42216748,-1.6583803,-0.12820569,4.5187364,-4.5708003,1.5756755,0.4062443,-0.09118119,0.14635284,0.8973472,-9.009585,9.6670065,0.52492,-0.93734807,1.2030256,0.37582704,0
1.5300000000000011,12.04773536732483,-0.8640182868885646,-0.12427908359926546,0.3968083759938017,13.558247,-0.42216748,-1.6583803,-0.12820569,4.4286127,-4.473928,1.5810009,0.4041563,-0.09208717,0.14240302,0.8988318,-9.015233,9.707292,0.54022163,-0.86401826,-0.12427908,0.3968084,0
1.5400000000000011,12.04773536732483,-0.8640182868885646,-0.12427908359926546,0.3968083759938017,13.558247,-0.42216748,-1.6583803,-0.12820569,4.338429,-4.376657,1.5864806,0.402059,-0.09299104,0.13844992,0.90029573,-9.021566,9.746814,0.55575526,-0.86401826,-0.12427908,0.3968084,0
1.5500000000000012,12.04773536732483,-0.8640182868885646,-0.12427908359926546,0.3968083759938017,13.558247,-0.42216748,-1.6583803,-0.12820569,4.248179,-4.2789946,1.5921167,0.39995244,-0.09389277,0.13449363,0.901739,-9.028582,9.785567,0.57151324,-0.86401826,-0.12427908,0.3968084,0
1.5600000000000012,11.74237140272259,-0.6415447885672865,0.16953754522899164,0.35376807992596765,13.091092,-0.079048574,-2.4125354,-0.017678551,4.1578546,-4.1809483,1.5979115,0.39783671,-0.09479234,0.13053426,0.9031615,-9.036275,9.823548,0.58748794,-0.86401826,-0.12427908,0.3968084,0
1.5700000000000012,11.74237140272259,-0.6415447885672865,0.16953754522899164,0.35376807992596765,13.091092,-0.079048574,-2.4125354,-0.017678551,4.067452,-4.0825305,1.6038524,0.39582163,-0.09660253,0.12814116,0.9041972,-9.044445,9.859961,0.60072416,-0.64154476,0.16953754,0.35376808,0
1.5800000000000012,11.74237140272259,-0.6415447885672865,0.16953754522899164,0.35376807992596765,13.091092,-0.079048574,-2.4125354,-0.017678551,3.9769635,-3.9837503,1.6099261,0.39380097,-0.098411344,0.12574625,0.9052201,-9.053306,9.896017,0.61402285,-0.64154476,0.16953754,0.35376808,0
1.5900000000000012,11.74237140272259,-0.6415447885672865,0.16953754522899164,0.35376807992596765,13.091092,-0.079048574,-2.4125354,-0.017678551,3.886383,-3.8846114,1.6161331,0.3917747,-0.100218765,0.123349555,0.9062302,-9.062856,9.931716,0.62738,-0.64154476,0.16953754,0.35376808,0
1.6000000000000012,10.979615482307686,-0.4205589897219117,-2.02551708241555,0.2957487319407999,12.282556,-0.17401111,-3.0291781,0.09737277,3.795704,-3.7851171,1.6224738,0.38974294,-0.10202478,0.12095112,0.9072275,-9.073092,9.9670515,0.64079154,-0.64154476,0.16953754,0.35376808,0
1.6100000000000012,10.979615482307686,-0.4205589897219117,-2.02551708241555,0.2957487319407999,12.282556,-0.17401111,-3.0291781,0.09737277,3.7049246,-3.6852844,1.6289135,0.3893905,-0.093472034,0.115240626,0.9090419,-9.082629,9.999194,0.6472418,-0.420559,-2.025517,0.29574874,0
1.6200000000000012,10.979615482307686,-0.4205589897219117,-2.02551708241555,0.2957487319407999,12.282556,-0.17401111,-3.0291781,0.09737277,3.6140554,-3.5851395,1.6354209,0.38899556,-0.08490909,0.109517545,0.910757,-9.090993,10.029502,0.6543383,-0.420559,-2.025517,0.29574874,0
1.6300000000000012,10.979615482307686,-0.4205589897219117,-2.02551708241555,0.2957487319407999,12.282556,-0.17401111,-3.0291781,0.09737277,3.5231087,-3.4847007,1.6420023,0.38855812,-0.07633687,0.103782505,0.9123727,-9.098175,10.057965,0.66203564,-0.420559,-2.025517,0.29574874,0
1.6400000000000012,10.979615482307686,-0.4205589897219117,-2.02551708241555,0.2957487319407999,11.815249,-0.36915797,-3.9373844,0.20253897,3.432096,-3.3839867,1.6486636,0.38807827,-0.0677563,0.09803613,0.9138888,-9.104166,10.084576,0.6702879,-0.420559,-2.025517,0.29574874,0
1.6500000000000012,10.979615482307686,-0.4205589897219117,-2.02551708241555,0.2957487319407999,11.815249,-0.36915797,-3.9373844,0.20253897,3.3410294,-3.2830157,1.6554099,0.38755608,-0.059168346,0.09227907,0.9153051,-9.108958,10.109325,0.679049,-0.420559,-2.025517,0.29574874,0
1.6600000000000013,10.979615482307686,-0.4205589897219117,-2.02551708241555,0.2957487319407999,11.815249,-0.36915797,-3.9373844,0.20253897,3.2499208,-3.1818066,1.6622462,0.3869916,-0.050573938,0.086511925,0.9166215,-9.112544,10.132207,0.6882727,-0.420559,-2.025517,0.29574874,0
1.6700000000000013,10.979615482307686,-0.4205589897219117,-2.02551708241555,0.2957487319407999,11.815249,-0.36915797,-3.9373844,0.20253897,3.1587825,-3.0803778,1.6691769,0.38638481,-0.041974008,0.08073533,0.9178378,-9.114916,10.153214,0.69791245,-0.420559,-2.025517,0.29574874,0
1.6800000000000013,10.769438280704858,-0.2808564558757368,-0.11640902509643992,0.3058289135504785,11.261467,-0.40835053,-3.5794733,0.30392417,3.0676265,-2.9787483,1.6762059,0.3857359,-0.03336949,0.074949935,0.91895396,-9.116067,10.172342,0.70792156,-0.420559,-2.025517,0.29574874,0
1.6900000000000013,10.769438280704858,-0.2808564558757368,-0.11640902509643992,0.3058289135504785,11.261467,-0.40835053,-3.5794733,0.30392417,2.9764638,-2.8769372,1.6833259,0.38432655,-0.033261612,0.0734858,0.91966635,-9.116492,10.189838,0.71608436,-0.28085646,-0.116409026,0.3058289,0
1.7000000000000013,10.769438280704858,-0.2808564558757368,-0.11640902509643992,0.3058289135504785,11.261467,-0.40835053,-3.5794733,0.30392417,2.8852963,-2.7749527,1.6905278,0.3829154,-0.03315358,0.07202133,0.92037445,-9.117045,10.207037,0.7242952,-0.28085646,-0.116409026,0.3058289,0
1.7100000000000013,10.769438280704858,-0.2808564558757368,-0.11640902509643992,0.3058289135504785,11.261467,-0.40835053,-3.5794733,0.30392417,2.7941227,-2.6727974,1.697812,0.38150248,-0.033045392,0.07055652,0.92107826,-9.117725,10.223937,0.7325531,-0.28085646,-0.116409026,0.3058289,0
1.7200000000000013,10.34407105130017,-0.11935557342052078,-0.5596867034628894,0.25905680488547805,11.730469,-0.45600128,-4.5190105,0.39850423,2.7029417,-2.5704749,1.7051789,0.3800878,-0.032937054,0.06909139,0.9217778,-9.11853,10.240538,0.74085724,-0.28085646,-0.116409026,0.3058289,0
1.7300000000000013,10.34407105130017,-0.11935557342052078,-0.5596867034628894,0.25905680488547805,11.730469,-0.45600128,-4.5190105,0.39850423,2.6117523,-2.467991,1.7126081,0.37906566,-0.030494697,0.06751996,0.922399,-9.119257,10.256121,0.7450149,-0.119355574,-0.5596867,0.2590568,0
1.7400000000000013,10.34407105130017,-0.11935557342052078,-0.5596867034628894,0.25905680488547805,11.730469,-0.45600128,-4.5190105,0.39850423,2.5205576,-2.365354,1.7200793,0.37803978,-0.028052041,0.065947875,0.92301106,-9.119658,10.271213,0.7492478,-0.119355574,-0.5596867,0.2590568,0
1.7500000000000013,10.34407105130017,-0.11935557342052078,-0.5596867034628894,0.25905680488547805,11.730469,-0.45600128,-4.5190105,0.39850423,2.4293606,-2.2625685,1.7275933,0.37701017,-0.025609106,0.06437514,0.923614,-9.119735,10.285815,0.7535523,-0.119355574,-0.5596867,0.2590568,0
1.7600000000000013,10.229592780134283,-0.04526251864604521,1.212043319827434,0.28016570304474675,11.167678,-0.10796034,-3.2700183,0.3821884,2.3381643,-2.1596394,1.7351506,0.37597683,-0.023165919,0.06280176,0.92420787,-9.119485,10.29993,0.75792503,-0.119355574,-0.5596867,0.2590568,0
1.7700000000000014,10.229592780134283,-0.04526251864604521,1.212043319827434,0.28016570304474675,11.167678,-0.10796034,-3.2700183,0.3821884,2.246971,-2.056571,1.7427461,0.37428907,-0.028763447,0.06490233,0.92459047,-9.11938,10.313895,0.7611625,-0.04526252,1.2120433,0.2801657,0
1.7800000000000014,10.229592780134283,-0.04526251864604521,1.212043319827434,0.28016570304474675,11.167678,-0.10796034,-3.2700183,0.3821884,2.1557736,-1.9533588,1.7503735,0.37258682,-0.03435986,0.06700038,0.92493725,-9.120196,10.328683,0.7642802,-0.04526252,1.2120433,0.2801657,0
1.7900000000000014,10.229592780134283,-0.04526251864604521,1.212043319827434,0.28016570304474675,11.167678,-0.10796034,-3.2700183,0.3821884,2.0645635,-1.8499945,1.7580314,0.3708701,-0.03995494,0.069095835,0.9252482,-9.121939,10.344286,0.76726353,-0.04526252,1.2120433,0.2801657,0
1.8000000000000014,10.029261702001968,-0.010278927893290374,-0.315414584902874,0.25956919461225025,11.889075,-0.7074084,-4.0383,0.42037448,1.9733313,-1.7464701,1.7657182,0.36913908,-0.045548476,0.071188614,0.9255233,-9.124607,10.3607025,0.770098,-0.04526252,1.2120433,0.2801657,0
1.8100000000000014,10.029261702001968,-0.010278927893290374,-0.315414584902874,0.25956919461225025,11.889075,-0.7074084,-4.0383,0.42037448,1.8820696,-1.6427803,1.773423,0.36804706,-0.044015348,0.070617855,0.92607594,-9.127708,10.377209,0.77087444,-0.010278928,-0.31541458,0.2595692,0
1.8200000000000014,10.029261702001968,-0.010278927893290374,-0.315414584902874,0.25956919461225025,11.889075,-0.7074084,-4.0383,0.42037448,1.7907779,-1.5389266,1.7811358,0.3669535,-0.042482026,0.0700468,0.9266248,-9.130589,10.393494,0.77169424,-0.010278928,-0.31541458,0.2595692,0
1.8300000000000014,10.029261702001968,-0.010278927893290374,-0.315414584902874,0.25956919461225025,11.889075,-0.7074084,-4.0383,0.42037448,1.6994585,-1.4349113,1.788857,0.36585838,-0.040948533,0.06947545,0.9271697,-9.1332445,10.409557,0.77255636,-0.010278928,-0.31541458,0.2595692,0
1.8400000000000014,10.029261702001968,-0.010278927893290374,-0.315414584902874,0.25956919461225025,11.873033,-0.5272377,-3.3923075,0.42572019,1.6081136,-1.3307364,1.796587,0.36476174,-0.039414868,0.06890381,0.92771065,-9.135677,10.425401,0.7734598,-0.010278928,-0.31541458,0.2595692,0
1.8500000000000014,10.029261702001968,-0.010278927893290374,-0.315414584902874,0.25956919461225025,11.873033,-0.5272377,-3.3923075,0.42572019,1.5167456,-1.2264041,1.8043263,0.36366358,-0.03788104,0.06833189,0.9282478,-9.137886,10.441024,0.7744034,-0.010278928,-0.31541458,0.2595692,0
1.8600000000000014,10.029261702001968,-0.010278927893290374,-0.315414584902874,0.25956919461225025,11.873033,-0.5272377,-3.3923075,0.42572019,1.4253566,-1.1219165,1.8120751,0.36256394,-0.036347054,0.06775968,0.92878115,-9.139871,10.456428,0.7753861,-0.010278928,-0.31541458,0.2595692,0
1.8700000000000014,10.029261702001968,-0.010278927893290374,-0.315414584902874,0.25956919461225025,11.873033,-0.5272377,-3.3923075,0.42572019,1.333949,-1.0172762,1.8198341,0.36146274,-0.034812912,0.06718719,0.9293106,-9.14163,10.471612,0.7764068,-0.010278928,-0.31541458,0.2595692,0
1.8800000000000014,10.063428028342264,-0.07226791405328829,1.0893646985509506,0.3027378304887509,11.257182,-0.6189826,-2.796506,0.37853834,1.242525,-0.912485,1.8276035,0.36036006,-0.03327863,0.06661441,0.9298361,-9.143164,10.486578,0.7774646,-0.010278928,-0.31541458,0.2595692,0
1.8900000000000015,10.063428028342264,-0.07226791405328829,1.0893646985509506,0.3027378304887509,11.257182,-0.6189826,-2.796506,0.37853834,1.1510853,-0.80754405,1.8353851,0.35857192,-0.038372103,0.06829054,0.93020946,-9.144882,10.501711,0.7788392,-0.07226791,1.0893646,0.30273783,0
1.9000000000000015,10.063428028342264,-0.07226791405328829,1.0893646985509506,0.3027378304887509,11.257182,-0.6189826,-2.796506,0.37853834,1.0596242,-0.7024485,1.84318,0.35677233,-0.043464344,0.069964476,0.93055296,-9.147461,10.517518,0.78009045,-0.07226791,1.0893646,0.30273783,0
1.9100000000000015,10.063428028342264,-0.07226791405328829,1.0893646985509506,0.3027378304887509,11.257182,-0.6189826,-2.796506,0.37853834,0.96813315,-0.59719145,1.8509866,0.3549613,-0.04855519,0.07163616,0.93086666,-9.150901,10.533993,0.7812069,-0.07226791,1.0893646,0.30273783,0
1.9200000000000015,9.916886757370852,-0.107845636830963,0.2546818987779954,0.32637309948139065,11.712186,-0.7118322,-3.5419564,0.23584309,0.87660336,-0.49176636,1.8588036,0.35313883,-0.05364448,0.073305555,0.93115044,-9.155204,10.551131,0.78217715,-0.07226791,1.0893646,0.30273783,0
1.9300000000000015,9.916886757370852,-0.107845636830963,0.2546818987779954,0.32637309948139065,11.712186,-0.7118322,-3.5419564,0.23584309,0.7850272,-0.38616848,1.8666226,0.35149625,-0.054900885,0.07334051,0.9316958,-9.160073,10.568459,0.781599,-0.107845634,0.2546819,0.3263731,0
1.9400000000000015,9.916886757370852,-0.107845636830963,0.2546818987779954,0.32637309948139065,11.712186,-0.7118322,-3.5419564,0.23584309,0.693401,-0.2803969,1.8744355,0.34985203,-0.056157045,0.073375136,0.9322369,-9.165202,10.585871,0.78099245,-0.107845634,0.2546819,0.3263731,0
1.9500000000000015,9.916886757370852,-0.107845636830963,0.2546818987779954,0.32637309948139065,11.712186,-0.7118322,-3.5419564,0.23584309,0.6017222,-0.1744508,1.8822423,0.34820622,-0.05741295,0.07340942,0.9327737,-9.17059,10.603365,0.78035706,-0.107845634,0.2546819,0.3263731,0
1.9600000000000015,9.85014828795096,-0.2843450615121104,0.22223123513270762,0.38943234670981064,10.819387,-0.42827475,-2.6853275,0.37940344,0.50998825,-0.068329334,1.8900427,0.34655884,-0.058668587,0.07344338,0.9333063,-9.176239,10.620942,0.7796922,-0.107845634,0.2546819,0.3263731,0
1.9700000000000015,9.85014828795096,-0.2843450615121104,0.22223123513270762,0.38943234670981064,10.819387,-0.42827475,-2.6853275,0.37940344,0.41819662,0.037967555,1.897833,0.3445753,-0.060055133,0.07261554,0.93401706,-9.182142,10.638425,0.77834976,-0.28434506,0.22223124,0.38943234,0
1.9800000000000015,9.85014828795096,-0.2843450615121104,0.22223123513270762,0.38943234670981064,10.819387,-0.42827475,-2.6853275,0.37940344,0.32634422,0.14443892,1.9056097,0.34258932,-0.061441258,0.071787186,0.93472123,-9.188394,10.655836,0.7769984,-0.28434506,0.22223124,0.38943234,0
1.9900000000000015,9.85014828795096,-0.2843450615121104,0.22223123513270762,0.38943234670981064,10.819387,-0.42827475,-2.6853275,0.37940344,0.23442756,0.25108403,1.9133729,0.34060097,-0.06282695,0.070958324,0.9354187,-9.194993,10.673175,0.77563703,-0.28434506,0.22223124,0.38943234,0
2.0000000000000013,,,,,11.495067,-0.71955794,-3.6815712,0.2861006,0.14244315,0.35790217,1.9211224,0.33861023,-0.064212196,0.070128955,0.9361098,-9.20194,10.690438,0.7742647,-0.28434506,0.22223124,0.38943234,0
2.010000000000001,,,,,11.495067,-0.71955794,-3.6815712,0.2861006,0.050388403,0.46489102,1.9288524,0.3365167,-0.06296437,0.067810655,0.9371197,-9.209004,10.707253,0.77176166,-0.39058354,-0.37422743,0.44807714,0
2.020000000000001,,,,,11.495067,-0.71955794,-3.6815712,0.2861006,-0.04173682,0.57204545,1.936558,0.33441907,-0.061715778,0.06549151,0.9381181,-9.216034,10.723554,0.76935077,-0.39058354,-0.37422743,0.44807714,0
2.0300000000000007,,,,,11.495067,-0.71955794,-3.6815712,0.2861006,-0.13393216,0.67936033,1.9442399,0.3323173,-0.06046642,0.06317157,0.9391049,-9.223026,10.739335,0.76702935,-0.39058354,-0.37422743,0.44807714,0
2.0400000000000005,,,,,11.495067,-0.71955794,-3.6815712,0.2861006,-0.22619721,0.7868304,1.9518989,0.3302114,-0.059216313,0.060850848,0.94008017,-9.229978,10.754599,0.7647948,-0.39058354,-0.37422743,0.44807714,0
2.0500000000000003,,,,,11.437556,-0.5959186,-3.5200007,0.3405413,-0.31853154,0.8944506,1.9595361,0.32810146,-0.05796548,0.058529373,0.94104385,-9.236884,10.769346,0.76264435,-0.39058354,-0.37422743,0.44807714,1
2.06,,,,,11.437556,-0.5959186,-3.5200007,0.3405413,-0.41093782,1.0022255,1.9672368,0.32730383,-0.042272575,0.050040603,0.9426457,-9.243952,10.785173,0.77759296,-0.5959186,-3.5200007,0.3405413,1
2.07,,,,,11.437556,-0.5959186,-3.5200007,0.3405413,-0.5034012,1.1101438,1.9750897,0.32640097,-0.026566079,0.041535743,0.9439445,-9.248297,10.798003,0.79305786,-0.5959186,-3.5200007,0.3405413,1
2.0799999999999996,,,,,11.437556,-0.5959186,-3.5200007,0.3405413,-0.59589434,1.2181753,1.9830992,0.32539317,-0.0108510405,0.033017527,0.9449398,-9.249903,10.807828,0.8088936,-0.5959186,-3.5200007,0.3405413,1
2.0899999999999994,,,,,11.411874,-0.71041286,-3.9505494,0.25898358,-0.6883898,1.32629,1.9912684,0.32428077,0.004867486,0.024488695,0.94563127,-9.248757,10.814644,0.82495445,-0.5959186,-3.5200007,0.3405413,1
2.099999999999999,,,,,11.411874,-0.71041286,-3.9505494,0.25898358,-0.7808597,1.4344573,1.9995973,0.32349172,0.022423977,0.01471372,0.94585073,-9.244745,10.818293,0.84083706,-0.71041286,-3.9505494,0.25898358,1
2.109999999999999,,,,,11.411874,-0.71041286,-3.9505494,0.25898358,-0.8732742,1.5426441,2.008085,0.32257184,0.0399714,0.004932793,0.9456877,-9.237669,10.818539,0.8566287,-0.71041286,-3.9505494,0.25898358,1
2.1199999999999988,,,,,11.411874,-0.71041286,-3.9505494,0.25898358,-0.9656026,1.6508164,2.0167294,0.3215215,0.057502657,-0.0048501287,0.9451421,-9.227531,10.815389,0.87214535,-0.71041286,-3.9505494,0.25898358,1
2.1299999999999986,,,,,12.138614,-1.1809957,-4.0010324,0.33163822,-1.0578142,1.7589403,2.0255265,0.3203411,0.07501065,-0.014631089,0.94421434,-9.21434,10.808857,0.8872035,-0.71041286,-3.9505494,0.25898358,1
2.1399999999999983,,,,,12.138614,-1.1809957,-4.0010324,0.33163822,-1.1498743,1.8669785,2.034507,0.31885564,0.09196629,-0.026735427,0.9429519,-9.1971855,10.798148,0.9087847,-1.1809957,-4.0010324,0.33163822,1
2.149999999999998,,,,,12.138614,-1.1809957,-4.0010324,0.33163822,-1.2417481,1.9748894,2.0436993,0.31723058,0.10888166,-0.03882806,0.94127667,-9.177111,10.783398,0.9294787,-1.1809957,-4.0010324,0.33163822,1
2.159999999999998,,,,,12.138614,-1.1809957,-4.0010324,0.33163822,-1.3334066,2.0826328,2.0530932,0.3154666,0.12574936,-0.050903693,0.9391894,-9.154137,10.764644,0.9490778,-1.1809957,-4.0010324,0.33163822,1
