time-since-start [s],throttle_mpc,roll_mpc,pitch_mpc,yaw_mpc,throttle_nw,roll_nw,pitch_nw,yaw_nw,position_x [m],position_y [m],position_z [m],rotation_w [quaternion],rotation_x [quaternion],rotation_y [quaternion],rotation_z [quaternion],velocity_x [m/s],velocity_y [m/s],velocity_z [m/s],omega_x [rad/s],omega_y [rad/s],omega_z [rad/s],network_used
0.0,12.678176933612491,5.999999609673488,-5.999999884291469,-3.8941501809638077,7.041813,0.6273247,-0.17424743,-1.0948894,16.658035,-10.491577,1.3071088,-0.123516634,0.39882177,-0.23792987,-0.87696874,-8.7808275,-3.484091,-0.582589,1.3861026,-0.16205937,-0.108736776,0
0.01,12.678176933612491,5.999999609673488,-5.999999884291469,-3.8941501809638077,15.1637535,0.3353623,-1.7635314,-0.5227793,16.569641,-10.525943,1.3013128,-0.12757328,0.39668754,-0.24374254,-0.8757588,-8.897382,-3.3890178,-0.5769678,1.5232842,-0.49033582,-0.24240862,0
0.02,12.678176933612491,5.999999609673488,-5.999999884291469,-3.8941501809638077,15.1637535,0.3353623,-1.7635314,-0.5227793,16.4801,-10.559356,1.2955616,-0.13287774,0.39319074,-0.24970719,-0.87486607,-9.010057,-3.2934961,-0.5736018,1.6754732,-0.803895,-0.37278,0
0.03,12.678176933612491,5.999999609673488,-5.999999884291469,-3.8941501809638077,15.1637535,0.3353623,-1.7635314,-0.5227793,16.389454,-10.591809,1.2898341,-0.13942811,0.38837096,-0.25588536,-0.87421405,-9.118438,-3.197414,-0.5721425,1.839833,-1.1045325,-0.49996802,0
0.04,12.678176933612491,5.999999609673488,-5.999999884291469,-3.8941501809638077,15.431887,1.9119533,-2.0231285,-0.93280065,16.297749,-10.623301,1.2841132,-0.14721665,0.38225767,-0.2623233,-0.8737234,-9.222127,-3.1006663,-0.5722916,2.0139594,-1.3937529,-0.6240832,0
0.05,12.678176933612491,5.999999609673488,-5.999999884291469,-3.8941501809638077,15.431887,1.9119533,-2.0231285,-0.93280065,16.20503,-10.653821,1.2783836,-0.1562301,0.37487182,-0.26905385,-0.8733116,-9.320742,-3.0031667,-0.5737977,2.1958132,-1.6728184,-0.7452299,0
0.060000000000000005,12.678176933612491,5.999999609673488,-5.999999884291469,-3.8941501809638077,15.431887,1.9119533,-2.0231285,-0.93280065,16.111355,-10.683362,1.2726332,-0.1664499,0.3662273,-0.2760982,-0.8728927,-9.413911,-2.9048524,-0.57645226,2.3836656,-1.9427862,-0.86350685,0
0.07,12.678176933612491,5.999999609673488,-5.999999884291469,-3.8941501809638077,15.431887,1.9119533,-2.0231285,-0.93280065,16.016773,-10.711917,1.2668511,-0.17785229,0.35633215,-0.28346688,-0.87237734,-9.501276,-2.8056924,-0.58008707,2.5760527,-2.2045424,-0.9790072,0
0.08,14.201349553060908,5.999999592363002,-5.999999900053605,-4.081209450217656,14.580866,2.9427016,-2.2022946,-1.4001002,15.92135,-10.739474,1.2610284,-0.19040832,0.34518987,-0.29116103,-0.87167287,-9.582488,-2.7056913,-0.5845719,2.7717338,-2.4588306,-1.0918193,0
0.09,14.201349553060908,5.999999592363002,-5.999999900053605,-4.081209450217656,14.580866,2.9427016,-2.2022946,-1.4001002,15.825113,-10.765983,1.2551981,-0.20413049,0.332768,-0.2991892,-0.8706789,-9.663813,-2.5959868,-0.58160657,2.9846532,-2.7213333,-1.2125468,0
0.09999999999999999,14.201349553060908,5.999999592363002,-5.999999900053605,-4.081209450217656,14.580866,2.9427016,-2.2022946,-1.4001002,15.7281,-10.79139,1.2493937,-0.21902469,0.3190289,-0.30755147,-0.8692874,-9.737706,-2.4854853,-0.57937765,3.1991954,-2.9777853,-1.3304664,0
0.10999999999999999,14.201349553060908,5.999999592363002,-5.999999900053605,-4.081209450217656,14.580866,2.9427016,-2.2022946,-1.4001002,15.630387,-10.81569,1.243608,-0.2350436,0.30396497,-0.3162238,-0.867388,-9.803799,-2.3743248,-0.5778501,3.4145463,-3.2285666,-1.4456657,0
0.11999999999999998,14.201349553060908,5.999999592363002,-5.999999900053605,-4.081209450217656,14.580866,2.9427016,-2.2022946,-1.4001002,15.532054,-10.838876,1.2378341,-0.25213352,0.2875684,-0.32517448,-0.8648666,-9.86174,-2.2627008,-0.57702523,3.6300173,-3.4739952,-1.5582277,0
0.12999999999999998,16.05392222372616,5.255113075968409,-5.999999850124327,-3.6231436756529014,14.610493,2.494628,-1.5445404,-1.0277811,15.433184,-10.860944,1.2320648,-0.27023405,0.26983234,-0.33436465,-0.86160547,-9.911205,-2.1508665,-0.57693934,3.845025,-3.714338,-1.6682311,0
0.13999999999999999,16.05392222372616,5.255113075968409,-5.999999850124327,-3.6231436756529014,14.610493,2.494628,-1.5445404,-1.0277811,15.333852,-10.88187,1.2263125,-0.28936931,0.25045395,-0.34368783,-0.8575643,-9.953673,-2.0341754,-0.57332236,4.0642867,-4.0712776,-1.7641592,0
0.15,16.05392222372616,5.255113075968409,-5.999999850124327,-3.6231436756529014,14.610493,2.494628,-1.5445404,-1.0277811,15.234139,-10.901621,1.2206025,-0.30946052,0.22931096,-0.35297367,-0.85267806,-9.987259,-1.9156625,-0.56850207,4.2493906,-4.372526,-1.8553802,0
0.16,16.98682584816241,3.107596555963921,-5.56386437533506,-1.3002647770866875,16.157787,1.7818187,-0.93984264,-0.764564,15.13414,-10.920179,1.2149464,-0.33030105,0.20664816,-0.36209726,-0.8468075,-10.01129,-1.795839,-0.56253487,4.4056644,-4.6267676,-1.9421247,0
0.17,16.98682584816241,3.107596555963921,-5.56386437533506,-1.3002647770866875,16.157787,1.7818187,-0.93984264,-0.764564,15.033945,-10.9375,1.2093856,-0.35123172,0.18301824,-0.37035125,-0.84022623,-10.026068,-1.6683309,-0.5494171,4.2031446,-4.772565,-1.9106284,0
0.18000000000000002,16.98682584816241,3.107596555963921,-5.56386437533506,-1.3002647770866875,16.157787,1.7818187,-0.93984264,-0.764564,14.933657,-10.953547,1.2039615,-0.37172323,0.15889256,-0.37720716,-0.8332403,-10.030097,-1.540971,-0.53522575,4.0322366,-4.895676,-1.8806778,0
0.19000000000000003,16.98682584816241,3.107596555963921,-5.56386437533506,-1.3002647770866875,16.157787,1.7818187,-0.93984264,-0.764564,14.833382,-10.968324,1.1986846,-0.39177442,0.13435763,-0.3828083,-0.8257834,-10.023455,-1.4146469,-0.5199932,3.8880048,-4.9996305,-1.8521967,0
0.20000000000000004,16.86732441994234,1.9712917260103255,-4.350153434628528,-1.0878095451521996,17.220385,0.8178346,0.19682898,-0.6445884,14.733224,-10.981846,1.1935649,-0.4113778,0.10948778,-0.3872764,-0.8178002,-10.006266,-1.2901976,-0.50379944,3.7662845,-5.087409,-1.8251133,0
0.21000000000000005,16.86732441994234,1.9712917260103255,-4.350153434628528,-1.0878095451521996,17.220385,0.8178346,0.19682898,-0.6445884,14.63329,-10.99414,1.1886073,-0.43027106,0.08492477,-0.3905562,-0.8093948,-9.978941,-1.169263,-0.48757443,3.486611,-4.9720187,-1.7889335,0
0.22000000000000006,16.86732441994234,1.9712917260103255,-4.350153434628528,-1.0878095451521996,17.220385,0.8178346,0.19682898,-0.6445884,14.53368,-11.00524,1.1838157,-0.44827273,0.061189674,-0.3926456,-0.8007098,-9.941889,-1.0516237,-0.47064924,3.2505205,-4.874691,-1.7545291,0
0.23000000000000007,16.86732441994234,1.9712917260103255,-4.350153434628528,-1.0878095451521996,17.220385,0.8178346,0.19682898,-0.6445884,14.434485,-11.015184,1.1791962,-0.4654777,0.03817583,-0.39370835,-0.7917488,-9.895705,-0.9378337,-0.4531545,3.0512216,-4.792597,-1.7218128,0
0.24000000000000007,16.86732441994234,1.9712917260103255,-4.350153434628528,-1.0878095451521996,17.44379,0.13329434,1.9630544,-0.47331238,14.335795,-11.024013,1.174754,-0.48196176,0.015790524,-0.3938795,-0.7825099,-9.840946,-0.82837766,-0.435218,2.8829803,-4.7233505,-1.6907022,0
0.25000000000000006,16.86732441994234,1.9712917260103255,-4.350153434628528,-1.0878095451521996,17.44379,0.13329434,1.9630544,-0.47331238,14.237694,-11.03177,1.1704928,-0.4977854,-0.0060460847,-0.3932707,-0.77298814,-9.7781315,-0.72368336,-0.4169675,2.740957,-4.664942,-1.661118,0
0.26000000000000006,16.86732441994234,1.9712917260103255,-4.350153434628528,-1.0878095451521996,17.44379,0.13329434,1.9630544,-0.47331238,14.140258,-11.038505,1.1664152,-0.5129966,-0.027402148,-0.3919743,-0.763177,-9.707752,-0.6241321,-0.39853248,2.6210659,-4.6156726,-1.6329857,0
0.2700000000000001,16.86732441994234,1.9712917260103255,-4.350153434628528,-1.0878095451521996,17.44379,0.13329434,1.9630544,-0.47331238,14.043563,-11.044271,1.1625224,-0.5276334,-0.048335332,-0.39006692,-0.75306964,-9.630271,-0.5300656,-0.38004503,2.519858,-4.5741134,-1.6062337,0
0.2800000000000001,16.43312888963027,0.0985276844001369,-2.350434173713886,0.0581489207844808,16.200712,-0.7179601,2.4173148,0.04492223,13.947677,-11.049126,1.1588141,-0.54172575,-0.068894,-0.38761204,-0.7426595,-9.546132,-0.44179225,-0.36164045,2.434421,-4.5390573,-1.5807945,0
0.2900000000000001,16.43312888963027,0.0985276844001369,-2.350434173713886,0.0581489207844808,16.200712,-0.7179601,2.4173148,0.04492223,13.852651,-11.053139,1.1552739,-0.55494916,-0.08817364,-0.38454336,-0.7323815,-9.458157,-0.36166117,-0.34643242,2.0707123,-4.1972585,-1.5003711,0
0.3000000000000001,16.43312888963027,0.0985276844001369,-2.350434173713886,0.0581489207844808,16.200712,-0.7179601,2.4173148,0.04492223,13.758531,-11.056379,1.1518847,-0.5670909,-0.10547145,-0.38085273,-0.72265786,-9.364981,-0.28732634,-0.33142552,1.7636286,-3.9088588,-1.4238939,0
0.3100000000000001,16.43312888963027,0.0985276844001369,-2.350434173713886,0.0581489207844808,16.200712,-0.7179601,2.4173148,0.04492223,13.665366,-11.058905,1.1486448,-0.57831573,-0.121098034,-0.37665802,-0.7134525,-9.267412,-0.2186028,-0.3165715,1.5043571,-3.665511,-1.3511697,0
0.3200000000000001,16.144618345903833,-2.0637030547700013,0.060927973622279634,1.895623976593452,17.79516,-1.3830168,3.988964,0.7025197,13.573196,-11.06077,1.145553,-0.58875555,-0.135317,-0.37205037,-0.7047228,-9.166126,-0.15530606,-0.30181617,1.2854557,-3.460174,-1.282014,0
0.3300000000000001,16.144618345903833,-2.0637030547700013,0.060927973622279634,1.895623976593452,17.79516,-1.3830168,3.988964,0.7025197,13.482053,-11.06203,1.142607,-0.59816474,-0.14725289,-0.36695793,-0.6970344,-9.062268,-0.097476244,-0.28762203,0.7428772,-2.9315474,-1.1280222,0
0.34000000000000014,16.144618345903833,-2.0637030547700013,0.060927973622279634,1.895623976593452,17.79516,-1.3830168,3.988964,0.7025197,13.391953,-11.062737,1.1397965,-0.60633504,-0.15623482,-0.36144093,-0.6908752,-8.957461,-0.04485248,-0.27448574,0.30383244,-2.466461,-0.97983205,0
0.35000000000000014,16.144618345903833,-2.0637030547700013,0.060927973622279634,1.895623976593452,17.79516,-1.3830168,3.988964,0.7025197,13.302908,-11.06294,1.1371186,-0.61343265,-0.1627469,-0.35565728,-0.68609136,-8.851463,0.0038360944,-0.26097152,-0.06493914,-2.072085,-0.83873254,0
0.36000000000000015,17.724148259160035,-4.003908096659549,3.0491624912143984,2.220157982739978,19.139683,-2.1537654,5.2567067,1.4618348,13.214926,-11.062672,1.1345795,-0.6196106,-0.16719808,-0.3496645,-0.6825408,-8.744809,0.049246974,-0.24670321,-0.3763096,-1.7393042,-0.7045569,0
0.37000000000000016,17.724148259160035,-4.003908096659549,3.0491624912143984,2.220157982739978,19.139683,-2.1537654,5.2567067,1.4618348,13.128063,-11.061942,1.1322433,-0.62467796,-0.16864747,-0.3437091,-0.6805874,-8.627649,0.09616116,-0.22035903,-0.94159204,-0.99237126,-0.5610403,0
0.38000000000000017,17.724148259160035,-4.003908096659549,3.0491624912143984,2.220157982739978,19.139683,-2.1537654,5.2567067,1.4618348,13.042369,-11.060754,1.1301774,-0.628489,-0.166365,-0.33799076,-0.6805044,-8.511299,0.14123684,-0.19258259,-1.4188927,-0.36204588,-0.4245661,0
0.3900000000000002,17.724148259160035,-4.003908096659549,3.0491624912143984,2.220157982739978,19.139683,-2.1537654,5.2567067,1.4618348,12.95783,-11.059119,1.1283977,-0.6311939,-0.16094467,-0.3324686,-0.682023,-8.39661,0.18559556,-0.16303916,-1.8218892,0.16988927,-0.2947887,0
0.4000000000000002,18.700153811759527,-4.859651900129738,4.559064570537185,2.281754580702749,19.533508,-3.4384637,5.6674066,1.6038679,12.874429,-11.057041,1.1269234,-0.63289666,-0.15288213,-0.3270952,-0.68489206,-8.28431,0.23018344,-0.13146897,-2.1621354,0.6188032,-0.17137954,0
0.4100000000000002,18.700153811759527,-4.859651900129738,4.559064570537185,2.281754580702749,19.533508,-3.4384637,5.6674066,1.6038679,12.792165,-11.0545,1.125812,-0.63351667,-0.14196281,-0.32196775,-0.689086,-8.16905,0.27834985,-0.0904187,-2.582837,1.2331306,-0.05100356,0
0.4200000000000002,18.700153811759527,-4.859651900129738,4.559064570537185,2.281754580702749,19.533508,-3.4384637,5.6674066,1.6038679,12.711034,-11.051467,1.1251235,-0.6329665,-0.12803064,-0.31714723,-0.6945349,-8.057817,0.32864618,-0.046869703,-2.9380164,1.751602,0.06346556,0
0.4300000000000002,18.700153811759527,-4.859651900129738,4.559064570537185,2.281754580702749,19.533508,-3.4384637,5.6674066,1.6038679,12.630992,-11.047916,1.1248834,-0.63129634,-0.11154814,-0.31253716,-0.70095795,-7.9514117,0.38198578,-0.0007521976,-3.237866,2.1891832,0.17231764,0
0.4400000000000002,18.700153811759527,-4.859651900129738,4.559064570537185,2.281754580702749,19.771652,-3.9768698,5.970716,1.6993674,12.551988,-11.043814,1.1251172,-0.6285378,-0.09290792,-0.30805236,-0.7081043,-7.850578,0.43909547,0.047899228,-3.490995,2.558502,0.2758283,0
0.45000000000000023,18.700153811759527,-4.859651900129738,4.559064570537185,2.281754580702749,19.771652,-3.9768698,5.970716,1.6993674,12.47396,-11.03912,1.1258496,-0.62471175,-0.07244542,-0.3036194,-0.71575254,-7.7560143,0.5005352,0.0989536,-3.7046752,2.8702133,0.37425968,0
0.46000000000000024,18.700153811759527,-4.859651900129738,4.559064570537185,2.281754580702749,19.771652,-3.9768698,5.970716,1.6993674,12.396844,-11.033788,1.1271037,-0.61983365,-0.050449003,-0.29917657,-0.72370857,-7.66838,0.5667152,0.1521933,-3.8850472,3.1333084,0.467861,0
0.47000000000000025,18.700153811759527,-4.859651900129738,4.559064570537185,2.281754580702749,19.771652,-3.9768698,5.970716,1.6993674,12.320566,-11.027769,1.1288999,-0.61391646,-0.027167937,-0.29467288,-0.73180324,-7.588293,0.63791096,0.20732446,-4.037298,3.3553743,0.5568693,0
0.48000000000000026,19.384344839453448,-4.800587013541033,4.897838170349228,2.16517371869317,19.82453,-4.7767143,5.4081497,1.3909804,12.245049,-11.021011,1.1312554,-0.6069728,-0.0028189044,-0.29006717,-0.7398896,-7.516332,0.714277,0.26398754,-4.165807,3.542813,0.64150995,1
0.49000000000000027,19.384344839453448,-4.800587013541033,4.897838170349228,2.16517371869317,19.82453,-4.7767143,5.4081497,1.3909804,12.170229,-11.01344,1.1342301,-0.5989978,0.022672921,-0.2855555,-0.74776006,-7.4492307,0.80079114,0.3311278,-4.2612906,3.8335693,0.6782867,1
0.5000000000000002,19.384344839453448,-4.800587013541033,4.897838170349228,2.16517371869317,19.82453,-4.7767143,5.4081497,1.3909804,12.096031,-11.004975,1.1378797,-0.58999866,0.049357146,-0.28128335,-0.7552116,-7.391873,0.89298236,0.39886382,-4.3418717,4.07899,0.71325886,1
0.5100000000000002,19.384344839453448,-4.800587013541033,4.897838170349228,2.16517371869317,19.82453,-4.7767143,5.4081497,1.3909804,12.022356,-10.99556,1.1422071,-0.5800047,0.07701967,-0.2771531,-0.76213396,-7.3447757,0.99089557,0.46654952,-4.409874,4.2861447,0.74651486,1
0.5200000000000002,19.081205169249603,-3.958811535827975,4.221455136338358,1.9429582073284712,19.948633,-3.7003338,5.1455536,1.6518718,11.949099,-10.985137,1.1472082,-0.5690431,0.10547055,-0.27308422,-0.76843375,-7.3084016,1.0944499,0.5335033,-4.4672594,4.4610014,0.77813894,1
0.5300000000000002,19.081205169249603,-3.958811535827975,4.221455136338358,1.9429582073284712,19.948633,-3.7003338,5.1455536,1.6518718,11.87615,-10.973649,1.1528774,-0.5571982,0.13420844,-0.269289,-0.7739517,-7.282954,1.2041358,0.6000357,-4.3478394,4.5676956,0.8210133,1
0.5400000000000003,19.081205169249603,-3.958811535827975,4.221455136338358,1.9429582073284712,19.948633,-3.7003338,5.1455536,1.6518718,11.8034,-10.961038,1.1592015,-0.54456913,0.16282779,-0.2659481,-0.7785902,-7.268741,1.3190267,0.6643565,-4.247033,4.657753,0.8617838,1
0.5500000000000003,19.081205169249603,-3.958811535827975,4.221455136338358,1.9429582073284712,19.948633,-3.7003338,5.1455536,1.6518718,11.730738,-10.947252,1.1661546,-0.5311993,0.19129929,-0.262957,-0.78235865,-7.2657366,1.4387848,0.7257287,-4.161938,4.733768,0.9005536,1
0.5600000000000003,17.770908926321525,-2.6494493756584356,2.770811341573894,1.6591619014558423,19.543398,-2.521575,4.8626075,2.2977421,11.658048,-10.932246,1.1737037,-0.5171258,0.21959262,-0.26022753,-0.785265,-7.2738967,1.5630213,0.78345275,-4.090104,4.79793,0.93742096,0
0.5700000000000003,17.770908926321525,-2.6494493756584356,2.770811341573894,1.6591619014558423,19.543398,-2.521575,4.8626075,2.2977421,11.585232,-10.916047,1.181726,-0.502734,0.24671894,-0.25753507,-0.7874412,-7.2909923,1.6772578,0.82036716,-3.865346,4.481849,0.97283703,0
0.5800000000000003,17.770908926321525,-2.6494493756584356,2.770811341573894,1.6591619014558423,19.543398,-2.521575,4.8626075,2.2977421,11.5121975,-10.898691,1.1900972,-0.48838142,0.27191406,-0.2547354,-0.7890855,-7.3174458,1.7943984,0.85322726,-3.6756513,4.215053,1.0065153,0
0.5900000000000003,17.770908926321525,-2.6494493756584356,2.770811341573894,1.6591619014558423,19.543398,-2.521575,4.8626075,2.2977421,11.438853,-10.880151,1.1987762,-0.47405326,0.2954531,-0.25186282,-0.7902822,-7.352716,1.9137886,0.88191473,-3.5155516,3.989856,1.038541,0
0.6000000000000003,16.794625281041768,-1.131453820121202,0.9282287682974854,1.3161240926232363,18.86794,-2.9206347,2.0781622,1.5571929,11.365114,-10.86041,1.2077209,-0.45973098,0.31756794,-0.24894156,-0.7910917,-7.3963237,2.0348606,0.90634525,-3.3804305,3.7997706,1.068995,0
0.6100000000000003,16.794625281041768,-1.131453820121202,0.9282287682974854,1.3161240926232363,18.86794,-2.9206347,2.0781622,1.5571929,11.290913,-10.839484,1.2168558,-0.44581553,0.33760956,-0.24612427,-0.79163826,-7.44495,2.1503901,0.91999966,-3.0294187,3.3521752,1.0811217,0
0.6200000000000003,16.794625281041768,-1.131453820121202,0.9282287682974854,1.3161240926232363,18.86794,-2.9206347,2.0781622,1.5571929,11.216191,-10.8174,1.2261078,-0.43266198,0.3551036,-0.24355257,-0.79207784,-7.5002356,2.2665703,0.92982274,-2.7331889,2.9743495,1.0926534,0
0.6300000000000003,16.794625281041768,-1.131453820121202,0.9282287682974854,1.3161240926232363,18.86794,-2.9206347,2.0781622,1.5571929,11.140887,-10.794152,1.2354401,-0.42017972,0.3704614,-0.2412201,-0.7924773,-7.5614233,2.38303,0.9361063,-2.4831915,2.655418,1.1036192,0
0.6400000000000003,16.794625281041768,-1.131453820121202,0.9282287682974854,1.3161240926232363,17.8227,-1.3726497,0.506357,1.1870978,11.064944,-10.76974,1.2448188,-0.40828198,0.38402602,-0.23911421,-0.79287726,-7.627875,2.4994855,0.9391279,-2.2722116,2.3862,1.1140469,0
0.6500000000000004,16.794625281041768,-1.131453820121202,0.9282287682974854,1.3161240926232363,17.8227,-1.3726497,0.506357,1.1870978,10.988313,-10.7441635,1.2542125,-0.39688823,0.3960836,-0.23721853,-0.7933001,-7.6990547,2.6157193,0.93914425,-2.09416,2.1589458,1.123963,0
0.6600000000000004,16.794625281041768,-1.131453820121202,0.9282287682974854,1.3161240926232363,17.8227,-1.3726497,0.506357,1.1870978,10.910948,-10.717426,1.2635922,-0.38592547,0.40687272,-0.23551501,-0.79375625,-7.774513,2.7315629,0.9363876,-1.9438981,1.9671139,1.1333925,0
0.6700000000000004,16.794625281041768,-1.131453820121202,0.9282287682974854,1.3161240926232363,17.8227,-1.3726497,0.506357,1.1870978,10.832809,-10.689534,1.2729313,-0.3753285,0.41659254,-0.23398517,-0.7942482,-7.853871,2.8468835,0.9310655,-1.817089,1.8051833,1.1423591,0
0.6800000000000004,15.934658419085405,0.37698905097403307,-0.766876557860127,0.9711656672758897,16.582075,1.0497994,-1.1743479,0.7546058,10.7538595,-10.660491,1.2822053,-0.36503994,0.42540935,-0.23261084,-0.79477364,-7.936809,2.961576,0.92336136,-1.7100724,1.6684926,1.1508859,1
0.6900000000000004,15.934658419085405,0.37698905097403307,-0.766876557860127,0.9711656672758897,16.582075,1.0497994,-1.1743479,0.7546058,10.674068,-10.630312,1.2913854,-0.3556371,0.4324976,-0.2317373,-0.795466,-8.021893,3.0741303,0.9123692,-1.2793242,1.2254922,1.1314403,1
0.7000000000000004,15.934658419085405,0.37698905097403307,-0.766876557860127,0.9711656672758897,16.582075,1.0497994,-1.1743479,0.7546058,10.593413,-10.599011,1.3004469,-0.34759808,0.43723282,-0.2316472,-0.79645646,-8.10947,3.1860578,0.89969975,-0.91581243,0.85151756,1.1129489,1
0.7100000000000004,15.934658419085405,0.37698905097403307,-0.766876557860127,0.9711656672758897,16.582075,1.0497994,-1.1743479,0.7546058,10.511873,-10.566592,1.3093754,-0.3407352,0.4400059,-0.23223424,-0.79772294,-8.19882,3.2974772,0.88585454,-0.60904115,0.5358145,1.0953649,1
0.7200000000000004,15.444128089337147,1.751927278185196,-2.258124562938165,0.6082970243960053,16.213041,2.2390177,-2.6759284,0.6121755,10.429434,-10.533062,1.3181614,-0.33488244,0.44113845,-0.23340288,-0.7992334,-8.289337,3.4085152,0.8712621,-0.35015267,0.26930416,1.0786437,1
0.7300000000000004,15.444128089337147,1.751927278185196,-2.258124562938165,0.6082970243960053,16.213041,2.2390177,-2.6759284,0.6121755,10.346095,-10.498434,1.3267902,-0.33025938,0.4402612,-0.23524146,-0.80109966,-8.37845,3.5168407,0.8544688,0.05394712,-0.18972012,1.055754,1
0.7400000000000004,15.444128089337147,1.751927278185196,-2.258124562938165,0.6082970243960053,16.213041,2.2390177,-2.6759284,0.6121755,10.261865,-10.462723,1.3352516,-0.32703054,0.43709114,-0.2378149,-0.803397,-8.467478,3.6251004,0.83785605,0.39496604,-0.5772141,1.0339874,1
0.7500000000000004,15.444128089337147,1.751927278185196,-2.258124562938165,0.6082970243960053,16.213041,2.2390177,-2.6759284,0.6121755,10.176747,-10.425931,1.3435497,-0.32498336,0.4319838,-0.24100935,-0.80603385,-8.555743,3.7334712,0.8219212,0.68275297,-0.90432274,1.0132891,1
0.7600000000000005,15.520148577788879,2.6508420725017015,-3.2569700865583795,0.261985015640908,16.082668,2.6804478,-3.7368784,0.28018114,10.0907545,-10.388053,1.3516936,-0.32393306,0.42523262,-0.24472383,-0.8089221,-8.642663,3.8421044,0.8070667,0.925619,-1.1804553,0.9936063,1
0.7700000000000005,15.520148577788879,2.6508420725017015,-3.2569700865583795,0.261985015640908,16.082668,2.6804478,-3.7368784,0.28018114,10.003904,-10.349092,1.3596926,-0.32393166,0.41668907,-0.24885742,-0.81210136,-8.727021,3.9502454,0.7929544,1.1995058,-1.5789782,0.9585984,1
0.7800000000000005,15.520148577788879,2.6508420725017015,-3.2569700865583795,0.261985015640908,16.082668,2.6804478,-3.7368784,0.28018114,9.916222,-10.309047,1.3675591,-0.32501063,0.40624076,-0.2533186,-0.8155773,-8.808922,4.0588517,0.78065306,1.4306265,-1.9153879,0.9253082,1
0.7900000000000005,15.520148577788879,2.6508420725017015,-3.2569700865583795,0.261985015640908,16.082668,2.6804478,-3.7368784,0.28018114,9.827736,-10.267913,1.375313,-0.3269924,0.39415947,-0.25803605,-0.8192264,-8.887789,4.1679716,0.7705125,1.6256614,-2.1993644,0.8936516,1
0.8000000000000005,15.950359182917941,3.0497835374108573,-3.5189699987697396,-0.008196178671184273,16.995098,3.4277446,-3.9131002,0.05803792,9.738479,-10.225684,1.3829776,-0.32972372,0.3806733,-0.2629469,-0.8229394,-8.963107,4.2776213,0.762789,1.7902467,-2.439078,0.8635484,0
0.8100000000000005,15.950359182917941,3.0497835374108573,-3.5189699987697396,-0.008196178671184273,16.995098,3.4277446,-3.9131002,0.05803792,9.648491,-10.182363,1.3905739,-0.33313432,0.36600727,-0.26813334,-0.8265379,-9.03382,4.3868866,0.75688595,1.9866931,-2.6074317,0.82077163,0
0.8200000000000005,15.950359182917941,3.0497835374108573,-3.5189699987697396,-0.008196178671184273,16.995098,3.4277446,-3.9131002,0.05803792,9.557817,-10.137944,1.3981242,-0.33716092,0.35035193,-0.2736557,-0.8298728,-9.100103,4.496683,0.7536047,2.1524844,-2.749554,0.78009397,0
0.8300000000000005,15.950359182917941,3.0497835374108573,-3.5189699987697396,-0.008196178671184273,16.995098,3.4277446,-3.9131002,0.05803792,9.466506,-10.092426,1.4056549,-0.34169054,0.33383945,-0.27943337,-0.8328962,-9.161546,4.607005,0.7529356,2.2924063,-2.8695304,0.7414124,0
0.8400000000000005,15.950359182917941,3.0497835374108573,-3.5189699987697396,-0.008196178671184273,17.280918,3.3795784,-3.790384,0.078612745,9.374605,-10.045803,1.4131917,-0.34662667,0.31658322,-0.2853975,-0.83556783,-9.217783,4.717812,0.7548244,2.4104965,-2.970811,0.7046289,0
0.8500000000000005,15.950359182917941,3.0497835374108573,-3.5189699987697396,-0.008196178671184273,17.280918,3.3795784,-3.790384,0.078612745,9.282169,-9.998068,1.4207598,-0.3518867,0.29868114,-0.2914893,-0.83785415,-9.268488,4.8290343,0.7591791,2.5101626,-3.0563076,0.6696504,0
0.8600000000000005,15.950359182917941,3.0497835374108573,-3.5189699987697396,-0.008196178671184273,17.280918,3.3795784,-3.790384,0.078612745,9.189256,-9.949219,1.4283834,-0.35739982,0.2802181,-0.29765865,-0.8397278,-9.313375,4.9405746,0.7658751,2.5942798,-3.128479,0.63638824,0
0.8700000000000006,15.950359182917941,3.0497835374108573,-3.5189699987697396,-0.008196178671184273,17.280918,3.3795784,-3.790384,0.078612745,9.095923,-9.899255,1.436085,-0.36310542,0.26126793,-0.3038629,-0.84116656,-9.352188,5.0523143,0.7747603,2.6652749,-3.1894016,0.6047583,0
0.8800000000000006,16.433781726706513,3.0337835383884557,-3.2831103171181293,-0.2741522518010369,17.559671,3.1448367,-3.4299326,-0.15675369,9.0022335,-9.848172,1.4438856,-0.36895123,0.24189529,-0.3100658,-0.8421527,-9.3847065,5.1641164,0.7856593,2.7251956,-3.2408276,0.5746805,0
0.8900000000000006,16.433781726706513,3.0337835383884557,-3.2831103171181293,-0.2741522518010369,17.559671,3.1448367,-3.4299326,-0.15675369,8.908247,-9.795956,1.4518212,-0.37488946,0.22224933,-0.31625873,-0.842641,-9.411532,5.279217,0.80173177,2.773234,-3.2474787,0.533028,0
0.9000000000000006,16.433781726706513,3.0337835383884557,-3.2831103171181293,-0.2741522518010369,17.559671,3.1448367,-3.4299326,-0.15675369,8.814026,-9.742589,1.4599258,-0.3808842,0.20245615,-0.32243475,-0.84260005,-9.431544,5.3940783,0.8194307,2.8137844,-3.2530937,0.4934194,0
0.9100000000000006,16.433781726706513,3.0337835383884557,-3.2831103171181293,-0.2741522518010369,17.559671,3.1448367,-3.4299326,-0.15675369,8.71964,-9.688075,1.4682144,-0.3869094,0.18253763,-0.32856792,-0.84203595,-9.444641,5.5085464,0.83849937,2.8480146,-3.2578335,0.4557544,0
0.9200000000000006,16.549580282547723,2.589724322849317,-2.6698537243974787,-0.47258335197546303,17.513565,2.4814732,-2.9403012,-0.31966984,8.625157,-9.63242,1.4766996,-0.39294213,0.16251385,-0.3346362,-0.84095454,-9.450743,5.6224575,0.8586788,2.87691,-3.261834,0.41993767,1
0.9300000000000006,16.549580282547723,2.589724322849317,-2.6698537243974787,-0.47258335197546303,17.513565,2.4814732,-2.9403012,-0.31966984,8.530649,-9.57559,1.4854301,-0.39888754,0.14260828,-0.3404896,-0.8394156,-9.449748,5.7430744,0.88753825,2.8151522,-3.2117746,0.3836449,1
0.9400000000000006,16.549580282547723,2.589724322849317,-2.6698537243974787,-0.47258335197546303,17.513565,2.4814732,-2.9403012,-0.31966984,8.436188,-9.517561,1.4944527,-0.40467906,0.123003855,-0.3460145,-0.83748376,-9.44135,5.862714,0.91704696,2.7630334,-3.1695137,0.34913304,1
0.9500000000000006,16.549580282547723,2.589724322849317,-2.6698537243974787,-0.47258335197546303,17.513565,2.4814732,-2.9403012,-0.31966984,8.341846,-9.45834,1.5037725,-0.41033447,0.1036626,-0.35124248,-0.83516973,-9.425679,5.981183,0.9469616,2.719049,-3.1338363,0.3163147,1
0.9600000000000006,16.09512451477499,1.8513109709835298,-1.8500668945779835,-0.598486420006942,16.59831,1.7654495,-1.8115886,-0.4856308,8.2477,-9.397941,1.5133924,-0.41586715,0.084552675,-0.35620016,-0.8324824,-9.40286,6.0982966,0.977049,2.6819296,-3.1037169,0.28510678,1
0.9700000000000006,16.09512451477499,1.8513109709835298,-1.8500668945779835,-0.598486420006942,16.59831,1.7654495,-1.8115886,-0.4856308,8.153807,-9.33641,1.5232798,-0.42112288,0.0661506,-0.360861,-0.8294933,-9.374609,6.20785,1.0003858,2.5388956,-2.9022996,0.2472865,1
0.9800000000000006,16.09512451477499,1.8513109709835298,-1.8500668945779835,-0.598486420006942,16.59831,1.7654495,-1.8115886,-0.4856308,8.060228,-9.273789,1.5333992,-0.42599595,0.048835687,-0.36521888,-0.8262916,-9.34009,6.3158946,1.0234556,2.4181855,-2.73228,0.21132205,1
0.9900000000000007,16.09512451477499,1.8513109709835298,-1.8500668945779835,-0.598486420006942,16.59831,1.7654495,-1.8115886,-0.4856308,7.9670253,-9.210096,1.5437472,-0.4305585,0.032451067,-0.3693202,-0.8229028,-9.299686,6.422398,1.0460706,2.3163142,-2.5887644,0.17712238,1
1.0000000000000007,15.921739166338714,1.0610195242880025,-1.0009180377086766,-0.6644000689896121,16.122292,0.9878106,-1.008339,-0.56318563,7.8742537,-9.145346,1.5543184,-0.43486866,0.016863082,-0.37320274,-0.8193441,-9.253729,6.5273333,1.0680718,2.2303407,-2.4676218,0.14460088,1
1.0100000000000007,15.921739166338714,1.0610195242880025,-1.0009180377086766,-0.6644000689896121,16.122292,0.9878106,-1.008339,-0.56318563,7.7819614,-9.07957,1.565089,-0.43885922,0.0023604287,-0.3767845,-0.81573933,-9.204006,6.6277204,1.085906,2.0364962,-2.240112,0.10986959,1
1.0200000000000007,15.921739166338714,1.0610195242880025,-1.0009180377086766,-0.6644000689896121,16.122292,0.9878106,-1.008339,-0.56318563,7.69019,-9.012796,1.576034,-0.44249013,-0.01083411,-0.38001075,-0.8122051,-9.14964,6.7266073,1.1029447,1.8728962,-2.0480697,0.07684258,1
1.0300000000000007,15.921739166338714,1.0610195242880025,-1.0009180377086766,-0.6644000689896121,16.122292,0.9878106,-1.008339,-0.56318563,7.598983,-8.945042,1.5871452,-0.4458385,-0.022914985,-0.38294476,-0.8087375,-9.091067,6.824051,1.1191479,1.7348206,-1.8859669,0.045436215,1
1.0400000000000007,15.921739166338714,1.0610195242880025,-1.0009180377086766,-0.6644000689896121,16.18052,0.5515191,-0.7429563,-0.6523806,7.5083814,-8.87632,1.5984141,-0.44896615,-0.034047306,-0.38563782,-0.80532837,-9.028651,6.9201064,1.13449,1.6182864,-1.7491363,0.015570972,1
1.0500000000000007,15.921739166338714,1.0610195242880025,-1.0009180377086766,-0.6644000689896121,16.18052,0.5515191,-0.7429563,-0.6523806,7.418423,-8.806643,1.6098341,-0.4518976,-0.04420295,-0.3880401,-0.80203474,-8.962476,7.015167,1.1493682,1.4518887,-1.5922558,-0.017205607,1
1.0600000000000007,15.921739166338714,1.0610195242880025,-1.0009180377086766,-0.6644000689896121,16.18052,0.5515191,-0.7429563,-0.6523806,7.3291426,-8.736021,1.6213986,-0.45465815,-0.05336682,-0.39011627,-0.7989039,-8.893116,7.108946,1.1634052,1.3114482,-1.4598334,-0.048373803,1
1.0700000000000007,15.921739166338714,1.0610195242880025,-1.0009180377086766,-0.6644000689896121,16.18052,0.5515191,-0.7429563,-0.6523806,7.2405705,-8.664468,1.6330994,-0.45729288,-0.061685927,-0.39192355,-0.79591095,-8.82089,7.2015023,1.1766472,1.192915,-1.3480561,-0.078012586,1
1.0800000000000007,15.428840936726825,0.3217050292957976,-0.5320549287231868,-0.6259231731247998,15.888441,-0.16303958,-0.29295576,-0.77618676,7.1527343,-8.591996,1.6449289,-0.45983738,-0.069284834,-0.3935089,-0.7930323,-8.746068,7.2928886,1.189138,1.0928712,-1.2537062,-0.10619699,1
1.0900000000000007,15.428840936726825,0.3217050292957976,-0.5320549287231868,-0.6259231731247998,15.888441,-0.16303958,-0.29295576,-0.77618676,7.0656514,-8.518624,1.6568699,-0.46228224,-0.07598877,-0.3947691,-0.790366,-8.670286,7.381527,1.198946,0.8969991,-1.1038837,-0.13907358,1
1.1000000000000008,15.428840936726825,0.3217050292957976,-0.5320549287231868,-0.6259231731247998,15.888441,-0.16303958,-0.29295576,-0.77618676,6.9793363,-8.44437,1.668906,-0.46462622,-0.081664346,-0.3956275,-0.7879927,-8.592518,7.4691396,1.2081769,0.731678,-0.97742003,-0.17033693,1
1.1100000000000008,15.428840936726825,0.3217050292957976,-0.5320549287231868,-0.6259231731247998,15.888441,-0.16303958,-0.29295576,-0.77618676,6.8938074,-8.369246,1.681032,-0.46690437,-0.086464785,-0.3961541,-0.78586656,-8.513072,7.555802,1.2169507,0.5921422,-0.8706744,-0.20006615,1
1.1200000000000008,14.795635183946324,-0.2809085868627494,-0.16636244055290314,-0.514129961023284,15.201778,-0.804266,-0.099641755,-0.66474354,6.80908,-8.293258,1.6932437,-0.46914384,-0.09051977,-0.3964066,-0.78394663,-8.432209,7.6415806,1.2253729,0.47436935,-0.78057295,-0.22833654,1
1.1300000000000008,14.795635183946324,-0.2809085868627494,-0.16636244055290314,-0.514129961023284,15.201778,-0.804266,-0.099641755,-0.66474354,6.72515,-8.216435,1.7055156,-0.4713478,-0.093763344,-0.39626667,-0.7823124,-8.353704,7.722864,1.2289549,0.27497318,-0.6743566,-0.24975117,1
1.1400000000000008,14.795635183946324,-0.2809085868627494,-0.16636244055290314,-0.514129961023284,15.201778,-0.804266,-0.099641755,-0.66474354,6.642009,-8.1388035,1.7178227,-0.47351867,-0.09614963,-0.3956432,-0.7810263,-8.274332,7.8034105,1.2324508,0.10667311,-0.58470416,-0.27011493,1
1.1500000000000008,14.795635183946324,-0.2809085868627494,-0.16636244055290314,-0.514129961023284,15.201778,-0.804266,-0.099641755,-0.66474354,6.5596647,-8.06037,1.730165,-0.47567314,-0.09780696,-0.3946156,-0.7800306,-8.194346,7.8832645,1.2360121,-0.035380412,-0.5090336,-0.28947946,1
1.1600000000000008,14.0833128503162,-0.7200327735265933,0.010281724163817698,-0.35388350888305525,14.477457,-1.3911661,0.34119317,-0.29101008,6.478123,-7.9811406,1.7425438,-0.47782362,-0.09884389,-0.3932496,-0.77927506,-8.113961,7.962467,1.2397677,-0.15528096,-0.4451649,-0.30789378,1
1.1700000000000008,14.0833128503162,-0.7200327735265933,0.010281724163817698,-0.35388350888305525,14.477457,-1.3911661,0.34119317,-0.29101008,6.3973675,-7.901141,1.7549372,-0.4798972,-0.09912058,-0.39149678,-0.7788482,-8.037213,8.037314,1.2389671,-0.34799173,-0.32249442,-0.3070653,1
1.1800000000000008,14.0833128503162,-0.7200327735265933,0.010281724163817698,-0.35388350888305525,14.477457,-1.3911661,0.34119317,-0.29101008,6.317379,-7.8203955,1.7673247,-0.4818306,-0.09853322,-0.3893207,-0.77881974,-7.9605236,8.111649,1.2386045,-0.5106533,-0.21896057,-0.30627745,1
1.1900000000000008,14.0833128503162,-0.7200327735265933,0.010281724163817698,-0.35388350888305525,14.477457,-1.3911661,0.34119317,-0.29101008,6.2381554,-7.7389092,1.7797114,-0.4836444,-0.09721499,-0.38678697,-0.7791236,-7.8841367,8.185539,1.2388139,-0.64795136,-0.13157783,-0.30552825,1
1.2000000000000008,12.529150963555336,-0.7773834841234344,-0.23565796177014636,-0.18019476705234083,13.58589,-1.507406,0.24443108,-0.13357797,6.1596937,-7.656686,1.7921033,-0.48535484,-0.09527831,-0.38395005,-0.77970225,-7.8082623,8.259047,1.2397053,-0.7638406,-0.05782685,-0.30481586,0
1.2100000000000009,12.529150963555336,-0.7773834841234344,-0.23565796177014636,-0.18019476705234083,13.58589,-1.507406,0.24443108,-0.13357797,6.0819373,-7.573778,1.804441,-0.4870297,-0.09312288,-0.38093358,-0.78039753,-7.7431808,8.322364,1.2279363,-0.76595783,-0.08556217,-0.29870066,0
1.2200000000000009,12.529150963555336,-0.7773834841234344,-0.23565796177014636,-0.18019476705234083,13.58589,-1.507406,0.24443108,-0.13357797,6.0048285,-7.490239,1.8166645,-0.4887225,-0.09107203,-0.37783805,-0.78108585,-7.678707,8.385372,1.2168485,-0.7677438,-0.10897203,-0.29288554,0
1.2300000000000009,12.529150963555336,-0.7773834841234344,-0.23565796177014636,-0.18019476705234083,13.58589,-1.507406,0.24443108,-0.13357797,5.928361,-7.4060717,1.8287804,-0.49042615,-0.08911043,-0.3746744,-0.7817679,-7.614834,8.448042,1.2064447,-0.7692505,-0.12873113,-0.28735578,0
1.2400000000000009,12.529150963555336,-0.7773834841234344,-0.23565796177014636,-0.18019476705234083,12.853647,-1.2964258,-0.21904166,-0.09915114,5.8525295,-7.3212795,1.8407958,-0.49213493,-0.08722504,-0.37145194,-0.7824442,-7.5515547,8.51035,1.1967266,-0.77052134,-0.14540868,-0.28209737,1
1.2500000000000009,12.529150963555336,-0.7773834841234344,-0.23565796177014636,-0.18019476705234083,12.853647,-1.2964258,-0.21904166,-0.09915114,5.7773356,-7.2358584,1.8527288,-0.4938515,-0.085300915,-0.3680181,-0.78319705,-7.4872513,8.573878,1.1900088,-0.85253704,-0.15688163,-0.27312014,1
1.260000000000001,12.529150963555336,-0.7773834841234344,-0.23565796177014636,-0.18019476705234083,12.853647,-1.2964258,-0.21904166,-0.09915114,5.7027817,-7.149804,1.8645985,-0.49557528,-0.08324618,-0.3642514,-0.7840896,-7.4236164,8.636978,1.1840526,-0.921762,-0.1665682,-0.2645834,1
1.270000000000001,12.529150963555336,-0.7773834841234344,-0.23565796177014636,-0.18019476705234083,12.853647,-1.2964258,-0.21904166,-0.09915114,5.6288605,-7.063121,1.8764126,-0.49729744,-0.08108179,-0.36020088,-0.78509665,-7.3607163,8.6996155,1.1789134,-0.9801911,-0.17474651,-0.25646558,1
1.280000000000001,10.806187170651269,-0.5848672403691456,-0.9116140231747369,-0.0010375554026983561,11.303318,-1.4627261,-1.0945053,0.19347546,5.555565,-6.9758134,1.8881798,-0.49901074,-0.07882542,-0.35590798,-0.7861965,-7.2986093,8.761758,1.1746346,-1.0295079,-0.18165128,-0.24874614,1
1.290000000000001,10.806187170651269,-0.5848672403691456,-0.9116140231747369,-0.0010375554026983561,11.303318,-1.4627261,-1.0945053,0.19347546,5.482849,-6.8879247,1.8998514,-0.50080997,-0.07674707,-0.35117722,-0.78738445,-7.244728,8.81593,1.1598321,-1.0970867,-0.32401496,-0.22704622,1
1.300000000000001,10.806187170651269,-0.5848672403691456,-0.9116140231747369,-0.0010375554026983561,11.303318,-1.4627261,-1.0945053,0.19347546,5.4106684,-6.7994967,1.9113795,-0.5027628,-0.075063206,-0.3458537,-0.78865755,-7.1915817,8.869503,1.1458856,-1.1541196,-0.44417956,-0.2064111,1
1.310000000000001,10.806187170651269,-0.5848672403691456,-0.9116140231747369,-0.0010375554026983561,11.303318,-1.4627261,-1.0945053,0.19347546,5.3390155,-6.710537,1.9227724,-0.5048274,-0.07371523,-0.34002432,-0.78999954,-7.1391606,8.922337,1.1328564,-1.2022533,-0.5456064,-0.18678856,1
1.320000000000001,9.232963425962527,-0.41420594955537904,-1.4237355032840606,0.20477380179455523,10.241367,-1.1676308,-1.8399805,0.2875575,5.267883,-6.621053,1.9340398,-0.50696903,-0.07265331,-0.3337624,-0.79139566,-7.0874605,8.97431,1.1207924,-1.2428768,-0.6312169,-0.16812888,0
1.330000000000001,9.232963425962527,-0.41420594955537904,-1.4237355032840606,0.20477380179455523,10.241367,-1.1676308,-1.8399805,0.2875575,5.1972175,-6.5311007,1.945112,-0.50917166,-0.07215305,-0.32739565,-0.79268575,-7.0458026,9.015976,1.0937778,-1.1136507,-0.7548372,-0.14983042,0
1.340000000000001,9.232963425962527,-0.41420594955537904,-1.4237355032840606,0.20477380179455523,10.241367,-1.1676308,-1.8399805,0.2875575,5.126966,-6.4407363,1.955918,-0.5114236,-0.07243202,-0.32118905,-0.79374903,-7.0046153,9.056782,1.0675327,-1.0045732,-0.85917383,-0.13242988,0
1.350000000000001,9.232963425962527,-0.41420594955537904,-1.4237355032840606,0.20477380179455523,10.241367,-1.1676308,-1.8399805,0.2875575,5.057124,-6.349968,1.9664651,-0.5137034,-0.073372535,-0.31511495,-0.7946246,-6.963783,9.096663,1.0420052,-0.91250324,-0.94723475,-0.115883194,0
1.360000000000001,8.352587891174412,-0.46233510765495023,-1.5845351050865055,0.4303834059078301,8.171946,-0.92798257,-1.5462828,0.33527103,4.9876895,-6.258806,1.9767604,-0.5159933,-0.074874654,-0.30914962,-0.79534376,-6.9232073,9.135568,1.01715,-0.8347893,-1.0215592,-0.10014847,1
1.370000000000001,8.352587891174412,-0.46233510765495023,-1.5845351050865055,0.4303834059078301,8.171946,-0.92798257,-1.5462828,0.33527103,4.9186363,-6.167282,1.9867679,-0.51829594,-0.07679123,-0.3030826,-0.7959987,-6.8874564,9.169089,0.9844419,-0.84931266,-1.1034005,-0.07878232,1
1.380000000000001,8.352587891174412,-0.46233510765495023,-1.5845351050865055,0.4303834059078301,8.171946,-0.92798257,-1.5462828,0.33527103,4.84994,-6.0754275,1.9964511,-0.5206098,-0.079000674,-0.29674459,-0.7966603,-6.8518414,9.20164,0.9522958,-0.8615692,-1.1724786,-0.05846461,1
1.390000000000001,8.352587891174412,-0.46233510765495023,-1.5845351050865055,0.4303834059078301,8.171946,-0.92798257,-1.5462828,0.33527103,4.7815986,-5.9832525,2.005816,-0.5229159,-0.08145912,-0.29017273,-0.7973229,-6.8163514,9.233162,0.9207155,-0.8719131,-1.2307837,-0.039143883,1
1.400000000000001,7.724530256485622,-0.5971101049605139,-1.315167338107352,0.6631893644643044,8.247687,-0.9254649,-1.2976626,0.6126525,4.713612,-5.8907676,2.0148675,-0.5251989,-0.08412922,-0.28339854,-0.79798144,-6.78098,9.2636,0.8897003,-0.88064307,-1.2799958,-0.02077123,1
1.410000000000001,7.724530256485622,-0.5971101049605139,-1.315167338107352,0.6631893644643044,8.247687,-0.9254649,-1.2976626,0.6126525,4.64598,-5.797982,2.023615,-0.5273911,-0.08691,-0.27649918,-0.79865783,-6.745399,9.293185,0.85987204,-0.8876071,-1.2827688,0.010311065,1
1.420000000000001,7.724530256485622,-0.5971101049605139,-1.315167338107352,0.6631893644643044,8.247687,-0.9254649,-1.2976626,0.6126525,4.578703,-5.704907,2.032067,-0.5294364,-0.0897207,-0.26953748,-0.7993733,-6.7099447,9.321616,0.83059746,-0.89348644,-1.2851088,0.039868135,1
1.430000000000001,7.724530256485622,-0.5971101049605139,-1.315167338107352,0.6631893644643044,8.247687,-0.9254649,-1.2976626,0.6126525,4.5117803,-5.611554,2.0402293,-0.53133947,-0.092559054,-0.26251906,-0.8001224,-6.674628,9.348884,0.80186266,-0.8984498,-1.2870831,0.06797482,1
1.440000000000001,7.724530256485622,-0.5971101049605139,-1.315167338107352,0.6631893644643044,8.348749,-1.1206809,-1.1675183,0.7333453,4.44521,-5.5179343,2.0481067,-0.5331045,-0.09542282,-0.25544864,-0.8009001,-6.63946,9.374978,0.77365273,-0.9026403,-1.2887491,0.09470231,1
1.450000000000001,7.724530256485622,-0.5971101049605139,-1.315167338107352,0.6631893644643044,8.348749,-1.1206809,-1.1675183,0.7333453,4.3789926,-5.4240575,2.0557086,-0.53471816,-0.09823018,-0.24829417,-0.80173445,-6.6040254,9.400195,0.74681604,-0.93661886,-1.2698642,0.12604071,1
1.460000000000001,7.724530256485622,-0.5971101049605139,-1.315167338107352,0.6631893644643044,8.348749,-1.1206809,-1.1675183,0.7333453,4.3131285,-5.3299346,2.0630448,-0.53616965,-0.10091613,-0.24103026,-0.80264765,-6.5687847,9.424213,0.720488,-0.9653002,-1.2539244,0.15584132,1
1.470000000000001,7.724530256485622,-0.5971101049605139,-1.315167338107352,0.6631893644643044,8.348749,-1.1206809,-1.1675183,0.7333453,4.2476163,-5.2355776,2.0701203,-0.5374662,-0.10350116,-0.23366986,-0.80362725,-6.533771,9.447031,0.69466096,-0.98951,-1.2404702,0.18417962,1
1.480000000000001,7.117788008562202,-0.7752917652993222,-0.9662761336567969,0.8767602369680292,7.4053974,-1.1494254,-0.7608018,1.1060296,4.1824527,-5.1409984,2.0769398,-0.53861445,-0.106002316,-0.22622405,-0.8046623,-6.4990115,9.468647,0.6693251,-1.0099459,-1.2291135,0.21112734,1
1.490000000000001,7.117788008562202,-0.7752917652993222,-0.9662761336567969,0.8767602369680292,7.4053974,-1.1494254,-0.7608018,1.1060296,4.117616,-5.046221,2.0834672,-0.53954846,-0.10830688,-0.2187759,-0.80578834,-6.468431,9.486754,0.6361928,-1.0316746,-1.156113,0.25504044,1
1.500000000000001,7.117788008562202,-0.7752917652993222,-0.9662761336567969,0.8767602369680292,7.4053974,-1.1494254,-0.7608018,1.1060296,4.053084,-4.9512677,2.0896654,-0.5402139,-0.11032713,-0.21139167,-0.8070385,-6.4381356,9.503826,0.6034734,-1.0500181,-1.0944959,0.2967987,1
1.5100000000000011,7.117788008562202,-0.7752917652993222,-0.9662761336567969,0.8767602369680292,7.4053974,-1.1494254,-0.7608018,1.1060296,3.9888525,-4.8561482,2.0955381,-0.540632,-0.112109534,-0.20405735,-0.80839944,-6.4081597,9.519895,0.57115436,-1.0655034,-1.0424869,0.3365079,1
1.5200000000000011,6.711989139857708,-0.9936180395943625,-0.36141843952010977,1.0689224023556712,7.363981,-1.1363252,-0.24832524,1.1330024,3.9249194,-4.760873,2.1010897,-0.54082114,-0.11369302,-0.19676116,-0.8098593,-6.3785324,9.534987,0.53922325,-1.0785758,-0.9985876,0.37426853,1
1.5300000000000011,6.711989139857708,-0.9936180395943625,-0.36141843952010977,1.0689224023556712,7.363981,-1.1363252,-0.24832524,1.1330024,3.8612797,-4.665452,2.106322,-0.5407543,-0.1149475,-0.1896081,-0.81143165,-6.349444,9.549054,0.50729525,-1.0875888,-0.88161325,0.41149983,1
1.5400000000000011,6.711989139857708,-0.9936180395943625,-0.36141843952010977,1.0689224023556712,7.363981,-1.1363252,-0.24832524,1.1330024,3.7979293,-4.5698953,2.111237,-0.540414,-0.115771286,-0.18268135,-0.81312853,-6.320766,9.562239,0.47572702,-1.0951974,-0.7828796,0.44690415,1
1.5500000000000012,6.711989139857708,-0.9936180395943625,-0.36141843952010977,1.0689224023556712,7.363981,-1.1363252,-0.24832524,1.1330024,3.734863,-4.4742103,2.1158378,-0.539827,-0.116232604,-0.1759424,-0.8149367,-6.2925334,9.574604,0.44450617,-1.1016202,-0.69954216,0.48057118,1
1.5600000000000012,6.928502307765771,-1.3601196337263015,0.3007778100821107,1.288290807730226,7.8798814,-1.522536,0.3275839,1.3652072,3.672077,-4.3784056,2.120128,-0.53901595,-0.116388865,-0.16935872,-0.8168438,-6.2647767,9.5862,0.41362143,-1.1070412,-0.62919974,0.5125862,1
1.5700000000000012,6.928502307765771,-1.3601196337263015,0.3007778100821107,1.288290807730226,7.8798814,-1.522536,0.3275839,1.3652072,3.6095755,-4.2824845,2.1241345,-0.53795594,-0.11602149,-0.16289726,-0.81890637,-6.2356195,9.597835,0.3877963,-1.1718738,-0.48004338,0.5544245,1
1.5800000000000012,6.928502307765771,-1.3601196337263015,0.3007778100821107,1.288290807730226,7.8798814,-1.522536,0.3275839,1.3652072,3.5473628,-4.1864505,2.1278849,-0.5366258,-0.11495957,-0.15652926,-0.82116765,-6.2070804,9.608772,0.36232603,-1.2265954,-0.35414588,0.5942099,1
1.5900000000000012,6.928502307765771,-1.3601196337263015,0.3007778100821107,1.288290807730226,7.8798814,-1.522536,0.3275839,1.3652072,3.4854317,-4.0903106,2.1313822,-0.5350479,-0.11331172,-0.1502353,-0.8235984,-6.1792374,9.619082,0.33721682,-1.2727821,-0.2478797,0.632043,1
1.6000000000000012,7.815357307604673,-1.9251982872225246,1.0349698907765743,1.5824937218604933,8.57645,-2.1124263,0.85020816,1.5578111,3.4237752,-3.9940708,2.1346302,-0.53324074,-0.11116948,-0.14399919,-0.8261723,-6.152157,9.628822,0.31247193,-1.3117641,-0.15818332,0.66801965,1
1.6100000000000012,7.815357307604673,-1.9251982872225246,1.0349698907765743,1.5824937218604933,8.57645,-2.1124263,0.85020816,1.5578111,3.3623972,-3.8977318,2.1376653,-0.53119594,-0.10831457,-0.13772084,-0.8289346,-6.1235857,9.638859,0.29461178,-1.436695,-0.001020249,0.71168196,1
1.6200000000000012,7.815357307604673,-1.9251982872225246,1.0349698907765743,1.5824937218604933,8.57645,-2.1124263,0.85020816,1.5578111,3.3012998,-3.8012953,2.1405237,-0.5289031,-0.104577534,-0.13131835,-0.83191425,-6.0960436,9.648395,0.2771712,-1.5421398,0.13163793,0.7532018,1
1.6300000000000012,7.815357307604673,-1.9251982872225246,1.0349698907765743,1.5824937218604933,8.57645,-2.1124263,0.85020816,1.5578111,3.2404723,-3.7047656,2.14321,-0.5263732,-0.10009521,-0.124804266,-0.83506703,-6.06966,9.657488,0.2601676,-1.6311368,0.24361321,0.79268426,1
1.6400000000000012,7.815357307604673,-1.9251982872225246,1.0349698907765743,1.5824937218604933,9.140955,-2.5008228,1.120588,1.7245837,3.1799023,-3.6081467,2.1457283,-0.52361506,-0.09498299,-0.118189834,-0.838354,-6.044546,9.666184,0.24360934,-1.7062507,0.33813095,0.8302293,0
1.6500000000000012,7.815357307604673,-1.9251982872225246,1.0349698907765743,1.5824937218604933,9.140955,-2.5008228,1.120588,1.7245837,3.1195662,-3.5114467,2.1480474,-0.5206184,-0.089315645,-0.11158639,-0.8417413,-6.022904,9.673781,0.22022042,-1.7404648,0.44674233,0.8671431,0
1.6600000000000013,7.815357307604673,-1.9251982872225246,1.0349698907765743,1.5824937218604933,9.140955,-2.5008228,1.120588,1.7245837,3.05944,-3.4146721,2.1501343,-0.51737654,-0.0831571,-0.105083466,-0.8452009,-6.002573,9.681096,0.19722688,-1.769338,0.53841954,0.9022456,0
1.6700000000000013,7.815357307604673,-1.9251982872225246,1.0349698907765743,1.5824937218604933,9.140955,-2.5008228,1.120588,1.7245837,2.99951,-3.3178256,2.151993,-0.51390195,-0.07658266,-0.09866117,-0.84870875,-5.98361,9.688168,0.17461327,-1.7937032,0.615803,0.9356255,0
1.6800000000000013,9.046239387028299,-2.421991785824866,1.5081487592650478,1.8496797860830827,9.984205,-2.8295534,1.3774383,1.9841645,2.9397628,-3.2209094,2.1536279,-0.51020527,-0.06965608,-0.09230324,-0.8522437,-5.966064,9.695028,0.15236087,-1.8142638,0.6811219,0.9673675,1
1.6900000000000013,9.046239387028299,-2.421991785824866,1.5081487592650478,1.8496797860830827,9.984205,-2.8295534,1.3774383,1.9841645,2.8802063,-3.1239161,2.155147,-0.50626385,-0.06213466,-0.08575353,-0.8558523,-5.94553,9.70355,0.15159445,-1.9726914,0.7895486,1.017262,1
1.7000000000000013,9.046239387028299,-2.421991785824866,1.5081487592650478,1.8496797860830827,9.984205,-2.8295534,1.3774383,1.9841645,2.8208451,-3.026839,2.156661,-0.5020467,-0.05382972,-0.07880579,-0.85955906,-5.927035,9.711833,0.15125626,-2.106406,0.8810761,1.0647081,1
1.7100000000000013,9.046239387028299,-2.421991785824866,1.5081487592650478,1.8496797860830827,9.984205,-2.8295534,1.3774383,1.9841645,2.761658,-2.92968,2.1581738,-0.49755102,-0.044863816,-0.07151594,-0.863317,-5.910747,9.719868,0.1513304,-2.219262,0.9583402,1.1098262,1
1.7200000000000013,10.439506249117597,-2.6587291433465996,1.9191981364197432,1.9657678133568097,11.074276,-3.0025332,1.5221115,2.0579538,2.702622,-2.8324423,2.159689,-0.49277547,-0.035340626,-0.06393239,-0.86708516,-5.896809,9.727636,0.15178673,-2.3145123,1.023565,1.1527302,1
1.7300000000000013,10.439506249117597,-2.6587291433465996,1.9191981364197432,1.9657678133568097,11.074276,-3.0025332,1.5221115,2.0579538,2.64372,-2.735124,2.1612647,-0.48771,-0.025264245,-0.05606507,-0.8708375,-5.884096,9.735932,0.16338108,-2.4218988,1.1011626,1.1971498,1
1.7400000000000013,10.439506249117597,-2.6587291433465996,1.9191981364197432,1.9657678133568097,11.074276,-3.0025332,1.5221115,2.0579538,2.5849304,-2.6377249,2.162958,-0.48234475,-0.014642912,-0.047924433,-0.87454724,-5.874272,9.743881,0.17529719,-2.5125315,1.1666696,1.2393897,1
1.7500000000000013,10.439506249117597,-2.6587291433465996,1.9191981364197432,1.9657678133568097,11.074276,-3.0025332,1.5221115,2.0579538,2.5262241,-2.540248,2.1647718,-0.47668013,-0.0035634914,-0.039550625,-0.87817967,-5.8674655,9.7514515,0.18746753,-2.5890234,1.2219713,1.2795569,1
1.7600000000000013,11.477794577733857,-2.7081863180765127,1.8254304684117961,2.0139103936827625,11.706827,-2.6689644,1.5715834,1.9340371,2.4675705,-2.4426973,2.1667082,-0.47071764,0.007900154,-0.030978786,-0.8817047,-5.863783,9.758605,0.19981395,-2.6535807,1.2686583,1.3177531,1
1.7700000000000014,11.477794577733857,-2.7081863180765127,1.8254304684117961,2.0139103936827625,11.706827,-2.6689644,1.5715834,1.9340371,2.408938,-2.3450754,2.1688,-0.46447495,0.01964057,-0.022366775,-0.88508606,-5.8632803,9.765686,0.2185628,-2.656046,1.3158449,1.3479943,1
1.7800000000000014,11.477794577733857,-2.7081863180765127,1.8254304684117961,2.0139103936827625,11.706827,-2.6689644,1.5715834,1.9340371,2.3502932,-2.2473853,2.1710796,-0.45797348,0.03156981,-0.013842555,-0.88829744,-5.866208,9.772268,0.23730516,-2.6581209,1.3556756,1.3767515,1
1.7900000000000014,11.477794577733857,-2.7081863180765127,1.8254304684117961,2.0139103936827625,11.706827,-2.6689644,1.5715834,1.9340371,2.2916021,-2.1496317,2.173546,-0.45122102,0.04365566,-0.0053944914,-0.8913276,-5.872586,9.778337,0.2559378,-2.6598666,1.3892972,1.4040978,1
1.8000000000000014,12.177264357667205,-2.6219541984347736,1.2326493016913949,1.962223461986064,12.271017,-2.8540468,0.9917093,1.7862334,2.2328298,-2.0518203,2.1761978,-0.44422466,0.05587025,0.002986571,-0.8941668,-5.8824263,9.78387,0.2743563,-2.6613352,1.4176782,1.4301021,1
1.8100000000000014,12.177264357667205,-2.6219541984347736,1.2326493016913949,1.962223461986064,12.271017,-2.8540468,0.9917093,1.7862334,2.1739388,-1.9539553,2.17906,-0.43700206,0.0680142,0.011477496,-0.8968121,-5.8963714,9.789066,0.2980563,-2.691342,1.35119,1.4475775,1
1.8200000000000014,12.177264357667205,-2.6219541984347736,1.2326493016913949,1.962223461986064,12.271017,-2.8540468,0.9917093,1.7862334,2.11489,-1.8560416,2.182157,-0.4295683,0.07992625,0.020216914,-0.8992633,-5.9139147,9.793544,0.32131904,-2.716677,1.2950759,1.4641955,1
1.8300000000000014,12.177264357667205,-2.6219541984347736,1.2326493016913949,1.962223461986064,12.271017,-2.8540468,0.9917093,1.7862334,2.055648,-1.7580873,2.1854842,-0.42192695,0.091635555,0.02915992,-0.9015157,-5.9350104,9.79717,0.34404343,-2.7380672,1.2477174,1.479998,1
1.8400000000000014,12.177264357667205,-2.6219541984347736,1.2326493016913949,1.962223461986064,12.391546,-2.9028997,0.672115,1.7154499,1.9961777,-1.6601015,2.1890357,-0.41408226,0.10316653,0.038268328,-0.9035643,-5.9596105,9.799825,0.36612868,-2.7561276,1.2077485,1.495025,1
1.8500000000000014,12.177264357667205,-2.6219541984347736,1.2326493016913949,1.962223461986064,12.391546,-2.9028997,0.672115,1.7154499,1.9364427,-1.5620944,2.1928103,-0.40603966,0.11443154,0.047580756,-0.9054135,-5.9879355,9.801412,0.38864854,-2.7789433,1.1241747,1.5058413,1
1.8600000000000014,12.177264357667205,-2.6219541984347736,1.2326493016913949,1.962223461986064,12.391546,-2.9028997,0.672115,1.7154499,1.8764074,-1.4640776,2.196806,-0.39780486,0.12536149,0.05712497,-0.90706825,-6.0196633,9.801765,0.41032833,-2.7982123,1.0536385,1.5161268,1
1.8700000000000014,12.177264357667205,-2.6219541984347736,1.2326493016913949,1.962223461986064,12.391546,-2.9028997,0.672115,1.7154499,1.8160381,-1.3660638,2.2010136,-0.38938326,0.13600008,0.06685639,-0.9085236,-6.0547056,9.800751,0.43107674,-2.8144858,0.99410594,1.5259076,1
1.8800000000000014,12.120362874103389,-2.2470970915774275,0.3105548495149134,1.7331328782339444,12.550863,-2.6143227,-0.026476964,1.598354,1.7553021,-1.2680677,2.205424,-0.38078055,0.14638408,0.076737255,-0.9097744,-6.0929756,9.798244,0.4508032,-2.82823,0.9438607,1.5352086,1
1.8900000000000015,12.120362874103389,-2.2470970915774275,0.3105548495149134,1.7331328782339444,12.550863,-2.6143227,-0.026476964,1.598354,1.6941651,-1.1701049,2.2100334,-0.3720115,0.1562453,0.08673807,-0.91086304,-6.1349044,9.794084,0.47092333,-2.7947214,0.7925648,1.5383071,1
1.9000000000000015,12.120362874103389,-2.2470970915774275,0.3105548495149134,1.7331328782339444,12.550863,-2.6143227,-0.026476964,1.598354,1.6325938,-1.0721923,2.2148383,-0.363092,0.16537441,0.09683183,-0.9118329,-6.1798134,9.788159,0.48986796,-2.7664618,0.66485864,1.5412536,1
1.9100000000000015,12.120362874103389,-2.2470970915774275,0.3105548495149134,1.7331328782339444,12.550863,-2.6143227,-0.026476964,1.598354,1.5705593,-0.97434825,2.2198265,-0.35402897,0.17387876,0.10699281,-0.9126787,-6.2275043,9.780339,0.50759465,-2.7426288,0.55706406,1.5440556,1
1.9200000000000015,11.703564463428174,-1.585249314283689,-0.36222019211560597,1.36523973720586,11.607265,-2.294377,-0.70398504,1.4619256,1.5080346,-0.8765924,2.2249858,-0.34482908,0.18184881,0.11719974,-0.91339386,-6.277796,9.770511,0.5240615,-2.722529,0.46607658,1.54672,1
1.9300000000000015,11.703564463428174,-1.585249314283689,-0.36222019211560597,1.36523973720586,11.607265,-2.294377,-0.70398504,1.4619256,1.4450146,-0.7789409,2.2302606,-0.33550572,0.18906748,0.12741368,-0.9140325,-6.3265452,9.759469,0.5307169,-2.655574,0.28368074,1.5425593,1
1.9400000000000015,11.703564463428174,-1.585249314283689,-0.36222019211560597,1.36523973720586,11.607265,-2.294377,-0.70398504,1.4619256,1.3814969,-0.68141013,2.2355962,-0.32607248,0.19536835,0.13760139,-0.91464424,-6.377301,9.746372,0.53617567,-2.5990906,0.12971827,1.5386026,1
1.9500000000000015,11.703564463428174,-1.585249314283689,-0.36222019211560597,1.36523973720586,11.607265,-2.294377,-0.70398504,1.4619256,1.3174626,-0.5840209,2.2409801,-0.31653577,0.20088938,0.14775495,-0.91521436,-6.429831,9.731125,0.5404489,-2.5514402,-0.00024329312,1.5348401,1
1.9600000000000015,10.631474618564662,-0.9489997007305573,-1.3251078432296308,0.9217237838886413,10.721298,-1.6416293,-1.6831553,0.9177678,1.2528949,-0.4867953,2.2464013,-0.30690145,0.20574662,0.15786828,-0.91572803,-6.4839272,9.713647,0.5435437,-2.511242,-0.10994547,1.5312622,1
1.9700000000000015,10.631474618564662,-0.9489997007305573,-1.3251078432296308,0.9217237838886413,10.721298,-1.6416293,-1.6831553,0.9177678,1.1878003,-0.38974845,2.2518091,-0.29722852,0.20958926,0.16783038,-0.9162756,-6.5351486,9.695384,0.5378391,-2.3753884,-0.35510457,1.501158,1
1.9800000000000015,10.631474618564662,-0.9489997007305573,-1.3251078432296308,0.9217237838886413,10.721298,-1.6416293,-1.6831553,0.9177678,1.1221884,-0.2928951,2.2571547,-0.28757218,0.21214597,0.17755255,-0.9169361,-6.58734,9.674942,0.53113014,-2.260767,-0.56205904,1.472531,1
1.9900000000000015,10.631474618564662,-0.9489997007305573,-1.3251078432296308,0.9217237838886413,10.721298,-1.6416293,-1.6831553,0.9177678,1.0560511,-0.19625728,2.2624285,-0.27793214,0.21361293,0.18706124,-0.91767734,-6.6402144,9.652272,0.5234986,-2.164058,-0.73676234,1.4453086,1
2.0000000000000013,,,,,10.253622,-1.1086133,-2.4785478,0.47854206,0.9893827,-0.09985743,2.267622,-0.26830786,0.21415477,0.19637947,-0.91846836,-6.693522,9.627341,0.5150137,-2.0824616,-0.88424,1.419422,1
2.010000000000001,,,,,10.253622,-1.1086133,-2.4785478,0.47854206,0.9221916,-0.00371244,2.2727067,-0.2587313,0.21355021,0.20542714,-0.9193772,-6.7446957,9.601314,0.5018671,-1.9303946,-1.1326725,1.3732529,1
2.020000000000001,,,,,10.253622,-1.1086133,-2.4785478,0.47854206,0.8544891,0.092161275,2.277657,-0.2492319,0.21163075,0.21414043,-0.92045647,-6.7957783,9.573087,0.488071,-1.802089,-1.3423946,1.3293492,1
2.0300000000000007,,,,,10.253622,-1.1086133,-2.4785478,0.47854206,0.78627735,0.1877417,2.2824662,-0.23980556,0.20859414,0.22256005,-0.92165565,-6.8464932,9.542655,0.47372776,-1.6938297,-1.5194371,1.2875998,1
2.0400000000000005,,,,,10.253622,-1.1086133,-2.4785478,0.47854206,0.7175613,0.2830068,2.2871299,-0.23044866,0.20460647,0.23072071,-0.9229289,-6.896602,9.510025,0.45892042,-1.6024832,-1.6688918,1.2478992,1
2.0500000000000003,,,,,9.938934,-0.64312047,-2.5555487,0.20521003,0.6483481,0.37793466,2.2916434,-0.22115816,0.19980739,0.238652,-0.92423564,-6.9458947,9.475211,0.44371432,-1.5254059,-1.7950568,1.2101465,1
2.06,,,,,9.938934,-0.64312047,-2.5555487,0.20521003,0.5786543,0.4725092,2.2959905,-0.21199246,0.19423755,0.24622047,-0.92558455,-6.992701,9.439373,0.4256306,-1.3877819,-1.9135019,1.1608341,1
2.07,,,,,9.938934,-0.64312047,-2.5555487,0.20521003,0.508498,0.5667151,2.3001552,-0.20300154,0.18793613,0.2533227,-0.9269835,-7.0383534,9.401508,0.40728,-1.271638,-2.013502,1.1139413,1
2.0799999999999996,,,,,9.938934,-0.64312047,-2.5555487,0.20521003,0.43789172,0.6605326,2.304135,-0.19417153,0.18100931,0.26002246,-0.9283974,-7.082687,9.361694,0.38872308,-1.1736207,-2.0979285,1.0693496,1
2.0899999999999994,,,,,9.923313,-0.10491902,-2.9918578,-0.2082971,0.36684927,0.7539425,2.307929,-0.18549055,0.17354643,0.26637357,-0.9297959,-7.125558,9.320002,0.37000537,-1.0909,-2.1692061,1.0269461,1
2.099999999999999,,,,,9.923313,-0.10491902,-2.9918578,-0.2082971,0.2953863,0.84692675,2.3115344,-0.17698593,0.16540739,0.27226153,-0.9312306,-7.166767,9.276573,0.35104185,-0.9371418,-2.2973583,0.9663323,1
2.109999999999999,,,,,9.923313,-0.10491902,-2.9918578,-0.2082971,0.22351997,0.9394681,2.3149495,-0.16868189,0.15648426,0.27759603,-0.9327379,-7.206211,9.231441,0.33202425,-0.80737925,-2.405553,0.9086929,1
2.1199999999999988,,,,,9.923313,-0.10491902,-2.9918578,-0.2082971,0.15126872,1.03155,2.3181748,-0.16056481,0.14688967,0.2824515,-0.9342719,-7.243725,9.184706,0.3130148,-0.69786614,-2.4968967,0.85388184,1
2.1299999999999986,,,,,9.717224,0.32991213,-2.7324636,-0.6053648,0.078652605,1.1231569,2.3212101,-0.15262303,0.1367187,0.2868907,-0.9357929,-7.2791634,9.136464,0.2940569,-0.6054409,-2.5740135,0.8017604,1
2.1399999999999983,,,,,9.717224,0.32991213,-2.7324636,-0.6053648,0.0056964923,1.2142794,2.324048,-0.14494577,0.12610902,0.29079482,-0.93729717,-7.3117146,9.087846,0.27353612,-0.45967713,-2.5986266,0.7327124,1
2.149999999999998,,,,,9.717224,0.32991213,-2.7324636,-0.6053648,-0.067573994,1.3049093,2.3266811,-0.13760872,0.11517427,0.2940749,-0.938786,-7.342026,9.037983,0.25313368,-0.33664325,-2.619425,0.66705257,1
2.159999999999998,,,,,9.717224,0.32991213,-2.7324636,-0.6053648,-0.1411361,1.3950353,2.3291109,-0.13058391,0.10395616,0.29681924,-0.9402338,-7.370027,8.987016,0.23288067,-0.23279397,-2.6369987,0.6046147,1
2.1699999999999977,,,,,9.174522,0.9588047,-2.669459,-0.9317939,-0.2149664,1.4846464,2.3313394,-0.12384708,0.09249002,0.29910198,-0.94161874,-7.3956585,8.935067,0.21279515,-0.1451369,-2.651846,0.54524064,1
2.1799999999999975,,,,,9.174522,0.9588047,-2.669459,-0.9317939,-0.2890347,1.5737476,2.3333468,-0.11744597,0.080794804,0.30075473,-0.9429876,-7.417611,8.885119,0.18865336,0.025297865,-2.6529334,0.47291094,1
2.1899999999999973,,,,,9.174522,0.9588047,-2.669459,-0.9317939,-0.36331055,1.6623468,2.3351128,-0.11141719,0.06887417,0.3016369,-0.9443824,-7.437191,8.834599,0.16458713,0.17075932,-2.6554728,0.40398166,1
