time-since-start [s],throttle_mpc,roll_mpc,pitch_mpc,yaw_mpc,throttle_nw,roll_nw,pitch_nw,yaw_nw,position_x [m],position_y [m],position_z [m],rotation_w [quaternion],rotation_x [quaternion],rotation_y [quaternion],rotation_z [quaternion],velocity_x [m/s],velocity_y [m/s],velocity_z [m/s],omega_x [rad/s],omega_y [rad/s],omega_z [rad/s],network_used
0.0,10.21012754860338,5.999999777224428,-5.999999945598473,-4.725384591410079,7.432238,0.47914943,-4.262644,-0.014951818,18.548475,-10.101478,1.8503116,-0.05892211,0.4714066,-0.26648182,-0.8386247,-11.501443,-2.293413,-0.9661508,0.90999645,0.28477803,0.7463818,0
0.01,10.21012754860338,5.999999777224428,-5.999999945598473,-4.725384591410079,19.803822,1.1885378,-5.9230666,-0.49693573,18.432724,-10.123923,1.8405598,-0.05789038,0.4712724,-0.27170056,-0.83709604,-11.648134,-2.1957362,-0.98469377,0.81479067,0.19358316,0.5628657,0
0.02,10.21012754860338,5.999999777224428,-5.999999945598473,-4.725384591410079,19.803822,1.1885378,-5.9230666,-0.49693573,18.315527,-10.145397,1.8306079,-0.0575245,0.47104487,-0.27609575,-0.83581024,-11.790908,-2.099183,-1.0061196,0.7356717,0.115373924,0.38396057,0
0.03,10.21012754860338,5.999999777224428,-5.999999945598473,-4.725384591410079,19.803822,1.1885378,-5.9230666,-0.49693573,18.196915,-10.165907,1.8204309,-0.057849452,0.47073847,-0.27977577,-0.83473605,-11.930998,-2.0030665,-1.0295426,0.68711215,0.031148903,0.21099117,0
0.04,10.21012754860338,5.999999777224428,-5.999999945598473,-4.725384591410079,19.260517,3.2621515,-6.180505,-1.1938585,18.076916,-10.185458,1.8100117,-0.058934983,0.47029442,-0.28289434,-0.8338589,-12.068811,-1.9071754,-1.0545435,0.67181516,-0.06563491,0.044212215,0
0.05,10.21012754860338,5.999999777224428,-5.999999945598473,-4.725384591410079,19.260517,3.2621515,-6.180505,-1.1938585,17.95555,-10.204051,1.7993352,-0.060846794,0.46964902,-0.28559178,-0.8331656,-12.204213,-1.8115852,-1.0809871,0.68540287,-0.17384261,-0.116752855,0
0.060000000000000005,10.21012754860338,5.999999777224428,-5.999999945598473,-4.725384591410079,19.260517,3.2621515,-6.180505,-1.1938585,17.83284,-10.22169,1.7883877,-0.063640855,0.4687426,-0.2879894,-0.8326418,-12.337052,-1.7163175,-1.1087422,0.7240404,-0.2923719,-0.2722494,0
0.07,10.21012754860338,5.999999777224428,-5.999999945598473,-4.725384591410079,19.260517,3.2621515,-6.180505,-1.1938585,17.708817,-10.238379,1.7771564,-0.06736434,0.46751925,-0.2901914,-0.83227205,-12.467162,-1.6213517,-1.1376809,0.7843627,-0.4201634,-0.4225945,0
0.08,12.586982461792275,5.999999910978794,-5.999999987246722,-4.974300832062761,17.68658,6.174527,-6.527953,-4.9639397,17.583506,-10.254118,1.7656302,-0.072056524,0.46592608,-0.29228696,-0.8320391,-12.594367,-1.5266347,-1.1676791,0.86341614,-0.55620664,-0.5680793,0
0.09,12.586982461792275,5.999999910978794,-5.999999987246722,-4.974300832062761,17.68658,6.174527,-6.527953,-4.9639397,17.456861,-10.268853,1.7538409,-0.07783628,0.46385682,-0.29439002,-0.8319332,-12.733781,-1.4204243,-1.19033,0.9880316,-0.72901464,-0.7238146,0
0.09999999999999999,12.586982461792275,5.999999910978794,-5.999999987246722,-4.974300832062761,17.68658,6.174527,-6.527953,-4.9639397,17.328842,-10.282527,1.7418203,-0.0848141,0.46120644,-0.29660106,-0.83193934,-12.869406,-1.3142996,-1.2139118,1.1262133,-0.9079388,-0.8748609,0
0.10999999999999999,12.586982461792275,5.999999910978794,-5.999999987246722,-4.974300832062761,17.68658,6.174527,-6.527953,-4.9639397,17.199488,-10.295139,1.7295599,-0.09300635,0.45792687,-0.29896992,-0.83202755,-13.000973,-1.2080967,-1.2382702,1.2759268,-1.0921075,-1.0214554,0
0.11999999999999998,12.586982461792275,5.999999910978794,-5.999999987246722,-4.974300832062761,17.68658,6.174527,-6.527953,-4.9639397,17.068836,-10.306688,1.7170527,-0.10242341,0.45397115,-0.30153587,-0.8321634,-13.128208,-1.1016574,-1.2632552,1.4353813,-1.2807112,-1.1638173,0
0.12999999999999998,16.557776609781552,5.999999985723392,-6.0,-4.801369989450845,18.451628,3.9957314,-6.7523804,-2.6314497,16.936937,-10.317171,1.7042931,-0.113069944,0.4492929,-0.3043283,-0.8323074,-13.250833,-0.9948349,-1.288722,1.6030002,-1.4729997,-1.3021492,0
0.13999999999999999,16.557776609781552,5.999999985723392,-6.0,-4.801369989450845,18.451628,3.9957314,-6.7523804,-2.6314497,16.803745,-10.3265,1.6913333,-0.12520145,0.443531,-0.30760065,-0.8324583,-13.386777,-0.87084293,-1.3033148,1.9086508,-1.7997909,-1.4398875,0
0.15,16.557776609781552,5.999999985723392,-6.0,-4.801369989450845,18.451628,3.9957314,-6.7523804,-2.6314497,16.669226,-10.334586,1.6782255,-0.1390413,0.4363451,-0.31156224,-0.8325861,-13.516156,-0.74627733,-1.3182693,2.209792,-2.1188684,-1.5747294,0
0.16,20.36671145579784,6.0,-6.0,-4.296211749732281,21.192122,3.7156157,-7.1971717,-1.80708,16.533447,-10.341422,1.6649674,-0.15453815,0.42771688,-0.31616476,-0.8325961,-13.6384325,-0.6208628,-1.3333287,2.5062606,-2.4305634,-1.7067394,0
0.17,20.36671145579784,6.0,-6.0,-4.296211749732281,21.192122,3.7156157,-7.1971717,-1.80708,16.396418,-10.346928,1.6516067,-0.17194116,0.4171759,-0.32165727,-0.8324286,-13.765992,-0.48009512,-1.3388474,2.9711351,-2.9087484,-1.8266804,0
0.18000000000000002,20.36671145579784,6.0,-6.0,-4.296211749732281,21.192122,3.7156157,-7.1971717,-1.80708,16.258162,-10.351022,1.6381911,-0.19145101,0.40427685,-0.32822558,-0.8319706,-13.883716,-0.3383537,-1.3441988,3.4159687,-3.364905,-1.9454303,0
0.19000000000000003,20.36671145579784,6.0,-6.0,-4.296211749732281,21.192122,3.7156157,-7.1971717,-1.80708,16.118776,-10.353686,1.6247276,-0.21290253,0.38907066,-0.33569545,-0.83102673,-13.991917,-0.19386464,-1.3480254,3.8181438,-3.7766416,-2.0607839,0
0.20000000000000004,20.999999949960092,6.0,-6.0,-3.8493415074518307,23.259771,6.0558333,-7.259962,-2.8665514,15.978354,-10.354883,1.6112407,-0.23600061,0.37176564,-0.343804,-0.8293932,-14.090831,-0.044778716,-1.3488662,4.1576433,-4.124125,-2.170477,0
0.21000000000000005,20.999999949960092,6.0,-6.0,-3.8493415074518307,23.259771,6.0558333,-7.259962,-2.8665514,15.836981,-10.354543,1.5977767,-0.26039645,0.35257086,-0.35231808,-0.8268976,-14.182025,0.11348395,-1.3434093,4.4443073,-4.41731,-2.2528594,0
0.22000000000000006,20.999999949960092,6.0,-6.0,-3.8493415074518307,23.259771,6.0558333,-7.259962,-2.8665514,15.694754,-10.3526,1.584384,-0.28577575,0.3316701,-0.36104032,-0.82339376,-14.261311,0.27585894,-1.3345792,4.6863165,-4.664724,-2.3311992,0
0.23000000000000007,20.999999949960092,6.0,-6.0,-3.8493415074518307,23.259771,6.0558333,-7.259962,-2.8665514,15.551798,-10.349015,1.5710967,-0.31189853,0.30924624,-0.36978465,-0.8187464,-14.327693,0.4417158,-1.3223649,4.8906326,-4.873507,-2.4056947,0
0.24000000000000007,20.999999949960092,6.0,-6.0,-3.8493415074518307,22.830809,5.8445883,-6.951248,-1.7242876,15.408247,-10.343758,1.5579481,-0.33854777,0.28546554,-0.3783935,-0.8128428,-14.380305,0.6102496,-1.3068372,5.063129,-5.0496864,-2.476535,0
0.25000000000000006,20.999999949960092,6.0,-6.0,-3.8493415074518307,22.830809,5.8445883,-6.951248,-1.7242876,15.264242,-10.336805,1.544971,-0.36552632,0.26048082,-0.3867336,-0.80559146,-14.418418,0.78050715,-1.2881393,5.208766,-5.198351,-2.543899,0
0.26000000000000006,20.999999949960092,6.0,-6.0,-3.8493415074518307,22.830809,5.8445883,-6.951248,-1.7242876,15.119931,-10.328146,1.5321957,-0.39265466,0.23443373,-0.39469263,-0.79691976,-14.441443,0.95141274,-1.2664807,5.331729,-5.3237934,-2.6079574,0
0.2700000000000001,20.999999949960092,6.0,-6.0,-3.8493415074518307,22.830809,5.8445883,-6.951248,-1.7242876,14.975467,-10.317779,1.5196506,-0.41976842,0.20745638,-0.40217623,-0.7867724,-14.448941,1.1217928,-1.2421286,5.4355507,-5.42964,-2.6688724,0
0.2800000000000001,21.0,5.999999901550835,-5.999999973624798,-3.4440654939171007,22.152239,4.945321,-6.7592335,-0.31018758,14.831007,-10.305716,1.5073613,-0.44671687,0.17967273,-0.4091053,-0.7751095,-14.44063,1.2903998,-1.2154006,5.523213,-5.5189476,-2.7267985,0
0.2900000000000001,21.0,5.999999901550835,-5.999999973624798,-3.4440654939171007,22.152239,4.945321,-6.7592335,-0.31018758,14.686709,-10.291982,1.4953496,-0.4733227,0.15117908,-0.41542274,-0.7619283,-14.416383,1.4559344,-1.1866574,5.597306,-5.594227,-2.7619948,0
0.3000000000000001,21.0,5.999999901550835,-5.999999973624798,-3.4440654939171007,22.152239,4.945321,-6.7592335,-0.31018758,14.542734,-10.276613,1.4836338,-0.49942365,0.12206659,-0.42108107,-0.7472395,-14.376231,1.6170683,-1.1562972,5.6598687,-5.657743,-2.7954643,0
0.3100000000000001,21.0,5.999999901550835,-5.999999973624798,-3.4440654939171007,22.152239,4.945321,-6.7592335,-0.31018758,14.39924,-10.259661,1.4722278,-0.5249078,0.09244193,-0.42603275,-0.73104215,-14.320366,1.7724652,-1.1247492,5.712696,-5.711333,-2.8272913,0
0.3200000000000001,21.0,3.9221175339216128,-5.999999556802211,-0.7169313283590776,21.23977,4.59387,-6.198745,-0.03743779,14.25638,-10.241188,1.4611412,-0.54967207,0.062406726,-0.43023878,-0.7133449,-14.249128,1.9207996,-1.0924675,5.757304,-5.756546,-2.8575563,0
0.3300000000000001,21.0,3.9221175339216128,-5.999999556802211,-0.7169313283590776,21.23977,4.59387,-6.198745,-0.03743779,14.114307,-10.221274,1.4503794,-0.5733487,0.03237816,-0.43310758,-0.6947238,-14.1630745,2.0607758,-1.0598816,5.4714355,-5.793605,-2.7525153,0
0.34000000000000014,21.0,3.9221175339216128,-5.999999556802211,-0.7169313283590776,21.23977,4.59387,-6.198745,-0.03743779,13.9731655,-10.2000065,1.439944,-0.59568053,0.0027040085,-0.43421122,-0.67573553,-14.0632515,2.19118,-1.0271823,5.2301426,-5.825018,-2.6526287,0
0.35000000000000014,21.0,3.9221175339216128,-5.999999556802211,-0.7169313283590776,21.23977,4.59387,-6.198745,-0.03743779,13.833085,-10.177487,1.4298357,-0.6167243,-0.026624087,-0.4337377,-0.65636444,-13.950859,2.3109467,-0.99450415,5.0264726,-5.8516426,-2.5576434,0
0.36000000000000015,21.0,1.6619630354915256,-4.545526946980974,2.3817719689081116,21.10227,3.5075703,-5.53493,0.27340865,13.694186,-10.153827,1.4200532,-0.63652295,-0.05561279,-0.4318446,-0.6365976,-13.827091,2.4191518,-0.96201706,4.8545566,-5.874206,-2.4673193,0
0.37000000000000016,21.0,1.6619630354915256,-4.545526946980974,2.3817719689081116,21.10227,3.5075703,-5.53493,0.27340865,13.556644,-10.129096,1.4106605,-0.6546272,-0.08346627,-0.42871082,-0.61701226,-13.680112,2.524494,-0.9171688,4.4340596,-5.589557,-2.2485,0
0.38000000000000017,21.0,1.6619630354915256,-4.545526946980974,2.3817719689081116,21.10227,3.5075703,-5.53493,0.27340865,13.420603,-10.103392,1.4016956,-0.6707463,-0.10959329,-0.42454594,-0.5982057,-13.527578,2.6139297,-0.8764448,4.0786653,-5.349834,-2.0351002,0
0.3900000000000002,21.0,1.6619630354915256,-4.545526946980974,2.3817719689081116,21.10227,3.5075703,-5.53493,0.27340865,13.286105,-10.076869,1.3931174,-0.6851154,-0.1342769,-0.41949907,-0.58017904,-13.371387,2.688302,-0.8398557,3.7782927,-5.147945,-1.8269888,0
0.4000000000000002,21.0,0.7147678246577176,-2.1791053835309566,2.856529997529149,21.1498,2.5958948,-5.2772675,1.3295535,13.153187,-10.049672,1.3848883,-0.6979478,-0.1577531,-0.4136397,-0.5629259,-13.211872,2.748924,-0.8063775,3.5061803,-4.9961195,-1.6255909,0
0.4100000000000002,21.0,0.7147678246577176,-2.1791053835309566,2.856529997529149,21.1498,2.5958948,-5.2772675,1.3295535,13.02191,-10.021924,1.3770075,-0.70924526,-0.179403,-0.40712717,-0.54683965,-13.043386,2.7985892,-0.7704418,3.0348818,-4.5929275,-1.4158604,0
0.4200000000000002,21.0,0.7147678246577176,-2.1791053835309566,2.856529997529149,21.1498,2.5958948,-5.2772675,1.3295535,12.892317,-9.993744,1.3694652,-0.7190295,-0.19877888,-0.40023395,-0.53225636,-12.875485,2.8355722,-0.7386379,2.63936,-4.25036,-1.2113242,0
0.4300000000000002,21.0,0.7147678246577176,-2.1791053835309566,2.856529997529149,21.1498,2.5958948,-5.2772675,1.3295535,12.7644,-9.96525,1.3622243,-0.72750765,-0.21628612,-0.39308083,-0.5190768,-12.708112,2.8614757,-0.70989645,2.3235111,-3.9432619,-1.0132093,0
0.4400000000000002,21.0,0.7147678246577176,-2.1791053835309566,2.856529997529149,20.738108,1.8798404,-4.0329347,1.5933049,12.638156,-9.936547,1.3552614,-0.7348053,-0.23227738,-0.3858412,-0.5071838,-12.54032,2.8776176,-0.68278176,2.073266,-3.667719,-0.82332015,0
0.45000000000000023,21.0,0.7147678246577176,-2.1791053835309566,2.856529997529149,20.738108,1.8798404,-4.0329347,1.5933049,12.5135975,-9.907728,1.3485664,-0.741071,-0.24702987,-0.37855455,-0.4964744,-12.371436,2.8849046,-0.6563063,1.8619397,-3.435237,-0.64274883,0
0.46000000000000024,21.0,0.7147678246577176,-2.1791053835309566,2.856529997529149,20.738108,1.8798404,-4.0329347,1.5933049,12.390732,-9.878879,1.342133,-0.74644274,-0.26076725,-0.37121063,-0.4868538,-12.201936,2.8839507,-0.63045615,1.6834848,-3.2390795,-0.47103822,0
0.47000000000000025,21.0,0.7147678246577176,-2.1791053835309566,2.856529997529149,20.738108,1.8798404,-4.0329347,1.5933049,12.269561,-9.850077,1.3359551,-0.7510319,-0.27367482,-0.36379564,-0.47823244,-12.032204,2.8752902,-0.6052195,1.5327928,-3.0735672,-0.3077535,0
0.48000000000000026,20.99999999032907,-0.1554527592687435,-0.09943549245618366,2.9166455437995698,22.785908,1.6374379,-2.972989,2.5240476,12.150086,-9.821398,1.3300266,-0.75492865,-0.2859058,-0.35629413,-0.47052675,-11.8625555,2.8593848,-0.58058953,1.4055482,-2.9339077,-0.1524812,0
0.49000000000000027,20.99999999032907,-0.1554527592687435,-0.09943549245618366,2.9166455437995698,22.785908,1.6374379,-2.972989,2.5240476,12.032309,-9.792913,1.3243413,-0.75801635,-0.29693878,-0.34915805,-0.46403387,-11.69324,2.8367183,-0.5565618,1.162402,-2.4917336,-0.0018782541,0
0.5000000000000002,20.99999999032907,-0.1554527592687435,-0.09943549245618366,2.9166455437995698,22.785908,1.6374379,-2.972989,2.5240476,11.916221,-9.764685,1.3188934,-0.76023954,-0.30637962,-0.34275925,-0.45900282,-11.5244,2.8081877,-0.5331016,0.95708346,-2.1185653,0.14133458,0
0.5100000000000002,20.99999999032907,-0.1554527592687435,-0.09943549245618366,2.9166455437995698,22.785908,1.6374379,-2.972989,2.5240476,11.801819,-9.736767,1.3136777,-0.76173836,-0.31451172,-0.33697048,-0.45528898,-11.356101,2.7747154,-0.51015043,0.7837167,-1.8036284,0.27751988,0
0.5200000000000002,20.9999998279338,-0.9810757324712854,1.8566101758889333,3.147872598137376,22.328266,0.74756515,-1.3426888,2.820168,11.689097,-9.709205,1.308689,-0.76262105,-0.32156911,-0.33167937,-0.45275962,-11.188363,2.737077,-0.48764172,0.637337,-1.5378325,0.4070225,0
0.5300000000000002,20.9999998279338,-0.9810757324712854,1.8566101758889333,3.147872598137376,22.328266,0.74756515,-1.3426888,2.820168,11.57805,-9.682036,1.3039235,-0.7628106,-0.32714957,-0.32722756,-0.45168054,-11.021171,2.6960018,-0.4654975,0.38489735,-1.008503,0.5415168,0
0.5400000000000003,20.9999998279338,-0.9810757324712854,1.8566101758889333,3.147872598137376,22.328266,0.74756515,-1.3426888,2.820168,11.468672,-9.6552925,1.2993782,-0.7622571,-0.3309464,-0.3238812,-0.45226058,-10.854411,2.6525514,-0.44358382,0.1717662,-0.56175005,0.66941136,0
0.5500000000000003,20.9999998279338,-0.9810757324712854,1.8566101758889333,3.147872598137376,22.328266,0.74756515,-1.3426888,2.820168,11.360961,-9.62899,1.2950516,-0.7610639,-0.33326146,-0.32144457,-0.45430383,-10.687947,2.6077685,-0.42174798,-0.008166824,-0.18468648,0.79103017,0
0.5600000000000003,20.99999978810168,-2.607447235212018,4.284054768317982,3.2733375493859613,20.27807,-1.0651281,0.5030975,2.5626087,11.254914,-9.603139,1.2909435,-0.75930613,-0.33434355,-0.31974873,-0.45763454,-10.521657,2.5625296,-0.39984462,-0.16006407,0.13356298,0.90668106,0
0.5700000000000003,20.99999978810168,-2.607447235212018,4.284054768317982,3.2733375493859613,20.27807,-1.0651281,0.5030975,2.5626087,11.150529,-9.577738,1.2870554,-0.7569378,-0.33346248,-0.31908092,-0.46263957,-10.355431,2.5176768,-0.37770697,-0.54217,0.7805649,1.0228136,0
0.5800000000000003,20.99999978810168,-2.607447235212018,4.284054768317982,3.2733375493859613,20.27807,-1.0651281,0.5030975,2.5626087,11.047805,-9.552777,1.2833914,-0.7539053,-0.3300381,-0.3196479,-0.46960294,-10.189172,2.474522,-0.3549973,-0.8647056,1.3266567,1.1332475,0
0.5900000000000003,20.99999978810168,-2.607447235212018,4.284054768317982,3.2733375493859613,20.27807,-1.0651281,0.5030975,2.5626087,10.946744,-9.528236,1.2799587,-0.75023437,-0.32445648,-0.32120398,-0.47823054,-10.022834,2.4343808,-0.331363,-1.1369458,1.7875837,1.2382624,0
0.6000000000000003,20.99999983079919,-3.4425014941706937,5.523826496593026,3.0497068277823782,18.548391,-2.200235,2.9944043,1.6270539,10.847346,-9.504077,1.2767682,-0.74593073,-0.31703734,-0.32353753,-0.4882603,-9.856445,2.3983672,-0.30651417,-1.3667235,2.1766334,1.3381242,0
0.6100000000000003,20.99999983079919,-3.4425014941706937,5.523826496593026,3.0497068277823782,18.548391,-2.200235,2.9944043,1.6270539,10.749612,-9.480252,1.2738333,-0.7409427,-0.3075438,-0.32667947,-0.4997011,-9.690115,2.3674796,-0.28020522,-1.6910406,2.6982527,1.422112,0
0.6200000000000003,20.99999983079919,-3.4425014941706937,5.523826496593026,3.0497068277823782,18.548391,-2.200235,2.9944043,1.6270539,10.653541,-9.456706,1.2711699,-0.73520005,-0.29578695,-0.33062905,-0.51251864,-9.524049,2.3428707,-0.25216052,-1.9647497,3.1385446,1.5019785,0
0.6300000000000003,20.99999983079919,-3.4425014941706937,5.523826496593026,3.0497068277823782,18.548391,-2.200235,2.9944043,1.6270539,10.559129,-9.433371,1.2687966,-0.7286678,-0.28207806,-0.33517584,-0.5264335,-9.35856,2.3256178,-0.22215766,-2.1957402,3.5101943,1.5779259,0
0.6400000000000003,20.99999983079919,-3.4425014941706937,5.523826496593026,3.0497068277823782,17.987944,-3.3562503,4.621986,1.0516055,10.466367,-9.410167,1.2667339,-0.72131073,-0.2666816,-0.34014076,-0.5411987,-9.194056,2.3166208,-0.19006123,-2.3906734,3.823907,1.6501465,0
0.6500000000000004,20.99999983079919,-3.4425014941706937,5.523826496593026,3.0497068277823782,17.987944,-3.3562503,4.621986,1.0516055,10.375242,-9.387008,1.2650028,-0.7130966,-0.24982436,-0.34537205,-0.5565961,-9.031032,2.3166213,-0.15581508,-2.5551722,4.0887175,1.7188233,0
0.6600000000000004,20.99999983079919,-3.4425014941706937,5.523826496593026,3.0497068277823782,17.987944,-3.3562503,4.621986,1.0516055,10.285739,-9.363801,1.263625,-0.70399845,-0.23170245,-0.35074162,-0.5724339,-8.870051,2.3262148,-0.119434215,-2.693984,4.312252,1.7841301,0
0.6700000000000004,20.99999983079919,-3.4425014941706937,5.523826496593026,3.0497068277823782,17.987944,-3.3562503,4.621986,1.0516055,10.197832,-9.340449,1.2626214,-0.69399536,-0.21248668,-0.35614192,-0.5885431,-8.711741,2.3458624,-0.08099662,-2.8111157,4.500947,1.8462323,0
0.6800000000000004,20.999999792460542,-3.673032307665891,5.546495463297152,2.575025690512959,18.120497,-4.191305,5.9201107,1.3344209,10.111493,-9.316849,1.2620118,-0.6830726,-0.19232702,-0.36148265,-0.60477483,-8.55677,2.3758993,-0.04063518,-2.9099507,4.6602345,1.905287,0
0.6900000000000004,20.999999792460542,-3.673032307665891,5.546495463297152,2.575025690512959,18.120497,-4.191305,5.9201107,1.3344209,10.026684,-9.292895,1.2618147,-0.67127097,-0.17126626,-0.36664918,-0.62099254,-8.405846,2.4165452,0.0014753565,-3.0292265,4.7982335,1.9381512,0
0.7000000000000004,20.999999792460542,-3.673032307665891,5.546495463297152,2.575025690512959,18.120497,-4.191305,5.9201107,1.3344209,9.943359,-9.268482,1.2620467,-0.6586286,-0.14934832,-0.37154478,-0.63707,-8.259731,2.4679215,0.045149785,-3.1298747,4.9147344,1.9694028,0
0.7100000000000004,20.999999792460542,-3.673032307665891,5.546495463297152,2.575025690512959,18.120497,-4.191305,5.9201107,1.3344209,9.861469,-9.2435,1.2627224,-0.64513713,-0.12669985,-0.37612486,-0.65289783,-8.119211,2.5300457,0.090168655,-3.214803,5.0130863,1.9991207,0
0.7200000000000004,20.9999995948366,-3.498143874098027,4.811704837987116,2.034105790201478,18.906511,-4.398878,6.295485,1.8516167,9.780954,-9.217843,1.2638538,-0.6307947,-0.10343384,-0.38035285,-0.6683798,-7.9850636,2.6028306,0.13627191,-3.2864656,5.0961175,2.0273807,0
0.7300000000000004,20.9999995948366,-3.498143874098027,4.811704837987116,2.034105790201478,18.906511,-4.398878,6.295485,1.8516167,9.701745,-9.191406,1.2654505,-0.61575925,-0.07986864,-0.38407135,-0.68333817,-7.8580422,2.6860662,0.18317147,-3.3194194,5.051719,2.0277107,0
0.7400000000000004,20.9999995948366,-3.498143874098027,4.811704837987116,2.034105790201478,18.906511,-4.398878,6.295485,1.8516167,9.623767,-9.164087,1.2675189,-0.60018754,-0.0562689,-0.3871701,-0.69764477,-7.738808,2.779314,0.23058921,-3.3472428,5.0142517,2.0280244,0
0.7500000000000004,20.9999995948366,-3.498143874098027,4.811704837987116,2.034105790201478,18.906511,-4.398878,6.295485,1.8516167,9.546941,-9.135789,1.2700629,-0.58408165,-0.032656092,-0.38968444,-0.7112864,-7.6279554,2.8820472,0.2782467,-3.3707352,4.9826326,2.028323,0
0.7600000000000005,20.99999785013127,-2.866246906456245,3.584618454032306,1.4237209706244305,18.991673,-4.281229,6.4288893,2.2393005,9.471178,-9.106417,1.2730836,-0.5674465,-0.00905114,-0.39164427,-0.7242496,-7.526037,2.9937105,0.32585698,-3.3905702,4.9559503,2.0286067,0
0.7700000000000005,20.99999785013127,-2.866246906456245,3.584618454032306,1.4237209706244305,18.991673,-4.281229,6.4288893,2.2393005,9.396387,-9.075887,1.2765789,-0.5505428,0.014055157,-0.3929887,-0.73638654,-7.4335237,3.1136885,0.37313396,-3.308428,4.742264,1.9989247,0
0.7800000000000005,20.99999785013127,-2.866246906456245,3.584618454032306,1.4237209706244305,18.991673,-4.281229,6.4288893,2.2393005,9.3224745,-9.044118,1.2805443,-0.5336209,0.036273893,-0.3936994,-0.7476188,-7.3506227,3.241156,0.4198377,-3.2391512,4.5618796,1.9706992,0
0.7900000000000005,20.99999785013127,-2.866246906456245,3.584618454032306,1.4237209706244305,18.991673,-4.281229,6.4288893,2.2393005,9.249342,-9.011041,1.284973,-0.5166699,0.057724927,-0.3938534,-0.7580236,-7.27743,3.3752792,0.46576315,-3.1807244,4.4096065,1.9438587,0
0.8000000000000005,18.433538261163307,-1.935341500704105,1.8394226028819936,0.8339536201756022,18.345888,-4.598714,5.4120755,2.307535,9.176892,-8.976592,1.2898563,-0.4996782,0.07850988,-0.39351264,-0.76766264,-7.2140183,3.5152898,0.51072276,-3.1314476,4.2810645,1.9183354,0
0.8100000000000005,18.433538261163307,-1.935341500704105,1.8394226028819936,0.8339536201756022,18.345888,-4.598714,5.4120755,2.307535,9.104994,-8.940805,1.2950968,-0.4830038,0.09802203,-0.39266938,-0.7764728,-7.1669354,3.6426992,0.53721213,-2.944304,3.9006279,1.8651245,0
0.8200000000000005,18.433538261163307,-1.935341500704105,1.8394226028819936,0.8339536201756022,18.345888,-4.598714,5.4120755,2.307535,9.0335245,-8.903725,1.300597,-0.4669701,0.11579475,-0.39135313,-0.78445745,-7.1280966,3.7738366,0.5626763,-2.786448,3.5794678,1.8145245,0
0.8300000000000005,18.433538261163307,-1.935341500704105,1.8394226028819936,0.8339536201756022,18.345888,-4.598714,5.4120755,2.307535,8.962404,-8.865317,1.3063468,-0.45151207,0.13209718,-0.38965282,-0.79174364,-7.097083,3.9079778,0.5871267,-2.6532938,3.3083491,1.7664076,0
0.8400000000000005,18.433538261163307,-1.935341500704105,1.8394226028819936,0.8339536201756022,17.711996,-4.0020657,3.6399207,1.2439787,8.891557,-8.825557,1.3123361,-0.4365674,0.1471575,-0.38763645,-0.79843074,-7.073518,4.0445166,0.61058676,-2.540974,3.079476,1.7206517,0
0.8500000000000005,18.433538261163307,-1.935341500704105,1.8394226028819936,0.8339536201756022,17.711996,-4.0020657,3.6399207,1.2439787,8.820909,-8.78442,1.3185552,-0.42207792,0.16116868,-0.38535592,-0.8045966,-7.057061,4.1829386,0.6330853,-2.4462273,2.8862662,1.6771412,0
0.8600000000000005,18.433538261163307,-1.935341500704105,1.8394226028819936,0.8339536201756022,17.711996,-4.0020657,3.6399207,1.2439787,8.750391,-8.741893,1.3249946,-0.4079906,0.17429358,-0.3828509,-0.81030273,-7.047414,4.322805,0.6546521,-2.3663032,2.723163,1.6357658,0
0.8700000000000006,18.433538261163307,-1.935341500704105,1.8394226028819936,0.8339536201756022,17.711996,-4.0020657,3.6399207,1.2439787,8.679938,-8.697961,1.3316451,-0.39425755,0.18666942,-0.38015163,-0.815598,-7.04431,4.463737,0.6753153,-2.2988818,2.585475,1.5964206,0
0.8800000000000006,15.952101378669694,-0.8908189145273292,0.15452982683985633,0.3573767789517735,16.87824,-3.170469,2.0217903,0.67213273,8.609483,-8.652616,1.3384979,-0.3808362,0.19841163,-0.37728128,-0.8205214,-7.0475154,4.605404,0.6950995,-2.2420068,2.4692426,1.5590062,0
0.8900000000000006,15.952101378669694,-0.8908189145273292,0.15452982683985633,0.3573767789517735,16.87824,-3.170469,2.0217903,0.67213273,8.538972,-8.605947,1.3454653,-0.3680787,0.20892943,-0.3743393,-0.8250677,-7.0555153,4.728374,0.6982876,-2.0308416,2.1085572,1.5000418,0
0.9000000000000006,15.952101378669694,-0.8908189145273292,0.15452982683985633,0.3573767789517735,16.87824,-3.170469,2.0217903,0.67213273,8.468357,-8.558048,1.3524615,-0.3562819,0.21777162,-0.37142515,-0.8292661,-7.068229,4.851445,0.70087194,-1.8526918,1.8040696,1.443971,0
0.9100000000000006,15.952101378669694,-0.8908189145273292,0.15452982683985633,0.3573767789517735,16.87824,-3.170469,2.0217903,0.67213273,8.397594,-8.508919,1.3594811,-0.34533173,0.22521389,-0.36854935,-0.83318436,-7.0851107,4.97439,0.7029986,-1.7023923,1.5470254,1.3906516,0
0.9200000000000006,13.79603029213285,0.08472115230658356,-1.450438495516139,-0.015558893258562398,14.235867,-2.8829384,1.0283545,0.1530079,8.326643,-8.458562,1.3665203,-0.3351268,0.23148721,-0.3657152,-0.8368729,-7.105694,5.0970364,0.70479953,-1.5755872,1.3300334,1.3399485,0
0.9300000000000006,13.79603029213285,0.08472115230658356,-1.450438495516139,-0.015558893258562398,14.235867,-2.8829384,1.0283545,0.1530079,8.255485,-8.407063,1.373509,-0.32594335,0.23613515,-0.3630269,-0.84036463,-7.126308,5.202732,0.6929318,-1.3162448,0.89670414,1.2734334,0
0.9400000000000006,13.79603029213285,0.08472115230658356,-1.450438495516139,-0.015558893258562398,14.235867,-2.8829384,1.0283545,0.1530079,8.18411,-8.354509,1.380379,-0.31800324,0.23881188,-0.3605755,-0.8436991,-7.1491513,5.3079557,0.68108124,-1.0974388,0.53089577,1.2101822,0
0.9500000000000006,13.79603029213285,0.08472115230658356,-1.450438495516139,-0.015558893258562398,14.235867,-2.8829384,1.0283545,0.1530079,8.112496,-8.300905,1.3871313,-0.31114656,0.23984213,-0.35833684,-0.8469111,-7.1736426,5.4126396,0.6694351,-0.912829,0.22208929,1.1500348,0
0.9600000000000006,12.750252655553984,0.7461092093124566,-2.733089753099683,-0.33931823176060066,13.920671,-2.4504669,-0.65023845,-0.40397668,8.040632,-8.246258,1.3937689,-0.30523357,0.23949681,-0.35628447,-0.85002065,-7.1992874,5.5167456,0.6581523,-0.75706726,-0.038595412,1.0928388,0
0.9700000000000006,12.750252655553984,0.7461092093124566,-2.733089753099683,-0.33931823176060066,13.920671,-2.4504669,-0.65023845,-0.40397668,7.9685154,-8.190604,1.4002689,-0.3003897,0.23755474,-0.3544263,-0.85306257,-7.223899,5.613413,0.64160836,-0.5359413,-0.44505388,1.0238034,0
0.9800000000000006,12.750252655553984,0.7461092093124566,-2.733089753099683,-0.33931823176060066,13.920671,-2.4504669,-0.65023845,-0.40397668,7.8961544,-8.133995,1.4066006,-0.29675844,0.23376682,-0.35280603,-0.8560463,-7.248392,5.7084894,0.6248553,-0.3358026,-0.80172324,0.95691454,0
0.9900000000000007,12.750252655553984,0.7461092093124566,-2.733089753099683,-0.33931823176060066,13.920671,-2.4504669,-0.65023845,-0.40397668,7.8235497,-8.076438,1.4127688,-0.294188,0.22840644,-0.35139534,-0.85895586,-7.2725086,5.8029704,0.60890406,-0.1669365,-1.1028062,0.893308,0
1.0000000000000007,12.368818928470686,0.9464105914408608,-3.356006999449513,-0.5924042204979485,14.372248,-1.5873978,-1.6610341,-0.8468513,7.7507076,-8.017938,1.4187819,-0.29253304,0.22172526,-0.3501552,-0.86177355,-7.295807,5.896845,0.59387934,-0.024452489,-1.3569639,0.83282274,0
1.0100000000000007,12.368818928470686,0.9464105914408608,-3.356006999449513,-0.5924042204979485,14.372248,-1.5873978,-1.6610341,-0.8468513,7.6776414,-7.958516,1.4246372,-0.2917999,0.21370633,-0.34903908,-0.86449647,-7.3172355,5.9873066,0.5773633,0.12704673,-1.6686368,0.7628864,0
1.0200000000000007,12.368818928470686,0.9464105914408608,-3.356006999449513,-0.5924042204979485,14.372248,-1.5873978,-1.6610341,-0.8468513,7.6043687,-7.8981934,1.4303328,-0.29198635,0.2043457,-0.3480044,-0.86711,-7.337092,6.0771317,0.56194055,0.25487357,-1.9317287,0.6963819,0
1.0300000000000007,12.368818928470686,0.9464105914408608,-3.356006999449513,-0.5924042204979485,14.372248,-1.5873978,-1.6610341,-0.8468513,7.5309067,-7.836976,1.43588,-0.29296416,0.19385515,-0.3470225,-0.86957896,-7.3550076,6.1662774,0.5476876,0.36273083,-2.15381,0.6331408,0
1.0400000000000007,12.368818928470686,0.9464105914408608,-3.356006999449513,-0.5924042204979485,14.39793,-1.9244908,-1.6305096,-0.97976863,7.4572763,-7.774871,1.4412905,-0.2946231,0.18241306,-0.346068,-0.8718713,-7.3706684,6.2546935,0.5346489,0.45374116,-2.341272,0.573003,0
1.0500000000000007,12.368818928470686,0.9464105914408608,-3.356006999449513,-0.5924042204979485,14.39793,-1.9244908,-1.6305096,-0.97976863,7.383502,-7.7118855,1.4465771,-0.29686832,0.17017,-0.34511888,-0.8739589,-7.3838034,6.342324,0.5228412,0.53053874,-2.4995103,0.5158161,0
1.0600000000000007,12.368818928470686,0.9464105914408608,-3.356006999449513,-0.5924042204979485,14.39793,-1.9244908,-1.6305096,-0.97976863,7.30961,-7.648028,1.4517516,-0.29961833,0.15725343,-0.34415635,-0.87581754,-7.394182,6.4291058,0.5122578,0.5953455,-2.63308,0.46143538,0
1.0700000000000007,12.368818928470686,0.9464105914408608,-3.356006999449513,-0.5924042204979485,14.39793,-1.9244908,-1.6305096,-0.97976863,7.2356286,-7.583307,1.4568262,-0.30280286,0.14377135,-0.3431646,-0.8774269,-7.401609,6.5149693,0.5028718,0.6500354,-2.7458253,0.4097232,0
1.0800000000000007,12.192352243580018,0.7089150784346153,-3.3212231456389185,-0.7361930258709957,14.533403,-2.009366,-1.2486577,-0.5841323,7.1615887,-7.5177317,1.461813,-0.30636135,0.12981547,-0.34213054,-0.8787701,-7.405917,6.599839,0.4946397,0.69618946,-2.840993,0.3605485,0
1.0900000000000007,12.192352243580018,0.7089150784346153,-3.3212231456389185,-0.7361930258709957,14.533403,-2.009366,-1.2486577,-0.5841323,7.0875216,-7.4513197,1.4667164,-0.3102406,0.11551141,-0.34096223,-0.8798592,-7.4069557,6.682439,0.48620844,0.6980895,-2.9159086,0.30673108,0
1.1000000000000008,12.192352243580018,0.7089150784346153,-3.3212231456389185,-0.7361930258709957,14.533403,-2.009366,-1.2486577,-0.5841323,7.013461,-7.384087,1.4715407,-0.31439883,0.10096475,-0.33958694,-0.88070416,-7.4046965,6.7638803,0.47880802,0.699691,-2.9791405,0.25555453,0
1.1100000000000008,12.192352243580018,0.7089150784346153,-3.3212231456389185,-0.7361930258709957,14.533403,-2.009366,-1.2486577,-0.5841323,6.93944,-7.316046,1.476296,-0.31880227,0.08622061,-0.3380215,-0.8812901,-7.399075,6.8440604,0.47238025,0.7010423,-3.03251,0.20688918,0
1.1200000000000008,12.0222239494608,0.134061522133792,-2.8735031434528846,-0.7726179844859693,14.3785095,-2.5596294,-0.7925417,-0.45623338,6.8654914,-7.24721,1.4809914,-0.3234208,0.07131742,-0.33628058,-0.8816052,-7.3900385,6.922877,0.4668574,0.7021835,-3.0775557,0.16061187,0
1.1300000000000008,12.0222239494608,0.134061522133792,-2.8735031434528846,-0.7726179844859693,14.3785095,-2.5596294,-0.7925417,-0.45623338,6.79165,-7.1775985,1.4856293,-0.3281569,0.05652234,-0.33423316,-0.88170636,-7.3777385,6.9991484,0.46086416,0.613491,-3.0457613,0.114818014,0
1.1400000000000008,12.0222239494608,0.134061522133792,-2.8735031434528846,-0.7726179844859693,14.3785095,-2.5596294,-0.7925417,-0.45623338,6.717948,-7.107232,1.4902112,-0.33293843,0.04205098,-0.33178055,-0.881649,-7.3621206,7.0738673,0.45563757,0.5386365,-3.018919,0.07127126,0
1.1500000000000008,12.0222239494608,0.134061522133792,-2.8735031434528846,-0.7726179844859693,14.3785095,-2.5596294,-0.7925417,-0.45623338,6.6444187,-7.0361266,1.4947445,-0.33777323,0.027863609,-0.32897845,-0.8814226,-7.343281,7.146931,0.45112744,0.47546127,-2.9962575,0.029861383,0
1.1600000000000008,11.730303838037926,-0.7045742547543321,-2.087738513855206,-0.6585738006368951,12.830387,-3.144297,-0.6185811,-0.54879874,6.571093,-6.964299,1.4992361,-0.34266573,0.013926236,-0.325874,-0.8810176,-7.321305,7.2182455,0.44728068,0.42214334,-2.977126,-0.009516518,0
1.1700000000000008,11.730303838037926,-0.7045742547543321,-2.087738513855206,-0.6585738006368951,12.830387,-3.144297,-0.6185811,-0.54879874,6.4980006,-6.891776,1.5036807,-0.3475012,0.0005977836,-0.3223212,-0.8805403,-7.296901,7.286036,0.44174415,0.2463741,-2.838431,-0.041365948,0
1.1800000000000008,11.730303838037926,-0.7045742547543321,-2.087738513855206,-0.6585738006368951,12.830387,-3.144297,-0.6185811,-0.54879874,6.425165,-6.8185844,1.508073,-0.35219622,-0.011838178,-0.31821242,-0.8800898,-7.2697606,7.3519588,0.436793,0.09802356,-2.7213588,-0.07165252,0
1.1900000000000008,11.730303838037926,-0.7045742547543321,-2.087738513855206,-0.6585738006368951,12.830387,-3.144297,-0.6185811,-0.54879874,6.3526134,-6.744744,1.5124187,-0.35679218,-0.0235108,-0.31363526,-0.87964714,-7.24012,7.4159493,0.4324256,-0.02718583,-2.62254,-0.10045291,0
1.2000000000000008,11.37505944054525,-1.5046018244640769,-1.051600162146451,-0.42792955294782475,12.464087,-3.1160922,0.12173219,-0.31381017,6.2803698,-6.670273,1.5167238,-0.36132085,-0.03453009,-0.30866274,-0.87919384,-7.2081833,7.477954,0.42863795,-0.13286406,-2.5391288,-0.12784007,0
1.2100000000000009,11.37505944054525,-1.5046018244640769,-1.051600162146451,-0.42792955294782475,12.464087,-3.1160922,0.12173219,-0.31381017,6.2084513,-6.595201,1.5209793,-0.36566743,-0.044517916,-0.30322486,-0.87884,-7.1751833,7.536112,0.4225556,-0.34678882,-2.3071287,-0.14256555,0
1.2200000000000009,11.37505944054525,-1.5046018244640769,-1.051600162146451,-0.42792955294782475,12.464087,-3.1160922,0.12173219,-0.31381017,6.136872,-6.5195575,1.5251769,-0.36974666,-0.053180337,-0.2972738,-0.8786849,-7.1404667,7.592295,0.4170671,-0.52735025,-2.111308,-0.15656845,0
1.2300000000000009,11.37505944054525,-1.5046018244640769,-1.051600162146451,-0.42792955294782475,12.464087,-3.1160922,0.12173219,-0.31381017,6.065647,-6.4433618,1.5293227,-0.37361768,-0.060717676,-0.29089397,-0.8786942,-7.104349,7.646511,0.41221377,-0.67975235,-1.9460257,-0.16988422,0
1.2400000000000009,11.37505944054525,-1.5046018244640769,-1.051600162146451,-0.42792955294782475,13.057108,-3.196195,0.5109594,-0.14564568,5.9947886,-6.366634,1.5334233,-0.3773268,-0.06729976,-0.28415486,-0.8788349,-7.067099,7.698767,0.40803117,-0.80838674,-1.8065197,-0.18254659,0
1.2500000000000009,11.37505944054525,-1.5046018244640769,-1.051600162146451,-0.42792955294782475,13.057108,-3.196195,0.5109594,-0.14564568,5.9243083,-6.289393,1.5374856,-0.38091007,-0.073070504,-0.27711383,-0.8790766,-7.028944,7.7490716,0.40454835,-0.91696036,-1.6887704,-0.1945876,0
1.260000000000001,11.37505944054525,-1.5046018244640769,-1.051600162146451,-0.42792955294782475,13.057108,-3.196195,0.5109594,-0.14564568,5.8542123,-6.2116585,1.5415168,-0.38439557,-0.078151844,-0.26981843,-0.87939173,-6.9900775,7.797431,0.40178764,-1.008602,-1.589385,-0.20603776,0
1.270000000000001,11.37505944054525,-1.5046018244640769,-1.051600162146451,-0.42792955294782475,13.057108,-3.196195,0.5109594,-0.14564568,5.7845087,-6.133451,1.5455239,-0.38780513,-0.08264711,-0.26230812,-0.8797559,-6.950666,7.84385,0.39976475,-1.0859525,-1.5054997,-0.21692605,0
1.280000000000001,10.994993493667092,-2.011418288438326,-0.1657160695014931,-0.11863279243374159,14.0823345,-3.0475273,0.7851773,-0.15194577,5.715201,-6.0547886,1.5495147,-0.39115557,-0.08664383,-0.25461584,-0.8801479,-6.9108515,7.8883324,0.39848927,-1.1512402,-1.4346973,-0.22728005,0
1.290000000000001,10.994993493667092,-2.011418288438326,-0.1657160695014931,-0.11863279243374159,14.0823345,-3.0475273,0.7851773,-0.15194577,5.646286,-5.975698,1.5534801,-0.3943549,-0.08983427,-0.24672654,-0.8806471,-6.8721156,7.929465,0.39470923,-1.2853509,-1.2367849,-0.2219487,0
1.300000000000001,10.994993493667092,-2.011418288438326,-0.1657160695014931,-0.11863279243374159,14.0823345,-3.0475273,0.7851773,-0.15194577,5.577759,-5.8962054,1.5574114,-0.3973299,-0.09197896,-0.23863055,-0.8813192,-6.83335,7.968783,0.39168805,-1.3985529,-1.0697408,-0.21687897,0
1.310000000000001,10.994993493667092,-2.011418288438326,-0.1657160695014931,-0.11863279243374159,14.0823345,-3.0475273,0.7851773,-0.15194577,5.5096188,-5.816329,1.5613166,-0.40011612,-0.093238294,-0.23035978,-0.8821266,-6.7947807,8.006341,0.38945463,-1.494106,-0.92874986,-0.21205801,0
1.320000000000001,10.700958624253555,-2.373776314377781,0.6144391501668311,0.20658292942823142,13.504742,-2.8308432,1.0821884,0.0043595806,5.441862,-5.736085,1.5652033,-0.40274155,-0.09374782,-0.22194041,-0.8830359,-6.756599,8.042187,0.38802907,-1.5747617,-0.8097485,-0.2074736,0
1.330000000000001,10.700958624253555,-2.373776314377781,0.6144391501668311,0.20658292942823142,13.504742,-2.8308432,1.0821884,0.0043595806,5.3744793,-5.6554956,1.5690669,-0.40513802,-0.09329666,-0.21338828,-0.88409483,-6.719991,8.075451,0.38481888,-1.6993296,-0.5876528,-0.18715572,0
1.340000000000001,10.700958624253555,-2.373776314377781,0.6144391501668311,0.20658292942823142,13.504742,-2.8308432,1.0821884,0.0043595806,5.3074594,-5.574581,1.5729026,-0.40724888,-0.091723755,-0.20471664,-0.8853392,-6.684168,8.107173,0.38243324,-1.8044813,-0.40019706,-0.16783486,0
1.350000000000001,10.700958624253555,-2.373776314377781,0.6144391501668311,0.20658292942823142,13.504742,-2.8308432,1.0821884,0.0043595806,5.2407928,-5.493357,1.5767184,-0.40910888,-0.089201935,-0.19594158,-0.8867238,-6.6493573,8.13743,0.38089114,-1.8932424,-0.2419781,-0.14946206,0
1.360000000000001,10.708811020933949,-2.5702078966917377,1.1566455348079032,0.5255710829509733,12.187773,-2.8733447,1.3944073,0.31661218,5.1744685,-5.4118376,1.5805231,-0.41074553,-0.0858772,-0.18707627,-0.8882088,-6.615753,8.166289,0.38020042,-1.9681671,-0.10843533,-0.13199082,0
1.370000000000001,10.708811020933949,-2.5702078966917377,1.1566455348079032,0.5255710829509733,12.187773,-2.8733447,1.3944073,0.31661218,5.108474,-5.3300357,1.5843256,-0.41211247,-0.081655025,-0.17814748,-0.8898081,-6.583507,8.193832,0.3804321,-2.0620396,0.08881818,-0.099724084,0
1.380000000000001,10.708811020933949,-2.5702078966917377,1.1566455348079032,0.5255710829509733,12.187773,-2.8733447,1.3944073,0.31661218,5.0427938,-5.247965,1.5881345,-0.41316882,-0.07646694,-0.16917649,-0.8915284,-6.5528493,8.2201185,0.3815121,-2.141282,0.25530764,-0.06904066,0
1.390000000000001,10.708811020933949,-2.5702078966917377,1.1566455348079032,0.5255710829509733,12.187773,-2.8733447,1.3944073,0.31661218,4.9774113,-5.165637,1.5919585,-0.41394183,-0.070461996,-0.16016579,-0.8933272,-6.523974,8.245223,0.38342905,-2.2081738,0.3958317,-0.039862894,0
1.400000000000001,11.126042814567407,-2.604487206069495,1.5783106987334545,0.7981185745683065,11.604357,-2.5338407,1.5988778,0.3846246,4.912308,-5.0830636,1.5958058,-0.41445374,-0.06376625,-0.15111761,-0.89516747,-6.4970474,8.26921,0.38616052,-2.264639,0.5144407,-0.012116878,1
1.410000000000001,11.126042814567407,-2.604487206069495,1.5783106987334545,0.7981185745683065,11.604357,-2.5338407,1.5988778,0.3846246,4.847474,-5.000246,1.5997268,-0.41471106,-0.056331273,-0.14212152,-0.8970186,-6.470141,8.294052,0.39817148,-2.3066282,0.6835293,0.007351343,1
1.420000000000001,11.126042814567407,-2.604487206069495,1.5783106987334545,0.7981185745683065,11.604357,-2.5338407,1.5988778,0.3846246,4.7828965,-4.917186,1.6037719,-0.4147234,-0.048123933,-0.1332488,-0.8988508,-6.445676,8.317836,0.41098255,-2.3420725,0.826249,0.025864251,1
1.430000000000001,11.126042814567407,-2.604487206069495,1.5783106987334545,0.7981185745683065,11.604357,-2.5338407,1.5988778,0.3846246,4.718551,-4.8338923,1.607949,-0.4145109,-0.039263576,-0.124476925,-0.9006353,-6.4238067,8.340649,0.4245371,-2.3719912,0.94671226,0.04346873,1
1.440000000000001,11.126042814567407,-2.604487206069495,1.5783106987334545,0.7981185745683065,10.966848,-2.0150578,1.6899433,0.43984354,4.654411,-4.7503753,1.6122651,-0.4140898,-0.029851463,-0.115787126,-0.90234756,-6.404667,8.362564,0.4387707,-2.397246,1.0483903,0.06020934,1
1.450000000000001,11.126042814567407,-2.604487206069495,1.5783106987334545,0.7981185745683065,10.966848,-2.0150578,1.6899433,0.43984354,4.590443,-4.6666493,1.6166956,-0.4134582,-0.020027447,-0.10736645,-0.9039485,-6.389259,8.382486,0.44740522,-2.3376615,1.148414,0.07883811,1
1.460000000000001,11.126042814567407,-2.604487206069495,1.5783106987334545,0.7981185745683065,10.966848,-2.0150578,1.6899433,0.43984354,4.526616,-4.5827274,1.6212149,-0.4126192,-0.009907241,-0.09936367,-0.9054133,-6.3765793,8.401711,0.4565252,-2.2873704,1.2328414,0.09655275,1
1.470000000000001,11.126042814567407,-2.604487206069495,1.5783106987334545,0.7981185745683065,10.966848,-2.0150578,1.6899433,0.43984354,4.462902,-4.498616,1.6258274,-0.4115912,0.00046219537,-0.09171291,-0.9067417,-6.3666573,8.420335,0.4660416,-2.2449224,1.3041042,0.11339815,1
1.480000000000001,11.62175868231189,-2.5242265218298794,1.7020144240411872,0.996219467237213,10.532637,-0.63812447,0.7661614,0.15567136,4.3992734,-4.414322,1.6305368,-0.4103891,0.011040855,-0.08435865,-0.9079327,-6.359515,8.438428,0.47586814,-2.2090938,1.3642552,0.12941691,0
1.490000000000001,11.62175868231189,-2.5242265218298794,1.7020144240411872,0.996219467237213,10.532637,-0.63812447,0.7661614,0.15567136,4.3357043,-4.329844,1.6353779,-0.40895864,0.021876797,-0.077071846,-0.9090288,-6.3549213,8.4571,0.49238074,-2.2582824,1.4168619,0.17195117,0
1.500000000000001,11.62175868231189,-2.5242265218298794,1.7020144240411872,0.996219467237213,10.532637,-0.63812447,0.7661614,0.15567136,4.272166,-4.2451816,1.640385,-0.40724316,0.033005316,-0.069669135,-0.9100599,-6.3533707,8.475276,0.50905424,-2.2997994,1.4612662,0.21239826,0
1.5100000000000011,11.62175868231189,-2.5242265218298794,1.7020144240411872,0.996219467237213,10.532637,-0.63812447,0.7661614,0.15567136,4.208627,-4.16034,1.6455593,-0.40525168,0.044377558,-0.06216933,-0.9110082,-6.3549356,8.492945,0.5258067,-2.3348413,1.4987472,0.2508606,0
1.5200000000000011,12.64127757011072,-2.4479196618387227,1.4560121227045744,1.1377993432370577,10.404276,-0.35863975,0.3864575,0.23475438,4.1450567,-4.075324,1.6509012,-0.40299287,0.05595189,-0.054588832,-0.9118582,-6.3596745,8.51009,0.5425512,-2.3644173,1.5303855,0.28743556,0
1.5300000000000011,12.64127757011072,-2.4479196618387227,1.4560121227045744,1.1377993432370577,10.404276,-0.35863975,0.3864575,0.23475438,4.0814195,-3.9901326,1.6564604,-0.40046644,0.06758983,-0.04693131,-0.91260886,-6.368327,8.528149,0.5692638,-2.3774788,1.51872,0.32916313,0
1.5400000000000011,12.64127757011072,-2.4479196618387227,1.4560121227045744,1.1377993432370577,10.404276,-0.35863975,0.3864575,0.23475438,4.0176787,-3.9047637,1.6622857,-0.3976721,0.07917967,-0.03920175,-0.9132634,-6.380483,8.545577,0.59577394,-2.388501,1.5088766,0.36884314,0
1.5500000000000012,12.64127757011072,-2.4479196618387227,1.4560121227045744,1.1377993432370577,10.404276,-0.35863975,0.3864575,0.23475438,3.953798,-3.8192236,1.6683748,-0.3946181,0.090724654,-0.03141524,-0.913815,-6.396132,8.56233,0.6219867,-2.397802,1.5005711,0.40657607,0
1.5600000000000012,13.028830131533004,-2.1239407787442532,0.902816302132293,1.1299760897640019,9.936161,0.09388349,0.8597315,0.4685552,3.8897436,-3.7335198,1.674724,-0.39131275,0.102227315,-0.02358482,-0.9142576,-6.415261,8.578363,0.64780676,-2.405651,1.4935639,0.4424574,0
1.5700000000000012,13.028830131533004,-2.1239407787442532,0.902816302132293,1.1299760897640019,9.936161,0.09388349,0.8597315,0.4685552,3.8254774,-3.647657,1.681348,-0.3877843,0.113436766,-0.015753996,-0.91460735,-6.4385314,8.594102,0.67692614,-2.3617232,1.4013977,0.47619414,0
1.5800000000000012,13.028830131533004,-2.1239407787442532,0.902816302132293,1.1299760897640019,9.936161,0.09388349,0.8597315,0.4685552,3.7609613,-3.5616407,1.6882606,-0.38405964,0.12415548,-0.007959104,-0.9148877,-6.4652433,8.608989,0.7054708,-2.3246446,1.3236071,0.5082754,0
1.5900000000000012,13.028830131533004,-2.1239407787442532,0.902816302132293,1.1299760897640019,9.936161,0.09388349,0.8597315,0.4685552,3.6961613,-3.4754803,1.6954554,-0.3801447,0.13445704,-0.0002007098,-0.9151014,-6.4952693,8.622957,0.7333765,-2.2933483,1.2579498,0.5387824,0
1.6000000000000012,13.139588793614832,-1.6462361636489284,0.2558689078792983,1.0216537799534258,9.228281,-0.07605293,0.42047447,0.48142505,3.6310449,-3.3891847,1.7029258,-0.3760452,0.14440349,0.007520846,-0.9152488,-6.528494,8.635949,0.7605819,-2.2669327,1.2025334,0.5677924,0
1.6100000000000012,13.139588793614832,-1.6462361636489284,0.2558689078792983,1.0216537799534258,9.228281,-0.07605293,0.42047447,0.48142505,3.565579,-3.302764,1.7106698,-0.37180567,0.15373872,0.01512928,-0.9153663,-6.565108,8.648011,0.7880923,-2.1700964,1.0549058,0.5900636,0
1.6200000000000012,13.139588793614832,-1.6462361636489284,0.2558689078792983,1.0216537799534258,9.228281,-0.07605293,0.42047447,0.48142505,3.4997325,-3.2162282,1.718685,-0.36746743,0.16226462,0.022563552,-0.91549337,-6.6046185,8.65897,0.814824,-2.0883656,0.9302988,0.6112418,0
1.6300000000000012,13.139588793614832,-1.6462361636489284,0.2558689078792983,1.0216537799534258,9.228281,-0.07605293,0.42047447,0.48142505,3.4334776,-3.1295888,1.7269636,-0.3630312,0.17010717,0.029844454,-0.91563123,-6.6468105,8.668768,0.8407725,-2.0193846,0.8251228,0.63138086,0
1.6400000000000012,13.139588793614832,-1.6462361636489284,0.2558689078792983,1.0216537799534258,8.809185,0.09704945,-0.32399613,0.47272626,3.366788,-3.0428574,1.7354978,-0.35849774,0.17737252,0.03698999,-0.91577804,-6.6914988,8.677355,0.8659345,-1.9611653,0.7363474,0.65053165,0
1.6500000000000012,13.139588793614832,-1.6462361636489284,0.2558689078792983,1.0216537799534258,8.809185,0.09704945,-0.32399613,0.47272626,3.2996395,-2.956046,1.7442796,-0.35386798,0.18414994,0.04401573,-0.9159303,-6.738523,8.684688,0.890306,-1.9120283,0.66141504,0.6687427,0
1.6600000000000013,13.139588793614832,-1.6462361636489284,0.2558689078792983,1.0216537799534258,8.809185,0.09704945,-0.32399613,0.47272626,3.2320096,-2.8691678,1.7533011,-0.34914312,0.19051465,0.05093514,-0.9160831,-6.787745,8.690729,0.91388196,-1.8705574,0.59816724,0.6860602,0
1.6700000000000013,13.139588793614832,-1.6462361636489284,0.2558689078792983,1.0216537799534258,8.809185,0.09704945,-0.32399613,0.47272626,3.1638772,-2.7822359,1.7625544,-0.34432462,0.1965299,0.05775983,-0.9162312,-6.839044,8.695447,0.93665594,-1.8355565,0.54478186,0.7025279,0
1.6800000000000013,12.968755248058432,-1.085915678525934,-0.425627045510023,0.8439355891244029,8.985771,-0.051949166,-0.9293553,0.30097327,3.0952222,-2.6952636,1.7720314,-0.33941415,0.20224887,0.06449982,-0.91636914,-6.8923144,8.698812,0.95861983,-1.8060166,0.49972123,0.7181875,0
1.6900000000000013,12.968755248058432,-1.085915678525934,-0.425627045510023,0.8439355891244029,8.985771,-0.051949166,-0.9293553,0.30097327,3.0260282,-2.6082647,1.7817162,-0.33446202,0.20738962,0.071054816,-0.9165561,-6.9467263,8.700772,0.97822225,-1.6936511,0.3554593,0.724358,0
1.7000000000000013,12.968755248058432,-1.085915678525934,-0.425627045510023,0.8439355891244029,8.985771,-0.051949166,-0.9293553,0.30097327,2.9562821,-2.5212529,1.7915933,-0.32951283,0.21173307,0.077345654,-0.9168464,-7.0027704,8.701349,0.9970719,-1.5988188,0.23368785,0.7302257,0
1.7100000000000013,12.968755248058432,-1.085915678525934,-0.425627045510023,0.8439355891244029,8.985771,-0.051949166,-0.9293553,0.30097327,2.8859682,-2.4342425,1.8016553,-0.32456052,0.2154047,0.08340908,-0.917226,-7.0602355,8.700523,1.0152285,-1.5187835,0.13090059,0.7358055,0
1.7200000000000013,12.011838888274987,-0.5210555193207764,-1.321314303318013,0.5970267847983781,7.931803,0.17735885,-1.8545206,0.075711496,2.8150735,-2.3472474,1.8118956,-0.31959984,0.21850993,0.08927653,-0.917681,-7.1189437,8.69828,1.0327437,-1.4512366,0.04413774,0.7411115,0
1.7300000000000013,12.011838888274987,-0.5210555193207764,-1.321314303318013,0.5970267847983781,7.931803,0.17735885,-1.8545206,0.075711496,2.743608,-2.2602806,1.8222657,-0.31467175,0.22073397,0.09488802,-0.91828847,-7.1743093,8.694875,1.0411859,-1.3060734,-0.16872764,0.7340412,0
1.7400000000000013,12.011838888274987,-0.5210555193207764,-1.321314303318013,0.5970267847983781,7.931803,0.17735885,-1.8545206,0.075711496,2.6715848,-2.1733546,1.8327179,-0.30981192,0.2218328,0.10019682,-0.9191119,-7.230411,8.690118,1.0491904,-1.1835659,-0.34840924,0.72731787,0
1.7500000000000013,12.011838888274987,-0.5210555193207764,-1.321314303318013,0.5970267847983781,7.931803,0.17735885,-1.8545206,0.075711496,2.5989983,-2.086483,1.8432484,-0.3050085,0.2219826,0.10524604,-0.92011744,-7.286995,8.683987,1.0568682,-1.080178,-0.5000798,0.7209245,0
1.7600000000000013,11.138075099103265,0.015265936276254057,-1.9869352836358947,0.3250447078851626,6.8308206,-0.29789916,-2.5714326,0.45917934,2.5258443,-1.9996796,1.8538544,-0.30025116,0.22133133,0.11007241,-0.9212736,-7.3438435,8.676464,1.0643139,-0.99292547,-0.628106,0.7148448,0
1.7700000000000014,11.138075099103265,0.015265936276254057,-1.9869352836358947,0.3250447078851626,6.8308206,-0.29789916,-2.5714326,0.45917934,2.452142,-1.9129553,1.8644959,-0.2955797,0.2196899,0.11459638,-0.9226245,-7.3966165,8.66819,1.0639485,-0.83561033,-0.83993095,0.6957172,0
1.7800000000000014,11.138075099103265,0.015265936276254057,-1.9869352836358947,0.3250447078851626,6.8308206,-0.29789916,-2.5714326,0.45917934,2.3779128,-1.8263202,1.8751335,-0.29102775,0.21691445,0.11875599,-0.92420095,-7.449205,8.658615,1.0635643,-0.7028476,-1.0187371,0.6775282,0
1.7900000000000014,11.138075099103265,0.015265936276254057,-1.9869352836358947,0.3250447078851626,6.8308206,-0.29789916,-2.5714326,0.45917934,2.3031597,-1.7397873,1.8857676,-0.28657818,0.21317971,0.12260404,-0.9259563,-7.501368,8.647742,1.0632719,-0.5908046,-1.1696709,0.6602317,0
1.8000000000000014,10.590175201848979,0.40832826275654166,-2.3058873685061485,0.07029223713675109,8.219365,-0.18647338,-3.1751795,0.40759587,2.2278879,-1.6533697,1.8963995,-0.2822161,0.20863256,0.12618536,-0.92784876,-7.5529017,8.635579,1.063161,-0.49624732,-1.2970768,0.643784,0
1.8100000000000014,10.590175201848979,0.40832826275654166,-2.3058873685061485,0.07029223713675109,8.219365,-0.18647338,-3.1751795,0.40759587,2.1521168,-1.5670769,1.9070076,-0.2779743,0.20322983,0.1294342,-0.92987865,-7.601126,8.622799,1.0584748,-0.35513973,-1.4543344,0.61564255,0
1.8200000000000014,10.590175201848979,0.40832826275654166,-2.3058873685061485,0.07029223713675109,8.219365,-0.18647338,-3.1751795,0.40759587,2.0758684,-1.4809178,1.9175702,-0.27388024,0.1969429,0.13230012,-0.9320404,-7.648377,8.608832,1.0541149,-0.2360517,-1.5870818,0.588882,0
1.8300000000000014,10.590175201848979,0.40832826275654166,-2.3058873685061485,0.07029223713675109,8.219365,-0.18647338,-3.1751795,0.40759587,1.999153,-1.3949041,1.9280912,-0.26991507,0.18990515,0.1348389,-0.93429106,-7.694468,8.593712,1.0501527,-0.13554604,-1.6991384,0.56343466,0
1.8400000000000014,10.590175201848979,0.40832826275654166,-2.3058873685061485,0.07029223713675109,8.583101,-0.13521625,-3.2317698,0.31080544,1.9219834,-1.3090473,1.9385748,-0.26606253,0.182229,0.1370977,-0.93659323,-7.7392373,8.57747,1.0466403,-0.050722625,-1.7937285,0.539236,0
1.8500000000000014,10.590175201848979,0.40832826275654166,-2.3058873685061485,0.07029223713675109,8.583101,-0.13521625,-3.2317698,0.31080544,1.8443731,-1.2233584,1.9490258,-0.26230872,0.17400935,0.1391164,-0.9389147,-7.7825437,8.560139,1.0436141,0.020866072,-1.8735745,0.5162248,0
1.8600000000000014,10.590175201848979,0.40832826275654166,-2.3058873685061485,0.07029223713675109,8.583101,-0.13521625,-3.2317698,0.31080544,1.7663378,-1.1378481,1.9594488,-0.25864178,0.16532646,0.14092875,-0.9412279,-7.8242645,8.541749,1.0410964,0.08128562,-1.9409742,0.49434274,0
1.8700000000000014,10.590175201848979,0.40832826275654166,-2.3058873685061485,0.07029223713675109,8.583101,-0.13521625,-3.2317698,0.31080544,1.6878936,-1.052527,1.9698493,-0.25505164,0.15624824,0.14256325,-0.94350946,-7.864293,8.522329,1.0390974,0.13227905,-1.9978677,0.47353446,0
1.8800000000000014,10.282548236604773,0.6206041691406592,-2.260704832661726,-0.14677208172808992,8.521545,0.07577882,-2.9376159,0.45411283,1.609058,-0.9674049,1.9802326,-0.2515297,0.14683229,0.14404403,-0.94573975,-7.902535,8.501909,1.0376173,0.17531723,-2.0458922,0.45374727,0
1.8900000000000015,10.282548236604773,0.6206041691406592,-2.260704832661726,-0.14677208172808992,8.521545,0.07577882,-2.9376159,0.45411283,1.5298547,-0.88248885,1.9905894,-0.24810876,0.13711952,0.1453104,-0.9479053,-7.9378505,8.481144,1.0338268,0.24472958,-2.0793762,0.4242796,0
1.9000000000000015,10.282548236604773,0.6206041691406592,-2.260704832661726,-0.14677208172808992,8.521545,0.07577882,-2.9376159,0.45411283,1.4503076,-0.79778504,2.0009108,-0.24481721,0.12714498,0.14631554,-0.94999456,-7.9712734,8.459489,1.0305251,0.3033163,-2.107644,0.39625794,0
1.9100000000000015,10.282548236604773,0.6206041691406592,-2.260704832661726,-0.14677208172808992,8.521545,0.07577882,-2.9376159,0.45411283,1.370436,-0.71330196,2.0112016,-0.24164209,0.11694602,0.14709675,-0.951995,-8.002734,8.437001,1.0276992,0.35276634,-2.131507,0.36961132,0
1.9200000000000015,9.919505677115177,0.6087307341173869,-2.163411841272183,-0.31617664288692465,9.210936,0.13685308,-2.7919126,0.54224753,1.2902597,-0.6290477,2.0214663,-0.23857215,0.10655443,0.14768553,-0.95389605,-8.032172,8.413726,1.0253301,0.39450473,-2.1516519,0.34427226,1
1.9300000000000015,9.919505677115177,0.6087307341173869,-2.163411841272183,-0.31617664288692465,9.210936,0.13685308,-2.7919126,0.54224753,1.2098141,-0.5450175,2.0316596,-0.23546463,0.095852815,0.1483345,-0.9557012,-8.056679,8.392202,1.0133694,0.35436073,-2.2515068,0.35398698,1
1.9400000000000015,9.919505677115177,0.6087307341173869,-2.163411841272183,-0.31617664288692465,9.210936,0.13685308,-2.7919126,0.54224753,1.1291329,-0.46120608,2.041735,-0.23219468,0.08475007,0.14924389,-0.9574071,-8.079252,8.369971,1.0017563,0.32047406,-2.335789,0.36322498,1
1.9500000000000015,9.919505677115177,0.6087307341173869,-2.163411841272183,-0.31617664288692465,9.210936,0.13685308,-2.7919126,0.54224753,1.0482359,-0.3776207,2.0516956,-0.22877747,0.07330709,0.15036751,-0.9589972,-8.099822,8.346985,0.9904448,0.29186907,-2.4069266,0.37200966,1
1.9600000000000015,9.802433402557755,0.5879736470065318,-1.5680580473616812,-0.4282857092922793,8.860798,-0.13235725,-3.1281881,0.4068028,0.96714354,-0.29426908,2.0615447,-0.22522593,0.06157587,0.15166646,-0.96045727,-8.118327,8.323209,0.9793852,0.26772234,-2.4669693,0.3803633,0
1.9700000000000015,9.802433402557755,0.5879736470065318,-1.5680580473616812,-0.4282857092922793,8.860798,-0.13235725,-3.1281881,0.4068028,0.8858713,-0.21116713,2.0713122,-0.22175214,0.050013162,0.1528325,-0.9617516,-8.135779,8.297058,0.97412854,0.3175702,-2.3267803,0.34068266,0
1.9800000000000015,9.802433402557755,0.5879736470065318,-1.5680580473616812,-0.4282857092922793,8.860798,-0.13235725,-3.1281881,0.4068028,0.8044355,-0.12833056,2.081028,-0.21854322,0.038983054,0.15362307,-0.9628698,-8.151048,8.270149,0.9690404,0.3596589,-2.2084575,0.30294913,0
1.9900000000000015,9.802433402557755,0.5879736470065318,-1.5680580473616812,-0.4282857092922793,8.860798,-0.13235725,-3.1281881,0.4068028,0.7228576,-0.04576638,2.090694,-0.21557474,0.02840137,0.15409581,-0.9638333,-8.16421,8.242593,0.9640842,0.39519525,-2.1085896,0.26706725,0
2.0000000000000013,,,,,8.878359,-0.24761547,-1.8974621,-0.14290443,0.6411583,0.036519393,2.1003106,-0.21282513,0.018196862,0.15429886,-0.96465814,-8.175335,8.214481,0.9592278,0.42519924,-2.0242982,0.23294608,0
2.010000000000001,,,,,8.878359,-0.24761547,-1.8974621,-0.14290443,0.5593584,0.11852385,2.1098716,-0.21033853,0.008647297,0.15420915,-0.9653505,-8.184351,8.186346,0.9529791,0.44640565,-1.8169942,0.19681652,0
2.020000000000001,,,,,8.878359,-0.24761547,-1.8974621,-0.14290443,0.47747743,0.20024508,2.1193705,-0.20815119,-3.028079e-05,0.15381245,-0.9659265,-8.191573,8.157851,0.9467784,0.46432015,-1.64202,0.16245984,0
2.0300000000000007,,,,,8.878359,-0.24761547,-1.8974621,-0.14290443,0.39553255,0.28167996,2.1288073,-0.20623413,-0.007973406,0.15315719,-0.96640885,-8.19715,8.129095,0.9406111,0.47945273,-1.4943333,0.12978905,0
2.0400000000000005,,,,,8.878359,-0.24761547,-1.8974621,-0.14290443,0.31353962,0.36282635,2.1381829,-0.2045617,-0.015298318,0.15228371,-0.96681404,-8.201205,8.100159,0.93446714,0.49223453,-1.3696785,0.09872143,0
2.0500000000000003,,,,,7.9126234,0.1957169,-1.3302231,-0.45779264,0.23151328,0.44368276,2.1474967,-0.20311126,-0.022103177,0.15122561,-0.96715426,-8.203848,8.071111,0.9283395,0.50303024,-1.2644635,0.0691783,1
2.06,,,,,7.9126234,0.1957169,-1.3302231,-0.45779264,0.14946857,0.5242745,2.1566668,-0.20182239,-0.02868619,0.15020412,-0.9674103,-8.204923,8.0472355,0.9056697,0.455084,-1.2747284,0.043319684,1
2.07,,,,,7.9126234,0.1957169,-1.3302231,-0.45779264,0.067418486,0.6046272,2.16561,-0.20064542,-0.035287984,0.14939502,-0.96756214,-8.204928,8.023295,0.8829864,0.41461545,-1.2833906,0.018729953,1
2.0799999999999996,,,,,7.9126234,0.1957169,-1.3302231,-0.45779264,-0.014626345,0.6847401,2.1743262,-0.19957593,-0.04190728,0.14876299,-0.9676167,-8.203872,7.999261,0.8602661,0.38045874,-1.2907004,-0.00465316,1
2.0899999999999994,,,,,8.091039,0.024502136,-1.4975809,-0.0950573,-0.09665531,0.7646121,2.182815,-0.19860929,-0.048542816,0.14827818,-0.96757984,-8.2017565,7.9751115,0.83748674,0.35162953,-1.2968689,-0.026888836,1
2.099999999999999,,,,,8.091039,0.024502136,-1.4975809,-0.0950573,-0.17865752,0.8442392,2.1910844,-0.19769092,-0.055237904,0.14799716,-0.96745193,-8.198518,7.9502783,0.81632304,0.3006108,-1.3281697,-0.030233886,1
2.109999999999999,,,,,8.091039,0.024502136,-1.4975809,-0.0950573,-0.26062194,0.923617,2.1991413,-0.19677076,-0.062025733,0.14796387,-0.96723324,-8.194198,7.9252706,0.7950497,0.25754848,-1.354589,-0.03341479,1
2.1199999999999988,,,,,8.091039,0.024502136,-1.4975809,-0.0950573,-0.34253776,1.0027437,2.206985,-0.19585052,-0.06889147,0.14813809,-0.96692866,-8.188793,7.900053,0.77363914,0.22120193,-1.3768883,-0.036439598,1
2.1299999999999986,,,,,8.162527,-0.22237687,-1.0559063,-0.029246561,-0.42439407,1.0816171,2.2146137,-0.19493133,-0.07582247,0.14848582,-0.9665423,-8.182301,7.8745975,0.7520652,0.1905236,-1.3957098,-0.039315987,1
2.1399999999999983,,,,,8.162527,-0.22237687,-1.0559063,-0.029246561,-0.5061797,1.1602336,2.222029,-0.1940401,-0.08261676,0.14904024,-0.96607935,-8.174656,7.848652,0.7309781,0.12613381,-1.3427159,-0.038821883,1
2.149999999999998,,,,,8.162527,-0.22237687,-1.0559063,-0.029246561,-0.5878836,1.2385893,2.2292325,-0.19319844,-0.089113966,0.14982688,-0.96554875,-8.165964,7.8224163,0.7096814,0.07178539,-1.2979866,-0.038352013,1
2.159999999999998,,,,,8.162527,-0.22237687,-1.0559063,-0.029246561,-0.6694955,1.316681,2.2362218,-0.19239946,-0.0953601,0.15080902,-0.96495855,-8.156279,7.795869,0.68815815,0.025912324,-1.260233,-0.037905198,1
2.1699999999999977,,,,,6.8403864,0.5312442,-0.7555111,-0.30793613,-0.7510059,1.3945056,2.2429948,-0.19163696,-0.10139393,0.15195556,-0.96431506,-8.145644,7.76899,0.6663931,-0.012807201,-1.2283676,-0.037480317,1
2.1799999999999975,,,,,6.8403864,0.5312442,-0.7555111,-0.30793613,-0.8324145,1.4720817,2.2494874,-0.19092597,-0.10719525,0.15292299,-0.9636755,-8.13597,7.7461834,0.6320528,0.0720292,-1.1546284,-0.05075166,1
2.1899999999999973,,,,,6.8403864,0.5312442,-0.7555111,-0.30793613,-0.91372275,1.5494286,2.2556353,-0.19028103,-0.11275051,0.15343751,-0.96308714,-8.125559,7.7231464,0.5975133,0.14363664,-1.0923896,-0.063371785,1
2.199999999999997,,,,,6.8403864,0.5312442,-0.7555111,-0.30793613,-0.9949233,1.626544,2.261437,-0.18969639,-0.11809874,0.1535687,-0.96254045,-8.114432,7.69994,0.5627907,0.20407782,-1.0398576,-0.07537262,1
2.209999999999997,,,,,4.3013086,-0.16627254,-0.4533984,-0.2838739,-1.0760092,1.7034268,2.2668905,-0.18916702,-0.12327278,0.1533752,-0.96202666,-8.102606,7.6766167,0.52789825,0.25509402,-0.9955183,-0.08678458,1
2.2199999999999966,,,,,4.3013086,-0.16627254,-0.4533984,-0.2838739,-1.1569963,1.7801195,2.2718773,-0.1887392,-0.12813081,0.15315251,-0.9615113,-8.094744,7.6618996,0.46944317,0.18938114,-0.9109725,-0.096455805,1
