time-since-start [s],throttle_mpc,roll_mpc,pitch_mpc,yaw_mpc,throttle_nw,roll_nw,pitch_nw,yaw_nw,position_x [m],position_y [m],position_z [m],rotation_w [quaternion],rotation_x [quaternion],rotation_y [quaternion],rotation_z [quaternion],velocity_x [m/s],velocity_y [m/s],velocity_z [m/s],omega_x [rad/s],omega_y [rad/s],omega_z [rad/s],network_used
0.0,10.210127548603383,5.999999777224428,-5.999999945598473,-4.725384591410076,7.5884223,0.46962366,-4.305773,-0.030606084,18.548475,-10.101478,1.8503116,-0.05892211,0.4714066,-0.26648182,-0.8386247,-11.501443,-2.293413,-0.9661508,0.90999645,0.28477803,0.7463818,0
0.01,10.210127548603383,5.999999777224428,-5.999999945598473,-4.725384591410076,19.872786,1.2014878,-5.948168,-0.54756737,18.432724,-10.123923,1.8405598,-0.05789038,0.4712724,-0.27170056,-0.83709604,-11.648134,-2.1957362,-0.98469377,0.81479067,0.19358316,0.5628657,0
0.02,10.210127548603383,5.999999777224428,-5.999999945598473,-4.725384591410076,19.872786,1.2014878,-5.948168,-0.54756737,18.315527,-10.145397,1.8306079,-0.0575245,0.47104487,-0.27609575,-0.83581024,-11.790908,-2.099183,-1.0061196,0.7356717,0.115373924,0.38396057,0
0.03,10.210127548603383,5.999999777224428,-5.999999945598473,-4.725384591410076,19.872786,1.2014878,-5.948168,-0.54756737,18.196915,-10.165907,1.8204309,-0.057849452,0.47073847,-0.27977577,-0.83473605,-11.930998,-2.0030665,-1.0295426,0.68711215,0.031148903,0.21099117,0
0.04,10.210127548603383,5.999999777224428,-5.999999945598473,-4.725384591410076,19.289003,3.3219981,-6.20175,-1.2738358,18.076916,-10.185458,1.8100117,-0.058934983,0.47029442,-0.28289434,-0.8338589,-12.068811,-1.9071754,-1.0545435,0.67181516,-0.06563491,0.044212215,0
0.05,10.210127548603383,5.999999777224428,-5.999999945598473,-4.725384591410076,19.289003,3.3219981,-6.20175,-1.2738358,17.95555,-10.204051,1.7993352,-0.060846794,0.46964902,-0.28559178,-0.8331656,-12.204213,-1.8115852,-1.0809871,0.68540287,-0.17384261,-0.116752855,0
0.060000000000000005,10.210127548603383,5.999999777224428,-5.999999945598473,-4.725384591410076,19.289003,3.3219981,-6.20175,-1.2738358,17.83284,-10.22169,1.7883877,-0.063640855,0.4687426,-0.2879894,-0.8326418,-12.337052,-1.7163175,-1.1087422,0.7240404,-0.2923719,-0.2722494,0
0.07,10.210127548603383,5.999999777224428,-5.999999945598473,-4.725384591410076,19.289003,3.3219981,-6.20175,-1.2738358,17.708817,-10.238379,1.7771564,-0.06736434,0.46751925,-0.2901914,-0.83227205,-12.467162,-1.6213517,-1.1376809,0.7843627,-0.4201634,-0.4225945,0
0.08,12.586982461792262,5.999999910978794,-5.999999987246722,-4.9743008320627675,17.891743,6.161434,-6.444266,-4.9002004,17.583506,-10.254118,1.7656302,-0.072056524,0.46592608,-0.29228696,-0.8320391,-12.594367,-1.5266347,-1.1676791,0.86341614,-0.55620664,-0.5680793,0
0.09,12.586982461792262,5.999999910978794,-5.999999987246722,-4.9743008320627675,17.891743,6.161434,-6.444266,-4.9002004,17.456861,-10.268853,1.7538409,-0.07783628,0.46385682,-0.29439002,-0.8319332,-12.733781,-1.4204243,-1.19033,0.9880316,-0.72901464,-0.7238146,0
0.09999999999999999,12.586982461792262,5.999999910978794,-5.999999987246722,-4.9743008320627675,17.891743,6.161434,-6.444266,-4.9002004,17.328842,-10.282527,1.7418203,-0.0848141,0.46120644,-0.29660106,-0.83193934,-12.869406,-1.3142996,-1.2139118,1.1262133,-0.9079388,-0.8748609,0
0.10999999999999999,12.586982461792262,5.999999910978794,-5.999999987246722,-4.9743008320627675,17.891743,6.161434,-6.444266,-4.9002004,17.199488,-10.295139,1.7295599,-0.09300635,0.45792687,-0.29896992,-0.83202755,-13.000973,-1.2080967,-1.2382702,1.2759268,-1.0921075,-1.0214554,0
0.11999999999999998,12.586982461792262,5.999999910978794,-5.999999987246722,-4.9743008320627675,17.891743,6.161434,-6.444266,-4.9002004,17.068836,-10.306688,1.7170527,-0.10242341,0.45397115,-0.30153587,-0.8321634,-13.128208,-1.1016574,-1.2632552,1.4353813,-1.2807112,-1.1638173,0
0.12999999999999998,16.557776609781552,5.999999985723392,-6.0,-4.801369989450845,18.74276,4.0028152,-6.698871,-2.575128,16.936937,-10.317171,1.7042931,-0.113069944,0.4492929,-0.3043283,-0.8323074,-13.250833,-0.9948349,-1.288722,1.6030002,-1.4729997,-1.3021492,0
0.13999999999999999,16.557776609781552,5.999999985723392,-6.0,-4.801369989450845,18.74276,4.0028152,-6.698871,-2.575128,16.803745,-10.3265,1.6913333,-0.12520145,0.443531,-0.30760065,-0.8324583,-13.386777,-0.87084293,-1.3033148,1.9086508,-1.7997909,-1.4398875,0
0.15,16.557776609781552,5.999999985723392,-6.0,-4.801369989450845,18.74276,4.0028152,-6.698871,-2.575128,16.669226,-10.334586,1.6782255,-0.1390413,0.4363451,-0.31156224,-0.8325861,-13.516156,-0.74627733,-1.3182693,2.209792,-2.1188684,-1.5747294,0
0.16,20.36671145579785,6.0,-6.0,-4.296211749732279,21.220345,3.8031178,-7.215337,-1.8618658,16.533447,-10.341422,1.6649674,-0.15453815,0.42771688,-0.31616476,-0.8325961,-13.6384325,-0.6208628,-1.3333287,2.5062606,-2.4305634,-1.7067394,0
0.17,20.36671145579785,6.0,-6.0,-4.296211749732279,21.220345,3.8031178,-7.215337,-1.8618658,16.396418,-10.346928,1.6516067,-0.17194116,0.4171759,-0.32165727,-0.8324286,-13.765992,-0.48009512,-1.3388474,2.9711351,-2.9087484,-1.8266804,0
0.18000000000000002,20.36671145579785,6.0,-6.0,-4.296211749732279,21.220345,3.8031178,-7.215337,-1.8618658,16.258162,-10.351022,1.6381911,-0.19145101,0.40427685,-0.32822558,-0.8319706,-13.883716,-0.3383537,-1.3441988,3.4159687,-3.364905,-1.9454303,0
0.19000000000000003,20.36671145579785,6.0,-6.0,-4.296211749732279,21.220345,3.8031178,-7.215337,-1.8618658,16.118776,-10.353686,1.6247276,-0.21290253,0.38907066,-0.33569545,-0.83102673,-13.991917,-0.19386464,-1.3480254,3.8181438,-3.7766416,-2.0607839,0
0.20000000000000004,20.999999949960092,6.0,-6.0,-3.8493415074518307,22.892485,6.0681076,-7.1719003,-3.1032858,15.978354,-10.354883,1.6112407,-0.23600061,0.37176564,-0.343804,-0.8293932,-14.090831,-0.044778716,-1.3488662,4.1576433,-4.124125,-2.170477,0
0.21000000000000005,20.999999949960092,6.0,-6.0,-3.8493415074518307,22.892485,6.0681076,-7.1719003,-3.1032858,15.836981,-10.354543,1.5977767,-0.26039645,0.35257086,-0.35231808,-0.8268976,-14.182025,0.11348395,-1.3434093,4.4443073,-4.41731,-2.2528594,0
0.22000000000000006,20.999999949960092,6.0,-6.0,-3.8493415074518307,22.892485,6.0681076,-7.1719003,-3.1032858,15.694754,-10.3526,1.584384,-0.28577575,0.3316701,-0.36104032,-0.82339376,-14.261311,0.27585894,-1.3345792,4.6863165,-4.664724,-2.3311992,0
0.23000000000000007,20.999999949960092,6.0,-6.0,-3.8493415074518307,22.892485,6.0681076,-7.1719003,-3.1032858,15.551798,-10.349015,1.5710967,-0.31189853,0.30924624,-0.36978465,-0.8187464,-14.327693,0.4417158,-1.3223649,4.8906326,-4.873507,-2.4056947,0
0.24000000000000007,20.999999949960092,6.0,-6.0,-3.8493415074518307,22.693472,5.883652,-6.983313,-1.8318547,15.408247,-10.343758,1.5579481,-0.33854777,0.28546554,-0.3783935,-0.8128428,-14.380305,0.6102496,-1.3068372,5.063129,-5.0496864,-2.476535,0
0.25000000000000006,20.999999949960092,6.0,-6.0,-3.8493415074518307,22.693472,5.883652,-6.983313,-1.8318547,15.264242,-10.336805,1.544971,-0.36552632,0.26048082,-0.3867336,-0.80559146,-14.418418,0.78050715,-1.2881393,5.208766,-5.198351,-2.543899,0
0.26000000000000006,20.999999949960092,6.0,-6.0,-3.8493415074518307,22.693472,5.883652,-6.983313,-1.8318547,15.119931,-10.328146,1.5321957,-0.39265466,0.23443373,-0.39469263,-0.79691976,-14.441443,0.95141274,-1.2664807,5.331729,-5.3237934,-2.6079574,0
0.2700000000000001,20.999999949960092,6.0,-6.0,-3.8493415074518307,22.693472,5.883652,-6.983313,-1.8318547,14.975467,-10.317779,1.5196506,-0.41976842,0.20745638,-0.40217623,-0.7867724,-14.448941,1.1217928,-1.2421286,5.4355507,-5.42964,-2.6688724,0
0.2800000000000001,21.0,5.999999901550835,-5.999999973624798,-3.4440654939171003,21.69514,4.599029,-6.5502796,-0.47089672,14.831007,-10.305716,1.5073613,-0.44671687,0.17967273,-0.4091053,-0.7751095,-14.44063,1.2903998,-1.2154006,5.523213,-5.5189476,-2.7267985,0
0.2900000000000001,21.0,5.999999901550835,-5.999999973624798,-3.4440654939171003,21.69514,4.599029,-6.5502796,-0.47089672,14.686709,-10.291982,1.4953496,-0.4733227,0.15117908,-0.41542274,-0.7619283,-14.416383,1.4559344,-1.1866574,5.597306,-5.594227,-2.7619948,0
0.3000000000000001,21.0,5.999999901550835,-5.999999973624798,-3.4440654939171003,21.69514,4.599029,-6.5502796,-0.47089672,14.542734,-10.276613,1.4836338,-0.49942365,0.12206659,-0.42108107,-0.7472395,-14.376231,1.6170683,-1.1562972,5.6598687,-5.657743,-2.7954643,0
0.3100000000000001,21.0,5.999999901550835,-5.999999973624798,-3.4440654939171003,21.69514,4.599029,-6.5502796,-0.47089672,14.39924,-10.259661,1.4722278,-0.5249078,0.09244193,-0.42603275,-0.73104215,-14.320366,1.7724652,-1.1247492,5.712696,-5.711333,-2.8272913,0
0.3200000000000001,21.0,3.9221175339216128,-5.999999556802211,-0.7169313283590789,20.7923,4.2488937,-6.0784907,-0.12396573,14.25638,-10.241188,1.4611412,-0.54967207,0.062406726,-0.43023878,-0.7133449,-14.249128,1.9207996,-1.0924675,5.757304,-5.756546,-2.8575563,0
0.3300000000000001,21.0,3.9221175339216128,-5.999999556802211,-0.7169313283590789,20.7923,4.2488937,-6.0784907,-0.12396573,14.114307,-10.221274,1.4503794,-0.5733487,0.03237816,-0.43310758,-0.6947238,-14.1630745,2.0607758,-1.0598816,5.4714355,-5.793605,-2.7525153,0
0.34000000000000014,21.0,3.9221175339216128,-5.999999556802211,-0.7169313283590789,20.7923,4.2488937,-6.0784907,-0.12396573,13.9731655,-10.2000065,1.439944,-0.59568053,0.0027040085,-0.43421122,-0.67573553,-14.0632515,2.19118,-1.0271823,5.2301426,-5.825018,-2.6526287,0
0.35000000000000014,21.0,3.9221175339216128,-5.999999556802211,-0.7169313283590789,20.7923,4.2488937,-6.0784907,-0.12396573,13.833085,-10.177487,1.4298357,-0.6167243,-0.026624087,-0.4337377,-0.65636444,-13.950859,2.3109467,-0.99450415,5.0264726,-5.8516426,-2.5576434,0
0.36000000000000015,21.0,1.6619630354915185,-4.545526946980974,2.3817719689081343,21.143023,3.3834517,-5.076725,0.26846302,13.694186,-10.153827,1.4200532,-0.63652295,-0.05561279,-0.4318446,-0.6365976,-13.827091,2.4191518,-0.96201706,4.8545566,-5.874206,-2.4673193,0
0.37000000000000016,21.0,1.6619630354915185,-4.545526946980974,2.3817719689081343,21.143023,3.3834517,-5.076725,0.26846302,13.556644,-10.129096,1.4106605,-0.6546272,-0.08346627,-0.42871082,-0.61701226,-13.680112,2.524494,-0.9171688,4.4340596,-5.589557,-2.2485,0
0.38000000000000017,21.0,1.6619630354915185,-4.545526946980974,2.3817719689081343,21.143023,3.3834517,-5.076725,0.26846302,13.420603,-10.103392,1.4016956,-0.6707463,-0.10959329,-0.42454594,-0.5982057,-13.527578,2.6139297,-0.8764448,4.0786653,-5.349834,-2.0351002,0
0.3900000000000002,21.0,1.6619630354915185,-4.545526946980974,2.3817719689081343,21.143023,3.3834517,-5.076725,0.26846302,13.286105,-10.076869,1.3931174,-0.6851154,-0.1342769,-0.41949907,-0.58017904,-13.371387,2.688302,-0.8398557,3.7782927,-5.147945,-1.8269888,0
0.4000000000000002,21.0,0.7147678246577186,-2.1791053835309566,2.8565299975291434,21.062855,2.89617,-5.293044,1.0638615,13.153187,-10.049672,1.3848883,-0.6979478,-0.1577531,-0.4136397,-0.5629259,-13.211872,2.748924,-0.8063775,3.5061803,-4.9961195,-1.6255909,0
0.4100000000000002,21.0,0.7147678246577186,-2.1791053835309566,2.8565299975291434,21.062855,2.89617,-5.293044,1.0638615,13.02191,-10.021924,1.3770075,-0.70924526,-0.179403,-0.40712717,-0.54683965,-13.043386,2.7985892,-0.7704418,3.0348818,-4.5929275,-1.4158604,0
0.4200000000000002,21.0,0.7147678246577186,-2.1791053835309566,2.8565299975291434,21.062855,2.89617,-5.293044,1.0638615,12.892317,-9.993744,1.3694652,-0.7190295,-0.19877888,-0.40023395,-0.53225636,-12.875485,2.8355722,-0.7386379,2.63936,-4.25036,-1.2113242,0
0.4300000000000002,21.0,0.7147678246577186,-2.1791053835309566,2.8565299975291434,21.062855,2.89617,-5.293044,1.0638615,12.7644,-9.96525,1.3622243,-0.72750765,-0.21628612,-0.39308083,-0.5190768,-12.708112,2.8614757,-0.70989645,2.3235111,-3.9432619,-1.0132093,0
0.4400000000000002,21.0,0.7147678246577186,-2.1791053835309566,2.8565299975291434,20.54891,2.3046532,-4.295002,1.2102134,12.638156,-9.936547,1.3552614,-0.7348053,-0.23227738,-0.3858412,-0.5071838,-12.54032,2.8776176,-0.68278176,2.073266,-3.667719,-0.82332015,0
0.45000000000000023,21.0,0.7147678246577186,-2.1791053835309566,2.8565299975291434,20.54891,2.3046532,-4.295002,1.2102134,12.5135975,-9.907728,1.3485664,-0.741071,-0.24702987,-0.37855455,-0.4964744,-12.371436,2.8849046,-0.6563063,1.8619397,-3.435237,-0.64274883,0
0.46000000000000024,21.0,0.7147678246577186,-2.1791053835309566,2.8565299975291434,20.54891,2.3046532,-4.295002,1.2102134,12.390732,-9.878879,1.342133,-0.74644274,-0.26076725,-0.37121063,-0.4868538,-12.201936,2.8839507,-0.63045615,1.6834848,-3.2390795,-0.47103822,0
0.47000000000000025,21.0,0.7147678246577186,-2.1791053835309566,2.8565299975291434,20.54891,2.3046532,-4.295002,1.2102134,12.269561,-9.850077,1.3359551,-0.7510319,-0.27367482,-0.36379564,-0.47823244,-12.032204,2.8752902,-0.6052195,1.5327928,-3.0735672,-0.3077535,0
0.48000000000000026,20.99999999032907,-0.15545275926874305,-0.09943549245618376,2.916645543799569,22.388386,1.3797748,-2.8330154,2.837447,12.150086,-9.821398,1.3300266,-0.75492865,-0.2859058,-0.35629413,-0.47052675,-11.8625555,2.8593848,-0.58058953,1.4055482,-2.9339077,-0.1524812,0
0.49000000000000027,20.99999999032907,-0.15545275926874305,-0.09943549245618376,2.916645543799569,22.388386,1.3797748,-2.8330154,2.837447,12.032309,-9.792913,1.3243413,-0.75801635,-0.29693878,-0.34915805,-0.46403387,-11.69324,2.8367183,-0.5565618,1.162402,-2.4917336,-0.0018782541,0
0.5000000000000002,20.99999999032907,-0.15545275926874305,-0.09943549245618376,2.916645543799569,22.388386,1.3797748,-2.8330154,2.837447,11.916221,-9.764685,1.3188934,-0.76023954,-0.30637962,-0.34275925,-0.45900282,-11.5244,2.8081877,-0.5331016,0.95708346,-2.1185653,0.14133458,0
0.5100000000000002,20.99999999032907,-0.15545275926874305,-0.09943549245618376,2.916645543799569,22.388386,1.3797748,-2.8330154,2.837447,11.801819,-9.736767,1.3136777,-0.76173836,-0.31451172,-0.33697048,-0.45528898,-11.356101,2.7747154,-0.51015043,0.7837167,-1.8036284,0.27751988,0
0.5200000000000002,20.9999998279338,-0.9810757324712829,1.8566101758889326,3.1478725981373836,22.135292,0.5742008,-1.046674,3.1162663,11.689097,-9.709205,1.308689,-0.76262105,-0.32156911,-0.33167937,-0.45275962,-11.188363,2.737077,-0.48764172,0.637337,-1.5378325,0.4070225,0
0.5300000000000002,20.9999998279338,-0.9810757324712829,1.8566101758889326,3.1478725981373836,22.135292,0.5742008,-1.046674,3.1162663,11.57805,-9.682036,1.3039235,-0.7628106,-0.32714957,-0.32722756,-0.45168054,-11.021171,2.6960018,-0.4654975,0.38489735,-1.008503,0.5415168,0
0.5400000000000003,20.9999998279338,-0.9810757324712829,1.8566101758889326,3.1478725981373836,22.135292,0.5742008,-1.046674,3.1162663,11.468672,-9.6552925,1.2993782,-0.7622571,-0.3309464,-0.3238812,-0.45226058,-10.854411,2.6525514,-0.44358382,0.1717662,-0.56175005,0.66941136,0
0.5500000000000003,20.9999998279338,-0.9810757324712829,1.8566101758889326,3.1478725981373836,22.135292,0.5742008,-1.046674,3.1162663,11.360961,-9.62899,1.2950516,-0.7610639,-0.33326146,-0.32144457,-0.45430383,-10.687947,2.6077685,-0.42174798,-0.008166824,-0.18468648,0.79103017,0
0.5600000000000003,20.99999978810168,-2.607447235212019,4.284054768317978,3.273337549385955,20.132225,-1.4456588,0.23402484,2.5434248,11.254914,-9.603139,1.2909435,-0.75930613,-0.33434355,-0.31974873,-0.45763454,-10.521657,2.5625296,-0.39984462,-0.16006407,0.13356298,0.90668106,0
0.5700000000000003,20.99999978810168,-2.607447235212019,4.284054768317978,3.273337549385955,20.132225,-1.4456588,0.23402484,2.5434248,11.150529,-9.577738,1.2870554,-0.7569378,-0.33346248,-0.31908092,-0.46263957,-10.355431,2.5176768,-0.37770697,-0.54217,0.7805649,1.0228136,0
0.5800000000000003,20.99999978810168,-2.607447235212019,4.284054768317978,3.273337549385955,20.132225,-1.4456588,0.23402484,2.5434248,11.047805,-9.552777,1.2833914,-0.7539053,-0.3300381,-0.3196479,-0.46960294,-10.189172,2.474522,-0.3549973,-0.8647056,1.3266567,1.1332475,0
0.5900000000000003,20.99999978810168,-2.607447235212019,4.284054768317978,3.273337549385955,20.132225,-1.4456588,0.23402484,2.5434248,10.946744,-9.528236,1.2799587,-0.75023437,-0.32445648,-0.32120398,-0.47823054,-10.022834,2.4343808,-0.331363,-1.1369458,1.7875837,1.2382624,0
0.6000000000000003,20.99999983079919,-3.4425014941706977,5.52382649659303,3.049706827782376,18.93175,-2.3135564,2.6628394,1.680797,10.847346,-9.504077,1.2767682,-0.74593073,-0.31703734,-0.32353753,-0.4882603,-9.856445,2.3983672,-0.30651417,-1.3667235,2.1766334,1.3381242,0
0.6100000000000003,20.99999983079919,-3.4425014941706977,5.52382649659303,3.049706827782376,18.93175,-2.3135564,2.6628394,1.680797,10.749612,-9.480252,1.2738333,-0.7409427,-0.3075438,-0.32667947,-0.4997011,-9.690115,2.3674796,-0.28020522,-1.6910406,2.6982527,1.422112,0
0.6200000000000003,20.99999983079919,-3.4425014941706977,5.52382649659303,3.049706827782376,18.93175,-2.3135564,2.6628394,1.680797,10.653541,-9.456706,1.2711699,-0.73520005,-0.29578695,-0.33062905,-0.51251864,-9.524049,2.3428707,-0.25216052,-1.9647497,3.1385446,1.5019785,0
0.6300000000000003,20.99999983079919,-3.4425014941706977,5.52382649659303,3.049706827782376,18.93175,-2.3135564,2.6628394,1.680797,10.559129,-9.433371,1.2687966,-0.7286678,-0.28207806,-0.33517584,-0.5264335,-9.35856,2.3256178,-0.22215766,-2.1957402,3.5101943,1.5779259,0
0.6400000000000003,20.99999983079919,-3.4425014941706977,5.52382649659303,3.049706827782376,17.98511,-3.4486265,4.3217826,1.289979,10.466367,-9.410167,1.2667339,-0.72131073,-0.2666816,-0.34014076,-0.5411987,-9.194056,2.3166208,-0.19006123,-2.3906734,3.823907,1.6501465,0
0.6500000000000004,20.99999983079919,-3.4425014941706977,5.52382649659303,3.049706827782376,17.98511,-3.4486265,4.3217826,1.289979,10.375242,-9.387008,1.2650028,-0.7130966,-0.24982436,-0.34537205,-0.5565961,-9.031032,2.3166213,-0.15581508,-2.5551722,4.0887175,1.7188233,0
0.6600000000000004,20.99999983079919,-3.4425014941706977,5.52382649659303,3.049706827782376,17.98511,-3.4486265,4.3217826,1.289979,10.285739,-9.363801,1.263625,-0.70399845,-0.23170245,-0.35074162,-0.5724339,-8.870051,2.3262148,-0.119434215,-2.693984,4.312252,1.7841301,0
0.6700000000000004,20.99999983079919,-3.4425014941706977,5.52382649659303,3.049706827782376,17.98511,-3.4486265,4.3217826,1.289979,10.197832,-9.340449,1.2626214,-0.69399536,-0.21248668,-0.35614192,-0.5885431,-8.711741,2.3458624,-0.08099662,-2.8111157,4.500947,1.8462323,0
0.6800000000000004,20.999999792460542,-3.6730323076658897,5.546495463297151,2.575025690512959,17.74365,-4.122277,5.8373647,1.5577494,10.111493,-9.316849,1.2620118,-0.6830726,-0.19232702,-0.36148265,-0.60477483,-8.55677,2.3758993,-0.04063518,-2.9099507,4.6602345,1.905287,0
0.6900000000000004,20.999999792460542,-3.6730323076658897,5.546495463297151,2.575025690512959,17.74365,-4.122277,5.8373647,1.5577494,10.026684,-9.292895,1.2618147,-0.67127097,-0.17126626,-0.36664918,-0.62099254,-8.405846,2.4165452,0.0014753565,-3.0292265,4.7982335,1.9381512,0
0.7000000000000004,20.999999792460542,-3.6730323076658897,5.546495463297151,2.575025690512959,17.74365,-4.122277,5.8373647,1.5577494,9.943359,-9.268482,1.2620467,-0.6586286,-0.14934832,-0.37154478,-0.63707,-8.259731,2.4679215,0.045149785,-3.1298747,4.9147344,1.9694028,0
0.7100000000000004,20.999999792460542,-3.6730323076658897,5.546495463297151,2.575025690512959,17.74365,-4.122277,5.8373647,1.5577494,9.861469,-9.2435,1.2627224,-0.64513713,-0.12669985,-0.37612486,-0.65289783,-8.119211,2.5300457,0.090168655,-3.214803,5.0130863,1.9991207,0
0.7200000000000004,20.9999995948366,-3.4981438740980324,4.811704837987115,2.0341057902014774,18.483103,-4.4423556,6.349089,1.9043247,9.780954,-9.217843,1.2638538,-0.6307947,-0.10343384,-0.38035285,-0.6683798,-7.9850636,2.6028306,0.13627191,-3.2864656,5.0961175,2.0273807,0
0.7300000000000004,20.9999995948366,-3.4981438740980324,4.811704837987115,2.0341057902014774,18.483103,-4.4423556,6.349089,1.9043247,9.701745,-9.191406,1.2654505,-0.61575925,-0.07986864,-0.38407135,-0.68333817,-7.8580422,2.6860662,0.18317147,-3.3194194,5.051719,2.0277107,0
0.7400000000000004,20.9999995948366,-3.4981438740980324,4.811704837987115,2.0341057902014774,18.483103,-4.4423556,6.349089,1.9043247,9.623767,-9.164087,1.2675189,-0.60018754,-0.0562689,-0.3871701,-0.69764477,-7.738808,2.779314,0.23058921,-3.3472428,5.0142517,2.0280244,0
0.7500000000000004,20.9999995948366,-3.4981438740980324,4.811704837987115,2.0341057902014774,18.483103,-4.4423556,6.349089,1.9043247,9.546941,-9.135789,1.2700629,-0.58408165,-0.032656092,-0.38968444,-0.7112864,-7.6279554,2.8820472,0.2782467,-3.3707352,4.9826326,2.028323,0
0.7600000000000005,20.99999785013127,-2.8662469064562472,3.584618454032306,1.4237209706244294,19.77426,-4.1553917,6.2795796,2.4261692,9.471178,-9.106417,1.2730836,-0.5674465,-0.00905114,-0.39164427,-0.7242496,-7.526037,2.9937105,0.32585698,-3.3905702,4.9559503,2.0286067,0
0.7700000000000005,20.99999785013127,-2.8662469064562472,3.584618454032306,1.4237209706244294,19.77426,-4.1553917,6.2795796,2.4261692,9.396387,-9.075887,1.2765789,-0.5505428,0.014055157,-0.3929887,-0.73638654,-7.4335237,3.1136885,0.37313396,-3.308428,4.742264,1.9989247,0
0.7800000000000005,20.99999785013127,-2.8662469064562472,3.584618454032306,1.4237209706244294,19.77426,-4.1553917,6.2795796,2.4261692,9.3224745,-9.044118,1.2805443,-0.5336209,0.036273893,-0.3936994,-0.7476188,-7.3506227,3.241156,0.4198377,-3.2391512,4.5618796,1.9706992,0
0.7900000000000005,20.99999785013127,-2.8662469064562472,3.584618454032306,1.4237209706244294,19.77426,-4.1553917,6.2795796,2.4261692,9.249342,-9.011041,1.284973,-0.5166699,0.057724927,-0.3938534,-0.7580236,-7.27743,3.3752792,0.46576315,-3.1807244,4.4096065,1.9438587,0
0.8000000000000005,18.433538261163303,-1.935341500704106,1.8394226028819936,0.8339536201756048,18.200405,-4.731348,5.3230085,2.436331,9.176892,-8.976592,1.2898563,-0.4996782,0.07850988,-0.39351264,-0.76766264,-7.2140183,3.5152898,0.51072276,-3.1314476,4.2810645,1.9183354,0
0.8100000000000005,18.433538261163303,-1.935341500704106,1.8394226028819936,0.8339536201756048,18.200405,-4.731348,5.3230085,2.436331,9.104994,-8.940805,1.2950968,-0.4830038,0.09802203,-0.39266938,-0.7764728,-7.1669354,3.6426992,0.53721213,-2.944304,3.9006279,1.8651245,0
0.8200000000000005,18.433538261163303,-1.935341500704106,1.8394226028819936,0.8339536201756048,18.200405,-4.731348,5.3230085,2.436331,9.0335245,-8.903725,1.300597,-0.4669701,0.11579475,-0.39135313,-0.78445745,-7.1280966,3.7738366,0.5626763,-2.786448,3.5794678,1.8145245,0
0.8300000000000005,18.433538261163303,-1.935341500704106,1.8394226028819936,0.8339536201756048,18.200405,-4.731348,5.3230085,2.436331,8.962404,-8.865317,1.3063468,-0.45151207,0.13209718,-0.38965282,-0.79174364,-7.097083,3.9079778,0.5871267,-2.6532938,3.3083491,1.7664076,0
0.8400000000000005,18.433538261163303,-1.935341500704106,1.8394226028819936,0.8339536201756048,17.8495,-4.076253,3.566245,1.3732368,8.891557,-8.825557,1.3123361,-0.4365674,0.1471575,-0.38763645,-0.79843074,-7.073518,4.0445166,0.61058676,-2.540974,3.079476,1.7206517,0
0.8500000000000005,18.433538261163303,-1.935341500704106,1.8394226028819936,0.8339536201756048,17.8495,-4.076253,3.566245,1.3732368,8.820909,-8.78442,1.3185552,-0.42207792,0.16116868,-0.38535592,-0.8045966,-7.057061,4.1829386,0.6330853,-2.4462273,2.8862662,1.6771412,0
0.8600000000000005,18.433538261163303,-1.935341500704106,1.8394226028819936,0.8339536201756048,17.8495,-4.076253,3.566245,1.3732368,8.750391,-8.741893,1.3249946,-0.4079906,0.17429358,-0.3828509,-0.81030273,-7.047414,4.322805,0.6546521,-2.3663032,2.723163,1.6357658,0
0.8700000000000006,18.433538261163303,-1.935341500704106,1.8394226028819936,0.8339536201756048,17.8495,-4.076253,3.566245,1.3732368,8.679938,-8.697961,1.3316451,-0.39425755,0.18666942,-0.38015163,-0.815598,-7.04431,4.463737,0.6753153,-2.2988818,2.585475,1.5964206,0
0.8800000000000006,15.952101378669695,-0.8908189145273326,0.1545298268398571,0.357376778951771,17.364574,-2.514245,1.7804024,0.32009983,8.609483,-8.652616,1.3384979,-0.3808362,0.19841163,-0.37728128,-0.8205214,-7.0475154,4.605404,0.6950995,-2.2420068,2.4692426,1.5590062,0
0.8900000000000006,15.952101378669695,-0.8908189145273326,0.1545298268398571,0.357376778951771,17.364574,-2.514245,1.7804024,0.32009983,8.538972,-8.605947,1.3454653,-0.3680787,0.20892943,-0.3743393,-0.8250677,-7.0555153,4.728374,0.6982876,-2.0308416,2.1085572,1.5000418,0
0.9000000000000006,15.952101378669695,-0.8908189145273326,0.1545298268398571,0.357376778951771,17.364574,-2.514245,1.7804024,0.32009983,8.468357,-8.558048,1.3524615,-0.3562819,0.21777162,-0.37142515,-0.8292661,-7.068229,4.851445,0.70087194,-1.8526918,1.8040696,1.443971,0
0.9100000000000006,15.952101378669695,-0.8908189145273326,0.1545298268398571,0.357376778951771,17.364574,-2.514245,1.7804024,0.32009983,8.397594,-8.508919,1.3594811,-0.34533173,0.22521389,-0.36854935,-0.83318436,-7.0851107,4.97439,0.7029986,-1.7023923,1.5470254,1.3906516,0
0.9200000000000006,13.796030292132848,0.08472115230658345,-1.4504384955161413,-0.015558893258560955,15.32765,-2.120051,0.43664676,-0.39897323,8.326643,-8.458562,1.3665203,-0.3351268,0.23148721,-0.3657152,-0.8368729,-7.105694,5.0970364,0.70479953,-1.5755872,1.3300334,1.3399485,0
0.9300000000000006,13.796030292132848,0.08472115230658345,-1.4504384955161413,-0.015558893258560955,15.32765,-2.120051,0.43664676,-0.39897323,8.255485,-8.407063,1.373509,-0.32594335,0.23613515,-0.3630269,-0.84036463,-7.126308,5.202732,0.6929318,-1.3162448,0.89670414,1.2734334,0
0.9400000000000006,13.796030292132848,0.08472115230658345,-1.4504384955161413,-0.015558893258560955,15.32765,-2.120051,0.43664676,-0.39897323,8.18411,-8.354509,1.380379,-0.31800324,0.23881188,-0.3605755,-0.8436991,-7.1491513,5.3079557,0.68108124,-1.0974388,0.53089577,1.2101822,0
0.9500000000000006,13.796030292132848,0.08472115230658345,-1.4504384955161413,-0.015558893258560955,15.32765,-2.120051,0.43664676,-0.39897323,8.112496,-8.300905,1.3871313,-0.31114656,0.23984213,-0.35833684,-0.8469111,-7.1736426,5.4126396,0.6694351,-0.912829,0.22208929,1.1500348,0
0.9600000000000006,12.75025265555399,0.7461092093124542,-2.7330897530996783,-0.33931823176059916,14.629242,-1.9547231,-0.6594693,-0.6575901,8.040632,-8.246258,1.3937689,-0.30523357,0.23949681,-0.35628447,-0.85002065,-7.1992874,5.5167456,0.6581523,-0.75706726,-0.038595412,1.0928388,0
0.9700000000000006,12.75025265555399,0.7461092093124542,-2.7330897530996783,-0.33931823176059916,14.629242,-1.9547231,-0.6594693,-0.6575901,7.9685154,-8.190604,1.4002689,-0.3003897,0.23755474,-0.3544263,-0.85306257,-7.223899,5.613413,0.64160836,-0.5359413,-0.44505388,1.0238034,0
0.9800000000000006,12.75025265555399,0.7461092093124542,-2.7330897530996783,-0.33931823176059916,14.629242,-1.9547231,-0.6594693,-0.6575901,7.8961544,-8.133995,1.4066006,-0.29675844,0.23376682,-0.35280603,-0.8560463,-7.248392,5.7084894,0.6248553,-0.3358026,-0.80172324,0.95691454,0
0.9900000000000007,12.75025265555399,0.7461092093124542,-2.7330897530996783,-0.33931823176059916,14.629242,-1.9547231,-0.6594693,-0.6575901,7.8235497,-8.076438,1.4127688,-0.294188,0.22840644,-0.35139534,-0.85895586,-7.2725086,5.8029704,0.60890406,-0.1669365,-1.1028062,0.893308,0
1.0000000000000007,12.368818928470684,0.9464105914408624,-3.3560069994495123,-0.5924042204979469,15.066175,-1.5900356,-1.4771703,-0.6742541,7.7507076,-8.017938,1.4187819,-0.29253304,0.22172526,-0.3501552,-0.86177355,-7.295807,5.896845,0.59387934,-0.024452489,-1.3569639,0.83282274,0
1.0100000000000007,12.368818928470684,0.9464105914408624,-3.3560069994495123,-0.5924042204979469,15.066175,-1.5900356,-1.4771703,-0.6742541,7.6776414,-7.958516,1.4246372,-0.2917999,0.21370633,-0.34903908,-0.86449647,-7.3172355,5.9873066,0.5773633,0.12704673,-1.6686368,0.7628864,0
1.0200000000000007,12.368818928470684,0.9464105914408624,-3.3560069994495123,-0.5924042204979469,15.066175,-1.5900356,-1.4771703,-0.6742541,7.6043687,-7.8981934,1.4303328,-0.29198635,0.2043457,-0.3480044,-0.86711,-7.337092,6.0771317,0.56194055,0.25487357,-1.9317287,0.6963819,0
1.0300000000000007,12.368818928470684,0.9464105914408624,-3.3560069994495123,-0.5924042204979469,15.066175,-1.5900356,-1.4771703,-0.6742541,7.5309067,-7.836976,1.43588,-0.29296416,0.19385515,-0.3470225,-0.86957896,-7.3550076,6.1662774,0.5476876,0.36273083,-2.15381,0.6331408,0
1.0400000000000007,12.368818928470684,0.9464105914408624,-3.3560069994495123,-0.5924042204979469,14.906118,-1.9166782,-1.4780374,-0.7706132,7.4572763,-7.774871,1.4412905,-0.2946231,0.18241306,-0.346068,-0.8718713,-7.3706684,6.2546935,0.5346489,0.45374116,-2.341272,0.573003,0
1.0500000000000007,12.368818928470684,0.9464105914408624,-3.3560069994495123,-0.5924042204979469,14.906118,-1.9166782,-1.4780374,-0.7706132,7.383502,-7.7118855,1.4465771,-0.29686832,0.17017,-0.34511888,-0.8739589,-7.3838034,6.342324,0.5228412,0.53053874,-2.4995103,0.5158161,0
1.0600000000000007,12.368818928470684,0.9464105914408624,-3.3560069994495123,-0.5924042204979469,14.906118,-1.9166782,-1.4780374,-0.7706132,7.30961,-7.648028,1.4517516,-0.29961833,0.15725343,-0.34415635,-0.87581754,-7.394182,6.4291058,0.5122578,0.5953455,-2.63308,0.46143538,0
1.0700000000000007,12.368818928470684,0.9464105914408624,-3.3560069994495123,-0.5924042204979469,14.906118,-1.9166782,-1.4780374,-0.7706132,7.2356286,-7.583307,1.4568262,-0.30280286,0.14377135,-0.3431646,-0.8774269,-7.401609,6.5149693,0.5028718,0.6500354,-2.7458253,0.4097232,0
1.0800000000000007,12.19235224358002,0.7089150784346131,-3.321223145638915,-0.7361930258709946,14.584301,-1.7371588,-1.333642,-0.6458627,7.1615887,-7.5177317,1.461813,-0.30636135,0.12981547,-0.34213054,-0.8787701,-7.405917,6.599839,0.4946397,0.69618946,-2.840993,0.3605485,0
1.0900000000000007,12.19235224358002,0.7089150784346131,-3.321223145638915,-0.7361930258709946,14.584301,-1.7371588,-1.333642,-0.6458627,7.0875216,-7.4513197,1.4667164,-0.3102406,0.11551141,-0.34096223,-0.8798592,-7.4069557,6.682439,0.48620844,0.6980895,-2.9159086,0.30673108,0
1.1000000000000008,12.19235224358002,0.7089150784346131,-3.321223145638915,-0.7361930258709946,14.584301,-1.7371588,-1.333642,-0.6458627,7.013461,-7.384087,1.4715407,-0.31439883,0.10096475,-0.33958694,-0.88070416,-7.4046965,6.7638803,0.47880802,0.699691,-2.9791405,0.25555453,0
1.1100000000000008,12.19235224358002,0.7089150784346131,-3.321223145638915,-0.7361930258709946,14.584301,-1.7371588,-1.333642,-0.6458627,6.93944,-7.316046,1.476296,-0.31880227,0.08622061,-0.3380215,-0.8812901,-7.399075,6.8440604,0.47238025,0.7010423,-3.03251,0.20688918,0
1.1200000000000008,12.022223949460798,0.1340615221337923,-2.8735031434528864,-0.7726179844859694,14.39794,-2.1780734,-0.9349939,-0.5299195,6.8654914,-7.24721,1.4809914,-0.3234208,0.07131742,-0.33628058,-0.8816052,-7.3900385,6.922877,0.4668574,0.7021835,-3.0775557,0.16061187,0
1.1300000000000008,12.022223949460798,0.1340615221337923,-2.8735031434528864,-0.7726179844859694,14.39794,-2.1780734,-0.9349939,-0.5299195,6.79165,-7.1775985,1.4856293,-0.3281569,0.05652234,-0.33423316,-0.88170636,-7.3777385,6.9991484,0.46086416,0.613491,-3.0457613,0.114818014,0
1.1400000000000008,12.022223949460798,0.1340615221337923,-2.8735031434528864,-0.7726179844859694,14.39794,-2.1780734,-0.9349939,-0.5299195,6.717948,-7.107232,1.4902112,-0.33293843,0.04205098,-0.33178055,-0.881649,-7.3621206,7.0738673,0.45563757,0.5386365,-3.018919,0.07127126,0
1.1500000000000008,12.022223949460798,0.1340615221337923,-2.8735031434528864,-0.7726179844859694,14.39794,-2.1780734,-0.9349939,-0.5299195,6.6444187,-7.0361266,1.4947445,-0.33777323,0.027863609,-0.32897845,-0.8814226,-7.343281,7.146931,0.45112744,0.47546127,-2.9962575,0.029861383,0
1.1600000000000008,11.730303838037928,-0.704574254754332,-2.087738513855195,-0.6585738006368972,13.620232,-2.7392569,-0.673027,-0.42787266,6.571093,-6.964299,1.4992361,-0.34266573,0.013926236,-0.325874,-0.8810176,-7.321305,7.2182455,0.44728068,0.42214334,-2.977126,-0.009516518,0
1.1700000000000008,11.730303838037928,-0.704574254754332,-2.087738513855195,-0.6585738006368972,13.620232,-2.7392569,-0.673027,-0.42787266,6.4980006,-6.891776,1.5036807,-0.3475012,0.0005977836,-0.3223212,-0.8805403,-7.296901,7.286036,0.44174415,0.2463741,-2.838431,-0.041365948,0
1.1800000000000008,11.730303838037928,-0.704574254754332,-2.087738513855195,-0.6585738006368972,13.620232,-2.7392569,-0.673027,-0.42787266,6.425165,-6.8185844,1.508073,-0.35219622,-0.011838178,-0.31821242,-0.8800898,-7.2697606,7.3519588,0.436793,0.09802356,-2.7213588,-0.07165252,0
1.1900000000000008,11.730303838037928,-0.704574254754332,-2.087738513855195,-0.6585738006368972,13.620232,-2.7392569,-0.673027,-0.42787266,6.3526134,-6.744744,1.5124187,-0.35679218,-0.0235108,-0.31363526,-0.87964714,-7.24012,7.4159493,0.4324256,-0.02718583,-2.62254,-0.10045291,0
1.2000000000000008,11.375059440545252,-1.5046018244640786,-1.051600162146447,-0.42792955294782675,13.158815,-2.72379,0.19172366,-0.5289905,6.2803698,-6.670273,1.5167238,-0.36132085,-0.03453009,-0.30866274,-0.87919384,-7.2081833,7.477954,0.42863795,-0.13286406,-2.5391288,-0.12784007,0
1.2100000000000009,11.375059440545252,-1.5046018244640786,-1.051600162146447,-0.42792955294782675,13.158815,-2.72379,0.19172366,-0.5289905,6.2084513,-6.595201,1.5209793,-0.36566743,-0.044517916,-0.30322486,-0.87884,-7.1751833,7.536112,0.4225556,-0.34678882,-2.3071287,-0.14256555,0
1.2200000000000009,11.375059440545252,-1.5046018244640786,-1.051600162146447,-0.42792955294782675,13.158815,-2.72379,0.19172366,-0.5289905,6.136872,-6.5195575,1.5251769,-0.36974666,-0.053180337,-0.2972738,-0.8786849,-7.1404667,7.592295,0.4170671,-0.52735025,-2.111308,-0.15656845,0
1.2300000000000009,11.375059440545252,-1.5046018244640786,-1.051600162146447,-0.42792955294782675,13.158815,-2.72379,0.19172366,-0.5289905,6.065647,-6.4433618,1.5293227,-0.37361768,-0.060717676,-0.29089397,-0.8786942,-7.104349,7.646511,0.41221377,-0.67975235,-1.9460257,-0.16988422,0
1.2400000000000009,11.375059440545252,-1.5046018244640786,-1.051600162146447,-0.42792955294782675,13.671154,-2.9083557,0.52351665,-0.34311616,5.9947886,-6.366634,1.5334233,-0.3773268,-0.06729976,-0.28415486,-0.8788349,-7.067099,7.698767,0.40803117,-0.80838674,-1.8065197,-0.18254659,0
1.2500000000000009,11.375059440545252,-1.5046018244640786,-1.051600162146447,-0.42792955294782675,13.671154,-2.9083557,0.52351665,-0.34311616,5.9243083,-6.289393,1.5374856,-0.38091007,-0.073070504,-0.27711383,-0.8790766,-7.028944,7.7490716,0.40454835,-0.91696036,-1.6887704,-0.1945876,0
1.260000000000001,11.375059440545252,-1.5046018244640786,-1.051600162146447,-0.42792955294782675,13.671154,-2.9083557,0.52351665,-0.34311616,5.8542123,-6.2116585,1.5415168,-0.38439557,-0.078151844,-0.26981843,-0.87939173,-6.9900775,7.797431,0.40178764,-1.008602,-1.589385,-0.20603776,0
1.270000000000001,11.375059440545252,-1.5046018244640786,-1.051600162146447,-0.42792955294782675,13.671154,-2.9083557,0.52351665,-0.34311616,5.7845087,-6.133451,1.5455239,-0.38780513,-0.08264711,-0.26230812,-0.8797559,-6.950666,7.84385,0.39976475,-1.0859525,-1.5054997,-0.21692605,0
1.280000000000001,10.99499349366709,-2.0114182884383336,-0.16571606950149734,-0.11863279243374018,13.98518,-2.8775902,0.6971219,-0.2614714,5.715201,-6.0547886,1.5495147,-0.39115557,-0.08664383,-0.25461584,-0.8801479,-6.9108515,7.8883324,0.39848927,-1.1512402,-1.4346973,-0.22728005,0
1.290000000000001,10.99499349366709,-2.0114182884383336,-0.16571606950149734,-0.11863279243374018,13.98518,-2.8775902,0.6971219,-0.2614714,5.646286,-5.975698,1.5534801,-0.3943549,-0.08983427,-0.24672654,-0.8806471,-6.8721156,7.929465,0.39470923,-1.2853509,-1.2367849,-0.2219487,0
1.300000000000001,10.99499349366709,-2.0114182884383336,-0.16571606950149734,-0.11863279243374018,13.98518,-2.8775902,0.6971219,-0.2614714,5.577759,-5.8962054,1.5574114,-0.3973299,-0.09197896,-0.23863055,-0.8813192,-6.83335,7.968783,0.39168805,-1.3985529,-1.0697408,-0.21687897,0
1.310000000000001,10.99499349366709,-2.0114182884383336,-0.16571606950149734,-0.11863279243374018,13.98518,-2.8775902,0.6971219,-0.2614714,5.5096188,-5.816329,1.5613166,-0.40011612,-0.093238294,-0.23035978,-0.8821266,-6.7947807,8.006341,0.38945463,-1.494106,-0.92874986,-0.21205801,0
1.320000000000001,10.700958624253554,-2.3737763143777832,0.6144391501668315,0.20658292942823092,13.356659,-2.66288,0.9851622,-0.08793431,5.441862,-5.736085,1.5652033,-0.40274155,-0.09374782,-0.22194041,-0.8830359,-6.756599,8.042187,0.38802907,-1.5747617,-0.8097485,-0.2074736,0
1.330000000000001,10.700958624253554,-2.3737763143777832,0.6144391501668315,0.20658292942823092,13.356659,-2.66288,0.9851622,-0.08793431,5.3744793,-5.6554956,1.5690669,-0.40513802,-0.09329666,-0.21338828,-0.88409483,-6.719991,8.075451,0.38481888,-1.6993296,-0.5876528,-0.18715572,0
1.340000000000001,10.700958624253554,-2.3737763143777832,0.6144391501668315,0.20658292942823092,13.356659,-2.66288,0.9851622,-0.08793431,5.3074594,-5.574581,1.5729026,-0.40724888,-0.091723755,-0.20471664,-0.8853392,-6.684168,8.107173,0.38243324,-1.8044813,-0.40019706,-0.16783486,0
1.350000000000001,10.700958624253554,-2.3737763143777832,0.6144391501668315,0.20658292942823092,13.356659,-2.66288,0.9851622,-0.08793431,5.2407928,-5.493357,1.5767184,-0.40910888,-0.089201935,-0.19594158,-0.8867238,-6.6493573,8.13743,0.38089114,-1.8932424,-0.2419781,-0.14946206,0
1.360000000000001,10.708811020933947,-2.5702078966917403,1.1566455348079017,0.5255710829509753,12.069111,-2.4666753,1.3020658,0.060534365,5.1744685,-5.4118376,1.5805231,-0.41074553,-0.0858772,-0.18707627,-0.8882088,-6.615753,8.166289,0.38020042,-1.9681671,-0.10843533,-0.13199082,0
1.370000000000001,10.708811020933947,-2.5702078966917403,1.1566455348079017,0.5255710829509753,12.069111,-2.4666753,1.3020658,0.060534365,5.108474,-5.3300357,1.5843256,-0.41211247,-0.081655025,-0.17814748,-0.8898081,-6.583507,8.193832,0.3804321,-2.0620396,0.08881818,-0.099724084,0
1.380000000000001,10.708811020933947,-2.5702078966917403,1.1566455348079017,0.5255710829509753,12.069111,-2.4666753,1.3020658,0.060534365,5.0427938,-5.247965,1.5881345,-0.41316882,-0.07646694,-0.16917649,-0.8915284,-6.5528493,8.2201185,0.3815121,-2.141282,0.25530764,-0.06904066,0
1.390000000000001,10.708811020933947,-2.5702078966917403,1.1566455348079017,0.5255710829509753,12.069111,-2.4666753,1.3020658,0.060534365,4.9774113,-5.165637,1.5919585,-0.41394183,-0.070461996,-0.16016579,-0.8933272,-6.523974,8.245223,0.38342905,-2.2081738,0.3958317,-0.039862894,0
1.400000000000001,11.126042814567409,-2.604487206069497,1.5783106987334532,0.7981185745683064,11.769535,-2.2085712,1.1717796,0.25199395,4.912308,-5.0830636,1.5958058,-0.41445374,-0.06376625,-0.15111761,-0.89516747,-6.4970474,8.26921,0.38616052,-2.264639,0.5144407,-0.012116878,1
1.410000000000001,11.126042814567409,-2.604487206069497,1.5783106987334532,0.7981185745683064,11.769535,-2.2085712,1.1717796,0.25199395,4.8474765,-5.0002446,1.5997345,-0.41474363,-0.056535978,-0.14216846,-0.8969832,-6.4697475,8.294405,0.39973682,-2.2558994,0.61693305,0.00084312656,1
1.420000000000001,11.126042814567409,-2.604487206069497,1.5783106987334532,0.7981185745683064,11.769535,-2.2085712,1.1717796,0.25199395,4.7829056,-4.917179,1.6038032,-0.41485068,-0.04890079,-0.13342787,-0.89872354,-6.444841,8.318506,0.41411096,-2.2485242,0.70344293,0.013167173,1
1.430000000000001,11.126042814567409,-2.604487206069497,1.5783106987334532,0.7981185745683064,11.769535,-2.2085712,1.1717796,0.25199395,4.718571,-4.833878,1.6080192,-0.41479126,-0.040923312,-0.124861404,-0.9003791,-6.422403,8.341585,0.42921656,-2.2423003,0.7764627,0.024886472,1
1.440000000000001,11.126042814567409,-2.604487206069497,1.5783106987334532,0.7981185745683064,11.0457115,-1.5286136,1.1935339,0.26566792,4.654449,-4.7503505,1.6123898,-0.41457883,-0.032656692,-0.1164401,-0.90194184,-6.4024973,8.363699,0.44498625,-2.2370472,0.8380959,0.036030706,0
1.450000000000001,11.126042814567409,-2.604487206069497,1.5783106987334532,0.7981185745683064,11.0457115,-1.5286136,1.1935339,0.26566792,4.590508,-4.6666126,1.6168897,-0.41414896,-0.023941288,-0.108061895,-0.90345424,-6.386137,8.383737,0.45509475,-2.294375,0.9534749,0.07342658,0
1.460000000000001,11.126042814567409,-2.604487206069497,1.5783106987334532,0.7981185745683064,11.0457115,-1.5286136,1.1935339,0.26566792,4.5267177,-4.582679,1.6214932,-0.41343933,-0.014653261,-0.0996442,-0.90494406,-6.3723507,8.402952,0.46570992,-2.3427656,1.050861,0.10898744,0
1.470000000000001,11.126042814567409,-2.604487206069497,1.5783106987334532,0.7981185745683064,11.0457115,-1.5286136,1.1935339,0.26566792,4.4630513,-4.498557,1.6262053,-0.41246313,-0.004882741,-0.091191314,-0.9063851,-6.3612614,8.421378,0.47676924,-2.3836114,1.1330612,0.14280331,0
1.480000000000001,11.597730901843414,-2.569183240053778,1.7688351697591875,1.0060628389533632,10.391914,-0.45716885,0.8779821,0.19978541,4.3994823,-4.4142547,1.63103,-0.41123188,0.005293754,-0.08270739,-0.9077551,-6.3529716,8.439038,0.48820266,-2.4180884,1.2024436,0.17495981,0
1.490000000000001,11.597730901843414,-2.569183240053778,1.7688351697591875,1.0060628389533632,10.391914,-0.45716885,0.8779821,0.19978541,4.3359833,-4.3297753,1.6359938,-0.40972632,0.015872559,-0.07424078,-0.9090436,-6.347339,8.456672,0.50458986,-2.441696,1.2907045,0.21574228,0
1.500000000000001,11.597730901843414,-2.569183240053778,1.7688351697591875,1.0060628389533632,10.391914,-0.45716885,0.8779821,0.19978541,4.272525,-4.2451234,1.6411226,-0.40792948,0.026847059,-0.06583073,-0.910241,-6.344805,8.47356,0.5211993,-2.4616225,1.3652037,0.25452352,0
1.5100000000000011,11.597730901843414,-2.569183240053778,1.7688351697591875,1.0060628389533632,10.391914,-0.45716885,0.8779821,0.19978541,4.2090764,-4.1603065,1.6464182,-0.40585405,0.038153023,-0.057468988,-0.91133076,-6.3454456,8.489737,0.5379376,-2.478441,1.4280874,0.29140177,0
1.5200000000000011,12.605463733266847,-2.4421791085566475,1.607973396423905,1.1546650886535994,10.166595,-0.2084588,0.6002354,0.23499978,4.1456056,-4.0753307,1.6518813,-0.40351123,0.04973574,-0.04914914,-0.91229874,-6.349323,8.5052185,0.5547076,-2.492636,1.4811668,0.32647043,0
1.5300000000000011,12.605463733266847,-2.4421791085566475,1.607973396423905,1.1546650886535994,10.166595,-0.2084588,0.6002354,0.23499978,4.082076,-3.9901972,1.6575619,-0.4009005,0.061468486,-0.04088777,-0.9131419,-6.357104,8.521306,0.5813849,-2.4848113,1.500878,0.3671102,0
1.5400000000000011,12.605463733266847,-2.4421791085566475,1.607973396423905,1.1546650886535994,10.166595,-0.2084588,0.6002354,0.23499978,4.0184507,-3.9049065,1.6635083,-0.39802152,0.07324833,-0.032699037,-0.91386205,-6.368463,8.5366535,0.6078807,-2.478205,1.5175185,0.40575573,0
1.5500000000000012,12.605463733266847,-2.4421791085566475,1.607973396423905,1.1546650886535994,10.166595,-0.2084588,0.6002354,0.23499978,3.9546943,-3.819466,1.6697183,-0.39488435,0.085064076,-0.024575299,-0.914454,-6.3833976,8.551258,0.6340885,-2.4726272,1.5315671,0.44250494,0
1.5600000000000012,12.996697023006439,-2.0549368045633383,1.093334968627396,1.1466768929534494,9.758015,0.16180871,1.0228658,0.49851292,3.8907707,-3.7338836,1.6761886,-0.39149845,0.096905954,-0.01651046,-0.9149127,-6.4018974,8.565108,0.6599024,-2.4679174,1.5434277,0.47745088,0
1.5700000000000012,12.996697023006439,-2.0549368045633383,1.093334968627396,1.1466768929534494,9.758015,0.16180871,1.0228658,0.49851292,3.8266408,-3.6481643,1.6829338,-0.38789293,0.108516686,-0.008561132,-0.9152539,-6.42462,8.578594,0.6890506,-2.4035232,1.4732044,0.51028997,0
1.5800000000000012,12.996697023006439,-2.0549368045633383,1.093334968627396,1.1466768929534494,9.758015,0.16180871,1.0228658,0.49851292,3.7622662,-3.5623143,1.6899675,-0.3840961,0.11969323,-0.0007731565,-0.9155014,-6.4508786,8.591259,0.7176018,-2.3491707,1.4139342,0.5415177,0
1.5900000000000012,12.996697023006439,-2.0549368045633383,1.093334968627396,1.1466768929534494,9.758015,0.16180871,1.0228658,0.49851292,3.6976116,-3.476342,1.6972835,-0.38011485,0.13050063,0.006872634,-0.9156608,-6.4805436,8.603066,0.74548185,-2.303294,1.3639083,0.571213,0
1.6000000000000012,13.1040503131656,-1.541770661346601,0.4389589344842135,1.0341819711179945,9.776533,0.13646583,0.5454783,0.2977497,3.632644,-3.3902562,1.7048746,-0.3759557,0.14099365,0.0143925315,-0.915735,-6.5135016,8.613988,0.7726216,-2.2645717,1.3216852,0.5994512,0
1.6100000000000012,13.1040503131656,-1.541770661346601,0.4389589344842135,1.0341819711179945,9.776533,0.13646583,0.5454783,0.2977497,3.5673292,-3.3040652,1.7127384,-0.37166375,0.1509018,0.021712318,-0.91576356,-6.5499306,8.624072,0.7999884,-2.151814,1.1840385,0.62078357,0
1.6200000000000012,13.1040503131656,-1.541770661346601,0.4389589344842135,1.0341819711179945,9.776533,0.13646583,0.5454783,0.2977497,3.501635,-3.2177782,1.7208717,-0.36728126,0.1600153,0.028773386,-0.91579,-6.589345,8.63319,0.82652444,-2.0566454,1.0678551,0.6410691,0
1.6300000000000012,13.1040503131656,-1.541770661346601,0.4389589344842135,1.0341819711179945,9.776533,0.13646583,0.5454783,0.2977497,3.4355328,-3.1314046,1.729266,-0.36280963,0.16845824,0.035609953,-0.91581804,-6.631526,8.641304,0.85222197,-1.9763223,0.9697878,0.6603593,0
1.6400000000000012,13.1040503131656,-1.541770661346601,0.4389589344842135,1.0341819711179945,9.029963,0.3109378,-0.14806144,0.31310588,3.3689957,-3.0449555,1.7379131,-0.35824996,0.17633505,0.04225135,-0.9158479,-6.676285,8.64838,0.8770753,-1.9085292,0.8870116,0.6787029,0
1.6500000000000012,13.1040503131656,-1.541770661346601,0.4389589344842135,1.0341819711179945,9.029963,0.3109378,-0.14806144,0.31310588,3.3019986,-2.9584408,1.7468045,-0.35360342,0.18373358,0.048722684,-0.9158779,-6.7234592,8.65439,0.90107954,-1.8513119,0.81714237,0.6961463,0
1.6600000000000013,13.1040503131656,-1.541770661346601,0.4389589344842135,1.0341819711179945,9.029963,0.3109378,-0.14806144,0.31310588,3.2345188,-2.8718715,1.7559317,-0.34887114,0.19072777,0.055045463,-0.9159047,-6.772911,8.659309,0.92422915,-1.8030207,0.75816715,0.7127338,0
1.6700000000000013,13.1040503131656,-1.541770661346601,0.4389589344842135,1.0341819711179945,9.029963,0.3109378,-0.14806144,0.31310588,3.166533,-2.7852583,1.7652862,-0.3440544,0.19737974,0.06123809,-0.9159243,-6.8245173,8.663114,0.9465178,-1.7622632,0.70838755,0.7285074,0
1.6800000000000013,12.926981475119678,-0.9756803910990004,-0.2834748889306807,0.8496210580533098,8.609734,-0.37027213,-0.9218126,0.3954817,3.0980208,-2.6986132,1.7748592,-0.3391545,0.20374174,0.06731631,-0.9159321,-6.8781724,8.665782,0.9679382,-1.7278641,0.6663695,0.74350697,0
1.6900000000000013,12.926981475119678,-0.9756803910990004,-0.2834748889306807,0.8496210580533098,8.609734,-0.37027213,-0.9218126,0.3954817,3.0289664,-2.611947,1.784634,-0.33422124,0.20951527,0.073188335,-0.91599274,-6.9330134,8.667274,0.9868874,-1.6104916,0.5182932,0.7487141,0
1.7000000000000013,12.926981475119678,-0.9756803910990004,-0.2834748889306807,0.8496210580533098,8.609734,-0.37027213,-0.9218126,0.3954817,2.9593549,-2.5252717,1.7945942,-0.32929927,0.21446824,0.078782,-0.9161651,-6.9895587,8.667607,1.0050324,-1.5114335,0.3933014,0.7536656,0
1.7100000000000013,12.926981475119678,-0.9756803910990004,-0.2834748889306807,0.8496210580533098,8.609734,-0.37027213,-0.9218126,0.3954817,2.8891702,-2.438599,1.8047321,-0.3243828,0.21873008,0.084136546,-0.91643536,-7.0475945,8.66676,1.0224377,-1.4278321,0.28779513,0.75837415,0
1.7200000000000013,11.957985761980186,-0.4268094316648092,-1.2394461637776908,0.595692369682585,7.6716,-0.09539875,-1.8312998,0.12019134,2.8183985,-2.3519409,1.8150407,-0.31946665,0.22240952,0.089285485,-0.9167895,-7.1069417,8.66472,1.0391603,-1.357276,0.19873683,0.76285166,0
1.7300000000000013,11.957985761980186,-0.4268094316648092,-1.2394461637776908,0.595692369682585,7.6716,-0.09539875,-1.8312998,0.12019134,2.7470498,-2.2653077,1.8254704,-0.31458986,0.22517475,0.0941846,-0.9173105,-7.162889,8.661713,1.0467011,-1.212059,-0.02546829,0.75464904,0
1.7400000000000013,11.957985761980186,-0.4268094316648092,-1.2394461637776908,0.595692369682585,7.6716,-0.09539875,-1.8312998,0.12019134,2.6751378,-2.1787102,1.8359733,-0.30978698,0.2267684,0.09879979,-0.91806674,-7.219629,8.657556,1.0537795,-1.0895078,-0.21472165,0.746849,0
1.7500000000000013,11.957985761980186,-0.4268094316648092,-1.2394461637776908,0.595692369682585,7.6716,-0.09539875,-1.8312998,0.12019134,2.6026554,-2.0921605,1.8465449,-0.30504692,0.22737417,0.103171475,-0.91902274,-7.2769027,8.652218,1.0605147,-0.9860843,-0.37447193,0.7394317,0
1.7600000000000013,11.082268845874935,0.07876764028124661,-1.9713385538331207,0.31951747373915057,6.431216,0.14088796,-2.464096,0.016374,2.5295987,-2.0056698,1.8571826,-0.30035982,0.22714624,0.10733419,-0.9201455,-7.334492,8.645675,1.0670086,-0.8988031,-0.50931805,0.7323784,0
1.7700000000000014,11.082268845874935,0.07876764028124661,-1.9713385538331207,0.31951747373915057,6.431216,0.14088796,-2.464096,0.016374,2.4559865,-1.9192482,1.8678463,-0.2957625,0.22588038,0.1112263,-0.92148304,-7.387968,8.63848,1.0657079,-0.74625224,-0.73723656,0.7121192,0
1.7800000000000014,11.082268845874935,0.07876764028124661,-1.9713385538331207,0.31951747373915057,6.431216,0.14088796,-2.464096,0.016374,2.3818402,-1.8329043,1.8784966,-0.2912863,0.22342074,0.1147999,-0.92306894,-7.441299,8.630139,1.0643954,-0.6175133,-0.9296265,0.69285417,0
1.7900000000000014,11.082268845874935,0.07876764028124661,-1.9713385538331207,0.31951747373915057,6.431216,0.14088796,-2.464096,0.016374,2.3071623,-1.7466496,1.8891345,-0.28691497,0.21995121,0.11810087,-0.92485315,-7.4942403,8.620641,1.0631897,-0.50886834,-1.0920259,0.67453444,0
1.8000000000000014,10.543024239077429,0.43367935849414546,-2.348122914383324,0.06404307727911236,7.8779387,-0.26185575,-3.1892092,0.38516217,2.2319577,-1.6604955,1.8997612,-0.2826344,0.21562634,0.12116813,-0.92679083,-7.5465846,8.6099825,1.0621878,-0.41718036,-1.2291092,0.6571137,0
1.8100000000000014,10.543024239077429,0.43367935849414546,-2.348122914383324,0.06404307727911236,7.8779387,-0.26185575,-3.1892092,0.38516217,2.156246,-1.574451,1.9103554,-0.27847338,0.21039246,0.123952106,-0.9288829,-7.595634,8.598742,1.0567333,-0.28444105,-1.4035563,0.6280115,0
1.8200000000000014,10.543024239077429,0.43367935849414546,-2.348122914383324,0.06404307727911236,7.8779387,-0.26185575,-3.1892092,0.38516217,2.0800483,-1.4885244,1.920897,-0.2744563,0.20421268,0.12641484,-0.931123,-7.6437316,8.586411,1.0516381,-0.17241812,-1.5508119,0.60033745,0
1.8300000000000014,10.543024239077429,0.43367935849414546,-2.348122914383324,0.06404307727911236,7.8779387,-0.26185575,-3.1892092,0.38516217,2.0033755,-1.4027265,1.9313897,-0.27056536,0.19722944,0.12860253,-0.93346465,-7.6906853,8.573011,1.0469786,-0.07787755,-1.6751139,0.57402134,0
1.8400000000000014,10.543024239077429,0.43367935849414546,-2.348122914383324,0.06404307727911236,8.505802,-0.22694172,-3.2318137,0.34564298,1.9262395,-1.3170679,1.9418383,-0.2667853,0.18956284,0.13055435,-0.935867,-7.736327,8.558558,1.0428108,0.0019097999,-1.7800395,0.54899657,0
1.8500000000000014,10.543024239077429,0.43367935849414546,-2.348122914383324,0.06404307727911236,8.505802,-0.22694172,-3.2318137,0.34564298,1.848654,-1.2315589,1.9522476,-0.26310298,0.18131429,0.13230337,-0.9382951,-7.780512,8.5430765,1.0391737,0.069246694,-1.8686086,0.5251997,0
1.8600000000000014,10.543024239077429,0.43367935849414546,-2.348122914383324,0.06404307727911236,8.505802,-0.22694172,-3.2318137,0.34564298,1.7706347,-1.1462098,1.9626235,-0.25950712,0.17256954,0.1338776,-0.9407191,-7.823112,8.526585,1.0360918,0.1260769,-1.943371,0.50257057,0
1.8700000000000014,10.543024239077429,0.43367935849414546,-2.348122914383324,0.06404307727911236,8.505802,-0.22694172,-3.2318137,0.34564298,1.6921976,-1.0610305,1.9729713,-0.255988,0.16340123,0.13530076,-0.94311386,-7.864017,8.509106,1.0335766,0.17403987,-2.0064785,0.4810519,0
1.8800000000000014,10.249015156419805,0.6097815019303536,-2.342277917490467,-0.1514709895771494,8.297512,-0.1602334,-2.6347642,0.34109125,1.6133604,-0.97603095,1.9832969,-0.25253725,0.15387097,0.13659286,-0.945458,-7.903129,8.490661,1.0316288,0.21451978,-2.059748,0.46058914,0
1.8900000000000015,10.249015156419805,0.6097815019303536,-2.342277917490467,-0.1514709895771494,8.297512,-0.1602334,-2.6347642,0.34109125,1.5341467,-0.8912179,1.9935923,-0.24918383,0.14401196,0.13770762,-0.94773644,-7.939321,8.471817,1.0275441,0.2761328,-2.1037953,0.43055514,0
1.9000000000000015,10.249015156419805,0.6097815019303536,-2.342277917490467,-0.1514709895771494,8.297512,-0.1602334,-2.6347642,0.34109125,1.4545805,-0.8065976,2.0038495,-0.24595301,0.13385327,0.13860928,-0.9499356,-7.9736032,8.4521,1.0239949,0.3281357,-2.140978,0.40199494,0
1.9100000000000015,10.249015156419805,0.6097815019303536,-2.342277917490467,-0.1514709895771494,8.297512,-0.1602334,-2.6347642,0.34109125,1.3746815,-0.7221787,2.0140738,-0.24283305,0.12343773,0.13932766,-0.95204145,-8.005899,8.431554,1.0209668,0.3720281,-2.172366,0.37483624,0
1.9200000000000015,9.899694217116743,0.5654041362240726,-2.2684106845073697,-0.31661430799196033,8.783609,-0.14514466,-2.5311475,0.38368812,1.2944696,-0.63796926,2.0242703,-0.23981367,0.11280184,0.13988787,-0.9540422,-8.036145,8.410218,1.0184379,0.40907517,-2.1988614,0.3490102,0
1.9300000000000015,9.899694217116743,0.5654041362240726,-2.2684106845073697,-0.31661430799196033,8.783609,-0.14514466,-2.5311475,0.38368812,1.2139707,-0.55397314,2.034428,-0.23690772,0.10200638,0.14032325,-0.9559178,-8.063325,8.388884,1.0131068,0.43341002,-2.209711,0.31634784,0
1.9400000000000015,9.899694217116743,0.5654041362240726,-2.2684106845073697,-0.31661430799196033,8.783609,-0.14514466,-2.5311475,0.38368812,1.1332103,-0.47019392,2.0445342,-0.23412783,0.09110114,0.14066158,-0.9576528,-8.088429,8.366855,1.0081972,0.4539514,-2.2188702,0.28528818,0
1.9500000000000015,9.899694217116743,0.5654041362240726,-2.2684106845073697,-0.31661430799196033,8.783609,-0.14514466,-2.5311475,0.38368812,1.0522094,-0.3866383,2.0545933,-0.23146522,0.08010026,0.1409148,-0.9592448,-8.111429,8.344163,1.003671,0.47129095,-2.2266018,0.25575265,0
1.9600000000000015,9.669339100697975,0.5027233942067522,-1.7252023619616923,-0.41464027672625464,6.9635367,0.09387884,-2.811407,-0.29843682,0.97098905,-0.30331284,2.0646088,-0.22891182,0.06901601,0.1410928,-0.9606918,-8.132297,8.320837,0.9994885,0.48592812,-2.2331283,0.22766645,0
1.9700000000000015,9.669339100697975,0.5027233942067522,-1.7252023619616923,-0.41464027672625464,6.9635367,0.09387884,-2.811407,-0.29843682,0.8895731,-0.2202209,2.074573,-0.2265013,0.05807214,0.14117946,-0.9619735,-8.15058,8.297463,0.9934138,0.4884912,-2.153927,0.19614828,0
1.9800000000000015,9.669339100697975,0.5027233942067522,-1.7252023619616923,-0.41464027672625464,6.9635367,0.09387884,-2.811407,-0.29843682,0.8079846,-0.13736543,2.084478,-0.22426285,0.047447164,0.14116378,-0.9630824,-8.166803,8.273547,0.9875856,0.49066138,-2.087077,0.16617669,0
1.9900000000000015,9.669339100697975,0.5027233942067522,-1.7252023619616923,-0.41464027672625464,6.9635367,0.09387884,-2.811407,-0.29843682,0.726244,-0.054751657,2.0943255,-0.22218308,0.037089948,0.14106011,-0.9640338,-8.181014,8.249133,0.98195875,0.4924984,-2.0306516,0.13767584,0
2.0000000000000013,,,,,7.159139,-0.30532825,-1.7273822,-0.62653565,0.6443711,0.027615672,2.1041176,-0.22024985,0.026957363,0.1408803,-0.96483994,-8.193256,8.224264,0.9764918,0.49405354,-1.9830256,0.11057351,0
2.010000000000001,,,,,7.159139,-0.30532825,-1.7273822,-0.62653565,0.5623864,0.10973452,2.113847,-0.21849842,0.017319197,0.1406088,-0.9654987,-8.203389,8.199445,0.9694313,0.4784527,-1.8228899,0.083327346,0
2.020000000000001,,,,,7.159139,-0.30532825,-1.7273822,-0.62653565,0.4803094,0.19160336,2.1235063,-0.21695809,0.008387617,0.14023533,-0.96601915,-8.211751,8.174271,0.9624538,0.465293,-1.6877265,0.05741816,0
2.0300000000000007,,,,,7.159139,-0.30532825,-1.7273822,-0.62653565,0.39815712,0.27321893,2.1330965,-0.21560977,5.1374547e-05,0.13977571,-0.9664239,-8.218462,8.148798,0.95552963,0.45419186,-1.5736408,0.032780334,0
2.0400000000000005,,,,,7.159139,-0.30532825,-1.7273822,-0.62653565,0.3159455,0.35457847,2.142617,-0.2144364,-0.007783524,0.13924284,-0.9667306,-8.223626,8.123071,0.9486351,0.44482696,-1.4773461,0.009351516,0
2.0500000000000003,,,,,7.012842,-0.2328641,-1.1103063,-0.6746029,0.23368964,0.43567958,2.1520689,-0.21342269,-0.0151964445,0.13864742,-0.9669523,-8.22733,8.097127,0.9417504,0.4369263,-1.3960677,-0.01292765,1
2.06,,,,,7.012842,-0.2328641,-1.1103063,-0.6746029,0.15140697,0.5165544,2.1613328,-0.21257831,-0.02226447,0.13825363,-0.96705776,-8.229045,8.077813,0.91104436,0.33244455,-1.3515098,-0.045396246,1
2.07,,,,,7.012842,-0.2328641,-1.1103063,-0.6746029,0.06911204,0.5972352,2.1702898,-0.21191566,-0.029052923,0.13827078,-0.96702063,-8.229794,8.058325,0.8803058,0.24425963,-1.3138969,-0.07627159,1
2.0799999999999996,,,,,7.012842,-0.2328641,-1.1103063,-0.6746029,-0.013185753,0.6777201,2.1789389,-0.21142471,-0.035607617,0.13863294,-0.9668571,-8.229627,8.03862,0.84950846,0.16982953,-1.2821468,-0.10563189,1
2.0899999999999994,,,,,6.8981247,-0.71979296,-1.5345224,-0.56794244,-0.09547749,0.7580067,2.1872792,-0.21109565,-0.04196706,0.1392843,-0.9665802,-8.228588,8.018666,0.8186295,0.107008725,-1.2553462,-0.13355145,1
2.099999999999999,,,,,6.8981247,-0.71979296,-1.5345224,-0.56794244,-0.17775479,0.838094,2.1953053,-0.21089093,-0.04828469,0.14040227,-0.96616817,-8.226744,7.9987564,0.7865485,-0.021952324,-1.2988722,-0.15486716,1
2.109999999999999,,,,,6.8981247,-0.71979296,-1.5345224,-0.56794244,-0.2600096,0.91798055,2.2030098,-0.21077807,-0.054683175,0.1421246,-0.96559983,-8.224092,7.9784904,0.7543319,-0.1308015,-1.3356091,-0.17513688,1
2.1199999999999988,,,,,6.8981247,-0.71979296,-1.5345224,-0.56794244,-0.3422339,0.9976624,2.2103915,-0.21075428,-0.061150838,0.14435408,-0.9648861,-8.220643,7.957795,0.72194445,-0.22267507,-1.3666162,-0.19441195,1
2.1299999999999986,,,,,6.6611347,-0.68609464,-1.108077,-0.5763799,-0.42441976,1.077135,2.2174482,-0.21081604,-0.06767763,0.14700858,-0.96403575,-8.216406,7.9366074,0.6893537,-0.30022022,-1.3927878,-0.2127412,1
2.1399999999999983,,,,,6.6611347,-0.68609464,-1.108077,-0.5763799,-0.5065602,1.1563965,2.2241669,-0.2109849,-0.0740935,0.14996971,-0.9630705,-8.211567,7.9156246,0.65428776,-0.36040664,-1.348375,-0.23058505,1
2.149999999999998,,,,,6.6611347,-0.68609464,-1.108077,-0.5763799,-0.5886487,1.2354456,2.2305336,-0.21127807,-0.08026355,0.15314041,-0.9620123,-8.206016,7.894091,0.61897707,-0.41120642,-1.3108885,-0.2475533,1
2.159999999999998,,,,,6.6611347,-0.68609464,-1.108077,-0.5763799,-0.6706782,1.3142766,2.2365458,-0.21168564,-0.0862271,0.15648538,-0.9608677,-8.199793,7.8719893,0.5834056,-0.45408332,-1.2792484,-0.26368892,1
2.1699999999999977,,,,,6.080368,0.50185084,-1.1980639,-0.6458059,-0.7526423,1.3928837,2.242201,-0.21219842,-0.09201724,0.15997478,-0.9596422,-8.192934,7.8493056,0.5475584,-0.4902733,-1.2525431,-0.27903277,1
2.1799999999999975,,,,,6.080368,0.50185084,-1.1980639,-0.6458059,-0.8345379,1.471271,2.2474694,-0.21276581,-0.09779883,0.16313437,-0.95841205,-8.186113,7.8280673,0.5060224,-0.33556524,-1.2440711,-0.29703045,1
2.1899999999999973,,,,,6.080368,0.50185084,-1.1980639,-0.6458059,-0.9163625,1.5494436,2.2523208,-0.21334486,-0.10370449,0.16558786,-0.957241,-8.178713,7.8063593,0.46423456,-0.20498303,-1.2369193,-0.31414497,1
2.199999999999997,,,,,6.080368,0.50185084,-1.1980639,-0.6458059,-0.99811006,1.627397,2.2567532,-0.21393812,-0.109716274,0.16744378,-0.95611495,-8.170705,7.7842546,0.42220852,-0.09476451,-1.2308812,-0.33041966,1
2.209999999999997,,,,,4.1363163,-0.31641355,-1.53318,-0.49659407,-1.0797744,1.7051275,2.2607644,-0.21454762,-0.11581875,0.16879345,-0.9550206,-8.162064,7.761814,0.3799547,-0.0017339755,-1.2257833,-0.34589574,1
2.2199999999999966,,,,,4.1363163,-0.31641355,-1.53318,-0.49659407,-1.1613637,1.7826685,2.2642624,-0.21517314,-0.12205312,0.17005734,-0.9538786,-8.155741,7.7463493,0.31969327,-0.05082501,-1.2737104,-0.35329053,1
