t,px,py,pz,qx,qy,qz,qw,vx,vy,vz,wx,wy,wz,throttle_mpc,roll_mpc,pitch_mpc,yaw_mpc,throttle_nw,roll_nw,pitch_nw,yaw_nw,network_used
-2.0,16.658035,-10.491577000000001,1.3071088,0.39882177,-0.23792987,-0.87696874,-0.123516634,-8.7808275,-3.4840910000000003,-0.582589,1.3861026,-0.16205937,-0.108736776,12.67817691351136,5.9999996097276656,-5.999999884295017,-3.8941502523367566,7.7341557,-1.2035377,-1.9020522000000002,-0.20942953,0
-1.99,16.569641,-10.525943,1.3013128,0.39668754,-0.24374254,-0.8757588,-0.12757328,-8.897382,-3.3890178,-0.5769678,1.5232841000000001,-0.49033590000000005,-0.24240860000000003,12.67817691351136,5.9999996097276656,-5.999999884295017,-3.8941502523367566,12.220922,-1.6036652,-3.3256044,0.038209405,0
-1.98,16.4801,-10.559356,1.2955616,0.39319074,-0.24970719,-0.87486607,-0.13287774,-9.010057000000002,-3.2934964,-0.5736018,1.6754732,-0.803895,-0.37278,12.67817691351136,5.9999996097276656,-5.999999884295017,-3.8941502523367566,12.220922,-1.6036652,-3.3256044,0.038209405,0
-1.97,16.389454,-10.591809,1.2898341,0.38837096,-0.25588536,-0.87421405,-0.13942811,-9.118438000000001,-3.1974142000000003,-0.5721425,1.8398331,-1.1045322,-0.49996802,12.67817691351136,5.9999996097276656,-5.999999884295017,-3.8941502523367566,12.220922,-1.6036652,-3.3256044,0.038209405,0
-1.96,16.297749,-10.623301,1.2841132,0.38225767,-0.2623233,-0.8737234,-0.14721665,-9.222127,-3.1006665,-0.5722917,2.0139593999999996,-1.3937528000000001,-0.62408316,12.67817691351136,5.9999996097276656,-5.999999884295017,-3.8941502523367566,10.57616,-0.96782565,-3.5862211999999998,-0.17450634,0
-1.95,16.205029999999997,-10.653821,1.2783836000000002,0.37487182,-0.26905385,-0.8733116,-0.1562301,-9.320742,-3.003167,-0.57379776,2.1958130000000002,-1.6728183999999997,-0.74522984,12.67817691351136,5.9999996097276656,-5.999999884295017,-3.8941502523367566,10.57616,-0.96782565,-3.5862211999999998,-0.17450634,0
-1.94,16.111355,-10.683361999999999,1.2726332,0.3662273,-0.2760982,-0.8728927,-0.1664499,-9.413911,-2.9048526000000003,-0.5764523,2.3836656,-1.9427861000000002,-0.86350673,12.67817691351136,5.9999996097276656,-5.999999884295017,-3.8941502523367566,10.57616,-0.96782565,-3.5862211999999998,-0.17450634,0
-1.93,16.016773,-10.711917,1.2668511,0.35633215,-0.28346688,-0.87237734,-0.17785229,-9.501275999999999,-2.8056927000000003,-0.5800871,2.576053,-2.2045424,-0.97900707,12.67817691351136,5.9999996097276656,-5.999999884295017,-3.8941502523367566,10.57616,-0.96782565,-3.5862211999999998,-0.17450634,0
-1.92,15.92135,-10.739474000000001,1.2610284,0.34518987,-0.29116103,-0.87167287,-0.19040832,-9.582488,-2.7056916,-0.58457196,2.771734,-2.4588308,-1.0918192,14.201350749127574,5.999999592362998,-5.999999900053601,-4.081209248953761,13.541595000000001,-0.9687735999999999,-4.458099400000001,0.12366912,0
-1.91,15.825113,-10.765983,1.2551981,0.332768,-0.29918920000000004,-0.8706789,-0.20413049,-9.663813000000001,-2.595987,-0.5816066,2.9846535,-2.7213333,-1.2125466999999999,14.201350749127574,5.999999592362998,-5.999999900053601,-4.081209248953761,13.541595000000001,-0.9687735999999999,-4.458099400000001,0.12366912,0
-1.9,15.7281,-10.79139,1.2493937,0.31902888,-0.30755147,-0.8692873999999999,-0.21902469,-9.737706,-2.4854856,-0.5793776999999999,3.1991954,-2.9777856,-1.3304663,14.201350749127574,5.999999592362998,-5.999999900053601,-4.081209248953761,13.541595000000001,-0.9687735999999999,-4.458099400000001,0.12366912,0
-1.89,15.630386999999999,-10.81569,1.243608,0.30396494,-0.3162238,-0.8673879999999999,-0.23504360000000002,-9.803799,-2.374325,-0.57785016,3.4145462999999996,-3.2285673999999998,-1.4456656,14.201350749127574,5.999999592362998,-5.999999900053601,-4.081209248953761,13.541595000000001,-0.9687735999999999,-4.458099400000001,0.12366912,0
-1.8800000000000001,15.532054,-10.838875999999999,1.2378341,0.28756836,-0.32517448,-0.8648665999999999,-0.25213352,-9.86174,-2.262701,-0.5770253000000001,3.6300172999999996,-3.4739961999999998,-1.5582274999999999,14.201350749127574,5.999999592362998,-5.999999900053601,-4.081209248953761,13.541595000000001,-0.9687735999999999,-4.458099400000001,0.12366912,0
-1.87,15.433183999999999,-10.860944,1.2320648,0.26983228,-0.33436465,-0.86160547,-0.27023405,-9.911205,-2.1508667,-0.5769394,3.8450252999999996,-3.714339,-1.6682310000000002,16.053923672033974,5.2551123349773805,-5.999999850124262,-3.6231426515265457,12.503507,-1.3975421000000001,-4.7347779999999995,0.24805436,0
-1.8599999999999999,15.333851999999998,-10.88187,1.2263125,0.25045389999999995,-0.34368783,-0.8575643000000001,-0.28936931,-9.953673,-2.0341754,-0.5733224,4.0642867,-4.0712779999999995,-1.7641591,16.053923672033974,5.2551123349773805,-5.999999850124262,-3.6231426515265457,12.503507,-1.3975421000000001,-4.7347779999999995,0.24805436,0
-1.85,15.234139,-10.901621,1.2206025,0.22931089999999998,-0.35297367,-0.85267806,-0.30946052,-9.987259,-1.9156625,-0.5685021,4.2493906,-4.372526000000001,-1.8553799,16.053923672033974,5.2551123349773805,-5.999999850124262,-3.6231426515265457,12.503507,-1.3975421000000001,-4.7347779999999995,0.24805436,0
-1.84,15.134139999999999,-10.920179,1.2149464,0.20664810000000003,-0.3620973,-0.8468075,-0.33030105,-10.011289999999999,-1.795839,-0.5625349000000001,4.4056644,-4.6267676,-1.9421244999999998,16.98682628070736,3.1075957012813853,-5.563864003363796,-1.300265162021791,15.021151000000001,-0.66371727,-4.1440263,0.11931106400000001,0
-1.83,15.033945000000001,-10.9375,1.2093856,0.18301818,-0.37035128,-0.84022623,-0.35123172,-10.026067999999999,-1.6683308999999997,-0.5494171999999999,4.2031446,-4.772565,-1.9106281999999999,16.98682628070736,3.1075957012813853,-5.563864003363796,-1.300265162021791,15.021151000000001,-0.66371727,-4.1440263,0.11931106400000001,0
-1.82,14.933657,-10.953547,1.2039615,0.1588925,-0.3772072,-0.8332403,-0.37172323,-10.030096,-1.5409709999999999,-0.5352259,4.032236,-4.895675700000001,-1.8806776,16.98682628070736,3.1075957012813853,-5.563864003363796,-1.300265162021791,15.021151000000001,-0.66371727,-4.1440263,0.11931106400000001,0
-1.81,14.833382,-10.968324,1.1986846000000002,0.13435759,-0.38280833,-0.8257834000000001,-0.39177442,-10.023454,-1.4146469,-0.51999336,3.8880043,-4.9996305,-1.8521965,16.98682628070736,3.1075957012813853,-5.563864003363796,-1.300265162021791,15.021151000000001,-0.66371727,-4.1440263,0.11931106400000001,0
-1.8,14.733224,-10.981846,1.1935648,0.109487735,-0.38727644,-0.8178002,-0.4113778,-10.006264999999999,-1.2901976000000002,-0.5037996,3.7662837999999996,-5.087409,-1.8251130000000002,16.867323280581846,1.9712897630292825,-4.350152874581034,-1.0878104701293316,15.399481,-1.3942861999999998,-2.858149,0.72849923,0
-1.79,14.633289999999999,-10.99414,1.1886072,0.08492473,-0.39055622,-0.8093948000000001,-0.43027106,-9.97894,-1.169263,-0.48757464,3.4866099999999998,-4.9720187000000005,-1.7889334,16.867323280581846,1.9712897630292825,-4.350152874581034,-1.0878104701293316,15.399481,-1.3942861999999998,-2.858149,0.72849923,0
-1.7799999999999998,14.533679999999999,-11.005239999999999,1.1838156000000002,0.061189637000000005,-0.39264563,-0.8007098000000001,-0.44827273,-9.941888,-1.0516237,-0.47064948,3.2505193,-4.874691,-1.7545291,16.867323280581846,1.9712897630292825,-4.350152874581034,-1.0878104701293316,15.399481,-1.3942861999999998,-2.858149,0.72849923,0
-1.77,14.434485,-11.015184,1.1791961000000002,0.0381758,-0.39370838,-0.7917488,-0.4654777,-9.895703999999999,-0.9378337,-0.45315474,3.0512202,-4.792597,-1.721813,16.867323280581846,1.9712897630292825,-4.350152874581034,-1.0878104701293316,15.399481,-1.3942861999999998,-2.858149,0.72849923,0
-1.7599999999999998,14.335795000000001,-11.024013,1.1747538999999998,0.015790496,-0.39387953,-0.7825099,-0.48196176,-9.840945,-0.82837766,-0.43521824,2.882979,-4.7233505,-1.6907023,16.867323280581846,1.9712897630292825,-4.350152874581034,-1.0878104701293316,15.875176999999999,-1.8171631999999998,-0.8479110999999999,0.5116678,0
-1.75,14.237694,-11.03177,1.1704926000000002,-0.00604611,-0.39327070000000003,-0.77298814,-0.49778540000000004,-9.778131,-0.7236835,-0.41696775,2.7409556,-4.6649413,-1.6611181000000002,16.867323280581846,1.9712897630292825,-4.350152874581034,-1.0878104701293316,15.875176999999999,-1.8171631999999998,-0.8479110999999999,0.5116678,0
-1.7399999999999998,14.140258,-11.038505,1.1664151000000003,-0.027402166000000002,-0.3919743,-0.763177,-0.5129965999999999,-9.707751,-0.6241321999999999,-0.39853272,2.6210644,-4.615672,-1.6329858,16.867323280581846,1.9712897630292825,-4.350152874581034,-1.0878104701293316,15.875176999999999,-1.8171631999999998,-0.8479110999999999,0.5116678,0
-1.73,14.043563,-11.044271,1.1625223,-0.048335344,-0.39006692,-0.75306964,-0.5276334,-9.63027,-0.5300657,-0.3800453,2.5198565,-4.574113400000001,-1.6062338,16.867323280581846,1.9712897630292825,-4.350152874581034,-1.0878104701293316,15.875176999999999,-1.8171631999999998,-0.8479110999999999,0.5116678,0
-1.72,13.947676999999999,-11.049126,1.158814,-0.06889401,-0.38761204,-0.7426595,-0.54172575,-9.546130999999999,-0.44179237,-0.36164075,2.4344194,-4.5390573,-1.5807947,16.433129240181344,0.0985235741720171,-2.3504326067164283,0.05815214480255328,16.707333,-2.3749754000000003,0.5514375,0.83220774,0
-1.71,13.852651000000002,-11.053139,1.1552738,-0.08817365,-0.38454336,-0.7323814999999999,-0.55494916,-9.458155999999999,-0.36166129999999996,-0.34643272,2.0707104,-4.197258000000001,-1.5003711000000002,16.433129240181344,0.0985235741720171,-2.3504326067164283,0.05815214480255328,16.707333,-2.3749754000000003,0.5514375,0.83220774,0
-1.7,13.758531,-11.056379,1.1518846,-0.10547145,-0.38085273,-0.72265786,-0.5670909000000001,-9.364980000000001,-0.28732646,-0.33142582,1.7636262999999999,-3.9088578000000003,-1.4238939,16.433129240181344,0.0985235741720171,-2.3504326067164283,0.05815214480255328,16.707333,-2.3749754000000003,0.5514375,0.83220774,0
-1.69,13.665366,-11.058905000000001,1.1486447,-0.12109803400000001,-0.37665802,-0.7134524999999999,-0.57831573,-9.267411,-0.21860293,-0.31657179999999996,1.5043544,-3.6655097000000003,-1.3511695,16.433129240181344,0.0985235741720171,-2.3504326067164283,0.05815214480255328,16.707333,-2.3749754000000003,0.5514375,0.83220774,0
-1.68,13.573196,-11.06077,1.1455528999999998,-0.13531700000000002,-0.37205037,-0.7047228,-0.58875555,-9.166125,-0.15530616,-0.30181646,1.2854527,-3.460173,-1.2820136999999998,16.144620264075296,-2.063706076932703,0.06092948498446998,1.89562415890324,17.244885999999997,-3.2886903,2.2820277,1.1406451000000002,0
-1.67,13.482053,-11.06203,1.1426068999999999,-0.14725289,-0.36695793,-0.6970344,-0.59816474,-9.062267,-0.09747635,-0.2876223,0.74287426,-2.9315462,-1.1280217,16.144620264075296,-2.063706076932703,0.06092948498446998,1.89562415890324,17.244885999999997,-3.2886903,2.2820277,1.1406451000000002,0
-1.66,13.391952999999999,-11.062737,1.1397964,-0.15623482,-0.36144093,-0.6908751999999999,-0.60633504,-8.957460000000001,-0.044852585,-0.274486,0.30382955,-2.4664593,-0.9798315999999999,16.144620264075296,-2.063706076932703,0.06092948498446998,1.89562415890324,17.244885999999997,-3.2886903,2.2820277,1.1406451000000002,0
-1.65,13.302907999999999,-11.06294,1.1371185,-0.1627469,-0.35565728,-0.68609136,-0.61343265,-8.851462,0.0038359957000000003,-0.26097178,-0.06494219,-2.072083,-0.8387321,16.144620264075296,-2.063706076932703,0.06092948498446998,1.89562415890324,17.244885999999997,-3.2886903,2.2820277,1.1406451000000002,0
-1.64,13.214926,-11.062672000000001,1.1345794,-0.16719808,-0.3496645,-0.6825408000000001,-0.6196106,-8.744808,0.049246877,-0.24670345,-0.3763127,-1.7393023999999997,-0.70455647,17.724151642637253,-4.0039108419300184,3.049163646938977,2.220158110013776,17.734121,-4.906808,3.0094347000000004,1.6735057,1
-1.63,13.128063000000001,-11.061942,1.1322435,-0.16840987,-0.34346393,-0.6806675999999999,-0.6247895,-8.627603,0.09618665,-0.22026953,-1.0824218,-0.99849516,-0.5878642,17.724151642637253,-4.0039108419300184,3.049163646938977,2.220158110013776,17.734121,-4.906808,3.0094347000000004,1.6735057,1
-1.6199999999999999,13.04237,-11.060754,1.1301795000000001,-0.16545728,-0.33706123,-0.6807934,-0.62891454,-8.511367,0.14128128,-0.19225425,-1.6785637999999998,-0.3733515,-0.47689807,17.724151642637253,-4.0039108419300184,3.049163646938977,2.220158110013776,17.734121,-4.906808,3.0094347000000004,1.6735057,1
-1.6099999999999999,12.957828999999998,-11.059119,1.1284056,-0.15899156,-0.33048207,-0.68260396,-0.63210344,-8.397119,0.18564767,-0.16218273,-2.1818516,0.15420033,-0.37137714,17.724151642637253,-4.0039108419300184,3.049163646938977,2.220158110013776,17.734121,-4.906808,3.0094347000000004,1.6735057,1
-1.5999999999999999,12.874417,-11.057039999999999,1.1269441,-0.14955674,-0.32373312,-0.6858062,-0.6344281999999999,-8.285733,0.23022716,-0.12968968,-2.6067371,0.59940636,-0.27103415,18.629808270045615,-4.771678244469075,4.535915082927455,2.3078531312559267,17.504623000000002,-4.856380000000001,4.6443887,1.2287621000000002,0
-1.5899999999999999,12.7921295,-11.0545,1.1258544,-0.13724909999999999,-0.3172241,-0.69025475,-0.6356725999999999,-8.172547999999999,0.27815342,-0.08780083,-2.9443471000000003,1.213121,-0.14448740000000002,18.629808270045615,-4.771678244469075,4.535915082927455,2.3078531312559267,17.504623000000002,-4.856380000000001,4.6443887,1.2287621000000002,0
-1.5799999999999998,12.710951,-11.05147,1.1251978999999999,-0.12216707,-0.31127176,-0.69580054,-0.6356465,-8.063951,0.32817036,-0.043041915,-3.2294035,1.7310838,-0.024150337999999997,18.629808270045615,-4.771678244469075,4.535915082927455,2.3078531312559267,17.504623000000002,-4.856380000000001,4.6443887,1.2287621000000002,0
-1.5699999999999998,12.630832,-11.047927,1.1250031999999999,-0.10473609,-0.30574524,-0.70218563,-0.63441724,-7.96065,0.38118163,0.004535174,-3.4700735000000003,2.1682412999999996,0.09028175,18.629808270045615,-4.771678244469075,4.535915082927455,2.3078531312559267,17.504623000000002,-4.856380000000001,4.6443887,1.2287621000000002,0
-1.5599999999999998,12.551717,-11.043835000000001,1.1252978,-0.08531824,-0.30053073,-0.7091808000000001,-0.6320319000000001,-7.863311,0.43790668,0.054791037,-3.673258,2.5372063999999996,0.19909862,18.629808270045615,-4.771678244469075,4.535915082927455,2.3078531312559267,17.482885,-4.3914013,4.801788,0.5695965000000001,0
-1.5499999999999998,12.473542,-11.039154,1.1261075,-0.06422363,-0.295531,-0.7165841,-0.628525,-7.7725577,0.49890068,0.10750529,-3.8447876000000005,2.8486228,0.30257583,18.629808270045615,-4.771678244469075,4.535915082927455,2.3078531312559267,17.482885,-4.3914013,4.801788,0.5695965000000001,0
-1.5399999999999998,12.396239999999999,-11.03384,1.1274553999999999,-0.04171949,-0.29066432,-0.72421896,-0.6239233000000001,-7.688981,0.5645718000000001,0.16238475,-3.9895859,3.111471,0.40097540000000004,18.629808270045615,-4.771678244469075,4.535915082927455,2.3078531312559267,17.482885,-4.3914013,4.801788,0.5695965000000001,0
-1.5299999999999998,12.319736500000001,-11.027845,1.1293613999999998,-0.018037332,-0.28586277,-0.7319319999999999,-0.61824936,-7.6131344,0.63519627,0.21907246,-4.111813,3.3333302000000002,0.49454644,18.629808270045615,-4.771678244469075,4.535915082927455,2.3078531312559267,17.482885,-4.3914013,4.801788,0.5695965000000001,0
-1.5199999999999998,12.243951,-11.021119,1.1318415000000002,0.0066211740000000005,-0.2810709,-0.7395901,-0.61152375,-7.545534599999999,0.7109319000000001,0.27715677,-4.2149825,3.5205953,0.5835259,19.17896942345075,-4.5836515787034235,4.828555800120789,2.2344000629471563,18.579266,-3.0115333,3.6733767999999998,0.60403234,0
-1.5099999999999998,12.168806,-11.013597500000001,1.1349308,0.032123182,-0.27637058,-0.74704975,-0.6037413,-7.4849205,0.79422426,0.34080574,-4.27275,3.7243235,0.66453475,19.17896942345075,-4.5836515787034235,4.828555800120789,2.2344000629471563,18.579266,-3.0115333,3.6733767999999998,0.60403234,0
-1.4999999999999998,12.09422,-11.005216,1.1386592,0.058349925999999996,-0.27182552,-0.754184,-0.59490514,-7.4337115,0.8828581,0.40486485,-4.3215046,3.8962898,0.74156845,19.17896942345075,-4.5836515787034235,4.828555800120789,2.2344000629471563,18.579266,-3.0115333,3.6733767999999998,0.60403234,0
-1.4899999999999998,12.020099,-10.995922,1.1430277,0.085154,-0.26737034,-0.7609087,-0.58504635,-7.392287700000001,0.9767707,0.46874592,-4.3626485,4.041448,0.8148221999999999,19.17896942345075,-4.5836515787034235,4.828555800120789,2.2344000629471563,18.579266,-3.0115333,3.6733767999999998,0.60403234,0
-1.4799999999999998,11.946341,-10.985664,1.1480315,0.11240435,-0.26295167,-0.76715165,-0.57419467,-7.360985,1.0758071000000002,0.5318440999999999,-4.3973675000000005,4.163979,0.8844813,18.857036631312038,-3.691214954472783,4.1284838112068964,2.0307701565220637,19.085321,-2.2810528,3.0515432000000002,1.6487596000000002,0
-1.4699999999999998,11.872842,-10.9744,1.1536463,0.13957265,-0.25864083,-0.77278394,-0.56252015,-7.340406,1.1779728999999999,0.5908661000000001,-4.2873925999999996,4.158348999999999,0.94073004,18.857036631312038,-3.691214954472783,4.1284838112068964,2.0307701565220637,19.085321,-2.2810528,3.0515432000000002,1.6487596000000002,0
-1.4599999999999997,11.799498,-10.9620905,1.1598421,0.16623779,-0.25450793,-0.77773666,-0.5501963000000001,-7.3300241999999995,1.2845546,0.6479482,-4.194561,4.153601999999999,0.99421865,18.857036631312038,-3.691214954472783,4.1284838112068964,2.0307701565220637,19.085321,-2.2810528,3.0515432000000002,1.6487596000000002,0
-1.4499999999999997,11.726207,-10.948694999999999,1.1665968,0.1924356,-0.25051025,-0.7820308000000001,-0.5372528,-7.3297490000000005,1.3951327,0.70256215,-4.1162,4.149598999999999,1.0450826,18.857036631312038,-3.691214954472783,4.1284838112068964,2.0307701565220637,19.085321,-2.2810528,3.0515432000000002,1.6487596000000002,0
-1.4399999999999997,11.652868,-10.9341755,1.1738831,0.21819356,-0.24661128,-0.7856820999999999,-0.5237153,-7.339485000000001,1.5092782,0.75421304,-4.050052,4.1462235,1.0934504999999999,17.774993602021176,-2.3264450313583596,2.795997797825164,1.7413712158881136,20.344885,-2.748866,3.0138571,1.7322031000000002,0
-1.4299999999999997,11.579388,-10.918532,1.1816271999999999,0.24284118,-0.24292897,-0.78868127,-0.5098971999999999,-7.3579445,1.6198088,0.7940599,-3.7811887000000004,3.9357687999999995,1.1252440000000001,17.774993602021176,-2.3264450313583596,2.795997797825164,1.7413712158881136,20.344885,-2.748866,3.0138571,1.7322031000000002,0
-1.4199999999999997,11.505678,-10.901771,1.1897525,0.2658682,-0.23957637,-0.79107964,-0.4960945,-7.385211,1.7327756,0.8304328000000001,-3.5542665,3.758118,1.1554776000000002,17.774993602021176,-2.3264450313583596,2.795997797825164,1.7413712158881136,20.344885,-2.748866,3.0138571,1.7322031000000002,0
-1.4099999999999997,11.431654,-10.883869,1.1982233999999998,0.28750852,-0.23651418,-0.7929611999999999,-0.48229859999999997,-7.4207563,1.8477105,0.86315763,-3.3627434000000003,3.6081564,1.1842275,17.774993602021176,-2.3264450313583596,2.795997797825164,1.7413712158881136,20.344885,-2.748866,3.0138571,1.7322031000000002,0
-1.3999999999999997,11.357235000000001,-10.86481,1.2070026000000003,0.30795854,-0.23370537,-0.7943889000000001,-0.46849665,-7.464115,1.9642028000000002,0.8920964,-3.201098,3.481568,1.2115666,16.911612680124485,-0.7777315885068582,1.2007171366040146,1.3835553612631917,18.215002,-2.4232283,1.8405697,1.3647211000000001,0
-1.3899999999999997,11.282357000000001,-10.844608000000001,1.2160218999999999,0.32660252,-0.23130195,-0.7954566,-0.45505872,-7.5123524999999995,2.0761633,0.9111870000000001,-2.8229122,3.1261532,1.220006,16.911612680124485,-0.7777315885068582,1.2007171366040146,1.3835553612631917,18.215002,-2.4232283,1.8405697,1.3647211000000001,0
-1.3799999999999997,11.206966,-10.823284,1.2252142,0.3429868,-0.22943902,-0.796289,-0.4423132000000001,-7.566847,2.1889122000000003,0.9267299000000001,-2.5037441000000005,2.8261228,1.2280313,16.911612680124485,-0.7777315885068582,1.2007171366040146,1.3835553612631917,18.215002,-2.4232283,1.8405697,1.3647211000000001,0
-1.3699999999999997,11.131001,-10.800829,1.234545,0.35747766,-0.22805654,-0.79695916,-0.43018064,-7.6268682,2.3021777,0.9389284999999999,-2.2343838,2.5728457000000002,1.2356629,16.911612680124485,-0.7777315885068582,1.2007171366040146,1.3835553612631917,18.215002,-2.4232283,1.8405697,1.3647211000000001,0
-1.3599999999999997,11.054412,-10.777239,1.243982,0.3703804,-0.22709782,-0.79751575,-0.41858447,-7.691803,2.415755,0.9479803,-2.0070589,2.3590362000000002,1.24292,16.911612680124485,-0.7777315885068582,1.2007171366040146,1.3835553612631917,17.15879,-1.2735113999999998,1.3093989,1.1159555,1
-1.3499999999999996,10.977145,-10.752504,1.2535020000000001,0.38207313,-0.22635755,-0.7980045,-0.4073949,-7.7621636,2.531145,0.95559114,-1.8925211,2.1954463,1.2366899,16.911612680124485,-0.7777315885068582,1.2007171366040146,1.3835553612631917,17.15879,-1.2735113999999998,1.3093989,1.1159555,1
-1.3399999999999996,10.899155,-10.726616,1.2630838,0.39286247,-0.22566289,-0.7984503000000001,-0.39649954,-7.836653699999999,2.6465194,0.9603527000000001,-1.7958676,2.057352,1.2307655,16.911612680124485,-0.7777315885068582,1.2007171366040146,1.3835553612631917,17.15879,-1.2735113999999998,1.3093989,1.1159555,1
-1.3299999999999996,10.820397999999999,-10.699574,1.2726996000000002,0.4028865,-0.22500904,-0.7988541,-0.38585597,-7.915006,2.7617235,0.9624010000000001,-1.714306,1.9407806,1.2251316,16.911612680124485,-0.7777315885068582,1.2007171366040146,1.3835553612631917,17.15879,-1.2735113999999998,1.3093989,1.1159555,1
-1.3199999999999996,10.740842,-10.671383,1.2823229,0.4122607,-0.22439046,-0.79921466,-0.37542668,-7.996991599999999,2.8766258,0.9618552,-1.6454793,1.8423777,1.2197742,16.044110882396215,0.6858510848855793,-0.3606253327860667,1.0193863406553996,15.446235999999999,-0.90299046,0.93267703,0.83383805,0
-1.3099999999999996,10.660476,-10.642081,1.2918972,0.42026204,-0.22417693,-0.7996321,-0.36566684,-8.076802,2.9836897999999996,0.9526806000000001,-1.2816273,1.4991177,1.2099411,16.044110882396215,0.6858510848855793,-0.3606253327860667,1.0193863406553996,15.446235999999999,-0.90299046,0.93267703,0.83383805,0
-1.2999999999999996,10.579297,-10.611711,1.3013698,0.42634209999999995,-0.22467314,-0.80021155,-0.35695252,-8.159206,3.0904005,0.94154733,-0.9745645000000001,1.2093397,1.2005906000000002,16.044110882396215,0.6858510848855793,-0.3606253327860667,1.0193863406553996,15.446235999999999,-0.90299046,0.93267703,0.83383805,0
-1.2899999999999996,10.497285,-10.580275,1.3107227,0.43081963,-0.22578196,-0.80094737,-0.34914115,-8.243617,3.1968312,0.92881906,-0.71542656,0.96471137,1.1916988000000002,16.044110882396215,0.6858510848855793,-0.3606253327860667,1.0193863406553996,15.446235999999999,-0.90299046,0.93267703,0.83383805,0
-1.2799999999999996,10.41442,-10.547775,1.3199418,0.43395805,-0.22741722,-0.8018255,-0.34210655,-8.32955,3.3030648,0.91480875,-0.49673352,0.7581984,1.1832435,15.557010007267053,2.0591706639911496,-1.8423045607542965,0.6531498776839872,14.761154000000001,0.41756192,-0.12456013,0.43530813,0
-1.2699999999999996,10.330703999999999,-10.51423,1.3290028999999999,0.43532425,-0.22972362,-0.80294627,-0.33614936,-8.413914,3.4059763,0.89729303,-0.09782299,0.35296059999999996,1.1572316999999999,15.557010007267053,2.0591706639911496,-1.8423045607542965,0.6531498776839872,14.761154000000001,0.41756192,-0.12456013,0.43530813,0
-1.2599999999999996,10.246141,-10.479655000000001,1.3378858999999999,0.43458903,-0.23281214,-0.80438346,-0.33150783,-8.498699,3.508949,0.87925583,0.23881702,0.010860063,1.1324962,15.557010007267053,2.0591706639911496,-1.8423045607542965,0.6531498776839872,14.761154000000001,0.41756192,-0.12456013,0.43530813,0
-1.2499999999999996,10.160730000000001,-10.444051,1.3465877,0.43208754,-0.23656370000000002,-0.80607647,-0.32799098,-8.583295,3.6121552,0.86111873,0.5229092000000001,-0.27793829999999997,1.1089746,15.557010007267053,2.0591706639911496,-1.8423045607542965,0.6531498776839872,14.761154000000001,0.41756192,-0.12456013,0.43530813,0
-1.2399999999999995,10.074478,-10.407411,1.3551091,0.42809626,-0.24087352,-0.80796456,-0.32543224,-8.667182,3.7157485,0.84322643,0.76265687,-0.52173835,1.0866071000000002,15.827947843246866,3.011116457640138,-2.992895511640732,0.3030105539103053,15.190107000000001,1.4792037,-1.4543594,-0.17339134,0
-1.2299999999999995,9.987384,-10.369723,1.363461,0.42235795,-0.24578993,-0.81007856,-0.32399562,-8.751322,3.821684,0.82728666,1.1135534,-0.90689313,1.0481558000000002,15.827947843246866,3.011116457640138,-2.992895511640732,0.3030105539103053,15.190107000000001,1.4792037,-1.4543594,-0.17339134,0
-1.2199999999999995,9.899457,-10.330974000000001,1.371658,0.41467390000000004,-0.25134066,-0.81241924,-0.3238021,-8.833636,3.92832,0.8122825,1.4096705,-1.2320353000000002,1.0115912,15.827947843246866,3.011116457640138,-2.992895511640732,0.3030105539103053,15.190107000000001,1.4792037,-1.4543594,-0.17339134,0
-1.2099999999999995,9.810719500000001,-10.291153999999999,1.3797110000000001,0.40533155,-0.25741094,-0.81488824,-0.32465738,-8.913518,4.0357995,0.7985543,1.6595620999999998,-1.5065131999999999,0.97682095,15.827947843246866,3.011116457640138,-2.992895511640732,0.3030105539103053,15.190107000000001,1.4792037,-1.4543594,-0.17339134,0
-1.1999999999999995,9.721197,-10.250255000000001,1.3876342,0.39457040000000004,-0.26390055,-0.8173968,-0.32639325,-8.990432,4.1442266000000005,0.7863566999999999,1.8704464,-1.7382196,0.9437568999999999,16.461069236744294,3.427588001459656,-3.5358556686374616,0.044301368002115135,15.132429,1.352042,-2.051152,-0.0977917,0
-1.1899999999999995,9.630908,-10.208244,1.3954613,0.3823664,-0.27077475,-0.81989443,-0.32901284,-9.066822,4.258047,0.77938515,2.1133962000000004,-2.0184712,0.89962035,16.461069236744294,3.427588001459656,-3.5358556686374616,0.044301368002115135,15.132429,1.352042,-2.051152,-0.0977917,0
-1.1799999999999995,9.539876,-10.16509,1.4032286,0.36870694,-0.27799535,-0.82232064,-0.33250840000000004,-9.139058,4.372971499999999,0.774392,2.318421,-2.25505,0.8576495999999999,16.461069236744294,3.427588001459656,-3.5358556686374616,0.044301368002115135,15.132429,1.352042,-2.051152,-0.0977917,0
-1.1699999999999995,9.448144000000001,-10.120781,1.4109565,0.35379309999999997,-0.28547624,-0.82458854,-0.33672953,-9.206611,4.4890084,0.7715098000000001,2.4914427000000003,-2.4547591,0.8177384,16.461069236744294,3.427588001459656,-3.5358556686374616,0.044301368002115135,15.132429,1.352042,-2.051152,-0.0977917,0
-1.1599999999999995,9.3557625,-10.075307,1.4186664,0.33779562,-0.29314315,-0.8266235000000001,-0.34154657,-9.269003999999999,4.606124400000001,0.7708003000000001,2.637459,-2.6233432,0.77978563,16.461069236744294,3.427588001459656,-3.5358556686374616,0.044301368002115135,14.954823999999999,1.4579767,-2.4785397000000002,-0.26029077,0
-1.1499999999999995,9.262784,-10.028655,1.42638,0.32086036,-0.30093205,-0.8283626000000001,-0.3468476,-9.325814,4.724248,0.77226424,2.7606866,-2.7656512,0.74369526,16.461069236744294,3.427588001459656,-3.5358556686374616,0.044301368002115135,14.954823999999999,1.4579767,-2.4785397000000002,-0.26029077,0
-1.1399999999999995,9.169267999999999,-9.980819,1.4341190000000001,0.30311263,-0.30878794,-0.8297530999999999,-0.35253623,-9.376664,4.8432755,0.7758506,2.8646832000000004,-2.8857777000000002,0.7093758000000001,16.461069236744294,3.427588001459656,-3.5358556686374616,0.044301368002115135,14.954823999999999,1.4579767,-2.4785397000000002,-0.26029077,0
-1.1299999999999994,9.0752735,-9.9317875,1.4419041000000001,0.2846606,-0.3166638,-0.8307515999999999,-0.35852933,-9.421218,4.9630737,0.7814635999999999,2.9524512,-2.9871790000000003,0.6767404,16.461069236744294,3.427588001459656,-3.5358556686374616,0.044301368002115135,14.954823999999999,1.4579767,-2.4785397000000002,-0.26029077,0
-1.1199999999999994,8.980867,-9.881554,1.4497547,0.26559827,-0.32451929999999996,-0.8313226999999999,-0.36475524,-9.459182,5.083485,0.7889703,3.026524,-3.0727732000000003,0.6457065,16.98122309262185,3.3563846063939766,-3.5760233356549436,-0.19893069676399672,14.816954,1.1650379,-2.7601807000000003,-0.05302450400000001,0
-1.1099999999999994,8.88611,-9.830096000000001,1.4577062,0.24601431,-0.33228270000000004,-0.8314405999999999,-0.37117487,-9.491283000000001,5.2081475,0.80159897,3.0779137999999997,-3.1513162,0.6042599,16.98122309262185,3.3563846063939766,-3.5760233356549436,-0.19893069676399672,14.816954,1.1650379,-2.7601807000000003,-0.05302450400000001,0
-1.0999999999999994,8.791067,-9.7773905,1.4657921999999999,0.22598797,-0.33989462,-0.83108336,-0.3777574,-9.516103,5.3330407,0.8158261,3.1212847000000004,-3.2176123,0.5648470999999999,16.98122309262185,3.3563846063939766,-3.5760233356549436,-0.19893069676399672,14.816954,1.1650379,-2.7601807000000003,-0.05302450400000001,0
-1.0899999999999994,8.695813000000001,-9.723435,1.4740275,0.20558296,-0.34734035,-0.8302309000000001,-0.3844557,-9.533457,5.4579344,0.83144504,3.1578891,-3.27357,0.52736825,16.98122309262185,3.3563846063939766,-3.5760233356549436,-0.19893069676399672,14.816954,1.1650379,-2.7601807000000003,-0.05302450400000001,0
-1.0799999999999994,8.600423,-9.668232000000001,1.4824251,0.18485534,-0.3546073,-0.82886773,-0.3912283,-9.543196,5.582587,0.8482293,3.1887833999999997,-3.3208010000000003,0.49172854,17.102116469926134,2.789742225201419,-3.147141175378401,-0.3730991871788373,14.2346,0.8794488000000001,-3.0659866,0.15809676,0
-1.0699999999999994,8.504974,-9.611781,1.4909995,0.16409448,-0.3615623,-0.8270280999999999,-0.3979566,-9.545236000000001,5.707632,0.86676145,3.1264532000000003,-3.2938256,0.4492912,17.102116469926134,2.789742225201419,-3.147141175378401,-0.3730991871788373,14.2346,0.8794488000000001,-3.0659866,0.15809676,0
-1.0599999999999994,8.409545,-9.554083,1.4997627,0.14353956,-0.36810726,-0.82475847,-0.40455672,-9.539563000000001,5.8319254,0.88597554,3.0738506,-3.2710464,0.40893626,17.102116469926134,2.789742225201419,-3.147141175378401,-0.3730991871788373,14.2346,0.8794488000000001,-3.0659866,0.15809676,0
-1.0499999999999994,8.314209,-9.495146,1.5087204,0.12316837,-0.3742797,-0.8220641,-0.4110402,-9.526280999999999,5.9552192999999995,0.9056291,3.0294576,-3.2518113,0.3705616,17.102116469926134,2.789742225201419,-3.147141175378401,-0.3730991871788373,14.2346,0.8794488000000001,-3.0659866,0.15809676,0
-1.0399999999999994,8.219044,-9.434982000000002,1.5178758999999997,0.102962546,-0.38011146,-0.81894946,-0.41741467,-9.505494,6.0772758,0.925486,2.9919932,-3.2355682999999997,0.33406994,16.75193447302805,1.8708435150566964,-2.4082555445918468,-0.47112370050901703,15.651978,-0.4253259,-3.77851,1.4541975,0
-1.0299999999999994,8.124121,-9.373617999999999,1.527218,0.08330841,-0.38545388,-0.8155306999999999,-0.4235492,-9.47792,6.195401,0.94290507,2.817042,-3.1066601,0.29455882,16.75193447302805,1.8708435150566964,-2.4082555445918468,-0.47112370050901703,15.651978,-0.4253259,-3.77851,1.4541975,0
-1.0199999999999994,8.029509,-9.311081,1.5367333,0.064515814,-0.39020437,-0.81192964,-0.42935744,-9.443464,6.311911,0.9601185999999999,2.6693884999999997,-2.9978382999999997,0.25698656,16.75193447302805,1.8708435150566964,-2.4082555445918468,-0.47112370050901703,15.651978,-0.4253259,-3.77851,1.4541975,0
-1.0099999999999993,7.935273599999999,-9.247386,1.5464191,0.04646639,-0.39444834,-0.80815333,-0.43490106,-9.402493,6.426653400000001,0.97697425,2.5447729,-2.9059732000000005,0.22125797,16.75193447302805,1.8708435150566964,-2.4082555445918468,-0.47112370050901703,15.651978,-0.4253259,-3.77851,1.4541975,0
-0.9999999999999991,7.841480000000001,-9.182553,1.5562711,0.029058902999999997,-0.39825684,-0.8042045,-0.440229,-9.355322,6.5394926,0.993337,2.4396,-2.8284235,0.18728258,16.64115817434853,0.8773552977075555,-1.5478156283160012,-0.5028738452625825,16.5406,-1.3009073,-4.0960019999999995,2.3081017000000004,0
-0.9899999999999991,7.7481860000000005,-9.116605999999999,1.56628,0.012660776,-0.40152434,-0.8002373,-0.44523883,-9.302621,6.649585000000001,1.0083404,2.1958861,-2.6287922999999997,0.15341641,16.64115817434853,0.8773552977075555,-1.5478156283160012,-0.5028738452625825,16.5406,-1.3009073,-4.0960019999999995,2.3081017000000004,0
-0.9799999999999991,7.6554465,-9.049567999999999,1.5764357,-0.0024410537,-0.4041828,-0.7963983,-0.44986612,-9.244567,6.7576339999999995,1.0226932,1.9901933999999997,-2.4602776,0.12121206,16.64115817434853,0.8773552977075555,-1.5478156283160012,-0.5028738452625825,16.5406,-1.3009073,-4.0960019999999995,2.3081017000000004,0
-0.9699999999999993,7.5633116,-8.98146,1.5867316,-0.016436008999999998,-0.40633497,-0.79267204,-0.45419395,-9.181648,6.863632000000001,1.0363811,1.8165892,-2.3180299,0.09058799,16.64115817434853,0.8773552977075555,-1.5478156283160012,-0.5028738452625825,16.5406,-1.3009073,-4.0960019999999995,2.3081017000000004,0
-0.9599999999999993,7.471829,-8.912303,1.5971608999999998,-0.029485475,-0.4080652,-0.7890401999999999,-0.45828828,-9.114276,6.967578,1.0494001,1.6700673,-2.1979558,0.06146663,16.64115817434853,0.8773552977075555,-1.5478156283160012,-0.5028738452625825,16.978323,-2.0928805,-3.8773004999999996,2.9040833,0
-0.9499999999999993,7.3810406,-8.842115,1.6077173,-0.04172677,-0.4094428,-0.78548366,-0.46220136,-9.042802,7.069476,1.0617518,1.5464023,-2.0965998,0.033774287,16.64115817434853,0.8773552977075555,-1.5478156283160012,-0.5028738452625825,16.978323,-2.0928805,-3.8773004999999996,2.9040833,0
-0.9399999999999993,7.290986,-8.77092,1.6183938,-0.05327663,-0.410525,-0.7819832,-0.46597454,-8.967525,7.1693316,1.0734403000000001,1.4420283999999999,-2.0110443,0.007440814699999999,16.64115817434853,0.8773552977075555,-1.5478156283160012,-0.5028738452625825,16.978323,-2.0928805,-3.8773004999999996,2.9040833,0
-0.9299999999999993,7.201702,-8.698735000000001,1.6291839,-0.06423419,-0.41135892,-0.7785209,-0.46964055,-8.888696000000001,7.26715,1.0844697,1.353936,-1.9388269,-0.017600464,16.64115817434853,0.8773552977075555,-1.5478156283160012,-0.5028738452625825,16.978323,-2.0928805,-3.8773004999999996,2.9040833,0
-0.9199999999999993,7.113223599999999,-8.625584,1.6400808999999998,-0.07468364400000001,-0.41198355,-0.7750800999999999,-0.47322512,-8.806536999999999,7.362934,1.0948434999999999,1.2795848,-1.877868,-0.04141298,16.08285572719059,-0.009041761160761356,-0.9532621195556144,-0.4340201717329573,18.290909,-2.6270368,-3.2023335,3.5038772000000002,0
-0.9099999999999993,7.025568499999999,-8.551499,1.6510603,-0.08434777,-0.41226999999999997,-0.7718169,-0.47667277,-8.724119,7.453549400000001,1.1009597,1.0786062,-1.7336845,-0.06067831,16.08285572719059,-0.009041761160761356,-0.9532621195556144,-0.4340201717329573,18.290909,-2.6270368,-3.2023335,3.5038772000000002,0
-0.8999999999999992,6.9387507,-8.476519,1.6620983,-0.09301184,-0.41212356,-0.7688647,-0.47994727,-8.639014,7.542266400000001,1.1065495,0.9089738000000002,-1.6119826000000002,-0.078998305,16.08285572719059,-0.009041761160761356,-0.9532621195556144,-0.4340201717329573,18.290909,-2.6270368,-3.2023335,3.5038772000000002,0
-0.8899999999999992,6.852795599999999,-8.400660499999999,1.6731900000000002,-0.10082622,-0.41161853,-0.7661769,-0.48309070000000004,-8.55155,7.629154700000001,1.1117232,0.765798,-1.509257,-0.09641933,16.08285572719059,-0.009041761160761356,-0.9532621195556144,-0.4340201717329573,18.290909,-2.6270368,-3.2023335,3.5038772000000002,0
-0.8799999999999992,6.767726400000001,-8.323942,1.6843317999999998,-0.10791822,-0.41081595,-0.76371133,-0.48613614,-8.461995,7.714276,1.116578,0.6449522,-1.4225492,-0.112985484,15.444758067982793,-0.8053377248502008,-0.34385404026156025,-0.2941475816209803,18.557623,-2.9728396,-3.046102,3.7310061,0
-0.8699999999999992,6.6835437,-8.246398,1.6955005,-0.114061564,-0.40964058,-0.7615982,-0.48903194,-8.37423,7.7943854,1.1171358,0.41878548,-1.2543132,-0.121875145,15.444758067982793,-0.8053377248502008,-0.34385404026156025,-0.2941475816209803,18.557623,-2.9728396,-3.046102,3.7310061,0
-0.8599999999999992,6.6002464000000005,-8.16806,1.7066743000000002,-0.11908401,-0.40803779999999995,-0.7599441,-0.49174038,-8.285034,7.8729744,1.1176343999999998,0.22788937,-1.1123139,-0.13032861,15.444758067982793,-0.8053377248502008,-0.34385404026156025,-0.2941475816209803,18.557623,-2.9728396,-3.046102,3.7310061,0
-0.8499999999999992,6.5178475,-8.0889435,1.7178535,-0.12315758,-0.40608028,-0.7586805999999999,-0.49430174,-8.194730999999999,7.9501615,1.1182319,0.06676309,-0.9924594999999999,-0.13836724,15.444758067982793,-0.8053377248502008,-0.34385404026156025,-0.2941475816209803,18.557623,-2.9728396,-3.046102,3.7310061,0
-0.8399999999999992,6.4363556,-8.009061,1.7290398,-0.12642752,-0.40382737,-0.7577473000000001,-0.49674752,-8.103588,8.0260515,1.1190648,-0.069235906,-0.89129734,-0.1460114,14.813694918930347,-1.4623941968602745,0.13961641798909186,-0.11347271738722567,17.913854999999998,-2.5671923,-2.516036,3.0590415,0
-0.8299999999999992,6.355759,-7.928441,1.7402159,-0.12874812,-0.4012223,-0.75723314,-0.49904114,-8.015601,8.09769,1.1162038,-0.28648213,-0.7305064,-0.14441471,14.813694918930347,-1.4623941968602745,0.13961641798909186,-0.11347271738722567,17.913854999999998,-2.5671923,-2.516036,3.0590415,0
-0.8199999999999992,6.2760444,-7.847110300000001,1.7513657999999999,-0.13001110000000002,-0.39822199999999996,-0.75720674,-0.5011525,-7.9273405,8.168304,1.1138538,-0.46985167,-0.5947946,-0.14289637,14.813694918930347,-1.4623941968602745,0.13961641798909186,-0.11347271738722567,17.913854999999998,-2.5671923,-2.516036,3.0590415,0
-0.8099999999999992,6.197212,-7.7650785,1.7624953,-0.13037969,-0.39488885,-0.7575897,-0.50311166,-7.839091000000001,8.238017999999999,1.1121726,-0.6246269,-0.4802496,-0.14145255,14.813694918930347,-1.4623941968602745,0.13961641798909186,-0.11347271738722567,17.913854999999998,-2.5671923,-2.516036,3.0590415,0
-0.7999999999999992,6.1192613,-7.6823535000000005,1.7736119,-0.12999168,-0.3912741,-0.7583138,-0.50494206,-7.7510943,8.306934,1.1112916000000002,-0.75526685,-0.38357058,-0.14007957,13.349415499905733,-1.7275454891916375,0.17232304784814834,0.07155157750627429,17.947435000000002,-4.021403299999999,-2.8335247000000003,4.019373000000001,0
-0.7899999999999991,6.0421453000000005,-7.5989766,1.7846756999999998,-0.12890857,-0.38734314,-0.7593747,-0.50665325,-7.672212599999999,8.368398,1.1016251,-0.9068831,-0.29687148,-0.12969479,13.349415499905733,-1.7275454891916375,0.17232304784814834,0.07155157750627429,17.947435000000002,-4.021403299999999,-2.8335247000000003,4.019373000000001,0
-0.7799999999999991,5.965815,-7.5149875,1.7956476000000003,-0.12718599,-0.3830691,-0.7607651999999999,-0.50824964,-7.5939369999999995,8.429282,1.0928917,-1.0348575,-0.22369672,-0.11981957,13.349415499905733,-1.7275454891916375,0.17232304784814834,0.07155157750627429,17.947435000000002,-4.021403299999999,-2.8335247000000003,4.019373000000001,0
-0.7699999999999991,5.890264,-7.430392299999999,1.8065372,-0.124923006,-0.37850127,-0.7624270000000001,-0.50974095,-7.5164385,8.489639,1.0851882,-1.1428758999999997,-0.16193607,-0.11042893,13.349415499905733,-1.7275454891916375,0.17232304784814834,0.07155157750627429,17.947435000000002,-4.021403299999999,-2.8335247000000003,4.019373000000001,0
-0.7599999999999991,5.815483599999999,-7.3451960000000005,1.8173553,-0.122203335,-0.373681,-0.7643101,-0.5111346999999999,-7.439866,8.549507,1.078592,-1.2340503999999999,-0.10980928,-0.101499096,13.349415499905733,-1.7275454891916375,0.17232304784814834,0.07155157750627429,16.829275,-3.8320657999999996,-3.1634736,3.8254964,0
-0.7499999999999991,5.7414629999999995,-7.259403,1.8281131000000002,-0.11909763,-0.36864305,-0.766372,-0.51243705,-7.3643484,8.608916,1.0731633999999999,-1.3110073999999998,-0.06581287,-0.09300745,13.349415499905733,-1.7275454891916375,0.17232304784814834,0.07155157750627429,16.829275,-3.8320657999999996,-3.1634736,3.8254964,0
-0.7399999999999989,5.668192400000001,-7.173019,1.8388227,-0.115665585,-0.36341658,-0.7685767,-0.5136531,-7.2899975999999995,8.6678915,1.0689487,-1.3759638,-0.028679000000000003,-0.08493250000000001,13.349415499905733,-1.7275454891916375,0.17232304784814834,0.07155157750627429,16.829275,-3.8320657999999996,-3.1634736,3.8254964,0
-0.7299999999999989,5.5956593,-7.086047,1.8494964,-0.111957625,-0.35802647,-0.77089345,-0.5147869,-7.216912700000001,8.726449,1.0659813999999999,-1.4307908999999999,0.0026630084000000003,-0.07725377,13.349415499905733,-1.7275454891916375,0.17232304784814834,0.07155157750627429,16.829275,-3.8320657999999996,-3.1634736,3.8254964,0
-0.7199999999999989,5.5238495,-6.998492,1.8601468,-0.108016394,-0.35249358,-0.7732965,-0.5158421,-7.1451826,8.784597999999999,1.064285,-1.4770683999999998,0.029116655,-0.069951855,11.504457290633338,-1.5984891620585384,-0.3192331025871546,0.2529330745058866,15.6757345,-3.5214229,-2.188784,3.563938,0
-0.7099999999999989,5.4527019999999995,-6.9103966,1.8707192,-0.10406477,-0.34677187,-0.77573645,-0.51686794,-7.084592,8.834359,1.050373,-1.4960061000000002,-0.025222905,-0.054107793,11.504457290633338,-1.5984891620585384,-0.3192331025871546,0.2529330745058866,15.6757345,-3.5214229,-2.188784,3.563938,0
-0.6999999999999991,5.3821544999999995,-6.821806,1.8811581000000002,-0.10028297,-0.34082595,-0.77817714,-0.51790065,-7.025243799999999,8.883716,1.0375767,-1.5119893999999998,-0.07108798599999999,-0.039041206,11.504457290633338,-1.5984891620585384,-0.3192331025871546,0.2529330745058866,15.6757345,-3.5214229,-2.188784,3.563938,0
-0.6899999999999991,5.3121934,-6.732723700000001,1.8914746,-0.09664655,-0.33468664,-0.78061515,-0.51892585,-6.967142599999999,8.932607,1.0258994000000001,-1.5254791,-0.10980004,-0.024713957999999998,11.504457290633338,-1.5984891620585384,-0.3192331025871546,0.2529330745058866,15.6757345,-3.5214229,-2.188784,3.563938,0
-0.679999999999999,5.2428074,-6.6431556,1.90168,-0.09313464,-0.3283802,-0.78304726,-0.5199318,-6.910292599999999,8.980977000000001,1.01534,-1.5368643,-0.14247437,-0.01108975,9.850749063863054,-1.4068590760916224,-0.765861639377853,0.4436214918477894,14.718202999999999,-3.3536657999999995,-2.55766,3.4843165999999997,0
-0.669999999999999,5.1739435,-6.5531406,1.9117217,-0.089917205,-0.3218939,-0.78544146,-0.520942,-6.862686,9.021902,0.99314976,-1.5165872999999999,-0.2397134,0.011223074,9.850749063863054,-1.4068590760916224,-0.765861639377853,0.4436214918477894,14.718202999999999,-3.3536657999999995,-2.55766,3.4843165999999997,0
-0.659999999999999,5.105551,-6.46272,1.9215461999999999,-0.08712935,-0.3152191,-0.78777575,-0.5219716,-6.8161179999999995,9.062259,0.97190213,-1.4994701000000001,-0.32178643,0.032440986,9.850749063863054,-1.4068590760916224,-0.765861639377853,0.4436214918477894,14.718202999999999,-3.3536657999999995,-2.55766,3.4843165999999997,0
-0.649999999999999,5.037618,-6.3718977,1.9311630000000002,-0.08470745,-0.3083817,-0.7900599,-0.5230011999999999,-6.770548299999999,9.101968,0.95158476,-1.4850208999999999,-0.39105895,0.05261774,9.850749063863054,-1.4068590760916224,-0.765861639377853,0.4436214918477894,14.718202999999999,-3.3536657999999995,-2.55766,3.4843165999999997,0
-0.639999999999999,4.970136599999999,-6.280682,1.9405811000000002,-0.08259738,-0.30140364,-0.79230136,-0.52401483,-6.725947,9.140963000000001,0.93218416,-1.472824,-0.44952717,0.07180439,8.866834817064953,-1.3750123154033045,-1.0144128038350713,0.6431259560052228,12.666925,-2.2663157000000003,-2.4543369999999998,2.4711173,0
-0.629999999999999,4.903074299999999,-6.1891,1.94977,-0.08084603,-0.29425937,-0.79450643,-0.5250088,-6.6866460000000005,9.1753645,0.90573555,-1.4575563999999999,-0.5376466999999999,0.0998393,8.866834817064953,-1.3750123154033045,-1.0144128038350713,0.6431259560052228,12.666925,-2.2663157000000003,-2.4543369999999998,2.4711173,0
-0.619999999999999,4.8364005,-6.097176999999999,1.9586985000000001,-0.07948888,-0.28692922,-0.7966816999999999,-0.52597594,-6.6481585999999995,9.208999,0.8800882,-1.4446682,-0.61202246,0.12649854,8.866834817064953,-1.3750123154033045,-1.0144128038350713,0.6431259560052228,12.666925,-2.2663157000000003,-2.4543369999999998,2.4711173,0
-0.6099999999999992,4.7701077000000005,-6.0049224,1.9673744,-0.07846783,-0.27943823,-0.79883176,-0.52690053,-6.610453999999999,9.2418,0.85523015,-1.4337891,-0.67479783,0.1518496,8.866834817064953,-1.3750123154033045,-1.0144128038350713,0.6431259560052228,12.666925,-2.2663157000000003,-2.4543369999999998,2.4711173,0
-0.5999999999999992,4.7041889999999995,-5.912344,1.9758058,-0.077733375,-0.27180767,-0.80095965,-0.52776974,-6.5735087,9.273712,0.8311476999999999,-1.4246063,-0.7277821,0.17595667,8.030541922397571,-1.2761846857359165,-0.9293820294547736,0.8173192531186169,13.057814,-1.4944531,-3.0235574,2.2968285,0
-0.5899999999999992,4.6386185,-5.819465599999999,1.9839648,-0.07724276,-0.26410368,-0.8030709,-0.52854437,-6.540717,9.301766,0.80077183,-1.4014411,-0.75924766,0.20742853,8.030541922397571,-1.2761846857359165,-0.9293820294547736,0.8173192531186169,13.057814,-1.4944531,-3.0235574,2.2968285,0
-0.5799999999999992,4.573372,-5.726311,1.9918234000000001,-0.07696024,-0.25637984,-0.805172,-0.5291916,-6.5085754,9.328941,0.77106273,-1.3818885,-0.78580433,0.23735605,8.030541922397571,-1.2761846857359165,-0.9293820294547736,0.8173192531186169,13.057814,-1.4944531,-3.0235574,2.2968285,0
-0.5699999999999992,4.5084443,-5.632889700000001,1.9993881999999998,-0.076856114,-0.24863599,-0.8072659000000001,-0.52971154,-6.4770675,9.355213000000001,0.7419979999999999,-1.3653857,-0.80821794,0.26581505,8.030541922397571,-1.2761846857359165,-0.9293820294547736,0.8173192531186169,13.057814,-1.4944531,-3.0235574,2.2968285,0
-0.5599999999999992,4.443828599999999,-5.53921,2.0066655,-0.076904945,-0.24087204,-0.8093541,-0.53010505,-6.4461803,9.380563,0.71355593,-1.351457,-0.8271348,0.29287753,8.030541922397571,-1.2761846857359165,-0.9293820294547736,0.8173192531186169,11.894939,-0.9634433000000001,-1.8606869,1.4181654,0
-0.5499999999999992,4.379518,-5.4452815,2.0136611,-0.07708495,-0.23308803,-0.8114376999999999,-0.53037333,-6.415902,9.404971000000002,0.685715,-1.339701,-0.8431004000000001,0.31861204,8.030541922397571,-1.2761846857359165,-0.9293820294547736,0.8173192531186169,11.894939,-0.9634433000000001,-1.8606869,1.4181654,0
-0.5399999999999991,4.315508,-5.3511133,2.0203815,-0.07737746,-0.22528407,-0.8135166,-0.53051823,-6.3862247000000005,9.42842,0.6584544,-1.3297793,-0.85657525,0.34308377,8.030541922397571,-1.2761846857359165,-0.9293820294547736,0.8173192531186169,11.894939,-0.9634433000000001,-1.8606869,1.4181654,0
-0.5299999999999991,4.251791000000001,-5.2567163,2.026832,-0.077766426,-0.21746038,-0.81559056,-0.5305416999999999,-6.35714,9.450895,0.6317533000000001,-1.3214055,-0.8679475,0.36635464,8.030541922397571,-1.2761846857359165,-0.9293820294547736,0.8173192531186169,11.894939,-0.9634433000000001,-1.8606869,1.4181654,0
-0.5199999999999991,4.1883626000000005,-5.1620989999999995,2.0330183999999996,-0.07823804,-0.2096172,-0.8176585,-0.5304462,-6.328642400000001,9.472382000000001,0.60559124,-1.3143383999999998,-0.8775455,0.38848358,7.491986775480455,-1.2160110333872372,-0.7683787488401759,0.9502743238938216,10.342169,-1.554812,-1.8245601999999999,1.75728,0
-0.5099999999999991,4.1252065,-5.067279,2.0389216,-0.07874391,-0.2018075,-0.81972826,-0.5302054,-6.3025985,9.491495,0.57508796,-1.2989931000000001,-0.8605404000000001,0.41605082,7.491986775480455,-1.2160110333872372,-0.7683787488401759,0.9502743238938216,10.342169,-1.554812,-1.8245601999999999,1.75728,0
-0.4999999999999991,4.0623083,-4.9722724000000005,2.044522,-0.079245105,-0.19407339999999998,-0.8218078999999999,-0.5297986,-6.277096299999999,9.50968,0.5450456,-1.2860413999999998,-0.8461863000000002,0.44226536,7.491986775480455,-1.2160110333872372,-0.7683787488401759,0.9502743238938216,10.342169,-1.554812,-1.8245601999999999,1.75728,0
-0.4899999999999989,3.9996622000000004,-4.877088,2.049824,-0.07974334,-0.18640065,-0.82389617,-0.5292353,-6.2521334,9.526942,0.5154420999999999,-1.2751101,-0.83406997,0.46719350000000004,7.491986775480455,-1.2160110333872372,-0.7683787488401759,0.9502743238938216,10.342169,-1.554812,-1.8245601999999999,1.75728,0
-0.47999999999999887,3.9372633,-4.781736,2.0548322,-0.08023988,-0.17877729,-0.8259915999999999,-0.52852374,-6.227709,9.543288,0.48625633,-1.2658839,-0.82384235,0.49089843,7.167579807066604,-1.2271670835494262,-0.3305100050404855,1.0631635536743782,9.664871,-1.4742162,-1.2577459,1.4033571000000002,0
-0.46999999999999886,3.8751008999999996,-4.6862288,2.0595355,-0.08059085,-0.17128110000000002,-0.8281146999999999,-0.5276297,-6.2048573,9.558055,0.45446703,-1.2598568,-0.74692863,0.51897967,7.167579807066604,-1.2271670835494262,-0.3305100050404855,1.0631635536743782,9.664871,-1.4742162,-1.2577459,1.4033571000000002,0
-0.45999999999999885,3.8131642,-4.5905776,2.0639226,-0.08068209,-0.16397315,-0.83028376,-0.52652746,-6.182537,9.571985,0.42303854,-1.254769,-0.68200845,0.5456829000000001,7.167579807066604,-1.2271670835494262,-0.3305100050404855,1.0631635536743782,9.664871,-1.4742162,-1.2577459,1.4033571000000002,0
-0.44999999999999885,3.7514482000000005,-4.4947915,2.0679974999999997,-0.08055437,-0.15682177,-0.8324931000000001,-0.5252354,-6.1607655999999995,9.585118,0.39195254,-1.2504735,-0.62721163,0.57107586,7.167579807066604,-1.2271670835494262,-0.3305100050404855,1.0631635536743782,9.664871,-1.4742162,-1.2577459,1.4033571000000002,0
-0.43999999999999884,3.6899471,-4.3988776,2.0717630000000002,-0.08024204,-0.1498003,-0.8347372,-0.52376914,-6.139558,9.597485,0.36119229999999997,-1.246847,-0.58095944,0.59522265,7.478862991621328,-1.4106099359394335,0.220776063379392,1.2152582228834634,9.203709,-1.687391,-0.7733121000000001,1.1365656000000002,0
-0.4299999999999988,3.6286597,-4.302841,2.0752373,-0.079554036,-0.14293885,-0.83704895,-0.5220994999999999,-6.1180353,9.609621,0.3336808,-1.272425,-0.45596433,0.62564796,7.478862991621328,-1.4106099359394335,0.220776063379392,1.2152582228834634,9.203709,-1.687391,-0.7733121000000001,1.1365656000000002,0
-0.4199999999999988,3.5675843,-4.2066870000000005,2.0784378,-0.07834018,-0.1362594,-0.83945423,-0.52020377,-6.097165,9.621049000000001,0.30648273,-1.2940111,-0.35046023,0.6545803000000001,7.478862991621328,-1.4106099359394335,0.220776063379392,1.2152582228834634,9.203709,-1.687391,-0.7733121000000001,1.1365656000000002,0
-0.4099999999999988,3.506714,-4.110421700000001,2.081368,-0.07668219,-0.12973045,-0.8419377,-0.51810217,-6.076996,9.631826,0.27958882,-1.3122278,-0.26140755,0.6820929,7.478862991621328,-1.4106099359394335,0.220776063379392,1.2152582228834634,9.203709,-1.687391,-0.7733121000000001,1.1365656000000002,0
-0.3999999999999988,3.4460417999999997,-4.0140524,2.0840308999999997,-0.07464901,-0.12332561,-0.8444856,-0.5158116,-6.0575705,9.642002,0.25298947,-1.3276006999999999,-0.1862407,0.70825547,8.548060323389263,-1.7836228102286955,0.8755966316594751,1.446525694663817,9.75489,-2.3143914,-0.94125366,2.2019424,0
-0.3899999999999988,3.3855733999999997,-3.9175769999999996,2.0864800999999997,-0.07200388,-0.11702926,-0.8471369000000001,-0.513301,-6.036267,9.652994999999999,0.23693897,-1.3987927,-0.02071362,0.7444826,8.548060323389263,-1.7836228102286955,0.8755966316594751,1.446525694663817,9.75489,-2.3143914,-0.94125366,2.2019424,0
-0.3799999999999988,3.3253129,-3.8209943999999996,2.0887706,-0.06856185,-0.11082633,-0.84991884,-0.5105428,-6.0159593000000005,9.663427,0.22121358,-1.4588771,0.11900364,0.77893203,8.548060323389263,-1.7836228102286955,0.8755966316594751,1.446525694663817,9.75489,-2.3143914,-0.94125366,2.2019424,0
-0.3699999999999988,3.2652502,-3.72431,2.0909054,-0.06444646400000001,-0.10469757,-0.85280293,-0.5075544,-5.996749400000001,9.673374,0.20581101,-1.5095857,0.23693603,0.81169105,8.548060323389263,-1.7836228102286955,0.8755966316594751,1.446525694663817,9.75489,-2.3143914,-0.94125366,2.2019424,0
-0.35999999999999877,3.2053738,-3.6275282,2.0928879,-0.059762012,-0.09862717,-0.8557636999999999,-0.50434995,-5.9787254,9.682895,0.19072479,-1.552381,0.33648062,0.8428426,8.548060323389263,-1.7836228102286955,0.8755966316594751,1.446525694663817,11.313492,-2.7650237,-1.0023115,2.7309062,0
-0.34999999999999876,3.1456714,-3.530653,2.0947207999999997,-0.054596625,-0.092602275,-0.85877883,-0.5009412999999999,-5.961961,9.692036,0.17594463,-1.5884973,0.420505,0.8724655000000001,8.548060323389263,-1.7836228102286955,0.8755966316594751,1.446525694663817,11.313492,-2.7650237,-1.0023115,2.7309062,0
-0.33999999999999875,3.0861301,-3.4336886,2.0964080000000003,-0.049024787,-0.08661249,-0.86182857,-0.49733844,-5.94652,9.70083,0.16145676,-1.6189761999999999,0.49142936,0.90063477,8.548060323389263,-1.7836228102286955,0.8755966316594751,1.446525694663817,11.313492,-2.7650237,-1.0023115,2.7309062,0
-0.32999999999999874,3.0267362999999996,-3.3366377000000003,2.0979512000000002,-0.043109488,-0.0806495,-0.8648958000000001,-0.49355018,-5.9324565,9.709308,0.14724438,-1.6446973000000003,0.55129623,0.9274218000000001,8.548060323389263,-1.7836228102286955,0.8755966316594751,1.446525694663817,11.313492,-2.7650237,-1.0023115,2.7309062,0
-0.31999999999999873,2.967476,-3.2395036,2.0993538,-0.03690402,-0.07470672,-0.8679653,-0.48958412,-5.919818,9.717485,0.13328800000000002,-1.6664032,0.6018299,0.9528943999999999,9.777102681997267,-2.1529765331407833,1.2854891438002591,1.6612712574686042,12.392778,-2.7490222,-1.067831,2.423879,0
-0.3099999999999987,2.9083428,-3.1422833999999997,2.1006784,-0.030240702999999997,-0.06872946,-0.8710521999999999,-0.48541653,-5.907046,9.726514,0.13169862,-1.7423662,0.7083598000000001,0.9876546,9.777102681997267,-2.1529765331407833,1.2854891438002591,1.6612712574686042,12.392778,-2.7490222,-1.067831,2.423879,0
-0.2999999999999987,2.8493285,-3.0449745999999998,2.1019886000000003,-0.022989217000000003,-0.06267294,-0.8741620999999999,-0.48102343,-5.8960576,9.735241,0.13035591,-1.8064755000000001,0.7982826999999999,1.0207092,9.777102681997267,-2.1529765331407833,1.2854891438002591,1.6612712574686042,12.392778,-2.7490222,-1.067831,2.423879,0
-0.2899999999999987,2.7904147999999998,-2.9475796,2.103286,-0.015241589,-0.056546263,-0.87726974,-0.4764109,-5.886955,9.7436905,0.12923336,-1.8605804,0.8741883,1.0521417,9.777102681997267,-2.1529765331407833,1.2854891438002591,1.6612712574686042,12.392778,-2.7490222,-1.067831,2.423879,0
-0.2799999999999987,2.7315824,-2.8501017,2.1045735,-0.007075756,-0.050357815,-0.8803530999999999,-0.47158447,-5.879824,9.751872,0.12829854,-1.9062415000000001,0.9382621999999999,1.0820317,11.057357833535004,-2.3206509395127983,1.653500527985248,1.7529562083380317,13.117071,-2.9330626,-0.9170971,2.7129645,0
-0.2699999999999989,2.6728146,-2.752538,2.1059162999999996,0.0016030248,-0.044125202999999995,-0.8834011999999999,-0.4665321,-5.8740807,9.760831,0.1402568,-1.9709697,1.0497155,1.1149542,11.057357833535004,-2.3206509395127983,1.653500527985248,1.7529562083380317,13.117071,-2.9330626,-0.9170971,2.7129645,0
-0.2599999999999989,2.614092,-2.654886,2.107379,0.010866223999999999,-0.037862264,-0.8863992,-0.46124223,-5.8707733,9.769519,0.15233663,-2.0255938,1.1437945,1.1462611,11.057357833535004,-2.3206509395127983,1.653500527985248,1.7529562083380317,13.117071,-2.9330626,-0.9170971,2.7129645,0
-0.2499999999999989,2.5553901000000003,-2.5571487,2.108963,0.020621259,-0.03157162,-0.88932365,-0.45572042,-5.8700113,9.777957,0.16448265,-2.0716908,1.2232083999999999,1.1760318,11.057357833535004,-2.3206509395127983,1.653500527985248,1.7529562083380317,13.117071,-2.9330626,-0.9170971,2.7129645,0
-0.23999999999999888,2.4966826,-2.4593279999999997,2.1106687,0.030789478,-0.025256307999999998,-0.8921541,-0.44997194,-5.871887,9.786155,0.1766334,-2.110591,1.2902436000000002,1.2043418,12.088163343328636,-2.41737725856137,1.5219018480288833,1.7872859458459427,15.674025,-3.2456136000000004,-1.5206249,3.5706856,0
-0.22999999999999865,2.437941,-2.3614224999999998,2.1125467,0.04127413,-0.01886166,-0.8948777,-0.44399799999999995,-5.8769045,9.794847500000001,0.19899459,-2.1584873,1.3262928999999999,1.232947,12.088163343328636,-2.41737725856137,1.5219018480288833,1.7872859458459427,15.674025,-3.2456136000000004,-1.5206249,3.5706856,0
-0.21999999999999864,2.3791342,-2.2634315,2.1146479,0.05199418,-0.012345562,-0.89748305,-0.43779898,-5.884957,9.803239,0.22121236,-2.1989092999999995,1.3567268,1.2601486000000002,12.088163343328636,-2.41737725856137,1.5219018480288833,1.7872859458459427,15.674025,-3.2456136000000004,-1.5206249,3.5706856,0
-0.20999999999999863,2.3202314,-2.1653588,2.1169702999999997,0.062908895,-0.0057282782999999995,-0.8999563,-0.43137914,-5.896097,9.811283,0.24320717,-2.2330236,1.3824201,1.2860153,12.088163343328636,-2.41737725856137,1.5219018480288833,1.7872859458459427,15.674025,-3.2456136000000004,-1.5206249,3.5706856,0
-0.19999999999999862,2.2612016,-2.0672076,2.1195111,0.07398350000000001,0.0009724891,-0.90228516,-0.4247431,-5.910366000000001,9.818936,0.26489618,-2.2618144,1.4041117,1.3106127,12.68273211629776,-2.477261985594198,0.9007827914498048,1.7400267135033909,15.368079000000002,-3.054558,-1.5816941,3.2621772,0
-0.18999999999999884,2.202009,-1.9689802,2.122296,0.08497385,0.00786819,-0.9044766,-0.41789874,-5.9286413,9.826492,0.29206863,-2.2953646,1.3255578000000001,1.3316841999999998,12.68273211629776,-2.477261985594198,0.9007827914498048,1.7400267135033909,15.368079000000002,-3.054558,-1.5816941,3.2621772,0
-0.17999999999999883,2.1426175,-1.87068,2.1253507000000003,0.09568406,0.015044085,-0.90654135,-0.41085368,-5.950189599999999,9.833446499999999,0.3187548,-2.3236904,1.2592595,1.3517218,12.68273211629776,-2.477261985594198,0.9007827914498048,1.7400267135033909,15.368079000000002,-3.054558,-1.5816941,3.2621772,0
-0.16999999999999882,2.0829942,-1.7723137999999998,2.1286693,0.1061518,0.022450788,-0.9084735999999999,-0.40361258,-5.97496,9.839661999999999,0.3448808,-2.3476055000000002,1.2033051000000001,1.370776,12.68273211629776,-2.477261985594198,0.9007827914498048,1.7400267135033909,15.368079000000002,-3.054558,-1.5816941,3.2621772,0
-0.1599999999999988,2.0231073,-1.6738896,2.132246,0.116408795,0.030046541,-0.91026753,-0.39618048,-6.002900599999999,9.845015,0.37037270000000005,-2.367797,1.156081,1.3888954,12.68273211629776,-2.477261985594198,0.9007827914498048,1.7400267135033909,15.849215,-2.959901,-1.8521395,3.1463577999999996,0
-0.1499999999999988,1.9629254,-1.5754168,2.1360740000000003,0.12648173,0.037795994,-0.9119169,-0.38856283,-6.033958999999999,9.849393,0.39515677,-2.3848445,1.1162251,1.4061255,12.68273211629776,-2.477261985594198,0.9007827914498048,1.7400267135033909,15.849215,-2.959901,-1.8521395,3.1463577999999996,0
-0.1399999999999988,1.9024174999999999,-1.4769055,2.1401463,0.13639301,0.04566919,-0.913416,-0.38076523,-6.0680814000000005,9.852699000000001,0.41915926,-2.3992379,1.0825882,1.42251,12.68273211629776,-2.477261985594198,0.9007827914498048,1.7400267135033909,15.849215,-2.959901,-1.8521395,3.1463577999999996,0
-0.12999999999999878,1.8415534,-1.3783667,2.1444542,0.1461613,0.05364069,-0.9147591,-0.3727934,-6.105213,9.854841,0.44230664,-2.4113898,1.0542,1.4380906999999998,12.68273211629776,-2.477261985594198,0.9007827914498048,1.7400267135033909,15.849215,-2.959901,-1.8521395,3.1463577999999996,0
-0.11999999999999877,1.7803031999999999,-1.2798127000000001,2.1489892000000004,0.15580220000000003,0.06168887,-0.915941,-0.3646531,-6.145298,9.855735000000001,0.46452570000000004,-2.42165,1.0302418,1.4529068,12.521714153493313,-2.274200547796477,-0.018000806464334784,1.529898859929799,15.4685135,-2.7602444,-1.6620591,2.6343495999999997,0
-0.10999999999999877,1.7186403000000001,-1.1812565000000002,2.1537337000000005,0.16496098,0.06985784,-0.91701263,-0.35636404,-6.187716,9.8553,0.48423502,-2.3985027999999997,0.86678493,1.4566848,12.521714153493313,-2.274200547796477,-0.018000806464334784,1.529898859929799,15.4685135,-2.7602444,-1.6620591,2.6343495999999997,0
