time-since-start [s],throttle_mpc,roll_mpc,pitch_mpc,yaw_mpc,throttle_nw,roll_nw,pitch_nw,yaw_nw,position_x [m],position_y [m],position_z [m],rotation_w [quaternion],rotation_x [quaternion],rotation_y [quaternion],rotation_z [quaternion],velocity_x [m/s],velocity_y [m/s],velocity_z [m/s],omega_x [rad/s],omega_y [rad/s],omega_z [rad/s],network_used
0.0,10.151367558040858,-0.12148644421845456,-3.5228236085065157,0.14265411608154202,4.6345305,-0.21399912,-2.6533065,-0.53006184,13.379829,-12.318168,1.0022167,0.3482836,-0.2474378,0.09690111,0.8989345,-0.21687509,0.23625554,0.23112573,-0.1356641,-1.2976099,-1.4091462,0
0.01,10.151367558040858,-0.12148644421845456,-3.5228236085065157,0.14265411608154202,5.508831,0.091950715,-3.140815,-0.3817388,13.377471,-12.315632,1.0044752,0.3491447,-0.23170863,0.090382114,0.90346014,-0.2543567,0.27062348,0.22087786,-0.12148645,-3.5228236,0.14265412,0
0.02,10.151367558040858,-0.12148644421845456,-3.5228236085065157,0.14265411608154202,5.508831,0.091950715,-3.140815,-0.3817388,13.374749,-12.312763,1.0066401,0.34989715,-0.21590735,0.08383499,0.90770465,-0.28960732,0.30279878,0.21236674,-0.12148645,-3.5228236,0.14265412,0
0.03,10.151367558040858,-0.12148644421845456,-3.5228236085065157,0.14265411608154202,5.508831,0.091950715,-3.140815,-0.3817388,13.371687,-12.309584,1.0087281,0.35054076,-0.2000389,0.0772618,0.91166675,-0.32257956,0.3327451,0.20548119,-0.12148645,-3.5228236,0.14265412,0
0.04,10.151367558040858,-0.12148644421845456,-3.5228236085065157,0.14265411608154202,6.45308,0.027983606,-1.8498114,-0.15075731,13.368306,-12.306116,1.010755,0.35107535,-0.18410821,0.07066456,0.9153452,-0.353229,0.36042896,0.20010789,-0.12148645,-3.5228236,0.14265412,0
0.05,10.151367558040858,-0.12148644421845456,-3.5228236085065157,0.14265411608154202,6.45308,0.027983606,-1.8498114,-0.15075731,13.364631,-12.302384,1.012735,0.3515007,-0.16812025,0.06404534,0.9187389,-0.38151395,0.3858196,0.19613175,-0.12148645,-3.5228236,0.14265412,0
0.060000000000000005,10.151367558040858,-0.12148644421845456,-3.5228236085065157,0.14265411608154202,6.45308,0.027983606,-1.8498114,-0.15075731,13.360684,-12.2984085,1.0146819,0.35181665,-0.15207998,0.057406187,0.9218467,-0.4073958,0.40888923,0.19343589,-0.12148645,-3.5228236,0.14265412,0
0.07,10.151367558040858,-0.12148644421845456,-3.5228236085065157,0.14265411608154202,6.45308,0.027983606,-1.8498114,-0.15075731,13.356491,-12.294213,1.0166078,0.35202318,-0.13599242,0.050749175,0.9246677,-0.43083885,0.42961282,0.19190185,-0.12148645,-3.5228236,0.14265412,0
0.08,10.933208516919045,-0.06474846232360551,0.5444240451017851,0.17612369593389696,6.6655145,0.59572995,-0.62977004,-0.15542123,13.352076,-12.289823,1.0185235,0.35212016,-0.11986252,0.044076376,0.9272011,-0.45181042,0.4479683,0.19140969,-0.12148645,-3.5228236,0.14265412,0
0.09,10.933208516919045,-0.06474846232360551,0.5444240451017851,0.17612369593389696,6.6655145,0.59572995,-0.62977004,-0.15542123,13.347452,-12.285253,1.0204756,0.3511434,-0.12246115,0.044840086,0.92719537,-0.47289738,0.46625692,0.19901845,-0.064748466,0.54442406,0.1761237,0
0.09999999999999999,10.933208516919045,-0.06474846232360551,0.5444240451017851,0.17612369593389696,6.6655145,0.59572995,-0.62977004,-0.15542123,13.342615,-12.280498,1.0225033,0.35016373,-0.12505877,0.045603424,0.92718196,-0.4944618,0.4848737,0.20647348,-0.064748466,0.54442406,0.1761237,0
0.10999999999999999,10.933208516919045,-0.06474846232360551,0.5444240451017851,0.17612369593389696,6.6655145,0.59572995,-0.62977004,-0.15542123,13.337561,-12.275555,1.0246046,0.3491812,-0.12765536,0.046366386,0.92716074,-0.5165037,0.50381726,0.21377166,-0.064748466,0.54442406,0.1761237,0
0.11999999999999998,10.933208516919045,-0.06474846232360551,0.5444240451017851,0.17612369593389696,6.6655145,0.59572995,-0.62977004,-0.15542123,13.332283,-12.27042,1.0267781,0.3481957,-0.13025087,0.04712896,0.9271319,-0.5390229,0.52308613,0.2209098,-0.064748466,0.54442406,0.1761237,0
0.12999999999999998,11.951816108224103,0.030338677614797544,4.372254322069333,0.1819852828553677,7.220718,0.61981744,1.137908,-0.06397789,13.326778,-12.265092,1.0290222,0.34720734,-0.13284531,0.047891144,0.9270954,-0.56201947,0.54267883,0.22788484,-0.064748466,0.54442406,0.1761237,0
0.13999999999999999,11.951816108224103,0.030338677614797544,4.372254322069333,0.1819852828553677,7.220718,0.61981744,1.137908,-0.06397789,13.321027,-12.259553,1.0313827,0.345254,-0.15298313,0.05573096,0.9242782,-0.5888887,0.5655589,0.24396454,0.030338679,4.3722544,0.18198529,0
0.15,11.951816108224103,0.030338677614797544,4.372254322069333,0.1819852828553677,7.220718,0.61981744,1.137908,-0.06397789,13.314988,-12.253769,1.0338959,0.34313533,-0.17304772,0.0635441,0.9210185,-0.619475,0.5917187,0.25839275,0.030338679,4.3722544,0.18198529,0
0.16,12.90274530842868,0.0834895812612365,4.638274493675227,0.1900159896302109,8.012828,0.98208684,1.7831043,-0.27125785,13.308624,-12.247708,1.0365441,0.3408524,-0.19302946,0.071326815,0.9173178,-0.65372616,0.621101,0.27095437,0.030338679,4.3722544,0.18198529,0
0.17,12.90274530842868,0.0834895812612365,4.638274493675227,0.1900159896302109,8.012828,0.98208684,1.7831043,-0.27125785,13.301885,-12.241323,1.039351,0.33831567,-0.21403939,0.07977799,0.91288847,-0.69466645,0.6563271,0.29002222,0.08348958,4.6382747,0.19001599,0
0.18000000000000002,12.90274530842868,0.0834895812612365,4.638274493675227,0.1900159896302109,8.012828,0.98208684,1.7831043,-0.27125785,13.294716,-12.234569,1.0423356,0.33559662,-0.23493394,0.08818619,0.90796715,-0.7396129,0.6951376,0.30645975,0.08348958,4.6382747,0.19001599,0
0.19000000000000003,12.90274530842868,0.0834895812612365,4.638274493675227,0.1900159896302109,8.012828,0.98208684,1.7831043,-0.27125785,13.287079,-12.227407,1.0454704,0.33269674,-0.2557019,0.09654685,0.90255654,-0.78847617,0.7374405,0.3200205,0.08348958,4.6382747,0.19001599,0
0.20000000000000004,13.523983493782463,0.0938414641978179,3.2304787287239702,0.1778747200251856,8.931242,0.97579616,1.4777819,-0.28317186,13.278934,-12.219807,1.0487254,0.32961756,-0.27633205,0.10485549,0.89665955,-0.84115875,0.7831364,0.3304641,0.08348958,4.6382747,0.19001599,0
0.21000000000000005,13.523983493782463,0.0938414641978179,3.2304787287239702,0.1778747200251856,8.931242,0.97579616,1.4777819,-0.28317186,13.270231,-12.211722,1.0520949,0.32721302,-0.29053053,0.110832095,0.89232284,-0.8998238,0.83410645,0.34303832,0.09384146,3.2304788,0.17787471,0
0.22000000000000006,13.523983493782463,0.0938414641978179,3.2304787287239702,0.1778747200251856,8.931242,0.97579616,1.4777819,-0.28317186,13.260928,-12.203116,1.0555774,0.3247228,-0.3046529,0.11677967,0.8877524,-0.9611094,0.88745034,0.35304394,0.09384146,3.2304788,0.17787471,0
0.23000000000000007,13.523983493782463,0.0938414641978179,3.2304787287239702,0.1778747200251856,8.931242,0.97579616,1.4777819,-0.28317186,13.250999,-12.193966,1.0591466,0.32214755,-0.3186955,0.12269665,0.88294953,-1.0249567,0.94310665,0.36036798,0.09384146,3.2304788,0.17787471,0
0.24000000000000007,13.523983493782463,0.0938414641978179,3.2304787287239702,0.1778747200251856,8.867681,1.0667615,0.87378347,-0.22389461,13.24042,-12.184246,1.0627751,0.3194879,-0.3326546,0.12858151,0.8779154,-1.0913042,1.0010114,0.36490026,0.09384146,3.2304788,0.17787471,0
0.25000000000000006,13.523983493782463,0.0938414641978179,3.2304787287239702,0.1778747200251856,8.867681,1.0667615,0.87378347,-0.22389461,13.229165,-12.173936,1.0664346,0.31674457,-0.3465266,0.13443269,0.8726513,-1.1600877,1.0610982,0.36653355,0.09384146,3.2304788,0.17787471,0
0.26000000000000006,13.523983493782463,0.0938414641978179,3.2304787287239702,0.1778747200251856,8.867681,1.0667615,0.87378347,-0.22389461,13.217211,-12.163015,1.0700955,0.3139183,-0.3603078,0.14024866,0.86715865,-1.2312405,1.1232985,0.36516365,0.09384146,3.2304788,0.17787471,0
0.2700000000000001,13.523983493782463,0.0938414641978179,3.2304787287239702,0.1778747200251856,8.867681,1.0667615,0.87378347,-0.22389461,13.204534,-12.1514635,1.0737273,0.31100976,-0.37399468,0.14602791,0.86143893,-1.3046936,1.1875416,0.36068952,0.09384146,3.2304788,0.17787471,0
0.2800000000000001,14.594218118424207,0.1006312358169287,2.0558399529128635,0.16687556096518977,8.793144,1.0143695,0.57187957,-0.22463574,13.191109,-12.139257,1.0772983,0.30801982,-0.38758364,0.1517689,0.85549355,-1.3803751,1.2537546,0.3530133,0.09384146,3.2304788,0.17787471,0
0.2900000000000001,14.594218118424207,0.1006312358169287,2.0558399529128635,0.16687556096518977,8.793144,1.0143695,0.57187957,-0.22463574,13.176888,-12.126356,1.0808122,0.3059246,-0.396075,0.15568076,0.85164464,-1.4640464,1.326997,0.3494282,0.10063124,2.05584,0.16687556,0
0.3000000000000001,14.594218118424207,0.1006312358169287,2.0558399529128635,0.16687556096518977,8.793144,1.0143695,0.57187957,-0.22463574,13.161823,-12.112715,1.0842788,0.30379674,-0.40452415,0.15957603,0.8477049,-1.5491244,1.4015495,0.34353486,0.10063124,2.05584,0.16687556,0
0.3100000000000001,14.594218118424207,0.1006312358169287,2.0558399529128635,0.16687556096518977,8.793144,1.0143695,0.57187957,-0.22463574,13.145901,-12.098321,1.0876749,0.3016365,-0.41293016,0.16345431,0.8436748,-1.6355764,1.4773766,0.33529416,0.10063124,2.05584,0.16687556,0
0.3200000000000001,15.342310691399307,0.09098421301927682,0.2347929585752467,0.14575460983752467,9.232906,0.759268,-0.21245077,-0.2876261,13.129107,-12.083163,1.0909766,0.29944408,-0.42129213,0.16731514,0.83955467,-1.7233692,1.5544428,0.32466796,0.10063124,2.05584,0.16687556,0
0.3300000000000001,15.342310691399307,0.09098421301927682,0.2347929585752467,0.14575460983752467,9.232906,0.759268,-0.21245077,-0.2876261,13.111409,-12.067209,1.0941844,0.29882714,-0.42201912,0.16835545,0.83920133,-1.8165559,1.6363441,0.31682917,0.09098421,0.23479296,0.1457546,0
0.34000000000000014,15.342310691399307,0.09098421301927682,0.2347929585752467,0.14575460983752467,9.232906,0.759268,-0.21245077,-0.2876261,13.092776,-12.050436,1.0973121,0.2982096,-0.42274523,0.1693954,0.8388462,-1.9098201,1.7184817,0.30869484,0.09098421,0.23479296,0.1457546,0
0.35000000000000014,15.342310691399307,0.09098421301927682,0.2347929585752467,0.14575460983752467,9.232906,0.759268,-0.21245077,-0.2876261,13.073212,-12.032839,1.100357,0.29759142,-0.42347044,0.170435,0.8384893,-2.003162,1.8008548,0.30026424,0.09098421,0.23479296,0.1457546,0
0.36000000000000015,16.439198316086,0.08821310872698879,-0.4537093283007313,0.12204373647732362,10.308735,0.259235,-0.5985191,-0.36257222,13.052713,-12.014418,1.1033162,0.2969726,-0.42419475,0.17147423,0.8381306,-2.0965812,1.8834625,0.29153666,0.09098421,0.23479296,0.1457546,0
0.37000000000000016,16.439198316086,0.08821310872698879,-0.4537093283007313,0.12204373647732362,10.308735,0.259235,-0.5985191,-0.36257222,13.031248,-11.995139,1.1062194,0.2970364,-0.42205656,0.17142858,0.83919615,-2.1965663,1.9720759,0.2892247,0.08821311,-0.45370933,0.12204374,0
0.38000000000000017,16.439198316086,0.08821310872698879,-0.4537093283007313,0.12204373647732362,10.308735,0.259235,-0.5985191,-0.36257222,13.008784,-11.974975,1.1091026,0.29709852,-0.41991597,0.17138194,0.84025675,-2.29611,2.0605364,0.28751194,0.08821311,-0.45370933,0.12204374,0
0.3900000000000002,16.439198316086,0.08821310872698879,-0.4537093283007313,0.12204373647732362,10.308735,0.259235,-0.5985191,-0.36257222,12.985327,-11.953928,1.1119717,0.29715893,-0.417773,0.17133431,0.8413126,-2.3952093,2.1488428,0.28639618,0.08821311,-0.45370933,0.12204374,0
0.4000000000000002,16.835574796952493,0.08478261470060468,-0.5378489968682344,0.09815539074689446,11.233673,0.07207835,-0.50459945,-0.4386405,12.960881,-11.931998,1.1148326,0.29721764,-0.41562766,0.17128572,0.84236366,-2.4938622,2.2369943,0.2858751,0.08821311,-0.45370933,0.12204374,0
0.4100000000000002,16.835574796952493,0.08478261470060468,-0.5378489968682344,0.09815539074689446,11.233673,0.07207835,-0.50459945,-0.4386405,12.935439,-11.909177,1.1177032,0.2974399,-0.4131507,0.17104685,0.8435514,-2.5944095,2.32709,0.28835624,0.084782615,-0.537849,0.098155394,0
0.4200000000000002,16.835574796952493,0.08478261470060468,-0.5378489968682344,0.09815539074689446,11.233673,0.07207835,-0.50459945,-0.4386405,12.908994,-11.885455,1.1206023,0.2976599,-0.41067055,0.17080668,0.8447327,-2.6944292,2.416969,0.29155493,0.084782615,-0.537849,0.098155394,0
0.4300000000000002,16.835574796952493,0.08478261470060468,-0.5378489968682344,0.09815539074689446,11.233673,0.07207835,-0.50459945,-0.4386405,12.881552,-11.860837,1.1235367,0.2978776,-0.4081873,0.17056519,0.8459075,-2.793918,2.5066292,0.29546803,0.084782615,-0.537849,0.098155394,0
0.4400000000000002,16.835574796952493,0.08478261470060468,-0.5378489968682344,0.09815539074689446,11.987296,-0.06306559,-0.16883036,-0.41791114,12.853117,-11.835323,1.126514,0.29809305,-0.4057009,0.17032239,0.8470759,-2.892872,2.5960684,0.30009243,0.084782615,-0.537849,0.098155394,0
0.45000000000000023,16.835574796952493,0.08478261470060468,-0.5378489968682344,0.09815539074689446,11.987296,-0.06306559,-0.16883036,-0.41791114,12.823696,-11.808916,1.1295412,0.2983062,-0.40321139,0.17007828,0.84823775,-2.9912884,2.6852846,0.30542487,0.084782615,-0.537849,0.098155394,0
0.46000000000000024,16.835574796952493,0.08478261470060468,-0.5378489968682344,0.09815539074689446,11.987296,-0.06306559,-0.16883036,-0.41791114,12.793293,-11.781618,1.132625,0.29851708,-0.40071878,0.16983289,0.8493931,-3.0891635,2.7742763,0.31146213,0.084782615,-0.537849,0.098155394,0
0.47000000000000025,16.835574796952493,0.08478261470060468,-0.5378489968682344,0.09815539074689446,11.987296,-0.06306559,-0.16883036,-0.41791114,12.761914,-11.753431,1.1357728,0.29872566,-0.39822313,0.16958618,0.850542,-3.1864939,2.8630412,0.318201,0.084782615,-0.537849,0.098155394,0
0.48000000000000026,17.551268812810942,0.0951182605463743,-0.15747228798859547,0.07933523871398561,12.351105,-0.19074792,-0.2492393,-0.42475587,12.729565,-11.7243595,1.1389915,0.29893196,-0.39572445,0.16933818,0.8516844,-3.2832763,2.9515774,0.32563818,0.084782615,-0.537849,0.098155394,0
0.49000000000000027,17.551268812810942,0.0951182605463743,-0.15747228798859547,0.07933523871398561,12.351105,-0.19074792,-0.2492393,-0.42475587,12.696229,-11.694383,1.14231,0.2989155,-0.39484432,0.16966476,0.85203356,-3.3837214,3.0437367,0.3380923,0.09511826,-0.15747228,0.079335235,0
0.5000000000000002,17.551268812810942,0.0951182605463743,-0.15747228798859547,0.07933523871398561,12.351105,-0.19074792,-0.2492393,-0.42475587,12.661891,-11.663485,1.145754,0.29889873,-0.39396378,0.16999117,0.8523819,-3.4839177,3.1359198,0.3507516,0.09511826,-0.15747228,0.079335235,0
0.5100000000000002,17.551268812810942,0.0951182605463743,-0.15747228798859547,0.07933523871398561,12.351105,-0.19074792,-0.2492393,-0.42475587,12.626552,-11.631664,1.1493256,0.29888168,-0.3930829,0.1703174,0.8527294,-3.583866,3.2281265,0.36361563,0.09511826,-0.15747228,0.079335235,0
0.5200000000000002,17.651774229001337,0.09582366568611181,-0.09658500704456344,0.05934091205689682,12.796534,-0.30417225,-0.067599654,-0.43567652,12.590214,-11.598922,1.1530269,0.2988643,-0.39220157,0.17064346,0.853076,-3.683565,3.3203566,0.3766839,0.09511826,-0.15747228,0.079335235,0
0.5300000000000002,17.651774229001337,0.09582366568611181,-0.09658500704456344,0.05934091205689682,12.796534,-0.30417225,-0.067599654,-0.43567652,12.552877,-11.565254,1.1568631,0.2988814,-0.3915957,0.17102419,0.8532721,-3.7836044,3.4131544,0.39056253,0.09582367,-0.096585006,0.059340913,0
0.5400000000000003,17.651774229001337,0.09582366568611181,-0.09658500704456344,0.05934091205689682,12.796534,-0.30417225,-0.067599654,-0.43567652,12.514542,-11.530658,1.1608386,0.29889837,-0.39098957,0.17140481,0.8534677,-3.8834474,3.506017,0.4045628,0.09582367,-0.096585006,0.059340913,0
0.5500000000000003,17.651774229001337,0.09582366568611181,-0.09658500704456344,0.05934091205689682,12.796534,-0.30417225,-0.067599654,-0.43567652,12.475208,-11.495133,1.1649547,0.29891515,-0.3903832,0.17178534,0.85366285,-3.9830935,3.5989444,0.41868442,0.09582367,-0.096585006,0.059340913,0
0.5600000000000003,17.95631305562203,0.09856917995354508,0.0005011297624670876,0.04411305557333211,13.280987,-0.29375982,0.05662033,-0.3945209,12.43488,-11.458678,1.1692127,0.29893178,-0.38977668,0.17216577,0.8538575,-4.0825424,3.6919367,0.43292707,0.09582367,-0.096585006,0.059340913,0
0.5700000000000003,17.95631305562203,0.09856917995354508,0.0005011297624670876,0.04411305557333211,13.280987,-0.29375982,0.05662033,-0.3945209,12.39355,-11.421287,1.1736232,0.2989351,-0.38959345,0.17267329,0.8538375,-4.1835394,3.7866251,0.44918042,0.09856918,0.0005011298,0.044113055,0
0.5800000000000003,17.95631305562203,0.09856917995354508,0.0005011297624670876,0.04411305557333211,13.280987,-0.29375982,0.05662033,-0.3945209,12.351211,-11.382946,1.1781963,0.2989383,-0.3894101,0.17318076,0.8538172,-4.284422,3.8814485,0.46542215,0.09856918,0.0005011298,0.044113055,0
0.5900000000000003,17.95631305562203,0.09856917995354508,0.0005011297624670876,0.04411305557333211,13.280987,-0.29375982,0.05662033,-0.3945209,12.307863,-11.343657,1.1829315,0.2989414,-0.38922668,0.17368817,0.8537967,-4.385192,3.9764068,0.48165208,0.09856918,0.0005011298,0.044113055,0
0.6000000000000003,17.666748495349385,0.08787685132477589,-0.23046434376493305,0.029833824836784636,13.102757,-0.301021,-0.12784144,-0.33165967,12.263509,-11.303417,1.1878294,0.29894444,-0.38904312,0.17419553,0.853776,-4.4858475,4.0715003,0.49787003,0.09856918,0.0005011298,0.044113055,0
0.6100000000000003,17.666748495349385,0.08787685132477589,-0.23046434376493305,0.029833824836784636,13.102757,-0.301021,-0.12784144,-0.33165967,12.218156,-11.262234,1.1928803,0.29918852,-0.38790166,0.17428407,0.85419166,-4.584693,4.16513,0.5123505,0.08787685,-0.23046434,0.029833825,0
0.6200000000000003,17.666748495349385,0.08787685132477589,-0.23046434376493305,0.029833824836784636,13.102757,-0.301021,-0.12784144,-0.33165967,12.171816,-11.220115,1.1980774,0.29943213,-0.3867596,0.17437236,0.85460603,-4.683226,4.258725,0.52713317,0.08787685,-0.23046434,0.029833825,0
0.6300000000000003,17.666748495349385,0.08787685132477589,-0.23046434376493305,0.029833824836784636,13.102757,-0.301021,-0.12784144,-0.33165967,12.124493,-11.177059,1.203424,0.29967526,-0.38561696,0.17446037,0.8550191,-4.7814474,4.352285,0.5422173,0.08787685,-0.23046434,0.029833825,0
0.6400000000000003,17.666748495349385,0.08787685132477589,-0.23046434376493305,0.029833824836784636,12.894206,-0.36787915,-0.34308293,-0.27517933,12.076188,-11.133069,1.2089227,0.2999179,-0.3844737,0.17454812,0.85543084,-4.8793545,4.4458084,0.5576021,0.08787685,-0.23046434,0.029833825,0
0.6500000000000004,17.666748495349385,0.08787685132477589,-0.23046434376493305,0.029833824836784636,12.894206,-0.36787915,-0.34308293,-0.27517933,12.026906,-11.088143,1.214577,0.30016014,-0.38332987,0.17463559,0.8558413,-4.9769483,4.5392957,0.5732869,0.08787685,-0.23046434,0.029833825,0
0.6600000000000004,17.666748495349385,0.08787685132477589,-0.23046434376493305,0.029833824836784636,12.894206,-0.36787915,-0.34308293,-0.27517933,11.97665,-11.042283,1.2203896,0.30040196,-0.38218543,0.1747228,0.8562504,-5.0742273,4.632746,0.58927095,0.08787685,-0.23046434,0.029833825,0
0.6700000000000004,17.666748495349385,0.08787685132477589,-0.23046434376493305,0.029833824836784636,12.894206,-0.36787915,-0.34308293,-0.27517933,11.925423,-10.995488,1.2263634,0.3006433,-0.3810404,0.17480974,0.85665816,-5.171191,4.7261596,0.6055535,0.08787685,-0.23046434,0.029833825,0
0.6800000000000004,17.559643113128992,0.07606283848379584,-0.20297780087425255,0.01848541935030606,12.788737,-0.32084858,-0.4128535,-0.21352223,11.873227,-10.94776,1.2325016,0.30088416,-0.3798948,0.1748964,0.85706466,-5.267839,4.819535,0.62213385,0.08787685,-0.23046434,0.029833825,0
0.6900000000000004,17.559643113128992,0.07606283848379584,-0.20297780087425255,0.01848541935030606,12.788737,-0.32084858,-0.4128535,-0.21352223,11.820069,-10.8991,1.2388036,0.30112675,-0.37889415,0.17495199,0.85741097,-5.363601,4.9123073,0.638301,0.076062836,-0.2029778,0.01848542,0
0.7000000000000004,17.559643113128992,0.07606283848379584,-0.20297780087425255,0.01848541935030606,12.788737,-0.32084858,-0.4128535,-0.21352223,11.765956,-10.849514,1.2452686,0.30136898,-0.3778931,0.17500739,0.8577563,-5.459087,5.0050445,0.6547278,0.076062836,-0.2029778,0.01848542,0
0.7100000000000004,17.559643113128992,0.07606283848379584,-0.20297780087425255,0.01848541935030606,12.788737,-0.32084858,-0.4128535,-0.21352223,11.710889,-10.799,1.2518991,0.30161086,-0.37689155,0.17506257,0.8581007,-5.5542965,5.0977454,0.6714136,0.076062836,-0.2029778,0.01848542,0
0.7200000000000004,17.12881023738188,0.054474284700523914,-0.3279953975016097,0.005652472779750749,12.68381,-0.28928068,-0.58357,-0.18303257,11.654871,-10.747559,1.2586977,0.30185238,-0.37588954,0.17511755,0.8584439,-5.6492286,5.19041,0.6883579,0.076062836,-0.2029778,0.01848542,0
0.7300000000000004,17.12881023738188,0.054474284700523914,-0.3279953975016097,0.005652472779750749,12.68381,-0.28928068,-0.58357,-0.18303257,11.597918,-10.695203,1.265653,0.30221727,-0.37439403,0.17486674,0.85902005,-5.741527,5.2807236,0.7027924,0.054474283,-0.3279954,0.005652473,0
0.7400000000000004,17.12881023738188,0.054474284700523914,-0.3279953975016097,0.005652472779750749,12.68381,-0.28928068,-0.58357,-0.18303257,11.540042,-10.641944,1.2727548,0.30258134,-0.37289748,0.17461544,0.8595938,-5.833463,5.3708897,0.71764094,0.054474283,-0.3279954,0.005652473,0
0.7500000000000004,17.12881023738188,0.054474284700523914,-0.3279953975016097,0.005652472779750749,12.68381,-0.28928068,-0.58357,-0.18303257,11.48125,-10.587785,1.2800072,0.30294457,-0.37139988,0.17436364,0.8601652,-5.925036,5.460908,0.73290217,0.054474283,-0.3279954,0.005652473,0
0.7600000000000005,16.605799970873438,0.02479871172955288,-0.4269179820704628,-0.004182816535463779,12.421355,-0.18676269,-0.71747494,-0.11301758,11.421543,-10.532725,1.2874143,0.30330697,-0.3699013,0.17411134,0.86073416,-6.016245,5.550776,0.7485749,0.054474283,-0.3279954,0.005652473,0
0.7700000000000005,16.605799970873438,0.02479871172955288,-0.4269179820704628,-0.004182816535463779,12.421355,-0.18676269,-0.71747494,-0.11301758,11.36094,-10.476782,1.2949628,0.30374178,-0.36802918,0.1735625,0.8614938,-6.104294,5.637717,0.7612184,0.024798712,-0.42691797,-0.0041828165,0
0.7800000000000005,16.605799970873438,0.02479871172955288,-0.4269179820704628,-0.004182816535463779,12.421355,-0.18676269,-0.71747494,-0.11301758,11.2994585,-10.419971,1.3026403,0.30417523,-0.3661554,0.17301287,0.8622496,-6.191929,5.724408,0.77438337,0.024798712,-0.42691797,-0.0041828165,0
0.7900000000000005,16.605799970873438,0.02479871172955288,-0.4269179820704628,-0.004182816535463779,12.421355,-0.18676269,-0.71747494,-0.11301758,11.2371025,-10.362295,1.3104521,0.3046073,-0.36427993,0.17246243,0.8630014,-6.27915,5.810848,0.7880677,0.024798712,-0.42691797,-0.0041828165,0
0.8000000000000005,16.11507891790378,0.0064261919681405846,-0.4609340108102204,-0.01491102276844099,12.317309,-0.16098964,-0.7949312,-0.07687329,11.173876,-10.303755,1.3184034,0.30503795,-0.3624028,0.17191121,0.8637493,-6.3659554,5.8970366,0.8022694,0.024798712,-0.42691797,-0.0041828165,0
0.8100000000000005,16.11507891790378,0.0064261919681405846,-0.4609340108102204,-0.01491102276844099,12.317309,-0.16098964,-0.7949312,-0.07687329,11.109798,-10.244368,1.3264825,0.3055094,-0.36041415,0.17120847,0.864554,-6.449786,5.9804144,0.8136684,0.006426192,-0.460934,-0.014911023,0
0.8200000000000005,16.11507891790378,0.0064261919681405846,-0.4609340108102204,-0.01491102276844099,12.317309,-0.16098964,-0.7949312,-0.07687329,11.044883,-10.184147,1.3346785,0.3059792,-0.3584236,0.17050484,0.865354,-6.5331993,6.0634995,0.8256075,0.006426192,-0.460934,-0.014911023,0
0.8300000000000005,16.11507891790378,0.0064261919681405846,-0.4609340108102204,-0.01491102276844099,12.317309,-0.16098964,-0.7949312,-0.07687329,10.9791355,-10.123097,1.3429966,0.30644736,-0.35643113,0.16980028,0.8661495,-6.616193,6.1462903,0.83808446,0.006426192,-0.460934,-0.014911023,0
0.8400000000000005,16.11507891790378,0.0064261919681405846,-0.4609340108102204,-0.01491102276844099,12.356278,-0.08594376,-0.7365533,-0.023062907,10.912561,-10.061223,1.351442,0.3069139,-0.35443676,0.16909483,0.8669403,-6.6987658,6.228784,0.8510968,0.006426192,-0.460934,-0.014911023,0
0.8500000000000005,16.11507891790378,0.0064261919681405846,-0.4609340108102204,-0.01491102276844099,12.356278,-0.08594376,-0.7365533,-0.023062907,10.845163,-9.998525,1.3600203,0.30737883,-0.3524406,0.16838847,0.8677265,-6.7809153,6.3109803,0.86464226,0.006426192,-0.460934,-0.014911023,0
0.8600000000000005,16.11507891790378,0.0064261919681405846,-0.4609340108102204,-0.01491102276844099,12.356278,-0.08594376,-0.7365533,-0.023062907,10.776945,-9.935005,1.3687366,0.3078421,-0.35044253,0.16768122,0.86850816,-6.862641,6.392876,0.87871844,0.006426192,-0.460934,-0.014911023,0
0.8700000000000006,16.11507891790378,0.0064261919681405846,-0.4609340108102204,-0.01491102276844099,12.356278,-0.08594376,-0.7365533,-0.023062907,10.7079115,-9.870668,1.3775965,0.30830374,-0.34844255,0.16697307,0.86928517,-6.9439397,6.47447,0.893323,0.006426192,-0.460934,-0.014911023,0
0.8800000000000006,15.367079960524856,-0.026263810123856438,-0.6055296587024726,-0.022460980540010042,12.197818,0.02035752,-0.832569,0.03411804,10.638066,-9.805517,1.3866048,0.30876377,-0.3464408,0.16626404,0.8700575,-7.0248113,6.5557613,0.90845346,0.006426192,-0.460934,-0.014911023,0
0.8900000000000006,15.367079960524856,-0.026263810123856438,-0.6055296587024726,-0.022460980540010042,12.197818,0.02035752,-0.832569,0.03411804,10.567434,-9.739573,1.3957409,0.30931798,-0.3438642,0.16517529,0.8710896,-7.101485,6.632938,0.9188875,-0.02626381,-0.60552967,-0.02246098,0
0.9000000000000006,15.367079960524856,-0.026263810123856438,-0.6055296587024726,-0.022460980540010042,12.197818,0.02035752,-0.832569,0.03411804,10.496038,-9.672859,1.4049846,0.30986932,-0.34128442,0.16408502,0.87211365,-7.177652,6.7096887,0.92997766,-0.02626381,-0.60552967,-0.02246098,0
0.9100000000000006,15.367079960524856,-0.026263810123856438,-0.6055296587024726,-0.022460980540010042,12.197818,0.02035752,-0.832569,0.03411804,10.423883,-9.605381,1.4143425,0.3104178,-0.33870152,0.16299322,0.87312967,-7.253311,6.7860107,0.94171983,-0.02626381,-0.60552967,-0.02246098,0
0.9200000000000006,14.806284851647193,-0.04757676104266755,-0.5530954304971091,-0.03457285515127264,12.077593,0.065508366,-0.8722192,0.09480478,10.350974,-9.537141,1.4238211,0.31096342,-0.3361155,0.16189994,0.87413764,-7.3284593,6.861901,0.9541101,-0.02626381,-0.60552967,-0.02246098,0
0.9300000000000006,14.806284851647193,-0.04757676104266755,-0.5530954304971091,-0.03457285515127264,12.077593,0.065508366,-0.8722192,0.09480478,10.277329,-9.468158,1.4334065,0.3114811,-0.33379877,0.1607733,0.8750485,-7.4003944,6.9346066,0.9630696,-0.047576763,-0.55309546,-0.034572855,0
0.9400000000000006,14.806284851647193,-0.04757676104266755,-0.5530954304971091,-0.03457285515127264,12.077593,0.065508366,-0.8722192,0.09480478,10.202968,-9.39845,1.4430844,0.31199637,-0.33147943,0.15964544,0.8759527,-7.4718986,7.006901,0.9725951,-0.047576763,-0.55309546,-0.034572855,0
0.9500000000000006,14.806284851647193,-0.04757676104266755,-0.5530954304971091,-0.03457285515127264,12.077593,0.065508366,-0.8722192,0.09480478,10.127893,-9.328021,1.4528604,0.31250927,-0.32915756,0.15851632,0.87685,-7.542969,7.0787816,0.9826833,-0.047576763,-0.55309546,-0.034572855,0
0.9600000000000006,13.804082057815059,-0.09123429460197127,-0.8463762398900475,-0.04193072422757836,11.975148,0.11785567,-1.0164424,0.13331768,10.05211,-9.256875,1.4627401,0.31301966,-0.32683313,0.15738599,0.8777406,-7.6136045,7.150246,0.99333084,-0.047576763,-0.55309546,-0.034572855,0
0.9700000000000006,13.804082057815059,-0.09123429460197127,-0.8463762398900475,-0.04193072422757836,11.975148,0.11785567,-1.0164424,0.13331768,9.975646,-9.185041,1.4726924,0.31371775,-0.32329148,0.155591,0.87912196,-7.678976,7.216398,0.9972391,-0.0912343,-0.84637624,-0.041930724,0
0.9800000000000006,13.804082057815059,-0.09123429460197127,-0.8463762398900475,-0.04193072422757836,11.975148,0.11785567,-1.0164424,0.13331768,9.898532,-9.112549,1.4826876,0.31441018,-0.31974396,0.15379316,0.8804873,-7.743736,7.281928,1.0019354,-0.0912343,-0.84637624,-0.041930724,0
0.9900000000000007,13.804082057815059,-0.09123429460197127,-0.8463762398900475,-0.04193072422757836,11.975148,0.11785567,-1.0164424,0.13331768,9.820773,-9.039405,1.4927337,0.31509694,-0.3161906,0.15199253,0.88183665,-7.80788,7.3468323,1.0074122,-0.0912343,-0.84637624,-0.041930724,0
1.0000000000000007,13.435162616068881,-0.08808485231891632,-0.5388592173270702,-0.0544606813494286,12.001544,0.20273477,-1.1483028,0.17685077,9.742375,-8.965614,1.5028385,0.315778,-0.3126315,0.15018913,0.88317,-7.8714037,7.411105,1.0136621,-0.0912343,-0.84637624,-0.041930724,0
1.0100000000000007,13.435162616068881,-0.08808485231891632,-0.5388592173270702,-0.0544606813494286,12.001544,0.20273477,-1.1483028,0.17685077,9.663354,-8.891193,1.5129952,0.3162842,-0.31043077,0.14886367,0.8839891,-7.9327154,7.473114,1.0177683,-0.088084854,-0.5388592,-0.054460682,0
1.0200000000000007,13.435162616068881,-0.08808485231891632,-0.5388592173270702,-0.0544606813494286,12.001544,0.20273477,-1.1483028,0.17685077,9.583722,-8.816154,1.5231955,0.31678805,-0.30822772,0.1475371,0.8848015,-7.9936647,7.534696,1.0223482,-0.088084854,-0.5388592,-0.054460682,0
1.0300000000000007,13.435162616068881,-0.08808485231891632,-0.5388592173270702,-0.0544606813494286,12.001544,0.20273477,-1.1483028,0.17685077,9.503482,-8.7405,1.5334438,0.3172895,-0.30602235,0.1462094,0.88560724,-8.05425,7.5958486,1.0273988,-0.088084854,-0.5388592,-0.054460682,0
1.0400000000000007,13.435162616068881,-0.08808485231891632,-0.5388592173270702,-0.0544606813494286,12.338609,0.22545302,-1.0771136,0.18462402,9.422638,-8.664238,1.5437449,0.31778857,-0.30381465,0.14488061,0.8864063,-8.114469,7.6565695,1.0329171,-0.088084854,-0.5388592,-0.054460682,0
1.0500000000000007,13.435162616068881,-0.08808485231891632,-0.5388592173270702,-0.0544606813494286,12.338609,0.22545302,-1.0771136,0.18462402,9.341193,-8.58737,1.5541036,0.31828526,-0.3016047,0.14355072,0.88719887,-8.174321,7.716858,1.0389001,-0.088084854,-0.5388592,-0.054460682,0
1.0600000000000007,13.435162616068881,-0.08808485231891632,-0.5388592173270702,-0.0544606813494286,12.338609,0.22545302,-1.0771136,0.18462402,9.259152,-8.509902,1.5645245,0.31877956,-0.29939246,0.14221975,0.8879846,-8.233807,7.7767105,1.0453445,-0.088084854,-0.5388592,-0.054460682,0
1.0700000000000007,13.435162616068881,-0.08808485231891632,-0.5388592173270702,-0.0544606813494286,12.338609,0.22545302,-1.0771136,0.18462402,9.176518,-8.431836,1.5750122,0.31927148,-0.29717797,0.14088771,0.8887636,-8.292922,7.8361254,1.052247,-0.088084854,-0.5388592,-0.054460682,0
1.0800000000000007,12.39724319985429,-0.1198719841787441,-1.3555038329481903,-0.06051960156290978,12.451372,0.38019037,-1.0933892,0.1949403,9.093295,-8.35318,1.5855712,0.319761,-0.29496124,0.13955462,0.88953596,-8.351666,7.8951006,1.0596048,-0.088084854,-0.5388592,-0.054460682,1
1.0900000000000007,12.39724319985429,-0.1198719841787441,-1.3555038329481903,-0.06051960156290978,12.451372,0.38019037,-1.0933892,0.1949403,9.009508,-8.273957,1.5961674,0.32021213,-0.2893493,0.13978256,0.89117956,-8.40546,7.9493876,1.059804,0.38019037,-1.0933892,0.1949403,1
1.1000000000000008,12.39724319985429,-0.1198719841787441,-1.3555038329481903,-0.06051960156290978,12.451372,0.38019037,-1.0933892,0.1949403,8.92519,-8.194193,1.6067699,0.3206522,-0.28372735,0.1400057,0.89279246,-8.458092,8.003366,1.0607986,0.38019037,-1.0933892,0.1949403,1
1.1100000000000008,12.39724319985429,-0.1198719841787441,-1.3555038329481903,-0.06051960156290978,12.451372,0.38019037,-1.0933892,0.1949403,8.840351,-8.113892,1.6173861,0.32108122,-0.27809563,0.140224,0.8943746,-8.509554,8.057032,1.0625749,0.38019037,-1.0933892,0.1949403,1
1.1200000000000008,12.030918224348113,-0.19973184762896545,-1.0929963967998415,-0.09202277338824502,12.369989,0.49138486,-1.0720574,0.24950346,8.755003,-8.033053,1.628024,0.3214992,-0.27245432,0.14043747,0.89592594,-8.559837,8.110378,1.0651186,0.38019037,-1.0933892,0.1949403,1
1.1300000000000008,12.030918224348113,-0.19973184762896545,-1.0929963967998415,-0.09202277338824502,12.369989,0.49138486,-1.0720574,0.24950346,8.669161,-7.9516854,1.6386877,0.32179788,-0.2666819,0.1412527,0.89742607,-8.608587,8.1631,1.0677428,0.49138486,-1.0720574,0.24950346,1
1.1400000000000008,12.030918224348113,-0.19973184762896545,-1.0929963967998415,-0.09202277338824502,12.369989,0.49138486,-1.0720574,0.24950346,8.582836,-7.8697915,1.6493813,0.32208484,-0.26089978,0.1420628,0.89889365,-8.656077,8.215614,1.0710747,0.49138486,-1.0720574,0.24950346,1
1.1500000000000008,12.030918224348113,-0.19973184762896545,-1.0929963967998415,-0.09202277338824502,12.369989,0.49138486,-1.0720574,0.24950346,8.496043,-7.787374,1.6601115,0.3223601,-0.25510818,0.14286773,0.9003286,-8.702301,8.267918,1.0750985,0.49138486,-1.0720574,0.24950346,1
1.1600000000000008,10.917521495127696,-0.5395854989483425,-2.4320139486245926,-0.14942077578905494,12.02634,0.3726788,-1.4762216,0.1751607,8.408794,-7.7044344,1.6708856,0.32262367,-0.2493073,0.14366747,0.90173084,-8.7472515,8.3200035,1.0797993,0.49138486,-1.0720574,0.24950346,0
1.1700000000000008,10.917521495127696,-0.5395854989483425,-2.4320139486245926,-0.14942077578905494,12.02634,0.3726788,-1.4762216,0.1751607,8.321128,-7.621007,1.6816502,0.32434657,-0.2393008,0.13711427,0.90483874,-8.785695,8.365176,1.0733517,-0.5395855,-2.432014,-0.14942078,0
1.1800000000000008,10.917521495127696,-0.5395854989483425,-2.4320139486245926,-0.14942077578905494,12.02634,0.3726788,-1.4762216,0.1751607,8.233086,-7.537137,1.6923575,0.32601896,-0.22925703,0.13053972,0.90780574,-8.822733,8.408525,1.0683521,-0.5395855,-2.432014,-0.14942078,0
1.1900000000000008,10.917521495127696,-0.5395854989483425,-2.4320139486245926,-0.14942077578905494,12.02634,0.3726788,-1.4762216,0.1751607,8.144679,-7.452842,1.7030219,0.3276406,-0.21917757,0.12394482,0.91063136,-8.858347,8.450021,1.0647423,-0.5395855,-2.432014,-0.14942078,0
1.2000000000000008,10.777788636137766,-0.4776265538527033,-0.9266201504068962,-0.13137250197903244,11.215244,0.31884483,-2.293729,0.12252647,8.055923,-7.3681426,1.7136568,0.32921124,-0.20906398,0.11733065,0.91331524,-8.892516,8.489635,1.0624638,-0.5395855,-2.432014,-0.14942078,0
1.2100000000000009,10.777788636137766,-0.4776265538527033,-0.9266201504068962,-0.13137250197903244,11.215244,0.31884483,-2.293729,0.12252647,7.966835,-7.283057,1.7242683,0.32985097,-0.20569292,0.11348534,0.9143352,-8.925214,8.527217,1.0599384,-0.47762656,-0.9266201,-0.1313725,0
1.2200000000000009,10.777788636137766,-0.4776265538527033,-0.9266201504068962,-0.13137250197903244,11.215244,0.31884483,-2.293729,0.12252647,7.877421,-7.1976013,1.7348572,0.33048156,-0.20231616,0.10963689,0.9153299,-8.957549,8.563853,1.0579017,-0.47762656,-0.9266201,-0.1313725,0
1.2300000000000009,10.777788636137766,-0.4776265538527033,-0.9266201504068962,-0.13137250197903244,11.215244,0.31884483,-2.293729,0.12252647,7.787686,-7.1117835,1.745428,0.33110306,-0.19893382,0.105785415,0.9162993,-8.98952,8.599542,1.0563431,-0.47762656,-0.9266201,-0.1313725,0
1.2400000000000009,10.777788636137766,-0.4776265538527033,-0.9266201504068962,-0.13137250197903244,10.804388,0.10612029,-2.6765177,0.16489837,7.6976323,-7.025614,1.7559856,0.33171538,-0.19554599,0.10193102,0.9172434,-9.021125,8.634275,1.0552517,-0.47762656,-0.9266201,-0.1313725,0
1.2500000000000009,10.777788636137766,-0.4776265538527033,-0.9266201504068962,-0.13137250197903244,10.804388,0.10612029,-2.6765177,0.16489837,7.607265,-6.939101,1.7665346,0.33231857,-0.19215275,0.09807381,0.9181623,-9.052361,8.668052,1.0546169,-0.47762656,-0.9266201,-0.1313725,0
1.260000000000001,10.777788636137766,-0.4776265538527033,-0.9266201504068962,-0.13137250197903244,10.804388,0.10612029,-2.6765177,0.16489837,7.516587,-6.852256,1.7770793,0.3329126,-0.18875422,0.0942139,0.9190558,-9.083226,8.700865,1.0544281,-0.47762656,-0.9266201,-0.1313725,0
1.270000000000001,10.777788636137766,-0.4776265538527033,-0.9266201504068962,-0.13137250197903244,10.804388,0.10612029,-2.6765177,0.16489837,7.4256024,-6.765087,1.7876245,0.33349743,-0.18535046,0.090351395,0.91992396,-9.113719,8.732712,1.0546741,-0.47762656,-0.9266201,-0.1313725,0
1.280000000000001,10.139837739515889,-0.3295433500212876,-2.41159734469081,-0.12337362391067204,10.262659,0.085220605,-2.7704797,0.25750422,7.3343143,-6.677605,1.7981741,0.33407307,-0.1819416,0.08648639,0.9207667,-9.143837,8.763588,1.0553443,-0.47762656,-0.9266201,-0.1313725,1
1.290000000000001,10.139837739515889,-0.3295433500212876,-2.41159734469081,-0.12337362391067204,10.262659,0.085220605,-2.7704797,0.25750422,7.2427354,-6.589827,1.8087097,0.33413076,-0.16891587,0.08247703,0.923591,-9.17151,8.79181,1.0519508,0.085220605,-2.7704797,0.25750422,1
1.300000000000001,10.139837739515889,-0.3295433500212876,-2.41159734469081,-0.12337362391067204,10.262659,0.085220605,-2.7704797,0.25750422,7.150891,-6.5017743,1.8192167,0.33412373,-0.15585741,0.07845169,0.92623645,-9.1970825,8.818424,1.0496069,0.085220605,-2.7704797,0.25750422,1
1.310000000000001,10.139837739515889,-0.3295433500212876,-2.41159734469081,-0.12337362391067204,10.262659,0.085220605,-2.7704797,0.25750422,7.058801,-6.4134636,1.8297052,0.33405197,-0.14276876,0.07441115,0.9287024,-9.220533,8.843418,1.0482384,0.085220605,-2.7704797,0.25750422,1
1.320000000000001,10.151195435118629,-0.18417613749591247,-0.6155100792630352,-0.12697006058413995,9.953569,0.24192137,-3.2414367,0.42093906,6.966488,-6.324911,1.8401846,0.3339155,-0.12965244,0.07035619,0.9309885,-9.241838,8.8667755,1.047771,0.085220605,-2.7704797,0.25750422,0
1.330000000000001,10.151195435118629,-0.18417613749591247,-0.6155100792630352,-0.12697006058413995,9.953569,0.24192137,-3.2414367,0.42093906,6.873971,-6.2361336,1.8506576,0.33460188,-0.12713875,0.06838854,0.9312353,-9.261446,8.888668,1.0468354,-0.18417613,-0.6155101,-0.12697007,0
1.340000000000001,10.151195435118629,-0.18417613749591247,-0.6155100792630352,-0.12697006058413995,9.953569,0.24192137,-3.2414367,0.42093906,6.78126,-6.1471395,1.861122,0.33528465,-0.1246237,0.06642015,0.9314722,-9.280708,8.910039,1.0460848,-0.18417613,-0.6155101,-0.12697007,0
1.350000000000001,10.151195435118629,-0.18417613749591247,-0.6155100792630352,-0.12697006058413995,9.953569,0.24192137,-3.2414367,0.42093906,6.688358,-6.0579343,1.8715798,0.33596385,-0.122107305,0.064451054,0.93169904,-9.299625,8.930887,1.0455151,-0.18417613,-0.6155101,-0.12697007,0
1.360000000000001,9.852252412969854,-0.12161239437430624,-0.803536141273117,-0.14788464718821934,9.776629,-0.3291917,-3.4825761,0.39185128,6.5952682,-5.9685235,1.8820329,0.33663943,-0.1195896,0.06248126,0.9319159,-9.318197,8.95121,1.0451221,-0.18417613,-0.6155101,-0.12697007,0
1.370000000000001,9.852252412969854,-0.12161239437430624,-0.803536141273117,-0.14788464718821934,9.776629,-0.3291917,-3.4825761,0.39185128,6.501998,-5.8789153,1.8924686,0.33750394,-0.11609535,0.060473137,0.9321775,-9.33582,8.9704,1.042037,-0.12161239,-0.8035361,-0.14788465,0
1.380000000000001,9.852252412969854,-0.12161239437430624,-0.803536141273117,-0.14788464718821934,9.776629,-0.3291917,-3.4825761,0.39185128,6.4085536,-5.789118,1.9028744,0.33836272,-0.11259911,0.058463976,0.93242323,-9.352931,8.989012,1.0391603,-0.12161239,-0.8035361,-0.14788465,0
1.390000000000001,9.852252412969854,-0.12161239437430624,-0.803536141273117,-0.14788464718821934,9.776629,-0.3291917,-3.4825761,0.39185128,6.314941,-5.699137,1.9132524,0.3392157,-0.10910095,0.056453817,0.932653,-9.369528,9.007044,1.0364859,-0.12161239,-0.8035361,-0.14788465,0
1.400000000000001,10.120823692571571,0.04089936612658388,1.0690863617366368,-0.11416934792009777,9.759336,-0.081275016,-2.6833148,0.43442884,6.221165,-5.6089797,1.9236047,0.34006292,-0.10560094,0.054442696,0.9328669,-9.3856125,9.024492,1.0340074,-0.12161239,-0.8035361,-0.14788465,0
1.410000000000001,10.120823692571571,0.04089936612658388,1.0690863617366368,-0.11416934792009777,9.759336,-0.081275016,-2.6833148,0.43442884,6.1272273,-5.5186462,1.9339458,0.3403211,-0.1105475,0.056390166,0.9320836,-9.402098,9.042306,1.0341618,0.040899366,1.0690863,-0.114169344,0
1.420000000000001,10.120823692571571,0.04089936612658388,1.0690863617366368,-0.11416934792009777,9.759336,-0.081275016,-2.6833148,0.43442884,6.0331206,-5.4281306,1.9442871,0.3405694,-0.11549086,0.058336005,0.9312734,-9.419361,9.060824,1.0340518,0.040899366,1.0690863,-0.114169344,0
1.430000000000001,10.120823692571571,0.04089936612658388,1.0690863617366368,-0.11416934792009777,9.759336,-0.081275016,-2.6833148,0.43442884,5.9388375,-5.337427,1.9546258,0.34080786,-0.12043087,0.06028016,0.93043625,-9.437401,9.080047,1.0336663,0.040899366,1.0690863,-0.114169344,0
1.440000000000001,10.120823692571571,0.04089936612658388,1.0690863617366368,-0.11416934792009777,9.886968,0.0041515827,-2.2100353,0.39822713,5.8443704,-5.246528,1.9649594,0.34103647,-0.1253674,0.062222566,0.92957217,-9.456213,9.099971,1.0329938,0.040899366,1.0690863,-0.114169344,0
1.450000000000001,10.120823692571571,0.04089936612658388,1.0690863617366368,-0.11416934792009777,9.886968,0.0041515827,-2.2100353,0.39822713,5.749711,-5.155426,1.9752847,0.34125522,-0.13030031,0.06416317,0.9286812,-9.475796,9.120596,1.0320234,0.040899366,1.0690863,-0.114169344,0
1.460000000000001,10.120823692571571,0.04089936612658388,1.0690863617366368,-0.11416934792009777,9.886968,0.0041515827,-2.2100353,0.39822713,5.6548514,-5.0641136,1.9855988,0.34146407,-0.13522944,0.06610192,0.9277633,-9.496144,9.14192,1.0307441,0.040899366,1.0690863,-0.114169344,0
1.470000000000001,10.120823692571571,0.04089936612658388,1.0690863617366368,-0.11416934792009777,9.886968,0.0041515827,-2.2100353,0.39822713,5.559785,-4.9725847,1.9958984,0.34166306,-0.14015464,0.06803876,0.92681855,-9.517257,9.163941,1.0291444,0.040899366,1.0690863,-0.114169344,0
1.480000000000001,10.007843499443501,0.1616218911479819,-0.4533230880745822,-0.11809044401375632,10.087489,0.010264963,-2.260169,0.33761922,5.464504,-4.8808327,2.0061805,0.34185216,-0.1450758,0.069973625,0.925847,-9.539129,9.18666,1.0272136,0.040899366,1.0690863,-0.114169344,0
1.490000000000001,10.007843499443501,0.1616218911479819,-0.4533230880745822,-0.11809044401375632,10.087489,0.010264963,-2.260169,0.33761922,5.3690023,-4.7888517,2.0164368,0.34267363,-0.14274187,0.069861084,0.9259146,-9.561064,9.209495,1.0240511,0.1616219,-0.4533231,-0.11809044,0
1.500000000000001,10.007843499443501,0.1616218911479819,-0.4533230880745822,-0.11809044401375632,10.087489,0.010264963,-2.260169,0.33761922,5.273284,-4.6966434,2.026662,0.34349298,-0.14040707,0.06974812,0.9259766,-9.582563,9.232174,1.0210253,0.1616219,-0.4533231,-0.11809044,0
1.5100000000000011,10.007843499443501,0.1616218911479819,-0.4533230880745822,-0.11809044401375632,10.087489,0.010264963,-2.260169,0.33761922,5.1773524,-4.6042085,2.0368578,0.34431022,-0.13807142,0.06963473,0.92603284,-9.603628,9.254695,1.0181342,0.1616219,-0.4533231,-0.11809044,0
1.5200000000000011,10.251473482596767,0.2886368065947802,0.02218724231283846,-0.07486065045234437,10.042853,0.11515221,-1.5527622,0.56466055,5.081213,-4.5115495,2.0470254,0.34512535,-0.13573492,0.069520906,0.9260834,-9.624258,9.277058,1.0153757,0.1616219,-0.4533231,-0.11809044,0
1.5300000000000011,10.251473482596767,0.2886368065947802,0.02218724231283846,-0.07486065045234437,10.042853,0.11515221,-1.5527622,0.56466055,4.9848666,-4.4186654,2.0571778,0.3456598,-0.13536544,0.070844814,0.9258378,-9.645044,9.299952,1.0150155,0.2886368,0.022187242,-0.07486065,0
1.5400000000000011,10.251473482596767,0.2886368065947802,0.02218724231283846,-0.07486065045234437,10.042853,0.11515221,-1.5527622,0.56466055,4.888314,-4.32555,2.0673263,0.34619343,-0.13499567,0.07216857,0.9255901,-9.665652,9.323082,1.0146374,0.2886368,0.022187242,-0.07486065,0
1.5500000000000012,10.251473482596767,0.2886368065947802,0.02218724231283846,-0.07486065045234437,10.042853,0.11515221,-1.5527622,0.56466055,4.791555,-4.2322025,2.077471,0.34672633,-0.1346256,0.073492154,0.92534035,-9.686081,9.346448,1.0142406,0.2886368,0.022187242,-0.07486065,0
1.5600000000000012,10.213113854802462,0.39795547330431436,-0.8392688002653842,-0.07208024574512956,10.262063,-0.04924041,-2.5442052,0.31080925,4.694593,-4.1386194,2.0876112,0.34725842,-0.13425522,0.074815586,0.9250886,-9.70633,9.370049,1.0138246,0.2886368,0.022187242,-0.07486065,0
1.5700000000000012,10.213113854802462,0.39795547330431436,-0.8392688002653842,-0.07208024574512956,10.262063,-0.04924041,-2.5442052,0.31080925,4.5974307,-4.0448008,2.097746,0.34816915,-0.1297078,0.075149894,0.9253679,-9.726059,9.393622,1.0131195,0.39795548,-0.8392688,-0.07208025,0
1.5800000000000012,10.213113854802462,0.39795547330431436,-0.8392688002653842,-0.07208024574512956,10.262063,-0.04924041,-2.5442052,0.31080925,4.5000753,-3.9507475,2.1078746,0.3490723,-0.12515755,0.07548257,0.9256272,-9.744898,9.416965,1.0126462,0.39795548,-0.8392688,-0.07208025,0
1.5900000000000012,10.213113854802462,0.39795547330431436,-0.8392688002653842,-0.07208024574512956,10.262063,-0.04924041,-2.5442052,0.31080925,4.402536,-3.8564622,2.1179996,0.34996793,-0.12060459,0.07581361,0.9258664,-9.762844,9.440072,1.0123963,0.39795548,-0.8392688,-0.07208025,0
1.6000000000000012,10.302962385180592,0.42486075719504185,0.03064704407679286,-0.030138620347350088,10.524695,0.08503908,-2.0783925,0.35431916,4.3048215,-3.7619472,2.128123,0.35085592,-0.11604901,0.076143,0.9260854,-9.779898,9.462942,1.0123618,0.39795548,-0.8392688,-0.07208025,0
1.6100000000000012,10.302962385180592,0.42486075719504185,0.03064704407679286,-0.030138620347350088,10.524695,0.08503908,-2.0783925,0.35431916,4.206939,-3.667203,2.1382515,0.35122952,-0.115456805,0.07814638,0.9258509,-9.796437,9.4859915,1.0133085,0.42486075,0.030647045,-0.030138621,0
1.6200000000000012,10.302962385180592,0.42486075719504185,0.03064704407679286,-0.030138620347350088,10.524695,0.08503908,-2.0783925,0.35431916,4.1088934,-3.5722265,2.1483893,0.35160154,-0.11486407,0.08014941,0.92561215,-9.812708,9.509385,1.014219,0.42486075,0.030647045,-0.030138621,0
1.6300000000000012,10.302962385180592,0.42486075719504185,0.03064704407679286,-0.030138620347350088,10.524695,0.08503908,-2.0783925,0.35431916,4.010687,-3.4770143,2.158536,0.35197195,-0.114270814,0.08215208,0.9253692,-9.828708,9.533123,1.0150919,0.42486075,0.030647045,-0.030138621,0
1.6400000000000012,10.302962385180592,0.42486075719504185,0.03064704407679286,-0.030138620347350088,10.646968,-0.029723287,-2.4102907,0.25595498,3.9123209,-3.3815632,2.1686912,0.35234076,-0.11367704,0.084154375,0.925122,-9.844438,9.557204,1.015925,0.42486075,0.030647045,-0.030138621,0
1.6500000000000012,10.302962385180592,0.42486075719504185,0.03064704407679286,-0.030138620347350088,10.646968,-0.029723287,-2.4102907,0.25595498,3.813799,-3.2858696,2.1788545,0.35270795,-0.113082744,0.08615629,0.9248706,-9.859897,9.581628,1.0167167,0.42486075,0.030647045,-0.030138621,0
1.6600000000000013,10.302962385180592,0.42486075719504185,0.03064704407679286,-0.030138620347350088,10.646968,-0.029723287,-2.4102907,0.25595498,3.7151237,-3.1899295,2.1890254,0.35307354,-0.112487935,0.0881578,0.924615,-9.875084,9.606395,1.0174652,0.42486075,0.030647045,-0.030138621,0
1.6700000000000013,10.302962385180592,0.42486075719504185,0.03064704407679286,-0.030138620347350088,10.646968,-0.029723287,-2.4102907,0.25595498,3.616298,-3.09374,2.1992037,0.3534375,-0.11189261,0.09015892,0.9243552,-9.889999,9.631503,1.018169,0.42486075,0.030647045,-0.030138621,0
1.6800000000000013,10.258947266073168,0.477490430150854,-0.5567264405394864,-0.00978934938230811,11.023952,0.07120964,-2.4704907,0.16246682,3.5173247,-2.997298,2.2093887,0.35379988,-0.11129678,0.09215962,0.92409116,-9.904644,9.656953,1.018826,0.42486075,0.030647045,-0.030138621,0
1.6900000000000013,10.258947266073168,0.477490430150854,-0.5567264405394864,-0.00978934938230811,11.023952,0.07120964,-2.4704907,0.16246682,3.418207,-2.9006007,2.219578,0.35436493,-0.107883535,0.09337493,0.9241573,-9.9187765,9.682505,1.0190718,0.47749043,-0.55672646,-0.0097893495,0
1.7000000000000013,10.258947266073168,0.477490430150854,-0.5567264405394864,-0.00978934938230811,11.023952,0.07120964,-2.4704907,0.16246682,3.3189516,-2.8036478,2.2297704,0.35492522,-0.104468845,0.09458898,0.9242111,-9.932164,9.708053,1.019423,0.47749043,-0.55672646,-0.0097893495,0
1.7100000000000013,10.258947266073168,0.477490430150854,-0.5567264405394864,-0.00978934938230811,11.023952,0.07120964,-2.4704907,0.16246682,3.219566,-2.7064393,2.2399669,0.35548073,-0.101052746,0.095801756,0.92425245,-9.944807,9.733595,1.0198741,0.47749043,-0.55672646,-0.0097893495,0
1.7200000000000013,10.144564112397443,0.4731308558351953,-0.4392335317183891,0.03267748497024094,11.096442,0.0987246,-2.187597,0.28087166,3.120058,-2.6089754,2.2501683,0.35603148,-0.09763529,0.097013235,0.9242814,-9.956703,9.7591305,1.02042,0.47749043,-0.55672646,-0.0097893495,0
1.7300000000000013,10.144564112397443,0.4731308558351953,-0.4392335317183891,0.03267748497024094,11.096442,0.0987246,-2.187597,0.28087166,3.0204353,-2.511258,2.26037,0.35632262,-0.094746806,0.0984333,0.9243197,-9.967762,9.7844,1.0199435,0.47313085,-0.43923354,0.032677487,0
1.7400000000000013,10.144564112397443,0.4731308558351953,-0.4392335317183891,0.03267748497024094,11.096442,0.0987246,-2.187597,0.28087166,2.920705,-2.4132874,2.2705672,0.35661003,-0.09185734,0.09985234,0.9243483,-9.97817,9.809733,1.0195218,0.47313085,-0.43923354,0.032677487,0
1.7500000000000013,10.144564112397443,0.4731308558351953,-0.4392335317183891,0.03267748497024094,11.096442,0.0987246,-2.187597,0.28087166,2.820874,-2.3150632,2.2807605,0.35689375,-0.0889669,0.10127034,0.92436725,-9.987928,9.835129,1.019151,0.47313085,-0.43923354,0.032677487,0
1.7600000000000013,10.13466988838524,0.4764641037649458,-0.08150196697817118,0.08364029093149983,11.583168,0.10819304,-2.7882388,0.18859789,2.7209487,-2.2165847,2.2909503,0.35717374,-0.086075544,0.10268728,0.92437655,-9.997037,9.860588,1.0188268,0.47313085,-0.43923354,0.032677487,0
1.7700000000000014,10.13466988838524,0.4764641037649458,-0.08150196697817118,0.08364029093149983,11.583168,0.10819304,-2.7882388,0.18859789,2.6209352,-2.1178513,2.3011367,0.357033,-0.08480475,0.10477957,0.9243136,-10.005585,9.88617,1.0184181,0.4764641,-0.08150197,0.08364029,0
1.7800000000000014,10.13466988838524,0.4764641037649458,-0.08150196697817118,0.08364029093149983,11.583168,0.10819304,-2.7882388,0.18859789,2.5208383,-2.0188606,2.3113186,0.35689014,-0.08353344,0.10687124,0.92424506,-10.013744,9.912049,1.0179645,0.4764641,-0.08150197,0.08364029,0
1.7900000000000014,10.13466988838524,0.4764641037649458,-0.08150196697817118,0.08364029093149983,11.583168,0.10819304,-2.7882388,0.18859789,2.4206617,-1.9196094,2.3214958,0.35674512,-0.08226163,0.10896226,0.924171,-10.021517,9.938224,1.0174637,0.4764641,-0.08150197,0.08364029,0
1.8000000000000014,9.852226610245838,0.4095114367498281,-0.5466837794955116,0.12118878512741553,11.956723,0.18946421,-2.6163802,0.20127124,2.3204093,-1.8200951,2.3316677,0.35659796,-0.08098932,0.111052625,0.92409134,-10.028902,9.964694,1.0169132,0.4764641,-0.08150197,0.08364029,0
1.8100000000000014,9.852226610245838,0.4095114367498281,-0.5466837794955116,0.12118878512741553,11.956723,0.18946421,-2.6163802,0.20127124,2.2200863,-1.7203186,2.3418205,0.35650527,-0.07766547,0.11201843,0.92429584,-10.035596,9.990586,1.0136362,0.40951145,-0.5466838,0.12118878,0
1.8200000000000014,9.852226610245838,0.4095114367498281,-0.5466837794955116,0.12118878512741553,11.956723,0.18946421,-2.6163802,0.20127124,2.1197,-1.6202834,2.3519409,0.3564083,-0.07434068,0.112982884,0.92448926,-10.041621,10.016423,1.010419,0.40951145,-0.5466838,0.12118878,0
1.8300000000000014,9.852226610245838,0.4095114367498281,-0.5466837794955116,0.12118878512741553,11.956723,0.18946421,-2.6163802,0.20127124,2.0192564,-1.5199901,2.3620293,0.35630703,-0.071015,0.113945976,0.92467153,-10.046978,10.042205,1.007257,0.40951145,-0.5466838,0.12118878,0
1.8400000000000014,9.852226610245838,0.4095114367498281,-0.5466837794955116,0.12118878512741553,12.136876,0.10978159,-3.1728182,0.16763642,1.9187627,-1.4194393,2.3720863,0.35620147,-0.06768845,0.1149077,0.92484266,-10.051666,10.06793,1.0041453,0.40951145,-0.5466838,0.12118878,0
1.8500000000000014,9.852226610245838,0.4095114367498281,-0.5466837794955116,0.12118878512741553,12.136876,0.10978159,-3.1728182,0.16763642,1.8182254,-1.3186316,2.3821123,0.35609162,-0.0643611,0.11586804,0.9250027,-10.055686,10.0936,1.0010793,0.40951145,-0.5466838,0.12118878,0
1.8600000000000014,9.852226610245838,0.4095114367498281,-0.5466837794955116,0.12118878512741553,12.136876,0.10978159,-3.1728182,0.16763642,1.7176514,-1.2175676,2.3921077,0.35597748,-0.061032977,0.11682699,0.9251516,-10.059035,10.119214,0.9980547,0.40951145,-0.5466838,0.12118878,0
1.8700000000000014,9.852226610245838,0.4095114367498281,-0.5466837794955116,0.12118878512741553,12.136876,0.10978159,-3.1728182,0.16763642,1.6170471,-1.1162478,2.4020734,0.35585904,-0.057704117,0.11778454,0.92528933,-10.061716,10.144771,0.9950665,0.40951145,-0.5466838,0.12118878,0
1.8800000000000014,9.868665923927342,0.31119756705350843,0.7003268883852948,0.19873145783995827,12.408363,-0.07431555,-3.4358737,0.20107019,1.5164194,-1.0146725,2.4120092,0.35573632,-0.05437456,0.118740655,0.925416,-10.063726,10.17027,0.99211025,0.40951145,-0.5466838,0.12118878,0
1.8900000000000015,9.868665923927342,0.31119756705350843,0.7003268883852948,0.19873145783995827,12.408363,-0.07431555,-3.4358737,0.20107019,1.4157739,-0.91284156,2.4219162,0.3544828,-0.05694309,0.12147934,0.925387,-10.065435,10.196026,0.9892611,0.31119758,0.70032686,0.19873145,0
1.9000000000000015,9.868665923927342,0.31119756705350843,0.7003268883852948,0.19873145783995827,12.408363,-0.07431555,-3.4358737,0.20107019,1.3151097,-0.81074965,2.4317935,0.35322374,-0.059510723,0.12421612,0.9253436,-10.067452,10.222446,0.98622364,0.31119758,0.70032686,0.19873145,0
1.9100000000000015,9.868665923927342,0.31119756705350843,0.7003268883852948,0.19873145783995827,12.408363,-0.07431555,-3.4358737,0.20107019,1.2144238,-0.70839036,2.4416397,0.35195914,-0.062077425,0.12695096,0.92528564,-10.0697775,10.249531,0.98299235,0.31119758,0.70032686,0.19873145,0
1.9200000000000015,9.454591357328209,0.12441716561288255,-0.7248499846508356,0.2666652916772143,12.1518755,-0.2788474,-3.3329127,0.23225698,1.113713,-0.6057568,2.4514525,0.35068902,-0.06464315,0.12968381,0.9252132,-10.072412,10.277275,0.9795618,0.31119758,0.70032686,0.19873145,0
1.9300000000000015,9.454591357328209,0.12441716561288255,-0.7248499846508356,0.2666652916772143,12.1518755,-0.2788474,-3.3329127,0.23225698,1.0129759,-0.5028496,2.4612107,0.34996295,-0.060898393,0.12907359,0.92582726,-10.0749,10.304119,0.9720823,0.12441716,-0.72485,0.26666528,0
1.9400000000000015,9.454591357328209,0.12441716561288255,-0.7248499846508356,0.2666652916772143,12.1518755,-0.2788474,-3.3329127,0.23225698,0.91221696,-0.39967567,2.4708946,0.34923154,-0.0571527,0.12846139,0.92642725,-10.076798,10.330614,0.96471965,0.12441716,-0.72485,0.26666528,0
1.9500000000000015,9.454591357328209,0.12441716561288255,-0.7248499846508356,0.2666652916772143,12.1518755,-0.2788474,-3.3329127,0.23225698,0.8114419,-0.29623854,2.4805052,0.34849477,-0.053406134,0.12784722,0.927013,-10.078105,10.356762,0.9574684,0.12441716,-0.72485,0.26666528,0
1.9600000000000015,9.346085405363585,-0.1361361535357386,0.35710445698252297,0.3543442610910286,11.577846,-0.1426037,-3.3178902,0.23385271,0.7106568,-0.19254166,2.490044,0.34775266,-0.049658753,0.1272311,0.9275846,-10.07882,10.382562,0.9503233,0.12441716,-0.72485,0.26666528,0
1.9700000000000015,9.346085405363585,-0.1361361535357386,0.35710445698252297,0.3543442610910286,11.577846,-0.1426037,-3.3178902,0.23385271,0.60986656,-0.088589475,2.4995067,0.34584704,-0.051326096,0.12730819,0.9281955,-10.079286,10.407894,0.9421842,-0.13613616,0.35710445,0.35434425,0
1.9800000000000015,9.346085405363585,-0.1361361535357386,0.35710445698252297,0.3543442610910286,11.577846,-0.1426037,-3.3178902,0.23385271,0.50907,0.015616624,2.5088878,0.34393916,-0.05299309,0.12738441,0.9288001,-10.080087,10.433344,0.9340097,-0.13613616,0.35710445,0.35434425,0
1.9900000000000015,9.346085405363585,-0.1361361535357386,0.35710445698252297,0.3543442610910286,11.577846,-0.1426037,-3.3178902,0.23385271,0.40826365,0.12007781,2.5181868,0.3420289,-0.054659724,0.12745976,0.9293984,-10.0812235,10.45891,0.9257986,-0.13613616,0.35710445,0.35434425,0
2.0000000000000013,,,,,11.383123,-0.50418216,-3.3343537,0.30487692,0.3074443,0.22479524,2.5274036,0.34011632,-0.05632599,0.12753424,0.9299904,-10.082696,10.484591,0.91755,-0.13613616,0.35710445,0.35434425,0
2.010000000000001,,,,,11.383123,-0.50418216,-3.3343537,0.30487692,0.2066112,0.32976308,2.536522,0.33927935,-0.04282161,0.12048255,0.93195415,-10.083645,10.508665,0.9062206,-0.45252773,-2.9923646,0.5542968,0
2.020000000000001,,,,,11.383123,-0.50418216,-3.3343537,0.30487692,0.10577761,0.43496177,2.5455296,0.3383621,-0.029307093,0.113402344,0.9336974,-10.082793,10.530764,0.8954165,-0.45252773,-2.9923646,0.5542968,0
2.0300000000000007,,,,,11.383123,-0.50418216,-3.3343537,0.30487692,0.004961578,0.5403715,2.5544317,0.33736476,-0.015785642,0.106295295,0.9352197,-10.080129,10.550875,0.8850552,-0.45252773,-2.9923646,0.5542968,0
2.0400000000000005,,,,,11.383123,-0.50418216,-3.3343537,0.30487692,-0.09581871,0.6459724,2.5632322,0.3362876,-0.0022604547,0.09916309,0.9365207,-10.0756445,10.568989,0.8750538,-0.45252773,-2.9923646,0.5542968,0
2.0500000000000003,,,,,11.847346,-0.61882657,-4.3658295,0.38793507,-0.19654505,0.7517444,2.571934,0.33513084,0.011265268,0.09200743,0.9376,-10.069334,10.5851,0.865329,-0.45252773,-2.9923646,0.5542968,1
2.06,,,,,11.847346,-0.61882657,-4.3658295,0.38793507,-0.29718545,0.857689,2.5806794,0.33527339,0.030869443,0.081747204,0.93805915,-10.058195,10.603212,0.8837695,-0.61882657,-4.3658295,0.38793507,1
2.07,,,,,11.847346,-0.61882657,-4.3658295,0.38793507,-0.39769676,0.9637955,2.5896099,0.33525172,0.050458495,0.07144693,0.9380588,-10.043512,10.61749,0.90235037,-0.61882657,-4.3658295,0.38793507,1
2.0799999999999996,,,,,11.847346,-0.61882657,-4.3658295,0.38793507,-0.49804357,1.0700254,2.598726,0.33506584,0.07002283,0.061111666,0.93759894,-10.0253,10.627916,0.9208413,-0.61882657,-4.3658295,0.38793507,1
2.0899999999999994,,,,,11.534983,-0.9442081,-3.728554,0.29163256,-0.59819067,1.1763406,2.6080258,0.33471584,0.089552864,0.050746463,0.93667984,-10.00358,10.634487,0.93901205,-0.61882657,-4.3658295,0.38793507,1
2.099999999999999,,,,,11.534983,-0.9442081,-3.728554,0.29163256,-0.6981073,1.2827018,2.6174896,0.3346566,0.10549132,0.039944984,0.9355638,-9.97934,10.6371975,0.95364666,-0.9442081,-3.728554,0.29163256,1
2.109999999999999,,,,,11.534983,-0.9442081,-3.728554,0.29163256,-0.79776865,1.3890723,2.627097,0.33447284,0.12139053,0.02912864,0.93409985,-9.952527,10.636336,0.9677267,-0.9442081,-3.728554,0.29163256,1
2.1199999999999988,,,,,11.534983,-0.9442081,-3.728554,0.29163256,-0.8971491,1.4954163,2.6368415,0.3341647,0.13724458,0.018301465,0.93228835,-9.923172,10.631913,0.981084,-0.9442081,-3.728554,0.29163256,1
2.1299999999999986,,,,,12.17101,-1.2207141,-4.641424,0.71013296,-0.9962234,1.6016984,2.6467154,0.33373228,0.15304759,0.0074674804,0.9301301,-9.891307,10.62394,0.9935513,-0.9442081,-3.728554,0.29163256,1
2.1399999999999983,,,,,12.17101,-1.2207141,-4.641424,0.71013296,-1.0949566,1.7078791,2.656739,0.33143917,0.17257585,-0.006498848,0.9275355,-9.85485,10.611451,1.0108881,-1.2207141,-4.641424,0.71013296,1
2.149999999999998,,,,,12.17101,-1.2207141,-4.641424,0.71013296,-1.1933094,1.8139116,2.6669278,0.32895103,0.19200255,-0.020461353,0.924395,-9.815233,10.594335,1.0265784,-1.2207141,-4.641424,0.71013296,1
