t,px,py,pz,qx,qy,qz,qw,vx,vy,vz,wx,wy,wz,throttle_mpc,roll_mpc,pitch_mpc,yaw_mpc,throttle_nw,roll_nw,pitch_nw,yaw_nw,network_used
-2.0,19.514679,-9.035022,1.4488914,-0.39752057,0.17128308,0.8860665999999999,-0.16590787,-11.196371000000001,-6.319476,0.35201520000000003,1.8980898999999998,-0.13700616,-0.6045165,10.528983957824561,5.99999978538838,-5.999999957245509,-5.345664665644711,11.581731,-0.95376605,-4.1357800000000005,-1.0788976000000001,0
-1.99,19.402037,-9.098061,1.4524764,-0.39865318,0.17822687,0.88545185,-0.15901494,-11.331752,-6.287832,0.36455473,1.7836491,-0.29744768,-0.76974463,10.528983957824561,5.99999978538838,-5.999999957245509,-5.345664665644711,12.349788,-4.735356299999999,-5.6596456,0.52867836,0
-1.98,19.288048,-9.160769,1.4561738000000002,-0.39910802,0.18454745,0.8852818000000001,-0.15142989,-11.465455,-6.2536125,0.37453106,1.7119078999999997,-0.45774823,-0.9290886999999999,10.528983957824561,5.99999978538838,-5.999999957245509,-5.345664665644711,12.349788,-4.735356299999999,-5.6596456,0.52867836,0
-1.97,19.172732999999997,-9.223124499999999,1.4599591,-0.39891609999999994,0.19042432,0.88551027,-0.1430941,-11.597171000000001,-6.216921299999999,0.38215459999999996,1.6769326,-0.6186646,-1.0829024,10.528983957824561,5.99999978538838,-5.999999957245509,-5.345664665644711,12.349788,-4.735356299999999,-5.6596456,0.52867836,0
-1.96,19.056112,-9.285101,1.4638096999999999,-0.39809588,0.19601110000000002,0.88608956,-0.133957,-11.726614,-6.1778097,0.38761258,1.6735895,-0.7807071,-1.2315106000000002,10.528983957824561,5.99999978538838,-5.999999957245509,-5.345664665644711,7.225622,-2.5440228,-6.0130625,0.38467655,0
-1.95,18.93821,-9.346673,1.4677046999999999,-0.39665547,0.20143858,0.8869706,-0.123975426,-11.853522,-6.1362906,0.39107144,1.6974308,-0.9441905999999999,-1.3752123,10.528983957824561,5.99999978538838,-5.999999957245509,-5.345664665644711,7.225622,-2.5440228,-6.0130625,0.38467655,0
-1.94,18.819052,-9.407817999999999,1.4716249,-0.39459455,0.20681761,0.88810295,-0.11311297,-11.977644,-6.092347,0.39267954,1.7446003,-1.1092758,-1.5142823,10.528983957824561,5.99999978538838,-5.999999957245509,-5.345664665644711,7.225622,-2.5440228,-6.0130625,0.38467655,0
-1.93,18.69867,-9.468511999999999,1.4755523000000001,-0.39190575,0.21224129,0.8894344000000001,-0.101339445,-12.098736,-6.045943,0.39256927,1.8117488999999998,-1.2760042,-1.6489740000000002,10.528983957824561,5.99999978538838,-5.999999957245509,-5.345664665644711,7.225622,-2.5440228,-6.0130625,0.38467655,0
-1.92,18.577091,-9.5287285,1.4794707,-0.38857600000000003,0.21778692,0.89091074,-0.08863047,-12.216557,-5.9970300000000005,0.39085890000000006,1.8959664,-1.4443257999999999,-1.7795202,13.22272099557387,5.999999901359497,-5.999999985062785,-5.114126052411165,11.138261,-2.5284715,-7.191571700000001,1.0090545,0
-1.91,18.45429,-9.588416,1.4834157,-0.38436994,0.22377859,0.8925168,-0.07480995,-12.343116,-5.940012,0.39783603,2.099666,-1.7193226000000001,-1.9041598999999998,13.22272099557387,5.999999901359497,-5.999999985062785,-5.114126052411165,11.138261,-2.5284715,-7.191571700000001,1.0090545,0
-1.9,18.330244,-9.647518,1.4874214,-0.37906227,0.23049097,0.89421415,-0.059720807,-12.465085,-5.880078299999999,0.40301797,2.3070214,-1.9869212,-2.0258532,13.22272099557387,5.999999901359497,-5.999999985062785,-5.114126052411165,11.138261,-2.5284715,-7.191571700000001,1.0090545,0
-1.89,18.205004000000002,-9.706006,1.4914705,-0.37264749999999996,0.23791017,0.89590794,-0.043374248,-12.582113,-5.8170075,0.40655273,2.5169175,-2.2477257,-2.1446955,13.22272099557387,5.999999901359497,-5.999999985062785,-5.114126052411165,11.138261,-2.5284715,-7.191571700000001,1.0090545,0
-1.8800000000000001,18.07862,-9.763847,1.4955472,-0.36511505,0.24601518,0.8974979,-0.025785357000000002,-12.693837,-5.750634,0.40856352,2.728407,-2.5022414,-2.2607775,13.22272099557387,5.999999901359497,-5.999999985062785,-5.114126052411165,11.138261,-2.5284715,-7.191571700000001,1.0090545,0
-1.87,17.951147,-9.821007,1.4996368,-0.35645038,0.2547783,0.8988784,-0.00697345,-12.799887,-5.680848,0.40914947,2.9406872,-2.7508903,-2.3741846,17.538785860531448,5.999999968795941,-6.0,-4.111591734870261,13.112304,0.64246356,-7.276819000000001,0.43516073,0
-1.8599999999999999,17.822582,-9.877408,1.5037838,-0.34602990000000006,0.26476926,0.8999896999999999,0.013374044,-12.911772000000001,-5.598806,0.42001095,3.406509,-3.2481637,-2.4584854,17.538785860531448,5.999999968795941,-6.0,-4.111591734870261,13.112304,0.64246356,-7.276819000000001,0.43516073,0
-1.85,17.692932,-9.932963,1.5080383,-0.33335114,0.27636585,0.9006895,0.03545753,-13.017561,-5.511282,0.4310126,3.8100815000000003,-3.6781576,-2.5396037000000002,17.538785860531448,5.999999968795941,-6.0,-4.111591734870261,13.112304,0.64246356,-7.276819000000001,0.43516073,0
-1.84,17.562254,-9.987613,1.5124068000000002,-0.31864896,0.28919515,0.90074646,0.059031412000000005,-13.116829999999998,-5.417391,0.44283926,4.1507964,-4.041019,-2.6167414,20.767468897485333,5.9999999780357385,-6.0,-3.2957944745772507,13.735741,1.7545151999999997,-7.736041,-0.32781532,0
-1.83,17.430533999999998,-10.041199,1.5169997,-0.30211067,0.3029587,0.8999594000000001,0.08377513,-13.225395,-5.29847,0.47584304,4.4385633,-4.3471074,-2.6500626,20.767468897485333,5.9999999780357385,-6.0,-3.2957944745772507,13.735741,1.7545151999999997,-7.736041,-0.32781532,0
-1.82,17.29778,-10.093555,1.5219266000000002,-0.28390098,0.31740192,0.89815855,0.10939544400000001,-13.323782999999999,-5.1718574,0.5096685000000001,4.681528599999999,-4.6053915000000005,-2.6817488999999997,20.767468897485333,5.9999999780357385,-6.0,-3.2957944745772507,13.735741,1.7545151999999997,-7.736041,-0.32781532,0
-1.81,17.164097,-10.144608999999999,1.5271951000000001,-0.2641956,0.33227676,0.89519566,0.13571087,-13.410857,-5.037836,0.5441204000000001,4.886669,-4.823334,-2.7118802000000004,20.767468897485333,5.9999999780357385,-6.0,-3.2957944745772507,13.735741,1.7545151999999997,-7.736041,-0.32781532,0
-1.8,17.029606,-10.194288,1.5328102,-0.24315512,0.34736967,0.8909465,0.16255498,-13.485567000000001,-4.896896400000001,0.57893646,5.0598745,-5.007235,-2.7405329,20.999999892208365,5.999999925939197,-5.999999967516161,-2.5613343489242264,14.484860999999999,1.8596259999999998,-7.532108,0.066839546,0
-1.79,16.894428,-10.242517,1.5387813999999997,-0.22089607,0.36251855,0.88532555,0.18969382,-13.547647,-4.748064,0.61528724,5.2062397,-5.1622877,-2.7317395,20.999999892208365,5.999999925939197,-5.999999967516161,-2.5613343489242264,14.484860999999999,1.8596259999999998,-7.532108,0.066839546,0
-1.7799999999999998,16.758701000000002,-10.28923,1.5451148000000001,-0.19752541,0.37758374,0.878273,0.21691155,-13.595410000000001,-4.5937595,0.65131366,5.3298225,-5.293119,-2.723378,20.999999892208365,5.999999925939197,-5.999999967516161,-2.5613343489242264,14.484860999999999,1.8596259999999998,-7.532108,0.066839546,0
-1.77,16.622572,-10.334377,1.5518051000000002,-0.17317323,0.39242387,0.8697333,0.24408677,-13.628131,-4.4349627,0.68660456,5.4341693,-5.403514,-2.7154262000000005,20.999999892208365,5.999999925939197,-5.999999967516161,-2.5613343489242264,14.484860999999999,1.8596259999999998,-7.532108,0.066839546,0
-1.7599999999999998,16.486195000000002,-10.377917,1.558843,-0.14796168,0.40691647,0.85966676,0.27110732,-13.645216,-4.2727675000000005,0.7207177,5.522272599999999,-5.496664,-2.7078648,20.999999892208365,5.999999925939197,-5.999999967516161,-2.5613343489242264,15.146217000000002,2.1723060000000003,-7.0549273,-0.28081754,0
-1.75,16.349726,-10.419825,1.566214,-0.12200588,0.42095527,0.8480476999999998,0.29786940000000006,-13.646216,-4.108363,0.75318927,5.596661,-5.575264,-2.7006745,20.999999892208365,5.999999925939197,-5.999999967516161,-2.5613343489242264,15.146217000000002,2.1723060000000003,-7.0549273,-0.28081754,0
-1.7399999999999998,16.213327,-10.460082,1.5738995,-0.09541474,0.43444794,0.83486253,0.32427675,-13.630829,-3.9430110000000003,0.7835424,5.6594706,-5.6415863,-2.6938372000000004,20.999999892208365,5.999999925939197,-5.999999967516161,-2.5613343489242264,15.146217000000002,2.1723060000000003,-7.0549273,-0.28081754,0
-1.73,16.077166000000002,-10.498687,1.5818758999999998,-0.068291545,0.4473143,0.82010853,0.35024,-13.598903,-3.7780278,0.8112956,5.7125015,-5.6975492999999995,-2.6873353,20.999999892208365,5.999999925939197,-5.999999967516161,-2.5613343489242264,15.146217000000002,2.1723060000000003,-7.0549273,-0.28081754,0
-1.72,15.941406,-10.535649000000001,1.5901148,-0.040734503,0.45948458,0.8037923,0.37567598,-13.550436,-3.6147652000000003,0.8359706,5.757276999999999,-5.7447715,-2.6811523,21.0,4.672389957390141,-5.453024104667362,-0.3533814418939724,15.414074,2.0568168,-5.1079545,-0.32058623,0
-1.71,15.806213,-10.570992,1.5985831,-0.013090723,0.47057632,0.7862854,0.40017703,-13.485624,-3.454593,0.8571261,5.5885940000000005,-5.698562,-2.566928,21.0,4.672389957390141,-5.453024104667362,-0.3533814418939724,15.414074,2.0568168,-5.1079545,-0.32058623,0
-1.7,15.671748000000001,-10.604754,1.6072444,0.014361434,0.48032266,0.76798046,0.42342624,-13.405066,-3.2988544,0.8744985999999999,5.446178,-5.6596459999999995,-2.4583085,21.0,4.672389957390141,-5.453024104667362,-0.3533814418939724,15.414074,2.0568168,-5.1079545,-0.32058623,0
-1.69,15.538164000000002,-10.636988,1.6160594,0.041629516,0.48882008,0.74891526,0.44547470000000006,-13.309512,-3.1487942,0.8878912,5.3259373,-5.626871599999999,-2.355019,21.0,4.672389957390141,-5.453024104667362,-0.3533814418939724,15.414074,2.0568168,-5.1079545,-0.32058623,0
-1.68,15.405607,-10.667753999999999,1.6249878,0.0687168,0.49614763,0.7291223000000001,0.46636462,-13.199765,-3.0055554,0.8971131999999999,5.2244177,-5.599269400000001,-2.2567983,20.999999988790613,3.235817529428468,-3.047580085684669,-0.13339940815189766,14.913463,1.1393098999999998,-2.9064116,0.40901867,0
-1.67,15.274215,-10.697125999999999,1.6339868,0.09467088,0.502423,0.70902365,0.48568892,-13.076749000000001,-2.8701186,0.90199167,4.915237,-5.200545,-2.1526027,20.999999988790613,3.235817529428468,-3.047580085684669,-0.13339940815189766,14.913463,1.1393098999999998,-2.9064116,0.40901867,0
-1.66,15.144113,-10.725184,1.6430125,0.11875744,0.5078275,0.6890651999999999,0.5031865,-12.941833500000001,-2.7429602,0.90243924,4.654119000000001,-4.8641233,-2.0535200000000002,20.999999988790613,3.235817529428468,-3.047580085684669,-0.13339940815189766,14.913463,1.1393098999999998,-2.9064116,0.40901867,0
-1.65,15.015413,-10.752013999999999,1.6520202000000002,0.14127178,0.51249385,0.6692864000000001,0.5190835,-12.796391499999999,-2.6243062000000004,0.8984300999999999,4.433597,-4.5802665000000005,-1.9592991000000002,20.999999988790613,3.235817529428468,-3.047580085684669,-0.13339940815189766,14.913463,1.1393098999999998,-2.9064116,0.40901867,0
-1.64,14.888217000000001,-10.7777,1.6609658,0.16246411,0.51652193,0.6497034,0.5335688000000001,-12.641625999999999,-2.5143077000000003,0.88996655,4.247364,-4.340758999999999,-1.8697017,20.999999750045426,1.252090905826065,-0.6493809113705448,0.460707518501133,15.083599,0.062275625999999994,-0.18608119,0.5094001,0
-1.63,14.76261,-10.802331,1.6698045,0.18154289999999998,0.5199942,0.6309446,0.54640335,-12.478666,-2.4129782000000004,0.8771007,3.7812371,-3.7642387999999998,-1.7553478,20.999999750045426,1.252090905826065,-0.6493809113705448,0.460707518501133,15.083599,0.062275625999999994,-0.18608119,0.5094001,0
-1.6199999999999999,14.638668,-10.82599,1.6784935,0.19792296,0.5230461,0.6135835,0.5574623000000001,-12.308873,-2.3197799,0.8600883,3.387608,-3.2777867,-1.6466054,20.999999750045426,1.252090905826065,-0.6493809113705448,0.460707518501133,15.083599,0.062275625999999994,-0.18608119,0.5094001,0
-1.6099999999999999,14.516453,-10.848754,1.686993,0.21207392,0.52579945,0.59752125,0.567034,-12.133467,-2.2340062,0.83924216,3.0552099,-2.8673246,-1.5431988,20.999999750045426,1.252090905826065,-0.6493809113705448,0.460707518501133,15.083599,0.062275625999999994,-0.18608119,0.5094001,0
-1.5999999999999999,14.396015,-10.870694,1.6952661,0.22438845,0.52833784,0.5826484000000001,0.57535154,-11.953413000000001,-2.1549970000000003,0.8148495,2.774525,-2.5209764999999997,-1.4448665,20.999918156382044,-0.8994497474844955,1.6464858562125746,1.2854630470713788,15.918617000000001,-1.7413285,1.674137,0.89265424,0
-1.5899999999999999,14.277398000000002,-10.891875,1.7032787,0.23422274,0.53073615,0.5695859000000001,0.5822630999999999,-11.769535000000001,-2.0820563,0.7872073,2.2023490000000003,-1.8703293999999997,-1.3108885000000001,20.999918156382044,-0.8994497474844955,1.6464858562125746,1.2854630470713788,15.918617000000001,-1.7413285,1.674137,0.89265424,0
-1.5799999999999998,14.160635000000001,-10.912352,1.7110008,0.24110602,0.5330865,0.55885386,0.5876807,-11.582771000000001,-2.0139933,0.75681204,1.7192060000000002,-1.3213264999999998,-1.1834848,20.999918156382044,-0.8994497474844955,1.6464858562125746,1.2854630470713788,15.918617000000001,-1.7413285,1.674137,0.89265424,0
-1.5699999999999998,14.04575,-10.932166,1.7184072,0.24556512,0.5354444,0.5501924,0.59184885,-11.393928,-1.9495598000000003,0.72416914,1.3112546999999999,-0.85807806,-1.0623329,20.999918156382044,-0.8994497474844955,1.6464858562125746,1.2854630470713788,15.918617000000001,-1.7413285,1.674137,0.89265424,0
-1.5599999999999998,13.932761,-10.95135,1.7254778000000002,0.24803461,0.5378354999999999,0.5433574999999999,0.59495735,-11.203616,-1.8876665000000001,0.6897045999999999,0.96680367,-0.46718055,-0.9471259,20.999918156382044,-0.8994497474844955,1.6464858562125746,1.2854630470713788,18.505312,-3.071038,2.9177508,0.27722558,0
-1.5499999999999998,13.821681,-10.969924,1.7321962,0.24887325,0.54026693,0.5381258000000001,0.59715503,-11.012309,-1.8273703999999997,0.65377265,0.6759769,-0.13732654,-0.8375720999999999,20.999918156382044,-0.8994497474844955,1.6464858562125746,1.2854630470713788,18.505312,-3.071038,2.9177508,0.27722558,0
-1.5399999999999998,13.712517000000002,-10.987900999999999,1.7385491999999998,0.2483774,0.54273456,0.5342969,0.59856033,-10.820376,-1.7678613999999997,0.6166651999999999,0.43043329999999996,0.14102203,-0.73339415,20.999918156382044,-0.8994497474844955,1.6464858562125746,1.2854630470713788,18.505312,-3.071038,2.9177508,0.27722558,0
-1.5299999999999998,13.605274,-11.005282000000001,1.7445263999999998,0.24679218,0.5452281,0.5316926,0.5992684,-10.628119,-1.7084471999999997,0.57862073,0.22312745,0.37591252,-0.6343281999999999,20.999918156382044,-0.8994497474844955,1.6464858562125746,1.2854630470713788,18.505312,-3.071038,2.9177508,0.27722558,0
-1.5199999999999998,13.499954,-11.022067999999999,1.7501191999999999,0.24432059,0.5477343000000001,0.5301563,0.5993569000000001,-10.435785000000001,-1.6485386999999998,0.5398328,0.04810944,0.5741335,-0.54012346,20.99999892541429,-3.3317703474239844,4.480243132666406,1.8290078149696112,18.412933,-3.338836,4.0736156,-0.00689492,0
-1.5099999999999998,13.396557000000001,-11.03825,1.7553211,0.23998252,0.5503848000000001,0.53039867,0.59846634,-10.243632,-1.5875117,0.50049466,-0.478854,1.1834407,-0.42386949999999995,20.99999892541429,-3.3317703474239844,4.480243132666406,1.8290078149696112,18.412933,-3.338836,4.0736156,-0.00689492,0
-1.4999999999999998,13.295078,-11.053811,1.7601285,0.23300774,0.5532643,0.53296185,0.5962863,-10.052191,-1.5241215,0.4609705,-0.92374307,1.6976333,-0.31332016,20.99999892541429,-3.3317703474239844,4.480243132666406,1.8290078149696112,18.412933,-3.338836,4.0736156,-0.00689492,0
-1.4899999999999998,13.195507999999998,-11.068721,1.7645413,0.22382788,0.5562841,0.53747815,0.5929300000000001,-9.862052,-1.4570823,0.42161718,-1.2993296,2.131569,-0.20819552,20.99999892541429,-3.3317703474239844,4.480243132666406,1.8290078149696112,18.412933,-3.338836,4.0736156,-0.00689492,0
-1.4799999999999998,13.09783,-11.082938,1.7685624,0.21280095,0.55935663,0.5436219,0.58848184,-9.673781,-1.3853316,0.382709,-1.6163992,2.4977822,-0.10822938,20.99999964026809,-5.143063486252016,5.573123758299649,1.7949121130775505,18.970072000000002,-4.1767673,5.23813,-0.1346673,0
-1.4699999999999998,13.002023,-11.09641,1.7721977,0.19955741,0.562257,0.5515966999999999,0.58291054,-9.48798,-1.3079481000000002,0.34449008,-2.1665262999999997,2.9772887000000003,-0.014841683,20.99999964026809,-5.143063486252016,5.573123758299649,1.7949121130775505,18.970072000000002,-4.1767673,5.23813,-0.1346673,0
-1.4599999999999997,12.908058,-11.109075,1.7754561000000002,0.18381096,0.56476593,0.5615128,0.57615614,-9.305475,-1.2238746,0.30736583,-2.630906,3.3819616000000003,0.07396345,20.99999964026809,-5.143063486252016,5.573123758299649,1.7949121130775505,18.970072000000002,-4.1767673,5.23813,-0.1346673,0
-1.4499999999999997,12.815899,-11.12086,1.7783502,0.16594934,0.5668098000000001,0.5729695,0.56823677,-9.127189,-1.1321823999999998,0.27171206,-3.022896,3.7234879000000003,0.15841089,20.99999964026809,-5.143063486252016,5.573123758299649,1.7949121130775505,18.970072000000002,-4.1767673,5.23813,-0.1346673,0
-1.4399999999999997,12.725496000000001,-11.131689,1.7808963,0.1463016,0.5683196,0.5856136,0.5591647,-8.954063,-1.0321851999999998,0.23779474,-3.3537738,4.011729,0.23871447,20.99999980625636,-5.9168003112490855,5.3005797963504495,1.5366185248048965,21.176481,-4.834042500000001,5.131921299999999,0.26963714,0
-1.4299999999999997,12.636796,-11.141473,1.7831128,0.12502314,0.56899405,0.5992769,0.5490738000000001,-8.7870655,-0.92341965,0.20581336,-3.753682,4.212507700000001,0.30240300000000003,20.99999980625636,-5.9168003112490855,5.3005797963504495,1.5366185248048965,21.176481,-4.834042500000001,5.131921299999999,0.26963714,0
-1.4199999999999997,12.549731,-11.1501255,1.7850203999999998,0.10225863,0.5685816,0.61379504,0.53806484,-8.627235,-0.805633,0.17604399,-4.091225,4.381965,0.36296636,20.99999980625636,-5.9168003112490855,5.3005797963504495,1.5366185248048965,21.176481,-4.834042500000001,5.131921299999999,0.26963714,0
-1.4099999999999997,12.464224,-11.157555,1.7866422,0.078256436,0.5670939,0.6288816999999999,0.5261066,-8.47563,-0.6787687,0.14871232,-4.376126,4.5249915000000005,0.42055777,20.99999980625636,-5.9168003112490855,5.3005797963504495,1.5366185248048965,21.176481,-4.834042500000001,5.131921299999999,0.26963714,0
-1.3999999999999997,12.380186,-11.16367,1.7880034,0.05323285,0.56454325,0.6442856,0.5131793,-8.333285,-0.54295075,0.12394124,-4.616592,4.6457143,0.4753232,20.99999987863998,-5.751031488873386,4.217160592437091,1.2099085244448684,21.662909,-4.275797,4.0712695,0.5937131999999999,0
-1.3899999999999997,12.297522,-11.168384,1.7891301,0.027670417000000003,0.5607724000000001,0.6597144,0.4995451,-8.2011795,-0.39849836,0.10178015,-4.7935944,4.5787144,0.5113694999999999,20.99999987863998,-5.751031488873386,4.217160592437091,1.2099085244448684,21.662909,-4.275797,4.0712695,0.5937131999999999,0
-1.3799999999999997,12.216124,-11.171613,1.7900484,0.00197226,0.5556865,0.67494994,0.48543903,-8.080105,-0.24603456,0.08229589,-4.942988400000001,4.52217,0.545647,20.99999987863998,-5.751031488873386,4.217160592437091,1.2099085244448684,21.662909,-4.275797,4.0712695,0.5937131999999999,0
-1.3699999999999997,12.135879,-11.173278999999999,1.7907853,-0.023793556,0.5493829000000001,0.68988556,0.47081846,-7.970744,-0.08631071,0.06551575,-5.069080400000001,4.474451999999999,0.57824254,20.99999987863998,-5.751031488873386,4.217160592437091,1.2099085244448684,21.662909,-4.275797,4.0712695,0.5937131999999999,0
-1.3599999999999997,12.056666,-11.173316999999999,1.7913678,-0.049566552,0.54194754,0.7044256999999999,0.45565367,-7.8737183,0.07987165,0.051401182999999996,-5.175504,4.434183,0.60923856,20.99999987863998,-5.751031488873386,4.217160592437091,1.2099085244448684,22.206259,-3.9816027000000003,2.479563,0.6481985,0
-1.3499999999999996,11.97836,-11.171663,1.7918221,-0.075292416,0.5334565,0.71848476,0.4399258,-7.7895823,0.2516659,0.039856415,-5.2653284000000005,4.400201999999999,0.63871366,20.99999987863998,-5.751031488873386,4.217160592437091,1.2099085244448684,22.206259,-3.9816027000000003,2.479563,0.6481985,0
-1.3399999999999996,11.900829,-11.168267,1.7921733,-0.10092187,0.5239775999999999,0.7319861999999999,0.42362510000000003,-7.718822,0.42818588,0.030736076,-5.341141,4.371527700000001,0.6667423000000001,20.99999987863998,-5.751031488873386,4.217160592437091,1.2099085244448684,22.206259,-3.9816027000000003,2.479563,0.6481985,0
-1.3299999999999996,11.823936999999999,-11.163086,1.7924445,-0.12640975,0.51357174,0.7448619000000001,0.40674955,-7.66185,0.6085115,0.02385202,-5.4051279999999995,4.347332499999999,0.6933956,20.99999987863998,-5.751031488873386,4.217160592437091,1.2099085244448684,22.206259,-3.9816027000000003,2.479563,0.6481985,0
-1.3199999999999996,11.747544,-11.156086,1.7926573000000001,-0.15171432,0.5022941,0.75705093,0.3893034,-7.619003299999999,0.7916949000000001,0.018979425,-5.4591335999999995,4.3269176,0.71874106,20.9999998505015,-4.796449016248034,2.7391068377520917,0.7961067408034517,23.495255,-4.392623,1.9327893,0.28273234,0
-1.3099999999999996,11.671507,-11.147244,1.7928302,-0.17622826,0.49025878,0.76839525,0.37169677,-7.590478999999999,0.9767515,0.015874624,-5.3556824,4.0793343,0.72253746,20.9999998505015,-4.796449016248034,2.7391068377520917,0.7961067408034517,23.495255,-4.392623,1.9327893,0.28273234,0
-1.2999999999999996,11.595685000000001,-11.136548,1.79298,-0.19947954,0.47760559999999996,0.7788313,0.35429135,-7.576038400000001,1.1626268999999998,0.014348403999999999,-5.268381,3.8703554,0.72614753,20.9999998505015,-4.796449016248034,2.7391068377520917,0.7961067408034517,23.495255,-4.392623,1.9327893,0.28273234,0
-1.2899999999999996,11.519938,-11.123992999999999,1.7931218,-0.22161597,0.4644103,0.78842974,0.33702773,-7.5753,1.3483251,0.014233683,-5.1947083,3.6939611000000006,0.7295804,20.9999998505015,-4.796449016248034,2.7391068377520917,0.7961067408034517,23.495255,-4.392623,1.9327893,0.28273234,0
-1.2799999999999996,11.444133,-11.109587,1.7932689,-0.24276282,0.45073354,0.7972438000000001,0.31985557,-7.587886,1.5329381000000002,0.015359978,-5.132537,3.5450706,0.7328449,20.999999699092253,-3.3067282341107846,1.02439091777683,0.3044766925547287,23.587393,-4.4072795,1.1413977,-0.09864893599999999,0
-1.2699999999999996,11.368136,-11.093341,1.7934328000000002,-0.26232138,0.43687879999999996,0.8052133,0.30324218,-7.613334,1.7156360000000002,0.017565268999999998,-4.8475722999999995,3.1521745,0.71182483,20.999999699092253,-3.3067282341107846,1.02439091777683,0.3044766925547287,23.587393,-4.4072795,1.1413977,-0.09864893599999999,0
-1.2599999999999996,11.291825,-11.075282000000001,1.7936237000000002,-0.27984905,0.42313105,0.8123661,0.28758597,-7.650721000000001,1.8957157999999998,0.02076949,-4.6070876,2.8205194,0.6918361999999999,20.999999699092253,-3.3067282341107846,1.02439091777683,0.3044766925547287,23.587393,-4.4072795,1.1413977,-0.09864893599999999,0
-1.2499999999999996,11.215085,-11.055438,1.7938515,-0.29565266,0.40949997,0.8188446999999999,0.2727498,-7.69906,2.07262,0.02493714,-4.404139499999999,2.5405602000000003,0.6728283,20.999999699092253,-3.3067282341107846,1.02439091777683,0.3044766925547287,23.587393,-4.4072795,1.1413977,-0.09864893599999999,0
-1.2399999999999995,11.13781,-11.033843,1.7941256999999997,-0.30999032,0.39598373,0.82475567,0.2586129,-7.757487299999999,2.2459006,0.030043466,-4.2328677,2.3042395,0.6547531999999999,20.99999867046691,-1.4471218805635369,-0.6871700198677303,-0.20267468629893465,21.297468,-4.3510566,0.31970355,-0.06758085,0
-1.2299999999999995,11.059903,-11.010535,1.7944555,-0.3223533,0.38300094,0.8300995999999999,0.24562772,-7.825157000000001,2.4152202999999997,0.03608031,-3.7981822,1.8380212,0.61267895,20.99999867046691,-1.4471218805635369,-0.6871700198677303,-0.20267468629893465,21.297468,-4.3510566,0.31970355,-0.06758085,0
-1.2199999999999995,10.981278999999999,-10.985553999999999,1.7948508,-0.3323758,0.37090796,0.8349369000000001,0.23416589,-7.900825,2.5804904,0.04312119,-3.4313404999999997,1.4444551,0.57266927,20.99999867046691,-1.4471218805635369,-0.6871700198677303,-0.20267468629893465,21.297468,-4.3510566,0.31970355,-0.06758085,0
-1.2099999999999995,10.901863,-10.95894,1.7953221000000001,-0.34044509999999994,0.3596014,0.83940494,0.22401547,-7.9832716,2.7417588,0.051278412,-3.1217509999999997,1.1122226999999998,0.5346229,20.99999867046691,-1.4471218805635369,-0.6871700198677303,-0.20267468629893465,21.297468,-4.3510566,0.31970355,-0.06758085,0
-1.1999999999999995,10.821593,-10.930733,1.7958807,-0.34688267,0.34898186,0.8436007999999999,0.21499161,-8.071477,2.899119,0.06066731,-2.860476,0.8317671,0.49844350000000004,20.016641308069815,0.3890602736742203,-2.0184021287517155,-0.5317411025066207,21.424887,-3.2821085,-0.9024615,-0.026081238,0
-1.1899999999999995,10.740438000000001,-10.901007,1.7965145,-0.35136628,0.3394533,0.8475219999999999,0.20741072,-8.160158000000001,3.0455341000000002,0.06630906,-2.3535547,0.38752794,0.44789207,20.016641308069815,0.3890602736742203,-2.0184021287517155,-0.5317411025066207,21.424887,-3.2821085,-0.9024615,-0.026081238,0
-1.1799999999999995,10.658379,-10.869833,1.7972119,-0.35366493,0.33133847,0.8511903000000001,0.20152059,-8.252303,3.188757,0.07338316,-1.9257349,0.012510531,0.39982116,20.016641308069815,0.3890602736742203,-2.0184021287517155,-0.5317411025066207,21.424887,-3.2821085,-0.9024615,-0.026081238,0
-1.1699999999999995,10.575384,-10.837241,1.7979877,-0.35414124,0.32443473,0.8546847,0.19707781,-8.346827000000001,3.3292308,0.082043886,-1.56467,-0.30406782,0.35410917,20.016641308069815,0.3890602736742203,-2.0184021287517155,-0.5317411025066207,21.424887,-3.2821085,-0.9024615,-0.026081238,0
-1.1599999999999995,10.491436,-10.803257,1.7988586,-0.3530937,0.318562,0.85805357,0.19387296,-8.442831,3.4673586000000003,0.09243254,-1.259941,-0.57131076,0.31064022,20.016641308069815,0.3890602736742203,-2.0184021287517155,-0.5317411025066207,18.935370000000002,-2.418584,-1.5783539,-0.18957844,0
-1.1499999999999995,10.406525,-10.767901,1.7998427,-0.35076907,0.31356215,0.8613246999999999,0.19172679999999998,-8.539563000000001,3.6034975,0.10467303,-1.0027555000000001,-0.7969042,0.26930429999999994,20.016641308069815,0.3890602736742203,-2.0184021287517155,-0.5317411025066207,18.935370000000002,-2.418584,-1.5783539,-0.18957844,0
-1.1399999999999995,10.320644,-10.731193,1.8009589,-0.3473718,0.30929777,0.8645127,0.19048649,-8.636394000000001,3.7379559999999996,0.11887001,-0.7856941,-0.98733777,0.22999677,20.016641308069815,0.3890602736742203,-2.0184021287517155,-0.5317411025066207,18.935370000000002,-2.418584,-1.5783539,-0.18957844,0
-1.1299999999999994,10.233798,-10.693147,1.8022271,-0.34307194,0.30565012,0.86762375,0.19002192,-8.732793,3.8709972,0.13510887,-0.6024954,-1.1480892,0.19261809,20.016641308069815,0.3890602736742203,-2.0184021287517155,-0.5317411025066207,18.935370000000002,-2.418584,-1.5783539,-0.18957844,0
-1.1199999999999994,10.145991,-10.653775999999999,1.8036683,-0.33801135,0.3025172,0.87065876,0.19022255,-8.828307,4.002841,0.15345658,-0.44787538,-1.2837839,0.15707356,19.20175781386964,1.8462844880931872,-2.776757863760003,-0.8751269678885114,17.621534,-1.3554177,-2.0002725,-0.5053665,0
-1.1099999999999994,10.057256,-10.61312,1.8052796000000002,-0.33194563,0.3002479,0.87353307,0.19131897,-8.918673,4.1283765,0.1691329,-0.09012813,-1.5165722,0.10642319,19.20175781386964,1.8462844880931872,-2.776757863760003,-0.8751269678885114,17.621534,-1.3554177,-2.0002725,-0.5053665,0
-1.0999999999999994,9.967626,-10.571212,1.8070581000000001,-0.3246845,0.2991114,0.87617034,0.19348800000000002,-9.007164,4.253334,0.186899,0.21181460000000002,-1.7130827000000002,0.05825825,19.20175781386964,1.8462844880931872,-2.776757863760003,-0.8751269678885114,17.621534,-1.3554177,-2.0002725,-0.5053665,0
-1.0899999999999994,9.877123,-10.528054,1.8090248,-0.3164087,0.29891816,0.87857467,0.19656992,-9.093167,4.3780722999999995,0.2067551,0.46665984,-1.878966,0.01245677,19.20175781386964,1.8462844880931872,-2.776757863760003,-0.8751269678885114,17.621534,-1.3554177,-2.0002725,-0.5053665,0
-1.0799999999999994,9.785772999999999,-10.48365,1.8112004000000002,-0.30726933,0.29950598,0.8807438,0.20042884,-9.17615,4.5028777,0.2286839,0.68175554,-2.0189934,-0.031097202999999997,18.370144162030527,2.9358898258079136,-3.1487757380946384,-1.1020376266030674,16.472051999999998,0.07033489,-1.9587265999999999,-0.97110397,0
-1.0699999999999994,9.693628,-10.438023,1.8135791,-0.29718173,0.30108179999999996,0.8825789,0.20515071,-9.252184,4.622575299999999,0.24735802,1.0332081,-2.195224,-0.08364855,18.370144162030527,2.9358898258079136,-3.1487757380946384,-1.1020376266030674,16.472051999999998,0.07033489,-1.9587265999999999,-0.97110397,0
-1.0599999999999994,9.600743,-10.391195,1.8161539,-0.28608063,0.3037975,0.8839857,0.21079333,-9.32429,4.7428813,0.26788187,1.3298459999999999,-2.3439887,-0.13362120000000002,18.370144162030527,2.9358898258079136,-3.1487757380946384,-1.1020376266030674,16.472051999999998,0.07033489,-1.9587265999999999,-0.97110397,0
-1.0499999999999994,9.507158,-10.343162,1.8189428,-0.27410924,0.30745009999999995,0.88496184,0.21721154,-9.391913,4.864071,0.29013276,1.5802201999999999,-2.4695650000000002,-0.18114169,18.370144162030527,2.9358898258079136,-3.1487757380946384,-1.1020376266030674,16.472051999999998,0.07033489,-1.9587265999999999,-0.97110397,0
-1.0399999999999994,9.412922,-10.29391,1.8219623999999999,-0.26138896,0.31186655,0.8855013,0.22428155,-9.454566,4.9863367,0.31397364,1.7915478999999999,-2.5755646,-0.22633033,17.671378983542358,3.495727986149162,-3.1456538208322646,-1.2933174961829028,14.824155,0.76292133,-1.9341203000000002,-1.1626315,0
-1.0299999999999994,9.318097,-10.243453,1.8252039,-0.24798062,0.31709185,0.8855199,0.23197542,-9.509633000000001,5.1051145,0.33455262,2.05721,-2.6645784,-0.2786877,17.671378983542358,3.495727986149162,-3.1456538208322646,-1.2933174961829028,14.824155,0.76292133,-1.9341203000000002,-1.1626315,0
-1.0199999999999994,9.222749,-10.191803,1.8286574,-0.23393683,0.32315052,0.88494116,0.24026245,-9.559069000000001,5.2251900000000004,0.35629752,2.2814436000000002,-2.7397162999999995,-0.32847586,17.671378983542358,3.495727986149162,-3.1456538208322646,-1.2933174961829028,14.824155,0.76292133,-1.9341203000000002,-1.1626315,0
-1.0099999999999993,9.126936,-10.138945,1.8323331000000003,-0.21934326,0.32987863,0.8837687,0.24904065,-9.602478,5.3466515999999995,0.37897533,2.4707107999999995,-2.803139,-0.3758209,17.671378983542358,3.495727986149162,-3.1456538208322646,-1.2933174961829028,14.824155,0.76292133,-1.9341203000000002,-1.1626315,0
-0.9999999999999991,9.030721,-10.084864999999999,1.8362392,-0.20427420000000002,0.33713663,0.88200444,0.25822258,-9.639513,5.4695206,0.4023485,2.6304648,-2.8566700000000003,-0.42084274,17.708082514379523,3.632283324221937,-2.7062921071194284,-1.5054658431058756,13.196064999999999,0.86299646,-2.1629992000000002,-1.4610143999999998,0
-0.9899999999999991,8.934169,-10.029548,1.8403828000000002,-0.18894437,0.34489509999999995,0.8795907,0.26770768,-9.669949,5.594026599999999,0.42641968,2.786606,-2.8333578,-0.4740655,17.708082514379523,3.632283324221937,-2.7062921071194284,-1.5054658431058756,13.196064999999999,0.86299646,-2.1629992000000002,-1.4610143999999998,0
-0.9799999999999991,8.837346,-9.97298,1.844768,-0.17353071,0.3531268,0.87648755,0.27741286,-9.693501,5.719878700000001,0.45063149999999996,2.9184022,-2.8136787,-0.5246765999999999,17.708082514379523,3.632283324221937,-2.7062921071194284,-1.5054658431058756,13.196064999999999,0.86299646,-2.1629992000000002,-1.4610143999999998,0
-0.9699999999999993,8.740323,-9.915146,1.8493948,-0.1580431,0.36172467,0.87272024,0.28729203,-9.7100115,5.8470106,0.47467276,3.0296493,-2.7970648,-0.57280415,17.708082514379523,3.632283324221937,-2.7062921071194284,-1.5054658431058756,13.196064999999999,0.86299646,-2.1629992000000002,-1.4610143999999998,0
-0.9599999999999993,8.64317,-9.856036,1.8542598000000001,-0.1424918,0.3705973,0.8683105,0.29730502,-9.719346,5.975314,0.49824700000000005,3.123552,-2.7830369999999998,-0.6185701,17.708082514379523,3.632283324221937,-2.7062921071194284,-1.5054658431058756,12.442404,0.5617489999999999,-1.9749887,-1.4025133,0
-0.9499999999999993,8.545961,-9.795637,1.8593572,-0.12688728,0.37966669999999997,0.8632771999999999,0.30741665,-9.721397999999999,6.104645,0.52107114,3.2028142999999996,-2.7711914,-0.6620903,17.708082514379523,3.632283324221937,-2.7062921071194284,-1.5054658431058756,12.442404,0.5617489999999999,-1.9749887,-1.4025133,0
-0.9399999999999993,8.448769,-9.733939999999999,1.8646778999999998,-0.11124014,0.38886628,0.8576369,0.31759605,-9.716083,6.2348294,0.5428746,3.2697194,-2.7611876,-0.70347506,17.708082514379523,3.632283324221937,-2.7062921071194284,-1.5054658431058756,12.442404,0.5617489999999999,-1.9749887,-1.4025133,0
-0.9299999999999993,8.3516655,-9.6709385,1.8702104,-0.09556103,0.39813912,0.8514046999999999,0.32781568,-9.703337,6.3656690000000005,0.56339824,3.326194,-2.7527378,-0.74282897,17.708082514379523,3.632283324221937,-2.7062921071194284,-1.5054658431058756,12.442404,0.5617489999999999,-1.9749887,-1.4025133,0
-0.9199999999999993,8.254727,-9.606626499999999,1.8759407,-0.07986051,0.40743652,0.84459406,0.3380509,-9.683122000000001,6.4969425,0.5823944999999999,3.3738650000000003,-2.7455997,-0.7802518,17.124422933389294,3.1246212917005987,-2.050810221374789,-1.5325283290986305,13.129484,-0.16638818,-1.4245188,-1.1687876,0
-0.9099999999999993,8.158025,-9.541021,1.8818331999999998,-0.06444107,0.41663706,0.837284,0.34816098,-9.656360000000001,6.6240826,0.5958270999999999,3.3349867,-2.6373086,-0.8171662,17.124422933389294,3.1246212917005987,-2.050810221374789,-1.5325283290986305,13.129484,-0.16638818,-1.4245188,-1.1687876,0
-0.8999999999999992,8.0616255,-9.474145,1.8878508000000003,-0.049545698,0.42565405,0.8295609,0.35803953,-9.622548,6.751200999999999,0.607354,3.3021705000000003,-2.5459027,-0.85226923,17.124422933389294,3.1246212917005987,-2.050810221374789,-1.5325283290986305,13.129484,-0.16638818,-1.4245188,-1.1687876,0
-0.8899999999999992,7.965598,-9.405998,1.8939732,-0.03510355,0.43449488,0.8214438000000001,0.36771154,-9.581892999999999,6.878095599999999,0.61679757,3.2744708,-2.4687493,-0.8856497,17.124422933389294,3.1246212917005987,-2.050810221374789,-1.5325283290986305,13.129484,-0.16638818,-1.4245188,-1.1687876,0
-0.8799999999999992,7.8700113,-9.336584,1.900179,-0.021055027999999996,0.44316444,0.8129479000000001,0.3771968,-9.534582,7.004564299999999,0.6239979999999999,3.2510893,-2.4036257,-0.91739213,16.569996590098118,2.17606100844172,-1.3298029028447178,-1.456297856483333,13.674473999999998,-0.8095332,-1.2467774,-0.5454239000000001,0
-0.8699999999999992,7.7749205,-9.265929,1.9064282,-0.0077242237,0.45147109999999996,0.8042585999999999,0.38637048,-9.482564,7.126336,0.62549096,3.0835004,-2.2361171000000004,-0.9438363999999999,16.569996590098118,2.17606100844172,-1.3298029028447178,-1.456297856483333,13.674473999999998,-0.8095332,-1.2467774,-0.5454239000000001,0
-0.8599999999999992,7.68038,-9.19406,1.9126807000000001,0.004633984,0.45927995,0.7955505999999999,0.39514494,-9.424679,7.247350999999999,0.6246444,2.942038,-2.0947392,-0.96898305,16.569996590098118,2.17606100844172,-1.3298029028447178,-1.456297856483333,13.674473999999998,-0.8095332,-1.2467774,-0.5454239000000001,0
-0.8499999999999992,7.5864460000000005,-9.120985000000001,1.918913,0.016159896,0.4666675,0.786817,0.4035829,-9.361315,7.3674808,0.62145245,2.8226287,-1.9754167,-0.9928957,16.569996590098118,2.17606100844172,-1.3298029028447178,-1.456297856483333,13.674473999999998,-0.8095332,-1.2467774,-0.5454239000000001,0
-0.8399999999999992,7.493171,-9.046713,1.9251018,0.026972756,0.47369579999999994,0.778048,0.41173545,-9.292803,7.486612299999999,0.61591446,2.7218342,-1.8747087,-1.015635,15.800385586632972,0.8758133148539551,-0.6110297530621531,-1.2333522303833369,14.4606085,-1.9833353,-1.7567153999999998,0.7980272,0
-0.8299999999999992,7.400589999999999,-8.971283,1.9312023999999997,0.036748324,0.48013344,0.76950485,0.4195041,-9.222876,7.599169,0.6038637,2.4340667999999996,-1.6774653999999998,-1.0263184,15.800385586632972,0.8758133148539551,-0.6110297530621531,-1.2333522303833369,14.4606085,-1.9833353,-1.7567153999999998,0.7980272,0
-0.8199999999999992,7.3087279999999994,-8.894732000000001,1.9371718999999998,0.045236617,0.48581633,0.7614189,0.42682254,-9.148819999999999,7.7106423,0.5897456,2.191159,-1.5110078000000002,-1.0364777,15.800385586632972,0.8758133148539551,-0.6110297530621531,-1.2333522303833369,14.4606085,-1.9833353,-1.7567153999999998,0.7980272,0
-0.8099999999999992,7.2176266,-8.817074,1.9429908,0.052631835999999994,0.49087757,0.75373274,0.43376973,-9.071099,7.821026299999999,0.5737358,1.9861176,-1.370531,-1.0461384,15.800385586632972,0.8758133148539551,-0.6110297530621531,-1.2333522303833369,14.4606085,-1.9833353,-1.7567153999999998,0.7980272,0
-0.7999999999999992,7.127318400000001,-8.738317,1.9486406000000003,0.05909877,0.4954251,0.74639195,0.4404095,-8.990102,7.9303265,0.55599093,1.8130394,-1.2519801000000002,-1.055325,15.093661377416954,-0.5140192008347362,-0.06429882090847258,-0.8822703657250753,12.988155,-3.0577104,-1.6670793000000002,1.1139556000000002,0
-0.7899999999999991,7.037816,-8.658495,1.9540874,0.06438979,0.49922937,0.7396579000000001,0.44668818,-8.909937,8.033721,0.53315145,1.4502692,-1.0665045,-1.0468333,15.093661377416954,-0.5140192008347362,-0.06429882090847258,-0.8822703657250753,12.988155,-3.0577104,-1.6670793000000002,1.1139556000000002,0
-0.7799999999999991,6.949127000000001,-8.577644,1.9592994,0.068318225,0.5021225,0.73374885,0.4525687,-8.827444,8.136163999999999,0.5090912999999999,1.1440508,-0.9099963,-1.038758,15.093661377416954,-0.5140192008347362,-0.06429882090847258,-0.8822703657250753,12.988155,-3.0577104,-1.6670793000000002,1.1139556000000002,0
-0.7699999999999991,6.8612733,-8.495773,1.9642662,0.07109536,0.50426406,0.7285541999999999,0.4581182,-8.743069,8.237738,0.48410168,0.885569,-0.77793103,-1.0310792,15.093661377416954,-0.5140192008347362,-0.06429882090847258,-0.8822703657250753,12.988155,-3.0577104,-1.6670793000000002,1.1139556000000002,0
-0.7599999999999991,6.774271000000001,-8.412891,1.9689793999999998,0.07289986,0.50578344,0.7239741,0.46339020000000003,-8.657181,8.338529,0.45843208,0.6673821,-0.6664908,-1.023777,15.093661377416954,-0.5140192008347362,-0.06429882090847258,-0.8822703657250753,13.379921,-3.7391623999999997,-1.7424332999999999,1.5488594999999998,0
-0.7499999999999991,6.6881337,-8.329004,1.9734333,0.07388276,0.50678617,0.7199201,0.46842772,-8.570088,8.43862,0.4322951,0.48320848,-0.57245433,-1.0168333,15.093661377416954,-0.5140192008347362,-0.06429882090847258,-0.8822703657250753,13.379921,-3.7391623999999997,-1.7424332999999999,1.5488594999999998,0
-0.7399999999999989,6.602873,-8.244121,1.9776243000000002,0.0741717,0.50735855,0.71631426,0.47326544,-8.482052000000001,8.538086999999999,0.40587097,0.32774606,-0.4931034000000001,-1.0102303,15.093661377416954,-0.5140192008347362,-0.06429882090847258,-0.8822703657250753,13.379921,-3.7391623999999997,-1.7424332999999999,1.5488594999999998,0
-0.7299999999999989,6.518496,-8.158244999999999,1.9815502,0.07387462,0.5075714,0.71308875,0.47793165,-8.393286999999999,8.637004,0.37931165,0.19651899,-0.4261445,-1.0039512,15.093661377416954,-0.5140192008347362,-0.06429882090847258,-0.8822703657250753,13.379921,-3.7391623999999997,-1.7424332999999999,1.5488594999999998,0
-0.7199999999999989,6.435009,-8.0713825,1.9852104,0.07308275,0.50748295,0.71018505,0.48244956,-8.303975999999999,8.735433,0.35274476,0.0857492,-0.3696421,-0.9979803,14.907207317148904,-1.7323218792617203,0.2978126062754097,-0.41862755226424136,14.594166,-4.0598993,-1.4767625,1.8738674,0
-0.7099999999999989,6.3524117,-7.983544,1.9886011000000001,0.07156346,0.50686175,0.7078384,0.48675963,-8.215407,8.832230000000001,0.32541418,-0.19770518,-0.26537209999999994,-0.96955127,14.907207317148904,-1.7323218792617203,0.2978126062754097,-0.41862755226424136,14.594166,-4.0598993,-1.4767625,1.8738674,0
-0.6999999999999991,6.270701,-7.8947387,1.9917200000000002,0.06913856,0.5055275,0.70623565,0.49080887,-8.126771000000002,8.928708,0.29843485,-0.43696904,-0.1774002,-0.9425173000000001,14.907207317148904,-1.7323218792617203,0.2978126062754097,-0.41862755226424136,14.594166,-4.0598993,-1.4767625,1.8738674,0
-0.6899999999999991,6.189875,-7.804970299999999,1.9945718000000001,0.06595255400000001,0.5035911,0.7052622,0.49462290000000003,-8.038369,9.024966000000001,0.27204067,-0.6389311,-0.1031778,-0.91680986,14.907207317148904,-1.7323218792617203,0.2978126062754097,-0.41862755226424136,14.594166,-4.0598993,-1.4767625,1.8738674,0
-0.679999999999999,6.1099315,-7.714239599999999,1.9971633999999998,0.062127452,0.5011441,0.7048189,0.49822226,-7.9504589999999995,9.121095,0.2464232,-0.8094066,-0.040554695,-0.89236397,14.292515786611636,-2.824708777709143,0.3078985935357645,0.1073185855557782,15.160012,-4.907697,-1.5010812,2.527422,0
-0.669999999999999,6.0308456,-7.622567999999999,1.9994884999999998,0.0575774,0.4979517,0.70507085,0.5016019,-7.866875599999999,9.213202,0.21873191,-1.1236604,0.013933573999999999,-0.8433091999999999,14.292515786611636,-2.824708777709143,0.3078985935357645,0.1073185855557782,15.160012,-4.907697,-1.5010812,2.527422,0
-0.659999999999999,5.9525904999999995,-7.5299754,2.0015423,0.052242044,0.49382722,0.70614207,0.50474656,-7.7843027000000005,9.305317,0.19221365,-1.3889146,0.05988112,-0.7966616999999999,14.292515786611636,-2.824708777709143,0.3078985935357645,0.1073185855557782,15.160012,-4.907697,-1.5010812,2.527422,0
-0.649999999999999,5.8751545,-7.4364614,2.0033376,0.04625076400000001,0.48890418,0.7078964,0.50765777,-7.7030454,9.397486,0.16711667,-1.6128084999999999,0.09862918,-0.75230306,14.292515786611636,-2.824708777709143,0.3078985935357645,0.1073185855557782,15.160012,-4.907697,-1.5010812,2.527422,0
-0.639999999999999,5.7985234000000005,-7.3420258,2.0048901999999997,0.039712735,0.48329374,0.71021634,0.5103362,-7.623374,9.489742999999999,0.14363776,-1.8017911,0.13130787,-0.71012115,13.720618525916267,-3.63145728655628,0.2804209359415686,0.6000525645747536,15.13406,-5.5591183,-1.3405352,2.87133,0
-0.629999999999999,5.7226653,-7.246685,2.0062015,0.032592117999999996,0.47685057,0.71318525,0.5127556,-7.548657400000001,9.578413000000001,0.11888741,-2.087122,0.15460713,-0.6458305,13.720618525916267,-3.63145728655628,0.2804209359415686,0.6000525645747536,15.13406,-5.5591183,-1.3405352,2.87133,0
-0.619999999999999,5.6475434,-7.150457,2.0072749,0.024867893999999998,0.46945897,0.716859,0.5148818000000001,-7.476005000000001,9.667189,0.09605622,-2.3279587999999998,0.17423666,-0.5846946,13.720618525916267,-3.63145728655628,0.2804209359415686,0.6000525645747536,15.13406,-5.5591183,-1.3405352,2.87133,0
-0.6099999999999992,5.573137,-7.053340400000001,2.00813,0.016645093,0.46124452,0.72110504,0.5167052,-7.405711,9.756055,0.07532642,-2.5312397,0.19077784,-0.52655876,13.720618525916267,-3.63145728655628,0.2804209359415686,0.6000525645747536,15.13406,-5.5591183,-1.3405352,2.87133,0
-0.5999999999999992,5.49942,-6.955335000000001,2.008789,0.0080123935,0.45231304,0.7258091999999999,0.51821816,-7.338040400000001,9.844983000000001,0.05683114,-2.7028205,0.2047193,-0.47127566,13.030392663180914,-3.9826049596318502,0.02098813321581786,1.0407054597934906,14.200873999999999,-5.3830995999999995,-0.62747955,2.8722517000000005,0
-0.5899999999999992,5.42635,-6.856463000000001,2.0092542,-0.0009281745,0.44259745,0.7309635,0.5194221,-7.2764955,9.929451,0.036547992,-2.9024196,0.1759879,-0.3970823,13.030392663180914,-3.9826049596318502,0.02098813321581786,1.0407054597934906,14.200873999999999,-5.3830995999999995,-0.62747955,2.8722517000000005,0
-0.5799999999999992,5.3538804,-6.7567463000000005,2.0095282,-0.010088578,0.4320474,0.7365552,0.52030784,-7.2179009999999995,10.013845,0.018586604,-3.070887,0.15171853,-0.32652962,13.030392663180914,-3.9826049596318502,0.02098813321581786,1.0407054597934906,14.200873999999999,-5.3830995999999995,-0.62747955,2.8722517000000005,0
-0.5699999999999992,5.2819815000000006,-6.6561866,2.0096343,-0.019418802,0.42076892,0.742486,0.5208565,-7.162472200000001,10.098061999999999,0.0030277153000000004,-3.2130794999999996,0.13122113,-0.259439,13.030392663180914,-3.9826049596318502,0.02098813321581786,1.0407054597934906,14.200873999999999,-5.3830995999999995,-0.62747955,2.8722517000000005,0
-0.5599999999999992,5.21062,-6.554786,2.0095968,-0.028876908,0.40885279999999996,0.7486713,0.5210541,-7.1104035,10.181989,-0.0100854095,-3.3330941,0.11391215,-0.19564052,13.030392663180914,-3.9826049596318502,0.02098813321581786,1.0407054597934906,14.311153,-5.4546595,-0.9440205,3.0515387,0
-0.5499999999999992,5.1397614,-6.4525485,2.009441,-0.038427744,0.39637697,0.7550380999999999,0.52089024,-7.061871000000001,10.26551,-0.020741682,-3.434391,0.09929796,-0.13497268,13.030392663180914,-3.9826049596318502,0.02098813321581786,1.0407054597934906,14.311153,-5.4546595,-0.9440205,3.0515387,0
-0.5399999999999991,5.0693703,-6.3494782,2.0091906,-0.04804186,0.3834087,0.7615233,0.5203581,-7.017034,10.348503,-0.028957546,-3.5198888999999998,0.08696083,-0.07728182,13.030392663180914,-3.9826049596318502,0.02098813321581786,1.0407054597934906,14.311153,-5.4546595,-0.9440205,3.0515387,0
-0.5299999999999991,4.999408,-6.245581,2.0088703999999997,-0.057694614000000005,0.3700062,0.76807255,0.5194534000000001,-6.976033999999999,10.430845,-0.034773085,-3.5920525000000003,0.07654767,-0.02242187,13.030392663180914,-3.9826049596318502,0.02098813321581786,1.0407054597934906,14.311153,-5.4546595,-0.9440205,3.0515387,0
-0.5199999999999991,4.929836,-6.1408644,2.0085034,-0.06736538,0.35622007,0.7746386,0.5181744,-6.938998,10.512404,-0.038248576,-3.6529615,0.06775988,0.029746085,12.055611013678524,-3.8845314356398974,-0.384089733324949,1.3417569058526964,12.996347,-4.956428,-0.2544935,2.1122656,0
-0.5099999999999991,4.860602,-6.035367,2.008077,-0.07687754,0.34204359999999995,0.78119797,0.5165523,-6.908498299999999,10.587012,-0.046706468,-3.6890736000000004,-0.0028612502,0.094126835,12.055611013678524,-3.8845314356398974,-0.384089733324949,1.3417569058526964,12.996347,-4.956428,-0.2544935,2.1122656,0
-0.4999999999999991,4.791653,-5.9291279999999995,2.0075762,-0.08608823,0.32747734,0.7877353,0.51460767,-6.881815,10.660607,-0.053132236,-3.7195489999999998,-0.062463798,0.1553484,12.055611013678524,-3.8845314356398974,-0.384089733324949,1.3417569058526964,12.996347,-4.956428,-0.2544935,2.1122656,0
-0.4899999999999989,4.7229524000000005,-5.8221593,2.007021,-0.09502753,0.3125718,0.7942228,0.51232743,-6.858981599999999,10.733018,-0.05759739,-3.7452682999999998,-0.11276593,0.21356583,12.055611013678524,-3.8845314356398974,-0.384089733324949,1.3417569058526964,12.996347,-4.956428,-0.2544935,2.1122656,0
-0.47999999999999887,4.654461,-5.714473,2.0064306,-0.10372151,0.29737070000000004,0.80063504,0.50970256,-6.840025,10.804083,-0.06018595,-3.766975,-0.15521763,0.2689265,11.081947099968504,-3.632488155909527,-1.0384613840738757,1.6046276592664943,13.665501999999998,-4.8273335,-1.0692291,2.268007,0
-0.46999999999999886,4.586133,-5.606111,2.0057843,-0.11192176,0.28186345,0.8069645999999999,0.50678915,-6.826173,10.868022,-0.06884619,-3.7459655,-0.29311544,0.33446974,11.081947099968504,-3.632488155909527,-1.0384613840738757,1.6046276592664943,13.665501999999998,-4.8273335,-1.0692291,2.268007,0
-0.45999999999999885,4.5179257,-5.497118,2.005059,-0.11943138,0.26604813,0.8132125,0.5036273,-6.8158383,10.930383,-0.075930476,-3.7282271000000002,-0.40949932,0.3967968,11.081947099968504,-3.632488155909527,-1.0384613840738757,1.6046276592664943,13.665501999999998,-4.8273335,-1.0692291,2.268007,0
-0.44999999999999885,4.4498050000000005,-5.38751,2.0042708,-0.1263413,0.24997117,0.8193664,0.50019157,-6.808948,10.990973,-0.08150596,-3.7132517999999997,-0.5077252999999999,0.45606542,11.081947099968504,-3.632488155909527,-1.0384613840738757,1.6046276592664943,13.665501999999998,-4.8273335,-1.0692291,2.268007,0
-0.43999999999999884,4.3817353,-5.277305,2.003434,-0.13272937,0.23367201,0.8254125,0.49646260000000003,-6.805436599999999,11.049621,-0.08564923,-3.7006106,-0.5906255,0.51242566,11.14924487752744,-3.3932510734743206,-1.320202271485284,1.8017340981640408,15.481520000000002,-4.9964123,-3.4050288,3.4995663,0
-0.4299999999999988,4.3136845,-5.166523000000001,2.0025654,-0.138516,0.21721128,0.8313429,0.49244517,-6.805231599999999,11.106502,-0.08786502,-3.6526115,-0.70453733,0.5756924,11.14924487752744,-3.3932510734743206,-1.320202271485284,1.8017340981640408,15.481520000000002,-4.9964123,-3.4050288,3.4995663,0
-0.4199999999999988,4.24562,-5.055183400000001,2.001681,-0.14364226,0.20064172,0.837155,0.48814140000000006,-6.808247,11.161095,-0.08880677,-3.6120970000000003,-0.80067647,0.63585466,11.14924487752744,-3.3932510734743206,-1.320202271485284,1.8017340981640408,15.481520000000002,-4.9964123,-3.4050288,3.4995663,0
-0.4099999999999988,4.1775093,-4.943309999999999,2.0007932,-0.14819792,0.18398362,0.84284127,0.48353565,-6.814369999999999,11.213246,-0.08856018,-3.5779018,-0.8818156999999999,0.6930647,11.14924487752744,-3.3932510734743206,-1.320202271485284,1.8017340981640408,15.481520000000002,-4.9964123,-3.4050288,3.4995663,0
-0.3999999999999988,4.1093225,-4.830927,1.9999135,-0.15225957,0.16725422,0.84839237,0.47861692,-6.823494999999999,11.262814,-0.08721627,-3.5490413,-0.9502948,0.7474674,11.497753278852052,-3.1722746810758453,-1.4942388548768215,1.9410383594287184,17.089333,-4.489109,-4.240311599999999,3.7902591,0
-0.3899999999999988,4.041028,-4.7180550000000006,1.999068,-0.15578853,0.150513,0.85380316,0.47338852,-6.8358927,11.311132,-0.08173016,-3.4902043,-1.0352274,0.80603623,11.497753278852052,-3.1722746810758453,-1.4942388548768215,1.9410383594287184,17.089333,-4.489109,-4.240311599999999,3.7902591,0
-0.3799999999999988,3.9725952000000007,-4.6047144,1.9982821,-0.15875867,0.13380994,0.8590722,0.46785283,-6.8511424,11.356527,-0.075306535,-3.4405457999999998,-1.1069089,0.8617311,11.497753278852052,-3.1722746810758453,-1.4942388548768215,1.9410383594287184,17.089333,-4.489109,-4.240311599999999,3.7902591,0
-0.3699999999999988,3.903996,-4.490935299999999,1.9975647,-0.16124757,0.117145665,0.8641934000000001,0.46200280000000005,-6.869106299999999,11.398886,-0.06804251,-3.3986351000000004,-1.1674068000000002,0.91469306,11.497753278852052,-3.1722746810758453,-1.4942388548768215,1.9410383594287184,17.089333,-4.489109,-4.240311599999999,3.7902591,0
-0.35999999999999877,3.8352041,-4.376748,1.9969236000000001,-0.16332123,0.1005207,0.86915886,0.45583457,-6.8896546,11.438103,-0.060037713,-3.363264,-1.2184654,0.9650561,11.497753278852052,-3.1722746810758453,-1.4942388548768215,1.9410383594287184,17.402342,-4.3090777000000005,-4.391628,3.8765185,0
-0.34999999999999876,3.7661946000000004,-4.262185,1.996366,-0.16503584,0.083935626,0.87395996,0.44934675,-6.912666000000001,11.474086,-0.051394127000000005,-3.3334131,-1.2615575,1.0129478,11.497753278852052,-3.1722746810758453,-1.4942388548768215,1.9410383594287184,17.402342,-4.3090777000000005,-4.391628,3.8765185,0
-0.33999999999999875,3.6969428,-4.147279,1.9958974999999999,-0.16643925,0.06739115,0.8785871,0.44253996,-6.938022,11.506749000000001,-0.042215887,-3.3082212999999996,-1.2979254999999998,1.0584893999999998,11.497753278852052,-3.1722746810758453,-1.4942388548768215,1.9410383594287184,17.402342,-4.3090777000000005,-4.391628,3.8765185,0
-0.32999999999999874,3.6274263999999996,-4.032062000000001,1.9955231,-0.16757220000000003,0.050888192,0.8830305,0.43541655,-6.965610000000001,11.5360155,-0.03260885,-3.2869620000000004,-1.3286188,1.1017964,11.497753278852052,-3.1722746810758453,-1.4942388548768215,1.9410383594287184,17.402342,-4.3090777000000005,-4.391628,3.8765185,0
-0.31999999999999873,3.5576233999999998,-3.9165702000000007,1.9952465,-0.16846941,0.034427915,0.8872802,0.4279803,-6.9953199999999995,11.561817,-0.022680474,-3.2690217,-1.3545221,1.1429783000000002,12.031556570473244,-2.9501758286042787,-1.4086440434643988,2.054377737759148,16.826414,-4.2131553,-3.8117347,3.5506165000000003,0
-0.3099999999999987,3.4875059999999998,-3.8008327000000004,1.9950955000000001,-0.16915284,0.018107703,0.8913247999999999,0.420238,-7.028513,11.585127,-0.007514233,-3.2192519,-1.3630193000000002,1.1877010000000001,12.031556570473244,-2.9501758286042787,-1.4086440434643988,2.054377737759148,16.826414,-4.2131553,-3.8117347,3.5506165000000003,0
-0.2999999999999987,3.4170464999999997,-3.6848807,1.9950967,-0.16964355,0.0020057708,0.8951595999999999,0.41219747,-7.063682000000001,11.604718,0.0077602159999999995,-3.1772459,-1.3701901,1.2302291,12.031556570473244,-2.9501758286042787,-1.4086440434643988,2.054377737759148,16.826414,-4.2131553,-3.8117347,3.5506165000000003,0
-0.2899999999999987,3.3462257000000006,-3.5687512999999997,1.9952506999999997,-0.16996743,-0.013902342,0.89878315,0.40386516,-7.100697500000001,11.620573,0.02303116,-3.141793,-1.3762416000000002,1.2706703000000001,12.031556570473244,-2.9501758286042787,-1.4086440434643988,2.054377737759148,16.826414,-4.2131553,-3.8117347,3.5506165000000003,0
-0.2799999999999987,3.2750263,-3.4524825,1.995557,-0.17014624,-0.029637,0.9021925999999999,0.39524785,-7.139435000000001,11.632674,0.03818962,-3.1118717,-1.3813481,1.3091270000000002,12.413431061025669,-2.596797627546914,-1.369171210100112,2.037066724986012,17.374624,-4.131443,-3.7922462999999995,3.5308135000000003,0
-0.2699999999999989,3.2034254,-3.3361096,1.9960316000000002,-0.17015746,-0.045081493,0.9053868,0.38637978,-7.181049000000001,11.641278,0.056718092000000005,-3.0315156,-1.3794514,1.3448472,12.413431061025669,-2.596797627546914,-1.369171210100112,2.037066724986012,17.374624,-4.131443,-3.7922462999999995,3.5308135000000003,0
-0.2599999999999989,3.1314,-3.2196700000000003,1.9966901999999997,-0.16998659,-0.06014386,0.9083711,0.37729257,-7.224157000000001,11.6460285,0.07492438,-2.9636924,-1.3778546,1.3788145,12.413431061025669,-2.596797627546914,-1.369171210100112,2.037066724986012,17.374624,-4.131443,-3.7922462999999995,3.5308135000000003,0
-0.2499999999999989,3.0589372999999997,-3.103202,1.9975287,-0.16966102,-0.07487304,0.91114944,0.36798963,-7.2686057,11.646961,0.09271859,-2.9064476000000004,-1.3765103,1.4111152,12.413431061025669,-2.596797627546914,-1.369171210100112,2.037066724986012,17.374624,-4.131443,-3.7922462999999995,3.5308135000000003,0
-0.23999999999999888,2.986024,-2.986744,1.9985427,-0.16920355,-0.08931026,0.91372323,0.35847482,-7.314252400000001,11.644111,0.11001489999999998,-2.8581312000000003,-1.3753786,1.4418308000000002,12.819829436743618,-2.240991017452855,-1.1703168866729263,1.9621518171377992,19.0069,-4.134318,-3.7760015,3.7321453,0
-0.22999999999999865,2.912641,-2.870334,1.9997456999999998,-0.16865487,-0.10333339,0.91609037,0.34879299999999996,-7.362489999999999,11.6373,0.13049091,-2.7618961,-1.3433552,1.4673631,12.819829436743618,-2.240991017452855,-1.1703168866729263,1.9621518171377992,19.0069,-4.134318,-3.7760015,3.7321453,0
-0.21999999999999864,2.8387709,-2.7540107000000003,2.0011501,-0.16805054,-0.11684871,0.91825616,0.33898586,-7.4116800000000005,11.626709,0.15029672,-2.6806662,-1.316335,1.4916425,12.819829436743618,-2.240991017452855,-1.1703168866729263,1.9621518171377992,19.0069,-4.134318,-3.7760015,3.7321453,0
-0.20999999999999863,2.7644045,-2.637812,2.002749,-0.1674005,-0.12992634,0.9202287,0.32905275,-7.4616875999999985,11.612437,0.1693686,-2.6121017999999996,-1.2935363000000002,1.5147305,12.819829436743618,-2.240991017452855,-1.1703168866729263,1.9621518171377992,19.0069,-4.134318,-3.7760015,3.7321453,0
-0.19999999999999862,2.6895347000000003,-2.521774,2.0045347,-0.16671251,-0.14262535,0.9220132,0.31899357,-7.5123869999999995,11.594569,0.18764733,-2.5542279999999997,-1.2743,1.5366856000000002,13.339662289585009,-1.916726615141004,-1.0885737805470792,1.8299603232482504,19.21303,-4.102148000000001,-3.6048272000000003,3.5231019999999997,0
-0.18999999999999884,2.6141446,-2.4059369999999998,2.0065227,-0.16597973,-0.15486823,0.9236223,0.30885074,-7.5657372,11.572317,0.20976429,-2.454827,-1.2452598999999998,1.5510767,13.339662289585009,-1.916726615141004,-1.0885737805470792,1.8299603232482504,19.21303,-4.102148000000001,-3.6048272000000003,3.5231019999999997,0
-0.17999999999999883,2.5382182999999996,-2.2903402,2.008727,-0.16519831,-0.16659725,0.9250708000000001,0.29866242,-7.6195520000000005,11.546522,0.23096304,-2.3709245,-1.2207614,1.5647616000000002,13.339662289585009,-1.916726615141004,-1.0885737805470792,1.8299603232482504,19.21303,-4.102148000000001,-3.6048272000000003,3.5231019999999997,0
-0.16999999999999882,2.4617522000000003,-2.1750185,2.011139,-0.16437735,-0.17788473,0.9263636000000001,0.28842345,-7.673707,11.5173,0.25121418,-2.3001037,-1.2000941999999999,1.5777748999999999,13.339662289585009,-1.916726615141004,-1.0885737805470792,1.8299603232482504,19.21303,-4.102148000000001,-3.6048272000000003,3.5231019999999997,0
-0.1599999999999988,2.3847432,-2.0600057,2.0137484,-0.16352373,-0.18879159,0.9275032,0.27812955,-7.728089,11.484753,0.27048984,-2.2403245,-1.1826593,1.5901498,13.339662289585009,-1.916726615141004,-1.0885737805470792,1.8299603232482504,19.515255,-3.9234457000000003,-3.4348452000000003,3.2213432999999996,0
-0.1499999999999988,2.3071900000000003,-1.9453346999999999,2.0165453,-0.16264272,-0.19936898,0.92849076,0.2677775,-7.782592,11.448969,0.2887633,-2.1898657999999998,-1.1679511999999999,1.6019173999999998,13.339662289585009,-1.916726615141004,-1.0885737805470792,1.8299603232482504,19.515255,-3.9234457000000003,-3.4348452000000003,3.2213432999999996,0
-0.1399999999999988,2.2290912,-1.8310373,2.01952,-0.16173822,-0.20965993,0.9293263,0.25736496,-7.837117699999999,11.41003,0.30600828,-2.1472743,-1.1555436000000001,1.6131076000000002,13.339662289585009,-1.916726615141004,-1.0885737805470792,1.8299603232482504,19.515255,-3.9234457000000003,-3.4348452000000003,3.2213432999999996,0
-0.12999999999999878,2.1504476,-1.7171446,2.022662,-0.16081312,-0.21970047,0.93000895,0.24689029999999998,-7.8915744000000005,11.368007,0.32219884,-2.1113234,-1.1450765,1.6237487,13.339662289585009,-1.916726615141004,-1.0885737805470792,1.8299603232482504,19.515255,-3.9234457000000003,-3.4348452000000003,3.2213432999999996,0
-0.11999999999999877,2.0712605,-1.6036873999999999,2.0259603999999998,-0.1598695,-0.2295208,0.93053746,0.23635268,-7.945874000000001,11.322965,0.33730924,-2.0809782,-1.1362466,1.6338676,13.671826536643785,-1.5998285402627004,-0.9607790649430348,1.5982568616001416,19.347307,-4.1883593,-3.1433272,3.3976642999999997,0
-0.10999999999999877,1.9915245,-1.4907013,2.0294185000000002,-0.15892057,-0.23902112,0.930926,0.22581087,-8.00128,11.273776,0.3541086,-2.0059733,-1.1088003,1.6321203000000002,13.671826536643785,-1.5998285402627004,-0.9607790649430348,1.5982568616001416,19.347307,-4.1883593,-3.1433272,3.3976642999999997,0
-0.09999999999999876,1.9112359,-1.3782219,2.0330386000000003,-0.1579776,-0.24812576,0.93119055,0.21531720000000001,-8.0563545,11.22167,0.3697749,-1.9426612,-1.085647,1.6304586,13.671826536643785,-1.5998285402627004,-0.9607790649430348,1.5982568616001416,19.347307,-4.1883593,-3.1433272,3.3976642999999997,0
-0.08999999999999875,1.8303986,-1.2662777,2.03681,-0.15703888,-0.25689029999999996,0.9313314,0.20486249,-8.111023,11.166755,0.38431093,-1.8892183999999999,-1.0661154,1.6288784,13.671826536643785,-1.5998285402627004,-0.9607790649430348,1.5982568616001416,19.347307,-4.1883593,-3.1433272,3.3976642999999997,0
-0.07999999999999874,1.7490169999999998,-1.1548961000000002,2.040721,-0.1561025,-0.26536137,0.9313482,0.19443889,-8.165215,11.10913,0.3977176,-1.8441067999999998,-1.0496383999999999,1.6273757,13.743611313353515,-1.072175535267924,-0.7560267873487343,1.2709913343970274,19.386072,-3.8743392999999995,-2.9716382,3.1092227,0
