time-since-start [s],throttle_mpc,roll_mpc,pitch_mpc,yaw_mpc,throttle_nw,roll_nw,pitch_nw,yaw_nw,position_x [m],position_y [m],position_z [m],rotation_w [quaternion],rotation_x [quaternion],rotation_y [quaternion],rotation_z [quaternion],velocity_x [m/s],velocity_y [m/s],velocity_z [m/s],omega_x [rad/s],omega_y [rad/s],omega_z [rad/s],network_used
0.0,7.165447064842547,-0.37311506113074744,-5.9999988029259965,-0.09443636443794513,9.219407,-1.0296497,-0.25413546,0.16246814,12.373527,-11.363295,1.1588174,0.31652448,-0.32190472,0.14177243,0.8809598,-3.5472143,3.3475373,0.761871,0.025352353,-0.11156964,-0.1452104,0
0.01,7.165447064842547,-0.37311506113074744,-5.9999988029259965,-0.09443636443794513,9.339523,-1.4979728,-2.2305143,-0.00094550475,12.337886,-11.329659,1.1662183,0.32044947,-0.2959918,0.13041885,0.8903325,-3.5805206,3.3791966,0.7187371,-0.37311506,-5.9999986,-0.09443636,0
0.02,7.165447064842547,-0.37311506113074744,-5.9999988029259965,-0.09443636443794513,9.339523,-1.4979728,-2.2305143,-0.00094550475,12.301925,-11.295719,1.1732013,0.32408488,-0.26981145,0.118947424,0.8989006,-3.611352,3.4085462,0.67826474,-0.37311506,-5.9999986,-0.09443636,0
0.03,7.165447064842547,-0.37311506113074744,-5.9999988029259965,-0.09443636443794513,9.339523,-1.4979728,-2.2305143,-0.00094550475,12.265668,-11.261498,1.179792,0.32742742,-0.24338727,0.10736851,0.9066565,-3.6396,3.4354768,0.64024556,-0.37311506,-5.9999986,-0.09443636,0
0.04,7.165447064842547,-0.37311506113074744,-5.9999988029259965,-0.09443636443794513,9.006829,-0.399896,-0.074703336,-0.14019126,12.229141,-11.227019,1.1860139,0.3304741,-0.21674314,0.09569257,0.91359305,-3.6651652,3.4598885,0.6044627,-0.37311506,-5.9999986,-0.09443636,0
0.05,7.165447064842547,-0.37311506113074744,-5.9999988029259965,-0.09443636443794513,9.006829,-0.399896,-0.074703336,-0.14019126,12.192373,-11.19231,1.1918883,0.33322218,-0.18990317,0.08393016,0.91970414,-3.6879578,3.4816897,0.5706909,-0.37311506,-5.9999986,-0.09443636,0
0.060000000000000005,7.165447064842547,-0.37311506113074744,-5.9999988029259965,-0.09443636443794513,9.006829,-0.399896,-0.074703336,-0.14019126,12.155392,-11.157395,1.1974341,0.33566913,-0.1628916,0.07209191,0.92498404,-3.7078984,3.5007992,0.5386977,-0.37311506,-5.9999986,-0.09443636,0
0.07,7.165447064842547,-0.37311506113074744,-5.9999988029259965,-0.09443636443794513,9.006829,-0.399896,-0.074703336,-0.14019126,12.118225,-11.122303,1.2026677,0.33781275,-0.1357328,0.060188513,0.9294281,-3.7249177,3.5171447,0.5082445,-0.37311506,-5.9999986,-0.09443636,0
0.08,9.07038888599897,-0.25291204003688744,-5.999998409812502,-0.047544662315381715,9.327531,0.20981672,1.2011675,0.21499008,12.080903,-11.087062,1.2076035,0.33965114,-0.10845137,0.048230726,0.93303233,-3.7389572,3.530664,0.4790868,-0.37311506,-5.9999986,-0.09443636,0
0.09,9.07038888599897,-0.25291204003688744,-5.999998409812502,-0.047544662315381715,9.327531,0.20981672,1.2011675,0.21499008,12.043442,-11.051684,1.212346,0.3410294,-0.08085662,0.036815505,0.935845,-3.7528698,3.544166,0.46958145,-0.25291204,-5.9999986,-0.047544662,0
0.09999999999999999,9.07038888599897,-0.25291204003688744,-5.999998409812502,-0.047544662315381715,9.327531,0.20981672,1.2011675,0.21499008,12.00586,-11.01619,1.2169986,0.34210017,-0.053188983,0.025367092,0.937814,-3.7628314,3.5540576,0.46107942,-0.25291204,-5.9999986,-0.047544662,0
0.10999999999999999,9.07038888599897,-0.25291204003688744,-5.999998409812502,-0.047544662315381715,9.327531,0.20981672,1.2011675,0.21499008,11.9682,-10.980615,1.2215699,0.3428625,-0.02547339,0.01389581,0.9389374,-3.7688076,3.5603013,0.45325774,-0.25291204,-5.9999986,-0.047544662,0
0.11999999999999998,9.07038888599897,-0.25291204003688744,-5.999998409812502,-0.047544662315381715,9.327531,0.20981672,1.2011675,0.21499008,11.930498,-10.944997,1.2260649,0.34331572,0.0022651684,0.0024120004,0.9392142,-3.7707782,3.5628726,0.44579098,-0.25291204,-5.9999986,-0.047544662,0
0.12999999999999998,10.64472638500619,-0.06569668894780285,-4.286219748198335,-0.03600608754049159,9.458292,0.27719,1.0591897,0.089962184,11.8927965,-10.90937,1.2304859,0.3434594,0.03000168,-0.009073985,0.93864435,-3.7687383,3.5617607,0.43835232,-0.25291204,-5.9999986,-0.047544662,0
0.13999999999999999,10.64472638500619,-0.06569668894780285,-4.286219748198335,-0.03600608754049159,9.458292,0.27719,1.0591897,0.089962184,11.855139,-10.8737755,1.2349098,0.3433649,0.04999825,-0.016734954,0.93772095,-3.7621205,3.556632,0.44636214,-0.06569669,-4.2862196,-0.03600609,0
0.15,10.64472638500619,-0.06569668894780285,-4.286219748198335,-0.03600608754049159,9.458292,0.27719,1.0591897,0.089962184,11.817565,-10.838248,1.2394116,0.34311262,0.069971845,-0.024388235,0.93636686,-3.752082,3.548519,0.4539163,-0.06569669,-4.2862196,-0.03600609,0
0.16,10.620624682928154,0.04657591035748951,0.8331942141238643,-0.028201032428805527,10.54883,-0.62004316,1.4869411,-0.09951955,11.780108,-10.802816,1.2439859,0.34270272,0.0899133,-0.03203031,0.93458253,-3.7386432,3.5374346,0.4608207,-0.06569669,-4.2862196,-0.03600609,0
0.17,10.620624682928154,0.04657591035748951,0.8331942141238643,-0.028201032428805527,10.54883,-0.62004316,1.4869411,-0.09951955,11.742799,-10.767506,1.248625,0.342944,0.08610342,-0.030372022,0.9349081,-3.7233622,3.5247557,0.467054,0.04657591,0.8331942,-0.028201032,0
0.18000000000000002,10.620624682928154,0.04657591035748951,0.8331942141238643,-0.028201032428805527,10.54883,-0.62004316,1.4869411,-0.09951955,11.705639,-10.732319,1.2533274,0.34317932,0.08229202,-0.028713206,0.93521744,-3.7087126,3.5126774,0.47344902,0.04657591,0.8331942,-0.028201032,0
0.19000000000000003,10.620624682928154,0.04657591035748951,0.8331942141238643,-0.028201032428805527,10.54883,-0.62004316,1.4869411,-0.09951955,11.668623,-10.69725,1.2580944,0.34340867,0.07847919,-0.027053889,0.93551034,-3.6946955,3.5012004,0.47999844,0.04657591,0.8331942,-0.028201032,0
0.20000000000000004,10.327139746315058,0.07267232618006246,2.504287492445325,-0.01977699365864081,9.347153,-0.39235637,3.792279,-0.16977555,11.631743,-10.662293,1.2629279,0.343632,0.074664995,-0.025394099,0.935787,-3.6813116,3.4903257,0.486695,0.04657591,0.8331942,-0.028201032,0
0.21000000000000005,10.327139746315058,0.07267232618006246,2.504287492445325,-0.01977699365864081,9.347153,-0.39235637,3.792279,-0.16977555,11.594992,-10.627439,1.2678148,0.3439884,0.06306942,-0.02074205,0.93662363,-3.6693952,3.4807603,0.49072707,0.07267233,2.5042875,-0.019776994,0
0.22000000000000006,10.327139746315058,0.07267232618006246,2.504287492445325,-0.01977699365864081,9.347153,-0.39235637,3.792279,-0.16977555,11.558349,-10.592672,1.2727436,0.34429082,0.051463943,-0.016086744,0.9373134,-3.659383,3.4729114,0.4951093,0.07267233,2.5042875,-0.019776994,0
0.23000000000000007,10.327139746315058,0.07267232618006246,2.504287492445325,-0.01977699365864081,9.347153,-0.39235637,3.792279,-0.16977555,11.521797,-10.557975,1.2777178,0.34453923,0.03985039,-0.011428915,0.937856,-3.6512809,3.4667838,0.49977732,0.07267233,2.5042875,-0.019776994,0
0.24000000000000007,10.327139746315058,0.07267232618006246,2.504287492445325,-0.01977699365864081,9.510437,-0.69492245,3.2151253,-0.13144428,11.485317,-10.523331,1.28274,0.34473354,0.028230585,-0.0067692925,0.9382515,-3.6450937,3.4623818,0.5046667,0.07267233,2.5042875,-0.019776994,0
0.25000000000000006,10.327139746315058,0.07267232618006246,2.504287492445325,-0.01977699365864081,9.510437,-0.69492245,3.2151253,-0.13144428,11.448889,-10.488722,1.2878118,0.3448738,0.01660635,-0.002108607,0.93849975,-3.6408248,3.4597087,0.50971264,0.07267233,2.5042875,-0.019776994,0
0.26000000000000006,10.327139746315058,0.07267232618006246,2.504287492445325,-0.01977699365864081,9.510437,-0.69492245,3.2151253,-0.13144428,11.412494,-10.454131,1.2929347,0.3449599,0.004979507,0.0025524092,0.9386007,-3.6384764,3.4587665,0.5148505,0.07267233,2.5042875,-0.019776994,0
0.2700000000000001,10.327139746315058,0.07267232618006246,2.504287492445325,-0.01977699365864081,9.510437,-0.69492245,3.2151253,-0.13144428,11.376112,-10.41954,1.298109,0.3449919,-0.0066481167,0.0072130254,0.93855435,-3.63805,3.459556,0.5200155,0.07267233,2.5042875,-0.019776994,0
0.2800000000000001,10.130504241829838,0.09116265262694125,4.003751329332562,-0.005758390776072998,9.877643,-0.30521998,1.6737916,-0.3114267,11.3397255,-10.3849325,1.303335,0.34496972,-0.018274697,0.0118725095,0.93836075,-3.6395452,3.4620774,0.5251427,0.07267233,2.5042875,-0.019776994,0
0.2900000000000001,10.130504241829838,0.09116265262694125,4.003751329332562,-0.005758390776072998,9.877643,-0.30521998,1.6737916,-0.3114267,11.303313,-10.350291,1.3086016,0.34469828,-0.036897704,0.019202696,0.93779147,-3.6433249,3.4666214,0.5281688,0.09116265,4.0037513,-0.0057583908,0
0.3000000000000001,10.130504241829838,0.09116265262694125,4.003751329332562,-0.005758390776072998,9.877643,-0.30521998,1.6737916,-0.3114267,11.266848,-10.31559,1.3138973,0.34428862,-0.055505916,0.026525185,0.93684614,-3.6501265,3.4738533,0.53087986,0.09116265,4.0037513,-0.0057583908,0
0.3100000000000001,10.130504241829838,0.09116265262694125,4.003751329332562,-0.005758390776072998,9.877643,-0.30521998,1.6737916,-0.3114267,11.2303,-10.280805,1.3192177,0.3437409,-0.074091874,0.033837035,0.9355252,-3.6599388,3.4837615,0.5331142,0.09116265,4.0037513,-0.0057583908,0
0.3200000000000001,10.187104809553338,0.10055558094833951,4.8787609803389,0.007364392288473391,9.5888,-0.9120834,2.1745589,0.07629484,11.19364,-10.245907,1.3245573,0.3430554,-0.09264812,0.041135322,0.9338292,-3.6727464,3.49633,0.5347108,0.09116265,4.0037513,-0.0057583908,0
0.3300000000000001,10.187104809553338,0.10055558094833951,4.8787609803389,0.007364392288473391,9.5888,-0.9120834,2.1745589,0.07629484,11.156835,-10.210868,1.3299116,0.34196216,-0.11522396,0.049963553,0.9312834,-3.6888628,3.5118375,0.5359867,0.100555584,4.878761,0.0073643923,0
0.34000000000000014,10.187104809553338,0.10055558094833951,4.8787609803389,0.007364392288473391,9.5888,-0.9120834,2.1745589,0.07629484,11.119851,-10.175657,1.3352728,0.3406653,-0.1377312,0.05876204,0.92818326,-3.7085931,3.5305355,0.5360543,0.100555584,4.878761,0.0073643923,0
0.35000000000000014,10.187104809553338,0.10055558094833951,4.8787609803389,0.007364392288473391,9.5888,-0.9120834,2.1745589,0.07629484,11.082651,-10.1402445,1.3406277,0.3391657,-0.16015643,0.06752554,0.9245305,-3.7318907,3.5523796,0.5346799,0.100555584,4.878761,0.0073643923,0
0.36000000000000015,10.340342230533546,0.09332972619026497,3.7534981988632596,0.01647746886287815,7.5977235,-0.49811545,-0.42814952,0.39115053,11.045201,-10.104599,1.3459606,0.33746418,-0.18248636,0.07624886,0.9203275,-3.7587001,3.5773177,0.53163314,0.100555584,4.878761,0.0073643923,0
0.37000000000000016,10.340342230533546,0.09332972619026497,3.7534981988632596,0.01647746886287815,7.5977235,-0.49811545,-0.42814952,0.39115053,11.007464,-10.0686865,1.3512614,0.33598313,-0.19956169,0.08301289,0.9167329,-3.7891104,3.6054525,0.5282682,0.09332973,3.7534983,0.01647747,0
0.38000000000000017,10.340342230533546,0.09332972619026497,3.7534981988632596,0.01647746886287815,7.5977235,-0.49811545,-0.42814952,0.39115053,10.969411,-10.032481,1.3565204,0.33438367,-0.21656668,0.08974766,0.9128152,-3.822159,3.635928,0.52328163,0.09332973,3.7534983,0.01647747,0
0.3900000000000002,10.340342230533546,0.09332972619026497,3.7534981988632596,0.01647746886287815,7.5977235,-0.49811545,-0.42814952,0.39115053,10.931013,-9.99596,1.3617209,0.33266637,-0.23349535,0.0964508,0.90857583,-3.8578,3.6687007,0.51654226,0.09332973,3.7534983,0.01647747,0
0.4000000000000002,10.518782529821559,0.07559177110758507,2.234174641351063,0.021605987718637042,7.487792,0.31258485,1.812982,0.05159122,10.892246,-9.959101,1.3668447,0.33083183,-0.2503417,0.10311994,0.90401626,-3.8959835,3.7037241,0.50792116,0.09332973,3.7534983,0.01647747,0
0.4100000000000002,10.518782529821559,0.07559177110758507,2.234174641351063,0.021605987718637042,7.487792,0.31258485,1.812982,0.05159122,10.853083,-9.921877,1.3718809,0.32965618,-0.26028833,0.10717782,0.90116006,-3.9369736,3.7412615,0.49912295,0.07559177,2.2341747,0.021605987,0
0.4200000000000002,10.518782529821559,0.07559177110758507,2.234174641351063,0.021605987718637042,7.487792,0.31258485,1.812982,0.05159122,10.813501,-9.884272,1.3768227,0.32843935,-0.27020243,0.111222304,0.8981913,-3.9794352,3.7801268,0.48906004,0.07559177,2.2341747,0.021605987,0
0.4300000000000002,10.518782529821559,0.07559177110758507,2.234174641351063,0.021605987718637042,7.487792,0.31258485,1.812982,0.05159122,10.773489,-9.8462715,1.3816575,0.3271815,-0.2800828,0.1152529,0.8951103,-4.0233483,3.8203006,0.4776885,0.07559177,2.2341747,0.021605987,0
0.4400000000000002,10.518782529821559,0.07559177110758507,2.234174641351063,0.021605987718637042,8.290408,0.21313909,1.3161665,0.103818476,10.733029,-9.807862,1.3863719,0.32588276,-0.2899281,0.11926909,0.8919175,-4.0686903,3.8617618,0.4649649,0.07559177,2.2341747,0.021605987,0
0.45000000000000023,10.518782529821559,0.07559177110758507,2.234174641351063,0.021605987718637042,8.290408,0.21313909,1.3161665,0.103818476,10.69211,-9.7690325,1.3909519,0.3245433,-0.29973724,0.12327038,0.8886132,-4.1154394,3.9044895,0.45084664,0.07559177,2.2341747,0.021605987,0
0.46000000000000024,10.518782529821559,0.07559177110758507,2.234174641351063,0.021605987718637042,8.290408,0.21313909,1.3161665,0.103818476,10.650716,-9.729769,1.3953837,0.3231633,-0.30950892,0.12725627,0.88519794,-4.1635723,3.9484622,0.4352918,0.07559177,2.2341747,0.021605987,0
0.47000000000000025,10.518782529821559,0.07559177110758507,2.234174641351063,0.021605987718637042,8.290408,0.21313909,1.3161665,0.103818476,10.608833,-9.69006,1.3996527,0.32174292,-0.31924194,0.13122627,0.881672,-4.2130647,3.9936576,0.41825908,0.07559177,2.2341747,0.021605987,0
0.48000000000000026,10.676905125876651,0.06054639894157237,1.0511084539271167,0.02003744355360763,10.853616,0.2937099,0.3874507,0.13797325,10.566449,-9.649893,1.4037437,0.32028237,-0.3289351,0.13517986,0.87803596,-4.263893,4.040052,0.39970797,0.07559177,2.2341747,0.021605987,1
0.49000000000000027,10.676905125876651,0.06054639894157237,1.0511084539271167,0.02003744355360763,10.853616,0.2937099,0.3874507,0.13797325,10.523543,-9.609247,1.4076555,0.3198968,-0.33007142,0.13731626,0.8774184,-4.317202,4.088851,0.38258243,0.2937099,0.3874507,0.13797325,1
0.5000000000000002,10.676905125876651,0.06054639894157237,1.0511084539271167,0.02003744355360763,10.853616,0.2937099,0.3874507,0.13797325,10.4801035,-9.568112,1.4113945,0.31950918,-0.33120564,0.13945177,0.8767952,-4.3705463,4.13809,0.36516708,0.2937099,0.3874507,0.13797325,1
0.5100000000000002,10.676905125876651,0.06054639894157237,1.0511084539271167,0.02003744355360763,10.853616,0.2937099,0.3874507,0.13797325,10.43613,-9.526484,1.4149579,0.3191195,-0.33233774,0.1415864,0.8761664,-4.423925,4.187767,0.34745985,0.2937099,0.3874507,0.13797325,1
0.5200000000000002,10.773471632191772,-0.01330616672287163,-0.2535092642781477,0.00929568705708034,10.854273,0.24672893,0.09110894,0.13855976,10.391622,-9.484356,1.4183427,0.31872782,-0.33346772,0.14372012,0.875532,-4.4773374,4.237881,0.32945853,0.2937099,0.3874507,0.13797325,1
0.5300000000000002,10.773471632191772,-0.01330616672287163,-0.2535092642781477,0.00929568705708034,10.854273,0.24672893,0.09110894,0.13855976,10.34658,-9.441725,1.4215463,0.3184668,-0.33337343,0.14517628,0.87542254,-4.53073,4.288363,0.31124815,0.24672893,0.09110894,0.13855976,1
0.5400000000000003,10.773471632191772,-0.01330616672287163,-0.2535092642781477,0.00929568705708034,10.854273,0.24672893,0.09110894,0.13855976,10.301006,-9.398588,1.4245675,0.3182051,-0.33327842,0.14663212,0.8753112,-4.5840034,4.3390927,0.29295975,0.24672893,0.09110894,0.13855976,1
0.5500000000000003,10.773471632191772,-0.01330616672287163,-0.2535092642781477,0.00929568705708034,10.854273,0.24672893,0.09110894,0.13855976,10.2549,-9.354942,1.4274054,0.31794265,-0.33318263,0.14808762,0.87519795,-4.6371584,4.3900704,0.27459258,0.24672893,0.09110894,0.13855976,1
0.5600000000000003,10.925162213857359,-0.1596766097291125,-0.8097266542046487,-0.017107844634793097,10.819016,0.26742318,0.59676397,0.2578568,10.208263,-9.310785,1.4300591,0.31767955,-0.33308613,0.14954281,0.8750828,-4.690195,4.441295,0.25614586,0.24672893,0.09110894,0.13855976,0
0.5700000000000003,10.925162213857359,-0.1596766097291125,-0.8097266542046487,-0.017107844634793097,10.819016,0.26742318,0.59676397,0.2578568,10.161096,-9.266114,1.4325314,0.3180912,-0.32980683,0.14752823,0.8765161,-4.743355,4.4928083,0.23839654,-0.15967661,-0.80972666,-0.017107844,0
0.5800000000000003,10.925162213857359,-0.1596766097291125,-0.8097266542046487,-0.017107844634793097,10.819016,0.26742318,0.59676397,0.2578568,10.113399,-9.220931,1.434829,0.31849745,-0.32652193,0.14551115,0.8779345,-4.796116,4.543783,0.22125089,-0.15967661,-0.80972666,-0.017107844,0
0.5900000000000003,10.925162213857359,-0.1596766097291125,-0.8097266542046487,-0.017107844634793097,10.819016,0.26742318,0.59676397,0.2578568,10.065175,-9.1752405,1.4369583,0.31889826,-0.32323146,0.14349158,0.87933797,-4.8484755,4.5942163,0.20470342,-0.15967661,-0.80972666,-0.017107844,0
0.6000000000000003,10.904626534824512,-0.17506281365343487,-1.2492647506578667,-0.01844831748838435,12.325612,0.44972005,0.1794567,-0.061984356,10.016431,-9.129048,1.4389251,0.31929365,-0.3199355,0.14146955,0.8807264,-4.9004297,4.6441045,0.18874854,-0.15967661,-0.80972666,-0.017107844,0
0.6100000000000003,10.904626534824512,-0.17506281365343487,-1.2492647506578667,-0.01844831748838435,12.325612,0.44972005,0.1794567,-0.061984356,9.967169,-9.082361,1.4407349,0.31997216,-0.3147204,0.13867193,0.88280165,-4.951775,4.6932607,0.17334212,-0.17506282,-1.2492647,-0.018448317,0
0.6200000000000003,10.904626534824512,-0.17506281365343487,-1.2492647506578667,-0.01844831748838435,12.325612,0.44972005,0.1794567,-0.061984356,9.9173975,-9.035186,1.442395,0.32063794,-0.30949274,0.13586877,0.8848418,-5.002433,4.7416224,0.1588235,-0.17506282,-1.2492647,-0.018448317,0
0.6300000000000003,10.904626534824512,-0.17506281365343487,-1.2492647506578667,-0.01844831748838435,12.325612,0.44972005,0.1794567,-0.061984356,9.867123,-8.987531,1.4439143,0.32129094,-0.3042528,0.13306022,0.8868468,-5.052395,4.789182,0.1451794,-0.17506282,-1.2492647,-0.018448317,0
0.6400000000000003,10.904626534824512,-0.17506281365343487,-1.2492647506578667,-0.01844831748838435,12.797538,0.5875932,-0.36940888,-0.1207338,9.816352,-8.9394045,1.4453014,0.32193115,-0.29900074,0.13024636,0.8888165,-5.1016526,4.8359323,0.13239634,-0.17506282,-1.2492647,-0.018448317,0
0.6500000000000004,10.904626534824512,-0.17506281365343487,-1.2492647506578667,-0.01844831748838435,12.797538,0.5875932,-0.36940888,-0.1207338,9.765092,-8.890815,1.446565,0.32255858,-0.2937368,0.12742732,0.8907507,-5.1502,4.8818645,0.120460734,-0.17506282,-1.2492647,-0.018448317,0
0.6600000000000004,10.904626534824512,-0.17506281365343487,-1.2492647506578667,-0.01844831748838435,12.797538,0.5875932,-0.36940888,-0.1207338,9.713349,-8.84177,1.4477135,0.32317317,-0.28846115,0.12460323,0.89264953,-5.1980286,4.9269724,0.109358855,-0.17506282,-1.2492647,-0.018448317,0
0.6700000000000004,10.904626534824512,-0.17506281365343487,-1.2492647506578667,-0.01844831748838435,12.797538,0.5875932,-0.36940888,-0.1207338,9.661133,-8.792278,1.4487551,0.32377487,-0.28317404,0.12177417,0.89451283,-5.24513,4.971248,0.09907685,-0.17506282,-1.2492647,-0.018448317,0
0.6800000000000004,11.071819439049007,-0.12277031696225099,-0.8166941474745997,-0.0120970471832617,12.400782,0.23819223,0.6317362,0.047464076,9.608449,-8.742348,1.4496979,0.3243637,-0.27787566,0.118940264,0.89634055,-5.291498,5.0146847,0.08960075,-0.17506282,-1.2492647,-0.018448317,0
0.6900000000000004,11.071819439049007,-0.12277031696225099,-0.8166941474745997,-0.0120970471832617,12.400782,0.23819223,0.6317362,0.047464076,9.555301,-8.691984,1.4505564,0.32473028,-0.27441943,0.1170477,0.89752096,-5.3379264,5.0580373,0.08218422,-0.12277032,-0.81669414,-0.012097048,0
0.7000000000000004,11.071819439049007,-0.12277031696225099,-0.8166941474745997,-0.0120970471832617,12.400782,0.23819223,0.6317362,0.047464076,9.501693,-8.641189,1.4513433,0.3250913,-0.2709585,0.115153134,0.8986861,-5.3838654,5.1008177,0.075286955,-0.12277032,-0.81669414,-0.012097048,0
0.7100000000000004,11.071819439049007,-0.12277031696225099,-0.8166941474745997,-0.0120970471832617,12.400782,0.23819223,0.6317362,0.047464076,9.447627,-8.58997,1.4520639,0.32544678,-0.26749298,0.11325661,0.899836,-5.429312,5.1430225,0.06890272,-0.12277032,-0.81669414,-0.012097048,0
0.7200000000000004,11.044281588563999,-0.07541818162404725,-0.7588815528254407,-0.007606305011971268,12.562544,0.5148331,0.8017334,0.054346744,9.393109,-8.538331,1.4527233,0.32579672,-0.26402286,0.11135814,0.9009704,-5.4742637,5.18465,0.06302527,-0.12277032,-0.81669414,-0.012097048,0
0.7300000000000004,11.044281588563999,-0.07541818162404725,-0.7588815528254407,-0.007606305011971268,12.562544,0.5148331,0.8017334,0.054346744,9.338145,-8.486279,1.453325,0.3261516,-0.26072934,0.10977135,0.90199524,-5.5186095,5.2256217,0.057404097,-0.07541818,-0.75888157,-0.007606305,0
0.7400000000000004,11.044281588563999,-0.07541818162404725,-0.7588815528254407,-0.007606305011971268,12.562544,0.5148331,0.8017334,0.054346744,9.28274,-8.433819,1.4538729,0.32650173,-0.2574321,0.10818295,0.903007,-5.5624638,5.2660847,0.05224016,-0.07541818,-0.75888157,-0.007606305,0
0.7500000000000004,11.044281588563999,-0.07541818162404725,-0.7588815528254407,-0.007606305011971268,12.562544,0.5148331,0.8017334,0.054346744,9.226898,-8.380959,1.4543715,0.32684708,-0.25413108,0.10659298,0.9040056,-5.605824,5.306037,0.04752804,-0.07541818,-0.75888157,-0.007606305,0
0.7600000000000005,11.163215820781275,-0.03299086483683502,-0.5363440474706297,-0.005639706515699346,12.848273,0.7967498,1.3642917,0.20395583,9.170625,-8.327702,1.454825,0.32718766,-0.2508264,0.105001464,0.90499103,-5.648687,5.345476,0.043262318,-0.07541818,-0.75888157,-0.007606305,0
0.7700000000000005,11.163215820781275,-0.03299086483683502,-0.5363440474706297,-0.005639706515699346,12.848273,0.7967498,1.3642917,0.20395583,9.113923,-8.274049,1.4552431,0.32745224,-0.2484555,0.10396731,0.9056685,-5.691557,5.384883,0.04040391,-0.032990865,-0.53634405,-0.0056397067,0
0.7800000000000005,11.163215820781275,-0.03299086483683502,-0.5363440474706297,-0.005639706515699346,12.848273,0.7967498,1.3642917,0.20395583,9.056794,-8.220004,1.4556341,0.32771444,-0.2460828,0.1029324,0.90633947,-5.734055,5.4239373,0.037857004,-0.032990865,-0.53634405,-0.0056397067,0
0.7900000000000005,11.163215820781275,-0.03299086483683502,-0.5363440474706297,-0.005639706515699346,12.848273,0.7967498,1.3642917,0.20395583,8.999243,-8.165571,1.4560014,0.32797426,-0.24370833,0.10189675,0.9070038,-5.77618,5.4626384,0.03561884,-0.032990865,-0.53634405,-0.0056397067,0
0.8000000000000005,11.114416547144021,-0.01982272579244881,-0.7379502604421914,-0.0056439895437065644,14.345675,1.191176,1.1418526,-0.6260311,8.941272,-8.110752,1.4563477,0.3282317,-0.24133208,0.100860365,0.9076617,-5.817929,5.5009847,0.033686657,-0.032990865,-0.53634405,-0.0056397067,0
0.8100000000000005,11.114416547144021,-0.01982272579244881,-0.7379502604421914,-0.0056439895437065644,14.345675,1.191176,1.1418526,-0.6260311,8.882886,-8.0555525,1.4566742,0.3286033,-0.23801678,0.09955182,0.9085466,-5.859061,5.538768,0.031677924,-0.019822726,-0.73795027,-0.0056439894,0
0.8200000000000005,11.114416547144021,-0.01982272579244881,-0.7379502604421914,-0.0056439895437065644,14.345675,1.191176,1.1418526,-0.6260311,8.824092,-7.999978,1.4569827,0.32897043,-0.23469824,0.09824191,0.90941936,-5.8996577,5.576083,0.03007878,-0.019822726,-0.73795027,-0.0056439894,0
0.8300000000000005,11.114416547144021,-0.01982272579244881,-0.7379502604421914,-0.0056439895437065644,14.345675,1.191176,1.1418526,-0.6260311,8.7648945,-7.9440327,1.457277,0.32933307,-0.23137648,0.09693066,0.9102797,-5.9397163,5.612929,0.028883962,-0.019822726,-0.73795027,-0.0056439894,0
0.8400000000000005,11.114416547144021,-0.01982272579244881,-0.7379502604421914,-0.0056439895437065644,14.350211,1.1272026,1.0388224,-0.66631347,8.705298,-7.887721,1.4575616,0.32969123,-0.22805159,0.09561809,0.9111276,-5.9792356,5.649304,0.028088193,-0.019822726,-0.73795027,-0.0056439894,0
0.8500000000000005,11.114416547144021,-0.01982272579244881,-0.7379502604421914,-0.0056439895437065644,14.350211,1.1272026,1.0388224,-0.66631347,8.64531,-7.8310485,1.4578402,0.33004493,-0.22472359,0.09430422,0.91196305,-6.018213,5.685205,0.027686168,-0.019822726,-0.73795027,-0.0056439894,0
0.8600000000000005,11.114416547144021,-0.01982272579244881,-0.7379502604421914,-0.0056439895437065644,14.350211,1.1272026,1.0388224,-0.66631347,8.584935,-7.7740192,1.4581168,0.3303941,-0.22139253,0.092989065,0.91278595,-6.056646,5.72063,0.02767256,-0.019822726,-0.73795027,-0.0056439894,0
0.8700000000000006,11.114416547144021,-0.01982272579244881,-0.7379502604421914,-0.0056439895437065644,14.350211,1.1272026,1.0388224,-0.66631347,8.5241785,-7.7166376,1.458395,0.33073875,-0.21805845,0.091672644,0.91359645,-6.0945325,5.755578,0.028042028,-0.019822726,-0.73795027,-0.0056439894,0
0.8800000000000006,11.215896637796632,-0.0012977275229384534,-0.44752865837500816,-0.00535658567704627,12.219721,0.94719833,1.6835159,0.12884992,8.463046,-7.658909,1.4586788,0.33107892,-0.2147214,0.09035498,0.91439456,-6.1318707,5.7900467,0.028789207,-0.019822726,-0.73795027,-0.0056439894,0
0.8900000000000006,11.215896637796632,-0.0012977275229384534,-0.44752865837500816,-0.00535658567704627,12.219721,0.94719833,1.6835159,0.12884992,8.401541,-7.6008368,1.4589765,0.3313034,-0.21267934,0.08960223,0.9148644,-6.1690736,5.824419,0.030759562,-0.0012977276,-0.44752866,-0.0053565856,0
0.9000000000000006,11.215896637796632,-0.0012977275229384534,-0.44752865837500816,-0.00535658567704627,12.219721,0.94719833,1.6835159,0.12884992,8.339666,-7.542422,1.4592949,0.3315262,-0.21063621,0.08884904,0.9153297,-6.205931,5.8585052,0.03295533,-0.0012977276,-0.44752866,-0.0053565856,0
0.9100000000000006,11.215896637796632,-0.0012977275229384534,-0.44752865837500816,-0.00535658567704627,12.219721,0.94719833,1.6835159,0.12884992,8.277426,-7.4836674,1.4596363,0.33174732,-0.20859204,0.0880954,0.91579044,-6.2424426,5.892305,0.0353745,-0.0012977276,-0.44752866,-0.0053565856,0
0.9200000000000006,11.188363675156342,0.00467649181399419,-0.6880525412360362,-0.0058983961616545354,12.243947,0.97241914,1.827917,0.13675946,8.21482,-7.4245763,1.4600031,0.3319668,-0.20654681,0.087341316,0.9162466,-6.2786074,5.925817,0.03801507,-0.0012977276,-0.44752866,-0.0053565856,0
0.9300000000000006,11.188363675156342,0.00467649181399419,-0.6880525412360362,-0.0058983961616545354,12.243947,0.97241914,1.827917,0.13675946,8.1518545,-7.3651524,1.4603963,0.33229715,-0.20338829,0.08621408,0.9169399,-6.3142653,5.9589033,0.040670864,0.004676492,-0.68805254,-0.005898396,0
0.9400000000000006,11.188363675156342,0.00467649181399419,-0.6880525412360362,-0.0058983961616545354,12.243947,0.97241914,1.827917,0.13675946,8.088536,-7.3054,1.4608176,0.33262357,-0.20022734,0.085085824,0.9176224,-6.349384,5.9915514,0.04365838,0.004676492,-0.68805254,-0.005898396,0
0.9500000000000006,11.188363675156342,0.00467649181399419,-0.6880525412360362,-0.0058983961616545354,12.243947,0.97241914,1.827917,0.13675946,8.024869,-7.2453227,1.4612705,0.33294606,-0.19706403,0.08395656,0.918294,-6.383961,6.0237603,0.04697283,0.004676492,-0.68805254,-0.005898396,0
0.9600000000000006,11.294614060792744,0.016801915740147864,-0.3380870154095572,-0.005609899574221069,12.584174,0.89230967,-0.96891135,-0.30632454,7.960859,-7.1849256,1.4617581,0.33326462,-0.19389838,0.0828263,0.91895473,-6.417996,6.055528,0.050609414,0.004676492,-0.68805254,-0.005898396,0
0.9700000000000006,11.294614060792744,0.016801915740147864,-0.3380870154095572,-0.005609899574221069,12.584174,0.89230967,-0.96891135,-0.30632454,7.896509,-7.124212,1.4622884,0.33344617,-0.19231899,0.08233459,0.91926485,-6.4519057,6.0872407,0.055471748,0.016801916,-0.33808702,-0.0056098998,0
0.9800000000000006,11.294614060792744,0.016801915740147864,-0.3380870154095572,-0.005609899574221069,12.584174,0.89230967,-0.96891135,-0.30632454,7.8318214,-7.063182,1.462868,0.33362678,-0.19073907,0.081842646,0.91957235,-6.4855347,6.118746,0.060489777,0.016801916,-0.33808702,-0.0056098998,0
0.9900000000000007,11.294614060792744,0.016801915740147864,-0.3380870154095572,-0.005609899574221069,12.584174,0.89230967,-0.96891135,-0.30632454,7.766799,-7.0018377,1.4634986,0.33380643,-0.18915857,0.08135046,0.91987723,-6.518882,6.1500435,0.06566232,0.016801916,-0.33808702,-0.0056098998,0
1.0000000000000007,11.276448405639691,0.01530791913979311,-0.7547346458434785,-0.0062328568670234966,11.694699,0.96412665,-0.41046053,-0.010835227,7.701445,-6.9401817,1.4641818,0.33398512,-0.18757755,0.08085804,0.9201795,-6.5519485,6.181133,0.07098818,0.016801916,-0.33808702,-0.0056098998,1
1.0100000000000007,11.276448405639691,0.01530791913979311,-0.7547346458434785,-0.0062328568670234966,11.694699,0.96412665,-0.41046053,-0.010835227,7.6357565,-6.8782096,1.4649372,0.33510056,-0.18408087,0.08459716,0.92014396,-6.5856037,6.213405,0.08013696,0.96412665,-0.41046053,-0.010835227,1
1.0200000000000007,11.276448405639691,0.01530791913979311,-0.7547346458434785,-0.0062328568670234966,11.694699,0.96412665,-0.41046053,-0.010835227,7.569737,-6.815912,1.4657849,0.33620682,-0.18057913,0.08833396,0.92008317,-6.6181884,6.2462554,0.08944061,0.96412665,-0.41046053,-0.010835227,1
1.0300000000000007,11.276448405639691,0.01530791913979311,-0.7547346458434785,-0.0062328568670234966,11.694699,0.96412665,-0.41046053,-0.010835227,7.503397,-6.753282,1.4667264,0.33730385,-0.17707244,0.09206832,0.9199971,-6.6497,6.27968,0.09888738,0.96412665,-0.41046053,-0.010835227,1
1.0400000000000007,11.276448405639691,0.01530791913979311,-0.7547346458434785,-0.0062328568670234966,11.640484,0.9800282,-0.467805,0.0008327402,7.436747,-6.6903157,1.4677631,0.33839163,-0.17356089,0.09580016,0.91988575,-6.6801353,6.3136744,0.1084655,0.96412665,-0.41046053,-0.010835227,1
1.0500000000000007,11.276448405639691,0.01530791913979311,-0.7547346458434785,-0.0062328568670234966,11.640484,0.9800282,-0.467805,0.0008327402,7.369799,-6.627008,1.4688938,0.33945736,-0.16974814,0.09951552,0.9198101,-6.709332,6.3480654,0.11767258,0.9800282,-0.467805,0.0008327402,1
1.0600000000000007,11.276448405639691,0.01530791913979311,-0.7547346458434785,-0.0062328568670234966,11.640484,0.9800282,-0.467805,0.0008327402,7.3025646,-6.563353,1.4701171,0.3405131,-0.16593039,0.10322794,0.91970736,-6.73739,6.3829904,0.1270107,0.9800282,-0.467805,0.0008327402,1
1.0700000000000007,11.276448405639691,0.01530791913979311,-0.7547346458434785,-0.0062328568670234966,11.640484,0.9800282,-0.467805,0.0008327402,7.2350554,-6.4993463,1.4714344,0.34155875,-0.16210775,0.10693732,0.91957754,-6.7643065,6.418445,0.13646719,0.9800282,-0.467805,0.0008327402,1
1.0800000000000007,11.246449642878309,-0.4790718453975059,-0.5001023393637751,-0.008300294596205059,11.4713125,0.4143348,0.033047892,0.19678634,7.167282,-6.434982,1.4728467,0.3425944,-0.15828033,0.11064355,0.91942054,-6.790078,6.454426,0.14602937,0.9800282,-0.467805,0.0008327402,1
1.0900000000000007,11.246449642878309,-0.4790718453975059,-0.5001023393637751,-0.008300294596205059,11.4713125,0.4143348,0.033047892,0.19678634,7.0992584,-6.370259,1.4743474,0.34199846,-0.15761323,0.112760335,0.9194998,-6.8146605,6.490346,0.15406373,0.4143348,0.033047892,0.19678634,1
1.1000000000000008,11.246449642878309,-0.4790718453975059,-0.5001023393637751,-0.008300294596205059,11.4713125,0.4143348,0.033047892,0.19678634,7.0309906,-6.305174,1.475928,0.3414007,-0.1569453,0.11487652,0.9195743,-6.8389544,6.526641,0.16203713,0.4143348,0.033047892,0.19678634,1
1.1100000000000008,11.246449642878309,-0.4790718453975059,-0.5001023393637751,-0.008300294596205059,11.4713125,0.4143348,0.033047892,0.19678634,6.9624805,-6.2397246,1.4775879,0.34080118,-0.15627654,0.116992116,0.9196438,-6.86296,6.5633106,0.1699474,0.4143348,0.033047892,0.19678634,1
1.1200000000000008,11.21099854069127,-0.9855981910436421,-0.8151258346817895,-0.010658121533925698,11.4577265,0.1490188,0.034760274,0.22287387,6.893732,-6.173907,1.4793267,0.34019983,-0.15560694,0.11910708,0.91970855,-6.8866773,6.600354,0.17779237,0.4143348,0.033047892,0.19678634,0
1.1300000000000008,11.21099854069127,-0.9855981910436421,-0.8151258346817895,-0.010658121533925698,11.4577265,0.1490188,0.034760274,0.22287387,6.8247504,-6.1077228,1.4811321,0.33996052,-0.15353824,0.11317755,0.9208928,-6.909708,6.636277,0.18336321,-0.9855982,-0.8151258,-0.010658122,0
1.1400000000000008,11.21099854069127,-0.9855981910436421,-0.8151258346817895,-0.010658121533925698,11.4577265,0.1490188,0.034760274,0.22287387,6.755538,-6.0411863,1.4829955,0.33970726,-0.15146324,0.10724339,0.92203933,-6.9328103,6.670839,0.1893799,-0.9855982,-0.8151258,-0.010658122,0
1.1500000000000008,11.21099854069127,-0.9855981910436421,-0.8151258346817895,-0.010658121533925698,11.4577265,0.1490188,0.034760274,0.22287387,6.6860943,-5.9743114,1.4849211,0.33944014,-0.14938205,0.10130484,0.92314816,-6.95598,6.704034,0.19582535,-0.9855982,-0.8151258,-0.010658122,0
1.1600000000000008,11.309897478093047,-0.9933327855496032,-0.7399024155428265,-0.011843635294444025,11.360528,-0.1865122,-0.5435176,0.25327295,6.6164184,-5.90711,1.4869133,0.3391591,-0.14729476,0.09536214,0.92421925,-6.979213,6.735857,0.20268245,-0.9855982,-0.8151258,-0.010658122,1
1.1700000000000008,11.309897478093047,-0.9933327855496032,-0.7399024155428265,-0.011843635294444025,11.360528,-0.1865122,-0.5435176,0.25327295,6.546509,-5.8395953,1.488983,0.3381088,-0.14497793,0.09376462,0.9251334,-7.002679,6.7670345,0.2112757,-0.1865122,-0.5435176,0.25327295,1
1.1800000000000008,11.309897478093047,-0.9933327855496032,-0.7399024155428265,-0.011843635294444025,11.360528,-0.1865122,-0.5435176,0.25327295,6.476366,-5.771772,1.4911398,0.33705518,-0.14265966,0.09216617,0.92603844,-7.025833,6.797683,0.22009014,-0.1865122,-0.5435176,0.25327295,1
1.1900000000000008,11.309897478093047,-0.9933327855496032,-0.7399024155428265,-0.011843635294444025,11.360528,-0.1865122,-0.5435176,0.25327295,6.405993,-5.7036443,1.4933857,0.3359982,-0.14033997,0.090566814,0.92693436,-7.048673,6.8278017,0.22912233,-0.1865122,-0.5435176,0.25327295,1
1.2000000000000008,11.46718177632707,-0.9713455376339346,-0.3170456204640062,-0.0184773767660947,11.357738,0.33544984,-0.59299296,0.25874537,6.3353934,-5.6352177,1.495723,0.33493796,-0.1380189,0.08896656,0.92782116,-7.071197,6.8573914,0.23836878,-0.1865122,-0.5435176,0.25327295,0
1.2100000000000009,11.46718177632707,-0.9713455376339346,-0.3170456204640062,-0.0184773767660947,11.357738,0.33544984,-0.59299296,0.25874537,6.2645683,-5.5664973,1.4981589,0.33449003,-0.13818122,0.08391554,0.92842895,-7.093901,6.886525,0.24882865,-0.97134554,-0.31704563,-0.018477377,0
1.2200000000000009,11.46718177632707,-0.9713455376339346,-0.3170456204640062,-0.0184773767660947,11.357738,0.33544984,-0.59299296,0.25874537,6.1935134,-5.497491,1.5007002,0.33403337,-0.13833992,0.078862324,0.92901254,-7.117055,6.9145937,0.25947422,-0.97134554,-0.31704563,-0.018477377,0
1.2300000000000009,11.46718177632707,-0.9713455376339346,-0.3170456204640062,-0.0184773767660947,11.357738,0.33544984,-0.59299296,0.25874537,6.1222253,-5.4282093,1.503349,0.33356798,-0.13849501,0.07380706,0.92957187,-7.140656,6.941593,0.2702941,-0.97134554,-0.31704563,-0.018477377,0
1.2400000000000009,11.46718177632707,-0.9713455376339346,-0.3170456204640062,-0.0184773767660947,11.356384,0.2556843,-0.59237015,0.23484486,6.0506988,-5.3586626,1.5061066,0.33309388,-0.1386465,0.06874986,0.9301069,-7.164702,6.967521,0.28127685,-0.97134554,-0.31704563,-0.018477377,0
1.2500000000000009,11.46718177632707,-0.9713455376339346,-0.3170456204640062,-0.0184773767660947,11.356384,0.2556843,-0.59237015,0.23484486,5.978929,-5.2888627,1.5089749,0.33261108,-0.13879435,0.06369087,0.9306177,-7.1891904,6.992375,0.292411,-0.97134554,-0.31704563,-0.018477377,0
1.260000000000001,11.46718177632707,-0.9713455376339346,-0.3170456204640062,-0.0184773767660947,11.356384,0.2556843,-0.59237015,0.23484486,5.9069133,-5.2188187,1.5119554,0.33211958,-0.13893858,0.058630217,0.9311042,-7.2141194,7.016152,0.3036851,-0.97134554,-0.31704563,-0.018477377,0
1.270000000000001,11.46718177632707,-0.9713455376339346,-0.3170456204640062,-0.0184773767660947,11.356384,0.2556843,-0.59237015,0.23484486,5.8346457,-5.148543,1.5150492,0.3316194,-0.13907918,0.053568035,0.93156636,-7.2394867,7.03885,0.3150877,-0.97134554,-0.31704563,-0.018477377,0
1.280000000000001,11.52680333997844,-0.6125468647492771,-0.43938295626624535,-0.010203359347435808,11.456161,0.3895879,-0.16168492,0.1994217,5.762122,-5.078046,1.5182576,0.33111063,-0.13921615,0.04850445,0.9320042,-7.2652903,7.060466,0.3266073,-0.97134554,-0.31704563,-0.018477377,0
1.290000000000001,11.52680333997844,-0.6125468647492771,-0.43938295626624535,-0.010203359347435808,11.456161,0.3895879,-0.16168492,0.1994217,5.689338,-5.007337,1.5215845,0.33083597,-0.1381842,0.04491511,0.93243504,-7.291526,7.0811944,0.33881912,-0.61254686,-0.43938297,-0.01020336,0
1.300000000000001,11.52680333997844,-0.6125468647492771,-0.43938295626624535,-0.010203359347435808,11.456161,0.3895879,-0.16168492,0.1994217,5.6162915,-4.9364257,1.5250343,0.33055666,-0.1371503,0.04132513,0.93285275,-7.317829,7.101068,0.35117188,-0.61254686,-0.43938297,-0.01020336,0
1.310000000000001,11.52680333997844,-0.6125468647492771,-0.43938295626624535,-0.010203359347435808,11.456161,0.3895879,-0.16168492,0.1994217,5.5429816,-4.865319,1.5286084,0.33027264,-0.13611443,0.03773456,0.9332571,-7.3442,7.1200857,0.3636593,-0.61254686,-0.43938297,-0.01020336,0
1.320000000000001,11.730295170370601,-0.19371130043748805,0.1816028661533832,0.0007217246656424745,11.3987665,0.6488277,-0.02794771,0.19385213,5.4694076,-4.7940264,1.532308,0.32998392,-0.13507666,0.034143455,0.9336482,-7.370636,7.1382465,0.37627503,-0.61254686,-0.43938297,-0.01020336,1
1.330000000000001,11.730295170370601,-0.19371130043748805,0.1816028661533832,0.0007217246656424745,11.3987665,0.6488277,-0.02794771,0.19385213,5.3955703,-4.7225566,1.536128,0.32952008,-0.1338418,0.037256952,0.9338708,-7.396636,7.1558847,0.3877471,0.6488277,-0.02794771,0.19385213,1
1.340000000000001,11.730295170370601,-0.19371130043748805,0.1816028661533832,0.0007217246656424745,11.3987665,0.6488277,-0.02794771,0.19385213,5.3214755,-4.650907,1.540063,0.32905242,-0.13260542,0.04037002,0.9340826,-7.4221497,7.17408,0.39924237,0.6488277,-0.02794771,0.19385213,1
1.350000000000001,11.730295170370601,-0.19371130043748805,0.1816028661533832,0.0007217246656424745,11.3987665,0.6488277,-0.02794771,0.19385213,5.2471285,-4.579073,1.544113,0.32858098,-0.13136752,0.04348262,0.9342838,-7.447177,7.192834,0.41075575,0.6488277,-0.02794771,0.19385213,1
1.360000000000001,11.797119411239084,-0.19972515664445878,0.0822727200114146,-0.016790138301899127,11.689106,0.70926666,0.12559861,0.16170949,5.172534,-4.507048,1.5482782,0.3281058,-0.13012812,0.046594728,0.93447423,-7.471718,7.212145,0.42228222,0.6488277,-0.02794771,0.19385213,1
1.370000000000001,11.797119411239084,-0.19972515664445878,0.0822727200114146,-0.016790138301899127,11.689106,0.70926666,0.12559861,0.16170949,5.097693,-4.434825,1.5525727,0.32778022,-0.12951282,0.05021962,0.9344862,-7.496419,7.232581,0.43659073,0.70926666,0.12559861,0.16170949,1
1.380000000000001,11.797119411239084,-0.19972515664445878,0.0822727200114146,-0.016790138301899127,11.689106,0.70926666,0.12559861,0.16170949,5.022607,-4.362394,1.5570099,0.32745016,-0.12889576,0.053843834,0.93448544,-7.520712,7.253752,0.45085222,0.70926666,0.12559861,0.16170949,1
1.390000000000001,11.797119411239084,-0.19972515664445878,0.0822727200114146,-0.016790138301899127,11.689106,0.70926666,0.12559861,0.16170949,4.94728,-4.289747,1.5615895,0.32711565,-0.12827694,0.057467308,0.9344719,-7.544596,7.2756577,0.46506047,0.70926666,0.12559861,0.16170949,1
1.400000000000001,12.005847271964676,-0.5045137817116861,0.35049762750994407,-0.033132585861414,11.805786,0.5493312,0.142268,0.20130199,4.871716,-4.2168784,1.5663109,0.3267767,-0.12765639,0.06109,0.9344457,-7.568072,7.298297,0.4792093,0.70926666,0.12559861,0.16170949,0
1.410000000000001,12.005847271964676,-0.5045137817116861,0.35049762750994407,-0.033132585861414,11.805786,0.5493312,0.142268,0.20130199,4.7959156,-4.1437764,1.5711887,0.32650086,-0.1301278,0.05928403,0.9343175,-7.5921826,7.3219376,0.4963212,-0.5045138,0.35049763,-0.033132587,0
1.420000000000001,12.005847271964676,-0.5045137817116861,0.35049762750994407,-0.033132585861414,11.805786,0.5493312,0.142268,0.20130199,4.71987,-4.07044,1.5762371,0.32622197,-0.13259801,0.057477504,0.9341805,-7.616989,7.3453565,0.5133307,-0.5045138,0.35049763,-0.033132587,0
1.430000000000001,12.005847271964676,-0.5045137817116861,0.35049762750994407,-0.033132585861414,11.805786,0.5493312,0.142268,0.20130199,4.6435733,-3.9968698,1.5814551,0.32593998,-0.13506696,0.055670433,0.93403465,-7.6424913,7.368552,0.5302334,-0.5045138,0.35049763,-0.033132587,0
1.440000000000001,12.005847271964676,-0.5045137817116861,0.35049762750994407,-0.033132585861414,11.859664,0.42294767,-0.01831195,0.18674153,4.5670176,-3.9230692,1.5868415,0.3256549,-0.13753463,0.053862836,0.93388,-7.6686873,7.391525,0.5470247,-0.5045138,0.35049763,-0.033132587,1
1.450000000000001,12.005847271964676,-0.5045137817116861,0.35049762750994407,-0.033132585861414,11.859664,0.42294767,-0.01831195,0.18674153,4.4901996,-3.8490407,1.5923883,0.32507783,-0.1367098,0.055936206,0.93408024,-7.6948686,7.414222,0.5623466,0.42294767,-0.01831195,0.18674153,1
1.460000000000001,12.005847271964676,-0.5045137817116861,0.35049762750994407,-0.033132585861414,11.859664,0.42294767,-0.01831195,0.18674153,4.4131217,-3.7747834,1.5980883,0.324499,-0.13588424,0.058009274,0.9342755,-7.7207217,7.4372983,0.5776672,0.42294767,-0.01831195,0.18674153,1
1.470000000000001,12.005847271964676,-0.5045137817116861,0.35049762750994407,-0.033132585861414,11.859664,0.42294767,-0.01831195,0.18674153,4.3357863,-3.7002933,1.6039416,0.3239185,-0.13505794,0.06008203,0.93446577,-7.746247,7.460755,0.5929843,0.42294767,-0.01831195,0.18674153,1
1.480000000000001,11.954304457005737,-0.3593466527642632,-0.05360095726773762,-0.035428030580755075,11.679821,0.57788146,-0.26297185,0.20171589,4.2581983,-3.625567,1.6099479,0.3233362,-0.1342309,0.062154464,0.934651,-7.771444,7.484591,0.6082956,0.42294767,-0.01831195,0.18674153,1
1.490000000000001,11.954304457005737,-0.3593466527642632,-0.05360095726773762,-0.035428030580755075,11.679821,0.57788146,-0.26297185,0.20171589,4.1803613,-3.5506022,1.616099,0.32286134,-0.13200429,0.064564936,0.9349689,-7.795812,7.50843,0.621908,0.57788146,-0.26297185,0.20171589,1
1.500000000000001,11.954304457005737,-0.3593466527642632,-0.05360095726773762,-0.035428030580755075,11.679821,0.57788146,-0.26297185,0.20171589,4.102284,-3.4753973,1.6223863,0.3223829,-0.12977621,0.06697469,0.9352763,-7.8195286,7.5326176,0.6355857,0.57788146,-0.26297185,0.20171589,1
1.5100000000000011,11.954304457005737,-0.3593466527642632,-0.05360095726773762,-0.035428030580755075,11.679821,0.57788146,-0.26297185,0.20171589,4.0239725,-3.3999488,1.6288108,0.32190087,-0.1275467,0.06938371,0.9355734,-7.8425937,7.557154,0.6493238,0.57788146,-0.26297185,0.20171589,1
1.5200000000000011,12.06036374579768,-0.599202971851553,0.050629147145917194,-0.05651238549577201,11.737542,0.42512122,-0.24917814,0.24257916,3.9454339,-3.324253,1.6353729,0.32141528,-0.12531576,0.07179196,0.9358601,-7.865007,7.5820394,0.6631173,0.57788146,-0.26297185,0.20171589,0
1.5300000000000011,12.06036374579768,-0.599202971851553,0.050629147145917194,-0.05651238549577201,11.737542,0.42512122,-0.24917814,0.24257916,3.8666697,-3.2483037,1.6420914,0.32128462,-0.12653534,0.06903374,0.93594843,-7.8879147,7.607762,0.6805974,-0.599203,0.050629146,-0.056512386,0
1.5400000000000011,12.06036374579768,-0.599202971851553,0.050629147145917194,-0.05651238549577201,11.737542,0.42512122,-0.24917814,0.24257916,3.787674,-3.1720996,1.6489848,0.32115105,-0.12775376,0.066274896,0.9360282,-7.9113164,7.6329536,0.6980956,-0.599203,0.050629146,-0.056512386,0
1.5500000000000012,12.06036374579768,-0.599202971851553,0.050629147145917194,-0.05651238549577201,11.737542,0.42512122,-0.24917814,0.24257916,3.7084417,-3.0956461,1.6560533,0.32101455,-0.12897104,0.063515455,0.93609935,-7.935211,7.657614,0.7156075,-0.599203,0.050629146,-0.056512386,0
1.5600000000000012,11.964778683254266,-0.6073444396091624,-0.2135136166110091,-0.05882780901862751,11.692272,0.080575615,-0.4992774,0.2636978,3.6289682,-3.0189488,1.6632969,0.3208751,-0.13018712,0.060755424,0.93616194,-7.9595985,7.681742,0.7331288,-0.599203,0.050629146,-0.056512386,1
1.5700000000000012,11.964778683254266,-0.6073444396091624,-0.2135136166110091,-0.05882780901862751,11.692272,0.080575615,-0.4992774,0.2636978,3.549253,-2.9420161,1.6706985,0.3198436,-0.12764019,0.060502958,0.9368817,-7.9833517,7.7047114,0.74718547,0.080575615,-0.4992774,0.2636978,1
1.5800000000000012,11.964778683254266,-0.6073444396091624,-0.2135136166110091,-0.05882780901862751,11.692272,0.080575615,-0.4992774,0.2636978,3.469303,-2.8648553,1.6782414,0.31880948,-0.12509222,0.06025,0.9375939,-8.006601,7.7274137,0.7614018,0.080575615,-0.4992774,0.2636978,1
1.5900000000000012,11.964778683254266,-0.6073444396091624,-0.2135136166110091,-0.05882780901862751,11.692272,0.080575615,-0.4992774,0.2636978,3.389123,-2.787469,1.685927,0.31777278,-0.122543246,0.059996553,0.9382984,-8.029346,7.74985,0.77577466,0.080575615,-0.4992774,0.2636978,1
1.6000000000000012,11.913718211077617,-0.6094473400481393,0.01013368890737272,-0.07604795450262758,11.59815,0.26285926,-0.09742518,0.38888472,3.308718,-2.7098591,1.6937573,0.3167335,-0.11999327,0.05974262,0.9389953,-8.051586,7.772021,0.79030114,0.080575615,-0.4992774,0.2636978,1
1.6100000000000012,11.913718211077617,-0.6094473400481393,0.01013368890737272,-0.07604795450262758,11.59815,0.26285926,-0.09742518,0.38888472,3.2280936,-2.6320298,1.701729,0.3150936,-0.11900307,0.06105559,0.93958837,-8.073231,7.7939157,0.8040217,0.26285926,-0.09742518,0.38888472,1
1.6200000000000012,11.913718211077617,-0.6094473400481393,0.01013368890737272,-0.07604795450262758,11.59815,0.26285926,-0.09742518,0.38888472,3.1472545,-2.55398,1.7098382,0.3134519,-0.11801219,0.062368218,0.940176,-8.094603,7.815987,0.81775993,0.26285926,-0.09742518,0.38888472,1
1.6300000000000012,11.913718211077617,-0.6094473400481393,0.01013368890737272,-0.07604795450262758,11.59815,0.26285926,-0.09742518,0.38888472,3.0662026,-2.475709,1.7180846,0.31180838,-0.11702063,0.063680485,0.94075835,-8.115703,7.838236,0.8315146,0.26285926,-0.09742518,0.38888472,1
1.6400000000000012,11.913718211077617,-0.6094473400481393,0.01013368890737272,-0.07604795450262758,11.679106,0.23590055,-0.015250387,0.41042727,2.984941,-2.3972144,1.7264686,0.31016308,-0.1160284,0.06499238,0.94133526,-8.136531,7.8606634,0.8452845,0.26285926,-0.09742518,0.38888472,1
1.6500000000000012,11.913718211077617,-0.6094473400481393,0.01013368890737272,-0.07604795450262758,11.679106,0.23590055,-0.015250387,0.41042727,2.903472,-2.318494,1.7349942,0.30837226,-0.11545709,0.06631696,0.94190127,-8.157268,7.883439,0.8598407,0.23590055,-0.015250387,0.41042727,1
1.6600000000000013,11.913718211077617,-0.6094473400481393,0.01013368890737272,-0.07604795450262758,11.679106,0.23590055,-0.015250387,0.41042727,2.8217964,-2.2395449,1.7436653,0.30657974,-0.11488512,0.06764117,0.942462,-8.177826,7.906425,0.8743867,0.23590055,-0.015250387,0.41042727,1
1.6700000000000013,11.913718211077617,-0.6094473400481393,0.01013368890737272,-0.07604795450262758,11.679106,0.23590055,-0.015250387,0.41042727,2.739916,-2.1603646,1.7524819,0.3047855,-0.114312515,0.068964995,0.94301754,-8.198206,7.9296217,0.8889219,0.23590055,-0.015250387,0.41042727,1
1.6800000000000013,11.71582199381995,-0.8093171625506232,-0.4934951441267715,-0.12902969396349673,11.697398,0.07466021,-0.1553227,0.44465202,2.6578329,-2.0809515,1.7614437,0.30298954,-0.11373927,0.070288435,0.9435677,-8.2184105,7.9530306,0.90344507,0.23590055,-0.015250387,0.41042727,1
1.6900000000000013,11.71582199381995,-0.8093171625506232,-0.4934951441267715,-0.12902969396349673,11.697398,0.07466021,-0.1553227,0.44465202,2.5755484,-2.0013034,1.7705516,0.30098793,-0.11273678,0.070658036,0.9443007,-8.238462,7.976598,0.91815203,0.07466021,-0.1553227,0.44465202,1
1.7000000000000013,11.71582199381995,-0.8093171625506232,-0.4934951441267715,-0.12902969396349673,11.697398,0.07466021,-0.1553227,0.44465202,2.4930642,-1.9214197,1.7798069,0.29898462,-0.11173365,0.071027234,0.94502836,-8.25832,8.000134,0.93289983,0.07466021,-0.1553227,0.44465202,1
1.7100000000000013,11.71582199381995,-0.8093171625506232,-0.4934951441267715,-0.12902969396349673,11.697398,0.07466021,-0.1553227,0.44465202,2.4103825,-1.8413008,1.7892098,0.29697958,-0.11072989,0.07139603,0.94575065,-8.277982,8.023643,0.9476879,0.07466021,-0.1553227,0.44465202,1
1.7200000000000013,11.471542338470556,-0.9923290387568897,-0.6484260148060137,-0.18776260705889466,11.627414,0.05079582,-0.3126465,0.48649818,2.3275049,-1.7609469,1.7987609,0.29497287,-0.1097255,0.07176442,0.9464676,-8.297447,8.047122,0.9625158,0.07466021,-0.1553227,0.44465202,0
1.7300000000000013,11.471542338470556,-0.9923290387568897,-0.6484260148060137,-0.18776260705889466,11.627414,0.05079582,-0.3126465,0.48649818,2.2444355,-1.6803621,1.8084496,0.29554436,-0.108185895,0.06600776,0.9468854,-8.316439,8.069632,0.97528565,-0.99232906,-0.648426,-0.1877626,0
1.7400000000000013,11.471542338470556,-0.9923290387568897,-0.6484260148060137,-0.18776260705889466,11.627414,0.05079582,-0.3126465,0.48649818,2.161176,-1.599559,1.8182673,0.2961052,-0.10664239,0.060248744,0.94726914,-8.335487,8.090806,0.9883084,-0.99232906,-0.648426,-0.1877626,0
1.7500000000000013,11.471542338470556,-0.9923290387568897,-0.6484260148060137,-0.18776260705889466,11.627414,0.05079582,-0.3126465,0.48649818,2.0777256,-1.5185505,1.8282166,0.2966554,-0.10509505,0.05448755,0.9476188,-8.354592,8.110642,1.0015681,-0.99232906,-0.648426,-0.1877626,0
1.7600000000000013,11.080112303176827,-0.854355330180248,-1.0665211515151656,-0.17475310056652735,11.40953,-0.141103,-0.77749825,0.31443232,1.9940839,-1.4373506,1.8382996,0.29719487,-0.103543915,0.04872439,0.94793427,-8.3737545,8.12914,1.0150485,-0.99232906,-0.648426,-0.1877626,1
1.7700000000000014,11.080112303176827,-0.854355330180248,-1.0665211515151656,-0.17475310056652735,11.40953,-0.141103,-0.77749825,0.31443232,1.9102516,-1.3559722,1.8485154,0.29581824,-0.09999097,0.04706262,0.94882977,-8.392615,8.146468,1.0281317,-0.141103,-0.77749825,0.31443232,1
1.7800000000000014,11.080112303176827,-0.854355330180248,-1.0665211515151656,-0.17475310056652735,11.40953,-0.141103,-0.77749825,0.31443232,1.8262339,-1.2744235,1.8588629,0.29443628,-0.096436225,0.045399994,0.9497081,-8.410854,8.163175,1.0414135,-0.141103,-0.77749825,0.31443232,1
1.7900000000000014,11.080112303176827,-0.854355330180248,-1.0665211515151656,-0.17475310056652735,11.40953,-0.141103,-0.77749825,0.31443232,1.7420368,-1.1927109,1.8693442,0.29304898,-0.09287974,0.04373655,0.9505693,-8.428469,8.17926,1.0548872,-0.141103,-0.77749825,0.31443232,1
1.8000000000000014,10.673185022647601,-0.7747264113250487,-1.070231532809406,-0.18088382333271197,10.823065,-0.07677731,-0.924115,0.36414915,1.6576667,-1.1108403,1.8799613,0.2916564,-0.08932157,0.042072322,0.9514133,-8.445455,8.194726,1.0685457,-0.141103,-0.77749825,0.31443232,1
1.8100000000000014,10.673185022647601,-0.7747264113250487,-1.070231532809406,-0.18088382333271197,10.823065,-0.07677731,-0.924115,0.36414915,1.5731344,-1.0288222,1.890687,0.29008064,-0.08495976,0.040521584,0.95236135,-8.460906,8.208799,1.0766389,-0.07677731,-0.924115,0.36414915,1
1.8200000000000014,10.673185022647601,-0.7747264113250487,-1.070231532809406,-0.18088382333271197,10.823065,-0.07677731,-0.924115,0.36414915,1.4884515,-0.9466664,1.9014946,0.28849766,-0.08059585,0.038969837,0.9532858,-8.475586,8.222258,1.084921,-0.07677731,-0.924115,0.36414915,1
1.8300000000000014,10.673185022647601,-0.7747264113250487,-1.070231532809406,-0.18088382333271197,10.823065,-0.07677731,-0.924115,0.36414915,1.4036255,-0.86437917,1.9123861,0.28690746,-0.07622994,0.037417125,0.9541866,-8.489492,8.235102,1.0933827,-0.07677731,-0.924115,0.36414915,1
1.8400000000000014,10.673185022647601,-0.7747264113250487,-1.070231532809406,-0.18088382333271197,10.63442,-0.15805301,-0.96727127,0.3477965,1.3186643,-0.7819665,1.9233629,0.28531024,-0.07186213,0.035863485,0.95506376,-8.502621,8.247335,1.1020149,-0.07677731,-0.924115,0.36414915,1
1.8500000000000014,10.673185022647601,-0.7747264113250487,-1.070231532809406,-0.18088382333271197,10.63442,-0.15805301,-0.96727127,0.3477965,1.2335769,-0.69943565,1.9344175,0.2837622,-0.06740526,0.033853363,0.9559229,-8.514757,8.25872,1.1089487,-0.15805301,-0.96727127,0.3477965,1
1.8600000000000014,10.673185022647601,-0.7747264113250487,-1.070231532809406,-0.18088382333271197,10.63442,-0.15805301,-0.96727127,0.3477965,1.1483718,-0.61679447,1.9455423,0.2822065,-0.06294656,0.031842325,0.9567562,-8.526133,8.269411,1.1160405,-0.15805301,-0.96727127,0.3477965,1
1.8700000000000014,10.673185022647601,-0.7747264113250487,-1.070231532809406,-0.18088382333271197,10.63442,-0.15805301,-0.96727127,0.3477965,1.0630568,-0.5340498,1.956739,0.2806432,-0.05848616,0.029830426,0.9575636,-8.536743,8.279409,1.1232802,-0.15805301,-0.96727127,0.3477965,1
1.8800000000000014,10.32887184277364,-0.8077311610689434,-0.9901136351821409,-0.19620565068945706,10.472702,-0.24666795,-0.6818075,0.30497974,0.97763956,-0.45120862,1.9680085,0.27907225,-0.054024175,0.027817719,0.9583451,-8.546585,8.288717,1.1306577,-0.15805301,-0.96727127,0.3477965,1
1.8900000000000015,10.32887184277364,-0.8077311610689434,-0.9901136351821409,-0.19620565068945706,10.472702,-0.24666795,-0.6818075,0.30497974,0.8921281,-0.36827838,1.9793446,0.27763692,-0.051058505,0.025766559,0.95898175,-8.55563,8.297235,1.1365448,-0.24666795,-0.6818075,0.30497974,1
1.9000000000000015,10.32887184277364,-0.8077311610689434,-0.9901136351821409,-0.19620565068945706,10.472702,-0.24666795,-0.6818075,0.30497974,0.80652857,-0.28526598,1.99074,0.27619728,-0.04809204,0.023715,0.95960355,-8.564214,8.305156,1.1425183,-0.24666795,-0.6818075,0.30497974,1
1.9100000000000015,10.32887184277364,-0.8077311610689434,-0.9901136351821409,-0.19620565068945706,10.472702,-0.24666795,-0.6818075,0.30497974,0.72084546,-0.20217733,2.0021954,0.27475336,-0.045124833,0.021663073,0.9602105,-8.572333,8.312482,1.1485727,-0.24666795,-0.6818075,0.30497974,1
1.9200000000000015,9.96571265659905,-0.793436895975164,-0.8960359516128382,-0.1985941815084977,10.17616,-0.2902237,-0.67024386,0.3132376,0.63508344,-0.11901839,2.013712,0.2733052,-0.042156927,0.019610811,0.9608026,-8.579987,8.319213,1.1547023,-0.24666795,-0.6818075,0.30497974,1
1.9300000000000015,9.96571265659905,-0.793436895975164,-0.8960359516128382,-0.1985941815084977,10.17616,-0.2902237,-0.67024386,0.3132376,0.5492483,-0.035796028,2.0252752,0.27180275,-0.039302625,0.017366542,0.9613928,-8.586981,8.325165,1.1579484,-0.2902237,-0.67024386,0.3132376,1
1.9400000000000015,9.96571265659905,-0.793436895975164,-0.8960359516128382,-0.1985941815084977,10.17616,-0.2902237,-0.67024386,0.3132376,0.46334535,0.04748282,2.0368712,0.270296,-0.0364477,0.015122,0.9619679,-8.59355,8.330509,1.1612568,-0.2902237,-0.67024386,0.3132376,1
1.9500000000000015,9.96571265659905,-0.793436895975164,-0.8960359516128382,-0.1985941815084977,10.17616,-0.2902237,-0.67024386,0.3132376,0.37737882,0.13081206,2.0485008,0.26878506,-0.0335922,0.01287722,0.9625277,-8.599694,8.335248,1.164622,-0.2902237,-0.67024386,0.3132376,1
1.9600000000000015,9.605363064137398,-0.7433052634376479,-0.820505840514197,-0.19580335341093213,9.9450035,-0.257395,-0.7896181,0.2482143,0.291353,0.21418568,2.0601637,0.26726985,-0.030736173,0.010632237,0.96307224,-8.605409,8.339381,1.1680386,-0.2902237,-0.67024386,0.3132376,1
1.9700000000000015,9.605363064137398,-0.7433052634376479,-0.820505840514197,-0.19580335341093213,9.9450035,-0.257395,-0.7896181,0.2482143,0.20527287,0.29759717,2.0718496,0.26607454,-0.027264375,0.008375635,0.9635299,-8.610528,8.342818,1.1691971,-0.257395,-0.7896181,0.2482143,1
1.9800000000000015,9.605363064137398,-0.7433052634376479,-0.820505840514197,-0.19580335341093213,9.9450035,-0.257395,-0.7896181,0.2482143,0.119144276,0.38103992,2.0835476,0.26487422,-0.023792064,0.0061188755,0.9639694,-8.615107,8.3456335,1.1704015,-0.257395,-0.7896181,0.2482143,1
1.9900000000000015,9.605363064137398,-0.7433052634376479,-0.820505840514197,-0.19580335341093213,9.9450035,-0.257395,-0.7896181,0.2482143,0.03297261,0.4645077,2.0952578,0.26366892,-0.020319305,0.0038620008,0.9643908,-8.619142,8.347827,1.171645,-0.257395,-0.7896181,0.2482143,1
2.0000000000000013,,,,,9.966246,-0.4444017,-0.71524,0.35494965,-0.053236686,0.54799426,2.1069806,0.26245865,-0.016846167,0.0016050535,0.9647941,-8.622632,8.349401,1.1729211,-0.257395,-0.7896181,0.2482143,1
2.010000000000001,,,,,9.966246,-0.4444017,-0.71524,0.35494965,-0.13947836,0.63149345,2.1187174,0.26071197,-0.013976042,-0.0014474404,0.9653137,-8.625641,8.350313,1.1744336,-0.4444017,-0.71524,0.35494965,1
2.020000000000001,,,,,9.966246,-0.4444017,-0.71524,0.35494965,-0.22574815,0.714998,2.1304696,0.25895983,-0.011105624,-0.004499904,0.96581304,-8.628258,8.350483,1.1759611,-0.4444017,-0.71524,0.35494965,1
2.0300000000000007,,,,,9.966246,-0.4444017,-0.71524,0.35494965,-0.31204215,0.79850054,2.142237,0.2572023,-0.008234975,-0.0075522736,0.96629226,-8.630478,8.349913,1.1774969,-0.4444017,-0.71524,0.35494965,1
2.0400000000000005,,,,,9.966246,-0.4444017,-0.71524,0.35494965,-0.39835635,0.88199365,2.1540196,0.25543937,-0.0053641535,-0.010604485,0.96675134,-8.632301,8.348603,1.1790339,-0.4444017,-0.71524,0.35494965,1
2.0500000000000003,,,,,10.011328,-0.40541646,-0.7613117,0.3889894,-0.48468676,0.9654701,2.1658175,0.2536711,-0.0024932204,-0.013656475,0.96719015,-8.633724,8.346557,1.180565,-0.4444017,-0.71524,0.35494965,1
2.06,,,,,10.011328,-0.40541646,-0.7613117,0.3889894,-0.57102937,1.0489223,2.177633,0.2517301,0.0006476884,-0.01657765,0.9676545,-8.634726,8.343766,1.1825341,-0.40541646,-0.7613117,0.3889894,1
2.07,,,,,10.011328,-0.40541646,-0.7613117,0.3889894,-0.6573796,1.1323429,2.1894681,0.24978349,0.0037885827,-0.019498454,0.9680972,-8.63526,8.340249,1.1844838,-0.40541646,-0.7613117,0.3889894,1
2.0799999999999996,,,,,10.011328,-0.40541646,-0.7613117,0.3889894,-0.74373287,1.2157248,2.2013228,0.24783126,0.006929392,-0.022418821,0.96851826,-8.635323,8.336009,1.186407,-0.40541646,-0.7613117,0.3889894,1
2.0899999999999994,,,,,9.11124,-0.29543468,-1.3210968,0.3241195,-0.8300844,1.2990605,2.2131965,0.24587348,0.0100700455,-0.025338687,0.9689176,-8.6349125,8.331048,1.1882961,-0.40541646,-0.7613117,0.3889894,1
2.099999999999999,,,,,9.11124,-0.29543468,-1.3210968,0.3241195,-0.9164293,1.3823454,2.2250438,0.24414483,0.01606566,-0.028409742,0.96918863,-8.633923,8.32582,1.1811523,-0.29543468,-1.3210968,0.3241195,1
2.109999999999999,,,,,9.11124,-0.29543468,-1.3210968,0.3241195,-1.0027597,1.465574,2.2368193,0.24240434,0.022060499,-0.03147942,0.96941274,-8.631999,8.319786,1.1739438,-0.29543468,-1.3210968,0.3241195,1
2.1199999999999988,,,,,9.11124,-0.29543468,-1.3210968,0.3241195,-1.0890663,1.5487384,2.2485223,0.24065211,0.028054269,-0.03454757,0.9695899,-8.629142,8.312951,1.1666536,-0.29543468,-1.3210968,0.3241195,1
2.1299999999999986,,,,,9.401103,-0.20198402,-1.3660278,0.33159882,-1.1753396,1.6318303,2.260152,0.23888822,0.034046676,-0.037614055,0.96972007,-8.625349,8.305318,1.1592659,-0.29543468,-1.3210968,0.3241195,1
2.1399999999999983,,,,,9.401103,-0.20198402,-1.3660278,0.33159882,-1.2615694,1.7148408,2.2717218,0.23705189,0.040365465,-0.040280513,0.96982116,-8.620439,8.296646,1.1546465,-0.20198402,-1.3660278,0.33159882,1
