time-since-start [s],throttle_mpc,roll_mpc,pitch_mpc,yaw_mpc,throttle_nw,roll_nw,pitch_nw,yaw_nw,position_x [m],position_y [m],position_z [m],rotation_w [quaternion],rotation_x [quaternion],rotation_y [quaternion],rotation_z [quaternion],velocity_x [m/s],velocity_y [m/s],velocity_z [m/s],omega_x [rad/s],omega_y [rad/s],omega_z [rad/s],network_used
0.0,7.165447064842549,-0.3731150611307481,-5.9999988029259965,-0.09443636443794172,9.398138,-1.0056187,-0.16042978,0.14525968,12.373527,-11.363295,1.1588174,0.31652448,-0.32190472,0.14177243,0.8809598,-3.5472143,3.3475373,0.761871,0.025352353,-0.11156964,-0.1452104,0
0.01,7.165447064842549,-0.3731150611307481,-5.9999988029259965,-0.09443636443794172,9.72062,-1.5158526,-2.285421,-0.065567315,12.337886,-11.329659,1.1662183,0.32044947,-0.2959918,0.13041885,0.8903325,-3.5805206,3.3791966,0.7187371,-0.37311506,-5.9999986,-0.09443636,0
0.02,7.165447064842549,-0.3731150611307481,-5.9999988029259965,-0.09443636443794172,9.72062,-1.5158526,-2.285421,-0.065567315,12.301925,-11.295719,1.1732013,0.32408488,-0.26981145,0.118947424,0.8989006,-3.611352,3.4085462,0.67826474,-0.37311506,-5.9999986,-0.09443636,0
0.03,7.165447064842549,-0.3731150611307481,-5.9999988029259965,-0.09443636443794172,9.72062,-1.5158526,-2.285421,-0.065567315,12.265668,-11.261498,1.179792,0.32742742,-0.24338727,0.10736851,0.9066565,-3.6396,3.4354768,0.64024556,-0.37311506,-5.9999986,-0.09443636,0
0.04,7.165447064842549,-0.3731150611307481,-5.9999988029259965,-0.09443636443794172,9.124624,-0.3466446,-0.040885545,-0.16317242,12.229141,-11.227019,1.1860139,0.3304741,-0.21674314,0.09569257,0.91359305,-3.6651652,3.4598885,0.6044627,-0.37311506,-5.9999986,-0.09443636,0
0.05,7.165447064842549,-0.3731150611307481,-5.9999988029259965,-0.09443636443794172,9.124624,-0.3466446,-0.040885545,-0.16317242,12.192373,-11.19231,1.1918883,0.33322218,-0.18990317,0.08393016,0.91970414,-3.6879578,3.4816897,0.5706909,-0.37311506,-5.9999986,-0.09443636,0
0.060000000000000005,7.165447064842549,-0.3731150611307481,-5.9999988029259965,-0.09443636443794172,9.124624,-0.3466446,-0.040885545,-0.16317242,12.155392,-11.157395,1.1974341,0.33566913,-0.1628916,0.07209191,0.92498404,-3.7078984,3.5007992,0.5386977,-0.37311506,-5.9999986,-0.09443636,0
0.07,7.165447064842549,-0.3731150611307481,-5.9999988029259965,-0.09443636443794172,9.124624,-0.3466446,-0.040885545,-0.16317242,12.118225,-11.122303,1.2026677,0.33781275,-0.1357328,0.060188513,0.9294281,-3.7249177,3.5171447,0.5082445,-0.37311506,-5.9999986,-0.09443636,0
0.08,9.07038888599897,-0.25291204003689094,-5.999998409812502,-0.047544662315378274,9.243395,0.3128257,1.1015435,0.22314185,12.080903,-11.087062,1.2076035,0.33965114,-0.10845137,0.048230726,0.93303233,-3.7389572,3.530664,0.4790868,-0.37311506,-5.9999986,-0.09443636,0
0.09,9.07038888599897,-0.25291204003689094,-5.999998409812502,-0.047544662315378274,9.243395,0.3128257,1.1015435,0.22314185,12.043442,-11.051684,1.212346,0.3410294,-0.08085662,0.036815505,0.935845,-3.7528698,3.544166,0.46958145,-0.25291204,-5.9999986,-0.047544662,0
0.09999999999999999,9.07038888599897,-0.25291204003689094,-5.999998409812502,-0.047544662315378274,9.243395,0.3128257,1.1015435,0.22314185,12.00586,-11.01619,1.2169986,0.34210017,-0.053188983,0.025367092,0.937814,-3.7628314,3.5540576,0.46107942,-0.25291204,-5.9999986,-0.047544662,0
0.10999999999999999,9.07038888599897,-0.25291204003689094,-5.999998409812502,-0.047544662315378274,9.243395,0.3128257,1.1015435,0.22314185,11.9682,-10.980615,1.2215699,0.3428625,-0.02547339,0.01389581,0.9389374,-3.7688076,3.5603013,0.45325774,-0.25291204,-5.9999986,-0.047544662,0
0.11999999999999998,9.07038888599897,-0.25291204003689094,-5.999998409812502,-0.047544662315378274,9.243395,0.3128257,1.1015435,0.22314185,11.930498,-10.944997,1.2260649,0.34331572,0.0022651684,0.0024120004,0.9392142,-3.7707782,3.5628726,0.44579098,-0.25291204,-5.9999986,-0.047544662,0
0.12999999999999998,10.644726385006187,-0.06569668894778573,-4.286219748198312,-0.036006087540487106,9.526041,0.37650648,0.9281744,0.10773593,11.8927965,-10.90937,1.2304859,0.3434594,0.03000168,-0.009073985,0.93864435,-3.7687383,3.5617607,0.43835232,-0.25291204,-5.9999986,-0.047544662,0
0.13999999999999999,10.644726385006187,-0.06569668894778573,-4.286219748198312,-0.036006087540487106,9.526041,0.37650648,0.9281744,0.10773593,11.855139,-10.8737755,1.2349098,0.3433649,0.04999825,-0.016734954,0.93772095,-3.7621205,3.556632,0.44636214,-0.06569669,-4.2862196,-0.03600609,0
0.15,10.644726385006187,-0.06569668894778573,-4.286219748198312,-0.036006087540487106,9.526041,0.37650648,0.9281744,0.10773593,11.817565,-10.838248,1.2394116,0.34311262,0.069971845,-0.024388235,0.93636686,-3.752082,3.548519,0.4539163,-0.06569669,-4.2862196,-0.03600609,0
0.16,10.620624682928154,0.04657591035748891,0.8331942141238761,-0.028201032428803362,10.76474,-0.29680535,1.2979909,-0.30775505,11.780108,-10.802816,1.2439859,0.34270272,0.0899133,-0.03203031,0.93458253,-3.7386432,3.5374346,0.4608207,-0.06569669,-4.2862196,-0.03600609,0
0.17,10.620624682928154,0.04657591035748891,0.8331942141238761,-0.028201032428803362,10.76474,-0.29680535,1.2979909,-0.30775505,11.742799,-10.767506,1.248625,0.342944,0.08610342,-0.030372022,0.9349081,-3.7233622,3.5247557,0.467054,0.04657591,0.8331942,-0.028201032,0
0.18000000000000002,10.620624682928154,0.04657591035748891,0.8331942141238761,-0.028201032428803362,10.76474,-0.29680535,1.2979909,-0.30775505,11.705639,-10.732319,1.2533274,0.34317932,0.08229202,-0.028713206,0.93521744,-3.7087126,3.5126774,0.47344902,0.04657591,0.8331942,-0.028201032,0
0.19000000000000003,10.620624682928154,0.04657591035748891,0.8331942141238761,-0.028201032428803362,10.76474,-0.29680535,1.2979909,-0.30775505,11.668623,-10.69725,1.2580944,0.34340867,0.07847919,-0.027053889,0.93551034,-3.6946955,3.5012004,0.47999844,0.04657591,0.8331942,-0.028201032,0
0.20000000000000004,10.32713974631506,0.07267232618006175,2.5042874924453353,-0.019776993658639958,9.080771,-0.4569709,3.5835783,-0.12861568,11.631743,-10.662293,1.2629279,0.343632,0.074664995,-0.025394099,0.935787,-3.6813116,3.4903257,0.486695,0.04657591,0.8331942,-0.028201032,0
0.21000000000000005,10.32713974631506,0.07267232618006175,2.5042874924453353,-0.019776993658639958,9.080771,-0.4569709,3.5835783,-0.12861568,11.594992,-10.627439,1.2678148,0.3439884,0.06306942,-0.02074205,0.93662363,-3.6693952,3.4807603,0.49072707,0.07267233,2.5042875,-0.019776994,0
0.22000000000000006,10.32713974631506,0.07267232618006175,2.5042874924453353,-0.019776993658639958,9.080771,-0.4569709,3.5835783,-0.12861568,11.558349,-10.592672,1.2727436,0.34429082,0.051463943,-0.016086744,0.9373134,-3.659383,3.4729114,0.4951093,0.07267233,2.5042875,-0.019776994,0
0.23000000000000007,10.32713974631506,0.07267232618006175,2.5042874924453353,-0.019776993658639958,9.080771,-0.4569709,3.5835783,-0.12861568,11.521797,-10.557975,1.2777178,0.34453923,0.03985039,-0.011428915,0.937856,-3.6512809,3.4667838,0.49977732,0.07267233,2.5042875,-0.019776994,0
0.24000000000000007,10.32713974631506,0.07267232618006175,2.5042874924453353,-0.019776993658639958,9.315025,-0.72685814,3.1170447,-0.059430655,11.485317,-10.523331,1.28274,0.34473354,0.028230585,-0.0067692925,0.9382515,-3.6450937,3.4623818,0.5046667,0.07267233,2.5042875,-0.019776994,0
0.25000000000000006,10.32713974631506,0.07267232618006175,2.5042874924453353,-0.019776993658639958,9.315025,-0.72685814,3.1170447,-0.059430655,11.448889,-10.488722,1.2878118,0.3448738,0.01660635,-0.002108607,0.93849975,-3.6408248,3.4597087,0.50971264,0.07267233,2.5042875,-0.019776994,0
0.26000000000000006,10.32713974631506,0.07267232618006175,2.5042874924453353,-0.019776993658639958,9.315025,-0.72685814,3.1170447,-0.059430655,11.412494,-10.454131,1.2929347,0.3449599,0.004979507,0.0025524092,0.9386007,-3.6384764,3.4587665,0.5148505,0.07267233,2.5042875,-0.019776994,0
0.2700000000000001,10.32713974631506,0.07267232618006175,2.5042874924453353,-0.019776993658639958,9.315025,-0.72685814,3.1170447,-0.059430655,11.376112,-10.41954,1.298109,0.3449919,-0.0066481167,0.0072130254,0.93855435,-3.63805,3.459556,0.5200155,0.07267233,2.5042875,-0.019776994,0
0.2800000000000001,10.130504241829838,0.09116265262694236,4.003751329332577,-0.00575839077607454,9.906208,-0.48474893,1.6384767,-0.2441588,11.3397255,-10.3849325,1.303335,0.34496972,-0.018274697,0.0118725095,0.93836075,-3.6395452,3.4620774,0.5251427,0.07267233,2.5042875,-0.019776994,0
0.2900000000000001,10.130504241829838,0.09116265262694236,4.003751329332577,-0.00575839077607454,9.906208,-0.48474893,1.6384767,-0.2441588,11.303313,-10.350291,1.3086016,0.34469828,-0.036897704,0.019202696,0.93779147,-3.6433249,3.4666214,0.5281688,0.09116265,4.0037513,-0.0057583908,0
0.3000000000000001,10.130504241829838,0.09116265262694236,4.003751329332577,-0.00575839077607454,9.906208,-0.48474893,1.6384767,-0.2441588,11.266848,-10.31559,1.3138973,0.34428862,-0.055505916,0.026525185,0.93684614,-3.6501265,3.4738533,0.53087986,0.09116265,4.0037513,-0.0057583908,0
0.3100000000000001,10.130504241829838,0.09116265262694236,4.003751329332577,-0.00575839077607454,9.906208,-0.48474893,1.6384767,-0.2441588,11.2303,-10.280805,1.3192177,0.3437409,-0.074091874,0.033837035,0.9355252,-3.6599388,3.4837615,0.5331142,0.09116265,4.0037513,-0.0057583908,0
0.3200000000000001,10.187104809553336,0.10055558094833864,4.878760980338887,0.0073643922884727726,9.885852,-0.966534,2.1220195,0.1348409,11.19364,-10.245907,1.3245573,0.3430554,-0.09264812,0.041135322,0.9338292,-3.6727464,3.49633,0.5347108,0.09116265,4.0037513,-0.0057583908,0
0.3300000000000001,10.187104809553336,0.10055558094833864,4.878760980338887,0.0073643922884727726,9.885852,-0.966534,2.1220195,0.1348409,11.156835,-10.210868,1.3299116,0.34196216,-0.11522396,0.049963553,0.9312834,-3.6888628,3.5118375,0.5359867,0.100555584,4.878761,0.0073643923,0
0.34000000000000014,10.187104809553336,0.10055558094833864,4.878760980338887,0.0073643922884727726,9.885852,-0.966534,2.1220195,0.1348409,11.119851,-10.175657,1.3352728,0.3406653,-0.1377312,0.05876204,0.92818326,-3.7085931,3.5305355,0.5360543,0.100555584,4.878761,0.0073643923,0
0.35000000000000014,10.187104809553336,0.10055558094833864,4.878760980338887,0.0073643922884727726,9.885852,-0.966534,2.1220195,0.1348409,11.082651,-10.1402445,1.3406277,0.3391657,-0.16015643,0.06752554,0.9245305,-3.7318907,3.5523796,0.5346799,0.100555584,4.878761,0.0073643923,0
0.36000000000000015,10.340342230533551,0.09332972619026661,3.7534981988632694,0.01647746886287646,7.1846204,-0.46156082,-0.21517229,0.45544857,11.045201,-10.104599,1.3459606,0.33746418,-0.18248636,0.07624886,0.9203275,-3.7587001,3.5773177,0.53163314,0.100555584,4.878761,0.0073643923,0
0.37000000000000016,10.340342230533551,0.09332972619026661,3.7534981988632694,0.01647746886287646,7.1846204,-0.46156082,-0.21517229,0.45544857,11.007464,-10.0686865,1.3512614,0.33598313,-0.19956169,0.08301289,0.9167329,-3.7891104,3.6054525,0.5282682,0.09332973,3.7534983,0.01647747,0
0.38000000000000017,10.340342230533551,0.09332972619026661,3.7534981988632694,0.01647746886287646,7.1846204,-0.46156082,-0.21517229,0.45544857,10.969411,-10.032481,1.3565204,0.33438367,-0.21656668,0.08974766,0.9128152,-3.822159,3.635928,0.52328163,0.09332973,3.7534983,0.01647747,0
0.3900000000000002,10.340342230533551,0.09332972619026661,3.7534981988632694,0.01647746886287646,7.1846204,-0.46156082,-0.21517229,0.45544857,10.931013,-9.99596,1.3617209,0.33266637,-0.23349535,0.0964508,0.90857583,-3.8578,3.6687007,0.51654226,0.09332973,3.7534983,0.01647747,0
0.4000000000000002,10.518782529821543,0.0755917711076021,2.2341746413510335,0.021605987718635467,7.5356584,0.028599348,1.9695652,0.115281284,10.892246,-9.959101,1.3668447,0.33083183,-0.2503417,0.10311994,0.90401626,-3.8959835,3.7037241,0.50792116,0.09332973,3.7534983,0.01647747,0
0.4100000000000002,10.518782529821543,0.0755917711076021,2.2341746413510335,0.021605987718635467,7.5356584,0.028599348,1.9695652,0.115281284,10.853083,-9.921877,1.3718809,0.32965618,-0.26028833,0.10717782,0.90116006,-3.9369736,3.7412615,0.49912295,0.07559177,2.2341747,0.021605987,0
0.4200000000000002,10.518782529821543,0.0755917711076021,2.2341746413510335,0.021605987718635467,7.5356584,0.028599348,1.9695652,0.115281284,10.813501,-9.884272,1.3768227,0.32843935,-0.27020243,0.111222304,0.8981913,-3.9794352,3.7801268,0.48906004,0.07559177,2.2341747,0.021605987,0
0.4300000000000002,10.518782529821543,0.0755917711076021,2.2341746413510335,0.021605987718635467,7.5356584,0.028599348,1.9695652,0.115281284,10.773489,-9.8462715,1.3816575,0.3271815,-0.2800828,0.1152529,0.8951103,-4.0233483,3.8203006,0.4776885,0.07559177,2.2341747,0.021605987,0
0.4400000000000002,10.518782529821543,0.0755917711076021,2.2341746413510335,0.021605987718635467,8.241221,-0.110315174,1.2963381,0.19850105,10.733029,-9.807862,1.3863719,0.32588276,-0.2899281,0.11926909,0.8919175,-4.0686903,3.8617618,0.4649649,0.07559177,2.2341747,0.021605987,0
0.45000000000000023,10.518782529821543,0.0755917711076021,2.2341746413510335,0.021605987718635467,8.241221,-0.110315174,1.2963381,0.19850105,10.69211,-9.7690325,1.3909519,0.3245433,-0.29973724,0.12327038,0.8886132,-4.1154394,3.9044895,0.45084664,0.07559177,2.2341747,0.021605987,0
0.46000000000000024,10.518782529821543,0.0755917711076021,2.2341746413510335,0.021605987718635467,8.241221,-0.110315174,1.2963381,0.19850105,10.650716,-9.729769,1.3953837,0.3231633,-0.30950892,0.12725627,0.88519794,-4.1635723,3.9484622,0.4352918,0.07559177,2.2341747,0.021605987,0
0.47000000000000025,10.518782529821543,0.0755917711076021,2.2341746413510335,0.021605987718635467,8.241221,-0.110315174,1.2963381,0.19850105,10.608833,-9.69006,1.3996527,0.32174292,-0.31924194,0.13122627,0.881672,-4.2130647,3.9936576,0.41825908,0.07559177,2.2341747,0.021605987,0
0.48000000000000026,10.676905125876653,0.06054639894158059,1.051108453927111,0.02003744355360652,10.5559635,0.3193055,0.5945511,0.1470601,10.566449,-9.649893,1.4037437,0.32028237,-0.3289351,0.13517986,0.87803596,-4.263893,4.040052,0.39970797,0.07559177,2.2341747,0.021605987,1
0.49000000000000027,10.676905125876653,0.06054639894158059,1.051108453927111,0.02003744355360652,10.5559635,0.3193055,0.5945511,0.1470601,10.523549,-9.609256,1.4076442,0.3197581,-0.33093256,0.13777484,0.87707263,-4.315781,4.087559,0.3803068,0.3193055,0.5945511,0.1470601,1
0.5000000000000002,10.676905125876653,0.06054639894158059,1.051108453927111,0.02003744355360652,10.5559635,0.3193055,0.5945511,0.1470601,10.48013,-9.568141,1.4113485,0.31923,-0.3329261,0.1403682,0.8760988,-4.3678117,4.135617,0.3604764,0.3193055,0.5945511,0.1470601,1
0.5100000000000002,10.676905125876653,0.06054639894158059,1.051108453927111,0.02003744355360652,10.5559635,0.3193055,0.5945511,0.1470601,10.436192,-9.526542,1.4148521,0.31869814,-0.33491567,0.14295986,0.8751145,-4.4199824,4.184222,0.34021285,0.3193055,0.5945511,0.1470601,1
0.5200000000000002,10.808104483381443,-0.018466891570297437,-0.3230029327819277,0.008649729055972248,10.625211,0.25576773,0.32153335,0.15145212,10.39173,-9.484454,1.418151,0.31816253,-0.33690125,0.14554983,0.8741197,-4.4722924,4.2333727,0.31951234,0.3193055,0.5945511,0.1470601,1
0.5300000000000002,10.808104483381443,-0.018466891570297437,-0.3230029327819277,0.008649729055972248,10.625211,0.25576773,0.32153335,0.15145212,10.346744,-9.441871,1.4212437,0.3176967,-0.33778864,0.14743397,0.8736308,-4.5250387,4.283323,0.29895124,0.25576773,0.32153335,0.15145212,1
0.5400000000000003,10.808104483381443,-0.018466891570297437,-0.3230029327819277,0.008649729055972248,10.625211,0.25576773,0.32153335,0.15145212,10.3012295,-9.398786,1.4241292,0.31722933,-0.3386744,0.14931738,0.8731377,-4.5778017,4.333634,0.27814505,0.25576773,0.32153335,0.15145212,1
0.5500000000000003,10.808104483381443,-0.018466891570297437,-0.3230029327819277,0.008649729055972248,10.625211,0.25576773,0.32153335,0.15145212,10.255188,-9.355196,1.4268056,0.31676042,-0.33955854,0.15120009,0.87264043,-4.630582,4.384305,0.2570922,0.25576773,0.32153335,0.15145212,1
0.5600000000000003,11.045956904381491,-0.17567315851929546,-1.0946071869112581,-0.020379181927530653,10.729961,0.12003079,0.75171536,0.29306954,10.208618,-9.311098,1.4292703,0.31629,-0.34044105,0.15308207,0.8721389,-4.6833773,4.435335,0.23579107,0.25576773,0.32153335,0.15145212,0
0.5700000000000003,11.045956904381491,-0.17567315851929546,-1.0946071869112581,-0.020379181927530653,10.729961,0.12003079,0.75171536,0.29306954,10.16151,-9.2664795,1.4315372,0.3169128,-0.335956,0.15054792,0.87409097,-4.738064,4.4883595,0.21768488,-0.17567316,-1.0946072,-0.020379182,0
0.5800000000000003,11.045956904381491,-0.17567315851929546,-1.0946071869112581,-0.020379181927530653,10.729961,0.12003079,0.75171536,0.29306954,10.113859,-9.2213335,1.4336269,0.31752583,-0.33146062,0.14800915,0.8760162,-4.792185,4.540691,0.20041515,-0.17567316,-1.0946072,-0.020379182,0
0.5900000000000003,11.045956904381491,-0.17567315851929546,-1.0946071869112581,-0.020379181927530653,10.729961,0.12003079,0.75171536,0.29306954,10.06567,-9.175668,1.4355482,0.31812915,-0.32695508,0.14546582,0.8779145,-4.845734,4.592323,0.18397194,-0.17567316,-1.0946072,-0.020379182,0
0.6000000000000003,11.033332090305853,-0.18929293268861358,-1.463088729503439,-0.021125837083699837,12.084066,-0.005753967,0.3037793,-0.08434421,10.016948,-9.12949,1.437309,0.3187227,-0.3224395,0.14291802,0.8797858,-4.898705,4.643248,0.16834523,-0.17567316,-1.0946072,-0.020379182,0
0.6100000000000003,11.033332090305853,-0.18929293268861358,-1.463088729503439,-0.021125837083699837,12.084066,-0.005753967,0.3037793,-0.08434421,9.967699,-9.082807,1.4389176,0.31954727,-0.31631148,0.13971582,0.88222224,-4.9509454,4.6933274,0.15352944,-0.18929294,-1.4630888,-0.021125836,0
0.6200000000000003,11.033332090305853,-0.18929293268861358,-1.463088729503439,-0.021125837083699837,12.084066,-0.005753967,0.3037793,-0.08434421,9.917932,-9.035627,1.4403833,0.32035443,-0.31016627,0.13650602,0.88461065,-5.002362,4.742483,0.13977027,-0.18929294,-1.4630888,-0.021125836,0
0.6300000000000003,11.033332090305853,-0.18929293268861358,-1.463088729503439,-0.021125837083699837,12.084066,-0.005753967,0.3037793,-0.08434421,9.867654,-8.987961,1.4417167,0.3211442,-0.30400416,0.13328879,0.88695097,-5.0529428,4.7907033,0.12704934,-0.18929294,-1.4630888,-0.021125836,0
0.6400000000000003,11.033332090305853,-0.18929293268861358,-1.463088729503439,-0.021125837083699837,12.5414095,0.17485288,0.21281324,-0.09300977,9.816875,-8.939817,1.442928,0.32191646,-0.29782557,0.1300643,0.88924295,-5.1026783,4.8379774,0.11534807,-0.18929294,-1.4630888,-0.021125836,0
0.6500000000000004,11.033332090305853,-0.18929293268861358,-1.463088729503439,-0.021125837083699837,12.5414095,0.17485288,0.21281324,-0.09300977,9.765603,-8.891205,1.4440272,0.32267123,-0.29163077,0.12683272,0.8914866,-5.151557,4.8842955,0.10464764,-0.18929294,-1.4630888,-0.021125836,0
0.6600000000000004,11.033332090305853,-0.18929293268861358,-1.463088729503439,-0.021125837083699837,12.5414095,0.17485288,0.21281324,-0.09300977,9.713847,-8.842134,1.4450243,0.32340845,-0.28542006,0.12359425,0.8936816,-5.1995697,4.929647,0.094929,-0.18929294,-1.4630888,-0.021125836,0
0.6700000000000004,11.033332090305853,-0.18929293268861358,-1.463088729503439,-0.021125837083699837,12.5414095,0.17485288,0.21281324,-0.09300977,9.661614,-8.792615,1.445929,0.32412806,-0.27919382,0.12034905,0.89582795,-5.2467055,4.974022,0.08617293,-0.18929294,-1.4630888,-0.021125836,0
0.6800000000000004,11.176936705535992,-0.13190512835618376,-0.8842766809410738,-0.013388726202465607,11.5905,-0.17024133,0.27154317,0.15830225,9.608915,-8.742658,1.4467511,0.32483003,-0.27295238,0.117097296,0.8979257,-5.292954,5.0174103,0.078359954,-0.18929294,-1.4630888,-0.021125836,0
0.6900000000000004,11.176936705535992,-0.13190512835618376,-0.8842766809410738,-0.013388726202465607,11.5905,-0.17024133,0.27154317,0.15830225,9.555755,-8.692267,1.4475051,0.3252246,-0.26920167,0.11504946,0.899179,-5.3390365,5.0604987,0.07252079,-0.13190512,-0.8842767,-0.013388726,0
0.7000000000000004,11.176936705535992,-0.13190512835618376,-0.8842766809410738,-0.013388726202465607,11.5905,-0.17024133,0.27154317,0.15830225,9.502136,-8.641449,1.4482033,0.3256127,-0.26544556,0.11299931,0.90041435,-5.384579,5.1029587,0.06723968,-0.13190512,-0.8842767,-0.013388726,0
0.7100000000000004,11.176936705535992,-0.13190512835618376,-0.8842766809410738,-0.013388726202465607,11.5905,-0.17024133,0.27154317,0.15830225,9.448065,-8.59021,1.4488517,0.32599425,-0.2616842,0.110946916,0.9016317,-5.4295783,5.144786,0.062509194,-0.13190512,-0.8842767,-0.013388726,0
0.7200000000000004,11.122056970528503,-0.07901352050268981,-0.6728577853288361,-0.008049700408461478,11.845242,0.12606469,0.4728105,0.15634888,9.393547,-8.538557,1.4494555,0.32636932,-0.2579176,0.1088923,0.9028311,-5.4740295,5.185978,0.05832186,-0.13190512,-0.8842767,-0.013388726,0
0.7300000000000004,11.122056970528503,-0.07901352050268981,-0.6728577853288361,-0.008049700408461478,11.845242,0.12606469,0.4728105,0.15634888,9.338588,-8.486495,1.4500176,0.32666823,-0.25501207,0.10742661,0.9037235,-5.5177584,5.2263956,0.054158803,-0.07901352,-0.67285776,-0.0080497,0
0.7400000000000004,11.122056970528503,-0.07901352050268981,-0.6728577853288361,-0.008049700408461478,11.845242,0.12606469,0.4728105,0.15634888,9.283193,-8.4340315,1.4505401,0.3269634,-0.2521036,0.1059597,0.9046055,-5.5610523,5.2663455,0.050396167,-0.07901352,-0.67285776,-0.0080497,0
0.7500000000000004,11.122056970528503,-0.07901352050268981,-0.6728577853288361,-0.008049700408461478,11.845242,0.12606469,0.4728105,0.15634888,9.227368,-8.381171,1.451027,0.3272548,-0.24919224,0.10449158,0.90547717,-5.6039104,5.305826,0.04702962,-0.07901352,-0.67285776,-0.0080497,0
0.7600000000000005,11.21541580328386,-0.03295522007281433,-0.4064416899748237,-0.0059157315522270805,11.743731,0.52907884,0.17296425,0.06478995,9.171117,-8.327918,1.451482,0.32754245,-0.24627802,0.10302223,0.90633845,-5.646331,5.3448353,0.044054806,-0.07901352,-0.67285776,-0.0080497,1
0.7700000000000005,11.21541580328386,-0.03295522007281433,-0.4064416899748237,-0.0059157315522270805,11.743731,0.52907884,0.17296425,0.06478995,9.114432,-8.274265,1.4519355,0.32780996,-0.24616101,0.105782494,0.9059555,-5.6907325,5.385932,0.046607994,0.52907884,0.17296425,0.06478995,1
0.7800000000000005,11.21541580328386,-0.03295522007281433,-0.4064416899748237,-0.0059157315522270805,11.743731,0.52907884,0.17296425,0.06478995,9.057305,-8.220199,1.4524139,0.3280749,-0.2460421,0.108541936,0.90556544,-5.7348676,5.427613,0.049038097,0.52907884,0.17296425,0.06478995,1
0.7900000000000005,11.21541580328386,-0.03295522007281433,-0.4064416899748237,-0.0059157315522270805,11.743731,0.52907884,0.17296425,0.06478995,8.999737,-8.165711,1.452916,0.32833728,-0.24592122,0.11130051,0.90516824,-5.778735,5.469877,0.051341802,0.52907884,0.17296425,0.06478995,1
0.8000000000000005,11.025828261754612,-0.24808530561205774,-1.0133489273376959,-0.02023467062969544,11.509029,0.6386586,0.27983567,-0.106294096,8.9417305,-8.110799,1.4534405,0.32859707,-0.24579844,0.11405822,0.90476394,-5.8223343,5.5127225,0.053515792,0.52907884,0.17296425,0.06478995,0
0.8100000000000005,11.025828261754612,-0.24808530561205774,-1.0133489273376959,-0.02023467062969544,11.509029,0.6386586,0.27983567,-0.106294096,8.883304,-8.0554695,1.4539562,0.32895714,-0.24163005,0.1112446,0.9061053,-5.862898,5.552986,0.049703628,-0.2480853,-1.0133489,-0.02023467,0
0.8200000000000005,11.025828261754612,-0.24808530561205774,-1.0133489273376959,-0.02023467062969544,11.509029,0.6386586,0.27983567,-0.106294096,8.824474,-7.999741,1.4544368,0.32930827,-0.23745508,0.10842794,0.9074219,-5.9028955,5.592437,0.046475437,-0.2480853,-1.0133489,-0.02023467,0
0.8300000000000005,11.025828261754612,-0.24808530561205774,-1.0133489273376959,-0.02023467062969544,11.509029,0.6386586,0.27983567,-0.106294096,8.765247,-7.9436226,1.4548877,0.32965043,-0.23327367,0.105608344,0.9087139,-5.942322,5.63107,0.043820865,-0.2480853,-1.0133489,-0.02023467,0
0.8400000000000005,11.025828261754612,-0.24808530561205774,-1.0133489273376959,-0.02023467062969544,11.904861,-0.057704303,-0.27864826,-0.45221013,8.705629,-7.887122,1.455315,0.32998362,-0.22908588,0.10278587,0.9099811,-5.9811735,5.6688814,0.04172951,-0.2480853,-1.0133489,-0.02023467,1
0.8500000000000005,11.025828261754612,-0.24808530561205774,-1.0133489273376959,-0.02023467062969544,11.904861,-0.057704303,-0.27864826,-0.45221013,8.645611,-7.830232,1.4557621,0.33211705,-0.22814485,0.10154523,0.9095805,-6.022665,5.709062,0.047728337,-0.057704303,-0.27864826,-0.45221013,1
0.8600000000000005,11.025828261754612,-0.24808530561205774,-1.0133489273376959,-0.02023467062969544,11.904861,-0.057704303,-0.27864826,-0.45221013,8.585176,-7.7729416,1.4562701,0.3342481,-0.22720219,0.10030387,0.9091735,-6.0639772,5.749005,0.053889617,-0.057704303,-0.27864826,-0.45221013,1
0.8700000000000006,11.025828261754612,-0.24808530561205774,-1.0133489273376959,-0.02023467062969544,11.904861,-0.057704303,-0.27864826,-0.45221013,8.52433,-7.7152524,1.4568406,0.33637676,-0.2262579,0.0990618,0.90875995,-6.1051106,5.78871,0.0602124,-0.057704303,-0.27864826,-0.45221013,1
0.8800000000000006,11.092056176588578,-0.17893202460560606,-0.6860453023418391,-9.858201407498204e-05,11.276361,0.841664,-0.7904259,-0.010809358,8.463075,-7.657168,1.4574751,0.33850303,-0.22531201,0.097819015,0.90834,-6.146066,5.828175,0.066695735,-0.057704303,-0.27864826,-0.45221013,0
0.8900000000000006,11.092056176588578,-0.17893202460560606,-0.6860453023418391,-9.858201407498204e-05,11.276361,0.841664,-0.7904259,-0.010809358,8.401423,-7.598704,1.4581397,0.3386353,-0.22249767,0.09584449,0.90919447,-6.18398,5.864587,0.06626876,-0.17893203,-0.6860453,-9.8582015e-05,0
0.9000000000000006,11.092056176588578,-0.17893202460560606,-0.6860453023418391,-9.858201407498204e-05,11.276361,0.841664,-0.7904259,-0.010809358,8.3393955,-7.5398784,1.4588016,0.33876333,-0.21968055,0.09386878,0.9100375,-6.2215147,5.9004135,0.06620435,-0.17893203,-0.6860453,-9.8582015e-05,0
0.9100000000000006,11.092056176588578,-0.17893202460560606,-0.6860453023418391,-9.858201407498204e-05,11.276361,0.841664,-0.7904259,-0.010809358,8.276994,-7.4806976,1.4594648,0.33888713,-0.21686065,0.09189187,0.9108691,-6.2586665,5.9356527,0.06649758,-0.17893203,-0.6860453,-9.8582015e-05,0
0.9200000000000006,10.924409093487771,-0.14640996823457283,-1.166849170142313,0.039059934151230394,11.074787,0.69948065,-0.7550903,0.109577715,8.214223,-7.4211674,1.4601327,0.33900663,-0.21403804,0.089913815,0.9116893,-6.2954345,5.9703035,0.06714351,-0.17893203,-0.6860453,-9.8582015e-05,1
0.9300000000000006,10.924409093487771,-0.14640996823457283,-1.166849170142313,0.039059934151230394,11.074787,0.69948065,-0.7550903,0.109577715,8.151087,-7.361293,1.460808,0.33959058,-0.20935826,0.09193851,0.91235644,-6.331501,6.0045695,0.067988314,0.69948065,-0.7550903,0.109577715,1
0.9400000000000006,10.924409093487771,-0.14640996823457283,-1.166849170142313,0.039059934151230394,11.074787,0.69948065,-0.7550903,0.109577715,8.087597,-7.301075,1.4614936,0.34016547,-0.20467286,0.09396075,0.91299915,-6.366488,6.0389323,0.069186345,0.69948065,-0.7550903,0.109577715,1
0.9500000000000006,10.924409093487771,-0.14640996823457283,-1.166849170142313,0.039059934151230394,11.074787,0.69948065,-0.7550903,0.109577715,8.023762,-7.240514,1.4621929,0.34073126,-0.19998197,0.09598046,0.91361743,-6.400392,6.07339,0.0707267,0.69948065,-0.7550903,0.109577715,1
0.9600000000000006,11.041154014419105,-0.32433612312898047,-0.8154005716927185,0.027933687817972147,11.050003,1.2517307,-1.3333224,-0.019326385,7.959593,-7.179607,1.4629092,0.3412879,-0.19528574,0.097997606,0.9142112,-6.4332094,6.1079397,0.072598405,0.69948065,-0.7550903,0.109577715,0
0.9700000000000006,11.041154014419105,-0.32433612312898047,-0.8154005716927185,0.027933687817972147,11.050003,1.2517307,-1.3333224,-0.019326385,7.895101,-7.1183558,1.4636445,0.34123978,-0.1920964,0.09514995,0.9152052,-6.465103,6.142143,0.0745163,-0.3243361,-0.8154006,0.027933687,0
0.9800000000000006,11.041154014419105,-0.32433612312898047,-0.8154005716927185,0.027933687817972147,11.050003,1.2517307,-1.3333224,-0.019326385,7.830292,-7.0567665,1.4644009,0.34118506,-0.18890336,0.092300475,0.9161815,-6.4966097,6.175548,0.076825574,-0.3243361,-0.8154006,0.027933687,0
0.9900000000000007,11.041154014419105,-0.32433612312898047,-0.8154005716927185,0.027933687817972147,11.050003,1.2517307,-1.3333224,-0.019326385,7.7651706,-6.994848,1.4651823,0.3411238,-0.18570668,0.08944922,0.9171402,-6.5277267,6.2081532,0.079518564,-0.3243361,-0.8154006,0.027933687,0
1.0000000000000007,11.079616566063475,-0.3254396100175797,-1.0264718553158916,0.026617181230087075,10.699699,0.7807307,-0.9742555,0.0041707195,7.6997395,-6.932606,1.4659926,0.34105593,-0.18250641,0.08659623,0.9180812,-6.558451,6.239957,0.08258752,-0.3243361,-0.8154006,0.027933687,0
1.0100000000000007,11.079616566063475,-0.3254396100175797,-1.0264718553158916,0.026617181230087075,10.699699,0.7807307,-0.9742555,0.0041707195,7.6340027,-6.8700504,1.4668373,0.34107625,-0.1783353,0.083374955,0.9191908,-6.588825,6.2710114,0.08641254,-0.3254396,-1.0264719,0.02661718,0
1.0200000000000007,11.079616566063475,-0.3254396100175797,-1.0264718553158916,0.026617181230087075,10.699699,0.7807307,-0.9742555,0.0041707195,7.5679655,-6.807189,1.4677224,0.3410867,-0.17415902,0.08015127,0.9202737,-6.6186366,6.3011155,0.09068798,-0.3254396,-1.0264719,0.02661718,0
1.0300000000000007,11.079616566063475,-0.3254396100175797,-1.0264718553158916,0.026617181230087075,10.699699,0.7807307,-0.9742555,0.0041707195,7.501632,-6.7440314,1.4686526,0.34108725,-0.16997768,0.07692525,0.9213299,-6.647881,6.3302655,0.095401995,-0.3254396,-1.0264719,0.02661718,0
1.0400000000000007,11.079616566063475,-0.3254396100175797,-1.0264718553158916,0.026617181230087075,10.69072,0.83521867,-0.9108545,0.0053997673,7.4350095,-6.680587,1.469632,0.34107792,-0.16579142,0.07369701,0.9223594,-6.676555,6.3584585,0.10054269,-0.3254396,-1.0264719,0.02661718,0
1.0500000000000007,11.079616566063475,-0.3254396100175797,-1.0264718553158916,0.026617181230087075,10.69072,0.83521867,-0.9108545,0.0053997673,7.368103,-6.616865,1.4706649,0.3410587,-0.16160034,0.07046662,0.9233622,-6.704655,6.3856916,0.106098115,-0.3254396,-1.0264719,0.02661718,0
1.0600000000000007,11.079616566063475,-0.3254396100175797,-1.0264718553158916,0.026617181230087075,10.69072,0.83521867,-0.9108545,0.0053997673,7.3009186,-6.552876,1.4717553,0.34102958,-0.15740459,0.067234196,0.9243383,-6.7321777,6.411961,0.11205629,-0.3254396,-1.0264719,0.02661718,0
1.0700000000000007,11.079616566063475,-0.3254396100175797,-1.0264718553158916,0.026617181230087075,10.69072,0.83521867,-0.9108545,0.0053997673,7.2334614,-6.4886293,1.4729072,0.34099057,-0.15320428,0.06399981,0.9252875,-6.759119,6.437265,0.11840516,-0.3254396,-1.0264719,0.02661718,0
1.0800000000000007,11.218955152767206,-0.1966190344635076,-0.280125077238632,0.028952560713009445,11.372876,0.8780683,-0.31773815,0.18778807,7.165738,-6.4241343,1.4741244,0.34094167,-0.1489995,0.06076358,0.9262099,-6.7854757,6.4616,0.12513267,-0.3254396,-1.0264719,0.02661718,0
1.0900000000000007,11.218955152767206,-0.1966190344635076,-0.280125077238632,0.028952560713009445,11.372876,0.8780683,-0.31773815,0.18778807,7.0977516,-6.3593984,1.4754173,0.3407457,-0.14802839,0.05939697,0.92652637,-6.811762,6.4854913,0.13345054,-0.19661903,-0.28012508,0.028952561,0
1.1000000000000008,11.218955152767206,-0.1966190344635076,-0.280125077238632,0.028952560713009445,11.372876,0.8780683,-0.31773815,0.18778807,7.0295033,-6.2944255,1.4767939,0.34054875,-0.14705683,0.05803019,0.92684,-6.8379626,6.5090218,0.14186952,-0.19661903,-0.28012508,0.028952561,0
1.1100000000000008,11.218955152767206,-0.1966190344635076,-0.280125077238632,0.028952560713009445,11.372876,0.8780683,-0.31773815,0.18778807,6.9609933,-6.2292194,1.478255,0.34035075,-0.14608486,0.05666324,0.927151,-6.864079,6.5321918,0.15038837,-0.19661903,-0.28012508,0.028952561,0
1.1200000000000008,11.321305645721347,-0.05340369870249915,-0.0688505813768736,0.0269909841321093,11.467392,1.0751806,-0.15923795,0.16593927,6.892222,-6.163783,1.4798019,0.3401518,-0.14511245,0.055296127,0.9274592,-6.89011,6.5550003,0.15900588,-0.19661903,-0.28012508,0.028952561,0
1.1300000000000008,11.321305645721347,-0.05340369870249915,-0.0688505813768736,0.0269909841321093,11.467392,1.0751806,-0.15923795,0.16593927,6.8231897,-6.0981193,1.4814403,0.34000686,-0.14487654,0.054950956,0.9275697,-6.9163184,6.577754,0.16866764,-0.053403698,-0.068850584,0.026990984,0
1.1400000000000008,11.321305645721347,-0.05340369870249915,-0.0688505813768736,0.0269909841321093,11.467392,1.0751806,-0.15923795,0.16593927,6.7538953,-6.0322285,1.4831754,0.3398619,-0.14464056,0.054605775,0.92768,-6.942509,6.600414,0.17835349,-0.053403698,-0.068850584,0.026990984,0
1.1500000000000008,11.321305645721347,-0.05340369870249915,-0.0688505813768736,0.0269909841321093,11.467392,1.0751806,-0.15923795,0.16593927,6.684339,-5.966111,1.4850075,0.33971682,-0.14440459,0.05426058,0.92779016,-6.9686823,6.622979,0.18806332,-0.053403698,-0.068850584,0.026990984,0
1.1600000000000008,11.417542754713676,0.0329330611233573,0.04209756922203733,0.022360377883512365,11.908451,0.7062369,-0.36042374,0.16790384,6.6145215,-5.899769,1.4869368,0.3395717,-0.14416856,0.05391538,0.9279001,-6.994838,6.6454506,0.1977971,-0.053403698,-0.068850584,0.026990984,1
1.1700000000000008,11.417542754713676,0.0329330611233573,0.04209756922203733,0.022360377883512365,11.908451,0.7062369,-0.36042374,0.16790384,6.5444365,-5.8331957,1.4889916,0.33939618,-0.14125085,0.056700602,0.928247,-7.022018,6.6691675,0.21318649,0.7062369,-0.36042374,0.16790384,1
1.1800000000000008,11.417542754713676,0.0329330611233573,0.04209756922203733,0.022360377883512365,11.908451,0.7062369,-0.36042374,0.16790384,6.474084,-5.766384,1.4912009,0.33921507,-0.13833082,0.05948489,0.9285786,-7.048341,6.6932626,0.22869802,0.7062369,-0.36042374,0.16790384,1
1.1900000000000008,11.417542754713676,0.0329330611233573,0.04209756922203733,0.022360377883512365,11.908451,0.7062369,-0.36042374,0.16790384,6.403472,-5.6993294,1.493566,0.33902842,-0.13540852,0.062268205,0.928895,-7.073807,6.717736,0.24432409,0.7062369,-0.36042374,0.16790384,1
1.2000000000000008,11.427138473934649,-0.19651679594668559,0.4367122860406979,0.005968057263137761,12.18059,0.91783476,-0.33389807,0.049373094,6.3326106,-5.6320286,1.4960878,0.3388362,-0.13248399,0.0650505,0.9291961,-7.0984135,6.742587,0.26005712,0.7062369,-0.36042374,0.16790384,0
1.2100000000000009,11.427138473934649,-0.19651679594668559,0.4367122860406979,0.005968057263137761,12.18059,0.91783476,-0.33389807,0.049373094,6.2615104,-5.564482,1.4987441,0.3385353,-0.13484356,0.064881116,0.9289782,-7.1217027,6.7667108,0.27119806,-0.1965168,0.4367123,0.005968057,0
1.2200000000000009,11.427138473934649,-0.19651679594668559,0.4367122860406979,0.005968057263137761,12.18059,0.91783476,-0.33389807,0.049373094,6.1901746,-5.496694,1.5015111,0.33823243,-0.13720235,0.06471138,0.9287549,-7.1455035,6.7909684,0.28219894,-0.1965168,0.4367123,0.005968057,0
1.2300000000000009,11.427138473934649,-0.19651679594668559,0.4367122860406979,0.005968057263137761,12.18059,0.91783476,-0.33389807,0.049373094,6.1185985,-5.428663,1.5043876,0.3379276,-0.13956036,0.06454125,0.92852634,-7.1698155,6.8153596,0.29305723,-0.1965168,0.4367123,0.005968057,0
1.2400000000000009,11.427138473934649,-0.19651679594668559,0.4367122860406979,0.005968057263137761,12.295076,0.85589856,-0.5458164,0.015389625,6.0467763,-5.360387,1.5073719,0.33762088,-0.14191756,0.06437077,0.92829245,-7.1946387,6.839884,0.30377045,-0.1965168,0.4367123,0.005968057,0
1.2500000000000009,11.427138473934649,-0.19651679594668559,0.4367122860406979,0.005968057263137761,12.295076,0.85589856,-0.5458164,0.015389625,5.974704,-5.291865,1.5104625,0.33731225,-0.14427395,0.0641999,0.9280532,-7.219971,6.86454,0.31433615,-0.1965168,0.4367123,0.005968057,0
1.260000000000001,11.427138473934649,-0.19651679594668559,0.4367122860406979,0.005968057263137761,12.295076,0.85589856,-0.5458164,0.015389625,5.902375,-5.2230954,1.513658,0.33700162,-0.14662953,0.06402867,0.9278087,-7.2458134,6.8893285,0.3247518,-0.1965168,0.4367123,0.005968057,0
1.270000000000001,11.427138473934649,-0.19651679594668559,0.4367122860406979,0.005968057263137761,12.295076,0.85589856,-0.5458164,0.015389625,5.829786,-5.1540775,1.516957,0.33668905,-0.14898425,0.063857086,0.92755884,-7.272165,6.9142475,0.3350149,-0.1965168,0.4367123,0.005968057,0
1.280000000000001,11.464482592263403,-0.1149157866414188,-0.1366356194026636,0.004750523782342332,12.170893,0.96095353,0.18489835,0.20644563,5.75693,-5.08481,1.5203578,0.33637458,-0.15133813,0.06368512,0.9273036,-7.299024,6.9392977,0.34512305,-0.1965168,0.4367123,0.005968057,0
1.290000000000001,11.464482592263403,-0.1149157866414188,-0.1366356194026636,0.004750523782342332,12.170893,0.96095353,0.18489835,0.20644563,5.683803,-5.0152917,1.5238609,0.33630896,-0.15089631,0.06292608,0.9274512,-7.3262787,6.9644375,0.3555062,-0.11491579,-0.13663562,0.0047505237,0
1.300000000000001,11.464482592263403,-0.1149157866414188,-0.1366356194026636,0.004750523782342332,12.170893,0.96095353,0.18489835,0.20644563,5.610404,-4.9455223,1.5274681,0.3362431,-0.15045437,0.062166985,0.92759806,-7.353504,6.9893813,0.3659419,-0.11491579,-0.13663562,0.0047505237,0
1.310000000000001,11.464482592263403,-0.1149157866414188,-0.1366356194026636,0.004750523782342332,12.170893,0.96095353,0.18489835,0.20644563,5.536733,-4.8755045,1.53118,0.33617693,-0.15001231,0.06140784,0.92774415,-7.3807,7.0141296,0.37642977,-0.11491579,-0.13663562,0.0047505237,0
1.320000000000001,11.67570308662643,-0.011008615707953796,-0.008287602406593817,0.006771931229430879,12.157502,0.9673228,0.12469936,0.1923725,5.46279,-4.80524,1.534997,0.33611053,-0.14957014,0.06064865,0.9278895,-7.4078665,7.038682,0.38696948,-0.11491579,-0.13663562,0.0047505237,1
1.330000000000001,11.67570308662643,-0.011008615707953796,-0.008287602406593817,0.006771931229430879,12.157502,0.9673228,0.12469936,0.1923725,5.3885684,-4.7347226,1.5389522,0.33589947,-0.14846286,0.06548916,0.92781466,-7.436414,7.0649614,0.4040859,0.9673228,0.12469936,0.1923725,1
1.340000000000001,11.67570308662643,-0.011008615707953796,-0.008287602406593817,0.006771931229430879,12.157502,0.9673228,0.12469936,0.1923725,5.3140645,-4.663937,1.5430784,0.33568013,-0.1473519,0.07032804,0.9277169,-7.464316,7.0922327,0.42112973,0.9673228,0.12469936,0.1923725,1
1.350000000000001,11.67570308662643,-0.011008615707953796,-0.008287602406593817,0.006771931229430879,12.157502,0.9673228,0.12469936,0.1923725,5.2392845,-4.592874,1.5473745,0.33545247,-0.14623733,0.07516518,0.9275963,-7.4915724,7.1204953,0.4380893,0.9673228,0.12469936,0.1923725,1
1.360000000000001,11.610256386571807,-0.26021514201513213,-0.4199596675231828,-0.008416665153178533,12.523303,1.3092506,-0.44784537,0.1869151,5.164235,-4.5215235,1.5518398,0.33521655,-0.14511912,0.080000475,0.92745274,-7.5181823,7.1497474,0.45495293,0.9673228,0.12469936,0.1923725,0
1.370000000000001,11.610256386571807,-0.26021514201513213,-0.4199596675231828,-0.008416665153178533,12.523303,1.3092506,-0.44784537,0.1869151,5.0889287,-4.4498844,1.5564477,0.33523375,-0.14361072,0.07808356,0.9278447,-7.543147,7.1780763,0.4666437,-0.26021513,-0.41995966,-0.008416665,0
1.380000000000001,11.610256386571807,-0.26021514201513213,-0.4199596675231828,-0.008416665153178533,12.523303,1.3092506,-0.44784537,0.1869151,5.013373,-4.3779645,1.5611733,0.3352489,-0.14210144,0.07616617,0.92823094,-7.5679483,7.2058825,0.478505,-0.26021513,-0.41995966,-0.008416665,0
1.390000000000001,11.610256386571807,-0.26021514201513213,-0.4199596675231828,-0.008416665153178533,12.523303,1.3092506,-0.44784537,0.1869151,4.93757,-4.3057685,1.5660183,0.33526197,-0.1405913,0.0742483,0.92861146,-7.5925865,7.2331653,0.4905341,-0.26021513,-0.41995966,-0.008416665,0
1.400000000000001,11.790666005145193,-0.29231190380185534,-0.03638670893562622,-0.005122494958720167,12.354899,0.72013986,0.13775708,0.17880243,4.861522,-4.233302,1.5709846,0.335273,-0.13908029,0.07232998,0.92898625,-7.61706,7.2599235,0.5027283,-0.26021513,-0.41995966,-0.008416665,0
1.410000000000001,11.790666005145193,-0.29231190380185534,-0.03638670893562622,-0.005122494958720167,12.354899,0.72013986,0.13775708,0.17880243,4.7852273,-4.1605687,1.576082,0.3351063,-0.139403,0.07090758,0.9291076,-7.6418815,7.2866564,0.51675004,-0.2923119,-0.03638671,-0.005122495,0
1.420000000000001,11.790666005145193,-0.29231190380185534,-0.03638670893562622,-0.005122494958720167,12.354899,0.72013986,0.13775708,0.17880243,4.7086835,-4.08757,1.5813197,0.33493888,-0.1397254,0.069485016,0.92922705,-7.6668916,7.3131,0.5307982,-0.2923119,-0.03638671,-0.005122495,0
1.430000000000001,11.790666005145193,-0.29231190380185534,-0.03638670893562622,-0.005122494958720167,12.354899,0.72013986,0.13775708,0.17880243,4.631889,-4.014308,1.586698,0.33477074,-0.1400475,0.068062305,0.9293444,-7.692092,7.3392534,0.5448719,-0.2923119,-0.03638671,-0.005122495,0
1.440000000000001,11.790666005145193,-0.29231190380185534,-0.03638670893562622,-0.005122494958720167,12.304633,0.7539175,0.075894035,0.19381636,4.554841,-3.940786,1.5922173,0.33460188,-0.14036931,0.066639446,0.9294598,-7.7174816,7.365117,0.55897015,-0.2923119,-0.03638671,-0.005122495,0
1.450000000000001,11.790666005145193,-0.29231190380185534,-0.03638670893562622,-0.005122494958720167,12.304633,0.7539175,0.075894035,0.19381636,4.477538,-3.8670063,1.5978775,0.3344323,-0.1406908,0.065216444,0.9295732,-7.74306,7.39069,0.5730919,-0.2923119,-0.03638671,-0.005122495,0
1.460000000000001,11.790666005145193,-0.29231190380185534,-0.03638670893562622,-0.005122494958720167,12.304633,0.7539175,0.075894035,0.19381636,4.399979,-3.7929728,1.6036792,0.334262,-0.141012,0.0637933,0.9296845,-7.768828,7.4159718,0.5872362,-0.2923119,-0.03638671,-0.005122495,0
1.470000000000001,11.790666005145193,-0.29231190380185534,-0.03638670893562622,-0.005122494958720167,12.304633,0.7539175,0.075894035,0.19381636,4.322161,-3.7186878,1.6096224,0.33409095,-0.14133288,0.062370017,0.92979383,-7.7947845,7.4409637,0.6014021,-0.2923119,-0.03638671,-0.005122495,0
1.480000000000001,11.78157918363141,-0.18295483137325705,-0.3211359131270523,0.0008734613225722219,12.242355,0.71053183,-0.010474423,0.17857808,4.244083,-3.6441543,1.6157073,0.33391917,-0.14165345,0.0609466,0.9299011,-7.82093,7.465664,0.6155886,-0.2923119,-0.03638671,-0.005122495,1
1.490000000000001,11.78157918363141,-0.18295483137325705,-0.3211359131270523,0.0008734613225722219,12.242355,0.71053183,-0.010474423,0.17857808,4.165738,-3.5693696,1.6219555,0.33359307,-0.14036307,0.0643588,0.929984,-7.8479877,7.4913697,0.6340843,0.71053183,-0.010474423,0.17857808,1
1.500000000000001,11.78157918363141,-0.18295483137325705,-0.3211359131270523,0.0008734613225722219,12.242355,0.71053183,-0.010474423,0.17857808,4.0871253,-3.4943244,1.6283888,0.3332625,-0.13907082,0.06777013,0.9300543,-7.8744807,7.517737,0.652562,0.71053183,-0.010474423,0.17857808,1
1.5100000000000011,11.78157918363141,-0.18295483137325705,-0.3211359131270523,0.0008734613225722219,12.242355,0.71053183,-0.010474423,0.17857808,4.0082507,-3.4190123,1.6350067,0.33292744,-0.1377767,0.07118056,0.9301121,-7.9004083,7.5447655,0.67101544,0.71053183,-0.010474423,0.17857808,1
1.5200000000000011,11.83025943100944,-0.23125554450756874,-0.3602634678458164,-0.004240793797763118,12.544617,0.803051,-0.07811436,0.18589848,3.9291193,-3.3434267,1.641809,0.33258793,-0.13648073,0.07459003,0.93015754,-7.9257703,7.5724545,0.6894381,0.71053183,-0.010474423,0.17857808,0
1.5300000000000011,11.83025943100944,-0.23125554450756874,-0.3602634678458164,-0.004240793797763118,12.544617,0.803051,-0.07811436,0.18589848,3.849741,-3.2675667,1.648776,0.33258346,-0.13519107,0.07291235,0.9304805,-7.949884,7.599435,0.70397025,-0.23125555,-0.36026347,-0.0042407936,0
1.5400000000000011,11.83025943100944,-0.23125554450756874,-0.3602634678458164,-0.004240793797763118,12.544617,0.803051,-0.07811436,0.18589848,3.770122,-3.1914394,1.6558889,0.33257744,-0.13390078,0.07123434,0.9307991,-7.9738564,7.62595,0.71864307,-0.23125555,-0.36026347,-0.0042407936,0
1.5500000000000012,11.83025943100944,-0.23125554450756874,-0.3602634678458164,-0.004240793797763118,12.544617,0.803051,-0.07811436,0.18589848,3.6902642,-3.1150494,1.6631494,0.3325699,-0.13260986,0.069556,0.9311135,-7.997687,7.6519995,0.7334545,-0.23125555,-0.36026347,-0.0042407936,0
1.5600000000000012,11.691689350406019,-0.35503443414217745,-0.6350174674920719,-0.007965192475199077,12.405104,0.33800498,-0.15545946,0.38232583,3.610169,-3.0384011,1.6705586,0.33256084,-0.13131835,0.067877345,0.93142354,-8.021375,7.6775827,0.74840254,-0.23125555,-0.36026347,-0.0042407936,1
1.5700000000000012,11.691689350406019,-0.35503443414217745,-0.6350174674920719,-0.007965192475199077,12.405104,0.33800498,-0.15545946,0.38232583,3.529832,-2.9614925,1.6781453,0.33105385,-0.12990208,0.069443755,0.9320433,-8.045966,7.704181,0.76894665,0.33800498,-0.15545946,0.38232583,1
1.5800000000000012,11.691689350406019,-0.35503443414217745,-0.6350174674920719,-0.007965192475199077,12.405104,0.33800498,-0.15545946,0.38232583,3.449251,-2.884317,1.6859378,0.32954448,-0.12848492,0.07100968,0.9326564,-8.0701475,7.730987,0.78952837,0.33800498,-0.15545946,0.38232583,1
1.5900000000000012,11.691689350406019,-0.35503443414217745,-0.6350174674920719,-0.007965192475199077,12.405104,0.33800498,-0.15545946,0.38232583,3.3684301,-2.8068721,1.6939362,0.32803273,-0.12706684,0.0725751,0.9332628,-8.093919,7.758002,0.81014556,0.33800498,-0.15545946,0.38232583,1
1.6000000000000012,11.464001307360073,-0.5196889657314308,-0.6285745867152988,-0.04601582022344768,12.373779,0.4899154,0.21510817,0.42371505,3.287374,-2.7291563,1.7021409,0.32651868,-0.12564784,0.074140005,0.93386275,-8.11728,7.7852263,0.8307961,0.33800498,-0.15545946,0.38232583,0
1.6100000000000012,11.464001307360073,-0.5196889657314308,-0.6285745867152988,-0.04601582022344768,12.373779,0.4899154,0.21510817,0.42371505,3.2060945,-2.6511786,1.7105075,0.32663736,-0.12357729,0.07065769,0.93436736,-8.138569,7.8101745,0.84254444,-0.51968896,-0.6285746,-0.04601582,0
1.6200000000000012,11.464001307360073,-0.5196889657314308,-0.6285745867152988,-0.04601582022344768,12.373779,0.4899154,0.21510817,0.42371505,3.124603,-2.5729558,1.7189927,0.32675058,-0.12150467,0.067174196,0.9348564,-8.159687,7.8342323,0.8545239,-0.51968896,-0.6285746,-0.04601582,0
1.6300000000000012,11.464001307360073,-0.5196889657314308,-0.6285745867152988,-0.04601582022344768,12.373779,0.4899154,0.21510817,0.42371505,3.0429013,-2.4944968,1.7275987,0.32685834,-0.11943003,0.06368958,0.93532985,-8.180634,7.857399,0.8667271,-0.51968896,-0.6285746,-0.04601582,0
1.6400000000000012,11.464001307360073,-0.5196889657314308,-0.6285745867152988,-0.04601582022344768,12.340018,0.3723829,0.07571966,0.37927765,2.960991,-2.4158108,1.7363279,0.32696065,-0.117353395,0.060203902,0.93578774,-8.201407,7.879672,0.8791467,-0.51968896,-0.6285746,-0.04601582,1
1.6500000000000012,11.464001307360073,-0.5196889657314308,-0.6285745867152988,-0.04601582022344768,12.340018,0.3723829,0.07571966,0.37927765,2.8788662,-2.336897,1.7452242,0.3253806,-0.11698431,0.062292375,0.9362479,-8.223571,7.903201,0.90013796,0.3723829,0.07571966,0.37927765,1
1.6600000000000013,11.464001307360073,-0.5196889657314308,-0.6285745867152988,-0.04601582022344768,12.340018,0.3723829,0.07571966,0.37927765,2.7965207,-2.2577453,1.7543304,0.32379815,-0.11661439,0.0643804,0.93670124,-8.24552,7.9271445,0.92108655,0.3723829,0.07571966,0.37927765,1
1.6700000000000013,11.464001307360073,-0.5196889657314308,-0.6285745867152988,-0.04601582022344768,12.340018,0.3723829,0.07571966,0.37927765,2.7139568,-2.1783526,1.7636458,0.32221338,-0.11624363,0.06646796,0.9371479,-8.267252,7.9515023,0.9419905,0.3723829,0.07571966,0.37927765,1
1.6800000000000013,11.243752685217993,-0.42817524445896077,-0.9747520313159274,-0.03626090544438577,11.706303,0.28488925,-0.41836712,0.42663378,2.6311765,-2.098714,1.77317,0.3206263,-0.11587204,0.06855505,0.93758786,-8.288772,7.9762754,0.96284753,0.3723829,0.07571966,0.37927765,1
1.6900000000000013,11.243752685217993,-0.42817524445896077,-0.9747520313159274,-0.03626090544438577,11.706303,0.28488925,-0.41836712,0.42663378,2.5481877,-2.0188327,1.7828722,0.31893295,-0.11330718,0.069466695,0.9384114,-8.308843,8.000013,0.9776076,0.28488925,-0.41836712,0.42663378,1
1.7000000000000013,11.243752685217993,-0.42817524445896077,-0.9747520313159274,-0.03626090544438577,11.706303,0.28488925,-0.41836712,0.42663378,2.4650013,-1.9387139,1.7927227,0.31723613,-0.11074107,0.07037757,0.93922466,-8.328332,8.023727,0.9924746,0.28488925,-0.41836712,0.42663378,1
1.7100000000000013,11.243752685217993,-0.42817524445896077,-0.9747520313159274,-0.03626090544438577,11.706303,0.28488925,-0.41836712,0.42663378,2.381623,-1.8583581,1.8027222,0.31553584,-0.10817375,0.071287684,0.94002765,-8.347238,8.0474205,1.0074451,0.28488925,-0.41836712,0.42663378,1
1.7200000000000013,10.8403716029992,-0.6704896988321367,-1.174661670839465,-0.08977340189950693,11.529207,-0.0070672957,-0.69263285,0.5079188,2.2980585,-1.7777655,1.8128719,0.31383207,-0.105605245,0.07219701,0.94082034,-8.36556,8.0710945,1.0225158,0.28488925,-0.41836712,0.42663378,1
1.7300000000000013,10.8403716029992,-0.6704896988321367,-1.174661670839465,-0.08977340189950693,11.529207,-0.0070672957,-0.69263285,0.5079188,2.2143152,-1.6969386,1.8231643,0.3116862,-0.102173805,0.07134444,0.9419769,-8.383013,8.094225,1.036007,-0.0070672957,-0.69263285,0.5079188,1
1.7400000000000013,10.8403716029992,-0.6704896988321367,-1.174661670839465,-0.08977340189950693,11.529207,-0.0070672957,-0.69263285,0.5079188,2.1304004,-1.6158826,1.8335928,0.30953458,-0.09874047,0.07049056,0.9431161,-8.399845,8.116891,1.0496888,-0.0070672957,-0.69263285,0.5079188,1
1.7500000000000013,10.8403716029992,-0.6704896988321367,-1.174661670839465,-0.08977340189950693,11.529207,-0.0070672957,-0.69263285,0.5079188,2.0463204,-1.5346024,1.8441589,0.30737725,-0.09530532,0.06963538,0.94423795,-8.416052,8.139095,1.0635555,-0.0070672957,-0.69263285,0.5079188,1
1.7600000000000013,10.392031983568394,-0.8732953077603693,-1.5796160051278263,-0.13755788429482832,11.253455,-0.27093348,-0.9881981,0.5411927,1.9620816,-1.4531024,1.8548645,0.30521423,-0.091868415,0.06877891,0.94534236,-8.431631,8.160839,1.0776013,-0.0070672957,-0.69263285,0.5079188,1
1.7700000000000014,10.392031983568394,-0.8732953077603693,-1.5796160051278263,-0.13755788429482832,11.253455,-0.27093348,-0.9881981,0.5411927,1.8776919,-1.3713903,1.8656981,0.30286643,-0.087423325,0.06623768,0.9466995,-8.446187,8.181457,1.0891688,-0.27093348,-0.9881981,0.5411927,1
1.7800000000000014,10.392031983568394,-0.8732953077603693,-1.5796160051278263,-0.13755788429482832,11.253455,-0.27093348,-0.9881981,0.5411927,1.7931603,-1.2894764,1.8766487,0.30050847,-0.0829753,0.063694224,0.94802487,-8.4600315,8.201203,1.1009885,-0.27093348,-0.9881981,0.5411927,1
1.7900000000000014,10.392031983568394,-0.8732953077603693,-1.5796160051278263,-0.13755788429482832,11.253455,-0.27093348,-0.9881981,0.5411927,1.7084938,-1.2073693,1.8877187,0.29814044,-0.078524485,0.06114862,0.94931835,-8.473158,8.22008,1.1130488,-0.27093348,-0.9881981,0.5411927,1
1.8000000000000014,9.983439293118225,-0.9433745572917387,-1.4983517196863085,-0.18032072664174933,10.688779,-0.37994298,-0.83848304,0.41452843,1.6236998,-1.1250777,1.8989104,0.2957624,-0.074071035,0.058600973,0.95058,-8.48556,8.23809,1.1253381,-0.27093348,-0.9881981,0.5411927,1
1.8100000000000014,9.983439293118225,-0.9433745572917387,-1.4983517196863085,-0.18032072664174933,10.688779,-0.37994298,-0.83848304,0.41452843,1.538788,-1.0426147,1.9101983,0.2938934,-0.07052529,0.055707972,0.95160276,-8.49672,8.254371,1.132287,-0.37994298,-0.83848304,0.41452843,1
1.8200000000000014,9.983439293118225,-0.9433745572917387,-1.4983517196863085,-0.18032072664174933,10.688779,-0.37994298,-0.83848304,0.41452843,1.4537671,-0.9599931,1.9215566,0.2920169,-0.06697774,0.052813552,0.95260125,-8.507378,8.269824,1.1394131,-0.37994298,-0.83848304,0.41452843,1
1.8300000000000014,9.983439293118225,-0.9433745572917387,-1.4983517196863085,-0.18032072664174933,10.688779,-0.37994298,-0.83848304,0.41452843,1.3686421,-0.8772211,1.932987,0.29013297,-0.06342849,0.049917784,0.9535755,-8.5175295,8.28445,1.1467073,-0.37994298,-0.83848304,0.41452843,1
1.8400000000000014,9.983439293118225,-0.9433745572917387,-1.4983517196863085,-0.18032072664174933,10.346138,-0.49238786,-0.8992688,0.43650478,1.2834182,-0.79430693,1.9444913,0.28824165,-0.05987762,0.047020745,0.9545255,-8.527171,8.29825,1.1541607,-0.37994298,-0.83848304,0.41452843,1
1.8500000000000014,9.983439293118225,-0.9433745572917387,-1.4983517196863085,-0.18032072664174933,10.346138,-0.49238786,-0.8992688,0.43650478,1.198102,-0.71126115,1.9560537,0.28621793,-0.056191843,0.0435047,0.9555248,-8.53601,8.3107605,1.1583813,-0.49238786,-0.8992688,0.43650478,1
1.8600000000000014,9.983439293118225,-0.9433745572917387,-1.4983517196863085,-0.18032072664174933,10.346138,-0.49238786,-0.8992688,0.43650478,1.1126997,-0.628095,1.9676592,0.2841853,-0.052504323,0.039987303,0.95649433,-8.544359,8.322342,1.1627525,-0.49238786,-0.8992688,0.43650478,1
1.8700000000000014,9.983439293118225,-0.9433745572917387,-1.4983517196863085,-0.18032072664174933,10.346138,-0.49238786,-0.8992688,0.43650478,1.0272166,-0.54481757,1.9793092,0.28214386,-0.048815172,0.036468666,0.9574343,-8.552214,8.332996,1.1672633,-0.49238786,-0.8992688,0.43650478,1
1.8800000000000014,9.667941570790607,-0.923343354509879,-1.5124003503038956,-0.19753464337501375,10.156738,-0.59136593,-0.834597,0.42154175,0.9416572,-0.46143827,1.9910048,0.28009367,-0.04512451,0.032948896,0.95834446,-8.5595665,8.342724,1.171903,-0.49238786,-0.8992688,0.43650478,1
1.8900000000000015,9.667941570790607,-0.923343354509879,-1.5124003503038956,-0.19753464337501375,10.156738,-0.59136593,-0.834597,0.42154175,0.8560275,-0.37796718,2.0027382,0.27807355,-0.04188342,0.029041033,0.95920587,-8.56633,8.351346,1.174777,-0.59136593,-0.834597,0.42154175,1
1.9000000000000015,9.667941570790607,-0.923343354509879,-1.5124003503038956,-0.19753464337501375,10.156738,-0.59136593,-0.834597,0.42154175,0.770332,-0.29441464,2.0145009,0.27604493,-0.038641047,0.025132282,0.96003795,-8.572703,8.359012,1.1777534,-0.59136593,-0.834597,0.42154175,1
1.9100000000000015,9.667941570790607,-0.923343354509879,-1.5124003503038956,-0.19753464337501375,10.156738,-0.59136593,-0.834597,0.42154175,0.6845748,-0.21079022,2.026294,0.27400786,-0.035397496,0.02122276,0.96084064,-8.578681,8.365722,1.180822,-0.59136593,-0.834597,0.42154175,1
1.9200000000000015,9.379698631388198,-0.8202997615832534,-1.4419711304398892,-0.2086783064498426,10.134827,-0.63446367,-0.8348022,0.4997552,0.59875983,-0.12710348,2.038118,0.2719624,-0.032152858,0.01731259,0.96161395,-8.584257,8.371476,1.1839724,-0.59136593,-0.834597,0.42154175,1
1.9300000000000015,9.379698631388198,-0.8202997615832534,-1.4419711304398892,-0.2086783064498426,10.134827,-0.63446367,-0.8348022,0.4997552,0.5128911,-0.04336407,2.0499725,0.26952523,-0.028958036,0.013206944,0.96246654,-8.589426,8.376252,1.1869755,-0.63446367,-0.8348022,0.4997552,1
1.9400000000000015,9.379698631388198,-0.8202997615832534,-1.4419711304398892,-0.2086783064498426,10.134827,-0.63446367,-0.8348022,0.4997552,0.42697263,0.040418163,2.0618572,0.267079,-0.025762236,0.0091008525,0.96328646,-8.594208,8.38004,1.1900396,-0.63446367,-0.8348022,0.4997552,1
1.9500000000000015,9.379698631388198,-0.8202997615832534,-1.4419711304398892,-0.2086783064498426,10.134827,-0.63446367,-0.8348022,0.4997552,0.3410083,0.12423334,2.0737734,0.26462373,-0.02256557,0.0049944543,0.96407396,-8.598598,8.382842,1.1931536,-0.63446367,-0.8348022,0.4997552,1
1.9600000000000015,9.055834243446453,-0.6517945347251761,-1.2564569321536774,-0.22645816082269968,9.62503,-0.6754515,-0.57950926,0.38654047,0.25500205,0.20807162,2.0857205,0.26215956,-0.019368142,0.00088788744,0.964829,-8.60259,8.38466,1.1963066,-0.63446367,-0.8348022,0.4997552,1
1.9700000000000015,9.055834243446453,-0.6517945347251761,-1.2564569321536774,-0.22645816082269968,9.62503,-0.6754515,-0.57950926,0.38654047,0.16895856,0.291923,2.0976744,0.2602289,-0.017455949,-0.0030927702,0.96538347,-8.606084,8.385486,1.1943896,-0.6754515,-0.57950926,0.38654047,1
1.9800000000000015,9.055834243446453,-0.6517945347251761,-1.2564569321536774,-0.22645816082269968,9.62503,-0.6754515,-0.57950926,0.38654047,0.08288089,0.37577844,2.1096091,0.25829214,-0.015543344,-0.007073355,0.96591514,-8.609425,8.385469,1.1924816,-0.6754515,-0.57950926,0.38654047,1
1.9900000000000015,9.055834243446453,-0.6517945347251761,-1.2564569321536774,-0.22645816082269968,9.62503,-0.6754515,-0.57950926,0.38654047,-0.0032293852,0.4596295,2.1215248,0.2563493,-0.013630374,-0.011053773,0.96642417,-8.612606,8.384612,1.1905752,-0.6754515,-0.57950926,0.38654047,1
2.0000000000000013,,,,,9.965672,-0.3853949,-0.6990736,0.2479145,-0.089370675,0.54346776,2.1334214,0.25440043,-0.011717084,-0.0150339315,0.96691036,-8.615626,8.382913,1.1886628,-0.6754515,-0.57950926,0.38654047,0
2.010000000000001,,,,,9.965672,-0.3853949,-0.6990736,0.2479145,-0.17553966,0.6272861,2.1452534,0.2554768,-0.008289783,-0.018059898,0.9666102,-8.618104,8.38065,1.1777241,-0.40916857,-0.81280446,-0.24082296,0
2.020000000000001,,,,,9.965672,-0.3853949,-0.6990736,0.2479145,-0.26173124,0.71107846,2.156976,0.25654754,-0.004862298,-0.021085465,0.96628857,-8.620142,8.377727,1.1667773,-0.40916857,-0.81280446,-0.24082296,0
2.0300000000000007,,,,,9.965672,-0.3853949,-0.6990736,0.2479145,-0.34794098,0.7948383,2.1685889,0.25761256,-0.0014347046,-0.024110567,0.9659456,-8.621741,8.374142,1.155815,-0.40916857,-0.81280446,-0.24082296,0
2.0400000000000005,,,,,9.965672,-0.3853949,-0.6990736,0.2479145,-0.43416455,0.878559,2.180092,0.25867185,0.00199292,-0.027135132,0.9655812,-8.622903,8.369895,1.1448299,-0.40916857,-0.81280446,-0.24082296,0
2.0500000000000003,,,,,9.98611,-0.04263017,-0.8219978,0.123396575,-0.52039754,0.9622339,2.1914852,0.25972542,0.005420501,-0.030159095,0.9651954,-8.623628,8.364985,1.1338146,-0.40916857,-0.81280446,-0.24082296,1
2.06,,,,,9.98611,-0.04263017,-0.8219978,0.123396575,-0.60663563,1.0458528,2.202831,0.25900486,0.009313417,-0.031435378,0.96531856,-8.623889,8.358723,1.1353785,-0.04263017,-0.8219978,0.123396575,1
2.07,,,,,9.98611,-0.04263017,-0.8219978,0.123396575,-0.69287294,1.1294067,2.2141922,0.25827983,0.013206171,-0.032711115,0.965425,-8.623461,8.352013,1.1369127,-0.04263017,-0.8219978,0.123396575,1
2.0799999999999996,,,,,9.98611,-0.04263017,-0.8219978,0.123396575,-0.77910256,1.2128915,2.2255685,0.2575503,0.017098697,-0.033986285,0.9655148,-8.622343,8.344858,1.1384106,-0.04263017,-0.8219978,0.123396575,1
2.0899999999999994,,,,,9.4071045,-0.15249977,-1.1620138,0.17880744,-0.86531746,1.2963024,2.23696,0.25681633,0.020990927,-0.03526087,0.96558785,-8.620535,8.337257,1.1398654,-0.04263017,-0.8219978,0.123396575,1
2.099999999999999,,,,,9.4071045,-0.15249977,-1.1620138,0.17880744,-0.9515113,1.3796372,2.2483368,0.25575972,0.026373312,-0.037507385,0.96565163,-8.618097,8.329588,1.135491,-0.15249977,-1.1620138,0.17880744,1
2.109999999999999,,,,,9.4071045,-0.15249977,-1.1620138,0.17880744,-1.0376765,1.4628919,2.2596695,0.25469407,0.03175477,-0.03975258,0.9656815,-8.614781,8.321257,1.1310333,-0.15249977,-1.1620138,0.17880744,1
2.1199999999999988,,,,,9.4071045,-0.15249977,-1.1620138,0.17880744,-1.123804,1.54606,2.2709572,0.2536195,0.037135113,-0.041996382,0.96567744,-8.610587,8.312265,1.1264791,-0.15249977,-1.1620138,0.17880744,1
2.1299999999999986,,,,,9.662677,-0.117961496,-1.1301335,0.10209352,-1.2098852,1.6291348,2.282199,0.252536,0.042514153,-0.04423871,0.9656394,-8.605515,8.302616,1.121816,-0.15249977,-1.1620138,0.17880744,1
2.1399999999999983,,,,,9.662677,-0.117961496,-1.1301335,0.10209352,-1.2959106,1.7121085,2.293406,0.25181407,0.047798406,-0.04625622,0.9654862,-8.599405,8.292051,1.1195685,-0.117961496,-1.1301335,0.10209352,1
