time-since-start [s],throttle_mpc,roll_mpc,pitch_mpc,yaw_mpc,throttle_nw,roll_nw,pitch_nw,yaw_nw,position_x [m],position_y [m],position_z [m],rotation_w [quaternion],rotation_x [quaternion],rotation_y [quaternion],rotation_z [quaternion],velocity_x [m/s],velocity_y [m/s],velocity_z [m/s],omega_x [rad/s],omega_y [rad/s],omega_z [rad/s],network_used
0.0,12.346106375393562,-1.1720845392858545,-5.9999995347484205,0.03152279005398572,7.3230677,-1.1500286,-5.771725,-0.256118,7.768425,-8.581606,1.0073545,0.33704114,-0.13234685,0.1947265,0.9115751,-4.784068,4.0101414,-1.0921613,-0.07397286,-0.102423966,0.19674632,0
0.01,12.346106375393562,-1.1720845392858545,-5.9999995347484205,0.03152279005398572,8.925879,-1.2418053,-5.5058446,0.055071607,7.7205167,-8.541231,0.99649143,0.33661354,-0.12981252,0.1931481,0.9124329,-4.7975597,4.064846,-1.0804069,-0.24511012,-1.0221683,0.18863875,0
0.02,12.346106375393562,-1.1720845392858545,-5.9999995347484205,0.03152279005398572,8.925879,-1.2418053,-5.5058446,0.055071607,7.672476,-8.500313,0.985748,0.33692628,-0.12368665,0.18941593,0.91394967,-4.81041,4.1187286,-1.0681714,-0.3895848,-1.798474,0.18092902,0
0.03,12.346106375393562,-1.1720845392858545,-5.9999995347484205,0.03152279005398572,8.925879,-1.2418053,-5.5058446,0.055071607,7.624313,-8.458863,0.9751309,0.3378383,-0.114517674,0.18385214,0.9159419,-4.8220077,4.1710973,-1.055073,-0.5115498,-2.4537113,0.17359759,0
0.04,12.346106375393562,-1.1720845392858545,-5.9999995347484205,0.03152279005398572,10.03863,-1.0393901,-6.097816,0.004642175,7.5760417,-8.4169,0.9646504,0.3392195,-0.102766365,0.17672312,0.9182256,-4.83183,4.2213507,-1.0408349,-0.6145108,-3.0067618,0.16662593,0
0.05,12.346106375393562,-1.1720845392858545,-5.9999995347484205,0.03152279005398572,10.03863,-1.0393901,-6.097816,0.004642175,7.5276837,-8.374445,0.95431876,0.34095293,-0.088821925,0.16825125,0.92062664,-4.8394303,4.2689567,-1.0252806,-0.7014285,-3.4735618,0.15999636,0
0.060000000000000005,12.346106375393562,-1.1720845392858545,-5.9999995347484205,0.03152279005398572,10.03863,-1.0393901,-6.097816,0.004642175,7.479262,-8.331531,0.9441497,0.3429349,-0.07301497,0.1586237,0.9229859,-4.844425,4.313442,-1.0083283,-0.77480185,-3.8675628,0.15369216,0
0.07,12.346106375393562,-1.1720845392858545,-5.9999995347484205,0.03152279005398572,10.03863,-1.0393901,-6.097816,0.004642175,7.4308047,-8.288188,0.934157,0.3450749,-0.055627856,0.14799942,0.9251622,-4.846488,4.354386,-0.9899809,-0.836741,-4.2001185,0.14769728,0
0.08,13.01919490034871,-1.2421929184092426,-5.999999526430109,0.03153681999175535,11.359921,-1.1404002,-6.234038,-0.4510302,7.382343,-8.244456,0.92435455,0.34729448,-0.036903046,0.13651446,0.9270321,-4.845344,4.39141,-0.9703175,-0.88902736,-4.4808106,0.14199658,0
0.09,13.01919490034871,-1.2421929184092426,-5.999999526430109,0.03153681999175535,11.359921,-1.1404002,-6.234038,-0.4510302,7.333911,-8.200365,0.91478705,0.34952542,-0.017059488,0.124260105,0.9284936,-4.8405156,4.4259634,-0.94299906,-0.94409806,-4.717729,0.13657628,0
0.09999999999999999,13.01919490034871,-1.2421929184092426,-5.999999526430109,0.03153681999175535,11.359921,-1.1404002,-6.234038,-0.4510302,7.285546,-8.155952,0.9054981,0.35170996,0.0037136683,0.111317545,0.92945933,-4.8318763,4.455707,-0.91465753,-0.9905844,-4.917699,0.13142194,0
0.10999999999999999,13.01919490034871,-1.2421929184092426,-5.999999526430109,0.03153681999175535,11.359921,-1.1404002,-6.234038,-0.4510302,7.237287,-8.111268,0.89649653,0.35379997,0.025261162,0.09778301,0.9298526,-4.8192797,4.4803567,-0.885556,-1.0298244,-5.0864835,0.12652056,0
0.11999999999999998,13.01919490034871,-1.2421929184092426,-5.999999526430109,0.03153681999175535,11.359921,-1.1404002,-6.234038,-0.4510302,7.1891747,-8.066363,0.88778853,0.3557547,0.04744715,0.0837409,0.92961,-4.8026166,4.4996676,-0.8560014,-1.0629473,-5.2289457,0.12185968,0
0.12999999999999998,14.406144497433694,-0.9609150498386565,-5.999999179126716,0.001097645858881089,12.301718,-1.2376372,-5.523605,0.01011415,7.141249,-8.021293,0.87937695,0.35753962,0.070152245,0.06926567,0.9286799,-4.781814,4.5134344,-0.8263366,-1.0909064,-5.3491907,0.11742751,0
0.13999999999999999,14.406144497433694,-0.9609150498386565,-5.999999179126716,0.001097645858881089,12.301718,-1.2376372,-5.523605,0.01011415,7.0935655,-7.976109,0.8713289,0.3591206,0.09331118,0.05452808,0.92701244,-4.7541647,4.5223494,-0.7833522,-1.0706466,-5.4506783,0.111719176,0
0.15,14.406144497433694,-0.9609150498386565,-5.999999179126716,0.001097645858881089,12.301718,-1.2376372,-5.523605,0.01011415,7.046182,-7.930868,0.86370736,0.3604674,0.11686271,0.03966986,0.92457163,-4.7218432,4.524834,-0.7411034,-1.0535473,-5.5363398,0.106290944,0
0.16,14.99519780884565,-0.5465268777424883,-5.38753878466724,-0.04718140675116903,12.695565,-0.83716846,-3.490903,0.33005583,6.9991455,-7.885635,0.8565027,0.3615591,0.14071295,0.024713997,0.9213382,-4.684836,4.520819,-0.700053,-1.0391152,-5.608643,0.10112908,0
0.17,14.99519780884565,-0.5465268777424883,-5.38753878466724,-0.04718140675116903,12.695565,-0.83716846,-3.490903,0.33005583,6.95251,-7.8404765,0.8497287,0.36235687,0.16461359,0.00992476,0.91733384,-4.6414657,4.5098543,-0.6550491,-0.9623251,-5.574152,0.09385143,0
0.18000000000000002,14.99519780884565,-0.5465268777424883,-5.38753878466724,-0.04718140675116903,12.695565,-0.83716846,-3.490903,0.33005583,6.906332,-7.7954607,0.84339404,0.36283764,0.18836462,-0.004485116,0.91260475,-4.593328,4.4922214,-0.6122525,-0.89750844,-5.545042,0.08693091,0
0.19000000000000003,14.99519780884565,-0.5465268777424883,-5.38753878466724,-0.04718140675116903,12.695565,-0.83716846,-3.490903,0.33005583,6.860659,-7.750654,0.83747447,0.36300746,0.21195316,-0.018564451,0.90716964,-4.540535,4.4680834,-0.5721124,-0.8427982,-5.5204725,0.08034998,0
0.20000000000000004,14.258725670315778,-0.1637015508307587,-1.5370854470009814,-0.005567374275043705,12.661959,-0.21500587,0.935626,0.47798848,6.815537,-7.7061214,0.8319412,0.3628722,0.23536585,-0.032353204,0.9010438,-4.483216,4.4376073,-0.5350612,-0.7966184,-5.499736,0.07409197,0
0.21000000000000005,14.258725670315778,-0.1637015508307587,-1.5370854470009814,-0.005567374275043705,12.661959,-0.21500587,0.935626,0.47798848,6.7709947,-7.661915,0.8267288,0.3624623,0.25726604,-0.045189507,0.89464694,-4.4245996,4.402834,-0.50793487,-0.6979577,-4.881756,0.07018307,0
0.22000000000000006,14.258725670315778,-0.1637015508307587,-1.5370854470009814,-0.005567374275043705,12.661959,-0.21500587,0.935626,0.47798848,6.727057,-7.6180825,0.82177097,0.36185852,0.2766312,-0.0565572,0.8884452,-4.3623633,4.3628793,-0.48414198,-0.6146753,-4.3601513,0.066465974,0
0.23000000000000007,14.258725670315778,-0.1637015508307587,-1.5370854470009814,-0.005567374275043705,12.661959,-0.21500587,0.935626,0.47798848,6.683758,-7.5746727,0.81703484,0.36112344,0.29386953,-0.06668391,0.88248724,-4.297016,4.3183985,-0.46358508,-0.54437447,-3.9198914,0.0629313,0
0.24000000000000007,14.258725670315778,-0.1637015508307587,-1.5370854470009814,-0.005567374275043705,11.702577,0.37500706,4.9613433,0.25591424,6.641126,-7.5317283,0.81248856,0.36030093,0.3093229,-0.07576269,0.876791,-4.2289753,4.2699385,-0.44613922,-0.48503175,-3.5482905,0.05957006,0
0.25000000000000006,14.258725670315778,-0.1637015508307587,-1.5370854470009814,-0.005567374275043705,11.702577,0.37500706,4.9613433,0.25591424,6.5991864,-7.4892864,0.8081018,0.35942137,0.32327738,-0.08395682,0.87135476,-4.1585836,4.217956,-0.4316691,-0.43493932,-3.2346416,0.05637374,0
0.26000000000000006,14.258725670315778,-0.1637015508307587,-1.5370854470009814,-0.005567374275043705,11.702577,0.37500706,4.9613433,0.25591424,6.557961,-7.44738,0.8038454,0.3585056,0.3359723,-0.091404155,0.8661648,-4.0861216,4.1628356,-0.4200397,-0.3926556,-2.9699063,0.053334285,0
0.2700000000000001,14.258725670315778,-0.1637015508307587,-1.5370854470009814,-0.005567374275043705,11.702577,0.37500706,4.9613433,0.25591424,6.5174694,-7.406039,0.7996917,0.35756764,0.34760782,-0.09822088,0.86120075,-4.011822,4.1048985,-0.41112274,-0.35696343,-2.7464569,0.050443966,0
0.2800000000000001,13.651858243796994,0.23101731164022318,4.048289088761942,-0.01638824944613931,12.094823,0.2761689,5.67965,-0.06911021,6.47773,-7.3652906,0.795614,0.35661677,0.3583513,-0.10450489,0.8564388,-3.9358783,4.0444136,-0.40480015,-0.3268351,-2.5578542,0.047695477,0
0.2900000000000001,13.651858243796994,0.23101731164022318,4.048289088761942,-0.01638824944613931,12.094823,0.2761689,5.67965,-0.06911021,6.4387407,-7.3251457,0.7915655,0.35584646,0.36649403,-0.109408416,0.85269284,-3.8618052,3.9843602,-0.40520996,-0.23987357,-1.5276265,0.044550873,0
0.3000000000000001,13.651858243796994,0.23101731164022318,4.048289088761942,-0.01638824944613931,12.094823,0.2761689,5.67965,-0.06911021,6.400497,-7.285609,0.78750443,0.35543692,0.37071535,-0.11227159,0.8506643,-3.7868779,3.92286,-0.40718117,-0.16646501,-0.6580632,0.041560583,0
0.3100000000000001,13.651858243796994,0.23101731164022318,4.048289088761942,-0.01638824944613931,12.094823,0.2761689,5.67965,-0.06911021,6.363004,-7.246691,0.7834194,0.35535777,0.3716498,-0.1134186,0.85013735,-3.7116172,3.860636,-0.4098804,-0.10449753,0.07589172,0.038717005,0
0.3200000000000001,13.273757057735914,0.5296781190642299,5.999999417248225,-0.0022770976884318736,13.353741,0.13114136,5.67386,-0.29032102,6.326264,-7.208397,0.77930677,0.35556617,0.3698158,-0.11311806,0.8508897,-3.63645,3.7982874,-0.41258726,-0.05218847,0.6953864,0.036012962,0
0.3300000000000001,13.273757057735914,0.5296781190642299,5.999999417248225,-0.0022770976884318736,13.353741,0.13114136,5.67386,-0.29032102,6.290263,-7.170716,0.77515644,0.35605568,0.36501533,-0.11121391,0.8530062,-3.5638225,3.7380645,-0.41731927,0.038535655,1.5226399,0.03413407,0
0.34000000000000014,13.273757057735914,0.5296781190642299,5.999999417248225,-0.0022770976884318736,13.353741,0.13114136,5.67386,-0.29032102,6.254985,-7.1336327,0.77096486,0.3568024,0.35709682,-0.10758893,0.8565036,-3.4920723,3.678856,-0.4207351,0.11511602,2.2208834,0.032347355,0
0.35000000000000014,13.273757057735914,0.5296781190642299,5.999999417248225,-0.0022770976884318736,13.353741,0.13114136,5.67386,-0.29032102,6.2204175,-7.0971336,0.76674837,0.357732,0.34650987,-0.102499895,0.8610763,-3.421611,3.621258,-0.42221162,0.17975742,2.8102355,0.030648327,0
0.36000000000000015,12.825379762757457,0.7986213351273972,5.999999809488568,0.2540210079605358,13.65266,0.45295376,6.030506,-0.30099338,6.1865463,-7.0612,0.76252896,0.3587727,0.3336275,-0.096162006,0.86644536,-3.3528178,3.565799,-0.42126718,0.23432104,3.3076782,0.029032651,1
0.37000000000000016,12.825379762757457,0.7986213351273972,5.999999809488568,0.2540210079605358,13.65266,0.45295376,6.030506,-0.30099338,6.153363,-7.025816,0.7583471,0.3599003,0.31875467,-0.08877133,0.87234557,-3.2841444,3.5114434,-0.41464278,0.26844773,3.7275422,0.012838174,1
0.38000000000000017,12.825379762757457,0.7986213351273972,5.999999809488568,0.2540210079605358,13.65266,0.45295376,6.030506,-0.30099338,6.120855,-6.9909606,0.7542468,0.3610929,0.30214998,-0.0804927,0.8785432,-3.2179115,3.4602067,-0.40492183,0.29725927,4.0819283,-0.0025616393,1
0.3900000000000002,12.825379762757457,0.7986213351273972,5.999999809488568,0.2540210079605358,13.65266,0.45295376,6.030506,-0.30099338,6.088995,-6.9565997,0.75025976,0.36229187,0.28404123,-0.071452856,0.88485,-3.1544604,3.4124804,-0.3919674,0.32158208,4.3810477,-0.017205782,1
0.4000000000000002,13.973745996392717,0.7810915298695308,5.999999816644931,0.22822749488714483,13.590815,0.19981115,6.3549495,-0.33369866,6.0577545,-6.9226975,0.74641865,0.36344624,0.26462427,-0.061761018,0.891104,-3.0941153,3.3686204,-0.3757375,0.34211403,4.633519,-0.031131309,1
0.4100000000000002,13.973745996392717,0.7810915298695308,5.999999816644931,0.22822749488714483,13.590815,0.19981115,6.3549495,-0.33369866,6.0270996,-6.8892126,0.74275345,0.36454192,0.2440322,-0.051601265,0.8971593,-3.0374444,3.329126,-0.356806,0.31997287,4.8466187,-0.045978356,1
0.4200000000000002,13.973745996392717,0.7810915298695308,5.999999816644931,0.22822749488714483,13.590815,0.19981115,6.3549495,-0.33369866,5.996993,-6.8561,0.73929316,0.36556345,0.22238393,-0.04112758,0.90289384,-2.9844887,3.294059,-0.3347663,0.30128518,5.0264854,-0.060096864,1
0.4300000000000002,13.973745996392717,0.7810915298695308,5.999999816644931,0.22822749488714483,13.590815,0.19981115,6.3549495,-0.33369866,5.967396,-6.823315,0.7360682,0.36646894,0.19981955,-0.030387789,0.9082121,-2.9355474,3.2636468,-0.3097926,0.28551146,5.1783023,-0.0735226,1
0.4400000000000002,13.973745996392717,0.7810915298695308,5.999999816644931,0.22822749488714483,14.610308,0.2260221,6.3913803,-0.44602132,5.938267,-6.7908106,0.7331066,0.36722356,0.17646237,-0.019424558,0.9130337,-2.8908937,3.2380912,-0.28211483,0.27219665,5.3064437,-0.0862895,1
0.45000000000000023,13.973745996392717,0.7810915298695308,5.999999816644931,0.22822749488714483,14.610308,0.2260221,6.3913803,-0.44602132,5.909578,-6.758545,0.73048216,0.36780933,0.15242557,-0.008264199,0.91728646,-2.8477664,3.216031,-0.24239366,0.26506403,5.414601,-0.10394165,1
0.46000000000000024,13.973745996392717,0.7810915298695308,5.999999816644931,0.22822749488714483,14.610308,0.2260221,6.3913803,-0.44602132,5.8812943,-6.7264714,0.7282665,0.36821315,0.12780933,0.0030681826,0.9209096,-2.8097498,3.1995497,-0.20040709,0.2590418,5.5058913,-0.1207276,1
0.47000000000000025,13.973745996392717,0.7810915298695308,5.999999816644931,0.22822749488714483,14.610308,0.2260221,6.3913803,-0.44602132,5.8533645,-6.694535,0.7264805,0.36841503,0.10269905,0.014537754,0.9238571,-2.7770505,3.1887882,-0.15653546,0.25395653,5.582945,-0.13668986,1
0.48000000000000026,16.13700329227022,0.6052544571988121,5.9999996644809155,0.03818728408365002,15.131114,0.72646725,6.2223825,-0.52395904,5.825734,-6.6626763,0.72514087,0.36839846,0.07717152,0.026112892,0.92609143,-2.749848,3.1838593,-0.11119013,0.2496619,5.6479826,-0.15186884,0
0.49000000000000027,16.13700329227022,0.6052544571988121,5.9999996644809155,0.03818728408365002,15.131114,0.72646725,6.2223825,-0.52395904,5.79836,-6.6308374,0.7243357,0.36808383,0.051353786,0.037901066,0.92759943,-2.7260325,3.18496,-0.049711503,0.30508715,5.7028756,-0.14254272,0
0.5000000000000002,16.13700329227022,0.6052544571988121,5.9999996644809155,0.03818728408365002,15.131114,0.72646725,6.2223825,-0.52395904,5.7711926,-6.598954,0.72414887,0.36740407,0.0253556,0.04998533,0.92837113,-2.7085342,3.192721,0.012398298,0.35186923,5.74921,-0.13367423,0
0.5100000000000002,16.13700329227022,0.6052544571988121,5.9999996644809155,0.03818728408365002,15.131114,0.72646725,6.2223825,-0.52395904,5.744168,-6.5669594,0.72458404,0.36636314,-0.00078018894,0.06230504,0.92838335,-2.6974044,3.2072341,0.07460734,0.39135605,5.788319,-0.12524094,0
0.5200000000000002,17.346552622857526,0.43384069393677493,5.999999379464981,-0.008047949184821827,16.262974,1.356885,6.321833,-0.7093499,5.7172227,-6.534786,0.7256395,0.36496457,-0.027013164,0.07480682,0.927618,-2.6926737,3.2285504,0.1363718,0.4246854,5.82133,-0.11722147,0
0.5300000000000002,17.346552622857526,0.43384069393677493,5.999999379464981,-0.008047949184821827,16.262974,1.356885,6.321833,-0.7093499,5.6902924,-6.502355,0.72736764,0.36321443,-0.053330503,0.08737974,0.9260648,-2.694482,3.2587872,0.20904857,0.42609462,5.849195,-0.11186428,0
0.5400000000000003,17.346552622857526,0.43384069393677493,5.999999379464981,-0.008047949184821827,16.262974,1.356885,6.321833,-0.7093499,5.6633096,-6.4695854,0.7298147,0.36111698,-0.07971599,0.09993144,0.92371726,-2.703195,3.2962952,0.28006214,0.427285,5.8727145,-0.106769994,0
0.5500000000000003,17.346552622857526,0.43384069393677493,5.999999379464981,-0.008047949184821827,16.262974,1.356885,6.321833,-0.7093499,5.636205,-6.4364047,0.7329611,0.35867316,-0.10612782,0.112442605,0.92056894,-2.7188034,3.3409812,0.34882024,0.42829016,5.892566,-0.101925656,0
0.5600000000000003,17.658373196355846,0.17555442249902134,5.999996614657032,-0.0464778470049206,16.704266,1.4802573,6.30051,-1.1979543,5.60891,-6.4027414,0.73678136,0.35588482,-0.13252674,0.12489514,0.9166154,-2.741269,3.3927217,0.4147332,0.42913917,5.909322,-0.09731905,0
0.5700000000000003,17.658373196355846,0.17555442249902134,5.999996614657032,-0.0464778470049206,16.704266,1.4802573,6.30051,-1.1979543,5.5813537,-6.368521,0.7412585,0.35274428,-0.15891308,0.1371768,0.91186655,-2.771058,3.4524105,0.48010522,0.38958412,5.923466,-0.094824255,0
0.5800000000000003,17.658373196355846,0.17555442249902134,5.999996614657032,-0.0464778470049206,16.704266,1.4802573,6.30051,-1.1979543,5.553465,-6.3336697,0.7463695,0.34924415,-0.18528125,0.14919657,0.90633315,-2.8077083,3.5188925,0.5414106,0.35619798,5.935404,-0.09245187,0
0.5900000000000003,17.658373196355846,0.17555442249902134,5.999996614657032,-0.0464778470049206,16.704266,1.4802573,6.30051,-1.1979543,5.525176,-6.2981205,0.7520708,0.3453883,-0.21158728,0.16096656,0.9000153,-2.8511398,3.5919101,0.5980857,0.32801852,5.9454794,-0.090195924,0
0.6000000000000003,16.551596989807358,-0.13841317340790543,2.8475044505190277,-0.06160298845130899,16.807703,1.0157439,4.6349216,-0.76988816,5.4964194,-6.2618103,0.75831336,0.34118158,-0.23779047,0.17249551,0.89291435,-2.9012394,3.6711853,0.64958066,0.3042342,5.9539833,-0.08805067,0
0.6100000000000003,16.551596989807358,-0.13841317340790543,2.8475044505190277,-0.06160298845130899,16.807703,1.0157439,4.6349216,-0.76988816,5.4671464,-6.224703,0.7649974,0.33683103,-0.26277873,0.18325274,0.88538724,-2.9542603,3.751025,0.68639857,0.23517126,5.469534,-0.08675288,0
0.6200000000000003,16.551596989807358,-0.13841317340790543,2.8475044505190277,-0.06160298845130899,16.807703,1.0157439,4.6349216,-0.76988816,5.437315,-6.1867723,0.7720228,0.33254573,-0.28570238,0.19284187,0.87783796,-3.01284,3.8357637,0.7178254,0.17688373,5.060633,-0.08551877,0
0.6300000000000003,16.551596989807358,-0.13841317340790543,2.8475044505190277,-0.06160298845130899,16.807703,1.0157439,4.6349216,-0.76988816,5.4068723,-6.1479726,0.7793357,0.32832682,-0.30687922,0.20144777,0.8703134,-3.0764406,3.9247575,0.7439244,0.12769066,4.7155,-0.084345214,0
0.6400000000000003,16.551596989807358,-0.13841317340790543,2.8475044505190277,-0.06160298845130899,15.462815,0.9965782,0.6611796,-0.31551668,5.3757706,-6.1082644,0.78688323,0.32416973,-0.32657632,0.20922475,0.86283654,-3.1446042,4.0174637,0.7647792,0.086172566,4.424189,-0.08322926,0
0.6500000000000004,16.551596989807358,-0.13841317340790543,2.8475044505190277,-0.06160298845130899,15.462815,0.9965782,0.6611796,-0.31551668,5.3439655,-6.067612,0.79461354,0.3200665,-0.34501764,0.21630153,0.85541445,-3.2169394,4.1134233,0.78048074,0.05113242,4.1783075,-0.08216804,0
0.6600000000000004,16.551596989807358,-0.13841317340790543,2.8475044505190277,-0.06160298845130899,15.462815,0.9965782,0.6611796,-0.31551668,5.3114176,-6.025986,0.80247545,0.31600758,-0.3623909,0.22278547,0.848044,-3.2931104,4.2122464,0.7911184,0.021559065,3.970771,-0.081158936,0
0.6700000000000004,16.551596989807358,-0.13841317340790543,2.8475044505190277,-0.06160298845130899,15.462815,0.9965782,0.6611796,-0.31551668,5.2780905,-5.983359,0.8104188,0.3119829,-0.37885332,0.22876607,0.8407157,-3.3728263,4.3135986,0.7967749,-0.003400012,3.7955997,-0.0801993,0
0.6800000000000004,15.276414104708286,-0.4223411532610704,-1.816244384574869,-0.09116568624679477,15.600341,0.8258192,-2.682554,-0.39723113,5.2439494,-5.939707,0.81839406,0.30798241,-0.3945363,0.23431791,0.83341646,-3.455834,4.41719,0.7975241,-0.024465175,3.6477456,-0.07928679,0
0.6900000000000004,15.276414104708286,-0.4223411532610704,-1.816244384574869,-0.09116568624679477,15.600341,0.8258192,-2.682554,-0.39723113,5.2089963,-5.8950496,0.82631636,0.30440107,-0.40804273,0.2388397,0.8269199,-3.5352225,4.5145884,0.78629136,-0.086556405,2.7956426,-0.07986969,0
0.7000000000000004,15.276414104708286,-0.4223411532610704,-1.816244384574869,-0.09116568624679477,15.600341,0.8258192,-2.682554,-0.39723113,5.1732373,-5.849411,0.8341076,0.30158004,-0.41831326,0.24188271,0.8219222,-3.6168466,4.6132874,0.7714486,-0.13895851,2.0764244,-0.080423966,0
0.7100000000000004,15.276414104708286,-0.4223411532610704,-1.816244384574869,-0.09116568624679477,15.600341,0.8258192,-2.682554,-0.39723113,5.136653,-5.802781,0.841736,0.29942656,-0.42589083,0.24370144,0.81827265,-3.700171,4.7128263,0.7538804,-0.18318312,1.4693673,-0.08095106,0
0.7200000000000004,14.270364984025424,-0.716499154397074,-5.9999957006897136,-0.12480283996489296,14.503184,0.35568407,-5.7181897,-0.14724295,5.0992293,-5.755153,0.8491785,0.2978517,-0.43122038,0.24450237,0.81581354,-3.784772,4.812847,0.7343618,-0.22050649,0.9569799,-0.081452295,0
0.7300000000000004,14.270364984025424,-0.716499154397074,-5.9999957006897136,-0.12480283996489296,14.503184,0.35568407,-5.7181897,-0.14724295,5.060983,-5.7065563,0.8563937,0.29713595,-0.4333396,0.2438584,0.8151442,-3.8646338,4.9064345,0.7085653,-0.297914,-0.1279521,-0.08357951,0
0.7400000000000004,14.270364984025424,-0.716499154397074,-5.9999957006897136,-0.12480283996489296,14.503184,0.35568407,-5.7181897,-0.14724295,5.0219364,-5.657025,0.86335003,0.29748887,-0.43149537,0.24143466,0.8167137,-3.9447896,4.9997377,0.682811,-0.36324334,-1.04369,-0.08560236,0
0.7500000000000004,14.270364984025424,-0.716499154397074,-5.9999957006897136,-0.12480283996489296,14.503184,0.35568407,-5.7181897,-0.14724295,4.9820886,-5.6065636,0.87005395,0.2987272,-0.42628822,0.23749998,0.8201426,-4.0247016,5.092316,0.658246,-0.4183786,-1.8166194,-0.08752593,0
0.7600000000000005,13.495056565169063,-1.0699072082263625,-5.999999520052341,0.021841824353338184,13.954239,-0.08466461,-6.10165,-0.18190874,4.941445,-5.555182,0.8765223,0.30068326,-0.41820565,0.23227032,0.82507205,-4.1038985,5.1837754,0.6358211,-0.46491027,-2.469011,-0.08935512,1
0.7700000000000005,13.495056565169063,-1.0699072082263625,-5.999999520052341,0.021841824353338184,13.954239,-0.08466461,-6.10165,-0.18190874,4.900023,-5.502903,0.8827718,0.30331767,-0.4075732,0.2261276,0.83111286,-4.1802135,5.2717633,0.61456597,-0.4056521,-3.019669,-0.093896754,1
0.7800000000000005,13.495056565169063,-1.0699072082263625,-5.999999520052341,0.021841824353338184,13.954239,-0.08466461,-6.10165,-0.18190874,4.857846,-5.449753,0.8888255,0.3065842,-0.39466378,0.21938173,0.83792484,-4.254941,5.3580303,0.5967424,-0.35563254,-3.4844522,-0.09821554,1
0.7900000000000005,13.495056565169063,-1.0699072082263625,-5.999999520052341,0.021841824353338184,13.954239,-0.08466461,-6.10165,-0.18190874,4.8149314,-5.3957496,0.89471996,0.31033456,-0.3797766,0.21209784,0.84526706,-4.327632,5.4423184,0.58279437,-0.31341055,-3.8767521,-0.10232239,1
0.8000000000000005,13.140656533065842,-1.3907819461471842,-5.9999996704076,0.23470226538284192,12.834965,0.35457212,-6.0853534,-0.16386946,4.7713017,-5.3409142,0.9004958,0.31444138,-0.36316514,0.20433055,0.85292816,-4.397869,5.5243597,0.573044,-0.27777034,-4.2078733,-0.10622772,0
0.8100000000000005,13.140656533065842,-1.3907819461471842,-5.9999996704076,0.23470226538284192,12.834965,0.35457212,-6.0853534,-0.16386946,4.7270036,-5.2852945,0.9061693,0.31856468,-0.3452006,0.195698,0.86084557,-4.461351,5.5992208,0.5623001,-0.45131445,-4.4873476,-0.089498185,0
0.8200000000000005,13.140656533065842,-1.3907819461471842,-5.9999996704076,0.23470226538284192,12.834965,0.35457212,-6.0853534,-0.16386946,4.6820846,-5.22894,0.91175663,0.32243177,-0.32619274,0.18589796,0.86895204,-4.5219636,5.671275,0.55584675,-0.5977887,-4.7232428,-0.07358955,0
0.8300000000000005,13.140656533065842,-1.3907819461471842,-5.9999996704076,0.23470226538284192,12.834965,0.35457212,-6.0853534,-0.16386946,4.6365743,-5.1718807,0.9173012,0.32603064,-0.30626053,0.17508309,0.8770713,-4.5795374,5.740091,0.5537372,-0.72141683,-4.9223537,-0.058461584,0
0.8400000000000005,13.140656533065842,-1.3907819461471842,-5.9999996704076,0.23470226538284192,11.055144,0.04021207,-6.0406027,0.2954139,4.5905046,-5.114151,0.92284626,0.3293494,-0.28550848,0.1633856,0.885053,-4.633898,5.8052635,0.5559455,-0.82576275,-5.0904155,-0.044075947,0
0.8500000000000005,13.140656533065842,-1.3907819461471842,-5.9999996704076,0.23470226538284192,11.055144,0.04021207,-6.0406027,0.2954139,4.543908,-5.0557895,0.92843467,0.33237645,-0.2640295,0.15092053,0.8927693,-4.6848664,5.8664165,0.5623755,-0.9138345,-5.2322702,-0.030396216,0
0.8600000000000005,13.140656533065842,-1.3907819461471842,-5.9999996704076,0.23470226538284192,11.055144,0.04021207,-6.0406027,0.2954139,4.4968195,-4.9968376,0.93410784,0.3351012,-0.24190672,0.13778841,0.90011233,-4.732268,5.9232,0.57286876,-0.98817116,-5.352004,-0.017387735,0
0.8700000000000006,13.140656533065842,-1.3907819461471842,-5.9999996704076,0.23470226538284192,11.055144,0.04021207,-6.0406027,0.2954139,4.4492755,-4.937341,0.93990535,0.33751395,-0.21921527,0.124077596,0.90699136,-4.775931,5.975293,0.58721215,-1.0509155,-5.453066,-0.005017602,0
0.8800000000000006,13.897998709938326,-1.3992339326413592,-5.9999995310332865,0.16050257532733403,11.832557,-0.63304067,-6.2004447,0.43483436,4.4013143,-4.877349,0.9458645,0.3396063,-0.19602342,0.10986594,0.9133299,-4.8156905,6.022402,0.6051439,-1.103875,-5.538368,0.0067455056,0
0.8900000000000006,13.897998709938326,-1.3992339326413592,-5.9999995310332865,0.16050257532733403,11.832557,-0.63304067,-6.2004447,0.43483436,4.3529654,-4.8168993,0.9520538,0.34137875,-0.1723957,0.09521755,0.91906124,-4.85345,6.066674,0.6332371,-1.1499082,-5.610365,0.0142904045,0
0.9000000000000006,13.897998709938326,-1.3992339326413592,-5.9999995310332865,0.16050257532733403,11.832557,-0.63304067,-6.2004447,0.43483436,4.3042607,-4.7560353,0.95853996,0.34283262,-0.14839125,0.08018995,0.92412937,-4.886767,6.1051455,0.66444445,-1.1887633,-5.671134,0.02146508,0
0.9100000000000006,13.897998709938326,-1.3992339326413592,-5.9999995310332865,0.16050257532733403,11.832557,-0.63304067,-6.2004447,0.43483436,4.255245,-4.694817,0.9653521,0.3439624,-0.124062546,0.06483938,0.9284901,-4.915506,6.1375947,0.69837254,-1.2215601,-5.722426,0.028287698,0
0.9200000000000006,14.4933221198884,-1.2359727296722423,-5.999999083280758,0.11738872221930773,12.285662,-0.63492966,-6.179919,0.35011846,4.2059665,-4.633305,0.97251534,0.34476352,-0.09945847,0.049216323,0.9321071,-4.9395456,6.163834,0.73459965,-1.249243,-5.765719,0.03477552,0
0.9300000000000006,14.4933221198884,-1.2359727296722423,-5.999999083280758,0.11738872221930773,12.285662,-0.63492966,-6.179919,0.35011846,4.1564665,-4.571558,0.9800796,0.34524345,-0.074602425,0.033426803,0.93494594,-4.9596033,6.1845617,0.77851355,-1.2471573,-5.802258,0.03882936,0
0.9400000000000006,14.4933221198884,-1.2359727296722423,-5.999999083280758,0.11738872221930773,12.285662,-0.63492966,-6.179919,0.35011846,4.1067915,-4.509637,0.98809063,0.34540737,-0.049519658,0.01756031,0.93698084,-4.97454,6.198543,0.8238752,-1.2453977,-5.833099,0.042684287,0
0.9500000000000006,14.4933221198884,-1.2359727296722423,-5.999999083280758,0.11738872221930773,12.285662,-0.63492966,-6.179919,0.35011846,4.056993,-4.44761,0.9965604,0.34524947,-0.024256868,0.001637748,0.938196,-4.984265,6.2057037,0.87018406,-1.2439132,-5.85913,0.046350043,0
0.9600000000000006,14.439510651541456,-0.9500902130491364,-5.99999774035422,0.24853900774970072,13.123829,-0.7381573,-6.2089863,0.33237365,4.0071235,-4.3855457,1.0054958,0.3447656,0.0011423547,-0.014320759,0.93857884,-4.9887094,6.2059965,0.91692847,-1.2426608,-5.881101,0.049835924,0
0.9700000000000006,14.439510651541456,-0.9500902130491364,-5.99999774035422,0.24853900774970072,13.123829,-0.7381573,-6.2089863,0.33237365,3.9572365,-4.323513,1.014896,0.34393686,0.026676236,-0.030188516,0.9381281,-4.987826,6.199434,0.96305126,-1.1969963,-5.899649,0.059586346,0
0.9800000000000006,14.439510651541456,-0.9500902130491364,-5.99999774035422,0.24853900774970072,13.123829,-0.7381573,-6.2089863,0.33237365,3.9073853,-4.2615805,1.0247549,0.34274393,0.052336775,-0.045862492,0.93684787,-4.981578,6.186064,1.0085697,-1.1584551,-5.915304,0.068858296,0
0.9900000000000007,14.439510651541456,-0.9500902130491364,-5.99999774035422,0.24853900774970072,13.123829,-0.7381573,-6.2089863,0.33237365,3.8576238,-4.1998153,1.0350636,0.3411849,0.07807591,-0.061355773,0.93473643,-4.9699287,6.1659675,1.0529634,-1.125926,-5.9285173,0.07767528,0
1.0000000000000007,13.961869405399755,-0.5931128107234577,-5.085856633015709,0.3701682846173286,13.439652,-0.48854223,-6.1153603,0.3837966,3.8080053,-4.1382837,1.0458086,0.3392598,0.10384918,-0.07667742,0.93179315,-4.952871,6.1392446,1.0957141,-1.0984716,-5.9396696,0.086059615,0
1.0100000000000007,13.961869405399755,-0.5931128107234577,-5.085856633015709,0.3701682846173286,13.439652,-0.48854223,-6.1153603,0.3837966,3.7585812,-4.0770464,1.0569475,0.33697265,0.12932283,-0.091578625,0.92808306,-4.931175,6.1071386,1.1317275,-1.0196159,-5.806523,0.100000925,0
1.0200000000000007,13.961869405399755,-0.5931128107234577,-5.085856633015709,0.3701682846173286,13.439652,-0.48854223,-6.1153603,0.3837966,3.7093995,-4.0161614,1.0684345,0.3343385,0.15423177,-0.10586603,0.92370045,-4.904391,6.069037,1.1652293,-0.9530609,-5.6941395,0.113258116,0
1.0300000000000007,13.961869405399755,-0.5931128107234577,-5.085856633015709,0.3701682846173286,13.439652,-0.48854223,-6.1153603,0.3837966,3.6605103,-3.9556856,1.0802422,0.33137324,0.17863023,-0.119619526,0.91868055,-4.87266,6.025243,1.1958293,-0.8968881,-5.5992813,0.12586476,0
1.0400000000000007,13.961869405399755,-0.5931128107234577,-5.085856633015709,0.3701682846173286,12.36965,0.23443145,-4.2426705,0.36487934,3.6119626,-3.8956752,1.0923398,0.3280909,0.20256248,-0.13290583,0.91305023,-4.836126,5.9760456,1.2231622,-0.8494778,-5.519216,0.1378528,0
1.0500000000000007,13.961869405399755,-0.5931128107234577,-5.085856633015709,0.3701682846173286,12.36965,0.23443145,-4.2426705,0.36487934,3.5638034,-3.8361824,1.1046929,0.3245039,0.22606425,-0.14578031,0.9068297,-4.794933,5.9217234,1.2468854,-0.80946344,-5.4516363,0.1492526,0
1.0600000000000007,13.961869405399755,-0.5931128107234577,-5.085856633015709,0.3701682846173286,12.36965,0.23443145,-4.2426705,0.36487934,3.5160792,-3.7772574,1.1172639,0.3206235,0.24916397,-0.15828873,0.90003467,-4.749231,5.862545,1.2666752,-0.7756911,-5.3945956,0.16009301,0
1.0700000000000007,13.961869405399755,-0.5931128107234577,-5.085856633015709,0.3701682846173286,12.36965,0.23443145,-4.2426705,0.36487934,3.468834,-3.7189474,1.1300118,0.31645998,0.2718838,-0.1704687,0.8926771,-4.6991725,5.7987742,1.2822254,-0.74718726,-5.34645,0.17040148,0
1.0800000000000007,12.942885683082617,-0.2813328677652794,-0.8796256008514756,0.42175215714007214,12.429803,0.7567439,0.62847114,0.3298704,3.42211,-3.6612968,1.1428928,0.3120229,0.29424056,-0.18235086,0.8847667,-4.6449146,5.730672,1.2932452,-0.72313,-5.305813,0.18020408,0
1.0900000000000007,12.942885683082617,-0.2813328677652794,-0.8796256008514756,0.42175215714007214,12.429803,0.7567439,0.62847114,0.3298704,3.3759282,-3.6043215,1.155822,0.30760017,0.31480816,-0.19333471,0.8768691,-4.590929,5.6638107,1.2919109,-0.65427715,-4.615548,0.1920569,0
1.1000000000000008,12.942885683082617,-0.2813328677652794,-0.8796256008514756,0.42175215714007214,12.429803,0.7567439,0.62847114,0.3298704,3.3303025,-3.5480313,1.1687167,0.30347115,0.33250514,-0.20297617,0.8695666,-4.533763,5.593749,1.2863997,-0.59615964,-4.03293,0.20332812,0
1.1100000000000008,12.942885683082617,-0.2813328677652794,-0.8796256008514756,0.42175215714007214,12.429803,0.7567439,0.62847114,0.3298704,3.2852619,-3.4924555,1.1815369,0.29962128,0.34780204,-0.21150477,0.8628594,-4.4739385,5.5210056,1.277065,-0.54710275,-3.5411713,0.21404624,0
1.1200000000000008,12.129819768853968,-0.012702833403943388,4.407209461532691,0.40813228031548754,11.8741665,1.1139214,4.1700344,0.0662476,3.2408314,-3.4376187,1.1942462,0.2960285,0.36109072,-0.21911032,0.8567211,-4.4118795,5.4459968,1.2642444,-0.50569296,-3.1261022,0.22423841,0
1.1300000000000008,12.129819768853968,-0.012702833403943388,4.407209461532691,0.40813228031548754,11.8741665,1.1139214,4.1700344,0.0662476,3.1970136,-3.3835216,1.206789,0.29310995,0.37094527,-0.22527179,0.8519029,-4.3516536,5.3735046,1.2436414,-0.43611243,-1.9584205,0.23259972,0
1.1400000000000008,12.129819768853968,-0.012702833403943388,4.407209461532691,0.40813228031548754,11.8741665,1.1139214,4.1700344,0.0662476,3.153801,-3.3301523,1.2191112,0.29120785,0.37624964,-0.22954209,0.8490845,-4.2907205,5.3001857,1.2205379,-0.37022653,-0.965696,0.24121314,0
1.1500000000000008,12.129819768853968,-0.012702833403943388,4.407209461532691,0.40813228031548754,11.8741665,1.1139214,4.1700344,0.0662476,3.1112003,-3.2775202,1.2311962,0.29019383,0.37774238,-0.23223309,0.8480364,-4.229366,5.2261033,1.1963334,-0.31460157,-0.12778743,0.24940391,0
1.1600000000000008,12.053368786815138,0.2637044054973233,5.999998335268941,0.3436587079069711,12.180001,0.6130715,5.9941454,-0.1407206,3.0692132,-3.2256312,1.243037,0.28994173,0.37602845,-0.23360172,0.8485083,-4.168115,5.1516466,1.171839,-0.26763806,0.5794492,0.25719273,1
1.1700000000000008,12.053368786815138,0.2637044054973233,5.999998335268941,0.3436587079069711,12.180001,0.6130715,5.9941454,-0.1407206,3.0278373,-3.1744885,1.2546359,0.2904435,0.3711512,-0.23343211,0.85052836,-4.10717,5.07685,1.148078,-0.13041572,1.423893,0.23766701,1
1.1800000000000008,12.053368786815138,0.2637044054973233,5.999998335268941,0.3436587079069711,12.180001,0.6130715,5.9941454,-0.1407206,2.987066,-3.1240926,1.2660027,0.2916825,0.36315563,-0.23154926,0.8540632,-4.047235,5.002436,1.1255121,-0.0145541765,2.1366394,0.21909943,1
1.1900000000000008,12.053368786815138,0.2637044054973233,5.999998335268941,0.3436587079069711,12.180001,0.6130715,5.9941454,-0.1407206,2.9468875,-3.0744371,1.2771525,0.29353032,0.35249448,-0.2281952,0.85878646,-3.9887326,4.9288177,1.104822,0.08326914,2.7382283,0.20144296,1
1.2000000000000008,11.850938004957174,0.3336291614670793,5.9999993531499225,0.3287292542026084,13.546633,1.2074128,5.920799,-0.21906486,2.907285,-3.0255122,1.2881073,0.2958694,0.33954248,-0.22356912,0.8644008,-3.9320457,4.85637,1.086548,0.16586028,3.2459958,0.18465288,0
1.2100000000000009,11.850938004957174,0.3336291614670793,5.9999993531499225,0.3287292542026084,13.546633,1.2074128,5.920799,-0.21906486,2.8682315,-2.9772947,1.298882,0.29858184,0.32456478,-0.21795256,0.87063366,-3.8790064,4.787358,1.0688684,0.19195522,3.6754851,0.19172275,0
1.2200000000000009,11.850938004957174,0.3336291614670793,5.9999993531499225,0.3287292542026084,13.546633,1.2074128,5.920799,-0.21906486,2.8296964,-2.9297588,1.309495,0.30155477,0.30778584,-0.21157911,0.8772494,-3.8284333,4.7201233,1.0542234,0.21398638,4.037996,0.19844572,0
1.2300000000000009,11.850938004957174,0.3336291614670793,5.9999993531499225,0.3287292542026084,13.546633,1.2074128,5.920799,-0.21906486,2.7916532,-2.8828852,1.3199774,0.30469725,0.28944233,-0.20453766,0.8840513,-3.7806592,4.654947,1.0427967,0.23258704,4.3439727,0.2048388,0
1.2400000000000009,11.850938004957174,0.3336291614670793,5.9999993531499225,0.3287292542026084,12.483802,1.0482606,6.0182376,-0.38587683,2.7540722,-2.8366518,1.3303622,0.30793115,0.26973772,-0.19690411,0.89086944,-3.7359943,4.5921016,1.0346845,0.2482919,4.602232,0.21091816,1
1.2500000000000009,11.850938004957174,0.3336291614670793,5.9999993531499225,0.3287292542026084,12.483802,1.0482606,6.0182376,-0.38587683,2.7169323,-2.7910504,1.3407073,0.31119305,0.24895382,-0.18846504,0.8975864,-3.6925123,4.528646,1.0348928,0.3731085,4.8202233,0.18163325,1
1.260000000000001,11.850938004957174,0.3336291614670793,5.9999993531499225,0.3287292542026084,12.483802,1.0482606,6.0182376,-0.38587683,2.6802087,-2.7460682,1.3510721,0.31444708,0.22733031,-0.17905317,0.9040926,-3.6528087,4.4682827,1.0385841,0.47846702,5.0042124,0.15378538,1
1.270000000000001,11.850938004957174,0.3336291614670793,5.9999993531499225,0.3287292542026084,12.483802,1.0482606,6.0182376,-0.38587683,2.6438625,-2.701673,1.3614907,0.3176664,0.20497508,-0.1687933,0.91026455,-3.617061,4.4113593,1.045666,0.5673993,5.1595044,0.127304,1
1.280000000000001,12.306559444953086,0.21898896251264566,5.999999272799841,0.30586676321362494,12.56505,1.0510658,5.6980457,-0.41755837,2.6078534,-2.657828,1.3719965,0.32082596,0.18198363,-0.15779427,0.9159984,-3.5854332,4.3581996,1.0559862,0.6424653,5.290575,0.102122076,1
1.290000000000001,12.306559444953086,0.21898896251264566,5.999999272799841,0.30586676321362494,12.56505,1.0510658,5.6980457,-0.41755837,2.57214,-2.6144965,1.3826245,0.32388794,0.15855339,-0.14618883,0.9211871,-3.5578935,4.3087792,1.0700631,0.70627105,5.354112,0.0766212,1
1.300000000000001,12.306559444953086,0.21898896251264566,5.999999272799841,0.30586676321362494,12.56505,1.0510658,5.6980457,-0.41755837,2.5366802,-2.5716376,1.3934073,0.32682443,0.13485168,-0.1340922,0.92575353,-3.5347493,4.263694,1.0869242,0.76012444,5.4077387,0.052371662,1
1.310000000000001,12.306559444953086,0.21898896251264566,5.999999272799841,0.30586676321362494,12.56505,1.0510658,5.6980457,-0.41755837,2.5014296,-2.529207,1.4043715,0.32962632,0.11091803,-0.121569835,0.929658,-3.5160792,4.223163,1.1062679,0.805577,5.4530015,0.029312067,1
1.320000000000001,12.728185379480836,-0.14098837503834508,5.999998666788272,0.30329304879857527,12.542653,0.6796011,3.164221,-0.6043583,2.466343,-2.487158,1.4155401,0.33228445,0.08678926,-0.10867978,0.93286806,-3.501947,4.187384,1.1277691,0.8439385,5.4912043,0.0073840115,0
1.330000000000001,12.728185379480836,-0.14098837503834508,5.999998666788272,0.30329304879857527,12.542653,0.6796011,3.164221,-0.6043583,2.4313753,-2.4454446,1.4269409,0.33475646,0.06221869,-0.09588603,0.9353461,-3.4923017,4.1561146,1.1526567,0.6902865,5.570556,0.021904353,0
1.340000000000001,12.728185379480836,-0.14098837503834508,5.999998666788272,0.30329304879857527,12.542653,0.6796011,3.164221,-0.6043583,2.39648,-2.4040186,1.4385982,0.33697823,0.037014537,-0.083560005,0.9370661,-3.4875119,4.129865,1.1789942,0.56059796,5.637531,0.03571218,0
1.350000000000001,12.728185379480836,-0.14098837503834508,5.999998666788272,0.30329304879857527,12.542653,0.6796011,3.164221,-0.6043583,2.3616078,-2.36283,1.4505243,0.33891487,0.011285532,-0.07162459,0.9380185,-3.487769,4.1086435,1.2063779,0.45113596,5.694059,0.048842445,0
1.360000000000001,12.668085153831713,-0.6570554348747506,5.9999972527902825,0.299732820485242,12.031135,-0.7422954,1.2545917,-0.38709185,2.3267071,-2.3218284,1.4627279,0.34053984,-0.014871671,-0.06001565,0.9381946,-3.4932215,4.0924544,1.2343916,0.3587464,5.74177,0.061328415,0
1.370000000000001,12.668085153831713,-0.6570554348747506,5.9999972527902825,0.299732820485242,12.031135,-0.7422954,1.2545917,-0.38709185,2.2917254,-2.2809634,1.4752098,0.34182885,-0.041441124,-0.04887386,0.93757486,-3.5039356,4.0813394,1.2620116,0.2002868,5.782036,0.073027,0
1.380000000000001,12.668085153831713,-0.6570554348747506,5.9999972527902825,0.299732820485242,12.031135,-0.7422954,1.2545917,-0.38709185,2.2566094,-2.2401848,1.4879673,0.34275776,-0.068401374,-0.038308844,0.9361466,-3.5200584,4.0751534,1.2893932,0.06654088,5.8160214,0.08415151,0
1.390000000000001,12.668085153831713,-0.6570554348747506,5.9999972527902825,0.299732820485242,12.031135,-0.7422954,1.2545917,-0.38709185,2.2213051,-2.1994438,1.5009954,0.3433104,-0.095662974,-0.028230041,0.9339107,-3.541683,4.073809,1.3160905,-0.046345383,5.844706,0.09473015,0
1.400000000000001,12.172893028617697,-1.009157364357858,5.521428376669578,0.18951287866007943,11.337972,-0.8826698,0.4382017,-0.59361404,2.1857567,-2.1586924,1.5142853,0.34347606,-0.12314572,-0.018561827,0.93086755,-3.5688612,4.077219,1.3416572,-0.14162524,5.868917,0.10478969,0
1.410000000000001,12.172893028617697,-1.009157364357858,5.521428376669578,0.18951287866007943,11.337972,-0.8826698,0.4382017,-0.59361404,2.149915,-2.1178849,1.5277995,0.34324095,-0.15064803,-0.009439867,0.927039,-3.6003237,4.084964,1.3608776,-0.27692845,5.8147163,0.10894709,0
1.420000000000001,12.172893028617697,-1.009157364357858,5.521428376669578,0.18951287866007943,11.337972,-0.8826698,0.4382017,-0.59361404,2.1137319,-2.0769784,1.5414964,0.34260038,-0.17800534,-0.00096935173,0.9224629,-3.6370943,4.097001,1.3781773,-0.39113075,5.768969,0.112900496,0
1.430000000000001,12.172893028617697,-1.009157364357858,5.521428376669578,0.18951287866007943,11.337972,-0.8826698,0.4382017,-0.59361404,2.0771549,-2.035931,1.5553551,0.34156215,-0.20519969,0.0069487463,0.9171584,-3.679103,4.113139,1.3931653,-0.48752287,5.730357,0.116659895,0
1.440000000000001,12.172893028617697,-1.009157364357858,5.521428376669578,0.18951287866007943,10.728247,-0.7211641,-1.2371231,-0.6486968,2.0401323,-1.9947025,1.5693505,0.3401351,-0.23221274,0.014397533,0.9111408,-3.726257,4.133196,1.4054661,-0.5688824,5.6977673,0.12023482,0
1.450000000000001,12.172893028617697,-1.009157364357858,5.521428376669578,0.18951287866007943,10.728247,-0.7211641,-1.2371231,-0.6486968,2.0026126,-1.9532543,1.5834539,0.33832872,-0.2590258,0.021446573,0.9044218,-3.7784421,4.1569953,1.414718,-0.63755345,5.6702604,0.12363431,0
1.460000000000001,12.172893028617697,-1.009157364357858,5.521428376669578,0.18951287866007943,10.728247,-0.7211641,-1.2371231,-0.6486968,1.9645464,-1.9115503,1.5976332,0.33615294,-0.28562003,0.028153926,0.8970113,-3.8355234,4.1843657,1.4205736,-0.695515,5.647044,0.12686701,0
1.470000000000001,12.172893028617697,-1.009157364357858,5.521428376669578,0.18951287866007943,10.728247,-0.7211641,-1.2371231,-0.6486968,1.9258858,-1.8695554,1.6118525,0.33361787,-0.31197637,0.034567907,0.88891757,-3.897347,4.2151384,1.4226986,-0.74443686,5.6274486,0.12994106,0
1.480000000000001,11.256509801796597,-1.0822019425659288,1.9462570429571713,0.06431371420473779,10.263895,-0.35696945,-2.7195315,-0.36532575,1.8865839,-1.8272364,1.6260732,0.3307336,-0.33807573,0.040728573,0.8801481,-3.9637408,4.2491455,1.4207734,-0.7857291,5.6109095,0.13286427,0
1.490000000000001,11.256509801796597,-1.0822019425659288,1.9462570429571713,0.06431371420473779,10.263895,-0.35696945,-2.7195315,-0.36532575,1.8466226,-1.7845758,1.6402184,0.32758343,-0.36266333,0.04616754,0.8712247,-4.0291505,4.2833867,1.4076267,-0.8319031,5.039407,0.12950046,0
1.500000000000001,11.256509801796597,-1.0822019425659288,1.9462570429571713,0.06431371420473779,10.263895,-0.35696945,-2.7195315,-0.36532575,1.8059888,-1.7415606,1.6542124,0.3242766,-0.38479313,0.05052398,0.8626852,-4.098154,4.320009,1.3905563,-0.87088686,4.55703,0.12630172,0
1.5100000000000011,11.256509801796597,-1.0822019425659288,1.9462570429571713,0.06431371420473779,10.263895,-0.35696945,-2.7195315,-0.36532575,1.7646487,-1.698169,1.6680168,0.3208506,-0.40485945,0.05397274,0.85453504,-4.1703296,4.358587,1.3697314,-0.9037997,4.1498804,0.123259954,0
1.5200000000000011,10.228469451246623,-0.9335339336068464,-2.3278846767749024,-0.13558680015775107,9.567952,0.0028850473,-5.42987,-0.38759118,1.7225724,-1.6543833,1.6815947,0.31733146,-0.42319122,0.05666063,0.8467579,-4.245329,4.398764,1.3453202,-0.9315865,3.8062258,0.12036745,0
1.5300000000000011,10.228469451246623,-0.9335339336068464,-2.3278846767749024,-0.13558680015775107,9.567952,0.0028850473,-5.42987,-0.38759118,1.6797675,-1.6102076,1.6948802,0.31388298,-0.4386198,0.058206372,0.8400604,-4.3158836,4.436493,1.3112504,-0.93371266,2.851543,0.10798742,0
1.5400000000000011,10.228469451246623,-0.9335339336068464,-2.3278846767749024,-0.13558680015775107,9.567952,0.0028850473,-5.42987,-0.38759118,1.6362487,-1.5656512,1.7078109,0.31066865,-0.4502535,0.058329556,0.83507717,-4.3881426,4.474847,1.2745439,-0.9336117,2.043821,0.09603516,0
1.5500000000000012,10.228469451246623,-0.9335339336068464,-2.3278846767749024,-0.13558680015775107,9.567952,0.0028850473,-5.42987,-0.38759118,1.5919998,-1.5207098,1.7203646,0.30767915,-0.45872858,0.057264652,0.831638,-4.461837,4.513466,1.2359376,-0.9335466,1.3620632,0.0846694,0
1.5600000000000012,9.733057388995848,-0.605439111962183,-5.999881209047388,-0.3030462904948649,9.393257,0.3622393,-5.8274674,-0.44374537,1.547008,-1.4753822,1.732525,0.3048936,-0.46456587,0.055205334,0.82956016,-4.5366526,4.5520015,1.1959718,-0.93350726,0.78662443,0.07386137,1
1.5700000000000012,9.733057388995848,-0.605439111962183,-5.999881209047388,-0.3030462904948649,9.393257,0.3622393,-5.8274674,-0.44374537,1.50125,-1.4296641,1.7442914,0.30244508,-0.467239,0.05214296,0.8291533,-4.6145935,4.591303,1.1568846,-0.8499898,-0.12623054,0.059097562,1
1.5800000000000012,9.733057388995848,-0.605439111962183,-5.999881209047388,-0.3030462904948649,9.393257,0.3622393,-5.8274674,-0.44374537,1.4547243,-1.3835635,1.7556547,0.3005093,-0.46619076,0.04814438,0.8306876,-4.690178,4.6284637,1.1154851,-0.73961425,-0.9366306,0.041489057,1
1.5900000000000012,9.733057388995848,-0.605439111962183,-5.999881209047388,-0.3030462904948649,9.393257,0.3622393,-5.8274674,-0.44374537,1.4074556,-1.3371027,1.766596,0.29910654,-0.46177036,0.04345278,0.8339153,-4.763178,4.6633396,1.0725864,-0.6090867,-1.6580383,0.021400632,1
1.6000000000000012,9.475149725881558,-0.2308474044459972,-5.9999973126050365,-0.35648606006020983,9.954921,0.72669506,-6.066421,-0.2627676,1.3594702,-1.2903047,1.7771038,0.29823512,-0.45426905,0.038265053,0.8385885,-4.83351,4.6959033,1.0289302,-0.46545804,-2.300424,-0.00070255855,1
1.6100000000000012,9.475149725881558,-0.2308474044459972,-5.9999973126050365,-0.35648606006020983,9.954921,0.72669506,-6.066421,-0.2627676,1.3107682,-1.2431803,1.7871954,0.29789346,-0.44389617,0.032823533,0.84447485,-4.9067817,4.7287083,0.9896916,-0.27956662,-2.8773685,-0.013562164,1
1.6200000000000012,9.475149725881558,-0.2308474044459972,-5.9999973126050365,-0.35648606006020983,9.954921,0.72669506,-6.066421,-0.2627676,1.2613382,-1.1957357,1.7969048,0.29800963,-0.43093717,0.027278697,0.851316,-4.9790235,4.7599454,0.9525399,-0.1226716,-3.3643415,-0.02579075,1
1.6300000000000012,9.475149725881558,-0.2308474044459972,-5.9999973126050365,-0.35648606006020983,9.954921,0.72669506,-6.066421,-0.2627676,1.2111926,-1.1479872,1.8062546,0.29846478,-0.4157363,0.0216472,0.85884404,-5.0498657,4.789479,0.91782916,0.009751411,-3.775373,-0.037419263,1
1.6400000000000012,9.475149725881558,-0.2308474044459972,-5.9999973126050365,-0.35648606006020983,9.980653,1.3029605,-5.96312,-0.32679045,1.1603471,-1.0999525,1.8152707,0.29915696,-0.39858365,0.015943214,0.8668227,-5.118958,4.8171763,0.88581944,0.12152041,-4.122306,-0.04847718,0
1.6500000000000012,9.475149725881558,-0.2308474044459972,-5.9999973126050365,-0.35648606006020983,9.980653,1.3029605,-5.96312,-0.32679045,1.1088369,-1.0516566,1.8239644,0.29985926,-0.37984103,0.009841451,0.87504745,-5.1827426,4.8416595,0.85336,0.06651632,-4.4151297,-0.06359128,0
1.6600000000000013,9.475149725881558,-0.2308474044459972,-5.9999973126050365,-0.35648606006020983,9.980653,1.3029605,-5.96312,-0.32679045,1.0566999,-1.0031263,1.8323475,0.30039722,-0.35981193,0.0030818002,0.8833386,-5.244298,4.8640604,0.8237106,0.020088784,-4.662287,-0.077963725,0
1.6700000000000013,9.475149725881558,-0.2308474044459972,-5.9999973126050365,-0.35648606006020983,9.980653,1.3029605,-5.96312,-0.32679045,1.0039594,-0.9543832,1.8404481,0.30076075,-0.33864814,-0.004234736,0.8915392,-5.303396,4.8841686,0.79688007,-0.019098565,-4.8709006,-0.09163091,0
1.6800000000000013,8.969407521190707,-0.13584017933226403,-5.999998305218134,-0.36164522961310397,9.958362,0.8415606,-6.0252357,-0.39566064,0.95064116,-0.90545136,1.8482945,0.30094033,-0.31648242,-0.012020497,0.89951605,-5.3598104,4.901797,0.77282566,-0.052173965,-5.0469804,-0.10462744,1
1.6900000000000013,8.969407521190707,-0.13584017933226403,-5.999998305218134,-0.36164522961310397,9.958362,0.8415606,-6.0252357,-0.39566064,0.8967594,-0.85635245,1.8559333,0.30106455,-0.29330286,-0.019813554,0.9071609,-5.4160395,4.9175606,0.75537694,0.087145135,-5.195613,-0.11890852,1
1.7000000000000013,8.969407521190707,-0.13584017933226403,-5.999998305218134,-0.36164522961310397,9.958362,0.8415606,-6.0252357,-0.39566064,0.8423319,-0.8071099,1.8634113,0.30122367,-0.26911122,-0.027238287,0.91438586,-5.468916,4.930511,0.7406501,0.20473906,-5.3210673,-0.13248882,1
1.7100000000000013,8.969407521190707,-0.13584017933226403,-5.999998305218134,-0.36164522961310397,9.958362,0.8415606,-6.0252357,-0.39566064,0.7873936,-0.75775194,1.8707551,0.3013601,-0.24403667,-0.034340866,0.92111284,-5.5181503,4.940633,0.72850466,0.30399624,-5.426958,-0.14540273,1
1.7200000000000013,8.584779834615418,-0.08420514445534319,-5.999998335846334,-0.4104859587123902,11.018024,0.9033946,-5.6172433,-0.35275912,0.73198235,-0.70830697,1.8779896,0.30142698,-0.21819371,-0.04115977,0.9272751,-5.563476,4.9479117,0.7187627,0.3877765,-5.5163345,-0.15768297,0
1.7300000000000013,8.584779834615418,-0.08420514445534319,-5.999998335846334,-0.4104859587123902,11.018024,0.9033946,-5.6172433,-0.35275912,0.67616725,-0.65880686,1.8850757,0.30131054,-0.191796,-0.04807152,0.9327998,-5.59898,4.951716,0.6987208,0.31411812,-5.5917563,-0.17008808,0
1.7400000000000013,8.584779834615418,-0.08420514445534319,-5.999998335846334,-0.4104859587123902,11.018024,0.9033946,-5.6172433,-0.35275912,0.6200155,-0.60928136,1.8919698,0.30093226,-0.16502355,-0.055377606,0.9376249,-5.630777,4.952967,0.6803418,0.25194925,-5.6554165,-0.18188448,0
1.7500000000000013,8.584779834615418,-0.08420514445534319,-5.999998335846334,-0.4104859587123902,11.018024,0.9033946,-5.6172433,-0.35275912,0.56356484,-0.5597566,1.8986874,0.30030307,-0.13792722,-0.06300494,0.94171363,-5.6587577,4.9515758,0.6633782,0.19947803,-5.7091494,-0.19310202,0
1.7600000000000013,8.563954390381799,-0.10884646063094026,-5.999997610096323,-0.4808056866841602,11.468764,0.75265324,-5.753221,-0.47426915,0.5068538,-0.5102592,1.9052414,0.29943123,-0.110554665,-0.07088982,0.9450361,-5.6828265,4.947475,0.64756936,0.1551921,-5.754503,-0.2037691,0
1.7700000000000014,8.563954390381799,-0.10884646063094026,-5.999997610096323,-0.4808056866841602,11.468764,0.75265324,-5.753221,-0.47426915,0.44992226,-0.46081653,1.9116409,0.29833,-0.082953,-0.078986816,0.94756484,-5.7028503,4.940632,0.6324418,0.11395911,-5.7927833,-0.21736339,0
1.7800000000000014,8.563954390381799,-0.10884646063094026,-5.999997610096323,-0.4808056866841602,11.468764,0.75265324,-5.753221,-0.47426915,0.3928107,-0.4114562,1.9178923,0.2970112,-0.055166215,-0.08725516,0.94927746,-5.71882,4.931002,0.61791486,0.079158895,-5.8250937,-0.23029059,0
1.7900000000000014,8.563954390381799,-0.10884646063094026,-5.999997610096323,-0.4808056866841602,11.468764,0.75265324,-5.753221,-0.47426915,0.33556,-0.36220616,1.9240003,0.29547793,-0.027233591,-0.09564891,0.9501592,-5.7306805,4.918568,0.6037012,0.049788594,-5.852366,-0.24258344,0
1.8000000000000014,8.480974610153236,-0.12280190521426468,-5.999995580899439,-0.4964006990023946,10.5245,0.65740526,-5.6185164,-0.18767263,0.27821136,-0.31309447,1.9299663,0.29373252,0.0008073421,-0.10412766,0.95019895,-5.7383933,4.9033294,0.58950865,0.025001168,-5.8753858,-0.2542731,0
1.8100000000000014,8.480974610153236,-0.12280190521426468,-5.999995580899439,-0.4964006990023946,10.5245,0.65740526,-5.6185164,-0.18767263,0.22080667,-0.2641483,1.9357854,0.2917782,0.028919157,-0.11266108,0.94938755,-5.7418995,4.885473,0.57423127,0.0019023512,-5.894815,-0.26615438,0
1.8200000000000014,8.480974610153236,-0.12280190521426468,-5.999995580899439,-0.4964006990023946,10.5245,0.65740526,-5.6185164,-0.18767263,0.16338763,-0.21539441,1.9414493,0.28961787,0.057066135,-0.121221706,0.94771844,-5.7412663,4.8648777,0.55838794,-0.017591648,-5.911214,-0.27745262,0
1.8300000000000014,8.480974610153236,-0.12280190521426468,-5.999995580899439,-0.4964006990023946,10.5245,0.65740526,-5.6185164,-0.18767263,0.105995566,-0.16686001,1.9469504,0.28725216,0.08521532,-0.12977989,0.94518864,-5.7365007,4.8415833,0.5416842,-0.034043,-5.925056,-0.28819647,0
1.8400000000000014,8.480974610153236,-0.12280190521426468,-5.999995580899439,-0.4964006990023946,10.34821,0.7480527,-5.1370535,-0.42201778,0.048671737,-0.11857185,1.952279,0.28468144,0.11333477,-0.13830927,0.9417973,-5.727626,4.8156404,0.5238274,-0.047926404,-5.93674,-0.29841313,0
1.8500000000000014,8.480974610153236,-0.12280190521426468,-5.999995580899439,-0.4964006990023946,10.34821,0.7480527,-5.1370535,-0.42201778,-0.008542954,-0.07055608,1.9574219,0.28190595,0.1413934,-0.14678629,0.937545,-5.71468,4.7871165,0.50452757,-0.059642915,-5.9466023,-0.30812845,0
1.8600000000000014,8.480974610153236,-0.12280190521426468,-5.999995580899439,-0.4964006990023946,10.34821,0.7480527,-5.1370535,-0.42201778,-0.065608054,-0.022838144,1.9623635,0.27892593,0.16936097,-0.15518981,0.932434,-5.6977167,4.756086,0.48349917,-0.06952995,-5.9549265,-0.31736702,0
1.8700000000000014,8.480974610153236,-0.12280190521426468,-5.999995580899439,-0.4964006990023946,10.34821,0.7480527,-5.1370535,-0.42201778,-0.122483715,0.024557319,1.9670849,0.2757416,0.19720797,-0.16350083,0.926468,-5.676804,4.7226357,0.46046215,-0.07787319,-5.961953,-0.32615227,0
1.8800000000000014,8.749596210696346,-0.11176628468986734,-5.999993045482928,-0.5324685596865004,9.973193,0.9808764,-4.045114,-0.48279318,-0.17913084,0.071606584,1.9715648,0.2723535,0.22490555,-0.17170213,0.91965175,-5.6520247,4.686864,0.43514296,-0.08491352,-5.967884,-0.33450645,0
1.8900000000000015,8.749596210696346,-0.11176628468986734,-5.999993045482928,-0.5324685596865004,9.973193,0.9808764,-4.045114,-0.48279318,-0.23550682,0.11828101,1.9757901,0.26876515,0.25242746,-0.17977303,0.91199076,-5.6225724,4.6476736,0.4095007,-0.08914007,-5.9728904,-0.34422052,0
1.9000000000000015,8.749596210696346,-0.11176628468986734,-5.999993045482928,-0.5324685596865004,9.973193,0.9808764,-4.045114,-0.48279318,-0.29156932,0.16455261,1.9797448,0.2649803,0.27974772,-0.18769501,0.90349156,-5.589346,4.6063194,0.3809654,-0.09270545,-5.977116,-0.3534579,0
1.9100000000000015,8.749596210696346,-0.11176628468986734,-5.999993045482928,-0.5324685596865004,9.973193,0.9808764,-4.045114,-0.48279318,-0.34728122,0.2104004,1.9833987,0.26099947,0.3068389,-0.19545612,0.89416206,-5.5524745,4.56293,0.34928277,-0.09571295,-5.980683,-0.362242,0
1.9200000000000015,8.273817438525443,0.05986291397578007,-1.5234316539942656,-0.5152369815914625,8.669874,0.93754613,-1.7756314,-0.5454725,-0.40260676,0.2558047,1.9867188,0.25682372,0.33367407,-0.2030453,0.8840111,-5.5121,4.517643,0.31420952,-0.098249726,-5.983693,-0.37059507,1
1.9300000000000015,8.273817438525443,0.05986291397578007,-1.5234316539942656,-0.5152369815914625,8.669874,0.93754613,-1.7756314,-0.5454725,-0.45751372,0.30074942,1.9896677,0.25266746,0.3588575,-0.2096567,0.87374157,-5.4688077,4.4710636,0.27502334,0.06341036,-5.3274875,-0.37917638,1
1.9400000000000015,8.273817438525443,0.05986291397578007,-1.5234316539942656,-0.5152369815914625,8.669874,0.93754613,-1.7756314,-0.5454725,-0.51197284,0.34522128,1.9922074,0.24873216,0.3813428,-0.21469,0.8640706,-5.4225874,4.4231286,0.23243062,0.19984245,-4.773612,-0.3873366,1
1.9500000000000015,8.273817438525443,0.05986291397578007,-1.5234316539942656,-0.5152369815914625,8.669874,0.93754613,-1.7756314,-0.5454725,-0.5659567,0.38920853,1.9943054,0.24499515,0.40157092,-0.21840787,0.8549947,-5.373797,4.374184,0.18666935,0.31498286,-4.3061094,-0.3950964,1
1.9600000000000015,8.026373159730186,0.20304846984268285,4.978599613734157,-0.49960257396682434,7.530446,1.1718384,2.927736,-1.6415577,-0.619441,0.43270245,1.9959308,0.24143174,0.4199086,-0.22102748,0.8464834,-5.322726,4.3245096,0.13796446,0.41215396,-3.9115095,-0.40247542,0
1.9700000000000015,8.026373159730186,0.20304846984268285,4.978599613734157,-0.49960257396682434,7.530446,1.1718384,2.927736,-1.6415577,-0.6723492,0.4756448,1.9971046,0.23854716,0.43489283,-0.22241035,0.8393432,-5.2594333,4.2646656,0.09561817,0.419246,-2.76526,-0.40372047,0
1.9800000000000015,8.026373159730186,0.20304846984268285,4.978599613734157,-0.49960257396682434,7.530446,1.1718384,2.927736,-1.6415577,-0.7246414,0.51801145,1.9978201,0.23682457,0.44518197,-0.22240247,0.83442444,-5.199569,4.209361,0.046545513,0.42660946,-1.711238,-0.40477931,0
1.9900000000000015,8.026373159730186,0.20304846984268285,4.978599613734157,-0.49960257396682434,7.530446,1.1718384,2.927736,-1.6415577,-0.77635366,0.55984724,1.9980177,0.23619267,0.45122308,-0.22114417,0.8316886,-5.1434937,4.1584725,-0.007777647,0.4341859,-0.74202347,-0.40566266,0
2.0000000000000013,,,,,9.52175,1.2915077,5.68529,-0.96775556,-0.82752013,0.6011912,1.9976543,0.23658039,0.45341936,-0.21878871,0.8310066,-5.0900855,4.110656,-0.06517994,0.4205204,0.12795709,-0.40826353,0
2.010000000000001,,,,,9.52175,1.2915077,5.68529,-0.96775556,-0.87817866,0.6420826,1.996696,0.23793648,0.45209548,-0.21553127,0.8321911,-5.042234,4.0682216,-0.12689562,0.3947444,0.9431921,-0.40595335,0
2.020000000000001,,,,,9.52175,1.2915077,5.68529,-0.96775556,-0.92837846,0.6825685,1.995108,0.24017231,0.44747165,-0.21144103,0.8350922,-4.9983325,4.029519,-0.19100875,0.37266174,1.6927238,-0.40378466,0
2.0300000000000007,,,,,9.52175,1.2915077,5.68529,-0.96775556,-0.9781541,0.7226811,1.992873,0.24316105,0.4398217,-0.20654364,0.8395053,-4.957025,3.9932017,-0.25594926,0.36884382,2.360768,-0.40040755,0
2.0400000000000005,,,,,9.52175,1.2915077,5.68529,-0.96775556,-1.0275214,0.7624347,1.9899931,0.24673794,0.4295101,-0.20087433,0.84515727,-4.916536,3.957611,-0.31982937,0.36926723,2.928305,-0.39685515,0
2.0500000000000003,,,,,10.297806,1.6320919,6.3351254,-0.6936967,-1.0764875,0.80183554,1.9864819,0.2507693,0.41689435,-0.19452249,0.85174805,-4.876833,3.9226508,-0.38217297,0.3695997,3.4073346,-0.39347708,1
2.06,,,,,10.297806,1.6320919,6.3351254,-0.6936967,-1.1249423,0.8407852,1.9824699,0.25497046,0.4024114,-0.18711622,0.85909396,-4.814375,3.8674984,-0.41977024,0.5666246,3.8116035,-0.40820894,1
2.07,,,,,10.297806,1.6320919,6.3351254,-0.6936967,-1.1727811,0.8791908,1.9780972,0.2591209,0.38642496,-0.1783587,0.86701787,-4.753695,3.8138955,-0.45424816,0.732912,4.152832,-0.42221788,1
2.0799999999999996,,,,,10.297806,1.6320919,6.3351254,-0.6936967,-1.2200229,0.9170696,1.9733964,0.26319867,0.3691152,-0.16842544,0.8752788,-4.6949744,3.7621863,-0.48540848,0.8732562,4.440851,-0.43553942,1
2.0899999999999994,,,,,9.588559,1.8944687,6.2064176,-0.5673582,-1.266688,0.95444214,1.968401,0.26718226,0.3506366,-0.157468,0.88366914,-4.6383977,3.712698,-0.5131334,0.9917037,4.6839576,-0.44820726,1
2.099999999999999,,,,,9.588559,1.8944687,6.2064176,-0.5673582,-1.3128177,0.99134856,1.9631205,0.27100113,0.33114874,-0.14553049,0.8920311,-4.5878844,3.6689782,-0.54246324,1.1325678,4.8891478,-0.45405406,1
2.109999999999999,,,,,9.588559,1.8944687,6.2064176,-0.5673582,-1.3584536,1.0278308,1.9575628,0.27459627,0.31078902,-0.13265792,0.900227,-4.539694,3.6279151,-0.56856555,1.2514554,5.062345,-0.4596139,1
2.1199999999999988,,,,,9.588559,1.8944687,6.2064176,-0.5673582,-1.40362,1.0639169,1.9517599,0.2779635,0.28965345,-0.11897543,0.9081199,-4.4939766,3.5897927,-0.59150815,1.3517947,5.208537,-0.46490094,1
2.1299999999999986,,,,,9.98796,2.218539,6.1748743,-0.5834403,-1.4483421,1.0996376,1.9457431,0.2810978,0.26782775,-0.10459305,0.915594,-4.4508815,3.5548735,-0.6114075,1.4364793,5.3319354,-0.46992856,1
2.1399999999999983,,,,,9.98796,2.218539,6.1748743,-0.5834403,-1.4926386,1.1350197,1.9395585,0.2839617,0.24542582,-0.08948833,0.92256355,-4.40887,3.5220919,-0.62504506,1.5584924,5.436077,-0.4754986,1
2.149999999999998,,,,,9.98796,2.218539,6.1748743,-0.5834403,-1.5365298,1.1700928,1.9332517,0.2865272,0.22254644,-0.073651426,0.9289512,-4.3698597,3.4931629,-0.6358826,1.6614727,5.5239825,-0.4807953,1
2.159999999999998,,,,,9.98796,2.218539,6.1748743,-0.5834403,-1.5800464,1.204897,1.9268496,0.28880098,0.19924293,-0.057191502,0.9346791,-4.3339624,3.4683285,-0.6441608,1.7483886,5.5981846,-0.48583212,1
2.1699999999999977,,,,,11.254198,1.8994514,6.2354474,-0.3867885,-1.6232201,1.2394743,1.9203764,0.29078755,0.17556499,-0.04020516,0.9396823,-4.3012843,3.447802,-0.65015215,1.8217459,5.660819,-0.4906218,1
2.1799999999999975,,,,,11.254198,1.8994514,6.2354474,-0.3867885,-1.6660646,1.273858,1.9139129,0.29248837,0.1515213,-0.022902606,0.94391054,-4.2682037,3.42973,-0.64222735,1.8338621,5.713717,-0.48552668,1
