time-since-start [s],throttle_mpc,roll_mpc,pitch_mpc,yaw_mpc,throttle_nw,roll_nw,pitch_nw,yaw_nw,position_x [m],position_y [m],position_z [m],rotation_w [quaternion],rotation_x [quaternion],rotation_y [quaternion],rotation_z [quaternion],velocity_x [m/s],velocity_y [m/s],velocity_z [m/s],omega_x [rad/s],omega_y [rad/s],omega_z [rad/s],network_used
0.0,7.62885750156923,-0.6878014517318382,-5.444545841173564,0.1277681677574612,9.048876,-1.6474109,4.578679,0.27715468,13.21693,-12.155018,1.0673448,0.28637874,-0.44752774,0.21027036,0.8206659,-1.4196247,1.4252394,0.20125002,0.025093222,0.070338935,-0.013706389,0
0.01,7.62885750156923,-0.6878014517318382,-5.444545841173564,0.1277681677574612,10.123301,-3.2449548,4.084424,0.6459589,13.202483,-12.14052,1.0690755,0.28678304,-0.44614002,0.20973723,0.8214164,-1.4694211,1.474021,0.14465159,-0.036119588,-0.7397349,-0.011259533,0
0.02,7.62885750156923,-0.6878014517318382,-5.444545841173564,0.1277681677574612,10.123301,-3.2449548,4.084424,0.6459589,13.187549,-12.125545,1.0702336,0.28780198,-0.44171438,0.20781328,0.82393694,-1.5170469,1.5207161,0.08683463,-0.12118332,-1.4568812,-0.0059450353,0
0.03,7.62885750156923,-0.6878014517318382,-5.444545841173564,0.1277681677574612,10.123301,-3.2449548,4.084424,0.6459589,13.172147,-12.11011,1.0708122,0.2892792,-0.4346226,0.20455728,0.8279959,-1.5632684,1.5660676,0.029066097,-0.20954075,-2.0787556,0.00061631226,0
0.04,7.62885750156923,-0.6878014517318382,-5.444545841173564,0.1277681677574612,11.528755,-3.2629433,3.978839,0.29020068,13.156285,-12.094225,1.0708194,0.29110664,-0.42522585,0.20012887,0.8332997,-1.6088969,1.6108478,-0.027410809,-0.2841146,-2.6036499,0.00685569,0
0.05,7.62885750156923,-0.6878014517318382,-5.444545841173564,0.1277681677574612,11.528755,-3.2629433,3.978839,0.29020068,13.139972,-12.077896,1.0702697,0.29319623,-0.4138384,0.19469056,0.839565,-1.6537578,1.6548641,-0.08227134,-0.34705582,-3.0466876,0.012788895,0
0.060000000000000005,7.62885750156923,-0.6878014517318382,-5.444545841173564,0.1277681677574612,11.528755,-3.2629433,3.978839,0.29020068,13.123214,-12.0611315,1.0691805,0.29546973,-0.40072244,0.18837813,0.8465417,-1.6976844,1.6979343,-0.13526149,-0.40017942,-3.4206343,0.018430956,0
0.07,7.62885750156923,-0.6878014517318382,-5.444545841173564,0.1277681677574612,11.528755,-3.2629433,3.978839,0.29020068,13.106021,-12.0439415,1.0675716,0.2978587,-0.38609916,0.18130606,0.8540116,-1.7405142,1.7398846,-0.18619005,-0.44501707,-3.7362645,0.023796165,0
0.08,10.244119665068858,-0.5934955411362086,-4.8971681737076915,0.11661809703348328,11.489616,-3.6846724,4.1006937,-0.21323237,13.0884075,-12.02634,1.0654643,0.3003037,-0.37015665,0.17357168,0.86178577,-1.7820894,1.7805479,-0.23492146,-0.48286176,-4.002672,0.0288981,0
0.09,10.244119665068858,-0.5934955411362086,-4.8971681737076915,0.11661809703348328,11.489616,-3.6846724,4.1006937,-0.21323237,13.070314,-12.008269,1.0629689,0.30273226,-0.35323554,0.16535683,0.86961776,-1.8360301,1.8332125,-0.26366964,-0.50010085,-4.1421704,0.033202544,0
0.09999999999999999,10.244119665068858,-0.5934955411362086,-4.8971681737076915,0.11661809703348328,11.489616,-3.6846724,4.1006937,-0.21323237,13.051693,-11.989683,1.0602013,0.3050891,-0.33562362,0.15681438,0.87731797,-1.8879138,1.8837682,-0.28934774,-0.5146519,-4.259914,0.03729575,0
0.10999999999999999,10.244119665068858,-0.5934955411362086,-4.8971681737076915,0.11661809703348328,11.489616,-3.6846724,4.1006937,-0.21323237,13.032563,-11.970603,1.0571922,0.3073506,-0.31739965,0.14798264,0.88481313,-1.9375863,1.9320631,-0.31199646,-0.5269342,-4.3592954,0.04118814,0
0.11999999999999998,10.244119665068858,-0.5934955411362086,-4.8971681737076915,0.11661809703348328,11.489616,-3.6846724,4.1006937,-0.21323237,13.01295,-11.951051,1.0539714,0.30949706,-0.298633,0.13889524,0.89204144,-1.9848996,1.9779527,-0.33168602,-0.5373015,-4.4431777,0.04488951,0
0.12999999999999998,13.059702852835816,-0.2509813933110921,-3.08344549531755,-0.04461580061431459,12.320133,-3.1627207,4.082723,-0.49686986,12.992876,-11.931052,1.0505682,0.3115119,-0.27938512,0.12958182,0.898951,-2.0297122,2.0213,-0.3485127,-0.5460525,-4.513979,0.048409246,0
0.13999999999999999,13.059702852835816,-0.2509813933110921,-3.08344549531755,-0.04461580061431459,12.320133,-3.1627207,4.082723,-0.49686986,12.972306,-11.910577,1.0471253,0.31334838,-0.26032734,0.120414615,0.9052861,-2.0835063,2.0731838,-0.33952773,-0.50005615,-4.290885,0.043844484,0
0.15,13.059702852835816,-0.2509813933110921,-3.08344549531755,-0.04461580061431459,12.320133,-3.1627207,4.082723,-0.49686986,12.951217,-11.889601,1.0437883,0.31498992,-0.24201286,0.11169821,0.91089773,-2.1339622,2.1217217,-0.3273941,-0.46123022,-4.102583,0.039503712,0
0.16,14.850609191395431,0.06131835843055444,-0.6248546517894931,-0.07455018330884383,14.520216,-2.3171878,4.443622,-0.79927945,12.929639,-11.8681555,1.0405871,0.31646267,-0.22432987,0.10336437,0.91588396,-2.1811235,2.1669965,-0.3124481,-0.42845672,-3.9436471,0.035375934,0
0.17,14.850609191395431,0.06131835843055444,-0.6248546517894931,-0.07455018330884383,14.520216,-2.3171878,4.443622,-0.79927945,12.907575,-11.846243,1.037627,0.31772286,-0.2080483,0.09578146,0.92010546,-2.2310915,2.2148926,-0.27916783,-0.35210052,-3.4260802,0.029981826,0
0.18000000000000002,14.850609191395431,0.06131835843055444,-0.6248546517894931,-0.07455018330884383,14.520216,-2.3171878,4.443622,-0.79927945,12.885029,-11.823869,1.0350119,0.3187569,-0.19378532,0.089243725,0.92351335,-2.277714,2.2595522,-0.24353655,-0.28764668,-2.9892287,0.024852421,0
0.19000000000000003,14.850609191395431,0.06131835843055444,-0.6248546517894931,-0.07455018330884383,14.520216,-2.3171878,4.443622,-0.79927945,12.862031,-11.801062,1.0327629,0.3196195,-0.1812414,0.08359499,0.9262866,-2.321353,2.3013682,-0.2059911,-0.23324016,-2.6205041,0.019974714,0
0.20000000000000004,16.035770701637563,0.27951124550691986,1.2110276786509198,-0.09406239287577166,14.953941,-1.7556262,4.5802727,-0.862468,12.838611,-11.77785,1.0308974,0.32035178,-0.17015862,0.07870117,0.92856175,-2.3623264,2.340684,-0.16687436,-0.18731488,-2.3092825,0.015336347,0
0.21000000000000005,16.035770701637563,0.27951124550691986,1.2110276786509198,-0.09406239287577166,14.953941,-1.7556262,4.5802727,-0.862468,12.814776,-11.754242,1.0294849,0.32094657,-0.16097179,0.07476416,0.930318,-2.404025,2.3807926,-0.11542092,-0.11452532,-1.7602912,0.0099681225,0
0.22000000000000006,16.035770701637563,0.27951124550691986,1.2110276786509198,-0.09406239287577166,14.953941,-1.7556262,4.5802727,-0.862468,12.790538,-11.730242,1.0285923,0.32140496,-0.15401568,0.07193882,0.93155926,-2.4436703,2.4190648,-0.062930174,-0.053082995,-1.2969153,0.004863321,0
0.23000000000000007,16.035770701637563,0.27951124550691986,1.2110276786509198,-0.09406239287577166,14.953941,-1.7556262,4.5802727,-0.862468,12.765909,-11.705866,1.0282286,0.32176262,-0.14894924,0.0700548,0.93240285,-2.4817545,2.456007,-0.009705425,-0.0012193769,-0.90580285,9.014853e-06,0
0.24000000000000007,16.035770701637563,0.27951124550691986,1.2110276786509198,-0.09406239287577166,15.002857,-1.8701494,5.110101,-1.0270461,12.740906,-11.681125,1.0284,0.32204485,-0.14548185,0.068967015,0.93293387,-2.5186992,2.4920516,0.044017937,0.04255877,-0.5756843,-0.0046070926,0
0.25000000000000006,16.035770701637563,0.27951124550691986,1.2110276786509198,-0.09406239287577166,15.002857,-1.8701494,5.110101,-1.0270461,12.715537,-11.656027,1.0291102,0.3222697,-0.14336647,0.0685522,0.9332142,-2.5548635,2.5275671,0.09805388,0.079511315,-0.29704788,-0.008996681,0
0.26000000000000006,16.035770701637563,0.27951124550691986,1.2110276786509198,-0.09406239287577166,15.002857,-1.8701494,5.110101,-1.0270461,12.68981,-11.630574,1.0303617,0.32245013,-0.14239344,0.0687058,0.93328947,-2.590552,2.5628655,0.15225264,0.11070241,-0.06186489,-0.013170883,0
0.2700000000000001,16.035770701637563,0.27951124550691986,1.2110276786509198,-0.09406239287577166,15.002857,-1.8701494,5.110101,-1.0270461,12.663727,-11.60477,1.0321554,0.32259545,-0.14238508,0.06933916,0.9331937,-2.626023,2.5982118,0.20649122,0.1370301,0.1366414,-0.01714025,0
0.2800000000000001,16.715419122563986,0.4412341856217898,2.6462346545459274,-0.10555928667202569,12.973803,-0.97702944,5.615911,-1.2397543,12.637289,-11.578609,1.0344914,0.32271242,-0.14319092,0.07037727,0.93295217,-2.6614945,2.6338289,0.2606665,0.15925254,0.3041907,-0.020914843,0
0.2900000000000001,16.715419122563986,0.4412341856217898,2.6462346545459274,-0.10555928667202569,12.973803,-0.97702944,5.615911,-1.2397543,12.610489,-11.552083,1.0374006,0.32277566,-0.14519854,0.07200207,0.93249595,-2.69869,2.6714635,0.32112426,0.20323396,0.66942996,-0.025068352,0
0.3000000000000001,16.715419122563986,0.4412341856217898,2.6462346545459274,-0.10555928667202569,12.973803,-0.97702944,5.615911,-1.2397543,12.583314,-11.525176,1.0409126,0.32276213,-0.14870708,0.07435394,0.9317629,-2.7364595,2.70996,0.3812388,0.24035744,0.97771025,-0.029018072,0
0.3100000000000001,16.715419122563986,0.4412341856217898,2.6462346545459274,-0.10555928667202569,12.973803,-0.97702944,5.615911,-1.2397543,12.555757,-11.497878,1.0450234,0.32267833,-0.15347941,0.07731783,0.9307763,-2.7751553,2.7496724,0.44082776,0.27169207,1.2379143,-0.03277398,0
0.3200000000000001,17.52249459125405,0.5167278169726541,3.5438794851669106,-0.1016389187745282,12.116507,-1.0530127,5.5742106,-1.1460516,12.527806,-11.470178,1.0497268,0.32252818,-0.15931451,0.080796145,0.92955166,-2.8150713,2.7908955,0.499723,0.2981401,1.4575397,-0.036345582,0
0.3300000000000001,17.52249459125405,0.5167278169726541,3.5438794851669106,-0.1016389187745282,12.116507,-1.0530127,5.5742106,-1.1460516,12.499439,-11.442045,1.0550528,0.3222885,-0.16636568,0.08484995,0.9280371,-2.8584676,2.8359668,0.5652949,0.3322402,1.7829018,-0.039549544,0
0.34000000000000014,17.52249459125405,0.5167278169726541,3.5438794851669106,-0.1016389187745282,12.116507,-1.0530127,5.5742106,-1.1460516,12.47063,-11.413451,1.061029,0.32193604,-0.17474282,0.08952207,0.9261791,-2.903753,2.8832245,0.6297336,0.361022,2.0575237,-0.04259629,0
0.35000000000000014,17.52249459125405,0.5167278169726541,3.5438794851669106,-0.1016389187745282,12.116507,-1.0530127,5.5742106,-1.1460516,12.441357,-11.384373,1.0676427,0.32147244,-0.18422958,0.094711095,0.923983,-2.951239,2.9329722,0.6927945,0.3853149,2.2893188,-0.04549354,0
0.36000000000000015,17.795980784312672,0.5073176048111597,3.7360372990805195,-0.08606799221020055,11.252846,-0.7525399,5.084208,-1.3229469,12.411595,-11.354783,1.0748792,0.3208983,-0.19464211,0.100330755,0.92145115,-3.001179,2.9854555,0.7542374,0.405819,2.4849653,-0.048248608,0
0.37000000000000016,17.795980784312672,0.5073176048111597,3.7360372990805195,-0.08606799221020055,11.252846,-0.7525399,5.084208,-1.3229469,12.381318,-11.324649,1.0827333,0.32020327,-0.20589581,0.106329106,0.91856986,-3.0545979,3.041737,0.8162836,0.42165697,2.6800683,-0.050104417,0
0.38000000000000017,17.795980784312672,0.5073176048111597,3.7360372990805195,-0.08606799221020055,11.252846,-0.7525399,5.084208,-1.3229469,12.3504925,-11.293937,1.0911974,0.31937742,-0.21791364,0.1126603,0.91532457,-3.1109042,3.101172,0.8761862,0.43502432,2.8447452,-0.05186916,0
0.3900000000000002,17.795980784312672,0.5073176048111597,3.7360372990805195,-0.08606799221020055,11.252846,-0.7525399,5.084208,-1.3229469,12.31909,-11.262614,1.1002487,0.3184215,-0.23056105,0.11926451,0.9117154,-3.1702495,3.1638973,0.93368566,0.4463063,2.9837408,-0.053547304,0
0.4000000000000002,17.266626775602205,0.3828842267903967,3.2210058042133576,-0.06671772741880039,10.976601,-1.4838415,5.5776157,-0.55111307,12.287077,-11.230648,1.1098619,0.3173365,-0.24372338,0.12609059,0.9077429,-3.2327447,3.2300112,0.9885257,0.4558283,3.1010602,-0.055143114,0
0.4100000000000002,17.266626775602205,0.3828842267903967,3.2210058042133576,-0.06671772741880039,10.976601,-1.4838415,5.5776157,-0.55111307,12.254434,-11.198012,1.1199868,0.316136,-0.25713205,0.13298523,0.90346867,-3.2965014,3.297499,1.0359999,0.44445458,3.1197655,-0.055711076,0
0.4200000000000002,17.266626775602205,0.3828842267903967,3.2210058042133576,-0.06671772741880039,10.976601,-1.4838415,5.5776157,-0.55111307,12.221137,-11.164686,1.1305716,0.31483462,-0.27057153,0.13982607,0.89895403,-3.3633685,3.3682902,1.0804787,0.43485427,3.1355543,-0.056251187,0
0.4300000000000002,17.266626775602205,0.3828842267903967,3.2210058042133576,-0.06671772741880039,10.976601,-1.4838415,5.5776157,-0.55111307,12.187156,-11.130635,1.1415856,0.3134347,-0.28402275,0.14661431,0.8941999,-3.4333067,3.4423172,1.1218058,0.42675093,3.1488807,-0.05676479,0
0.4400000000000002,17.266626775602205,0.3828842267903967,3.2210058042133576,-0.06671772741880039,10.339861,-1.0923347,5.265658,-0.46048057,12.15246,-11.095828,1.1529964,0.31193832,-0.29746914,0.15335073,0.8892073,-3.5062678,3.5195086,1.1598285,0.41991153,3.1601288,-0.05725318,0
0.45000000000000023,17.266626775602205,0.3828842267903967,3.2210058042133576,-0.06671772741880039,10.339861,-1.0923347,5.265658,-0.46048057,12.117021,-11.060234,1.1647702,0.31034753,-0.31089616,0.16003563,0.8839774,-3.5821965,3.5997884,1.1943983,0.4141386,3.1696227,-0.0577176,0
0.46000000000000024,17.266626775602205,0.3828842267903967,3.2210058042133576,-0.06671772741880039,10.339861,-1.0923347,5.265658,-0.46048057,12.080807,-11.023822,1.1768719,0.30866423,-0.32429087,0.166669,0.8785116,-3.6610303,3.683077,1.22537,0.40926546,3.177636,-0.05815922,0
0.47000000000000025,17.266626775602205,0.3828842267903967,3.2210058042133576,-0.06671772741880039,10.339861,-1.0923347,5.265658,-0.46048057,12.04379,-10.986563,1.1892648,0.30689016,-0.33764207,0.17325057,0.8728115,-3.7426996,3.7692914,1.2526032,0.40515244,3.1843994,-0.05857919,0
0.48000000000000026,16.316310169720396,0.17707331968110454,2.1634153324280976,-0.04964452177317067,10.144415,-0.8623571,4.9322023,-0.00068282336,12.005942,-10.948426,1.2019107,0.30502704,-0.35093957,0.17977986,0.8668786,-3.8271308,3.8583446,1.2759614,0.40168068,3.1901083,-0.05897857,0
0.49000000000000027,16.316310169720396,0.17707331968110454,2.1634153324280976,-0.04964452177317067,10.144415,-0.8623571,4.9322023,-0.00068282336,11.967261,-10.90941,1.2147378,0.3031237,-0.3638346,0.18605764,0.86088467,-3.9094365,3.9450774,1.2888716,0.3666464,3.0299976,-0.058520544,0
0.5000000000000002,16.316310169720396,0.17707331968110454,2.1634153324280976,-0.04964452177317067,10.144415,-0.8623571,4.9322023,-0.00068282336,11.927746,-10.869515,1.2276752,0.30122605,-0.37605906,0.19193079,0.854988,-3.9940999,4.034198,1.2980561,0.33707657,2.8948557,-0.058085002,0
0.5100000000000002,16.316310169720396,0.17707331968110454,2.1634153324280976,-0.04964452177317067,10.144415,-0.8623571,4.9322023,-0.00068282336,11.887373,-10.828718,1.2406862,0.29933056,-0.38771257,0.19746032,0.8491696,-4.080952,4.125504,1.3035915,0.31211922,2.7807891,-0.057670828,0
0.5200000000000002,15.29278931872274,-0.10038319459112098,0.81373213383395,-0.04060209310889916,9.3301735,-0.3808677,3.6138067,-0.036261134,11.84612,-10.786998,1.2537347,0.29743367,-0.3988784,0.20269735,0.84341127,-4.1698465,4.2188225,1.305542,0.29105458,2.6845107,-0.057276983,0
0.5300000000000002,15.29278931872274,-0.10038319459112098,0.81373213383395,-0.04060209310889916,9.3301735,-0.3808677,3.6138067,-0.036261134,11.803997,-10.744365,1.2667546,0.29559812,-0.40920636,0.20743233,0.8379399,-4.2549434,4.308013,1.2979364,0.229998,2.3927662,-0.056458738,0
0.5400000000000003,15.29278931872274,-0.10038319459112098,0.81373213383395,-0.04060209310889916,9.3301735,-0.3808677,3.6138067,-0.036261134,11.761015,-10.700832,1.2796831,0.2938795,-0.41843238,0.21150666,0.83295476,-4.341629,4.39869,1.2872956,0.17846508,2.1465187,-0.055680662,0
0.5500000000000003,15.29278931872274,-0.10038319459112098,0.81373213383395,-0.04060209310889916,9.3301735,-0.3808677,3.6138067,-0.036261134,11.717159,-10.656386,1.2924911,0.29226375,-0.42673486,0.21502751,0.8283973,-4.429722,4.4906244,1.2738947,0.13497043,1.9386733,-0.054940745,0
0.5600000000000003,13.692422129345381,-0.3843105793450739,-0.5896143487848478,-0.051422080411328085,8.098644,-0.28321555,1.7589025,-0.10897917,11.672417,-10.611016,1.3051523,0.2907374,-0.43426242,0.21808428,0.82421285,-4.5190735,4.5836267,1.2579725,0.09826009,1.7632407,-0.05423713,0
0.5700000000000003,13.692422129345381,-0.3843105793450739,-0.5896143487848478,-0.051422080411328085,8.098644,-0.28321555,1.7589025,-0.10897917,11.6268215,-10.564761,1.3176007,0.28936335,-0.44071156,0.22049513,0.820624,-4.600084,4.6676974,1.2314081,0.02299034,1.396317,-0.05409899,0
0.5800000000000003,13.692422129345381,-0.3843105793450739,-0.5896143487848478,-0.051422080411328085,8.098644,-0.28321555,1.7589025,-0.10897917,11.580411,-10.517661,1.3297749,0.28819385,-0.4458536,0.22212273,0.8178142,-4.6819453,4.7523594,1.2031593,-0.040539075,1.0866143,-0.053967644,0
0.5900000000000003,13.692422129345381,-0.3843105793450739,-0.5896143487848478,-0.051422080411328085,8.098644,-0.28321555,1.7589025,-0.10897917,11.533179,-10.469712,1.3416595,0.2872012,-0.449901,0.22309425,0.81567955,-4.764511,4.837412,1.1735942,-0.09415946,0.8252093,-0.053842742,0
0.6000000000000003,12.694064950406771,-0.6232179330146499,-1.7430817647105628,-0.041539685175148014,6.9191914,-0.84030545,0.79092443,0.37131822,11.485119,-10.420911,1.3532434,0.2863602,-0.45303032,0.22351551,0.8141265,-4.8476644,4.922693,1.1430286,-0.13941625,0.60457,-0.053723972,0
0.6100000000000003,12.694064950406771,-0.6232179330146499,-1.7430817647105628,-0.041539685175148014,6.9191914,-0.84030545,0.79092443,0.37131822,11.4362545,-10.371289,1.3644933,0.28570735,-0.45503995,0.22326545,0.81330323,-4.9252033,5.001832,1.1068846,-0.21487771,0.23845756,-0.053126086,0
0.6200000000000003,12.694064950406771,-0.6232179330146499,-1.7430817647105628,-0.041539685175148014,6.9191914,-0.84030545,0.79092443,0.37131822,11.386612,-10.320875,1.3753802,0.28526923,-0.45577687,0.22225249,0.8133218,-5.00307,5.080875,1.0704528,-0.2785688,-0.07056027,-0.052557535,0
0.6300000000000003,12.694064950406771,-0.6232179330146499,-1.7430817647105628,-0.041539685175148014,6.9191914,-0.84030545,0.79092443,0.37131822,11.336191,-10.269672,1.3859028,0.28501055,-0.4554395,0.22059643,0.814052,-5.081149,5.159654,1.0340896,-0.33232558,-0.33138734,-0.0520169,0
0.6400000000000003,12.694064950406771,-0.6232179330146499,-1.7430817647105628,-0.041539685175148014,6.360248,-0.75542605,-0.17712693,0.43934587,11.284988,-10.217684,1.3960632,0.2849002,-0.45419276,0.21839705,0.81537914,-5.1593432,5.238028,0.9980949,-0.3776975,-0.55153894,-0.051502783,0
0.6500000000000004,12.694064950406771,-0.6232179330146499,-1.7430817647105628,-0.041539685175148014,6.360248,-0.75542605,-0.17712693,0.43934587,11.233004,-10.164913,1.4058667,0.28491092,-0.45217407,0.21573766,0.81720334,-5.2375684,5.315875,0.9627208,-0.41599217,-0.7373582,-0.051013883,0
0.6600000000000004,12.694064950406771,-0.6232179330146499,-1.7430817647105628,-0.041539685175148014,6.360248,-0.75542605,-0.17712693,0.43934587,11.180237,-10.111368,1.4153205,0.2850194,-0.44949844,0.21268798,0.819438,-5.31575,5.3930893,0.92817706,-0.4483137,-0.89419925,-0.05054898,0
0.6700000000000004,12.694064950406771,-0.6232179330146499,-1.7430817647105628,-0.041539685175148014,6.360248,-0.75542605,-0.17712693,0.43934587,11.126688,-10.0570545,1.4244337,0.28520554,-0.4462623,0.20930657,0.8220086,-5.3938227,5.469577,0.89463764,-0.47559407,-1.0265812,-0.050106887,0
0.6800000000000004,12.383498739714062,-0.7961760512110646,-2.5065724941267136,-0.0252673284527844,5.3453336,-0.6073931,-1.0477784,0.12188854,11.072361,-10.00198,1.4332172,0.28545225,-0.4425467,0.2056426,0.8248516,-5.471727,5.545255,0.86224574,-0.49861938,-1.1383184,-0.049686495,0
0.6900000000000004,12.383498739714062,-0.7961760512110646,-2.5065724941267136,-0.0252673284527844,5.3453336,-0.6073931,-1.0477784,0.12188854,11.017264,-9.946161,1.4416747,0.28577495,-0.43818632,0.20159371,0.828061,-5.547502,5.6182113,0.8294944,-0.54502904,-1.3516959,-0.048488237,0
0.7000000000000004,12.383498739714062,-0.7961760512110646,-2.5065724941267136,-0.0252673284527844,5.3453336,-0.6073931,-1.0477784,0.12188854,10.961411,-9.889618,1.4498119,0.286182,-0.43304983,0.19707946,0.8317013,-5.62297,5.6901774,0.7981788,-0.58419985,-1.5317975,-0.047348775,0
0.7100000000000004,12.383498739714062,-0.7961760512110646,-2.5065724941267136,-0.0252673284527844,5.3453336,-0.6073931,-1.0477784,0.12188854,10.904806,-9.832361,1.457644,0.2866505,-0.4272458,0.19216749,0.8356816,-5.6980424,5.7610316,0.76847863,-0.61726075,-1.6838125,-0.04626522,0
0.7200000000000004,13.254173296279012,-0.8964294501683552,-2.876438185601777,-0.00044088512221771226,5.9231224,-0.28008196,-1.4424205,0.16744149,10.847452,-9.774402,1.4651877,0.28716105,-0.42086574,0.18691483,0.8399244,-5.772636,5.8306613,0.74053717,-0.64516515,-1.812121,-0.045234837,0
0.7300000000000004,13.254173296279012,-0.8964294501683552,-2.876438185601777,-0.00044088512221771226,5.9231224,-0.28008196,-1.4424205,0.16744149,10.789329,-9.715728,1.4724864,0.2877049,-0.41387305,0.18129458,0.8444329,-5.851874,5.903761,0.71953815,-0.68435174,-1.9781004,-0.04303679,0
0.7400000000000004,13.254173296279012,-0.8964294501683552,-2.876438185601777,-0.00044088512221771226,5.9231224,-0.28008196,-1.4424205,0.16744149,10.730416,-9.656331,1.4795858,0.2882721,-0.4062404,0.1752871,0.8492008,-5.930413,5.9753003,0.70068717,-0.7174262,-2.1181958,-0.040946588,0
0.7500000000000004,13.254173296279012,-0.8964294501683552,-2.876438185601777,-0.00044088512221771226,5.9231224,-0.28008196,-1.4424205,0.16744149,10.670722,-9.596228,1.486508,0.28884587,-0.39805192,0.16894697,0.8541541,-6.0081506,6.0451474,0.68410224,-0.745342,-2.2364433,-0.038958956,0
0.7600000000000005,14.179545467228309,-0.9326289532248995,-2.8774383468253983,0.03742774358626109,9.030506,0.9715991,-1.5103637,-0.06465467,10.610256,-9.535435,1.493276,0.28941205,-0.3893791,0.16232048,0.85923,-6.084991,6.1131797,0.66986924,-0.7689036,-2.3362505,-0.03706887,0
0.7700000000000005,14.179545467228309,-0.9326289532248995,-2.8774383468253983,0.03742774358626109,9.030506,0.9715991,-1.5103637,-0.06465467,10.548999,-9.473948,1.4999436,0.28994942,-0.38028607,0.15543632,0.8643789,-6.166136,6.1838975,0.66406995,-0.7944328,-2.4206495,-0.033413302,0
0.7800000000000005,14.179545467228309,-0.9326289532248995,-2.8774383468253983,0.03742774358626109,9.030506,0.9715991,-1.5103637,-0.06465467,10.486936,-9.411764,1.5065664,0.29044008,-0.37082714,0.14831969,0.8695589,-6.246128,6.252433,0.660886,-0.8159803,-2.491887,-0.029937122,0
0.7900000000000005,14.179545467228309,-0.9326289532248995,-2.8774383468253983,0.03742774358626109,9.030506,0.9715991,-1.5103637,-0.06465467,10.424079,-9.3489065,1.5131704,0.290878,-0.36104587,0.14100258,0.87473065,-6.3248773,6.3186755,0.6603323,-0.83416724,-2.5520148,-0.02663152,0
0.8000000000000005,14.241695274843112,-0.840773853123195,-2.537885491948756,0.05477084800115999,10.77182,1.5134854,-1.517937,-0.10969084,10.360441,-9.285399,1.519782,0.29125825,-0.35097975,0.13351226,0.8798613,-6.4022975,6.3825226,0.6624049,-0.84951794,-2.6027658,-0.023488108,0
0.8100000000000005,14.241695274843112,-0.840773853123195,-2.537885491948756,0.05477084800115999,10.77182,1.5134854,-1.517937,-0.10969084,10.296035,-9.221264,1.5264297,0.29157034,-0.34077033,0.12594517,0.88487273,-6.47864,6.444153,0.6675276,-0.8481475,-2.5926497,-0.01964792,0
0.8200000000000005,14.241695274843112,-0.840773853123195,-2.537885491948756,0.05477084800115999,10.77182,1.5134854,-1.517937,-0.10969084,10.230874,-9.156525,1.5331414,0.2918079,-0.33053443,0.118380144,0.8897083,-6.5535083,6.5032353,0.6751884,-0.8469912,-2.5841115,-0.015996177,0
0.8300000000000005,14.241695274843112,-0.840773853123195,-2.537885491948756,0.05477084800115999,10.77182,1.5134854,-1.517937,-0.10969084,10.164971,-9.0912075,1.539942,0.29197273,-0.32026872,0.11081531,0.8943709,-6.6268544,6.5597324,0.68530035,-0.8460156,-2.5769045,-0.012523615,0
0.8400000000000005,14.241695274843112,-0.840773853123195,-2.537885491948756,0.05477084800115999,11.459135,1.7522361,-1.5171721,-0.1827237,10.098342,-9.025338,1.5468556,0.29206648,-0.30997056,0.10324921,0.89886296,-6.69863,6.6136084,0.69777656,-0.8451925,-2.5708213,-0.009221457,0
0.8500000000000005,14.241695274843112,-0.840773853123195,-2.537885491948756,0.05477084800115999,11.459135,1.7522361,-1.5171721,-0.1827237,10.031005,-8.958944,1.5539054,0.29209054,-0.29963803,0.09568077,0.903186,-6.7687874,6.6648283,0.7125301,-0.84449804,-2.5656867,-0.0060813357,0
0.8600000000000005,14.241695274843112,-0.840773853123195,-2.537885491948756,0.05477084800115999,11.459135,1.7522361,-1.5171721,-0.1827237,9.962973,-8.892051,1.5611137,0.29204622,-0.28926975,0.088109255,0.90734136,-6.83728,6.7133584,0.7294739,-0.84391254,-2.5613527,-0.0030952846,0
0.8700000000000006,14.241695274843112,-0.840773853123195,-2.537885491948756,0.05477084800115999,11.459135,1.7522361,-1.5171721,-0.1827237,9.894264,-8.824686,1.5685021,0.29193458,-0.27886492,0.08053419,0.91133,-6.9040613,6.7591667,0.7485203,-0.8434183,-2.5576944,-0.0002557821,0
0.8800000000000006,13.673229228888367,-0.6808060260835892,-2.042153653740103,0.06860203542396999,11.225946,1.3993573,-1.5537444,-0.30895382,9.824897,-8.756877,1.576091,0.29175666,-0.26842305,0.07295537,0.91515255,-6.969086,6.8022237,0.76958114,-0.8430014,-2.554607,0.0024443953,0
0.8900000000000006,13.673229228888367,-0.6808060260835892,-2.042153653740103,0.06860203542396999,11.225946,1.3993573,-1.5537444,-0.30895382,9.754901,-8.688659,1.5838763,0.29151535,-0.25810757,0.065489896,0.9187546,-7.029793,6.840902,0.7877283,-0.8177018,-2.4746916,0.0056907744,0
0.9000000000000006,13.673229228888367,-0.6808060260835892,-2.042153653740103,0.06860203542396999,11.225946,1.3993573,-1.5537444,-0.30895382,9.684306,-8.620068,1.5918515,0.29121587,-0.24805096,0.058231425,0.92210245,-7.0887766,6.8769565,0.80759335,-0.79634845,-2.4072392,0.0087778475,0
0.9100000000000006,13.673229228888367,-0.6808060260835892,-2.042153653740103,0.06860203542396999,11.225946,1.3993573,-1.5537444,-0.30895382,9.613131,-8.551128,1.6000335,0.29086193,-0.23821099,0.05114823,0.92522347,-7.1460466,6.910435,0.8290511,-0.7783257,-2.3503056,0.01171344,0
0.9200000000000006,12.145654439121074,-0.45315144022832576,-1.3744207586577337,0.0697094345072816,11.367548,1.7278217,-1.2999144,-0.4183917,9.541391,-8.481867,1.6084377,0.29045644,-0.22855191,0.04421345,0.9281401,-7.2016096,6.941379,0.85198843,-0.76311386,-2.3022506,0.014504976,0
0.9300000000000006,12.145654439121074,-0.45315144022832576,-1.3744207586577337,0.0697094345072816,11.367548,1.7278217,-1.2999144,-0.4183917,9.469135,-8.412325,1.6170096,0.2900116,-0.2192657,0.037566755,0.9308084,-7.249459,6.9666557,0.8626201,-0.71477294,-2.1575568,0.017213874,0
0.9400000000000006,12.145654439121074,-0.45315144022832576,-1.3744207586577337,0.0697094345072816,11.367548,1.7278217,-1.2999144,-0.4183917,9.396408,-8.342541,1.6256937,0.28954065,-0.21050553,0.03131805,0.9332056,-7.2958546,6.989825,0.87434614,-0.67397106,-2.0354276,0.019789848,0
0.9500000000000006,12.145654439121074,-0.45315144022832576,-1.3744207586577337,0.0697094345072816,11.367548,1.7278217,-1.2999144,-0.4183917,9.323223,-8.272534,1.6345,0.28904644,-0.20219056,0.025406156,0.93537456,-7.3408575,7.010997,0.8870509,-0.6395325,-1.9323446,0.022239434,0
0.9600000000000006,10.735692549852565,-0.2348575947927875,-0.8502165439121673,0.05995283955027381,10.497044,1.9251902,-1.1562113,-0.62126184,9.249595,-8.202328,1.6434379,0.28853098,-0.19425197,0.01977925,0.93734986,-7.384519,7.030266,0.9006364,-0.610465,-1.8453372,0.02456882,0
0.9700000000000006,10.735692549852565,-0.2348575947927875,-0.8502165439121673,0.05995283955027381,10.497044,1.9251902,-1.1562113,-0.62126184,9.175562,-8.131947,1.6524504,0.28801012,-0.18680318,0.0145356925,0.9391184,-7.4219704,7.0456953,0.9019574,-0.5518899,-1.6901484,0.026305124,0
0.9800000000000006,10.735692549852565,-0.2348575947927875,-0.8502165439121673,0.05995283955027381,10.497044,1.9251902,-1.1562113,-0.62126184,9.10116,-8.061419,1.6614791,0.28749833,-0.17993213,0.009751167,0.94067734,-7.458348,7.059642,0.9038944,-0.50244933,-1.5591612,0.027956238,0
0.9900000000000007,10.735692549852565,-0.2348575947927875,-0.8502165439121673,0.05995283955027381,10.497044,1.9251902,-1.1562113,-0.62126184,9.026399,-7.9907584,1.67053,0.28699464,-0.17355025,0.005354569,0.9420645,-7.4937215,7.0722237,0.9063712,-0.46071905,-1.4486014,0.029526327,0
1.0000000000000007,9.952103854840844,-0.045854318114752726,-0.36525754828518503,0.04299862808032399,9.714869,1.7008774,-0.85610634,-0.5883428,8.951289,-7.919978,1.6796081,0.28649765,-0.16758221,0.0012857628,0.9433099,-7.5281506,7.083542,0.9093248,-0.42549646,-1.3552833,0.03101937,0
1.0100000000000007,9.952103854840844,-0.045854318114752726,-0.36525754828518503,0.04299862808032399,9.714869,1.7008774,-0.85610634,-0.5883428,8.875852,-7.8490944,1.6886809,0.28602064,-0.16212581,-0.0023794859,0.94440544,-7.5592427,7.0929484,0.9052942,-0.36629423,-1.2008883,0.031607192,0
1.0200000000000007,9.952103854840844,-0.045854318114752726,-0.36525754828518503,0.04299862808032399,9.714869,1.7008774,-0.85610634,-0.5883428,8.800107,-7.778122,1.697715,0.28557536,-0.15725575,-0.005583874,0.9453497,-7.5895844,7.101387,0.9016002,-0.31632408,-1.0705712,0.03216618,0
1.0300000000000007,9.952103854840844,-0.045854318114752726,-0.36525754828518503,0.04299862808032399,9.714869,1.7008774,-0.85610634,-0.5883428,8.724063,-7.7070694,1.7067139,0.285158,-0.15288179,-0.008399187,0.946172,-7.6192474,7.1089706,0.8981941,-0.27414647,-0.96057683,0.032697726,0
1.0400000000000007,9.952103854840844,-0.045854318114752726,-0.36525754828518503,0.04299862808032399,10.350636,1.9268286,-0.31966692,-0.6404115,8.647725,-7.6359453,1.7156799,0.28476495,-0.14892736,-0.010886053,0.9468955,-7.648293,7.1157956,0.8950368,-0.23854625,-0.8677365,0.033203203,0
1.0500000000000007,9.952103854840844,-0.045854318114752726,-0.36525754828518503,0.04299862808032399,10.350636,1.9268286,-0.31966692,-0.6404115,8.571099,-7.564756,1.7246153,0.28439274,-0.14532766,-0.013095663,0.9475385,-7.6767745,7.121943,0.8920967,-0.20849746,-0.7893746,0.03368387,0
1.0600000000000007,9.952103854840844,-0.045854318114752726,-0.36525754828518503,0.04299862808032399,10.350636,1.9268286,-0.31966692,-0.6404115,8.494192,-7.4935083,1.7335224,0.28403836,-0.14202777,-0.0150712365,0.94811565,-7.7047358,7.127481,0.889348,-0.18313457,-0.72323316,0.034140963,0
1.0700000000000007,9.952103854840844,-0.045854318114752726,-0.36525754828518503,0.04299862808032399,10.350636,1.9268286,-0.31966692,-0.6404115,8.417006,-7.422208,1.7424029,0.28369907,-0.13898122,-0.016849257,0.9486387,-7.732215,7.132468,0.8867697,-0.16172683,-0.66740674,0.03457561,0
1.0800000000000007,9.751883436428106,0.09836808842438738,-0.07526482560216766,0.015492586305464025,10.001757,1.3294226,-0.12976114,-0.6064731,8.339548,-7.35086,1.7512584,0.28337237,-0.13614874,-0.018460516,0.94911695,-7.759244,7.1369534,0.8843446,-0.14365746,-0.6202863,0.034988925,0
1.0900000000000007,9.751883436428106,0.09836808842438738,-0.07526482560216766,0.015492586305464025,10.001757,1.3294226,-0.12976114,-0.6064731,8.261826,-7.279471,1.7600808,0.2830695,-0.13359083,-0.01984381,0.94954276,-7.785319,7.140902,0.88012975,-0.105916,-0.5352895,0.034032226,0
1.1000000000000008,9.751883436428106,0.09836808842438738,-0.07526482560216766,0.015492586305464025,10.001757,1.3294226,-0.12976114,-0.6064731,8.183844,-7.208044,1.7688615,0.28279987,-0.13135391,-0.020952059,0.94991124,-7.8110228,7.144471,0.8760323,-0.074059874,-0.4635481,0.03312247,0
1.1100000000000008,9.751883436428106,0.09836808842438738,-0.07526482560216766,0.015492586305464025,10.001757,1.3294226,-0.12976114,-0.6064731,8.105607,-7.136583,1.7776017,0.28255907,-0.12938818,-0.021828258,0.9502329,-7.836396,7.1477256,0.8720361,-0.04717132,-0.40299505,0.032257367,0
1.1200000000000008,10.020158090760214,0.24988662382105575,0.3795851213525536,-0.021955948872480646,9.857725,1.2831426,-0.03603117,-0.59695184,8.027118,-7.06509,1.7863026,0.28234315,-0.12765154,-0.022508683,0.95051605,-7.861472,7.150721,0.86812806,-0.024475746,-0.35188517,0.031434715,0
1.1300000000000008,10.020158090760214,0.24988662382105575,0.3795851213525536,-0.021955948872480646,9.857725,1.2831426,-0.03603117,-0.59695184,7.948375,-6.9935684,1.7949777,0.28216505,-0.12626423,-0.022915512,0.9507445,-7.8869677,7.1535883,0.86688936,0.018308194,-0.23781185,0.028814824,0
1.1400000000000008,10.020158090760214,0.24988662382105575,0.3795851213525536,-0.021955948872480646,9.857725,1.2831426,-0.03603117,-0.59695184,7.8693795,-6.922019,1.8036406,0.28203556,-0.12531978,-0.022988757,0.95090616,-7.9122515,7.1563287,0.8657098,0.054420613,-0.14152846,0.026323494,0
1.1500000000000008,10.020158090760214,0.24988662382105575,0.3795851213525536,-0.021955948872480646,9.857725,1.2831426,-0.03603117,-0.59695184,7.790132,-6.850442,1.8122919,0.28194842,-0.12474926,-0.022780646,0.951012,-7.937384,7.159027,0.8645706,0.084901996,-0.0602607,0.023954408,0
1.1600000000000008,10.127972544592323,0.32684825969478043,0.43805818674747193,-0.07369787207344575,11.39813,0.8666643,0.53307384,-0.43641555,7.710633,-6.778838,1.820932,0.2818982,-0.1244944,-0.02233523,0.9510709,-7.9624157,7.1617556,0.86345667,0.1106302,0.0083333105,0.021701578,0
1.1700000000000008,10.127972544592323,0.32684825969478043,0.43805818674747193,-0.07369787207344575,11.39813,0.8666643,0.53307384,-0.43641555,7.630882,-6.7072067,1.8295664,0.2818905,-0.12451941,-0.021654582,0.9510856,-7.9876595,7.164606,0.8633986,0.14434853,0.07534861,0.017020304,0
1.1800000000000008,10.127972544592323,0.32684825969478043,0.43805818674747193,-0.07369787207344575,11.39813,0.8666643,0.53307384,-0.43641555,7.550879,-6.6355457,1.8382001,0.28193033,-0.12479329,-0.020742353,0.95105827,-8.012882,7.1676116,0.86334115,0.17280887,0.13191272,0.012568735,0
1.1900000000000008,10.127972544592323,0.32684825969478043,0.43805818674747193,-0.07369787207344575,11.39813,0.8666643,0.53307384,-0.43641555,7.4706244,-6.5638537,1.8468331,0.28201222,-0.12527712,-0.019634947,0.9509939,-8.038117,7.17083,0.86327404,0.19683143,0.1796557,0.008335612,0
1.2000000000000008,10.09562766315989,0.37612450404130005,0.3198414095957264,-0.1305216156873157,7.9034467,0.70517915,-0.75595874,-0.7445301,7.3901167,-6.4921284,1.8554655,0.2821314,-0.12593798,-0.018363077,0.9508966,-8.063389,7.1743083,0.8631882,0.21710783,0.21995282,0.00431021,0
1.2100000000000009,10.09562766315989,0.37612450404130005,0.3198414095957264,-0.1305216156873157,7.9034467,0.70517915,-0.75595874,-0.7445301,7.3093567,-6.4203672,1.8640953,0.28229207,-0.12669747,-0.016948137,0.9507744,-8.088638,7.1780744,0.86276335,0.24190742,0.23552945,-0.0023060204,0
1.2200000000000009,10.09562766315989,0.37612450404130005,0.3198414095957264,-0.1305216156873157,7.9034467,0.70517915,-0.75595874,-0.7445301,7.228344,-6.3485665,1.8727207,0.28249824,-0.12749197,-0.015408555,0.95063317,-8.113949,7.1821704,0.8623091,0.26283962,0.24867679,-0.008597592,0
1.2300000000000009,10.09562766315989,0.37612450404130005,0.3198414095957264,-0.1305216156873157,7.9034467,0.70517915,-0.75595874,-0.7445301,7.1470776,-6.2767224,1.8813415,0.2827459,-0.12831587,-0.013764217,0.95047396,-8.13932,7.1866217,0.8618234,0.28050748,0.2597737,-0.014580445,0
1.2400000000000009,10.09562766315989,0.37612450404130005,0.3198414095957264,-0.1305216156873157,7.8554106,0.5876215,-1.0785897,-0.72128505,7.0655575,-6.204832,1.8899571,0.28303137,-0.12916443,-0.012031896,0.9502976,-8.164753,7.1914506,0.8613039,0.2954199,0.26913995,-0.020269705,0
1.2500000000000009,10.09562766315989,0.37612450404130005,0.3198414095957264,-0.1305216156873157,7.8554106,0.5876215,-1.0785897,-0.72128505,6.9837823,-6.1328917,1.8985674,0.28335142,-0.13003369,-0.010225732,0.95010483,-8.190247,7.1966743,0.86074847,0.30800688,0.2770457,-0.025679804,0
1.260000000000001,10.09562766315989,0.37612450404130005,0.3198414095957264,-0.1305216156873157,7.8554106,0.5876215,-1.0785897,-0.72128505,6.901752,-6.060897,1.9071721,0.28370324,-0.13092025,-0.008357642,0.9498963,-8.215798,7.202308,0.86015487,0.31863087,0.2837185,-0.030824423,0
1.270000000000001,10.09562766315989,0.37612450404130005,0.3198414095957264,-0.1305216156873157,7.8554106,0.5876215,-1.0785897,-0.72128505,6.819466,-5.9888434,1.9157705,0.28408423,-0.1318213,-0.0064376695,0.94967276,-8.241408,7.2083654,0.8595206,0.3275982,0.28935045,-0.035716586,0
1.280000000000001,9.759516329265418,0.3585495951672441,-0.04297227805857309,-0.18993938044277373,9.04451,-0.2768233,-0.8046823,-0.44222945,6.7369237,-5.9167275,1.9243624,0.2844921,-0.13273443,-0.0044742795,0.9494347,-8.267076,7.2148566,0.85884345,0.33516684,0.2941044,-0.040368687,1
1.290000000000001,9.759516329265418,0.3585495951672441,-0.04297227805857309,-0.18993938044277373,9.04451,-0.2768233,-0.8046823,-0.44222945,6.6541376,-5.8445477,1.9328966,0.28492513,-0.13330474,-0.0028559046,0.9492312,-8.290112,7.2210503,0.847986,0.23972438,0.12274848,-0.06008812,1
1.300000000000001,9.759516329265418,0.3585495951672441,-0.04297227805857309,-0.18993938044277373,9.04451,-0.2768233,-0.8046823,-0.44222945,6.571121,-5.772305,1.9413221,0.285388,-0.13325138,-0.001891646,0.94910204,-8.313129,7.2275057,0.8371143,0.15916327,-0.021882668,-0.07883991,1
1.310000000000001,9.759516329265418,0.3585495951672441,-0.04297227805857309,-0.18993938044277373,9.04451,-0.2768233,-0.8046823,-0.44222945,6.487875,-5.6999974,1.9496388,0.28588676,-0.13267206,-0.0014811322,0.94903386,-8.336062,7.234088,0.8262556,0.09116347,-0.1439573,-0.096671544,1
1.320000000000001,9.23953812500974,0.3564126575261808,-0.3873175688259861,-0.2547661040260743,8.901236,-0.76427174,-1.1243355,-0.3721605,6.4044,-5.6276236,1.9578472,0.28642538,-0.13164897,-0.0015395234,0.9490138,-8.358854,7.2406836,0.81543314,0.033767,-0.24699377,-0.11362817,0
1.330000000000001,9.23953812500974,0.3564126575261808,-0.3873175688259861,-0.2547661040260743,8.901236,-0.76427174,-1.1243355,-0.3721605,6.320696,-5.5551834,1.9659572,0.287018,-0.13033727,-0.0017036725,0.9490155,-8.381944,7.247348,0.8065485,0.08408066,-0.26888114,-0.12055384,0
1.340000000000001,9.23953812500974,0.3564126575261808,-0.3873175688259861,-0.2547661040260743,8.901236,-0.76427174,-1.1243355,-0.3721605,6.2367616,-5.482677,1.9739785,0.28767198,-0.12886322,-0.0016814802,0.9490188,-8.404797,7.253938,0.7977301,0.1265481,-0.28735512,-0.12713969,0
1.350000000000001,9.23953812500974,0.3564126575261808,-0.3873175688259861,-0.2547661040260743,8.901236,-0.76427174,-1.1243355,-0.3721605,6.1526003,-5.4101048,1.9819121,0.28838068,-0.12725192,-0.0015024826,0.9490214,-8.427378,7.260478,0.78898454,0.16239281,-0.30294773,-0.13340235,0
1.360000000000001,8.611681554106411,0.438253652962515,-0.7494109816100052,-0.3148591084927042,9.792015,0.6589998,-0.2927192,-0.45778513,6.068215,-5.337467,1.9897585,0.28913826,-0.12552454,-0.0011915747,0.94902134,-8.4496565,7.2669873,0.7803171,0.1926478,-0.31610844,-0.13935769,0
1.370000000000001,8.611681554106411,0.438253652962515,-0.7494109816100052,-0.3148591084927042,9.792015,0.6589998,-0.2927192,-0.45778513,5.983616,-5.2647667,1.9974883,0.28995058,-0.12355191,-0.0007815324,0.9490328,-8.470109,7.273039,0.76565045,0.23094164,-0.38368642,-0.14796959,0
1.380000000000001,8.611681554106411,0.438253652962515,-0.7494109816100052,-0.3148591084927042,9.792015,0.6589998,-0.2927192,-0.45778513,5.898814,-5.192006,2.0050719,0.29082268,-0.121232495,-0.00029963028,0.9490653,-8.490195,7.2790747,0.7510738,0.2632639,-0.44072548,-0.15615891,0
1.390000000000001,8.611681554106411,0.438253652962515,-0.7494109816100052,-0.3148591084927042,9.792015,0.6589998,-0.2927192,-0.45778513,5.8138137,-5.1191854,2.0125105,0.29174855,-0.11861995,0.00024223998,0.94911134,-8.509861,7.2850895,0.73659897,0.2905461,-0.48886913,-0.16394636,0
1.400000000000001,8.016916984938717,0.5161121181960445,-0.9452354378709248,-0.3765518313014845,8.455212,-0.023160242,-1.1893747,-0.11523997,5.728619,-5.0463047,2.0198047,0.29272282,-0.115759596,0.000834108,0.94916415,-8.529056,7.2910795,0.7222351,0.31357414,-0.5295045,-0.1713517,1
1.410000000000001,8.016916984938717,0.5161121181960445,-0.9452354378709248,-0.3765518313014845,8.455212,-0.023160242,-1.1893747,-0.11523997,5.6432366,-4.973365,2.026948,0.29369634,-0.11257665,0.0012435793,0.9492458,-8.5473995,7.2969227,0.7064661,0.2610503,-0.63240457,-0.1685983,1
1.420000000000001,8.016916984938717,0.5161121181960445,-0.9452354378709248,-0.3765518313014845,8.455212,-0.023160242,-1.1893747,-0.11523997,5.557673,-4.900367,2.033934,0.29462686,-0.10901393,0.0012862156,0.94937325,-8.565197,7.302662,0.6908241,0.21671952,-0.7192585,-0.16597998,1
1.430000000000001,8.016916984938717,0.5161121181960445,-0.9452354378709248,-0.3765518313014845,8.455212,-0.023160242,-1.1893747,-0.11523997,5.471935,-4.827312,2.0407646,0.29551914,-0.105130374,0.0010189442,0.94953424,-8.582409,7.308222,0.6753186,0.17930382,-0.7925685,-0.16349015,1
1.440000000000001,8.016916984938717,0.5161121181960445,-0.9452354378709248,-0.3765518313014845,9.018007,-0.091296576,-1.3042607,-0.10679393,5.386027,-4.7542024,2.0474408,0.296377,-0.10097567,0.00048987265,0.9497182,-8.599002,7.313539,0.6599556,0.14772442,-0.85444665,-0.1611225,0
1.450000000000001,8.016916984938717,0.5161121181960445,-0.9452354378709248,-0.3765518313014845,9.018007,-0.091296576,-1.3042607,-0.10679393,5.2999606,-4.6810427,2.0539424,0.2972558,-0.0966205,-2.9614785e-05,0.9498967,-8.6141205,7.3183074,0.6404418,0.20516685,-0.8686124,-0.17169368,0
1.460000000000001,8.016916984938717,0.5161121181960445,-0.9452354378709248,-0.3765518313014845,9.018007,-0.091296576,-1.3042607,-0.10679393,5.2137465,-4.6078367,2.0602498,0.298203,-0.092122905,-0.0003224671,0.95004654,-8.628589,7.322814,0.62106526,0.25365144,-0.88056874,-0.18174611,0
1.470000000000001,8.016916984938717,0.5161121181960445,-0.9452354378709248,-0.3765518313014845,9.018007,-0.091296576,-1.3042607,-0.10679393,5.1273913,-4.5345874,2.0663643,0.29921082,-0.08750454,-0.00042435038,0.95016617,-8.642378,7.3270845,0.6018238,0.2945753,-0.89066005,-0.19130528,0
1.480000000000001,7.5529522979557,0.6529391325351492,-1.041622407741386,-0.45511970506350863,10.424959,0.13187109,-0.97411877,-0.07306724,5.0409017,-4.461296,2.0722866,0.30027255,-0.082783744,-0.0003653309,0.9502543,-8.65546,7.3311405,0.5827139,0.32911748,-0.89917725,-0.20039538,0
1.490000000000001,7.5529522979557,0.6529391325351492,-1.041622407741386,-0.45511970506350863,10.424959,0.13187109,-0.97411877,-0.07306724,4.9542885,-4.387966,2.0779958,0.301396,-0.077922866,-0.00013111632,0.9503097,-8.667097,7.334776,0.5591526,0.37960678,-0.9214011,-0.21289477,0
1.500000000000001,7.5529522979557,0.6529391325351492,-1.041622407741386,-0.45511970506350863,10.424959,0.13187109,-0.97411877,-0.07306724,4.8675623,-4.314601,2.0834699,0.3025877,-0.07289282,0.0002882442,0.95033014,-8.678014,7.338245,0.5357081,0.42222297,-0.9401587,-0.22478081,0
1.5100000000000011,7.5529522979557,0.6529391325351492,-1.041622407741386,-0.45511970506350863,10.424959,0.13187109,-0.97411877,-0.07306724,4.7807302,-4.241202,2.08871,0.30384034,-0.06771947,0.0008635548,0.9503128,-8.688179,7.341564,0.51237655,0.45819378,-0.95599073,-0.2360836,0
1.5200000000000011,7.278717479810915,0.8285755783192853,-0.9366310848567561,-0.5672301164909754,10.520708,0.15981232,-1.0068692,-0.043987982,4.6938014,-4.1677704,2.0937176,0.30514774,-0.062424693,0.0015702192,0.9502556,-8.697566,7.344747,0.4891526,0.4885554,-0.9693529,-0.24683176,0
1.5300000000000011,7.278717479810915,0.8285755783192853,-0.9366310848567561,-0.5672301164909754,10.520708,0.15981232,-1.0068692,-0.043987982,4.606784,-4.0943084,2.0984797,0.30652165,-0.057045512,0.0024663017,0.9501496,-8.705838,7.3476963,0.46330762,0.5415722,-0.9642638,-0.26255378,0
1.5400000000000011,7.278717479810915,0.8285755783192853,-0.9366310848567561,-0.5672301164909754,10.520708,0.15981232,-1.0068692,-0.043987982,4.519687,-4.0208173,2.102984,0.3079724,-0.051612183,0.0035968132,0.94998753,-8.713319,7.3505526,0.43755266,0.58632165,-0.95996785,-0.27750432,0
1.5500000000000012,7.278717479810915,0.8285755783192853,-0.9366310848567561,-0.5672301164909754,10.520708,0.15981232,-1.0068692,-0.043987982,4.4325204,-3.9472978,2.107231,0.30949265,-0.046132773,0.0049250675,0.9497694,-8.719989,7.353343,0.41187948,0.6240927,-0.95634115,-0.29172128,0
1.5600000000000012,7.5156707832957155,0.9852138874121461,-0.7343602996726373,-0.6747663681898872,11.979334,-0.6095232,-0.98832375,-0.17653632,4.3452907,-3.8737507,2.1112216,0.31107605,-0.040614188,0.0064201267,0.94949514,-8.725834,7.356089,0.38627923,0.65597385,-0.95327926,-0.30524057,0
1.5700000000000012,7.5156707832957155,0.9852138874121461,-0.7343602996726373,-0.6747663681898872,11.979334,-0.6095232,-0.98832375,-0.17653632,4.258006,-3.8001757,2.1149683,0.31273127,-0.035119727,0.008140122,0.9491573,-8.731005,7.3589,0.3631047,0.7073145,-0.91915745,-0.3233733,0
1.5800000000000012,7.5156707832957155,0.9852138874121461,-0.7343602996726373,-0.6747663681898872,11.979334,-0.6095232,-0.98832375,-0.17653632,4.1706734,-3.7265725,2.1184835,0.31446615,-0.029699849,0.01012994,0.9487499,-8.735306,7.361723,0.3399847,0.75064874,-0.89035606,-0.34061626,0
1.5900000000000012,7.5156707832957155,0.9852138874121461,-0.7343602996726373,-0.6747663681898872,11.979334,-0.6095232,-0.98832375,-0.17653632,4.0833025,-3.652941,2.121768,0.31627378,-0.024342751,0.0123476535,0.94827527,-8.738735,7.364595,0.31690776,0.7872252,-0.866045,-0.35701314,0
1.6000000000000012,7.878402422218436,1.07913908529093,-0.2592075982248971,-0.7598259579789214,11.755749,-0.6898174,-0.23238485,-0.12327134,3.9959016,-3.5792804,2.124822,0.31814817,-0.019038571,0.014757861,0.947735,-8.741289,7.367546,0.29386264,0.81809765,-0.8455243,-0.37260538,0
1.6100000000000012,7.878402422218436,1.07913908529093,-0.2592075982248971,-0.7598259579789214,11.755749,-0.6898174,-0.23238485,-0.12327134,3.908479,-3.505589,2.1276634,0.32009163,-0.01394742,0.017426757,0.9471237,-8.743051,7.3707542,0.27446115,0.8588197,-0.7541091,-0.3916064,0
1.6200000000000012,7.878402422218436,1.07913908529093,-0.2592075982248971,-0.7598259579789214,11.755749,-0.6898174,-0.23238485,-0.12327134,3.8210435,-3.4318647,2.1303113,0.32210648,-0.009195688,0.020405702,0.9464389,-8.743926,7.3741317,0.25506747,0.89319015,-0.6769486,-0.409675,0
1.6300000000000012,7.878402422218436,1.07913908529093,-0.2592075982248971,-0.7598259579789214,11.755749,-0.6898174,-0.23238485,-0.12327134,3.7336035,-3.3581057,2.1327648,0.3241875,-0.0047304314,0.023647036,0.9456855,-8.743944,7.377733,0.2356687,0.92219913,-0.6118201,-0.426857,0
1.6400000000000012,7.878402422218436,1.07913908529093,-0.2592075982248971,-0.7598259579789214,12.05257,-0.7400662,0.13427241,-0.07025456,3.6461673,-3.2843091,2.1350245,0.32632992,-0.0005070516,0.02711043,0.94486696,-8.743134,7.3816066,0.21625286,0.94668317,-0.55684733,-0.44319585,0
1.6500000000000012,7.878402422218436,1.07913908529093,-0.2592075982248971,-0.7598259579789214,12.05257,-0.7400662,0.13427241,-0.07025456,3.5587432,-3.2104723,2.1370897,0.32852945,0.003512002,0.030761743,0.94398606,-8.741514,7.3857913,0.19680867,0.96734786,-0.5104463,-0.45873296,0
1.6600000000000013,7.878402422218436,1.07913908529093,-0.2592075982248971,-0.7598259579789214,12.05257,-0.7400662,0.13427241,-0.07025456,3.4713392,-3.1365921,2.1389604,0.33078206,0.007358337,0.034572072,0.9430449,-8.739106,7.390318,0.17732526,0.9847889,-0.4712803,-0.4735077,0
1.6700000000000013,7.878402422218436,1.07913908529093,-0.2592075982248971,-0.7598259579789214,12.05257,-0.7400662,0.13427241,-0.07025456,3.3839636,-3.0626647,2.140636,0.3330841,0.011058553,0.038516942,0.9420451,-8.735922,7.395213,0.15779215,0.999509,-0.43822145,-0.4875574,0
1.6800000000000013,8.08090157035552,1.0925674460540207,0.20932896875893556,-0.8163732989378276,10.866392,-0.94764286,-0.23748855,0.062478073,3.2966235,-2.9886863,2.142116,0.33543223,0.014635027,0.04257562,0.9409878,-8.731975,7.4005,0.13819903,1.0119325,-0.41031718,-0.50091773,0
1.6900000000000013,8.08090157035552,1.0925674460540207,0.20932896875893556,-0.8163732989378276,10.866392,-0.94764286,-0.23748855,0.062478073,3.2093272,-2.9146526,2.14341,0.3378216,0.017931733,0.046798795,0.9398748,-8.727157,7.4063454,0.12055184,1.0245358,-0.3136982,-0.51639724,0
1.7000000000000013,8.08090157035552,1.0925674460540207,0.20932896875893556,-0.8163732989378276,10.866392,-0.94764286,-0.23748855,0.062478073,3.122083,-2.840558,2.1445267,0.34024817,0.020826133,0.05122625,0.9387082,-8.721612,7.412658,0.102822565,1.0351703,-0.23214588,-0.5311172,0
1.7100000000000013,8.08090157035552,1.0925674460540207,0.20932896875893556,-0.8163732989378276,10.866392,-0.94764286,-0.23748855,0.062478073,3.0348973,-2.7663977,2.1454659,0.34270993,0.023380617,0.055826917,0.9374894,-8.715385,7.4194837,0.08500139,1.0441437,-0.16331066,-0.5451148,0
1.7200000000000013,8.352520022214797,1.0332830760481173,0.7735203852522717,-0.8201262295993798,10.736074,-0.9293759,0.043471172,0.0957853,2.9477773,-2.6921666,2.1462264,0.34520495,0.02564776,0.060574383,0.9362191,-8.708514,7.426859,0.067078814,1.0517151,-0.105209544,-0.55842555,0
1.7300000000000013,8.352520022214797,1.0332830760481173,0.7735203852522717,-0.8201262295993798,10.736074,-0.9293759,0.043471172,0.0957853,2.8607302,-2.6178575,2.1468205,0.34771842,0.02745235,0.06550221,0.93490505,-8.700783,7.435088,0.05173685,1.0488908,0.03182027,-0.5712673,0
1.7400000000000013,8.352520022214797,1.0332830760481173,0.7735203852522717,-0.8201262295993798,10.736074,-0.9293759,0.043471172,0.0957853,2.7737632,-2.5434625,2.1472607,0.35023716,0.028658036,0.07063638,0.9335539,-8.692494,7.4439826,0.036272023,1.046501,0.1474805,-0.5834789,0
1.7500000000000013,8.352520022214797,1.0332830760481173,0.7735203852522717,-0.8201262295993798,10.736074,-0.9293759,0.043471172,0.0957853,2.686882,-2.468975,2.1475453,0.35276154,0.029357934,0.07594569,0.9321638,-8.683721,7.453602,0.020675907,1.0444785,0.24510387,-0.5950913,0
1.7600000000000013,8.702021556284135,0.8278951356146681,0.9987011537651068,-0.7552182816483283,10.729862,-0.8452695,0.2218767,0.21333945,2.6000903,-2.3943875,2.1476734,0.35529163,0.029630544,0.081403494,0.9307325,-8.674522,7.4639955,0.004939548,1.0427669,0.3275033,-0.6061338,0
1.7700000000000014,8.702021556284135,0.8278951356146681,0.9987011537651068,-0.7552182816483283,10.729862,-0.8452695,0.2218767,0.21333945,2.5133946,-2.3196898,2.1476607,0.35781497,0.029429581,0.08694246,0.92927,-8.664555,7.475675,-0.007505971,1.0093012,0.43218464,-0.6134495,0
1.7800000000000014,8.702021556284135,0.8278951356146681,0.9987011537651068,-0.7552182816483283,10.729862,-0.8452695,0.2218767,0.21333945,2.4268005,-2.244871,2.147523,0.36032,0.02872181,0.09250822,0.92778563,-8.654276,7.4882417,-0.020114036,0.9810486,0.52053946,-0.6204061,0
1.7900000000000014,8.702021556284135,0.8278951356146681,0.9987011537651068,-0.7552182816483283,10.729862,-0.8452695,0.2218767,0.21333945,2.34031,-2.1699219,2.147258,0.36280817,0.027585842,0.09809703,0.92627513,-8.643756,7.501727,-0.032891538,0.95719707,0.59511405,-0.6270214,0
1.8000000000000014,9.308003309793806,0.5267444503126539,1.2761744124365653,-0.6110280376164472,10.795294,-1.0873249,-0.29892188,0.40816075,2.2539263,-2.0948331,2.1468642,0.3652805,0.026088014,0.10370544,0.9247346,-8.633054,7.5161576,-0.04584649,0.9370609,0.65805763,-0.63331205,0
1.8100000000000014,9.308003309793806,0.5267444503126539,1.2761744124365653,-0.6110280376164472,10.795294,-1.0873249,-0.29892188,0.40816075,2.1676536,-2.0195901,2.1463697,0.36771294,0.024139412,0.10925916,0.9231826,-8.621471,7.532627,-0.053070817,0.87311137,0.75447977,-0.6322186,0
1.8200000000000014,9.308003309793806,0.5267444503126539,1.2761744124365653,-0.6110280376164472,10.795294,-1.0873249,-0.29892188,0.40816075,2.0814972,-1.944177,2.145802,0.37008327,0.021672737,0.11469948,0.92163545,-8.609839,7.550149,-0.060498353,0.81912845,0.83586055,-0.6311788,0
1.8300000000000014,9.308003309793806,0.5267444503126539,1.2761744124365653,-0.6110280376164472,10.795294,-1.0873249,-0.29892188,0.40816075,1.9954568,-1.8685834,2.1451592,0.37239507,0.018768797,0.120044254,0.92008597,-8.598245,7.5687375,-0.06813374,0.7735589,0.9045465,-0.63019,0
1.8400000000000014,9.308003309793806,0.5267444503126539,1.2761744124365653,-0.6110280376164472,10.870247,-1.3114836,-0.25760585,0.55373836,1.909532,-1.7927986,2.1444387,0.3746516,0.015495836,0.12530825,0.9185276,-8.586759,7.588404,-0.07598364,0.7350915,0.9625179,-0.6292497,0
1.8500000000000014,9.308003309793806,0.5267444503126539,1.2761744124365653,-0.6110280376164472,10.870247,-1.3114836,-0.25760585,0.55373836,1.823721,-1.7168117,2.1436388,0.37685585,0.01191151,0.13050367,0.9169546,-8.57544,7.60916,-0.08405657,0.7026193,1.0114461,-0.62835556,0
1.8600000000000014,9.308003309793806,0.5267444503126539,1.2761744124365653,-0.6110280376164472,10.870247,-1.3114836,-0.25760585,0.55373836,1.7380223,-1.6406115,2.142757,0.3790106,0.008064527,0.13564062,0.9153615,-8.564341,7.6310143,-0.09236268,0.6752079,1.052742,-0.6275053,0
1.8700000000000014,9.308003309793806,0.5267444503126539,1.2761744124365653,-0.6110280376164472,10.870247,-1.3114836,-0.25760585,0.55373836,1.6524333,-1.5641875,2.1417906,0.38111827,0.003996052,0.14072746,0.913744,-8.553499,7.6539745,-0.100913525,0.65206885,1.0875958,-0.62669677,0
1.8800000000000014,10.171960553841071,0.17172123664587327,1.4247853712944698,-0.4083750481569842,12.242872,-1.3759453,0.14470585,0.5272023,1.5669513,-1.4875284,2.1407375,0.38318118,-0.00025912386,0.14577109,0.9120978,-8.542949,7.678047,-0.10972193,0.63253605,1.117013,-0.6259279,0
1.8900000000000015,10.171960553841071,0.17172123664587327,1.4247853712944698,-0.4083750481569842,12.242872,-1.3759453,0.14470585,0.5272023,1.481578,-1.4106114,2.1396365,0.3851696,-0.0047766957,0.15067054,0.9104501,-8.531775,7.7055726,-0.11053753,0.5606836,1.1650431,-0.61525255,0
1.9000000000000015,10.171960553841071,0.17172123664587327,1.4247853712944698,-0.4083750481569842,12.242872,-1.3759453,0.14470585,0.5272023,1.3963143,-1.3334129,2.138526,0.38705608,-0.009614607,0.15534668,0.90882456,-8.521024,7.7343044,-0.11165496,0.5000335,1.2055774,-0.605101,0
1.9100000000000015,10.171960553841071,0.17172123664587327,1.4247853712944698,-0.4083750481569842,12.242872,-1.3759453,0.14470585,0.5272023,1.3111558,-1.2559211,2.1374023,0.38884598,-0.0147217475,0.15983385,0.9072126,-8.510763,7.764229,-0.113080375,0.4488391,1.2397859,-0.59544754,0
1.9200000000000015,11.28683944799618,-0.22148862239470024,1.5196949225539806,-0.15466157846410536,12.9669,-1.6897264,0.16435523,0.64045835,1.2260971,-1.1781242,2.136263,0.39054424,-0.020054901,0.16416085,0.9056068,-8.50105,7.795334,-0.11482235,0.40562633,1.2686557,-0.5862678,0
1.9300000000000015,11.28683944799618,-0.22148862239470024,1.5196949225539806,-0.15466157846410536,12.9669,-1.6897264,0.16435523,0.64045835,1.1411376,-1.0999928,2.1351573,0.39211744,-0.02566831,0.16822504,0.9040381,-8.490939,7.831143,-0.10636439,0.3078249,1.3078468,-0.5650888,0
1.9400000000000015,11.28683944799618,-0.22148862239470024,1.5196949225539806,-0.15466157846410536,12.9669,-1.6897264,0.16435523,0.64045835,1.0562756,-1.0214969,2.1341343,0.39353466,-0.031602327,0.17194688,0.90253276,-8.481586,7.8682117,-0.09826883,0.22527325,1.3409178,-0.54494905,0
1.9500000000000015,11.28683944799618,-0.22148862239470024,1.5196949225539806,-0.15466157846410536,12.9669,-1.6897264,0.16435523,0.64045835,0.9715029,-0.9426242,2.1331906,0.39480406,-0.03780447,0.17537972,0.90107816,-8.473081,7.9065046,-0.09053691,0.15559387,1.3688246,-0.52579755,0
1.9600000000000015,11.844204929165775,-0.7104782368367142,1.1220006826017668,0.12946126832631955,13.044241,-2.9608216,-0.29445702,1.0177922,0.8868108,-0.8633626,2.132322,0.3959333,-0.044230364,0.17856841,0.89966285,-8.465496,7.94599,-0.083173834,0.096779734,1.3923743,-0.5075858,0
1.9700000000000015,11.844204929165775,-0.7104782368367142,1.1220006826017668,0.12946126832631955,13.044241,-2.9608216,-0.29445702,1.0177922,0.8021913,-0.7836904,2.1315515,0.39691773,-0.050770767,0.18131334,0.8983337,-8.458574,7.988637,-0.07099405,-0.029153194,1.3502506,-0.47632572,0
1.9800000000000015,11.844204929165775,-0.7104782368367142,1.1220006826017668,0.12946126832631955,13.044241,-2.9608216,-0.29445702,1.0177922,0.7176355,-0.7035861,2.1309006,0.39775068,-0.057336736,0.18345937,0.89713377,-8.452755,8.032391,-0.05918457,-0.1354419,1.3146855,-0.4465996,0
1.9900000000000015,11.844204929165775,-0.7104782368367142,1.1220006826017668,0.12946126832631955,13.044241,-2.9608216,-0.29445702,1.0177922,0.6331321,-0.6230392,2.1303666,0.39843625,-0.06392099,0.18510108,0.8960467,-8.448099,8.077138,-0.047720276,-0.22515082,1.2846584,-0.41833213,0
2.0000000000000013,,,,,13.788923,-3.1048937,-1.0105883,1.0636208,0.54866934,-0.5420403,2.1299453,0.39897886,-0.070517346,0.18631811,0.8950577,-8.44466,8.122784,-0.036582276,-0.30086628,1.2593075,-0.39145175,0
2.010000000000001,,,,,13.788923,-3.1048937,-1.0105883,1.0636208,0.4642351,-0.46057203,2.1296546,0.3993735,-0.07700839,0.1869267,0.89421946,-8.442399,8.17099,-0.021633625,-0.43990275,1.1585665,-0.35087785,0
2.020000000000001,,,,,13.788923,-3.1048937,-1.0105883,1.0636208,0.3798167,-0.3786182,2.129512,0.3996121,-0.08330023,0.18678577,0.8935781,-8.441488,8.219867,-0.0069542886,-0.5572465,1.073525,-0.31229493,0
2.0300000000000007,,,,,13.788923,-3.1048937,-1.0105883,1.0636208,0.29540056,-0.29617295,2.129515,0.3996951,-0.08941979,0.18601458,0.89311033,-8.441962,8.269248,0.007507991,-0.65628254,1.001737,-0.2756053,0
2.0400000000000005,,,,,13.788923,-3.1048937,-1.0105883,1.0636208,0.21097264,-0.21323198,2.1296618,0.39962396,-0.09538983,0.18471351,0.89279443,-8.443853,8.318993,0.021795481,-0.7398677,0.94113815,-0.24071604,0
2.0500000000000003,,,,,14.877563,-3.6321416,-1.8060192,1.3456615,0.12651858,-0.12979227,2.1299503,0.3994009,-0.101229645,0.18296711,0.89261085,-8.447188,8.368979,0.03594151,-0.8104129,0.889985,-0.20753878,1
2.06,,,,,14.877563,-3.6321416,-1.8060192,1.3456615,0.04201845,-0.04579314,2.1305118,0.39900377,-0.106502384,0.17970422,0.8928377,-8.453097,8.430566,0.07580795,-1.2257853,0.4942958,-0.13357048,1
2.07,,,,,14.877563,-3.6321416,-1.8060192,1.3456615,-0.042549357,0.038813572,2.1314585,0.39838976,-0.11080113,0.17393507,0.8937308,-8.460758,8.490634,0.113601245,-1.6010938,0.13552094,-0.060984146,1
2.0799999999999996,,,,,14.877563,-3.6321416,-1.8060192,1.3456615,-0.12720329,0.12401523,2.1327853,0.39752954,-0.11424383,0.16599347,0.89518946,-8.470332,8.549449,0.15182026,-1.9178396,-0.16733412,0.008040361,1
2.0899999999999994,,,,,14.689762,-3.9320467,-2.7424817,1.0706638,-0.21196276,0.20979607,2.1344974,0.39639622,-0.11695213,0.1562169,0.8970997,-8.4818735,8.606381,0.19068378,-2.1851652,-0.4229804,0.07367781,1
2.099999999999999,,,,,14.689762,-3.9320467,-2.7424817,1.0706638,-0.2968468,0.29613099,2.1365933,0.39503983,-0.11874453,0.14462887,0.8994026,-8.495244,8.660178,0.22861755,-2.4575484,-0.78479624,0.12260018,1
2.109999999999999,,,,,14.689762,-3.9320467,-2.7424817,1.0706638,-0.38187432,0.38298923,2.1390734,0.39349538,-0.119480796,0.13126083,0.9020286,-8.510552,8.710945,0.26750663,-2.6874387,-1.0901957,0.16912192,1
2.1199999999999988,,,,,14.689762,-3.9320467,-2.7424817,1.0706638,-0.46706432,0.4703375,2.1419475,0.3917219,-0.11931116,0.11638575,0.90486044,-8.527735,8.75811,0.3074562,-2.8814678,-1.347973,0.21336085,1
2.1299999999999986,,,,,13.749546,-4.2838197,-3.8962955,0.68754923,-0.5524353,0.55813736,2.1452265,0.38968575,-0.11836293,0.10023497,0.9077926,-8.546726,8.801169,0.34850445,-3.045232,-1.565552,0.25542894,1
2.1399999999999983,,,,,13.749546,-4.2838197,-3.8962955,0.68754923,-0.6379983,0.6463327,2.1488764,0.3874288,-0.11638362,0.08269183,0.9107772,-8.566122,8.837196,0.38166374,-3.2383025,-1.9291068,0.2766332,1
2.149999999999998,,,,,13.749546,-4.2838197,-3.8962955,0.68754923,-0.72376275,0.7348647,2.152863,0.38497508,-0.11317548,0.0636747,0.91374516,-8.586984,8.8684225,0.41582307,-3.401266,-2.2359624,0.29679698,1
2.159999999999998,,,,,13.749546,-4.2838197,-3.8962955,0.68754923,-0.8097424,0.82368284,2.157196,0.38227704,-0.1089131,0.043414105,0.9165787,-8.60914,8.89434,0.4509138,-3.5388188,-2.494961,0.31597131,1
