time-since-start [s],throttle_mpc,roll_mpc,pitch_mpc,yaw_mpc,throttle_nw,roll_nw,pitch_nw,yaw_nw,position_x [m],position_y [m],position_z [m],rotation_w [quaternion],rotation_x [quaternion],rotation_y [quaternion],rotation_z [quaternion],velocity_x [m/s],velocity_y [m/s],velocity_z [m/s],omega_x [rad/s],omega_y [rad/s],omega_z [rad/s],network_used
0.0,10.692674404968079,5.999999703314515,-5.9999999667496065,-5.99999832657287,11.329355,2.234731,-5.826352,-2.168057,19.701073,-9.040716,1.4638128,-0.21353997,-0.41930658,0.22965811,0.8519623,-11.232557,-7.1480403,0.046952076,1.8408781,-0.21887502,-0.5144682,0
0.01,10.692674404968079,5.999999703314515,-5.9999999667496065,-5.99999832657287,16.953138,2.2382164,-6.1959314,-3.2241359,19.587946,-9.111984,1.4643244,-0.20688725,-0.42067048,0.23624687,0.85112953,-11.39202,-7.105253,0.054677814,1.7167853,-0.34798506,-0.70059377,0
0.02,10.692674404968079,5.999999703314515,-5.9999999667496065,-5.99999832657287,16.953138,2.2382164,-6.1959314,-3.2241359,19.473244,-9.182816,1.4648921,-0.19953255,-0.42158908,0.24206685,0.85079557,-11.547696,-7.060516,0.058266822,1.61269,-0.4576007,-0.8821096,0
0.03,10.692674404968079,5.999999703314515,-5.9999999667496065,-5.99999832657287,16.953138,2.2382164,-6.1959314,-3.2241359,19.357004,-9.253189,1.4654768,-0.19147627,-0.42216107,0.24718198,0.85089254,-11.699468,-7.0140004,0.058092225,1.5253592,-0.5506483,-1.0591298,0
0.04,10.692674404968079,5.999999703314515,-5.9999999667496065,-5.99999832657287,19.788588,6.7976093,-6.495673,-4.664812,19.239267,-9.32309,1.4660422,-0.18272091,-0.42246702,0.251647,0.85135704,-11.847329,-6.9658403,0.05452194,1.4530679,-0.6306026,-1.2316817,0
0.05,10.692674404968079,5.999999703314515,-5.9999999667496065,-5.99999832657287,19.788588,6.7976093,-6.495673,-4.664812,19.120068,-9.392499,1.4665594,-0.17324632,-0.42254388,0.2555519,0.85213614,-11.992467,-6.915745,0.04861996,1.4103079,-0.7163714,-1.3984516,0
0.060000000000000005,10.692674404968079,5.999999703314515,-5.9999999667496065,-5.99999832657287,19.788588,6.7976093,-6.495673,-4.664812,18.999428,-9.461397,1.4670081,-0.16299394,-0.4223691,0.2590479,0.85318923,-12.135151,-6.863652,0.04082139,1.3990349,-0.813628,-1.5592581,0
0.07,10.692674404968079,5.999999703314515,-5.9999999667496065,-5.99999832657287,19.788588,6.7976093,-6.495673,-4.664812,18.877373,-9.529765,1.4673698,-0.15190846,-0.4219098,0.2622725,0.85447615,-12.275177,-6.8096046,0.031238565,1.4151181,-0.92136765,-1.714464,0
0.08,13.46091860326594,5.9999999199983725,-5.99999999644386,-5.740583978381424,17.324274,7.961445,-6.422457,-5.2206397,18.753933,-9.597583,1.467627,-0.1399421,-0.4211296,0.26534322,0.85595524,-12.412347,-6.7536054,0.019974317,1.4549351,-1.0386041,-1.8644017,0
0.09,13.46091860326594,5.9999999199983725,-5.99999999644386,-5.740583978381424,17.324274,7.961445,-6.422457,-5.2206397,18.629066,-9.664802,1.4678072,-0.12686695,-0.4197833,0.26864082,0.8576242,-12.559958,-6.6897583,0.015715167,1.6261395,-1.2754987,-2.0065598,0
0.09999999999999999,13.46091860326594,5.9999999199983725,-5.99999999644386,-5.740583978381424,17.324274,7.961445,-6.422457,-5.2206397,18.502747,-9.731369,1.467935,-0.112478636,-0.41763702,0.2724908,0.8594632,-12.703475,-6.623643,0.009569277,1.8058362,-1.5107187,-2.1448913,0
0.10999999999999999,13.46091860326594,5.9999999199983725,-5.99999999644386,-5.740583978381424,17.324274,7.961445,-6.422457,-5.2206397,18.375011,-9.797264,1.4679925,-0.09677338,-0.41466632,0.2769058,0.8614002,-12.842595,-6.5549726,0.0016781136,1.9924313,-1.7442513,-2.27956,0
0.11999999999999998,13.46091860326594,5.9999999199983725,-5.99999999644386,-5.740583978381424,17.324274,7.961445,-6.422457,-5.2206397,18.245909,-9.862458,1.467963,-0.07975142,-0.41084236,0.28188905,0.8633581,-12.97701,-6.4834995,-0.007825084,2.184542,-1.9760499,-2.4107182,0
0.12999999999999998,17.6296341197513,5.9999999878166825,-6.0,-4.585233263358988,18.19937,8.264647,-6.2148848,-5.978803,18.115486,-9.926924,1.4678309,-0.061417248,-0.40613258,0.2874351,0.8652547,-13.106392,-6.4090185,-0.018814607,2.3809693,-2.2060428,-2.5385072,0
0.13999999999999999,17.6296341197513,5.9999999878166825,-6.0,-4.585233263358988,18.19937,8.264647,-6.2148848,-5.978803,17.983742,-9.990592,1.4676217,-0.041367795,-0.39990848,0.2941998,0.8670691,-13.241637,-6.324243,-0.023366163,2.8541234,-2.7084224,-2.6308322,0
0.15,17.6296341197513,5.9999999878166825,-6.0,-4.585233263358988,18.19937,8.264647,-6.2148848,-5.978803,17.850681,-10.053396,1.4673569,-0.019256089,-0.3915762,0.30271426,0.8687128,-13.369363,-6.236035,-0.02988644,3.3032978,-3.1822891,-2.7230814,0
0.16,20.999998764557855,5.999999998190185,-6.0,-3.4455664294416173,18.800982,8.578297,-6.383565,-5.763756,17.716381,-10.115298,1.467019,0.004814804,-0.38115564,0.3127697,0.8699844,-13.489521,-6.1434283,-0.037692983,3.720312,-3.6201243,-2.8142195,0
0.17,20.999998764557855,5.999999998190185,-6.0,-3.4455664294416173,18.800982,8.578297,-6.383565,-5.763756,17.580801,-10.176148,1.4666919,0.030514954,-0.36872876,0.32410714,0.8706682,-13.625275,-6.0253234,-0.027571887,4.0750675,-3.991997,-2.8451998,0
0.18000000000000002,20.999998764557855,5.999999998190185,-6.0,-3.4455664294416173,18.800982,8.578297,-6.383565,-5.763756,17.443903,-10.235776,1.4664705,0.05747097,-0.35443932,0.33642936,0.8705663,-13.752602,-5.8989573,-0.016549857,4.3745966,-4.305783,-2.87466,0
0.19000000000000003,20.999998764557855,5.999999998190185,-6.0,-3.4455664294416173,18.800982,8.578297,-6.383565,-5.763756,17.30578,-10.294099,1.4663639,0.08545932,-0.3384575,0.34943193,0.8695062,-13.870264,-5.764299,-0.0046079876,4.627499,-4.570553,-2.9026744,0
0.20000000000000004,21.0,5.999999968677332,-5.999999995539052,-2.5713727477252344,22.05445,8.68954,-6.8557663,-3.9969602,17.166536,-10.351034,1.4663813,0.11427682,-0.3209377,0.36285362,0.86733925,-13.977074,-5.6215687,0.0082174875,4.841035,-4.7939625,-2.9293141,0
0.21000000000000005,21.0,5.999999968677332,-5.999999995539052,-2.5713727477252344,22.05445,8.68954,-6.8557663,-3.9969602,17.026281,-10.406504,1.466531,0.14364403,-0.3019828,0.37650502,0.8639543,-14.071913,-5.4712114,0.02183965,5.021473,-4.9823303,-2.91175,0
0.22000000000000006,21.0,5.999999968677332,-5.999999995539052,-2.5713727477252344,22.05445,8.68954,-6.8557663,-3.9969602,16.885143,-10.460435,1.4668205,0.17330372,-0.2816876,0.3902251,0.8592686,-14.153746,-5.313872,0.03612407,5.1738286,-5.1412683,-2.8950474,0
0.23000000000000007,21.0,5.999999968677332,-5.999999995539052,-2.5713727477252344,22.05445,8.68954,-6.8557663,-3.9969602,16.743256,-10.512761,1.4672552,0.20310915,-0.26017857,0.40384385,0.85320824,-14.221637,-5.15037,0.05089196,5.3024716,-5.275375,-2.8791647,0
0.24000000000000007,21.0,5.999999968677332,-5.999999995539052,-2.5713727477252344,22.455416,7.1490746,-5.577284,-3.183792,16.600763,-10.563425,1.4678392,0.2329253,-0.23757505,0.41721466,0.84571636,-14.274769,-4.9816747,0.065925986,5.411092,-5.3885303,-2.8640614,0
0.25000000000000006,21.0,5.999999968677332,-5.999999995539052,-2.5713727477252344,22.455416,7.1490746,-5.577284,-3.183792,16.457817,-10.61238,1.4685738,0.26262766,-0.2139901,0.4302113,0.83675176,-14.312449,-4.8088837,0.080976374,5.502805,-5.484008,-2.849699,0
0.26000000000000006,21.0,5.999999968677332,-5.999999995539052,-2.5713727477252344,22.455416,7.1490746,-5.577284,-3.183792,16.314571,-10.659592,1.4694577,0.29210111,-0.1895312,0.44272488,0.8262868,-14.334121,-4.633199,0.09576687,5.5802426,-5.5645704,-2.8360415,0
0.2700000000000001,21.0,5.999999968677332,-5.999999995539052,-2.5713727477252344,22.455416,7.1490746,-5.577284,-3.183792,16.17119,-10.705038,1.4704871,0.3212389,-0.16430086,0.45466143,0.8143059,-14.339371,-4.455909,0.1100008,5.6456256,-5.6325483,-2.823054,0
0.2800000000000001,21.0,5.072810243441628,-5.999999043884449,-0.28184986288211117,22.245047,6.7441263,-5.16584,-2.6021218,16.02784,-10.74871,1.4716547,0.34994212,-0.13839704,0.46594003,0.80080396,-14.327934,-4.278363,0.12336661,5.7008305,-5.6899076,-2.810704,0
0.2900000000000001,21.0,5.072810243441628,-5.999999043884449,-0.28184986288211117,22.245047,6.7441263,-5.16584,-2.6021218,15.884688,-10.79061,1.4729502,0.3778481,-0.111916155,0.4762382,0.78606814,-14.299719,-4.101967,0.13556589,5.6032677,-5.737634,-2.6866124,0
0.3000000000000001,21.0,5.072810243441628,-5.999999043884449,-0.28184986288211117,22.245047,6.7441263,-5.16584,-2.6021218,15.741902,-10.830758,1.4743614,0.40465677,-0.08494338,0.48531678,0.7703931,-14.254923,-3.9281862,0.146422,5.5209165,-5.7779803,-2.5686097,0
0.3100000000000001,21.0,5.072810243441628,-5.999999043884449,-0.28184986288211117,22.245047,6.7441263,-5.16584,-2.6021218,15.599647,-10.869187,1.4758737,0.43036705,-0.057551548,0.49322253,0.753793,-14.1939125,-3.758455,0.15577877,5.451402,-5.8120885,-2.4563978,0
0.3200000000000001,21.0,3.6543042837375834,-3.9681967738895985,1.0652270773697674,22.86209,5.77135,-3.367142,-2.1009717,15.45808,-10.905946,1.4774714,0.4549756,-0.029808765,0.49999398,0.7362845,-14.117163,-3.5941405,0.1634535,5.3927207,-5.8409243,-2.3496919,0
0.3300000000000001,21.0,3.6543042837375834,-3.9681967738895985,1.0652270773697674,22.86209,5.77135,-3.367142,-2.1009717,15.317357,-10.9410925,1.4791363,0.47794816,-0.0025528935,0.50564355,0.7182505,-14.02533,-3.4364932,0.16924267,5.122671,-5.5478983,-2.1821208,0
0.34000000000000014,21.0,3.6543042837375834,-3.9681967738895985,1.0652270773697674,22.86209,5.77135,-3.367142,-2.1009717,15.177622,-10.9747,1.4808489,0.49890968,0.023559414,0.51026314,0.70011836,-13.919583,-3.2863762,0.17294407,4.894583,-5.30071,-2.0227728,0
0.35000000000000014,21.0,3.6543042837375834,-3.9681967738895985,1.0652270773697674,22.86209,5.77135,-3.367142,-2.1009717,15.039009,-11.006846,1.4825875,0.5180703,0.048716396,0.51397854,0.6819501,-13.801168,-3.144416,0.1743822,4.7019405,-5.092186,-1.8712437,0
0.36000000000000015,21.0,2.239779435614113,-1.2640406067911627,1.3631914615059395,24.572788,4.6099405,-0.8923264,-2.3593209,14.901639,-11.037617,1.4843284,0.5356087,0.07307767,0.5168864,0.6637856,-13.6712265,-3.0111265,0.17340355,4.539239,-4.916275,-1.7271503,0
0.37000000000000016,21.0,2.239779435614113,-1.2640406067911627,1.3631914615059395,24.572788,4.6099405,-0.8923264,-2.3593209,14.76562,-11.0671,1.4860468,0.5511517,0.0957806,0.51928526,0.6460654,-13.530876,-2.8868468,0.16986515,4.181713,-4.3458934,-1.5755064,0
0.38000000000000017,21.0,2.239779435614113,-1.2640406067911627,1.3631914615059395,24.572788,4.6099405,-0.8923264,-2.3593209,14.631052,-11.095385,1.4877164,0.56447375,0.11617292,0.5214874,0.62922484,-13.38153,-2.7713218,0.16362204,3.8797293,-3.8646035,-1.4313037,0
0.3900000000000002,21.0,2.239779435614113,-1.2640406067911627,1.3631914615059395,24.572788,4.6099405,-0.8923264,-2.3593209,14.498015,-11.122556,1.4893095,0.5759059,0.13466145,0.52356213,0.61325455,-13.224493,-2.6640818,0.1545681,3.6246696,-3.458484,-1.294177,0
0.4000000000000002,20.99999992009316,0.5127661715428631,1.4540870247635493,1.1921225408736658,22.850702,4.191455,2.0211372,-2.2917998,14.366584,-11.148694,1.4907978,0.5857207,0.15158825,0.5255499,0.59812146,-13.060836,-2.5646653,0.14263438,3.409252,-3.1157892,-1.1637793,0
0.4100000000000002,20.99999992009316,0.5127661715428631,1.4540870247635493,1.1921225408736658,22.850702,4.191455,2.0211372,-2.2917998,14.236819,-11.173875,1.4921521,0.593702,0.1661792,0.5277151,0.5843107,-12.8914995,-2.4725344,0.12778427,2.9582713,-2.4025524,-1.0481745,0
0.4200000000000002,20.99999992009316,0.5127661715428631,1.4540870247635493,1.1921225408736658,22.850702,4.191455,2.0211372,-2.2917998,14.108771,-11.198167,1.4933435,0.5997318,0.17785278,0.53031117,0.5722413,-12.717575,-2.3865871,0.110052064,2.5774384,-1.8006653,-0.9382425,0
0.4300000000000002,20.99999992009316,0.5127661715428631,1.4540870247635493,1.1921225408736658,22.850702,4.191455,2.0211372,-2.2917998,13.982481,-11.221623,1.4943435,0.6041342,0.18712674,0.5333237,0.5617572,-12.540016,-2.305626,0.089506716,2.2558541,-1.2927369,-0.8337048,0
0.4400000000000002,20.99999992009316,0.5127661715428631,1.4540870247635493,1.1921225408736658,22.62235,2.2997122,4.0929613,-1.9245487,13.857982,-11.244291,1.4951242,0.6071667,0.19443062,0.5367195,0.55270004,-12.359552,-2.2285988,0.06622094,1.984311,-0.86409444,-0.7342969,0
0.45000000000000023,20.99999992009316,0.5127661715428631,1.4540870247635493,1.1921225408736658,22.62235,2.2997122,4.0929613,-1.9245487,13.735298,-11.266206,1.4956588,0.60903543,0.20012039,0.54045606,0.5449171,-12.176749,-2.1545901,0.04026298,1.7550296,-0.5023568,-0.63976693,0
0.46000000000000024,20.99999992009316,0.5127661715428631,1.4540870247635493,1.1921225408736658,22.62235,2.2997122,4.0929613,-1.9245487,13.614453,-11.287391,1.4959207,0.60990703,0.20449096,0.54448736,0.5382658,-11.992054,-2.0828116,0.011692606,1.5614389,-0.19707792,-0.54987556,0
0.47000000000000025,20.99999992009316,0.5127661715428631,1.4540870247635493,1.1921225408736658,22.62235,2.2997122,4.0929613,-1.9245487,13.495462,-11.307868,1.4958838,0.6099174,0.20778659,0.5487675,0.5326157,-11.8058195,-2.0125875,-0.01944031,1.3979888,0.06055733,-0.46439523,0
0.48000000000000026,20.99999972597515,-1.3217705821426513,3.606283065581911,1.0874819619197176,21.069975,-0.7115724,3.56504,0.27995586,13.378342,-11.327647,1.4955231,0.6091781,0.21020955,0.55325305,0.5278492,-11.618333,-1.9433415,-0.05309557,1.2599906,0.2779864,-0.38310942,1
0.49000000000000027,20.99999972597515,-1.3217705821426513,3.606283065581911,1.0874819619197176,21.069975,-0.7115724,3.56504,0.27995586,13.2631035,-11.346735,1.4948144,0.6074761,0.21112198,0.55818444,0.5242425,-11.429233,-1.874269,-0.089032754,0.95263815,0.7906979,-0.35057262,1
0.5000000000000002,20.99999972597515,-1.3217705821426513,3.606283065581911,1.0874819619197176,21.069975,-0.7115724,3.56504,0.27995586,13.149759,-11.36513,1.4937341,0.6046471,0.21001835,0.5637496,0.52199644,-11.239554,-1.8046179,-0.12742664,0.69317985,1.2234285,-0.31963238,1
0.5100000000000002,20.99999972597515,-1.3217705821426513,3.606283065581911,1.0874819619197176,21.069975,-0.7115724,3.56504,0.27995586,13.038313,-11.382823,1.4922576,0.6008362,0.2072278,0.56983376,0.52090466,-11.049713,-1.7333913,-0.16824712,0.47415516,1.5886563,-0.29021043,1
0.5200000000000002,20.999999732095716,-3.217735356955038,5.030947922127592,1.0211345267269916,21.207647,-2.3849356,3.738328,0.7339088,12.928764,-11.39979,1.4903609,0.5961596,0.20302361,0.57633215,0.5207841,-10.860081,-1.6597556,-0.21148072,0.28926563,1.8969126,-0.26223224,0
0.5300000000000002,20.999999732095716,-3.217735356955038,5.030947922127592,1.0211345267269916,21.207647,-2.3849356,3.738328,0.7339088,12.821106,-11.416008,1.4880189,0.59052414,0.19678368,0.5829567,0.5222246,-10.671672,-1.583192,-0.25725037,-0.25766256,2.3857477,-0.19925708,0
0.5400000000000003,20.999999732095716,-3.217735356955038,5.030947922127592,1.0211345267269916,21.207647,-2.3849356,3.738328,0.7339088,12.715325,-11.431438,1.4852089,0.5838269,0.18803383,0.5894495,0.5256788,-10.484505,-1.5023497,-0.30504245,-0.71933913,2.798298,-0.13937211,0
0.5500000000000003,20.999999732095716,-3.217735356955038,5.030947922127592,1.0211345267269916,21.207647,-2.3849356,3.738328,0.7339088,12.611408,-11.446035,1.4819124,0.5761353,0.1771792,0.5957556,0.5308017,-10.299295,-1.4161645,-0.3544955,-1.109047,3.1464734,-0.08242573,0
0.5600000000000003,20.999999907033594,-4.654748194911488,5.250169729909713,0.9558283597328161,21.634632,-4.0650353,3.9701965,0.59800965,12.50933,-11.45974,1.4781142,0.56750023,0.16455775,0.60181797,0.5372884,-10.116738,-1.3237815,-0.4053288,-1.438001,3.4403238,-0.028273707,0
0.5700000000000003,20.999999907033594,-4.654748194911488,5.250169729909713,0.9558283597328161,21.634632,-4.0650353,3.9701965,0.59800965,12.409061,-11.472487,1.4738019,0.55800354,0.15007567,0.6073202,0.5452256,-9.937544,-1.224508,-0.4572891,-1.9397625,3.7225173,0.020016462,0
0.5800000000000003,20.999999907033594,-4.654748194911488,5.250169729909713,0.9558283597328161,21.634632,-4.0650353,3.9701965,0.59800965,12.310564,-11.484204,1.468966,0.54769194,0.13367489,0.61198604,0.55465037,-9.762568,-1.117678,-0.5099543,-2.3632843,3.9606786,0.06593702,0
0.5900000000000003,20.999999907033594,-4.654748194911488,5.250169729909713,0.9558283597328161,21.634632,-4.0650353,3.9701965,0.59800965,12.213792,-11.494812,1.4636018,0.53655624,0.11566561,0.6158168,0.5652415,-9.592713,-1.0027692,-0.5629176,-2.7207637,4.1616817,0.109604254,0
0.6000000000000003,20.999999977451118,-5.005332075604087,4.430023487629628,0.8023568508610983,21.938902,-4.8818665,3.341371,0.23773348,12.11869,-11.50423,1.4577078,0.5245907,0.09631122,0.61880976,0.57671714,-9.428871,-0.879448,-0.61586654,-3.0224967,4.3313284,0.15112872,0
0.6100000000000003,20.999999977451118,-5.005332075604087,4.430023487629628,0.8023568508610983,21.938902,-4.8818665,3.341371,0.23773348,12.025191,-11.512371,1.4512854,0.512023,0.075943075,0.6207128,0.58888036,-9.271916,-0.74757105,-0.668541,-3.3318107,4.34662,0.18308468,0
0.6200000000000003,20.999999977451118,-5.005332075604087,4.430023487629628,0.8023568508610983,21.938902,-4.8818665,3.341371,0.23773348,11.933225,-11.519152,1.4443392,0.49904466,0.054844525,0.62133706,0.6015698,-9.122656,-0.6072476,-0.72059417,-3.592883,4.3595247,0.21347255,0
0.6300000000000003,20.999999977451118,-5.005332075604087,4.430023487629628,0.8023568508610983,21.938902,-4.8818665,3.341371,0.23773348,11.84271,-11.5244875,1.4368769,0.48560846,0.033159055,0.6207647,0.6146019,-8.981856,-0.45873344,-0.77170795,-3.813238,4.3704166,0.24236926,0
0.6400000000000003,20.999999977451118,-5.005332075604087,4.430023487629628,0.8023568508610983,21.9168,-6.066847,3.1365745,0.5563179,11.753557,-11.528299,1.4289092,0.47168,0.01100998,0.6190667,0.62781566,-8.8502445,-0.3023795,-0.82164335,-3.9992244,4.3796115,0.26984802,0
0.6500000000000004,20.999999977451118,-5.005332075604087,4.430023487629628,0.8023568508610983,21.9168,-6.066847,3.1365745,0.5563179,11.665671,-11.53051,1.4204488,0.4572358,-0.011496053,0.6163053,0.6410697,-8.728508,-0.13862315,-0.87022924,-4.1562023,4.3873754,0.2959784,0
0.6600000000000004,20.999999977451118,-5.005332075604087,4.430023487629628,0.8023568508610983,21.9168,-6.066847,3.1365745,0.5563179,11.578951,-11.531049,1.4115098,0.4422619,-0.03426621,0.6125353,0.6542401,-8.617289,0.03201968,-0.91735315,-4.2886963,4.393932,0.32082656,0
0.6700000000000004,20.999999977451118,-5.005332075604087,4.430023487629628,0.8023568508610983,21.9168,-6.066847,3.1365745,0.5563179,11.493287,-11.529849,1.402107,0.42675206,-0.057219155,0.6078057,0.66721827,-8.51718,0.20896292,-0.96295285,-4.400524,4.399469,0.3444554,0
0.6800000000000004,20.999999994095443,-4.492308438091476,3.066847189092357,0.5851232738973179,20.040129,-5.4816527,2.6575463,0.5695945,11.408566,-11.526851,1.3922558,0.4107066,-0.08028314,0.60216075,0.67990917,-8.428721,0.39155823,-1.0070095,-4.494909,4.404147,0.36692473,1
0.6900000000000004,20.999999994095443,-4.492308438091476,3.066847189092357,0.5851232738973179,20.040129,-5.4816527,2.6575463,0.5695945,11.324653,-11.522044,1.3819594,0.39456302,-0.1030045,0.5952247,0.6923995,-8.355854,0.5705033,-1.0520304,-4.648752,4.1316986,0.37686983,1
0.7000000000000004,20.999999994095443,-4.492308438091476,3.066847189092357,0.5851232738973179,20.040129,-5.4816527,2.6575463,0.5695945,11.241408,-11.515429,1.3712214,0.37867618,-0.12500937,0.5867307,0.70478606,-8.294729,0.75326216,-1.0952524,-4.7786107,3.901744,0.3863269,1
0.7100000000000004,20.999999994095443,-4.492308438091476,3.066847189092357,0.5851232738973179,20.040129,-5.4816527,2.6575463,0.5695945,11.158716,-11.50697,1.3600616,0.36294138,-0.1463492,0.5768602,0.71699864,-8.245441,0.938925,-1.1363542,-4.8882227,3.707656,0.3953199,1
0.7200000000000004,20.99999993992933,-3.374530182105254,1.407129070237202,0.24860716540513614,19.356382,-5.4112697,1.4656196,0.22115296,11.076458,-11.496644,1.3485025,0.3472738,-0.16706893,0.5657651,0.7289705,-8.208053,1.1266147,-1.1750947,-4.980745,3.5438404,0.40387163,0
0.7300000000000004,20.99999993992933,-3.374530182105254,1.407129070237202,0.24860716540513614,19.356382,-5.4112697,1.4656196,0.22115296,10.99452,-11.484389,1.3365831,0.3320688,-0.1865781,0.554025,0.740253,-8.181285,1.3245242,-1.2083635,-4.7301526,3.2107105,0.39625272,0
0.7400000000000004,20.99999993992933,-3.374530182105254,1.407129070237202,0.24860716540513614,19.356382,-5.4112697,1.4656196,0.22115296,10.912791,-11.470153,1.3243442,0.3176814,-0.20443763,0.542165,0.75055987,-8.166342,1.5228187,-1.2390459,-4.5186577,2.9295187,0.3890077,0
0.7500000000000004,20.99999993992933,-3.374530182105254,1.407129070237202,0.24860716540513614,19.356382,-5.4112697,1.4656196,0.22115296,10.831156,-11.453934,1.3118109,0.30398825,-0.22088747,0.5302199,0.76004344,-8.162513,1.7207782,-1.2672337,-4.340159,2.6921675,0.3821182,0
0.7600000000000005,20.99999980795843,-1.8144839590828281,-0.30884412160973795,-0.11842322997130704,18.924957,-4.8360558,0.29196912,-0.06672131,10.749505,-11.4357395,1.2990078,0.29088086,-0.23613083,0.5182103,0.76882243,-8.1691675,1.9177967,-1.2930101,-4.189509,2.4918218,0.37556678,0
0.7700000000000005,20.99999980795843,-1.8144839590828281,-0.30884412160973795,-0.11842322997130704,18.924957,-4.8360558,0.29196912,-0.06672131,10.667739,-11.415583,1.2859586,0.27880728,-0.24965751,0.5064281,0.7768317,-8.185659,2.1133623,-1.3164477,-3.8189852,2.0552106,0.35132658,0
0.7800000000000005,20.99999980795843,-1.8144839590828281,-0.30884412160973795,-0.11842322997130704,18.924957,-4.8360558,0.29196912,-0.06672131,10.585763,-11.393478,1.2726867,0.26813498,-0.26108998,0.49513772,0.784075,-8.210919,2.3070943,-1.3375814,-3.5062745,1.6866621,0.32827586,0
0.7900000000000005,20.99999980795843,-1.8144839590828281,-0.30884412160973795,-0.11842322997130704,18.924957,-4.8360558,0.29196912,-0.06672131,10.503495,-11.369447,1.2592149,0.25866276,-0.27076325,0.48430032,0.79071695,-8.243867,2.498737,-1.3564186,-3.2423544,1.375567,0.30635625,0
0.8000000000000005,20.999999510756044,-0.325363897814969,-1.8232270732917564,-0.4384433627023108,18.771807,-3.5588632,-1.6848066,-0.610109,10.420863,-11.343511,1.2455661,0.25021547,-0.27895778,0.4738708,0.79688174,-8.283581,2.6881213,-1.372956,-3.019611,1.1129698,0.28551224,0
0.8100000000000005,20.999999510756044,-0.325363897814969,-1.8232270732917564,-0.4384433627023108,18.771807,-3.5588632,-1.6848066,-0.610109,10.337804,-11.315693,1.2317636,0.24312805,-0.2852976,0.46412078,0.8025492,-8.329202,2.8751516,-1.3871794,-2.5993433,0.6552104,0.24998751,0
0.8200000000000005,20.999999510756044,-0.325363897814969,-1.8232270732917564,-0.4384433627023108,18.771807,-3.5588632,-1.6848066,-0.610109,10.254263,-11.286016,1.2178307,0.2376638,-0.2895055,0.4552745,0.80772954,-8.379559,3.0598812,-1.3990415,-2.2446482,0.26880726,0.21620601,0
0.8300000000000005,20.999999510756044,-0.325363897814969,-1.8232270732917564,-0.4384433627023108,18.771807,-3.5588632,-1.6848066,-0.610109,10.170199,-11.254504,1.2037911,0.23358321,-0.29192713,0.44721565,0.8125361,-8.433518,3.242435,-1.4084797,-1.9452918,-0.057361178,0.18408217,0
0.8400000000000005,20.999999510756044,-0.325363897814969,-1.8232270732917564,-0.4384433627023108,17.806807,-2.7476225,-3.5753913,-0.69402486,10.085583,-11.221176,1.1896696,0.23068044,-0.2928499,0.4398357,0.8170492,-8.4901285,3.4229515,-1.4154317,-1.6926383,-0.33268285,0.15353465,0
0.8500000000000005,20.999999510756044,-0.325363897814969,-1.8232270732917564,-0.4384433627023108,17.806807,-2.7476225,-3.5753913,-0.69402486,10.000391,-11.186052,1.1754913,0.22877942,-0.29251322,0.4330358,0.82132536,-8.548591,3.601566,-1.4198407,-1.4793999,-0.565083,0.1244861,0
0.8600000000000005,20.999999510756044,-0.325363897814969,-1.8232270732917564,-0.4384433627023108,17.806807,-2.7476225,-3.5753913,-0.69402486,9.914608,-11.149151,1.1612818,0.22773018,-0.2911169,0.4267277,0.8254046,-8.608233,3.778403,-1.4216566,-1.2994263,-0.76125175,0.096862994,0
0.8700000000000006,20.999999510756044,-0.325363897814969,-1.8232270732917564,-0.4384433627023108,17.806807,-2.7476225,-3.5753913,-0.69402486,9.828224,-11.11049,1.1470672,0.22740531,-0.28882813,0.42083362,0.8293151,-8.668489,3.9535706,-1.4208382,-1.1475271,-0.92683685,0.07059536,0
0.8800000000000006,20.999999266540048,0.7784721389746653,-2.7667798842989204,-0.7403684109003048,16.991098,-2.171488,-4.2671943,-0.9355696,9.741238,-11.070086,1.132874,0.22769672,-0.28578696,0.4152856,0.833077,-8.728881,4.127158,-1.4173535,-1.0193222,-1.0666058,0.04561668,0
0.8900000000000006,20.999999266540048,0.7784721389746653,-2.7667798842989204,-0.7403684109003048,16.991098,-2.171488,-4.2671943,-0.9355696,9.653648,-11.027952,1.1187292,0.22882581,-0.28171068,0.41029662,0.8366205,-8.788951,4.2992563,-1.411179,-0.7389823,-1.3317198,0.007048171,0
0.9000000000000006,20.999999266540048,0.7784721389746653,-2.7667798842989204,-0.7403684109003048,16.991098,-2.171488,-4.2671943,-0.9355696,9.565463,-10.984106,1.1046598,0.23096275,-0.2763799,0.4060303,0.8398864,-8.848015,4.4700356,-1.4022981,-0.50237197,-1.5555031,-0.02962778,0
0.9100000000000006,20.999999266540048,0.7784721389746653,-2.7667798842989204,-0.7403684109003048,16.991098,-2.171488,-4.2671943,-0.9355696,9.476694,-10.938557,1.0906926,0.2339534,-0.26998743,0.4023635,0.84289724,-8.905392,4.6396646,-1.3907043,-0.30266818,-1.7443976,-0.06450401,0
0.9200000000000006,20.999998364779024,1.4784317896476828,-3.3637234023721327,-0.903705125983336,15.912319,-1.8244387,-4.8988667,-0.9595126,9.3873625,-10.891316,1.0768551,0.23766685,-0.26269504,0.39919013,0.84566694,-8.960504,4.808269,-1.376402,-0.1341127,-1.9038416,-0.09766887,0
0.9300000000000006,20.999998364779024,1.4784317896476828,-3.3637234023721327,-0.903705125983336,15.912319,-1.8244387,-4.8988667,-0.9595126,9.297493,-10.842394,1.0631739,0.2421767,-0.2543773,0.39659327,0.8481485,-9.012821,4.9759436,-1.3594083,0.117293596,-2.131528,-0.13722129,0
0.9400000000000006,20.999998364779024,1.4784317896476828,-3.3637234023721327,-0.903705125983336,15.912319,-1.8244387,-4.8988667,-0.9595126,9.207117,-10.7918,1.0496761,0.24753223,-0.24493884,0.39462906,0.8502941,-9.061707,5.1428046,-1.3397548,0.32948828,-2.3237147,-0.17483287,0
0.9500000000000006,20.999998364779024,1.4784317896476828,-3.3637234023721327,-0.903705125983336,15.912319,-1.8244387,-4.8988667,-0.9595126,9.116273,-10.73954,1.0363877,0.25359765,-0.23454578,0.39317644,0.8521081,-9.106549,5.308935,-1.31749,0.50858927,-2.4859357,-0.21059884,0
0.9600000000000006,20.99994497917607,1.7445592699182872,-3.6429274252538817,-1.0146073609845117,15.775091,-1.3502631,-4.9310575,-0.6895167,9.0250025,-10.685623,1.023335,0.26025736,-0.22333878,0.392132,0.85359114,-9.146825,5.474368,-1.292678,0.6597589,-2.6228611,-0.24460976,0
0.9700000000000006,20.99994497917607,1.7445592699182872,-3.6429274252538817,-1.0146073609845117,15.775091,-1.3502631,-4.9310575,-0.6895167,8.933354,-10.630054,1.0105429,0.26749173,-0.21131898,0.39146605,0.85471994,-9.182072,5.639094,-1.2653981,0.82883936,-2.7819872,-0.28239378,0
0.9800000000000006,20.99994497917607,1.7445592699182872,-3.6429274252538817,-1.0146073609845117,15.775091,-1.3502631,-4.9310575,-0.6895167,8.84138,-10.572844,0.9980354,0.27527785,-0.19849303,0.39114702,0.85546833,-9.211816,5.8030767,-1.2357414,0.97155255,-2.9162989,-0.3183237,0
0.9900000000000007,20.99994497917607,1.7445592699182872,-3.6429274252538817,-1.0146073609845117,15.775091,-1.3502631,-4.9310575,-0.6895167,8.749138,-10.513996,0.98583585,0.2835203,-0.18497926,0.39109147,0.8558305,-9.235623,5.9662414,-1.203815,1.0920117,-3.0296655,-0.35249054,0
1.0000000000000007,20.381825345211226,1.5317437365545614,-3.5027907598157184,-1.0333865653959957,15.581982,-1.2145641,-4.8102565,-0.8519469,8.656689,-10.453523,0.9739665,0.29213762,-0.17087896,0.39122903,0.855801,-9.253128,6.1284757,-1.1697423,1.193688,-3.125352,-0.3849808,0
1.0100000000000007,20.381825345211226,1.5317437365545614,-3.5027907598157184,-1.0333865653959957,15.581982,-1.2145641,-4.8102565,-0.8519469,8.564098,-10.391455,0.9624282,0.30102617,-0.15635331,0.39144406,0.8553992,-9.263711,6.2848897,-1.1376089,1.2463268,-3.184252,-0.41679826,0
1.0200000000000007,20.381825345211226,1.5317437365545614,-3.5027907598157184,-1.0333865653959957,15.581982,-1.2145641,-4.8102565,-0.8519469,8.4714365,-10.327829,0.9512205,0.31010216,-0.14153749,0.3916444,0.85464483,-9.267699,6.44008,-1.1036559,1.29076,-3.2339656,-0.44705445,0
1.0300000000000007,20.381825345211226,1.5317437365545614,-3.5027907598157184,-1.0333865653959957,15.581982,-1.2145641,-4.8102565,-0.8519469,8.378768,-10.262658,0.94036084,0.3193273,-0.12647715,0.39180705,0.8535339,-9.264959,6.59385,-1.0680205,1.3282677,-3.2759244,-0.4758259,0
1.0400000000000007,20.381825345211226,1.5317437365545614,-3.5027907598157184,-1.0333865653959957,15.426544,-1.8461375,-4.2161417,-0.67610717,8.286161,-10.195958,0.92986536,0.32866812,-0.1112118,0.3919131,0.8520638,-9.255387,6.745992,-1.0308466,1.3599298,-3.3113382,-0.5031856,0
1.0500000000000007,20.381825345211226,1.5317437365545614,-3.5027907598157184,-1.0333865653959957,15.426544,-1.8461375,-4.2161417,-0.67610717,8.193686,-10.127745,0.9197487,0.33809537,-0.095775805,0.39194688,0.8502326,-9.238907,6.8962903,-0.9922848,1.3866577,-3.3412275,-0.5292027,0
1.0600000000000007,20.381825345211226,1.5317437365545614,-3.5027907598157184,-1.0333865653959957,15.426544,-1.8461375,-4.2161417,-0.67610717,8.101409,-10.058039,0.9100239,0.34758323,-0.08019913,0.39189562,0.84803957,-9.215467,7.044524,-0.95249027,1.4092208,-3.3664536,-0.5539431,0
1.0700000000000007,20.381825345211226,1.5317437365545614,-3.5027907598157184,-1.0333865653959957,15.426544,-1.8461375,-4.2161417,-0.67610717,8.0094,-9.986861,0.9007026,0.3571089,-0.06450799,0.39174896,0.8454845,-9.185043,7.190469,-0.9116222,1.4282688,-3.387744,-0.5774696,0
1.0800000000000007,19.576388918305792,0.8925257230987158,-2.7433792923238256,-0.8906178024830562,15.38755,-2.4915931,-3.5920305,-0.19982564,7.917732,-9.914237,0.89179456,0.36665192,-0.04872541,0.39149842,0.8425678,-9.147629,7.333896,-0.86984307,1.4443492,-3.4057124,-0.5998416,0
1.0900000000000007,19.576388918305792,0.8925257230987158,-2.7433792923238256,-0.8906178024830562,15.38755,-2.4915931,-3.5920305,-0.19982564,7.826463,-9.8402195,0.8832805,0.37605092,-0.033215355,0.39103702,0.8393877,-9.105027,7.4690256,-0.83287,1.3583024,-3.302401,-0.61411005,0
1.1000000000000008,19.576388918305792,0.8925257230987158,-2.7433792923238256,-0.8906178024830562,15.38755,-2.4915931,-3.5920305,-0.19982564,7.735653,-9.764866,0.87513924,0.38518566,-0.018269174,0.39029112,0.83604443,-9.056014,7.6013546,-0.7952999,1.2856712,-3.2152042,-0.62767833,0
1.1100000000000008,19.576388918305792,0.8925257230987158,-2.7433792923238256,-0.8906178024830562,15.38755,-2.4915931,-3.5920305,-0.19982564,7.645364,-9.688203,0.86737615,0.39409354,-0.0038070518,0.3892981,0.83253944,-9.000884,7.73074,-0.75723886,1.224364,-3.1416087,-0.6405808,0
1.1200000000000008,18.644664763841803,-0.06533655453703037,-1.7733841618960933,-0.633839474357573,15.217705,-3.3283763,-2.931614,0.07181919,7.5556555,-9.610261,0.8599958,0.40280473,0.010238819,0.3880886,0.8288727,-8.9399,7.857051,-0.7187859,1.1726153,-3.0794928,-0.6528502,0
1.1300000000000008,18.644664763841803,-0.06533655453703037,-1.7733841618960933,-0.633839474357573,15.217705,-3.3283763,-2.931614,0.07181919,7.4665694,-9.531101,0.85296893,0.41117427,0.02346154,0.3865299,0.82521456,-8.8765135,7.9743137,-0.68653613,0.97964585,-2.8757236,-0.65191734,0
1.1400000000000008,18.644664763841803,-0.06533655453703037,-1.7733841618960933,-0.633839474357573,15.217705,-3.3283763,-2.931614,0.07181919,7.3781414,-9.450786,0.84626603,0.41909868,0.035542134,0.38452995,0.82172316,-8.808305,8.088506,-0.65399307,0.8167559,-2.703745,-0.65103024,0
1.1500000000000008,18.644664763841803,-0.06533655453703037,-1.7733841618960933,-0.633839474357573,15.217705,-3.3283763,-2.931614,0.07181919,7.2904177,-9.369343,0.8398901,0.42665341,0.046653032,0.38216442,0.81837636,-8.735768,8.199626,-0.6211309,0.6792569,-2.558597,-0.65018666,0
1.1600000000000008,17.676283609286536,-1.1099320470421496,-0.8526376090727894,-0.22329566050049365,16.497534,-4.212454,-2.0574017,0.5447093,7.2034397,-9.286803,0.8338446,0.43389943,0.05694072,0.37949455,0.8151516,-8.659326,8.307679,-0.5879233,0.56319106,-2.4360938,-0.64938456,0
1.1700000000000008,17.676283609286536,-1.1099320470421496,-0.8526376090727894,-0.22329566050049365,16.497534,-4.212454,-2.0574017,0.5447093,7.117223,-9.203226,0.82809883,0.44073194,0.066066556,0.37638906,0.81223214,-8.583531,8.407232,-0.5611699,0.30240303,-2.18904,-0.6284763,0
1.1800000000000008,17.676283609286536,-1.1099320470421496,-0.8526376090727894,-0.22329566050049365,16.497534,-4.212454,-2.0574017,0.5447093,7.0317783,-9.118669,0.82262295,0.44707417,0.0737705,0.37275285,0.80977595,-8.504967,8.503984,-0.53392637,0.082261235,-1.9805374,-0.60859406,0
1.1900000000000008,17.676283609286536,-1.1099320470421496,-0.8526376090727894,-0.22329566050049365,16.497534,-4.212454,-2.0574017,0.5447093,6.947131,-9.033155,0.8174225,0.45300645,0.08027343,0.36867768,0.8077235,-8.424174,8.598041,-0.5060498,-0.10356866,-1.8045695,-0.58968735,0
1.2000000000000008,16.807897761993324,-2.0084607193212745,-0.095197286195171,0.26027285583281257,16.53765,-4.9616995,-0.8007985,1.0726811,6.863301,-8.946715,0.81250453,0.45859304,0.08576219,0.36423758,0.8060195,-8.341607,8.689503,-0.47741506,-0.26043406,-1.656059,-0.57170844,0
1.2100000000000009,16.807897761993324,-2.0084607193212745,-0.095197286195171,0.26027285583281257,16.53765,-4.9616995,-0.8007985,1.0726811,6.780283,-8.859396,0.8078459,0.46375948,0.09000679,0.35933805,0.8047989,-8.261806,8.774101,-0.45416942,-0.5329094,-1.4125557,-0.5308829,0
1.2200000000000009,16.807897761993324,-2.0084607193212745,-0.095197286195171,0.26027285583281257,16.53765,-4.9616995,-0.8007985,1.0726811,6.698067,-8.771242,0.80342466,0.46844572,0.092834614,0.35390776,0.8041697,-8.181228,8.856475,-0.42991003,-0.76291895,-1.2070537,-0.49206072,0
1.2300000000000009,16.807897761993324,-2.0084607193212745,-0.095197286195171,0.26027285583281257,16.53765,-4.9616995,-0.8007985,1.0726811,6.6166596,-8.682275,0.79925185,0.47271624,0.09446849,0.3480313,0.8040451,-8.100366,8.936769,-0.4044618,-0.95707977,-1.0336208,-0.4551435,0
1.2400000000000009,16.807897761993324,-2.0084607193212745,-0.095197286195171,0.26027285583281257,17.176577,-5.3512135,-0.4619407,1.3456248,6.53606,-8.592514,0.79534,0.4766225,0.09509632,0.34177753,0.8043476,-8.019637,9.015111,-0.3776802,-1.1209781,-0.8872511,-0.4200378,0
1.2500000000000009,16.807897761993324,-2.0084607193212745,-0.095197286195171,0.26027285583281257,17.176577,-5.3512135,-0.4619407,1.3456248,6.456265,-8.50198,0.79170316,0.48020598,0.09487661,0.33520284,0.8050086,-7.9393992,9.091612,-0.34944904,-1.2593298,-0.76372015,-0.38665476,0
1.260000000000001,16.807897761993324,-2.0084607193212745,-0.095197286195171,0.26027285583281257,17.176577,-5.3512135,-0.4619407,1.3456248,6.377269,-8.410688,0.7883563,0.4835003,0.09394303,0.3283537,0.8059684,-7.8599567,9.166363,-0.3196771,-1.3761163,-0.6594633,-0.35490987,0
1.270000000000001,16.807897761993324,-2.0084607193212745,-0.095197286195171,0.26027285583281257,17.176577,-5.3512135,-0.4619407,1.3456248,6.2990623,-8.318659,0.78531516,0.48653316,0.092408344,0.3212687,0.8071751,-7.7815695,9.239438,-0.28829554,-1.4746985,-0.57147247,-0.32472268,0
1.280000000000001,16.68094930313748,-2.6869608216339085,0.7034302200424893,0.7678311966384617,17.396912,-4.412207,-0.3862236,1.2608808,6.2216334,-8.225906,0.78259605,0.48932725,0.090367675,0.31398007,0.808584,-7.7044644,9.310901,-0.2552549,-1.5579133,-0.4972091,-0.29601678,0
1.290000000000001,16.68094930313748,-2.6869608216339085,0.7034302200424893,0.7678311966384617,17.396912,-4.412207,-0.3862236,1.2608808,6.144965,-8.132449,0.78021085,0.49177516,0.08752909,0.30644578,0.8102998,-7.6294346,9.380285,-0.22151783,-1.7339407,-0.30999482,-0.24381347,0
1.300000000000001,16.68094930313748,-2.6869608216339085,0.7034302200424893,0.7678311966384617,17.396912,-4.412207,-0.3862236,1.2608808,6.0690384,-8.038305,0.7781717,0.4937847,0.08366574,0.29863226,0.81240046,-7.556244,9.448259,-0.18602428,-1.8825336,-0.15198863,-0.19417176,0
1.310000000000001,16.68094930313748,-2.6869608216339085,0.7034302200424893,0.7678311966384617,17.396912,-4.412207,-0.3862236,1.2608808,5.993833,-7.9434886,0.7764966,0.49539313,0.078939304,0.29057515,0.8148124,-7.4852448,9.514954,-0.14871493,-2.0079658,-0.018632215,-0.146966,0
1.320000000000001,16.206333087479926,-3.121943209538528,1.1249872512471217,1.1949530108003388,16.896929,-4.1757097,-0.6790591,1.1643773,5.9193254,-7.8480105,0.77520376,0.49663103,0.07348622,0.2823042,0.81747216,-7.416742,9.580467,-0.10955687,-2.1138468,0.0939215,-0.10207665,0
1.330000000000001,16.206333087479926,-3.121943209538528,1.1249872512471217,1.1949530108003388,16.896929,-4.1757097,-0.6790591,1.1643773,5.8454795,-7.7518916,0.77429205,0.49744526,0.067211814,0.27378166,0.8204105,-7.352886,9.643053,-0.07249409,-2.2710586,0.25463217,-0.03843105,0
1.340000000000001,16.206333087479926,-3.121943209538528,1.1249872512471217,1.1949530108003388,16.896929,-4.1757097,-0.6790591,1.1643773,5.7722573,-7.6551523,0.77376014,0.4977861,0.060047537,0.26497698,0.82364404,-7.2920585,9.70467,-0.033602692,-2.4037652,0.3902724,0.02209147,0
1.350000000000001,16.206333087479926,-3.121943209538528,1.1249872512471217,1.1949530108003388,16.896929,-4.1757097,-0.6790591,1.1643773,5.699627,-7.5578017,0.7736263,0.49768144,0.05213494,0.25592315,0.8271019,-7.2345753,9.765398,0.0071174772,-2.5157852,0.50475514,0.07964413,0
1.360000000000001,15.543482980782134,-3.287920021899504,0.9973783474684361,1.5036300912573513,15.368137,-3.799615,-1.7837487,1.3295075,5.6275535,-7.4598475,0.77390873,0.49715474,0.043593694,0.24664849,0.8307228,-7.1807127,9.825292,0.049640507,-2.6103413,0.6013821,0.13437265,0
1.370000000000001,15.543482980782134,-3.287920021899504,0.9973783474684361,1.5036300912573513,15.368137,-3.799615,-1.7837487,1.3295075,5.5559893,-7.3613105,0.7745961,0.4962095,0.034543872,0.23709522,0.83448654,-7.1327596,9.88196,0.08809729,-2.7160437,0.6630094,0.20156252,0
1.380000000000001,15.543482980782134,-3.287920021899504,0.9973783474684361,1.5036300912573513,15.368137,-3.799615,-1.7837487,1.3295075,5.484885,-7.2622113,0.77567625,0.49484307,0.025087217,0.22721909,0.8383744,-7.088726,9.937835,0.12819134,-2.805264,0.7150257,0.26545534,0
1.390000000000001,15.543482980782134,-3.287920021899504,0.9973783474684361,1.5036300912573513,15.368137,-3.799615,-1.7837487,1.3295075,5.4142013,-7.1625566,0.7771653,0.49306697,0.015292446,0.21706155,0.84233874,-7.0488024,9.992875,0.16985947,-2.8805716,0.7589315,0.32621294,0
1.400000000000001,14.882120622843848,-3.2267682695234647,0.4366501900305972,1.6961487488368556,14.91087,-3.4544816,-2.2540002,1.2361532,5.343895,-7.062357,0.7790786,0.4908922,0.0052176937,0.20665863,0.84633857,-7.013153,10.04703,0.2130204,-2.944135,0.795993,0.38398916,0
1.410000000000001,14.882120622843848,-3.2267682695234647,0.4366501900305972,1.6961487488368556,14.91087,-3.4544816,-2.2540002,1.2361532,5.2739162,-6.9616313,0.78140026,0.48835522,-0.0048807394,0.19595264,0.8503453,-6.983239,10.097967,0.2515099,-2.9882286,0.7398174,0.4483772,0
1.420000000000001,14.882120622843848,-3.2267682695234647,0.4366501900305972,1.6961487488368556,14.91087,-3.4544816,-2.2540002,1.2361532,5.2042155,-6.860401,0.7841131,0.48548293,-0.014795809,0.18490213,0.8543406,-6.957599,10.147854,0.29125062,-3.0254426,0.692407,0.50960565,0
1.430000000000001,14.882120622843848,-3.2267682695234647,0.4366501900305972,1.6961487488368556,14.91087,-3.4544816,-2.2540002,1.2361532,5.13475,-6.7586784,0.78722924,0.4822734,-0.024548821,0.1735582,0.8583045,-6.9362593,10.196536,0.33214965,-3.0568507,0.6523956,0.56782967,0
1.440000000000001,14.882120622843848,-3.2267682695234647,0.4366501900305972,1.6961487488368556,13.88044,-3.0352325,-2.4564593,1.2225001,5.0654755,-6.656475,0.79075974,0.47872704,-0.034158085,0.1619647,0.8622183,-6.9192395,10.243873,0.3741055,-3.0833592,0.61862916,0.62319666,0
1.450000000000001,14.882120622843848,-3.2267682695234647,0.4366501900305972,1.6961487488368556,13.88044,-3.0352325,-2.4564593,1.2225001,4.9963503,-6.553806,0.7947146,0.47484598,-0.04363931,0.15015931,0.86606485,-6.9065537,10.289731,0.41700944,-3.1057327,0.59013397,0.6758467,0
1.460000000000001,14.882120622843848,-3.2267682695234647,0.4366501900305972,1.6961487488368556,13.88044,-3.0352325,-2.4564593,1.2225001,4.92733,-6.450686,0.7991028,0.47063377,-0.05300594,0.13817453,0.8698283,-6.898208,10.333987,0.4607467,-3.1246161,0.56608796,0.7259132,0
1.470000000000001,14.882120622843848,-3.2267682695234647,0.4366501900305972,1.6961487488368556,13.88044,-3.0352325,-2.4564593,1.2225001,4.8583713,-6.347132,0.80393195,0.46609512,-0.062269453,0.12603843,0.8734938,-6.8942027,10.376523,0.5051974,-3.140554,0.54579705,0.773523,0
1.480000000000001,14.568934799551615,-2.8248406491148432,0.24795457666138393,1.6988066056415032,11.911749,-2.3172674,-2.8147564,1.1257285,4.7894306,-6.243162,0.80920875,0.4612356,-0.0714396,0.11377534,0.87704754,-6.89453,10.417227,0.55023766,-3.1540062,0.52867585,0.8187965,0
1.490000000000001,14.568934799551615,-2.8248406491148432,0.24795457666138393,1.6988066056415032,11.911749,-2.3172674,-2.8147564,1.1257285,4.7204657,-6.138798,0.8149232,0.45608225,-0.08038456,0.10151327,0.8804666,-6.8990674,10.455178,0.59271795,-3.1026635,0.4848374,0.86197895,0
1.500000000000001,14.568934799551615,-2.8248406491148432,0.24795457666138393,1.6988066056415032,11.911749,-2.3172674,-2.8147564,1.1257285,4.6514344,-6.0340652,0.8210642,0.45066196,-0.08900156,0.089357086,0.88374025,-6.9077277,10.491148,0.6355252,-3.0593286,0.447838,0.9030423,0
1.5100000000000011,14.568934799551615,-2.8248406491148432,0.24795457666138393,1.6988066056415032,11.911749,-2.3172674,-2.8147564,1.1257285,4.5822964,-5.9289823,0.8276344,0.4449807,-0.09733732,0.077294916,0.8868721,-6.9204,10.525063,0.67853886,-3.0227528,0.4166109,0.94209075,0
1.5200000000000011,14.200425520334608,-2.2997279789022937,-0.22382534083803715,1.6313300958347026,10.617149,-1.8743546,-2.8988426,1.0154514,4.5130124,-5.823571,0.8346353,0.43904462,-0.105431266,0.0653168,0.8898634,-6.936983,10.556849,0.72164273,-2.9918818,0.3902554,0.979223,0
1.5300000000000011,14.200425520334608,-2.2997279789022937,-0.22382534083803715,1.6313300958347026,10.617149,-1.8743546,-2.8988426,1.0154514,4.443546,-5.717857,0.84204936,0.43290254,-0.113057435,0.05351849,0.8927195,-6.956847,10.58569,0.7611563,-2.8838859,0.2944984,1.0112221,0
1.5400000000000011,14.200425520334608,-2.2997279789022937,-0.22382534083803715,1.6313300958347026,10.617149,-1.8743546,-2.8988426,1.0154514,4.373863,-5.6118655,0.8498581,0.42659876,-0.120040275,0.041977804,0.89545554,-6.9802074,10.61232,0.8005665,-2.792738,0.21367058,1.041651,0
1.5500000000000012,14.200425520334608,-2.2997279789022937,-0.22382534083803715,1.6313300958347026,10.617149,-1.8743546,-2.8988426,1.0154514,4.3039303,-5.505619,0.8580601,0.42013276,-0.12647825,0.03066222,0.89808154,-7.0068483,10.636678,0.83980143,-2.7158098,0.14544404,1.0705866,0
1.5600000000000012,13.586265341390442,-1.6720673037598603,-0.8621009507616803,1.4292462935670343,10.0219555,-1.5997909,-3.590746,0.8578359,4.233715,-5.399141,0.86665326,0.41350463,-0.13245434,0.01954374,0.90060353,-7.0365806,10.65871,0.8787949,-2.6508834,0.08785423,1.0981023,0
1.5700000000000012,13.586265341390442,-1.6720673037598603,-0.8621009507616803,1.4292462935670343,10.0219555,-1.5997909,-3.590746,0.8578359,4.1631947,-5.292458,0.87560534,0.40677646,-0.13770564,0.008716593,0.9030465,-7.0678024,10.677514,0.91157377,-2.4981313,-0.060208336,1.1143516,0
1.5800000000000012,13.586265341390442,-1.6720673037598603,-0.8621009507616803,1.4292462935670343,10.0219555,-1.5997909,-3.590746,0.8578359,4.0923495,-5.185599,0.8848837,0.40000322,-0.14202951,-0.0017440757,0.9054396,-7.1015162,10.693995,0.9440477,-2.3692145,-0.18519337,1.1298035,0
1.5900000000000012,13.586265341390442,-1.6720673037598603,-0.8621009507616803,1.4292462935670343,10.0219555,-1.5997909,-3.590746,0.8578359,4.0211563,-5.0785866,0.89448524,0.3931757,-0.14557107,-0.011887006,0.9077883,-7.1374354,10.708111,0.9762107,-2.2604144,-0.29069838,1.1444973,0
1.6000000000000012,13.165595754227418,-1.101377550031556,-1.5410277705974618,1.1514635865812501,9.625956,-1.1400687,-4.3419,0.9324119,3.949594,-4.9714446,0.9044069,0.3862862,-0.14845239,-0.021754254,0.9100937,-7.1753116,10.719826,1.0080572,-2.1685922,-0.37975982,1.1584699,0
1.6100000000000012,13.165595754227418,-1.101377550031556,-1.5410277705974618,1.1514635865812501,9.625956,-1.1400687,-4.3419,0.9324119,3.8776503,-4.864199,0.9146253,0.37938786,-0.15044041,-0.031283263,0.91238856,-7.213682,10.728826,1.0355734,-2.0020242,-0.56073284,1.1581262,0
1.6200000000000012,13.165595754227418,-1.101377550031556,-1.5410277705974618,1.1514635865812501,9.625956,-1.1400687,-4.3419,0.9324119,3.8053157,-4.756876,0.9251174,0.37252653,-0.15135676,-0.040425148,0.9147021,-7.253405,10.735439,1.0628171,-1.8614538,-0.7135028,1.1577992,0
1.6300000000000012,13.165595754227418,-1.101377550031556,-1.5410277705974618,1.1514635865812501,9.625956,-1.1400687,-4.3419,0.9324119,3.7325785,-4.6494985,0.93588084,0.36568666,-0.15136914,-0.049232475,0.9170255,-7.2941723,10.739643,1.0898297,-1.7428234,-0.8424651,1.1574883,0
1.6400000000000012,13.165595754227418,-1.101377550031556,-1.5410277705974618,1.1514635865812501,9.35565,-1.0172057,-4.75921,0.816021,3.6594296,-4.5420914,0.94691336,0.3588551,-0.15061855,-0.057750497,0.9193481,-7.3357162,10.741418,1.1166447,-1.6427084,-0.95132977,1.1571927,0
1.6500000000000012,13.165595754227418,-1.101377550031556,-1.5410277705974618,1.1514635865812501,9.35565,-1.0172057,-4.75921,0.816021,3.585862,-4.4346786,0.95821315,0.35202107,-0.14922355,-0.0660181,0.9216584,-7.377805,10.740754,1.1432879,-1.5582191,-1.0432291,1.1569115,0
1.6600000000000013,13.165595754227418,-1.101377550031556,-1.5410277705974618,1.1514635865812501,9.35565,-1.0172057,-4.75921,0.816021,3.511872,-4.3272843,0.96977854,0.34517574,-0.1472839,-0.07406864,0.9239449,-7.420239,10.737649,1.1697775,-1.4869168,-1.1208065,1.1566442,0
1.6700000000000013,13.165595754227418,-1.101377550031556,-1.5410277705974618,1.1514635865812501,9.35565,-1.0172057,-4.75921,0.816021,3.4374566,-4.219934,0.9816081,0.33831206,-0.14488348,-0.08193074,0.92619663,-7.4628406,10.732099,1.1961248,-1.4267431,-1.1862942,1.1563901,0
1.6800000000000013,13.363363008901898,-0.5540385393281467,-1.1473599895073336,0.9044396307539185,8.899889,-1.4707329,-5.1369514,0.6564583,3.362615,-4.1126513,0.9937005,0.3314246,-0.14209297,-0.08962888,0.92840356,-7.505456,10.72411,1.2223347,-1.3759611,-1.2415762,1.1561483,0
1.6900000000000013,13.363363008901898,-0.5540385393281467,-1.1473599895073336,0.9044396307539185,8.899889,-1.4707329,-5.1369514,0.6564583,3.287345,-4.005461,1.0060637,0.32458356,-0.13904378,-0.09693316,0.9305458,-7.5485854,10.713547,1.2502737,-1.2478037,-1.2267766,1.1437968,0
1.7000000000000013,13.363363008901898,-0.5540385393281467,-1.1473599895073336,0.9044396307539185,8.899889,-1.4707329,-5.1369514,0.6564583,3.2116444,-3.8983884,1.0187056,0.3178516,-0.13584538,-0.10366461,0.9326142,-7.591462,10.700645,1.278081,-1.1396297,-1.2143022,1.1320515,0
1.7100000000000013,13.363363008901898,-0.5540385393281467,-1.1473599895073336,0.9044396307539185,8.899889,-1.4707329,-5.1369514,0.6564583,3.135517,-3.7914557,1.0316248,0.31121433,-0.1325225,-0.10991107,0.93461335,-7.633978,10.685538,1.3057655,-1.0483235,-1.2037876,1.1208825,0
1.7200000000000013,13.180103310406219,-0.008142641568600313,-0.6932211017432859,0.6438220529208869,9.04966,-1.1499503,-4.905318,0.18624043,3.0589666,-3.6846848,1.0448203,0.30465934,-0.12909538,-0.11574672,0.93654627,-7.676039,10.668337,1.3333342,-0.9712546,-1.1949247,1.1102616,0
1.7300000000000013,13.180103310406219,-0.008142641568600313,-0.6932211017432859,0.6438220529208869,9.04966,-1.1499503,-4.905318,0.18624043,2.982001,-3.5780945,1.0582825,0.29825583,-0.12568153,-0.120978884,0.9384087,-7.716997,10.649423,1.3590724,-0.8211313,-1.1165636,1.0873733,0
1.7400000000000013,13.180103310406219,-0.008142641568600313,-0.6932211017432859,0.6438220529208869,9.04966,-1.1499503,-4.905318,0.18624043,2.9046288,-3.4717023,1.0720016,0.29206425,-0.12237649,-0.12546012,0.94020283,-7.757372,10.628753,1.3847218,-0.69440794,-1.0504438,1.0656081,0
1.7500000000000013,13.180103310406219,-0.008142641568600313,-0.6932211017432859,0.6438220529208869,9.04966,-1.1499503,-4.905318,0.18624043,2.826856,-3.3655248,1.0859767,0.28606197,-0.11916531,-0.1293089,0.9419376,-7.79712,10.606524,1.4103042,-0.58743733,-0.9946528,1.0449109,0
1.7600000000000013,12.731369864829427,0.44785847250227656,-0.3181232365465416,0.3817990207843229,11.13517,-0.5000776,-4.4248176,-1.1777979,2.7486887,-3.2595768,1.1002074,0.2802292,-0.11603468,-0.13262494,0.94361925,-7.8362064,10.582906,1.4358399,-0.4971408,-0.9475769,1.0252295,0
1.7700000000000014,12.731369864829427,0.44785847250227656,-0.3181232365465416,0.3817990207843229,11.13517,-0.5000776,-4.4248176,-1.1777979,2.6701407,-3.1538668,1.1146724,0.27462038,-0.113059595,-0.13528201,0.94525087,-7.8732986,10.5589,1.4571408,-0.34985194,-0.84930825,0.99365616,0
1.7800000000000014,12.731369864829427,0.44785847250227656,-0.3181232365465416,0.3817990207843229,11.13517,-0.5000776,-4.4248176,-1.1777979,2.591225,-3.048402,1.1293503,0.2692822,-0.11029951,-0.13718568,0.94683707,-7.909718,10.533909,1.4784466,-0.2255182,-0.7663854,0.9636321,0
1.7900000000000014,12.731369864829427,0.44785847250227656,-0.3181232365465416,0.3817990207843229,11.13517,-0.5000776,-4.4248176,-1.1777979,2.5119483,-2.9431913,1.1442415,0.26418746,-0.107722,-0.13845584,0.9483829,-7.945464,10.50813,1.4997885,-0.12056242,-0.696411,0.9350814,0
1.8000000000000014,11.9724286508341,0.8262947498434098,0.014514381255872184,0.15408743184525694,10.380039,0.13171177,-4.0407124,-0.8849033,2.4323177,-2.8382416,1.1593463,0.25931224,-0.105299085,-0.1391933,0.9498914,-7.9805408,10.481733,1.5211941,-0.031964753,-0.63736266,0.9079317,0
1.8100000000000014,11.9724286508341,0.8262947498434098,0.014514381255872184,0.15408743184525694,10.380039,0.13171177,-4.0407124,-0.8849033,2.35235,-2.7335503,1.17463,0.25469676,-0.1030904,-0.13930763,0.9513646,-8.012902,10.456474,1.5355599,0.10180715,-0.5356261,0.8709403,0
1.8200000000000014,11.9724286508341,0.8262947498434098,0.014514381255872184,0.15408743184525694,10.380039,0.13171177,-4.0407124,-0.8849033,2.2720618,-2.629113,1.1900581,0.25037476,-0.10114218,-0.13873222,0.952804,-8.04466,10.430961,1.5500404,0.2147313,-0.44977278,0.8357641,0
1.8300000000000014,11.9724286508341,0.8262947498434098,0.014514381255872184,0.15408743184525694,10.380039,0.13171177,-4.0407124,-0.8849033,2.1914587,-2.5249312,1.2056315,0.24631757,-0.09941386,-0.13757704,0.95420986,-8.075839,10.405368,1.5646646,0.3100565,-0.37732232,0.80231404,0
1.8400000000000014,11.9724286508341,0.8262947498434098,0.014514381255872184,0.15408743184525694,10.111141,0.074466325,-3.641695,-0.76258755,2.1105466,-2.421005,1.221352,0.24250004,-0.09787079,-0.13593449,0.95558167,-8.106464,10.379844,1.5794564,0.39052495,-0.31618157,0.7705053,0
1.8500000000000014,11.9724286508341,0.8262947498434098,0.014514381255872184,0.15408743184525694,10.111141,0.074466325,-3.641695,-0.76258755,2.0293312,-2.3173335,1.2372212,0.23890007,-0.09648346,-0.13388231,0.9569183,-8.136556,10.354513,1.5944353,0.45845193,-0.26458454,0.7402575,0
1.8600000000000014,11.9724286508341,0.8262947498434098,0.014514381255872184,0.15408743184525694,10.111141,0.074466325,-3.641695,-0.76258755,1.9478173,-2.2139137,1.2532413,0.23549822,-0.095226794,-0.13148588,0.9582188,-8.166133,10.329482,1.6096165,0.5157918,-0.22104119,0.71149397,0
1.8700000000000014,11.9724286508341,0.8262947498434098,0.014514381255872184,0.15408743184525694,10.111141,0.074466325,-3.641695,-0.76258755,1.8660102,-2.1107426,1.2694142,0.23227742,-0.09407948,-0.1288002,0.95948225,-8.195212,10.304842,1.6250114,0.5641941,-0.18429413,0.6841419,0
1.8800000000000014,12.273652743762495,0.8089038739371618,0.6453343225052238,-0.0014332139506651694,9.682545,0.2477024,-3.3712945,-0.78977996,1.7839147,-2.0078156,1.2857422,0.22922257,-0.09302349,-0.12587154,0.9607077,-8.223813,10.280668,1.6406283,0.605052,-0.15328205,0.65813196,0
1.8900000000000015,12.273652743762495,0.8089038739371618,0.6453343225052238,-0.0014332139506651694,9.682545,0.2477024,-3.3712945,-0.78977996,1.7015319,-1.9051306,1.3022418,0.22636966,-0.09228539,-0.12268978,0.96186626,-8.252667,10.256439,1.6593379,0.63678837,-0.028738042,0.62576693,0
1.9000000000000015,12.273652743762495,0.8089038739371618,0.6453343225052238,-0.0014332139506651694,9.682545,0.2477024,-3.3712945,-0.78977996,1.6188625,-1.8026847,1.3189296,0.22374786,-0.09204402,-0.11924996,0.96293485,-8.281154,10.232857,1.6782703,0.6635883,0.07638084,0.59499013,0
1.9100000000000015,12.273652743762495,0.8089038739371618,0.6453343225052238,-0.0014332139506651694,9.682545,0.2477024,-3.3712945,-0.78977996,1.5359097,-1.7004709,1.3358078,0.22133513,-0.09222089,-0.115594625,0.9639208,-8.309377,10.210015,1.6974133,0.6862189,0.1651045,0.5657234,0
1.9200000000000015,11.948625494433013,0.7893398054855681,1.1538963535471503,-0.11469580732271052,9.256144,0.567655,-3.2319899,-0.78308535,1.4526756,-1.5984815,1.3528785,0.21911226,-0.092749685,-0.11175936,0.96482974,-8.337427,10.187991,1.7167544,0.7053283,0.23999025,0.5378929,0
1.9300000000000015,11.948625494433013,0.7893398054855681,1.1538963535471503,-0.11469580732271052,9.256144,0.567655,-3.2319899,-0.78308535,1.3691652,-1.4967052,1.370128,0.21709761,-0.093770996,-0.10773846,0.96564347,-8.36465,10.167416,1.7331642,0.71838766,0.38250297,0.5058701,0
1.9400000000000015,11.948625494433013,0.7893398054855681,1.1538963535471503,-0.11469580732271052,9.256144,0.567655,-3.2319899,-0.78308535,1.2853823,-1.3951298,1.3875424,0.21530508,-0.095393255,-0.103529334,0.9663461,-8.391916,10.147786,1.7497294,0.729423,0.50279063,0.47541875,0
1.9500000000000015,11.948625494433013,0.7893398054855681,1.1538963535471503,-0.11469580732271052,9.256144,0.567655,-3.2319899,-0.78308535,1.201326,-1.2937458,1.4051231,0.2137128,-0.09752145,-0.099163525,0.9669448,-8.419354,10.129181,1.7664242,0.7387467,0.6043192,0.44646165,0
1.9600000000000015,11.324020322983284,0.6888462971646088,1.405134713115835,-0.1986082146836252,9.137167,-0.8270293,-3.2788641,0.8262939,1.1169941,-1.1925424,1.4228714,0.21230166,-0.10007531,-0.09466741,0.96744525,-8.447075,10.111665,1.7832227,0.74662405,0.6900143,0.4189255,0
1.9700000000000015,11.324020322983284,0.6888462971646088,1.405134713115835,-0.1986082146836252,9.137167,-0.8270293,-3.2788641,0.8262939,1.0323907,-1.0915043,1.4407578,0.21107031,-0.1030919,-0.09008178,0.96783566,-8.473703,10.0961485,1.7940876,0.73759896,0.80152005,0.3886229,0
1.9800000000000015,11.324020322983284,0.6888462971646088,1.405134713115835,-0.1986082146836252,9.137167,-0.8270293,-3.2788641,0.8262939,0.9475186,-0.99061567,1.4587531,0.21001692,-0.10659689,-0.085440256,0.968106,-8.500799,10.081761,1.8049923,0.72998893,0.89563787,0.35980728,0
1.9900000000000015,11.324020322983284,0.6888462971646088,1.405134713115835,-0.1986082146836252,9.137167,-0.8270293,-3.2788641,0.8262939,0.86237276,-0.8898651,1.4768575,0.20912519,-0.11051241,-0.08075351,0.9682622,-8.528462,10.068541,1.8159022,0.72357136,0.97507924,0.33240563,0
2.0000000000000013,,,,,7.9783263,-0.38639104,-3.4066682,-0.048706286,0.776947,-0.7892407,1.495071,0.20838083,-0.11477275,-0.076030485,0.9683095,-8.556779,10.056521,1.8267835,0.7181591,1.0421329,0.30634862,0
2.010000000000001,,,,,7.9783263,-0.38639104,-3.4066682,-0.048706286,0.6912418,-0.68872774,1.513366,0.2077706,-0.11936562,-0.071333535,0.96824276,-8.584378,10.046263,1.8321922,0.6890728,1.1109788,0.27983463,0
2.020000000000001,,,,,7.9783263,-0.38639104,-3.4066682,-0.048706286,0.60525686,-0.58831143,1.5317146,0.20728295,-0.124278344,-0.066712566,0.9680586,-8.6127405,10.037174,1.837504,0.6645259,1.1690907,0.25462168,0
2.0300000000000007,,,,,7.9783263,-0.38639104,-3.4066682,-0.048706286,0.51898414,-0.48798013,1.5501155,0.20690846,-0.12945922,-0.06215763,0.9677629,-8.641932,10.029259,1.8426819,0.64380926,1.2181423,0.23064597,0
2.0400000000000005,,,,,7.9783263,-0.38639104,-3.4066682,-0.048706286,0.4324152,-0.38772216,1.5685675,0.20663878,-0.13486458,-0.05766033,0.9673607,-8.672002,10.022516,1.84769,0.626325,1.2595457,0.20784673,0
2.0500000000000003,,,,,7.5191846,0.38531542,-3.6081069,-1.0568817,0.34554088,-0.28752574,1.5870686,0.20646638,-0.14045757,-0.053213548,0.9668562,-8.703,10.016949,1.8524936,0.6115685,1.2944933,0.18616626,1
2.06,,,,,7.5191846,0.38531542,-3.6081069,-1.0568817,0.25837827,-0.18737546,1.6055316,0.20630197,-0.14470476,-0.04959511,0.9664572,-8.729512,10.013254,1.83974,0.42816174,0.6781195,0.13843822,1
2.07,,,,,7.5191846,0.38531542,-3.6081069,-1.0568817,0.17095144,-0.0872582,1.6238556,0.20610663,-0.14630075,-0.047364727,0.96637046,-8.755788,10.010285,1.8247423,0.2966267,0.13457073,0.0909676,1
2.0799999999999996,,,,,7.5191846,0.38531542,-3.6081069,-1.0568817,0.083264574,0.012831558,1.6420194,0.20593762,-0.1455257,-0.046224866,0.96657866,-8.781465,10.007705,1.8076926,0.20794255,-0.34657565,0.043825738,1
2.0899999999999994,,,,,5.6235785,-0.39981976,-4.928248,-0.88410217,-0.004674768,0.112896346,1.660003,0.20583814,-0.14261873,-0.045926813,0.9670473,-8.806242,10.005256,1.7887647,0.15456082,-0.77418345,-0.0029255077,1
2.099999999999999,,,,,5.6235785,-0.39981976,-4.928248,-0.88410217,-0.09283513,0.21293862,1.6777196,0.20572859,-0.13748103,-0.046762787,0.96777433,-8.825658,10.003175,1.7543329,-0.039636876,-1.3142933,-0.03652189,1
2.109999999999999,,,,,5.6235785,-0.39981976,-4.928248,-0.88410217,-0.1811838,0.31295887,1.6950846,0.2055373,-0.13005513,-0.04896043,0.96873224,-8.843873,10.000808,1.7184721,-0.18584459,-1.7878923,-0.07005475,1
2.1199999999999988,,,,,5.6235785,-0.39981976,-4.928248,-0.88410217,-0.26970783,0.41295314,1.7120844,0.20530063,-0.12058696,-0.052241605,0.9698353,-8.860708,9.997956,1.6812879,-0.2923043,-2.204594,-0.103459075,1
2.1299999999999986,,,,,5.819344,-1.3596525,-4.9851704,-0.6634913,-0.3583927,0.51291585,1.7287061,0.20504351,-0.10928751,-0.056372654,0.97099674,-8.876019,9.994473,1.6428589,-0.36591807,-2.572567,-0.13667801,1
2.1399999999999983,,,,,5.819344,-1.3596525,-4.9851704,-0.6634913,-0.44721994,0.61284083,1.7449267,0.20472826,-0.09626445,-0.061447065,0.97213316,-8.889225,9.990389,1.6012846,-0.5209733,-2.9487886,-0.16252889,1
2.149999999999998,,,,,5.819344,-1.3596525,-4.9851704,-0.6634913,-0.53617233,0.71272033,1.7607328,0.20431451,-0.081675954,-0.067567356,0.97314864,-8.90103,9.985347,1.5599422,-0.6518506,-3.2663372,-0.18711126,1
2.159999999999998,,,,,5.819344,-1.3596525,-4.9851704,-0.6634913,-0.62523514,0.81254405,1.7761263,0.20381276,-0.06575846,-0.07456285,0.9739485,-8.9112835,9.979203,1.5187918,-0.7623181,-3.534363,-0.21048738,1
2.1699999999999977,,,,,5.909455,-0.74376106,-5.762735,-1.0611359,-0.7143922,0.9123002,1.7911092,0.20322993,-0.04871396,-0.082287505,0.9744498,-8.919859,9.971835,1.4777734,-0.8555574,-3.7605908,-0.2327164,1
2.1799999999999975,,,,,5.909455,-0.74376106,-5.762735,-1.0611359,-0.8036291,1.0119727,1.8057055,0.2025975,-0.030480638,-0.09052043,0.9745924,-8.927171,9.962469,1.4412776,-0.8760877,-4.0349746,-0.2699738,1
2.1899999999999973,,,,,5.909455,-0.74376106,-5.762735,-1.0611359,-0.8929281,1.1115452,1.81993,0.2019392,-0.010962877,-0.09903906,0.9743156,-8.9322815,9.951845,1.4033821,-0.87893456,-4.281059,-0.3066984,1
2.199999999999997,,,,,5.909455,-0.74376106,-5.762735,-1.0611359,-0.982267,1.2110053,1.8337681,0.20124611,0.009720669,-0.10772558,0.9735502,-8.935145,9.939969,1.3640283,-0.8673366,-4.502775,-0.34287328,1
2.209999999999997,,,,,5.998343,-2.6396155,-5.6137,-0.3022411,-1.0716232,1.3103403,1.8472062,0.2005072,0.03145547,-0.11648452,0.9722335,-8.935737,9.926775,1.3235468,-0.8484446,-4.6990223,-0.3780973,1
2.2199999999999966,,,,,5.998343,-2.6396155,-5.6137,-0.3022411,-1.1609737,1.4095346,1.8602419,0.19965771,0.05386716,-0.12599535,0.97023684,-8.933975,9.9118395,1.2835085,-1.1278,-4.8415995,-0.37437502,1
