time-since-start [s],throttle_mpc,roll_mpc,pitch_mpc,yaw_mpc,throttle_nw,roll_nw,pitch_nw,yaw_nw,position_x [m],position_y [m],position_z [m],rotation_w [quaternion],rotation_x [quaternion],rotation_y [quaternion],rotation_z [quaternion],velocity_x [m/s],velocity_y [m/s],velocity_z [m/s],omega_x [rad/s],omega_y [rad/s],omega_z [rad/s],network_used
0.0,10.528983957824554,5.999999785388381,-5.99999995724551,-5.345664665644715,8.799521,3.063724,-3.869544,-2.8057814,19.514679,-9.035022,1.4488914,-0.16590787,-0.39752057,0.17128308,0.8860666,-11.196371,-6.319476,0.3520152,1.8980899,-0.13700616,-0.6045165,0
0.01,10.528983957824554,5.999999785388381,-5.99999995724551,-5.345664665644715,13.985047,0.040432855,-5.256454,-1.4312359,19.402037,-9.098061,1.4524764,-0.15901494,-0.39865318,0.17822687,0.88545185,-11.331752,-6.287832,0.36455473,1.7836491,-0.29744768,-0.76974463,0
0.02,10.528983957824554,5.999999785388381,-5.99999995724551,-5.345664665644715,13.985047,0.040432855,-5.256454,-1.4312359,19.288048,-9.160769,1.4561738,-0.15142989,-0.39910802,0.18454745,0.8852818,-11.465455,-6.2536125,0.37453106,1.7119079,-0.45774823,-0.9290887,0
0.03,10.528983957824554,5.999999785388381,-5.99999995724551,-5.345664665644715,13.985047,0.040432855,-5.256454,-1.4312359,19.172733,-9.2231245,1.4599591,-0.1430941,-0.3989161,0.19042432,0.88551027,-11.597171,-6.2169213,0.3821546,1.6769326,-0.6186646,-1.0829024,0
0.04,10.528983957824554,5.999999785388381,-5.99999995724551,-5.345664665644715,10.792757,-0.16227873,-7.0305347,-1.950728,19.056112,-9.285101,1.4638097,-0.133957,-0.39809588,0.1960111,0.88608956,-11.726614,-6.1778097,0.38761258,1.6735895,-0.7807071,-1.2315106,0
0.05,10.528983957824554,5.999999785388381,-5.99999995724551,-5.345664665644715,10.792757,-0.16227873,-7.0305347,-1.950728,18.93821,-9.346673,1.4677047,-0.123975426,-0.39665547,0.20143858,0.8869706,-11.853522,-6.1362906,0.39107144,1.6974308,-0.9441906,-1.3752123,0
0.060000000000000005,10.528983957824554,5.999999785388381,-5.99999995724551,-5.345664665644715,10.792757,-0.16227873,-7.0305347,-1.950728,18.819052,-9.407818,1.4716249,-0.11311297,-0.39459455,0.20681761,0.88810295,-11.977644,-6.092347,0.39267954,1.7446003,-1.1092758,-1.5142823,0
0.07,10.528983957824554,5.999999785388381,-5.99999995724551,-5.345664665644715,10.792757,-0.16227873,-7.0305347,-1.950728,18.69867,-9.468512,1.4755523,-0.101339445,-0.39190575,0.21224129,0.8894344,-12.098736,-6.045943,0.39256927,1.8117489,-1.2760042,-1.648974,0
0.08,13.22272099557387,5.999999901359498,-5.999999985062785,-5.114126052411163,11.952297,1.1162633,-6.8778505,-2.8529427,18.577091,-9.5287285,1.4794707,-0.08863047,-0.388576,0.21778692,0.89091074,-12.216557,-5.99703,0.3908589,1.8959664,-1.4443258,-1.7795202,0
0.09,13.22272099557387,5.999999901359498,-5.999999985062785,-5.114126052411163,11.952297,1.1162633,-6.8778505,-2.8529427,18.45429,-9.588416,1.4834157,-0.07480995,-0.38436994,0.22377859,0.8925168,-12.343116,-5.940012,0.39783603,2.099666,-1.7193226,-1.9041599,0
0.09999999999999999,13.22272099557387,5.999999901359498,-5.999999985062785,-5.114126052411163,11.952297,1.1162633,-6.8778505,-2.8529427,18.330244,-9.647518,1.4874214,-0.059720807,-0.37906227,0.23049097,0.89421415,-12.465085,-5.8800783,0.40301797,2.3070214,-1.9869212,-2.0258532,0
0.10999999999999999,13.22272099557387,5.999999901359498,-5.999999985062785,-5.114126052411163,11.952297,1.1162633,-6.8778505,-2.8529427,18.205004,-9.706006,1.4914705,-0.043374248,-0.3726475,0.23791017,0.89590794,-12.582113,-5.8170075,0.40655273,2.5169175,-2.2477257,-2.1446955,0
0.11999999999999998,13.22272099557387,5.999999901359498,-5.999999985062785,-5.114126052411163,11.952297,1.1162633,-6.8778505,-2.8529427,18.07862,-9.763847,1.4955472,-0.025785357,-0.36511505,0.24601518,0.8974979,-12.693837,-5.750634,0.40856352,2.728407,-2.5022414,-2.2607775,0
0.12999999999999998,17.538785860531448,5.99999996879594,-6.0,-4.111591734870261,13.421164,2.4174085,-7.263527,-2.966686,17.951147,-9.821007,1.4996368,-0.00697345,-0.35645038,0.2547783,0.8988784,-12.799887,-5.680848,0.40914947,2.9406872,-2.7508903,-2.3741846,0
0.13999999999999999,17.538785860531448,5.99999996879594,-6.0,-4.111591734870261,13.421164,2.4174085,-7.263527,-2.966686,17.822582,-9.877408,1.5037838,0.013374044,-0.3460299,0.26476926,0.8999897,-12.911772,-5.598806,0.42001095,3.406509,-3.2481637,-2.4584854,0
0.15,17.538785860531448,5.99999996879594,-6.0,-4.111591734870261,13.421164,2.4174085,-7.263527,-2.966686,17.692932,-9.932963,1.5080383,0.03545753,-0.33335114,0.27636585,0.9006895,-13.017561,-5.511282,0.4310126,3.8100815,-3.6781576,-2.5396037,0
0.16,20.767468897485337,5.9999999780357385,-6.0,-3.2957944745772507,14.881321,3.4181104,-7.755164,-2.7000306,17.562254,-9.987613,1.5124068,0.059031412,-0.31864896,0.28919515,0.90074646,-13.11683,-5.417391,0.44283926,4.1507964,-4.041019,-2.6167414,0
0.17,20.767468897485337,5.9999999780357385,-6.0,-3.2957944745772507,14.881321,3.4181104,-7.755164,-2.7000306,17.430534,-10.041199,1.5169997,0.08377513,-0.30211067,0.3029587,0.8999594,-13.225395,-5.29847,0.47584304,4.4385633,-4.3471074,-2.6500626,0
0.18000000000000002,20.767468897485337,5.9999999780357385,-6.0,-3.2957944745772507,14.881321,3.4181104,-7.755164,-2.7000306,17.29778,-10.093555,1.5219266,0.109395444,-0.28390098,0.31740192,0.89815855,-13.323783,-5.1718574,0.5096685,4.6815286,-4.6053915,-2.6817489,0
0.19000000000000003,20.767468897485337,5.9999999780357385,-6.0,-3.2957944745772507,14.881321,3.4181104,-7.755164,-2.7000306,17.164097,-10.144609,1.5271951,0.13571087,-0.2641956,0.33227676,0.89519566,-13.410857,-5.037836,0.5441204,4.886669,-4.823334,-2.7118802,0
0.20000000000000004,20.999999892208372,5.999999925939198,-5.999999967516161,-2.561334348924228,17.281097,4.914705,-7.0658846,-3.5456166,17.029606,-10.194288,1.5328102,0.16255498,-0.24315512,0.34736967,0.8909465,-13.485567,-4.8968964,0.57893646,5.0598745,-5.007235,-2.7405329,0
0.21000000000000005,20.999999892208372,5.999999925939198,-5.999999967516161,-2.561334348924228,17.281097,4.914705,-7.0658846,-3.5456166,16.894428,-10.242517,1.5387814,0.18969382,-0.22089607,0.36251855,0.88532555,-13.547647,-4.748064,0.61528724,5.2062397,-5.1622877,-2.7317395,0
0.22000000000000006,20.999999892208372,5.999999925939198,-5.999999967516161,-2.561334348924228,17.281097,4.914705,-7.0658846,-3.5456166,16.758701,-10.28923,1.5451148,0.21691155,-0.19752541,0.37758374,0.878273,-13.59541,-4.5937595,0.65131366,5.3298225,-5.293119,-2.723378,0
0.23000000000000007,20.999999892208372,5.999999925939198,-5.999999967516161,-2.561334348924228,17.281097,4.914705,-7.0658846,-3.5456166,16.622572,-10.334377,1.5518051,0.24408677,-0.17317323,0.39242387,0.8697333,-13.628131,-4.4349627,0.68660456,5.4341693,-5.403514,-2.7154262,0
0.24000000000000007,20.999999892208372,5.999999925939198,-5.999999967516161,-2.561334348924228,17.414345,4.3738265,-5.759901,-3.156081,16.486195,-10.377917,1.558843,0.27110732,-0.14796168,0.40691647,0.85966676,-13.645216,-4.2727675,0.7207177,5.5222726,-5.496664,-2.7078648,0
0.25000000000000006,20.999999892208372,5.999999925939198,-5.999999967516161,-2.561334348924228,17.414345,4.3738265,-5.759901,-3.156081,16.349726,-10.419825,1.566214,0.2978694,-0.12200588,0.42095527,0.8480477,-13.646216,-4.108363,0.75318927,5.596661,-5.575264,-2.7006745,0
0.26000000000000006,20.999999892208372,5.999999925939198,-5.999999967516161,-2.561334348924228,17.414345,4.3738265,-5.759901,-3.156081,16.213327,-10.460082,1.5738995,0.32427675,-0.09541474,0.43444794,0.83486253,-13.630829,-3.943011,0.7835424,5.6594706,-5.6415863,-2.6938372,0
0.2700000000000001,20.999999892208372,5.999999925939198,-5.999999967516161,-2.561334348924228,17.414345,4.3738265,-5.759901,-3.156081,16.077166,-10.498687,1.5818759,0.35024,-0.068291545,0.4473143,0.82010853,-13.598903,-3.7780278,0.8112956,5.7125015,-5.6975493,-2.6873353,0
0.2800000000000001,21.0,4.672389957390141,-5.45302410466736,-0.3533814418939773,16.948236,4.2664113,-4.6638365,-2.4164798,15.941406,-10.535649,1.5901148,0.37567598,-0.040734503,0.45948458,0.8037923,-13.550436,-3.6147652,0.8359706,5.757277,-5.7447715,-2.6811523,0
0.2900000000000001,21.0,4.672389957390141,-5.45302410466736,-0.3533814418939773,16.948236,4.2664113,-4.6638365,-2.4164798,15.806213,-10.570992,1.5985831,0.40017703,-0.013090723,0.47057632,0.7862854,-13.485624,-3.454593,0.8571261,5.588594,-5.698562,-2.566928,0
0.3000000000000001,21.0,4.672389957390141,-5.45302410466736,-0.3533814418939773,16.948236,4.2664113,-4.6638365,-2.4164798,15.671748,-10.604754,1.6072444,0.42342624,0.014361434,0.48032266,0.76798046,-13.405066,-3.2988544,0.8744986,5.446178,-5.659646,-2.4583085,0
0.3100000000000001,21.0,4.672389957390141,-5.45302410466736,-0.3533814418939773,16.948236,4.2664113,-4.6638365,-2.4164798,15.538164,-10.636988,1.6160594,0.4454747,0.041629516,0.48882008,0.74891526,-13.309512,-3.1487942,0.8878912,5.3259373,-5.6268716,-2.355019,0
0.3200000000000001,20.999999988790613,3.2358175294284677,-3.0475800856846686,-0.13339940815189905,16.669128,1.658171,-3.9813418,-0.3284665,15.405607,-10.667754,1.6249878,0.46636462,0.0687168,0.49614763,0.7291223,-13.199765,-3.0055554,0.8971132,5.2244177,-5.5992694,-2.2567983,0
0.3300000000000001,20.999999988790613,3.2358175294284677,-3.0475800856846686,-0.13339940815189905,16.669128,1.658171,-3.9813418,-0.3284665,15.274215,-10.697126,1.6339868,0.48568892,0.09467088,0.502423,0.70902365,-13.076749,-2.8701186,0.90199167,4.915237,-5.200545,-2.1526027,0
0.34000000000000014,20.999999988790613,3.2358175294284677,-3.0475800856846686,-0.13339940815189905,16.669128,1.658171,-3.9813418,-0.3284665,15.144113,-10.725184,1.6430125,0.5031865,0.11875744,0.5078275,0.6890652,-12.9418335,-2.7429602,0.90243924,4.654119,-4.8641233,-2.05352,0
0.35000000000000014,20.999999988790613,3.2358175294284677,-3.0475800856846686,-0.13339940815189905,16.669128,1.658171,-3.9813418,-0.3284665,15.015413,-10.752014,1.6520202,0.5190835,0.14127178,0.51249385,0.6692864,-12.7963915,-2.6243062,0.8984301,4.433597,-4.5802665,-1.9592991,0
0.36000000000000015,20.999999750045422,1.2520909058260645,-0.6493809113705435,0.46070751850113423,17.344093,-0.7482782,-3.5134096,-0.12161098,14.888217,-10.7777,1.6609658,0.5335688,0.16246411,0.51652193,0.6497034,-12.641626,-2.5143077,0.88996655,4.247364,-4.340759,-1.8697017,0
0.37000000000000016,20.999999750045422,1.2520909058260645,-0.6493809113705435,0.46070751850113423,17.344093,-0.7482782,-3.5134096,-0.12161098,14.76261,-10.802331,1.6698045,0.54640335,0.1815429,0.5199942,0.6309446,-12.478666,-2.4129782,0.8771007,3.7812371,-3.7642388,-1.7553478,0
0.38000000000000017,20.999999750045422,1.2520909058260645,-0.6493809113705435,0.46070751850113423,17.344093,-0.7482782,-3.5134096,-0.12161098,14.638668,-10.82599,1.6784935,0.5574623,0.19792296,0.5230461,0.6135835,-12.308873,-2.3197799,0.8600883,3.387608,-3.2777867,-1.6466054,0
0.3900000000000002,20.999999750045422,1.2520909058260645,-0.6493809113705435,0.46070751850113423,17.344093,-0.7482782,-3.5134096,-0.12161098,14.516453,-10.848754,1.686993,0.567034,0.21207392,0.52579945,0.59752125,-12.133467,-2.2340062,0.83924216,3.0552099,-2.8673246,-1.5431988,0
0.4000000000000002,20.999918156382048,-0.8994497474844985,1.6464858562125773,1.2854630470713735,17.719868,-2.0438945,-2.4157662,0.35653892,14.396015,-10.870694,1.6952661,0.57535154,0.22438845,0.52833784,0.5826484,-11.953413,-2.154997,0.8148495,2.774525,-2.5209765,-1.4448665,0
0.4100000000000002,20.999918156382048,-0.8994497474844985,1.6464858562125773,1.2854630470713735,17.719868,-2.0438945,-2.4157662,0.35653892,14.277398,-10.891875,1.7032787,0.5822631,0.23422274,0.53073615,0.5695859,-11.769535,-2.0820563,0.7872073,2.202349,-1.8703294,-1.3108885,0
0.4200000000000002,20.999918156382048,-0.8994497474844985,1.6464858562125773,1.2854630470713735,17.719868,-2.0438945,-2.4157662,0.35653892,14.160635,-10.912352,1.7110008,0.5876807,0.24110602,0.5330865,0.55885386,-11.582771,-2.0139933,0.75681204,1.719206,-1.3213265,-1.1834848,0
0.4300000000000002,20.999918156382048,-0.8994497474844985,1.6464858562125773,1.2854630470713735,17.719868,-2.0438945,-2.4157662,0.35653892,14.04575,-10.932166,1.7184072,0.59184885,0.24556512,0.5354444,0.5501924,-11.393928,-1.9495598,0.72416914,1.3112547,-0.85807806,-1.0623329,0
0.4400000000000002,20.999918156382048,-0.8994497474844985,1.6464858562125773,1.2854630470713735,19.40076,-2.4485707,0.9574526,1.4815754,13.932761,-10.95135,1.7254778,0.59495735,0.24803461,0.5378355,0.5433575,-11.203616,-1.8876665,0.6897046,0.96680367,-0.46718055,-0.9471259,0
0.45000000000000023,20.999918156382048,-0.8994497474844985,1.6464858562125773,1.2854630470713735,19.40076,-2.4485707,0.9574526,1.4815754,13.821681,-10.969924,1.7321962,0.59715503,0.24887325,0.54026693,0.5381258,-11.012309,-1.8273704,0.65377265,0.6759769,-0.13732654,-0.8375721,0
0.46000000000000024,20.999918156382048,-0.8994497474844985,1.6464858562125773,1.2854630470713735,19.40076,-2.4485707,0.9574526,1.4815754,13.712517,-10.987901,1.7385492,0.59856033,0.2483774,0.54273456,0.5342969,-10.820376,-1.7678614,0.6166652,0.4304333,0.14102203,-0.73339415,0
0.47000000000000025,20.999918156382048,-0.8994497474844985,1.6464858562125773,1.2854630470713735,19.40076,-2.4485707,0.9574526,1.4815754,13.605274,-11.005282,1.7445264,0.5992684,0.24679218,0.5452281,0.5316926,-10.628119,-1.7084472,0.57862073,0.22312745,0.37591252,-0.6343282,0
0.48000000000000026,20.99999892541429,-3.331770347423984,4.480243132666406,1.8290078149696094,17.050732,-2.8045673,3.3874483,1.0831388,13.499954,-11.022068,1.7501192,0.5993569,0.24432059,0.5477343,0.5301563,-10.435785,-1.6485387,0.5398328,0.04810944,0.5741335,-0.54012346,0
0.49000000000000027,20.99999892541429,-3.331770347423984,4.480243132666406,1.8290078149696094,17.050732,-2.8045673,3.3874483,1.0831388,13.396557,-11.03825,1.7553211,0.59846634,0.23998252,0.5503848,0.53039867,-10.243632,-1.5875117,0.50049466,-0.478854,1.1834407,-0.4238695,0
0.5000000000000002,20.99999892541429,-3.331770347423984,4.480243132666406,1.8290078149696094,17.050732,-2.8045673,3.3874483,1.0831388,13.295078,-11.053811,1.7601285,0.5962863,0.23300774,0.5532643,0.53296185,-10.052191,-1.5241215,0.4609705,-0.92374307,1.6976333,-0.31332016,0
0.5100000000000002,20.99999892541429,-3.331770347423984,4.480243132666406,1.8290078149696094,17.050732,-2.8045673,3.3874483,1.0831388,13.195508,-11.068721,1.7645413,0.59293,0.22382788,0.5562841,0.53747815,-9.862052,-1.4570823,0.42161718,-1.2993296,2.131569,-0.20819552,0
0.5200000000000002,20.99999964026809,-5.1430634862520135,5.573123758299649,1.7949121130775567,17.84506,-3.3096895,4.7804804,0.90663517,13.09783,-11.082938,1.7685624,0.58848184,0.21280095,0.55935663,0.5436219,-9.673781,-1.3853316,0.382709,-1.6163992,2.4977822,-0.10822938,0
0.5300000000000002,20.99999964026809,-5.1430634862520135,5.573123758299649,1.7949121130775567,17.84506,-3.3096895,4.7804804,0.90663517,13.002023,-11.09641,1.7721977,0.58291054,0.19955741,0.562257,0.5515967,-9.48798,-1.3079481,0.34449008,-2.1665263,2.9772887,-0.014841683,0
0.5400000000000003,20.99999964026809,-5.1430634862520135,5.573123758299649,1.7949121130775567,17.84506,-3.3096895,4.7804804,0.90663517,12.908058,-11.109075,1.7754561,0.57615614,0.18381096,0.56476593,0.5615128,-9.305475,-1.2238746,0.30736583,-2.630906,3.3819616,0.07396345,0
0.5500000000000003,20.99999964026809,-5.1430634862520135,5.573123758299649,1.7949121130775567,17.84506,-3.3096895,4.7804804,0.90663517,12.815899,-11.12086,1.7783502,0.56823677,0.16594934,0.5668098,0.5729695,-9.127189,-1.1321824,0.27171206,-3.022896,3.7234879,0.15841089,0
0.5600000000000003,20.99999980625636,-5.9168003112490855,5.30057979635045,1.5366185248049027,17.90842,-3.9733825,5.3421874,0.9460901,12.725496,-11.131689,1.7808963,0.5591647,0.1463016,0.5683196,0.5856136,-8.954063,-1.0321852,0.23779474,-3.3537738,4.011729,0.23871447,0
0.5700000000000003,20.99999980625636,-5.9168003112490855,5.30057979635045,1.5366185248049027,17.90842,-3.9733825,5.3421874,0.9460901,12.636796,-11.141473,1.7831128,0.5490738,0.12502314,0.56899405,0.5992769,-8.7870655,-0.92341965,0.20581336,-3.753682,4.2125077,0.302403,0
0.5800000000000003,20.99999980625636,-5.9168003112490855,5.30057979635045,1.5366185248049027,17.90842,-3.9733825,5.3421874,0.9460901,12.549731,-11.1501255,1.7850204,0.53806484,0.10225863,0.5685816,0.61379504,-8.627235,-0.805633,0.17604399,-4.091225,4.381965,0.36296636,0
0.5900000000000003,20.99999980625636,-5.9168003112490855,5.30057979635045,1.5366185248049027,17.90842,-3.9733825,5.3421874,0.9460901,12.464224,-11.157555,1.7866422,0.5261066,0.078256436,0.5670939,0.6288817,-8.47563,-0.6787687,0.14871232,-4.376126,4.5249915,0.42055777,0
0.6000000000000003,20.99999987863998,-5.751031488873385,4.217160592437096,1.2099085244448786,18.35176,-5.138178,5.760405,1.3086478,12.380186,-11.16367,1.7880034,0.5131793,0.05323285,0.56454325,0.6442856,-8.333285,-0.54295075,0.12394124,-4.616592,4.6457143,0.4753232,0
0.6100000000000003,20.99999987863998,-5.751031488873385,4.217160592437096,1.2099085244448786,18.35176,-5.138178,5.760405,1.3086478,12.297522,-11.168384,1.7891301,0.4995451,0.027670417,0.5607724,0.6597144,-8.2011795,-0.39849836,0.10178015,-4.7935944,4.5787144,0.5113695,0
0.6200000000000003,20.99999987863998,-5.751031488873385,4.217160592437096,1.2099085244448786,18.35176,-5.138178,5.760405,1.3086478,12.216124,-11.171613,1.7900484,0.48543903,0.00197226,0.5556865,0.67494994,-8.080105,-0.24603456,0.08229589,-4.9429884,4.52217,0.545647,0
0.6300000000000003,20.99999987863998,-5.751031488873385,4.217160592437096,1.2099085244448786,18.35176,-5.138178,5.760405,1.3086478,12.135879,-11.173279,1.7907853,0.47081846,-0.023793556,0.5493829,0.68988556,-7.970744,-0.08631071,0.06551575,-5.0690804,4.474452,0.57824254,0
0.6400000000000003,20.99999987863998,-5.751031488873385,4.217160592437096,1.2099085244448786,20.59747,-5.5666323,4.5370994,1.3660012,12.056666,-11.173317,1.7913678,0.45565367,-0.049566552,0.54194754,0.7044257,-7.8737183,0.07987165,0.051401183,-5.175504,4.434183,0.60923856,1
0.6500000000000004,20.99999987863998,-5.751031488873385,4.217160592437096,1.2099085244448786,20.59747,-5.5666323,4.5370994,1.3660012,11.978351,-11.1716795,1.7918137,0.43984702,-0.07533951,0.5335672,0.7184458,-7.791198,0.24837969,0.03818582,-5.236614,4.450082,0.64637315,1
0.6600000000000004,20.99999987863998,-5.751031488873385,4.217160592437096,1.2099085244448786,20.59747,-5.5666323,4.5370994,1.3660012,11.900796,-11.168333,1.7921393,0.42332667,-0.101102315,0.5243955,0.73183465,-7.7218137,0.42157358,0.027260948,-5.288189,4.463509,0.68168545,1
0.6700000000000004,20.99999987863998,-5.751031488873385,4.217160592437096,1.2099085244448786,20.59747,-5.5666323,4.5370994,1.3660012,11.823868,-11.163235,1.7923658,0.4061126,-0.12679827,0.51446027,0.7445302,-7.66599,0.59859806,0.018355435,-5.3317146,4.4748497,0.7152651,1
0.6800000000000004,20.999999851621197,-4.793236203403257,2.7339109161436426,0.7953546873006013,21.33714,-5.844762,4.0228252,1.1278607,11.747429,-11.156351,1.7925123,0.38822764,-0.15237498,0.5037884,0.75647753,-7.624076,0.77855915,0.011176563,-5.3684473,4.4844284,0.74719685,0
0.6900000000000004,20.999999851621197,-4.793236203403257,2.7339109161436426,0.7953546873006013,21.33714,-5.844762,4.0228252,1.1278607,11.671341,-11.147639,1.7926034,0.37016726,-0.17715497,0.4923633,0.7675744,-7.595735,0.9640669,0.0072426684,-5.278617,4.2114716,0.74955994,0
0.7000000000000004,20.999999851621197,-4.793236203403257,2.7339109161436426,0.7953546873006013,21.33714,-5.844762,4.0228252,1.1278607,11.595465,-11.137067,1.7926617,0.3523615,-0.20060861,0.48022282,0.7778068,-7.5815425,1.150528,0.0046177157,-5.2028155,3.9810765,0.7518071,0
0.7100000000000004,20.999999851621197,-4.793236203403257,2.7339109161436426,0.7953546873006013,21.33714,-5.844762,4.0228252,1.1278607,11.519662,-11.124629,1.7926997,0.33474255,-0.22289203,0.46745896,0.7872411,-7.5811048,1.3369161,0.0031860787,-5.138852,3.7866056,0.7539439,0
0.7200000000000004,20.99999971066131,-3.3225118303415893,0.9607839690154207,0.28669053479177026,21.259834,-5.426476,2.8392549,0.41683784,11.443797,-11.110332,1.792729,0.31725296,-0.24413788,0.45414573,0.7959264,-7.5940323,1.5222982,0.0028228837,-5.0848775,3.6224582,0.755976,0
0.7300000000000004,20.99999971066131,-3.3225118303415893,0.9607839690154207,0.28669053479177026,21.259834,-5.426476,2.8392549,0.41683784,11.367738,-11.094189,1.7927595,0.30036756,-0.2637414,0.44058487,0.8038064,-7.6198535,1.7058241,0.0034082155,-4.809785,3.2075794,0.73294806,0
0.7400000000000004,20.99999971066131,-3.3225118303415893,0.9607839690154207,0.28669053479177026,21.259834,-5.426476,2.8392549,0.41683784,11.291359,-11.076224,1.7928004,0.2844905,-0.2812561,0.42706132,0.8109123,-7.657627,1.8867714,0.0049087508,-4.5776377,2.857369,0.7110501,0
0.7500000000000004,20.99999971066131,-3.3225118303415893,0.9607839690154207,0.28669053479177026,21.259834,-5.426476,2.8392549,0.41683784,11.214547,-11.056465,1.792861,0.2694767,-0.29699764,0.4135968,0.8173814,-7.706352,2.064567,0.0073325327,-4.3817296,2.561748,0.6902266,0
0.7600000000000005,20.99999880870305,-1.4916154612223733,-0.7894515331138117,-0.2355356006546739,20.829361,-4.1177783,0.87520105,-0.0496162,11.1371975,-11.0349455,1.7929504,0.2551986,-0.3112317,0.4001993,0.82331586,-7.765152,2.2387512,0.010691945,-4.2164025,2.3122077,0.67042494,0
0.7700000000000005,20.99999880870305,-1.4916154612223733,-0.7894515331138117,-0.2355356006546739,20.829361,-4.1177783,0.87520105,-0.0496162,11.059213,-11.0117035,1.7930782,0.24211062,-0.3234506,0.3872826,0.8287184,-7.8331676,2.4089768,0.015011496,-3.7912085,1.8288016,0.6259692,0
0.7800000000000005,20.99999880870305,-1.4916154612223733,-0.7894515331138117,-0.2355356006546739,20.829361,-4.1177783,0.87520105,-0.0496162,10.980506,-10.986779,1.7932545,0.23058529,-0.33328944,0.3751999,0.8336507,-7.909146,2.5751462,0.020398233,-3.432382,1.4207277,0.5836949,0
0.7900000000000005,20.99999880870305,-1.4916154612223733,-0.7894515331138117,-0.2355356006546739,20.829361,-4.1177783,0.87520105,-0.0496162,10.901006,-10.960215,1.7934905,0.22040398,-0.34114143,0.36385685,0.83824384,-7.991856,2.7372985,0.026993793,-3.1295612,1.076249,0.54349494,0
0.8000000000000005,20.14309089416628,0.3240514114284962,-2.128127273796059,-0.5727597656111164,17.695011,-2.411141,-0.76661104,-0.4360071,10.820649,-10.932048,1.793799,0.21137635,-0.34733284,0.3531614,0.84258944,-8.080271,2.89552,0.034937102,-2.8740017,0.78545654,0.5052677,0
0.8100000000000005,20.14309089416628,0.3240514114284962,-2.128127273796059,-0.5727597656111164,17.695011,-2.411141,-0.76661104,-0.4360071,10.739403,-10.902349,1.7941724,0.20381573,-0.35154834,0.34351683,0.8466812,-8.169653,3.0436583,0.039977,-2.3751054,0.33133173,0.45236853,0
0.8200000000000005,20.14309089416628,0.3240514114284962,-2.128127273796059,-0.5727597656111164,17.695011,-2.411141,-0.76661104,-0.4360071,10.657244,-10.871186,1.794604,0.19796701,-0.3535624,0.3352456,0.8505369,-8.262457,3.1885486,0.046601262,-1.9540615,-0.052030697,0.4020652,0
0.8300000000000005,20.14309089416628,0.3240514114284962,-2.128127273796059,-0.5727597656111164,17.695011,-2.411141,-0.76661104,-0.4360071,10.574144,-10.838589,1.7951103,0.19358292,-0.35373935,0.32815105,0.85423124,-8.357586,3.3306298,0.05497497,-1.5987175,-0.37565324,0.35423028,0
0.8400000000000005,20.14309089416628,0.3240514114284962,-2.128127273796059,-0.5727597656111164,15.774542,-1.236673,-2.020532,-0.6720365,10.490087,-10.804582,1.7957098,0.1904511,-0.35237926,0.32205796,0.85780877,-8.454131,3.4703002,0.06524741,-1.2988185,-0.6488423,0.3087426,0
0.8500000000000005,20.14309089416628,0.3240514114284962,-2.128127273796059,-0.5727597656111164,15.774542,-1.236673,-2.020532,-0.6720365,10.40506,-10.769189,1.7964222,0.18838994,-0.34973016,0.3168123,0.8612943,-8.551334,3.6079113,0.07754812,-1.045711,-0.87945503,0.26548705,0
0.8600000000000005,20.14309089416628,0.3240514114284962,-2.128127273796059,-0.5727597656111164,15.774542,-1.236673,-2.020532,-0.6720365,10.31906,-10.732429,1.7972683,0.18724467,-0.34599775,0.31228003,0.8647,-8.648557,3.7437675,0.091985635,-0.83209217,-1.074125,0.22435404,0
0.8700000000000006,20.14309089416628,0.3240514114284962,-2.128127273796059,-0.5727597656111164,15.774542,-1.236673,-2.020532,-0.6720365,10.232091,-10.694318,1.7982697,0.18688369,-0.3413532,0.3083453,0.8680298,-8.745258,3.8781264,0.10864763,-0.6517995,-1.2384529,0.18523945,0
0.8800000000000006,19.316011073755206,1.776163861199863,-2.8727170550117216,-0.9167624306464943,14.595419,-0.283274,-2.179564,-1.0298451,10.144158,-10.65487,1.7994492,0.18719527,-0.33593932,0.30490845,0.87128264,-8.84098,4.0112023,0.12760207,-0.49963272,-1.3771663,0.1480442,0
0.8900000000000006,19.316011073755206,1.776163861199863,-2.8727170550117216,-0.9167624306464943,14.595419,-0.283274,-2.179564,-1.0298451,10.055295,-10.614123,1.8008056,0.18840614,-0.32951942,0.30232105,0.8743695,-8.931414,4.137786,0.14399394,-0.1447554,-1.6103567,0.09579383,0
0.9000000000000006,19.316011073755206,1.776163861199863,-2.8727170550117216,-0.9167624306464943,14.595419,-0.283274,-2.179564,-1.0298451,9.965537,-10.572116,1.8023369,0.19068983,-0.32190946,0.30085468,0.8772104,-9.019874,4.2637,0.1626443,0.15476513,-1.807207,0.046107396,0
0.9100000000000006,19.316011073755206,1.776163861199863,-2.8727170550117216,-0.9167624306464943,14.595419,-0.283274,-2.179564,-1.0298451,9.874907,-10.528851,1.8040661,0.19388653,-0.31328893,0.30032125,0.8798097,-9.105739,4.3893003,0.18354625,0.407566,-1.9733773,-0.0011409065,0
0.9200000000000006,18.4628235065085,2.869959551841363,-3.2152323127251465,-1.1443024165388849,13.876537,0.6824667,-2.6525478,-1.4561578,9.783433,-10.48433,1.8060155,0.19786038,-0.303808,0.30055994,0.88216525,-9.188478,4.514868,0.20667584,0.6209363,-2.113647,-0.046070732,0
0.9300000000000006,18.4628235065085,2.869959551841363,-3.2152323127251465,-1.1443024165388849,13.876537,0.6824667,-2.6525478,-1.4561578,9.691168,-10.4385805,1.80818,0.20269299,-0.29339233,0.30178362,0.88417363,-9.264106,4.635087,0.22653367,0.97158515,-2.2854826,-0.09996128,0
0.9400000000000006,18.4628235065085,2.869959551841363,-3.2152323127251465,-1.1443024165388849,13.876537,0.6824667,-2.6525478,-1.4561578,9.5981655,-10.391627,1.8105531,0.20843874,-0.2819851,0.30414933,0.88573736,-9.335707,4.755814,0.24836825,1.2675451,-2.4305377,-0.1512074,0
0.9500000000000006,18.4628235065085,2.869959551841363,-3.2152323127251465,-1.1443024165388849,13.876537,0.6824667,-2.6525478,-1.4561578,9.50447,-10.343462,1.8131537,0.2149537,-0.2697263,0.30745396,0.8868565,-9.402727,4.8773227,0.27204442,1.5173479,-2.5529826,-0.19993886,0
0.9600000000000006,17.737482115771808,3.4424958762513636,-3.1733888043110015,-1.3375766780440788,12.651962,0.742284,-2.616939,-1.2350816,9.410129,-10.294077,1.8159997,0.2221152,-0.2567347,0.31152436,0.88752717,-9.464684,4.999804,0.29741418,1.7281934,-2.6563392,-0.24627906,0
0.9700000000000006,17.737482115771808,3.4424958762513636,-3.1733888043110015,-1.3375766780440788,12.651962,0.742284,-2.616939,-1.2350816,9.315206,-10.243486,1.8190826,0.22989203,-0.24308209,0.31641394,0.88766134,-9.518923,5.118536,0.3193974,1.9954295,-2.7370849,-0.29982933,0
0.9800000000000006,17.737482115771808,3.4424958762513636,-3.1733888043110015,-1.3375766780440788,12.651962,0.742284,-2.616939,-1.2350816,9.219769,-10.191703,1.8223917,0.23825091,-0.22882992,0.32215434,0.8871807,-9.567462,5.238468,0.34262004,2.2209926,-2.8052435,-0.35075194,0
0.9900000000000007,17.737482115771808,3.4424958762513636,-3.1733888043110015,-1.3375766780440788,12.651962,0.742284,-2.616939,-1.2350816,9.123877,-10.138713,1.8259385,0.24709186,-0.21405883,0.32857966,0.88609225,-9.609915,5.3596926,0.36683547,2.4113817,-2.8627748,-0.3991757,0
1.0000000000000007,17.745123924624448,3.597070922749379,-2.695511891371112,-1.5511176602737933,11.765478,0.5164582,-2.8159003,-1.2496954,9.027593,-10.084504,1.8297312,0.25632924,-0.19883896,0.33554873,0.884401,-9.645942,5.482235,0.3917947,2.5720835,-2.9113338,-0.4452233,0
1.0100000000000007,17.745123924624448,3.597070922749379,-2.695511891371112,-1.5511176602737933,11.765478,0.5164582,-2.8159003,-1.2496954,8.930982,-10.029063,1.8337764,0.2658605,-0.1833938,0.3430411,0.8820473,-9.675274,5.606126,0.4172902,2.7318377,-2.877819,-0.49948984,0
1.0200000000000007,17.745123924624448,3.597070922749379,-2.695511891371112,-1.5511176602737933,11.765478,0.5164582,-2.8159003,-1.2496954,8.834112,-9.972377,1.8380775,0.27560106,-0.16790697,0.35103685,0.87899035,-9.697703,5.731286,0.44295144,2.866684,-2.8495283,-0.5510935,0
1.0300000000000007,17.745123924624448,3.597070922749379,-2.695511891371112,-1.5511176602737933,11.765478,0.5164582,-2.8159003,-1.2496954,8.737053,-9.9144335,1.8426349,0.28550693,-0.15238228,0.35942537,0.8752591,-9.713083,5.85766,0.46845576,2.980506,-2.8256454,-0.600165,0
1.0400000000000007,17.745123924624448,3.597070922749379,-2.695511891371112,-1.5511176602737933,11.250866,0.5875222,-2.6219926,-1.371774,8.639875,-9.85522,1.8474451,0.29553983,-0.13682483,0.36811224,0.8708778,-9.7212925,5.9851484,0.49349758,3.0765812,-2.8054821,-0.64682853,0
1.0500000000000007,17.745123924624448,3.597070922749379,-2.695511891371112,-1.5511176602737933,11.250866,0.5875222,-2.6219926,-1.371774,8.542652,-9.794726,1.8525022,0.30566624,-0.12124076,0.37701684,0.8658676,-9.722231,6.1136193,0.5177867,3.157678,-2.7884574,-0.6912023,0
1.0600000000000007,17.745123924624448,3.597070922749379,-2.695511891371112,-1.5511176602737933,11.250866,0.5875222,-2.6219926,-1.371774,8.4454565,-9.7329445,1.8577973,0.31585667,-0.10563696,0.38607043,0.86024684,-9.715824,6.2429066,0.5410468,3.2261312,-2.7740817,-0.73339856,0
1.0700000000000007,17.745123924624448,3.597070922749379,-2.695511891371112,-1.5511176602737933,11.250866,0.5875222,-2.6219926,-1.371774,8.348361,-9.669867,1.8633188,0.3260848,-0.09002093,0.39521414,0.8540318,-9.702015,6.37282,0.56301457,3.283913,-2.7619421,-0.7735242,0
1.0800000000000007,17.142144953121587,3.1070978147837254,-2.011021075637726,-1.5789590014474282,10.866636,-0.12772758,-2.8760998,-0.8428875,8.251441,-9.605487,1.8690524,0.33632705,-0.07440058,0.40439764,0.84723717,-9.680771,6.5031466,0.5834391,3.3326864,-2.75169,-0.811681,0
1.0900000000000007,17.142144953121587,3.1070978147837254,-2.011021075637726,-1.5789590014474282,10.866636,-0.12772758,-2.8760998,-0.8428875,8.154767,-9.5398245,1.8749616,0.3464414,-0.059083886,0.41350695,0.8399399,-9.653079,6.6292243,0.5981158,3.297502,-2.6362455,-0.84933156,0
1.1000000000000008,17.142144953121587,3.1070978147837254,-2.011021075637726,-1.5789590014474282,10.866636,-0.12772758,-2.8760998,-0.8428875,8.058405,-9.472902,1.881008,0.35632017,-0.04431776,0.42246136,0.8322246,-9.618389,6.75528,0.61086625,3.267803,-2.538802,-0.8851346,0
1.1100000000000008,17.142144953121587,3.1070978147837254,-2.011021075637726,-1.5789590014474282,10.866636,-0.12772758,-2.8760998,-0.8428875,7.962424,-9.40472,1.8871716,0.3659893,-0.030027222,0.43126467,0.82411194,-9.576911,6.881121,0.6215088,3.2427337,-2.4565525,-0.91918075,0
1.1200000000000008,16.572566392065408,2.1760400708716743,-1.2693600964750087,-1.5011435222244354,10.194389,-0.6052354,-2.394907,-0.6353643,7.8668895,-9.335281,1.8934304,0.37546948,-0.016149199,0.43991864,0.8156182,-9.528835,7.006557,0.6298805,3.2215722,-2.3871276,-0.9515562,0
1.1300000000000008,16.572566392065408,2.1760400708716743,-1.2693600964750087,-1.5011435222244354,10.194389,-0.6052354,-2.394907,-0.6353643,7.77186,-9.264612,1.8997436,0.38463572,-0.003008959,0.44823632,0.8069264,-9.476185,7.127253,0.63238883,3.058591,-2.2127655,-0.9785246,0
1.1400000000000008,16.572566392065408,2.1760400708716743,-1.2693600964750087,-1.5011435222244354,10.194389,-0.6052354,-2.394907,-0.6353643,7.677386,-9.1927395,1.90607,0.3933997,0.009138102,0.45608592,0.79820955,-9.417735,7.247232,0.6325267,2.9210167,-2.0656035,-1.0041697,0
1.1500000000000008,16.572566392065408,2.1760400708716743,-1.2693600964750087,-1.5011435222244354,10.194389,-0.6052354,-2.394907,-0.6353643,7.5835238,-9.11967,1.912386,0.40182447,0.020435806,0.4635398,0.7894618,-9.353873,7.366376,0.6302847,2.8048882,-1.9413985,-1.0285563,0
1.1600000000000008,15.795094331710686,0.8905381586830593,-0.5411724960626573,-1.2755242211276607,10.542117,-0.8207393,-1.3846915,-0.5447916,7.490326,-9.045415,1.9186674,0.40996152,0.031006293,0.4706564,0.7806743,-9.284933,7.48458,0.62565935,2.706862,-1.8365698,-1.0517462,0
1.1700000000000008,15.795094331710686,0.8905381586830593,-0.5411724960626573,-1.2755242211276607,10.542117,-0.8207393,-1.3846915,-0.5447916,7.3978243,-8.97001,1.9248695,0.41771328,0.04052748,0.47720525,0.7721061,-9.214695,7.596259,0.61439806,2.4237337,-1.6343769,-1.0627272,0
1.1800000000000008,15.795094331710686,0.8905381586830593,-0.5411724960626573,-1.2755242211276607,10.542117,-0.8207393,-1.3846915,-0.5447916,7.3060455,-8.893493,1.9309483,0.42501366,0.048751373,0.4830227,0.76398647,-9.140394,7.7069244,0.6010294,2.1847403,-1.4637418,-1.0731691,0
1.1900000000000008,15.795094331710686,0.8905381586830593,-0.5411724960626573,-1.2755242211276607,10.542117,-0.8207393,-1.3846915,-0.5447916,7.2150283,-8.815875,1.9368833,0.4319413,0.055874072,0.488238,0.7562592,-9.06249,7.8165736,0.58572596,1.9830025,-1.3197395,-1.0830986,0
1.2000000000000008,15.08264789835621,-0.4898811250748883,0.0018310962413966819,-0.9208266348583573,10.279677,-1.5356945,-0.69579345,0.19199528,7.124807,-8.737165,1.9426565,0.4385597,0.062061887,0.49295607,0.74887085,-8.98137,7.925216,0.56864184,1.8127115,-1.1982136,-1.092541,0
1.2100000000000009,15.08264789835621,-0.4898811250748883,0.0018310962413966819,-0.9208266348583573,10.279677,-1.5356945,-0.69579345,0.19199528,7.0353923,-8.657399,1.9482325,0.44481727,0.06707179,0.49694496,0.742081,-8.901173,8.028019,0.54635763,1.4537623,-1.0108039,-1.0841149,0
1.2200000000000009,15.08264789835621,-0.4898811250748883,0.0018310962413966819,-0.9208266348583573,10.279677,-1.5356945,-0.69579345,0.19199528,6.946791,-8.57661,1.9535792,0.4506781,0.07072088,0.5000346,0.73610646,-8.818699,8.129945,0.5228051,1.1507683,-0.8526643,-1.0761023,0
1.2300000000000009,15.08264789835621,-0.4898811250748883,0.0018310962413966819,-0.9208266348583573,10.279677,-1.5356945,-0.69579345,0.19199528,6.859024,-8.494804,1.9586853,0.45620844,0.07322038,0.50238234,0.73083794,-8.73439,8.231078,0.49827334,0.8950069,-0.7192226,-1.0684829,0
1.2400000000000009,15.08264789835621,-0.4898811250748883,0.0018310962413966819,-0.9208266348583573,10.953205,-2.2292173,0.05838284,0.5993906,6.7721086,-8.411991,1.9635422,0.46146107,0.07474883,0.5041161,0.72617686,-8.648613,8.331504,0.4730099,0.6791155,-0.6066212,-1.0612373,0
1.2500000000000009,15.08264789835621,-0.4898811250748883,0.0018310962413966819,-0.9208266348583573,10.953205,-2.2292173,0.05838284,0.5993906,6.6860566,-8.3281765,1.9681438,0.4664784,0.07545715,0.5053399,0.7220355,-8.561672,8.431304,0.44722554,0.4968792,-0.51160526,-1.0543474,0
1.260000000000001,15.08264789835621,-0.4898811250748883,0.0018310962413966819,-0.9208266348583573,10.953205,-2.2292173,0.05838284,0.5993906,6.6008787,-8.243366,1.9724857,0.47129485,0.07547286,0.5061391,0.7183369,-8.4738245,8.530557,0.42109865,0.34305143,-0.43142807,-1.0477954,0
1.270000000000001,15.08264789835621,-0.4898811250748883,0.0018310962413966819,-0.9208266348583573,10.953205,-2.2292173,0.05838284,0.5993906,6.516583,-8.157566,1.976565,0.47593853,0.074903764,0.5065834,0.7150139,-8.385285,8.629334,0.39477956,0.2132038,-0.36377203,-1.041565,0
1.280000000000001,14.891218839334586,-1.7051040418532117,0.3496610044811459,-0.45322930843054604,12.241824,-3.0090976,-0.29525068,1.03929,6.433175,-8.07078,1.9803809,0.48043248,0.07384097,0.5067302,0.71200866,-8.296234,8.727699,0.3683944,0.103598006,-0.30668163,-1.0356404,0
1.290000000000001,14.891218839334586,-1.7051040418532117,0.3496610044811459,-0.45322930843054604,12.241824,-3.0090976,-0.29525068,1.03929,6.350654,-7.983019,1.9839284,0.4847199,0.072057314,0.5063444,0.7095557,-8.207983,8.8244705,0.34115988,-0.1783949,-0.20413838,-1.0070612,0
1.300000000000001,14.891218839334586,-1.7051040418532117,0.3496610044811459,-0.45322930843054604,12.241824,-3.0090976,-0.29525068,1.03929,6.269016,-7.8942914,1.9872051,0.4887498,0.06937899,0.5052425,0.7078415,-8.119694,8.920992,0.31421715,-0.41642565,-0.117624894,-0.9798845,0
1.310000000000001,14.891218839334586,-1.7051040418532117,0.3496610044811459,-0.45322930843054604,12.241824,-3.0090976,-0.29525068,1.03929,6.188259,-7.8045993,1.9902147,0.49254677,0.06594894,0.5035362,0.70675254,-8.031663,9.017361,0.28779972,-0.61734676,-0.044633977,-0.95404136,0
1.320000000000001,14.268815182702259,-2.800846205525977,0.3375141747562912,0.07657067792027061,12.522427,-3.588337,-0.30698517,1.0734538,6.1083803,-7.713944,1.9929636,0.49613065,0.06188784,0.5013174,0.7061902,-7.9441457,9.113661,0.26209882,-0.7869438,0.01694889,-0.92946637,0
1.330000000000001,14.268815182702259,-2.800846205525977,0.3375141747562912,0.07657067792027061,12.522427,-3.588337,-0.30698517,1.0734538,6.029355,-7.6223464,1.9954444,0.49949983,0.05711549,0.4983455,0.7063207,-7.8610067,9.20594,0.23422857,-1.1009824,0.06709604,-0.88009983,0
1.340000000000001,14.268815182702259,-2.800846205525977,0.3375141747562912,0.07657067792027061,12.522427,-3.588337,-0.30698517,1.0734538,5.9511566,-7.5298257,1.997652,0.50264174,0.05157602,0.49442974,0.70726925,-7.7788906,9.298278,0.20747459,-1.3660544,0.10937809,-0.8331557,0
1.350000000000001,14.268815182702259,-2.800846205525977,0.3375141747562912,0.07657067792027061,12.522427,-3.588337,-0.30698517,1.0734538,5.873773,-7.436381,1.9995987,0.5055562,0.045396183,0.48970568,0.70890033,-7.6980996,9.390718,0.18208697,-1.5897943,0.14503114,-0.78851515,0
1.360000000000001,13.692781046116481,-3.614970858619421,0.28447700825092775,0.5736030972479177,13.006275,-4.330028,-0.55414885,1.269957,5.797189,-7.342011,2.0012991,0.508243,0.03868296,0.48428628,0.71109694,-7.6189,9.483292,0.15826413,-1.7786467,0.17509693,-0.74606514,1
1.370000000000001,13.692781046116481,-3.614970858619421,0.28447700825092775,0.5736030972479177,13.006275,-4.330028,-0.55414885,1.269957,5.72137,-7.2467365,2.0027518,0.510718,0.031501565,0.47783467,0.7140366,-7.5454206,9.571356,0.13236988,-2.119967,0.11801052,-0.65222144,1
1.380000000000001,13.692781046116481,-3.614970858619421,0.28447700825092775,0.5736030972479177,13.006275,-4.330028,-0.55414885,1.269957,5.646269,-7.1505904,2.0039477,0.5130104,0.02393867,0.46996513,0.7178993,-7.475415,9.657725,0.10693159,-2.4363105,0.04152669,-0.560457,1
1.390000000000001,13.692781046116481,-3.614970858619421,0.28447700825092775,0.5736030972479177,13.006275,-4.330028,-0.55414885,1.269957,5.57185,-7.0535884,2.0048928,0.51513106,0.016105559,0.46070144,0.72258854,-7.408925,9.742499,0.082352,-2.7279725,-0.0477281,-0.47098064,1
1.400000000000001,13.078124780074763,-3.8983363170362657,0.0633903664889414,1.0121616086711278,12.848405,-4.4901333,-1.2164087,1.2608613,5.498081,-6.9557414,2.0056026,0.51705545,0.0080800755,0.45014206,0.7279834,-7.345153,9.826843,0.059978515,-2.9778295,-0.1267926,-0.38555235,0
1.410000000000001,13.078124780074763,-3.8983363170362657,0.0633903664889414,1.0121616086711278,12.848405,-4.4901333,-1.2164087,1.2608613,5.424938,-6.8570504,2.0061035,0.51864624,-0.00019420497,0.4387083,0.7338531,-7.2838216,9.911324,0.04064408,-3.1213703,-0.097236775,-0.31696612,0
1.420000000000001,13.078124780074763,-3.8983363170362657,0.0633903664889414,1.0121616086711278,12.848405,-4.4901333,-1.2164087,1.2608613,5.352394,-6.7575164,2.0064247,0.5198043,-0.008763786,0.42675275,0.74000543,-7.2255106,9.995398,0.023991257,-3.2425294,-0.07229976,-0.25174543,0
1.430000000000001,13.078124780074763,-3.8983363170362657,0.0633903664889414,1.0121616086711278,12.848405,-4.4901333,-1.2164087,1.2608613,5.280417,-6.657144,2.0065928,0.5205358,-0.01756979,0.41433445,0.7463644,-7.1704245,10.079004,0.010021029,-3.3447967,-0.05125709,-0.18972515,0
1.440000000000001,13.078124780074763,-3.8983363170362657,0.0633903664889414,1.0121616086711278,12.964751,-4.5001297,-1.50057,1.2845091,5.208974,-6.555938,2.0066345,0.5208474,-0.026562572,0.40150464,0.75286496,-7.118747,10.162066,-0.0012902543,-3.4311175,-0.033498798,-0.1307482,0
1.450000000000001,13.078124780074763,-3.8983363170362657,0.0633903664889414,1.0121616086711278,12.964751,-4.5001297,-1.50057,1.2845091,5.13803,-6.453904,2.006576,0.52074575,-0.035700288,0.3883079,0.7594508,-7.070644,10.244499,-0.00998738,-3.5039783,-0.018510737,-0.074665286,0
1.460000000000001,13.078124780074763,-3.8983363170362657,0.0633903664889414,1.0121616086711278,12.964751,-4.5001297,-1.50057,1.2845091,5.0675483,-6.35105,2.0064435,0.5202379,-0.044947673,0.37478316,0.7660737,-7.0262628,10.326211,-0.016133262,-3.5654771,-0.0058591245,-0.021334376,0
1.470000000000001,13.078124780074763,-3.8983363170362657,0.0633903664889414,1.0121616086711278,12.964751,-4.5001297,-1.50057,1.2845091,4.9974914,-6.2473826,2.006262,0.5193311,-0.054275006,0.36096472,0.77269214,-6.9857345,10.407101,-0.019806389,-3.617386,0.0048215655,0.029379576,0
1.480000000000001,12.0313066596804,-3.6991216709711936,-0.23448588234455053,1.310667969619394,12.969839,-4.988129,-1.3759998,1.6536556,4.92782,-6.142911,2.0060556,0.5180327,-0.06365725,0.34688267,0.7792699,-6.949177,10.4870615,-0.021098707,-3.6612008,0.013839555,0.077604964,0
1.490000000000001,12.0313066596804,-3.6991216709711936,-0.23448588234455053,1.310667969619394,12.969839,-4.988129,-1.3759998,1.6536556,4.8584805,-6.0376763,2.0058084,0.51636815,-0.07292623,0.33256716,0.785776,-6.9192853,10.559664,-0.028043775,-3.6671116,-0.025031678,0.13811173,0
1.500000000000001,12.0313066596804,-3.6991216709711936,-0.23448588234455053,1.310667969619394,12.969839,-4.988129,-1.3759998,1.6536556,4.7894216,-5.9317217,2.0055015,0.5143555,-0.08194611,0.31804752,0.7921921,-6.8931723,10.631177,-0.0329896,-3.6720986,-0.05783418,0.1956494,0
1.5100000000000011,12.0313066596804,-3.6991216709711936,-0.23448588234455053,1.310667969619394,12.969839,-4.988129,-1.3759998,1.6536556,4.720604,-5.8250575,2.0051548,0.51199275,-0.09074132,0.30334756,0.79850423,-6.870856,10.701467,-0.036037188,-3.6763065,-0.085514605,0.25036368,0
1.5200000000000011,10.984200794836823,-3.4033734762774643,-0.8339142389591815,1.5714448347360757,12.970339,-4.719937,-1.8496232,1.600473,4.6519914,-5.717697,2.004787,0.5092801,-0.09933303,0.2884881,0.8046991,-6.8523498,10.770404,-0.0372929,-3.679857,-0.10887192,0.3023931,0
1.5300000000000011,10.984200794836823,-3.4033734762774643,-0.8339142389591815,1.5714448347360757,12.970339,-4.719937,-1.8496232,1.600473,4.5835376,-5.6096835,2.0043721,0.50627375,-0.107476786,0.2734648,0.8107725,-6.8389316,10.831985,-0.045439206,-3.6367085,-0.22208112,0.36466584,0
1.5400000000000011,10.984200794836823,-3.4033734762774643,-0.8339142389591815,1.5714448347360757,12.970339,-4.719937,-1.8496232,1.600473,4.515201,-5.5010614,2.0038831,0.50301534,-0.11497886,0.2582796,0.8167291,-6.8289266,10.892054,-0.052129555,-3.6002853,-0.31762654,0.42388284,0
1.5500000000000012,10.984200794836823,-3.4033734762774643,-0.8339142389591815,1.5714448347360757,12.970339,-4.719937,-1.8496232,1.600473,4.446948,-5.3918476,2.0033343,0.4994874,-0.12192511,0.24295774,0.8225676,-6.8222523,10.95045,-0.057442937,-3.5695403,-0.39826405,0.48019403,0
1.5600000000000012,11.006398609724252,-3.172803222955169,-1.1077357859856434,1.7706679671337031,14.064901,-4.9719024,-2.5398004,2.101745,4.378745,-5.282059,2.0027387,0.4956771,-0.12838891,0.22752057,0.82828385,-6.8188357,11.00703,-0.061462466,-3.5435894,-0.4663191,0.533742,0
1.5700000000000012,11.006398609724252,-3.172803222955169,-1.1077357859856434,1.7706679671337031,14.064901,-4.9719024,-2.5398004,2.101745,4.3105607,-5.171714,2.0021102,0.49159175,-0.134291,0.21201213,0.83387864,-6.8186,11.061768,-0.06408122,-3.4857087,-0.5664656,0.5944384,0
1.5800000000000012,11.006398609724252,-3.172803222955169,-1.1077357859856434,1.7706679671337031,14.064901,-4.9719024,-2.5398004,2.101745,4.242363,-5.060831,2.0014613,0.4872355,-0.13957228,0.19647086,0.83935666,-6.8214445,11.114409,-0.065570615,-3.4368544,-0.65098697,0.6521563,0
1.5900000000000012,11.006398609724252,-3.172803222955169,-1.1077357859856434,1.7706679671337031,14.064901,-4.9719024,-2.5398004,2.101745,4.174122,-4.9494333,2.0008025,0.4825966,-0.14431828,0.18090576,0.844716,-6.827256,11.164826,-0.06601174,-3.3956199,-0.72232085,0.707042,0
1.6000000000000012,11.33921356462377,-3.0072609512603488,-1.3114958024872698,1.9123181381615724,14.946587,-5.1340017,-3.0688932,2.838557,4.1058083,-4.8375425,2.0001442,0.477667,-0.14860189,0.16532426,0.8499523,-6.8359323,11.212899,-0.06548817,-3.3608177,-0.78252447,0.7592344,0
1.6100000000000012,11.33921356462377,-3.0072609512603488,-1.3114958024872698,1.9123181381615724,14.946587,-5.1340017,-3.0688932,2.838557,4.037392,-4.725177,1.9995106,0.47245,-0.15238146,0.14975302,0.8550697,-6.8477163,11.259899,-0.061075814,-3.3056085,-0.8651121,0.8158166,0
1.6200000000000012,11.33921356462377,-3.0072609512603488,-1.3114958024872698,1.9123181381615724,14.946587,-5.1340017,-3.0688932,2.838557,3.9688442,-4.6123543,1.9989254,0.46694696,-0.15562789,0.13421518,0.8600732,-6.86222,11.304259,-0.055838913,-3.2590117,-0.93481517,0.86962223,0
1.6300000000000012,11.33921356462377,-3.0072609512603488,-1.3114958024872698,1.9123181381615724,14.946587,-5.1340017,-3.0688932,2.838557,3.9001384,-4.4991016,1.9983964,0.46115172,-0.1584156,0.11871157,0.86495686,-6.8793154,11.345874,-0.049859144,-3.219685,-0.9936435,0.92078763,0
1.6400000000000012,11.33921356462377,-3.0072609512603488,-1.3114958024872698,1.9123181381615724,15.271298,-5.0228896,-3.3102224,2.9502046,3.8312495,-4.3854465,1.9979305,0.4550609,-0.16080791,0.10324286,0.8697128,-6.8988843,11.384648,-0.043220453,-3.186495,-1.0432936,0.9694423,0
1.6500000000000012,11.33921356462377,-3.0072609512603488,-1.3114958024872698,1.9123181381615724,15.271298,-5.0228896,-3.3102224,2.9502046,3.7621527,-4.2714176,1.9975339,0.44867334,-0.16285862,0.087809645,0.8743327,-6.9208155,11.420497,-0.036008917,-3.1584845,-1.0851973,1.0157094,0
1.6600000000000013,11.33921356462377,-3.0072609512603488,-1.3114958024872698,1.9123181381615724,15.271298,-5.0228896,-3.3102224,2.9502046,3.692825,-4.1570454,1.997212,0.4419898,-0.16461354,0.07241253,0.8788076,-6.9450026,11.453341,-0.028312478,-3.1348457,-1.1205628,1.0597063,0
1.6700000000000013,11.33921356462377,-3.0072609512603488,-1.3114958024872698,1.9123181381615724,15.271298,-5.0228896,-3.3102224,2.9502046,3.623245,-4.0423603,1.9969691,0.43501264,-0.1661117,0.057052225,0.883128,-6.9713435,11.4831085,-0.020220738,-3.114897,-1.1504099,1.1015443,0
1.6800000000000013,11.881220188162361,-2.865156853199072,-1.2757611975536227,2.0264137676645104,16.137299,-4.5334167,-3.824144,3.0648582,3.5533912,-3.9273937,1.9968086,0.4277453,-0.16738617,0.041729625,0.8872844,-6.9997387,11.509734,-0.011824703,-3.0980628,-1.1755995,1.1413292,0
1.6900000000000013,11.881220188162361,-2.865156853199072,-1.2757611975536227,2.0264137676645104,16.137299,-4.5334167,-3.824144,3.0648582,3.4832366,-3.812171,1.9967587,0.42018908,-0.16845337,0.026504796,0.89126945,-7.03154,11.534282,0.0018840858,-3.061696,-1.1912793,1.1847606,0
1.7000000000000013,11.881220188162361,-2.865156853199072,-1.2757611975536227,2.0264137676645104,16.137299,-4.5334167,-3.824144,3.0648582,3.4127538,-3.6967196,1.9968467,0.4123461,-0.16932893,0.011426294,0.89507926,-7.065278,11.555439,0.015718428,-3.0310032,-1.2045121,1.2260607,0
1.7100000000000013,11.881220188162361,-2.865156853199072,-1.2757611975536227,2.0264137676645104,16.137299,-4.5334167,-3.824144,3.0648582,3.3419244,-3.581074,1.9970732,0.4042223,-0.17003806,-0.0035203486,0.8987091,-7.1008406,11.573173,0.029582785,-3.0050995,-1.2156798,1.2653342,0
1.7200000000000013,12.286596294429783,-2.607049455101885,-1.2946974600752907,2.0117595261118186,16.56018,-4.3611045,-3.8872488,2.997403,3.270731,-3.4652681,1.9974382,0.3958241,-0.17060202,-0.018347079,0.9021534,-7.1381173,11.587455,0.043382853,-2.983238,-1.2251042,1.3026806,0
1.7300000000000013,12.286596294429783,-2.607049455101885,-1.2946974600752907,2.0117595261118186,16.56018,-4.3611045,-3.8872488,2.997403,3.19915,-3.3493347,1.9979595,0.38717777,-0.17099154,-0.032973643,0.9054099,-7.178324,11.598633,0.060839154,-2.9245343,-1.2359738,1.3374753,0
1.7400000000000013,12.286596294429783,-2.607049455101885,-1.2946974600752907,2.0117595261118186,16.56018,-4.3611045,-3.8872488,2.997403,3.1271594,-3.2333078,1.9986541,0.3783074,-0.171186,-0.04733635,0.9084807,-7.220054,11.606219,0.078047104,-2.8749883,-1.2451507,1.3705626,0
1.7500000000000013,12.286596294429783,-2.607049455101885,-1.2946974600752907,2.0117595261118186,16.56018,-4.3611045,-3.8872488,2.997403,3.054744,-3.1172228,1.9995192,0.36921686,-0.17121337,-0.06146657,0.9113648,-7.26317,11.610224,0.094925,-2.8331707,-1.2528983,1.4020262,0
1.7600000000000013,12.72811653230242,-2.344266197895592,-1.151631601973566,1.941655894450126,17.979134,-3.8423004,-4.4275703,2.5327961,2.9818916,-3.0011156,2.0005512,0.35991046,-0.17109713,-0.07539066,0.9140599,-7.3075414,11.610652,0.11139326,-2.7978764,-1.2594393,1.4319459,0
1.7700000000000014,12.72811653230242,-2.344266197895592,-1.151631601973566,1.941655894450126,17.979134,-3.8423004,-4.4275703,2.5327961,2.9085815,-2.8850224,2.0017662,0.350424,-0.17087135,-0.08901559,0.91655946,-7.3546796,11.607408,0.13147444,-2.7271314,-1.2426054,1.4569576,0
1.7800000000000014,12.72811653230242,-2.344266197895592,-1.151631601973566,1.941655894450126,17.979134,-3.8423004,-4.4275703,2.5327961,2.8347945,-2.7689798,2.0031788,0.34079087,-0.17056578,-0.102269605,0.9188628,-7.4028573,11.600527,0.15097915,-2.6674182,-1.2284031,1.4807419,0
1.7900000000000014,12.72811653230242,-2.344266197895592,-1.151631601973566,1.941655894450126,17.979134,-3.8423004,-4.4275703,2.5327961,2.760521,-2.6530242,2.0047836,0.3310125,-0.17019226,-0.11520155,0.9209739,-7.4519506,11.59007,0.16984051,-2.6170163,-1.2164207,1.503359,0
1.8000000000000014,13.278893661148812,-2.090187096192799,-1.1143027359409137,1.8185209961956386,16.230175,-3.3020282,-4.0783153,2.1855814,2.6857526,-2.5371907,2.0065734,0.32109064,-0.16976029,-0.12785247,0.92289484,-7.5018387,11.576088,0.187995,-2.5744739,-1.2063115,1.5248663,0
1.8100000000000014,13.278893661148812,-2.090187096192799,-1.1143027359409137,1.8185209961956386,16.230175,-3.3020282,-4.0783153,2.1855814,2.6104712,-2.4215178,2.008566,0.31106123,-0.1692573,-0.14016086,0.92463326,-7.5545964,11.55788,0.21038096,-2.4989526,-1.1919112,1.5392761,0
1.8200000000000014,13.278893661148812,-2.090187096192799,-1.1143027359409137,1.8185209961956386,16.230175,-3.3020282,-4.0783153,2.1855814,2.534659,-2.306045,2.0107782,0.30095676,-0.16867474,-0.15208039,0.9261988,-7.6079373,11.53613,0.2319202,-2.4352074,-1.179766,1.5529789,0
1.8300000000000014,13.278893661148812,-2.090187096192799,-1.1143027359409137,1.8185209961956386,16.230175,-3.3020282,-4.0783153,2.1855814,2.458311,-2.190807,2.0132012,0.29077506,-0.16802466,-0.16366327,0.92759407,-7.6617365,11.510917,0.25257137,-2.381402,-1.1695229,1.566009,0
1.8400000000000014,13.278893661148812,-2.090187096192799,-1.1143027359409137,1.8185209961956386,16.149017,-3.1118865,-3.7950194,1.9177014,2.381423,-2.0758383,2.0158265,0.2805147,-0.16731672,-0.17495336,0.92882013,-7.715879,11.482312,0.27229464,-2.3359866,-1.160884,1.5783999,0
1.8500000000000014,13.278893661148812,-2.090187096192799,-1.1143027359409137,1.8185209961956386,16.149017,-3.1118865,-3.7950194,1.9177014,2.3039925,-1.9611721,2.0186439,0.2701749,-0.16655868,-0.18598749,0.929877,-7.7702575,11.450383,0.29105127,-2.2976527,-1.1535981,1.5901828,0
1.8600000000000014,13.278893661148812,-2.090187096192799,-1.1143027359409137,1.8185209961956386,16.149017,-3.1118865,-3.7950194,1.9177014,2.2260177,-1.8468417,2.0216439,0.2597555,-0.16575673,-0.19679654,0.9307641,-7.8247695,11.415187,0.30880326,-2.2652967,-1.147453,1.6013874,0
1.8700000000000014,13.278893661148812,-2.090187096192799,-1.1143027359409137,1.8185209961956386,16.149017,-3.1118865,-3.7950194,1.9177014,2.1474974,-1.7328794,2.0248163,0.24925694,-0.16491577,-0.20740631,0.93148017,-7.8793178,11.37678,0.32551324,-2.2379858,-1.1422702,1.6120422,0
1.8800000000000014,13.63723355428368,-1.804539324166554,-1.0139002267171913,1.5958455899020696,15.370164,-3.1513648,-2.88255,1.4131197,2.0684316,-1.6193169,2.0281503,0.23868006,-0.16403969,-0.21783836,0.9320237,-7.933809,11.335211,0.34114444,-2.2149334,-1.1378992,1.6221741,0
1.8900000000000015,13.63723355428368,-1.804539324166554,-1.0139002267171913,1.5958455899020696,15.370164,-3.1513648,-2.88255,1.4131197,1.9888144,-1.5061918,2.0316508,0.22807975,-0.16313633,-0.22799934,0.93240625,-7.989618,11.28933,0.35870242,-2.150954,-1.1184921,1.6208822,0
1.9000000000000015,13.63723355428368,-1.804539324166554,-1.0139002267171913,1.5958455899020696,15.370164,-3.1513648,-2.88255,1.4131197,1.9086403,-1.3935411,2.0353205,0.21750514,-0.16221282,-0.23781809,0.9326414,-8.045182,11.240349,0.37510157,-2.096949,-1.1021224,1.6196536,0
1.9100000000000015,13.63723355428368,-1.804539324166554,-1.0139002267171913,1.5958455899020696,15.370164,-3.1513648,-2.88255,1.4131197,1.8279119,-1.2813952,2.0391486,0.20694949,-0.16127057,-0.24734075,0.93272996,-8.100416,11.188365,0.39033097,-2.0513635,-1.0883148,1.6184855,0
1.9200000000000015,13.728477819397952,-1.2726504694780674,-0.8237357855370845,1.2751730339439296,15.461411,-2.840365,-2.4921873,1.1239277,1.7466333,-1.1697838,2.043123,0.19640715,-0.16031036,-0.25660604,0.93267196,-8.155237,11.133464,0.40437886,-2.0128844,-1.0766679,1.6173745,0
1.9300000000000015,13.728477819397952,-1.2726504694780674,-0.8237357855370845,1.2751730339439296,15.461411,-2.840365,-2.4921873,1.1239277,1.664807,-1.0587376,2.047236,0.18596473,-0.15935269,-0.26544005,0.93250436,-8.209931,11.075348,0.41798124,-1.8974984,-1.037081,1.6005826,0
1.9400000000000015,13.728477819397952,-1.2726504694780674,-0.8237357855370845,1.2751730339439296,15.461411,-2.840365,-2.4921873,1.1239277,1.5824364,-0.9482861,2.051479,0.17569782,-0.1584153,-0.27371016,0.9322642,-8.264065,11.014537,0.43041673,-1.8000989,-1.0036896,1.5846146,0
1.9500000000000015,13.728477819397952,-1.2726504694780674,-0.8237357855370845,1.2751730339439296,15.461411,-2.840365,-2.4921873,1.1239277,1.4995277,-0.83845556,2.055841,0.16558672,-0.1574941,-0.28150162,0.93195087,-8.317577,10.951187,0.44172308,-1.7178824,-0.9755241,1.5694302,0
1.9600000000000015,13.829907780318155,-0.8562065044786691,-0.6795168073992648,0.9204969246640251,16.394554,-2.4248219,-2.8967214,1.2820894,1.4160873,-0.72927064,2.0603101,0.15561424,-0.15658495,-0.28888598,0.9315628,-8.370417,10.885433,0.45193312,-1.6484818,-0.9517663,1.554991,0
1.9700000000000015,13.829907780318155,-0.8562065044786691,-0.6795168073992648,0.9204969246640251,16.394554,-2.4248219,-2.8967214,1.2820894,1.33212,-0.6207573,2.06488,0.1458493,-0.15569977,-0.29576656,0.9311319,-8.422919,10.816898,0.4618726,-1.5249887,-0.90915304,1.523856,0
1.9800000000000015,13.829907780318155,-0.8562065044786691,-0.6795168073992648,0.9204969246640251,16.394554,-2.4248219,-2.8967214,1.2820894,1.2476314,-0.51294005,2.0695438,0.13635208,-0.15484782,-0.30207264,0.9306886,-8.474663,10.746232,0.47080162,-1.4207449,-0.87321055,1.494249,0
1.9900000000000015,13.829907780318155,-0.8562065044786691,-0.6795168073992648,0.9204969246640251,16.394554,-2.4248219,-2.8967214,1.2820894,1.1626295,-0.40583944,2.0742924,0.12709624,-0.15402111,-0.30789435,0.93022794,-8.525619,10.673593,0.4787834,-1.3327504,-0.84289396,1.4660949,0
2.0000000000000013,,,,,14.724469,-1.8989855,-2.2804933,0.25107184,1.0771221,-0.29947454,2.0791163,0.1180586,-0.1532124,-0.31330717,0.92974496,-8.575766,10.599116,0.48587298,-1.2584724,-0.8173225,1.4393222,0
2.010000000000001,,,,,14.724469,-1.8989855,-2.2804933,0.25107184,0.99112904,-0.19384469,2.0839818,0.10928696,-0.15236811,-0.31821766,0.9292883,-8.622697,10.526611,0.48707798,-1.1262183,-0.8005448,1.3947805,0
2.020000000000001,,,,,14.724469,-1.8989855,-2.2804933,0.25107184,0.90467083,-0.088947415,2.0888553,0.10082382,-0.15144503,-0.32255673,0.92889994,-8.66881,10.452622,0.4875695,-1.0145845,-0.78641087,1.3524245,0
2.0300000000000007,,,,,14.724469,-1.8989855,-2.2804933,0.25107184,0.81775576,0.015203152,2.093731,0.092642464,-0.15045059,-0.32641542,0.9285655,-8.714079,10.377291,0.48743317,-0.9203564,-0.77450347,1.3121469,0
2.0400000000000005,,,,,14.724469,-1.8989855,-2.2804933,0.25107184,0.73039234,0.1185942,2.098602,0.0847192,-0.14939067,-0.32987025,0.9282724,-8.758484,10.300736,0.48674262,-0.84081984,-0.76447123,1.2738458,0
2.0500000000000003,,,,,13.839674,-1.4315892,-2.390585,-0.2775434,0.64258915,0.22121403,2.1034641,0.077033,-0.14826997,-0.33298534,0.92800957,-8.80201,10.223062,0.4855611,-0.77368444,-0.75601846,1.2374241,1
2.06,,,,,13.839674,-1.4315892,-2.390585,-0.2775434,0.5543443,0.32303154,2.1083367,0.069372796,-0.1464649,-0.33625764,0.9277205,-8.846804,10.140267,0.48891118,-0.87612724,-1.0109686,1.1630843,1
2.07,,,,,13.839674,-1.4315892,-2.390585,-0.2775434,0.4656574,0.42401513,2.1132405,0.06158019,-0.14347132,-0.34007543,0.9273465,-8.890353,10.056251,0.49179673,-0.96264434,-1.2261404,1.0923922,1
2.0799999999999996,,,,,13.839674,-1.4315892,-2.390585,-0.2775434,0.3765426,0.52415186,2.1181707,0.053708073,-0.1394543,-0.34434214,0.92687404,-8.932349,9.970879,0.49420094,-1.035708,-1.4077415,1.0251691,1
2.0899999999999994,,,,,12.620222,-1.2996424,-2.5903997,-0.73079646,0.28701672,0.6234277,2.1231227,0.045799848,-0.13455406,-0.34897584,0.92628956,-8.972524,9.884052,0.49610287,-1.0974077,-1.561011,0.9612447,1
2.099999999999999,,,,,12.620222,-1.2996424,-2.5903997,-0.73079646,0.19711617,0.72186655,2.1280472,0.03792189,-0.12879378,-0.35386905,0.92560774,-9.0072775,9.803492,0.48871478,-1.1289384,-1.7215024,0.87821573,1
2.109999999999999,,,,,12.620222,-1.2996424,-2.5903997,-0.73079646,0.1068784,0.8194927,2.1328952,0.030134115,-0.12219636,-0.35893258,0.92483854,-9.039937,9.721519,0.4808393,-1.1555774,-1.8569624,0.7992611,1
2.1199999999999988,,,,,12.620222,-1.2996424,-2.5903997,-0.73079646,0.016325336,0.91629213,2.1376622,0.022459786,-0.1148717,-0.36412677,0.92396474,-9.070304,9.638132,0.47246525,-1.1780809,-1.9712956,0.72418076,1
2.1299999999999986,,,,,12.318094,-0.8643094,-2.3515491,-1.0198916,-0.07451922,1.0122505,2.1423428,0.014917158,-0.106913544,-0.36941788,0.9229716,-9.098211,9.553342,0.46357283,-1.1970887,-2.067798,0.6527846,1
2.1399999999999983,,,,,12.318094,-0.8643094,-2.3515491,-1.0198916,-0.16562685,1.1073645,2.1469212,0.007606956,-0.09847502,-0.37461942,0.92190254,-9.12291,9.469242,0.45201808,-1.145286,-2.1119654,0.57070583,1
2.149999999999998,,,,,12.318094,-0.8643094,-2.3515491,-1.0198916,-0.2569684,1.2016311,2.1513813,0.0006120099,-0.08968236,-0.3795852,0.92079914,-9.144982,9.383886,0.43994194,-1.1015633,-2.149256,0.4926548,1
2.159999999999998,,,,,12.318094,-0.8643094,-2.3515491,-1.0198916,-0.34851727,1.2950383,2.155718,-0.00607958,-0.080573514,-0.38434246,0.9196473,-9.164367,9.29737,0.42735207,-1.0646592,-2.1807396,0.4184337,1
2.1699999999999977,,,,,12.842878,-0.44532543,-1.7785195,-1.5358534,-0.4402463,1.3875749,2.1599264,-0.012479332,-0.07118115,-0.38891366,0.9184351,-9.181011,9.209782,0.41424716,-1.033509,-2.2073212,0.34785467,1
2.1799999999999975,,,,,12.842878,-0.44532543,-1.7785195,-1.5358534,-0.532131,1.4792118,2.1640193,-0.018438922,-0.061721873,-0.39317206,0.9172053,-9.195476,9.117441,0.40422186,-0.94192654,-2.140372,0.2554206,1
2.1899999999999973,,,,,12.842878,-0.44532543,-1.7785195,-1.5358534,-0.6241461,1.5699207,2.1680093,-0.02383541,-0.052366953,-0.39702305,0.91600305,-9.207104,9.024207,0.393674,-0.864611,-2.0838788,0.16752225,1
2.199999999999997,,,,,12.842878,-0.44532543,-1.7785195,-1.5358534,-0.71626365,1.6596934,2.1718912,-0.028714387,-0.04308159,-0.400526,0.91482115,-9.215969,8.9302025,0.38262576,-0.79934007,-2.0362074,0.08393713,1
2.209999999999997,,,,,12.06286,0.215079,-1.1298631,-1.6546891,-0.80845624,1.7485225,2.1756601,-0.033116244,-0.033836972,-0.40373,0.9136519,-9.2221365,8.835536,0.3710921,-0.74423754,-1.9959795,0.0044535473,1
