time-since-start [s],throttle_mpc,roll_mpc,pitch_mpc,yaw_mpc,throttle_nw,roll_nw,pitch_nw,yaw_nw,position_x [m],position_y [m],position_z [m],rotation_w [quaternion],rotation_x [quaternion],rotation_y [quaternion],rotation_z [quaternion],velocity_x [m/s],velocity_y [m/s],velocity_z [m/s],omega_x [rad/s],omega_y [rad/s],omega_z [rad/s],network_used
0.0,8.61146867532665,-5.999999384297553,-5.999999964332833,5.999997288679023,11.27671,-3.2577431,-3.5611317,1.2810601,18.397598,-10.56242,2.2446425,-0.114413664,0.4386944,-0.4379411,-0.7763146,-10.817858,-1.8552611,-1.2804508,0.6459881,0.08202584,0.5372745,0
0.01,8.61146867532665,-5.999999384297553,-5.999999964332833,5.999997288679023,10.076482,-4.303671,-5.666014,-0.3903303,18.28888,-10.580246,2.231562,-0.11312304,0.43737078,-0.44179034,-0.7750686,-10.9252405,-1.7104926,-1.3359796,0.6028688,0.12694077,0.7130511,0
0.02,8.61146867532665,-5.999999384297553,-5.999999964332833,5.999997288679023,10.076482,-4.303671,-5.666014,-0.3903303,18.179102,-10.59664,2.2179167,-0.11097967,0.43583247,-0.44587293,-0.7739063,-11.029779,-1.5682997,-1.3932576,0.5608735,0.15924186,0.8839781,0
0.03,8.61146867532665,-5.999999384297553,-5.999999964332833,5.999997288679023,10.076482,-4.303671,-5.666014,-0.3903303,18.068289,-10.611617,2.203692,-0.108033895,0.4340065,-0.45012578,-0.7728867,-11.132515,-1.4274851,-1.4518944,0.5023398,0.16338255,1.0487751,0
0.04,8.61146867532665,-5.999999384297553,-5.999999964332833,5.999997288679023,15.073942,-4.2018166,-5.0100594,-0.26363295,17.956455,-10.625194,2.1888745,-0.10433471,0.43180254,-0.45445198,-0.7720973,-11.233539,-1.2881154,-1.5118212,0.4278801,0.14177653,1.207726,0
0.05,8.61146867532665,-5.999999384297553,-5.999999964332833,5.999997288679023,15.073942,-4.2018166,-5.0100594,-0.26363295,17.843622,-10.637383,2.1734514,-0.0999272,0.42914054,-0.45876387,-0.7716144,-11.3328705,-1.1503336,-1.572939,0.3392064,0.09765953,1.3611873,0
0.060000000000000005,8.61146867532665,-5.999999384297553,-5.999999964332833,5.999997288679023,15.073942,-4.2018166,-5.0100594,-0.26363295,17.729807,-10.648205,2.157412,-0.094852954,0.4259498,-0.46298277,-0.77150285,-11.43053,-1.0142719,-1.6351024,0.23790374,0.03390608,1.5094852,0
0.07,8.61146867532665,-5.999999384297553,-5.999999964332833,5.999997288679023,15.073942,-4.2018166,-5.0100594,-0.26363295,17.61502,-10.657675,2.1407466,-0.08915058,0.4221676,-0.46703812,-0.7718173,-11.526526,-0.8800502,-1.6981281,0.12543659,-0.046930514,1.6529187,0
0.08,9.971902374661644,-5.999999780193388,-5.99999999422102,5.9999988245827245,11.222739,-3.0175135,-4.8475533,-2.3533075,17.49928,-10.665812,2.1234474,-0.08285605,0.41773793,-0.47086647,-0.77260244,-11.620865,-0.74777627,-1.7618035,0.0031524524,-0.14258109,1.7917615,0
0.09,9.971902374661644,-5.999999780193388,-5.99999999422102,5.9999988245827245,11.222739,-3.0175135,-4.8475533,-2.3533075,17.382578,-10.672597,2.1055198,-0.07600202,0.41254205,-0.47433463,-0.77397627,-11.71926,-0.6095117,-1.823786,-0.16440593,-0.28781712,1.9295472,0
0.09999999999999999,9.971902374661644,-5.999999780193388,-5.99999999422102,5.9999988245827245,11.222739,-3.0175135,-4.8475533,-2.3533075,17.264902,-10.678011,2.0869713,-0.06861923,0.4064701,-0.47732216,-0.77603924,-11.815787,-0.4736338,-1.885899,-0.3369288,-0.4415715,2.0633545,0
0.10999999999999999,9.971902374661644,-5.999999780193388,-5.99999999422102,5.9999988245827245,11.222739,-3.0175135,-4.8475533,-2.3533075,17.146269,-10.682078,2.0678027,-0.06073762,0.3994859,-0.47979134,-0.77879524,-11.910419,-0.34021708,-1.9477867,-0.513598,-0.60246927,2.1933744,0
0.11999999999999998,9.971902374661644,-5.999999780193388,-5.99999999422102,5.9999988245827245,11.222739,-3.0175135,-4.8475533,-2.3533075,17.0267,-10.684824,2.0480175,-0.052385505,0.3915554,-0.48170668,-0.7822395,-12.003116,-0.2093229,-2.0090997,-0.69366544,-0.76929307,2.319784,0
0.12999999999999998,12.742841300355318,-5.9999999538677375,-6.0,5.999941652997864,10.711957,-3.8596535,-5.0927587,-2.1306849,16.906212,-10.686274,2.0276234,-0.0435899,0.3826466,-0.483034,-0.78635836,-12.093813,-0.081001446,-2.0694995,-0.8764502,-0.9409649,2.4427464,0
0.13999999999999999,12.742841300355318,-5.9999999538677375,-6.0,5.999941652997864,10.711957,-3.8596535,-5.0927587,-2.1306849,16.784771,-10.686371,2.0066566,-0.034383573,0.37257874,-0.48358953,-0.79129255,-12.193899,0.060973667,-2.1236017,-1.1360478,-1.1915039,2.5690954,0
0.15,12.742841300355318,-5.9999999538677375,-6.0,5.999941652997864,10.711957,-3.8596535,-5.0927587,-2.1306849,16.662342,-10.685064,1.9851577,-0.024798183,0.36117905,-0.48320168,-0.7971517,-12.291345,0.19972952,-2.1758726,-1.3921369,-1.4400159,2.692553,0
0.16,15.889704232850905,-5.999999993302802,-6.0,5.2306977758353215,18.195194,-6.2511654,-8.098518,-1.3677292,16.538956,-10.682386,1.9631472,-0.014857805,0.34842828,-0.48185363,-0.8038619,-12.3859825,0.33523062,-2.2258372,-1.644651,-1.6861993,2.8132067,0
0.17,15.889704232850905,-5.999999993302802,-6.0,5.2306977758353215,18.195194,-6.2511654,-8.098518,-1.3677292,16.414598,-10.678319,1.9406701,-0.004696097,0.3339415,-0.4791056,-0.81173813,-12.484668,0.47764,-2.2690988,-2.0855677,-2.1225095,2.9105766,0
0.18000000000000002,15.889704232850905,-5.999999993302802,-6.0,5.2306977758353215,18.195194,-6.2511654,-8.098518,-1.3677292,16.289274,-10.672849,1.9177771,0.0055598742,0.31736028,-0.4745568,-0.82100385,-12.579259,0.61572194,-2.3089254,-2.504594,-2.537673,3.0073607,0
0.19000000000000003,15.889704232850905,-5.999999993302802,-6.0,5.2306977758353215,18.195194,-6.2511654,-8.098518,-1.3677292,16.163027,-10.66602,1.8945057,0.01589578,0.29870296,-0.46823552,-0.8314321,-12.669367,0.74943346,-2.3446364,-2.9034297,-2.9332705,3.1034346,0
0.20000000000000004,19.219619579596102,-6.0,-6.0,4.143175578682637,18.890226,-6.7263155,-9.387809,-2.1667392,16.035902,-10.657875,1.8709002,0.026295623,0.27798566,-0.46015656,-0.8427861,-12.754553,0.87870705,-2.3757067,-3.2836156,-3.3107426,3.1986885,0
0.21000000000000005,19.219619579596102,-6.0,-6.0,4.143175578682637,18.890226,-6.7263155,-9.387809,-2.1667392,15.907888,-10.648358,1.8470668,0.0366082,0.25512934,-0.45015153,-0.85494584,-12.84764,1.0242821,-2.3896925,-3.7062478,-3.7311227,3.2450345,0
0.22000000000000006,19.219619579596102,-6.0,-6.0,4.143175578682637,18.890226,-6.7263155,-9.387809,-2.1667392,15.778967,-10.637396,1.8231353,0.046705265,0.2302058,-0.43818378,-0.86765134,-12.935823,1.1677854,-2.3952646,-4.0630918,-4.085823,3.2891066,0
0.23000000000000007,19.219619579596102,-6.0,-6.0,4.143175578682637,18.890226,-6.7263155,-9.387809,-2.1667392,15.649193,-10.6250105,1.799192,0.05660092,0.2034448,-0.4244361,-0.8804888,-13.018091,1.3087869,-2.3919744,-4.3643923,-4.3851023,3.331016,0
0.24000000000000007,19.219619579596102,-6.0,-6.0,4.143175578682637,19.4543,-6.197746,-9.474195,-2.64994,15.518629,-10.611229,1.7753268,0.066304825,0.17505747,-0.40906465,-0.89309835,-13.093423,1.446829,-2.3796327,-4.618798,-4.6376166,3.3708692,0
0.25000000000000006,19.219619579596102,-6.0,-6.0,4.143175578682637,19.4543,-6.197746,-9.474195,-2.64994,15.387352,-10.596086,1.7516303,0.0758226,0.14524037,-0.39220574,-0.90516895,-13.160812,1.5814351,-2.358291,-4.833609,-4.8506703,3.4087665,0
0.26000000000000006,19.219619579596102,-6.0,-6.0,4.143175578682637,19.4543,-6.197746,-9.474195,-2.64994,15.255444,-10.579615,1.7281911,0.085156254,0.11417799,-0.37398073,-0.91643345,-13.219287,1.712119,-2.3282197,-5.0149913,-5.0304284,3.4448042,0
0.2700000000000001,19.219619579596102,-6.0,-6.0,4.143175578682637,19.4543,-6.197746,-9.474195,-2.64994,15.123,-10.561859,1.7050943,0.09430464,0.08204458,-0.35449973,-0.9266635,-13.2679205,1.8383961,-2.2898893,-5.1681476,-5.182091,3.4790735,0
0.2800000000000001,20.99999996516465,-5.999999988199111,-6.0,3.0401275052111867,19.98451,-5.8067822,-7.986716,-2.2525666,14.990123,-10.542864,1.6824194,0.103263855,0.049005516,-0.33386415,-0.9356654,-13.305857,1.9597933,-2.2439504,-5.2974725,-5.310049,3.5116613,0
0.2900000000000001,20.99999996516465,-5.999999988199111,-6.0,3.0401275052111867,19.98451,-5.8067822,-7.986716,-2.2525666,14.856909,-10.522627,1.660308,0.11189995,0.015263178,-0.31216356,-0.9432917,-13.334769,2.0866106,-2.1772423,-5.406867,-5.417815,3.488523,0
0.3000000000000001,20.99999996516465,-5.999999988199111,-6.0,3.0401275052111867,19.98451,-5.8067822,-7.986716,-2.2525666,14.723472,-10.501154,1.6388966,0.120084934,-0.018994078,-0.28949028,-0.9494283,-13.350401,2.2071393,-2.1041462,-5.4992385,-5.5087376,3.46652,0
0.3100000000000001,20.99999996516465,-5.999999988199111,-6.0,3.0401275052111867,19.98451,-5.8067822,-7.986716,-2.2525666,14.589948,-10.478508,1.6182432,0.12782122,-0.0536333,-0.2659408,-0.953971,-13.352125,2.3209534,-2.0258312,-5.5772347,-5.5854497,3.445597,0
0.3200000000000001,21.0,-5.999998203377004,-5.999999874901885,2.500352767481533,19.463116,-4.43004,-5.861043,-2.4650815,14.456478,-10.45476,1.5983938,0.13511032,-0.08852795,-0.2416068,-0.9568355,-13.339444,2.427669,-1.9435724,-5.6430926,-5.650173,3.4257004,0
0.3300000000000001,21.0,-5.999998203377004,-5.999999874901885,2.500352767481533,19.463116,-4.43004,-5.861043,-2.4650815,14.32321,-10.42998,1.5793808,0.14188926,-0.12354181,-0.21658257,-0.95796496,-13.311995,2.5269532,-1.8587325,-5.6987987,-5.7046843,3.3802934,0
0.34000000000000014,21.0,-5.999998203377004,-5.999999874901885,2.500352767481533,19.463116,-4.43004,-5.861043,-2.4650815,14.19029,-10.404246,1.561223,0.14809921,-0.15854791,-0.190962,-0.9573205,-13.269548,2.6185257,-1.7727394,-5.745831,-5.7506804,3.3371143,0
0.35000000000000014,21.0,-5.999998203377004,-5.999999874901885,2.500352767481533,19.463116,-4.43004,-5.861043,-2.4650815,14.057872,-10.377636,1.5439247,0.1537472,-0.19344217,-0.1648305,-0.9548679,-13.212023,2.7021632,-1.6870658,-5.785539,-5.789493,3.2960541,0
0.36000000000000015,21.0,-2.1514261027182906,-5.999998596833447,-3.5893778450846208,17.435732,-3.0203836,-3.1531823,-2.0647295,13.926102,-10.35023,1.5274754,0.1588402,-0.22812536,-0.13827004,-0.950584,-13.139477,2.7777016,-1.6032103,-5.8190618,-5.822245,3.2570088,0
0.37000000000000016,21.0,-2.1514261027182906,-5.999998596833447,-3.5893778450846208,17.435732,-3.0203836,-3.1531823,-2.0647295,13.79528,-10.321989,1.5121641,0.16315292,-0.26178145,-0.11239054,-0.94457394,-13.02201,2.8684652,-1.4608325,-5.448169,-5.648505,2.9887235,0
0.38000000000000017,21.0,-2.1514261027182906,-5.999998596833447,-3.5893778450846208,17.435732,-3.0203836,-3.1531823,-2.0647295,13.665713,-10.292903,1.4982171,0.16646312,-0.29380056,-0.08814801,-0.93712384,-12.889163,2.9469163,-1.3305478,-5.1321445,-5.504945,2.7270825,0
0.3900000000000002,21.0,-2.1514261027182906,-5.999998596833447,-3.5893778450846208,17.435732,-3.0203836,-3.1531823,-2.0647295,13.537543,-10.263088,1.4855081,0.16878167,-0.32437977,-0.065402575,-0.9284465,-12.743005,3.0143604,-1.2133852,-4.862854,-5.386414,2.4719214,0
0.4000000000000002,21.0,-0.1766605421226126,-4.579322195461077,-5.999999337508607,15.205592,-1.8053797,0.36645392,-1.7519386,13.4108925,-10.23265,1.4739017,0.17012051,-0.353689,-0.044033106,-0.9187078,-12.585436,3.0719612,-1.1100639,-4.633477,-5.288524,2.2230802,0
0.4100000000000002,21.0,-0.1766605421226126,-4.579322195461077,-5.999999337508607,15.205592,-1.8053797,0.36645392,-1.7519386,13.286071,-10.201617,1.4634906,0.17063019,-0.38113552,-0.024492051,-0.90830666,-12.377154,3.1328151,-0.9749545,-4.175889,-4.940465,1.9206988,0
0.4200000000000002,21.0,-0.1766605421226126,-4.579322195461077,-5.999999337508607,15.205592,-1.8053797,0.36645392,-1.7519386,13.163381,-10.170025,1.4543422,0.17042641,-0.40629143,-0.007121692,-0.897681,-12.159502,3.1842782,-0.857437,-3.7926993,-4.6437106,1.6258065,0
0.4300000000000002,21.0,-0.1766605421226126,-4.579322195461077,-5.999999337508607,15.205592,-1.8053797,0.36645392,-1.7519386,13.042904,-10.137959,1.4462832,0.16947259,-0.42951265,0.008322821,-0.88697714,-11.934824,3.2277431,-0.7569792,-3.472226,-4.390324,1.3382177,0
0.4400000000000002,21.0,-0.1766605421226126,-4.579322195461077,-5.999999337508607,12.939935,0.13832392,1.0476658,-1.7804481,12.924701,-10.105494,1.4391462,0.16773795,-0.4510999,0.022048784,-0.87629133,-11.705069,3.2643547,-0.67292684,-3.2047012,-4.1735134,1.0577514,0
0.45000000000000023,21.0,-0.1766605421226126,-4.579322195461077,-5.999999337508607,12.939935,0.13832392,1.0476658,-1.7804481,12.808813,-10.072693,1.4327707,0.16519749,-0.47130603,0.034231372,-0.86568385,-11.471859,3.2950475,-0.6045645,-2.981956,-3.9874766,0.7842313,0
0.46000000000000024,21.0,-0.1766605421226126,-4.579322195461077,-5.999999337508607,12.939935,0.13832392,1.0476658,-1.7804481,12.69527,-10.039611,1.4270036,0.16183168,-0.49034235,0.04501856,-0.8551889,-11.23655,3.3205807,-0.55115485,-2.7971544,-3.8272579,0.5174854,0
0.47000000000000025,21.0,-0.1766605421226126,-4.579322195461077,-5.999999337508607,12.939935,0.13832392,1.0476658,-1.7804481,12.5840845,-10.006297,1.4216989,0.15762588,-0.5083845,0.054535456,-0.8448224,-11.000276,3.3415658,-0.5119627,-2.644574,-3.68863,0.25734589,0
0.48000000000000026,20.99999535578506,0.6183682897768298,-1.9575132783638132,-5.9999993588722225,10.514326,0.6198852,1.7866508,-3.411059,12.475264,-9.972794,1.4167181,0.1525698,-0.52557766,0.062888004,-0.834587,-10.763991,3.3584921,-0.4862693,-2.519421,-3.567989,0.0036491305,0
0.49000000000000027,20.99999535578506,0.6183682897768298,-1.9575132783638132,-5.9999993588722225,10.514326,0.6198852,1.7866508,-3.411059,12.368802,-9.939139,1.4119297,0.14697728,-0.5413763,0.06970166,-0.8248944,-10.52855,3.3717961,-0.4732903,-2.1511295,-3.1959605,-0.24376443,0
0.5000000000000002,20.99999535578506,0.6183682897768298,-1.9575132783638132,-5.9999993588722225,10.514326,0.6198852,1.7866508,-3.411059,12.264687,-9.905367,1.4072129,0.14111345,-0.55538946,0.074690744,-0.8161192,-10.294893,3.3821018,-0.47176868,-1.8437513,-2.878463,-0.48505038,0
0.5100000000000002,20.99999535578506,0.6183682897768298,-1.9575132783638132,-5.9999993588722225,10.514326,0.6198852,1.7866508,-3.411059,12.162896,-9.871505,1.4024594,0.13490537,-0.56792754,0.07805583,-0.80818677,-10.0638075,3.389993,-0.48040983,-1.5874629,-2.6073155,-0.7203605,0
0.5200000000000002,16.974395133095157,1.5571132855537817,0.4830196298729244,-5.9999992326882285,8.939174,0.38002086,4.9790454,-4.845726,12.0634,-9.837574,1.3975736,0.1282917,-0.579243,0.079964414,-0.80101436,-9.835869,3.3959265,-0.49808228,-1.3740487,-2.3755374,-0.9498428,0
0.5300000000000002,16.974395133095157,1.5571132855537817,0.4830196298729244,-5.9999992326882285,8.939174,0.38002086,4.9790454,-4.845726,11.966071,-9.803593,1.3924391,0.121601075,-0.5889175,0.08012879,-0.7949644,-9.630494,3.399934,-0.52984625,-0.93222326,-1.914579,-1.1547168,0
0.5400000000000003,16.974395133095157,1.5571132855537817,0.4830196298729244,-5.9999992326882285,8.939174,0.38002086,4.9790454,-4.845726,11.870778,-9.769577,1.386956,0.11511337,-0.5966505,0.07832907,-0.79033,-9.42883,3.403051,-0.5676258,-0.55974793,-1.5250523,-1.3545167,0
0.5500000000000003,16.974395133095157,1.5571132855537817,0.4830196298729244,-5.9999992326882285,8.939174,0.38002086,4.9790454,-4.845726,11.777481,-9.735533,1.3810703,0.10871428,-0.6027789,0.074784,-0.78692186,-9.231193,3.405788,-0.6102176,-0.2452114,-1.1964161,-1.5493681,0
0.5600000000000003,14.314959660186151,1.870234822016511,2.6293973052325668,-5.99999805840243,8.571864,1.4501271,5.4856453,-5.3536453,11.686139,-9.701461,1.3747387,0.102306955,-0.6075735,0.06967626,-0.784559,-9.037777,3.4085584,-0.65664023,0.020935353,-0.9196903,-1.7393938,0
0.5700000000000003,14.314959660186151,1.870234822016511,2.6293973052325668,-5.99999805840243,8.571864,1.4501271,5.4856453,-5.3536453,11.596646,-9.667361,1.3679107,0.09610217,-0.61081606,0.06284037,-0.78340226,-8.861465,3.4115145,-0.7093365,0.43948948,-0.49646854,-1.9122108,0
0.5800000000000003,14.314959660186151,1.870234822016511,2.6293973052325668,-5.99999805840243,8.571864,1.4501271,5.4856453,-5.3536453,11.508896,-9.633228,1.3605456,0.09027811,-0.6123444,0.054147795,-0.783551,-8.689339,3.4152894,-0.7639357,0.79647064,-0.14295605,-2.0807478,0
0.5900000000000003,14.314959660186151,1.870234822016511,2.6293973052325668,-5.99999805840243,8.571864,1.4501271,5.4856453,-5.3536453,11.422846,-9.599051,1.3526282,0.084714815,-0.61242574,0.04378987,-0.78475505,-8.521496,3.4203107,-0.8196684,1.1021112,0.15108597,-2.2451105,0
0.6000000000000003,15.149722829095813,2.943852165923058,5.99999938940302,-4.939470457891178,9.016654,1.030222,6.4749737,-4.542286,11.338452,-9.564817,1.3441503,0.0793107,-0.611274,0.03192897,-0.7867874,-8.357997,3.4269342,-0.8759568,1.3649786,0.39436838,-2.4054024,0
0.6100000000000003,15.149722829095813,2.943852165923058,5.99999938940302,-4.939470457891178,9.016654,1.030222,6.4749737,-4.542286,11.255655,-9.530508,1.3351047,0.07422567,-0.60789114,0.01861567,-0.7903241,-8.201927,3.4353023,-0.9330709,1.7171838,1.1631938,-2.5203686,0
0.6200000000000003,15.149722829095813,2.943852165923058,5.99999938940302,-4.939470457891178,9.016654,1.030222,6.4749737,-4.542286,11.174402,-9.496104,1.3254933,0.06954593,-0.6013888,0.0039978977,-0.79591376,-8.049113,3.445917,-0.9889206,1.9865453,1.8400866,-2.632185,0
0.6300000000000003,15.149722829095813,2.943852165923058,5.99999938940302,-4.939470457891178,9.016654,1.030222,6.4749737,-4.542286,11.094661,-9.461582,1.315334,0.06509189,-0.5920581,-0.011660518,-0.8031774,-7.8998756,3.459053,-1.0425653,2.18648,2.4388819,-2.7409618,0
0.6400000000000003,15.149722829095813,2.943852165923058,5.99999938940302,-4.939470457891178,10.514327,0.37594533,7.8716373,-3.6717777,11.016392,-9.426914,1.3046523,0.060713284,-0.5801279,-0.02812948,-0.81177205,-7.754539,3.4749248,-1.093281,2.3282948,2.9712753,-2.8468053,0
0.6500000000000004,15.149722829095813,2.943852165923058,5.99999938940302,-4.939470457891178,10.514327,0.37594533,7.8716373,-3.6717777,10.939557,-9.392074,1.2934808,0.056289922,-0.56578493,-0.045210905,-0.8213857,-7.612988,3.4937572,-1.1403599,2.4268692,3.4417818,-2.949355,0
0.6600000000000004,15.149722829095813,2.943852165923058,5.99999938940302,-4.939470457891178,10.514327,0.37594533,7.8716373,-3.6717777,10.864124,-9.357027,1.2818614,0.05176805,-0.54923797,-0.06278937,-0.8316939,-7.4738917,3.5159674,-1.18272,2.5085008,3.840419,-3.0470102,0
0.6700000000000004,15.149722829095813,2.943852165923058,5.99999938940302,-4.939470457891178,10.514327,0.37594533,7.8716373,-3.6717777,10.79007,-9.321741,1.2698439,0.047131535,-0.53070146,-0.08079838,-0.842381,-7.3375998,3.5417988,-1.219954,2.577313,4.176913,-3.1398735,0
0.6800000000000004,16.485645525042194,4.5392307168343615,5.99999977978627,-1.0517616329759574,17.609098,-6.1528444,6.252319,-9.003541,10.717361,-9.286178,1.2574807,0.042366024,-0.5103604,-0.09917214,-0.8531716,-7.2046237,3.5714781,-1.2518466,2.6353111,4.4609523,-3.2281804,0
0.6900000000000004,16.485645525042194,4.5392307168343615,5.99999977978627,-1.0517616329759574,17.609098,-6.1528444,6.252319,-9.003541,10.646021,-9.250283,1.2448568,0.038191304,-0.48840097,-0.11814868,-0.86373967,-7.06411,3.6082456,-1.2720014,2.9324038,4.7005453,-3.121383,0
0.7000000000000004,16.485645525042194,4.5392307168343615,5.99999977978627,-1.0517616329759574,17.609098,-6.1528444,6.252319,-9.003541,10.576063,-9.213996,1.2320606,0.03522546,-0.4650058,-0.13788855,-0.87379336,-6.9284196,3.6500018,-1.2863433,3.1830752,4.902895,-3.0198262,0
0.7100000000000004,16.485645525042194,4.5392307168343615,5.99999977978627,-1.0517616329759574,17.609098,-6.1528444,6.252319,-9.003541,10.507435,-9.177264,1.219149,0.033318747,-0.4403223,-0.15822275,-0.8831597,-6.79821,3.6972656,-1.2951031,3.394584,5.0737853,-2.9232526,0
0.7200000000000004,17.042719142665526,3.6813568874036675,5.999999853707613,-0.175040153206151,18.289234,-5.774187,6.0441804,-7.5771103,10.440078,-9.14003,1.2061764,0.03234257,-0.414483,-0.17900069,-0.8916927,-6.6741304,3.750453,-1.2986263,3.5730538,5.218102,-2.8314183,0
0.7300000000000004,17.042719142665526,3.6813568874036675,5.999999853707613,-0.175040153206151,18.289234,-5.774187,6.0441804,-7.5771103,10.373948,-9.102223,1.1932095,0.03214378,-0.387641,-0.19973786,-0.8993361,-6.552843,3.8118646,-1.2939925,3.5897157,5.3403125,-2.7010689,0
0.7400000000000004,17.042719142665526,3.6813568874036675,5.999999853707613,-0.175040153206151,18.289234,-5.774187,6.0441804,-7.5771103,10.308994,-9.06377,1.1803119,0.032619018,-0.35994628,-0.22003613,-0.90606743,-6.4391317,3.879774,-1.2848831,3.6037488,5.4434566,-2.577116,0
0.7500000000000004,17.042719142665526,3.6813568874036675,5.999999853707613,-0.175040153206151,18.289234,-5.774187,6.0441804,-7.5771103,10.245137,-9.024606,1.1675255,0.033728976,-0.33150956,-0.23988873,-0.9118205,-6.3335404,3.954143,-1.2718282,3.615573,5.530507,-2.4592454,0
0.7600000000000005,16.960390298386823,-0.4679462312523849,5.999999852535723,-4.275399640916601,17.96648,-5.7646246,5.2819037,-6.669301,10.182294,-8.984666,1.154887,0.03543486,-0.302432,-0.2592887,-0.91654134,-6.2365766,4.034881,-1.255408,3.6255403,5.603973,-2.347159,0
0.7700000000000005,16.960390298386823,-0.4679462312523849,5.999999852535723,-4.275399640916601,17.96648,-5.7646246,5.2819037,-6.669301,10.120378,-8.943885,1.1424298,0.036753476,-0.27277526,-0.27690026,-0.92063475,-6.1484904,4.1219006,-1.235968,2.9991117,5.65498,-2.4407187,0
0.7800000000000005,16.960390298386823,-0.4679462312523849,5.999999852535723,-4.275399640916601,17.96648,-5.7646246,5.2819037,-6.669301,10.059292,-8.902211,1.1301742,0.03688247,-0.24252053,-0.2916086,-0.92454696,-6.0702434,4.213577,-1.2147809,2.458847,5.7094984,-2.530747,0
0.7900000000000005,16.960390298386823,-0.4679462312523849,5.999999852535723,-4.275399640916601,17.96648,-5.7646246,5.2819037,-6.669301,9.998941,-8.859598,1.1181425,0.03603229,-0.21172406,-0.30378833,-0.9282168,-6.0013714,4.309532,-1.1912009,2.0028114,5.7554407,-2.6163578,0
0.8000000000000005,18.0378645253238,-1.9211908678998786,5.793306282648343,-4.48313015456124,17.056557,-1.931941,4.4813185,-2.7720015,9.939232,-8.816009,1.1063578,0.034373183,-0.18044735,-0.31376794,-0.9315612,-5.942007,4.4089537,-1.1654122,1.617871,5.794148,-2.6977675,0
0.8100000000000005,18.0378645253238,-1.9211908678998786,5.793306282648343,-4.48313015456124,17.056557,-1.931941,4.4813185,-2.7720015,9.880084,-8.771378,1.0948809,0.03189298,-0.14883348,-0.32128885,-0.93466794,-5.889104,4.517599,-1.1296284,1.0662881,5.794923,-2.7853756,0
0.8200000000000005,18.0378645253238,-1.9211908678998786,5.793306282648343,-4.48313015456124,17.056557,-1.931941,4.4813185,-2.7720015,9.821414,-8.72565,1.0837721,0.02860087,-0.11700197,-0.32616076,-0.93760914,-5.846468,4.6282654,-1.091851,0.60070753,5.795481,-2.868685,0
0.8300000000000005,18.0378645253238,-1.9211908678998786,5.793306282648343,-4.48313015456124,17.056557,-1.931941,4.4813185,-2.7720015,9.76312,-8.678809,1.0730504,0.024646051,-0.08497372,-0.32872844,-0.9402706,-5.8141203,4.740125,-1.0522234,0.20771846,5.7958646,-2.9479063,0
0.8400000000000005,18.0378645253238,-1.9211908678998786,5.793306282648343,-4.48313015456124,16.220516,-1.7389258,4.121715,-2.4120376,9.705096,-8.630846,1.0627333,0.020147273,-0.052771855,-0.32928163,-0.9425401,-5.792097,4.852467,-1.0109602,-0.123999126,5.7961073,-3.02324,0
0.8500000000000005,18.0378645253238,-1.9211908678998786,5.793306282648343,-4.48313015456124,16.220516,-1.7389258,4.121715,-2.4120376,9.647241,-8.58176,1.0528357,0.0151991965,-0.020422742,-0.32806435,-0.9443118,-5.7804403,4.9646783,-0.9683452,-0.40399957,5.7962403,-3.0948775,0
0.8600000000000005,18.0378645253238,-1.9211908678998786,5.793306282648343,-4.48313015456124,16.220516,-1.7389258,4.121715,-2.4120376,9.589451,-8.531554,1.0433697,0.0098775225,0.012043675,-0.32528284,-0.945488,-5.7791896,5.0762253,-0.92472863,-0.6403473,5.7962866,-3.1629994,0
0.8700000000000006,18.0378645253238,-1.9211908678998786,5.793306282648343,-4.48313015456124,16.220516,-1.7389258,4.121715,-2.4120376,9.53162,-8.48024,1.0343432,0.004243095,0.044593956,-0.3211118,-0.9459808,-5.7883725,5.1866426,-0.88052136,-0.83984965,5.7962675,-3.2277787,0
0.8800000000000006,15.942220996846618,-2.1974296327827134,3.509834206444764,-3.8896148958007433,15.494868,-1.5935769,3.3920057,-2.0936844,9.473646,-8.427829,1.0257598,-0.0016548211,0.07719147,-0.3156998,-0.9457121,-5.807998,5.295526,-0.8361891,-1.0082518,5.7962,-3.2893791,0
0.8900000000000006,15.942220996846618,-2.1974296327827134,3.509834206444764,-3.8896148958007433,15.494868,-1.5935769,3.3920057,-2.0936844,9.415441,-8.3744,1.0175356,-0.007983367,0.108912155,-0.30907592,-0.94474626,-5.8344955,5.390088,-0.8087309,-1.1943616,5.440063,-3.3188329,0
0.9000000000000006,15.942220996846618,-2.1974296327827134,3.509834206444764,-3.8896148958007433,15.494868,-1.5935769,3.3920057,-2.0936844,9.356927,-8.320036,1.0095829,-0.014853417,0.13902207,-0.30128977,-0.9432262,-5.8696914,5.4826937,-0.7819513,-1.3513452,5.139408,-3.346841,0
0.9100000000000006,15.942220996846618,-2.1974296327827134,3.509834206444764,-3.8896148958007433,15.494868,-1.5935769,3.3920057,-2.0936844,9.298019,-8.264756,1.0018933,-0.022154896,0.16774231,-0.29248598,-0.94118154,-5.913067,5.5731096,-0.7561422,-1.4837598,4.8855906,-3.373475,0
0.9200000000000006,14.110160311256992,-1.7938574915147458,0.9732659011392663,-3.1778160450141173,15.892651,-1.5436332,2.4863904,-1.1141235,9.238639,-8.208582,0.9944557,-0.029798009,0.19525802,-0.2827876,-0.9386248,-5.9641724,5.661151,-0.73157495,-1.5954496,4.6713133,-3.398802,0
0.9300000000000006,14.110160311256992,-1.7938574915147458,0.9732659011392663,-3.1778160450141173,15.892651,-1.5436332,2.4863904,-1.1141235,9.178743,-8.151591,0.9871868,-0.037943736,0.22074498,-0.27243873,-0.9357393,-6.0158405,5.7368574,-0.7224128,-1.6276963,4.094664,-3.3879583,0
0.9400000000000006,14.110160311256992,-1.7938574915147458,0.9732659011392663,-3.1778160450141173,15.892651,-1.5436332,2.4863904,-1.1141235,9.118302,-8.093853,0.98000264,-0.046701528,0.24357037,-0.26165172,-0.9327538,-6.0732512,5.8103285,-0.7146222,-1.654707,3.6079314,-3.3776467,0
0.9500000000000006,14.110160311256992,-1.7938574915147458,0.9732659011392663,-3.1778160450141173,15.892651,-1.5436332,2.4863904,-1.1141235,9.0572605,-8.035392,0.9728896,-0.05593708,0.26413435,-0.25047898,-0.9297114,-6.1357145,5.881586,-0.7081855,-1.6773312,3.1970952,-3.3678408,0
0.9600000000000006,13.677288853990602,-0.8586526800262436,-1.2521833442929857,-2.457964080091734,15.21078,-1.3120341,1.2353677,-0.59428644,8.995572,-7.9762287,0.9658344,-0.065540664,0.28277397,-0.23896407,-0.9266274,-6.202663,5.950658,-0.7030638,-1.6962812,2.8503208,-3.3585162,0
0.9700000000000006,13.677288853990602,-0.8586526800262436,-1.2521833442929857,-2.457964080091734,15.21078,-1.3120341,1.2353677,-0.59428644,8.933205,-7.916396,0.95880836,-0.07565817,0.29890406,-0.22745539,-0.9236856,-6.271402,6.0155396,-0.70231616,-1.5671173,2.2102087,-3.3143258,0
0.9800000000000006,13.677288853990602,-0.8586526800262436,-1.2521833442929857,-2.457964080091734,15.21078,-1.3120341,1.2353677,-0.59428644,8.870133,-7.8559246,0.9517846,-0.08638997,0.31208295,-0.21623345,-0.9210771,-6.343283,6.0785093,-0.70257044,-1.4578447,1.6699737,-3.2723038,0
0.9900000000000007,13.677288853990602,-0.8586526800262436,-1.2521833442929857,-2.457964080091734,15.21078,-1.3120341,1.2353677,-0.59428644,8.80633,-7.7948327,0.9447544,-0.09759408,0.3227629,-0.2052399,-0.9187899,-6.4176407,6.1397347,-0.7035694,-1.3654045,1.2140316,-3.232344,0
1.0000000000000007,14.134477550336866,0.16960349940118685,-2.8137776071027556,-1.7909990306516104,15.367962,-1.012066,0.54136807,-0.862692,8.741774,-7.733136,0.93771154,-0.10915375,0.33132288,-0.19442518,-0.9167924,-6.4939322,6.1993465,-0.70506483,-1.2872075,0.8292297,-3.194345,0
1.0100000000000007,14.134477550336866,0.16960349940118685,-2.8137776071027556,-1.7909990306516104,15.367962,-1.012066,0.54136807,-0.862692,8.676433,-7.6708417,0.93066835,-0.121154346,0.33744645,-0.18408142,-0.9151854,-6.574278,6.2594037,-0.7035873,-1.061214,0.2605858,-3.1254823,0
1.0200000000000007,14.134477550336866,0.16960349940118685,-2.8137776071027556,-1.7909990306516104,15.367962,-1.012066,0.54136807,-0.862692,8.610284,-7.6079535,0.9236401,-0.13364719,0.3408957,-0.17443594,-0.9140566,-6.6555066,6.3181114,-0.7020204,-0.8702365,-0.2192863,-3.059999,0
1.0300000000000007,14.134477550336866,0.16960349940118685,-2.8137776071027556,-1.7909990306516104,15.367962,-1.012066,0.54136807,-0.862692,8.543321,-7.544484,0.9166295,-0.14649914,0.3420675,-0.1653639,-0.9133354,-6.7370296,6.3756466,-0.7000108,-0.70885605,-0.6242469,-2.997729,0
1.0400000000000007,14.134477550336866,0.16960349940118685,-2.8137776071027556,-1.7909990306516104,16.251242,-0.6223666,0.22310205,-0.5853772,8.475544,-7.480445,0.9096425,-0.15959993,0.34129462,-0.15676081,-0.9129462,-6.818358,6.432126,-0.6972449,-0.57249075,-0.96599203,-2.9385145,0
1.0500000000000007,14.134477550336866,0.16960349940118685,-2.8137776071027556,-1.7909990306516104,16.251242,-0.6223666,0.22310205,-0.5853772,8.406958,-7.4158454,0.90268815,-0.1728585,0.33885694,-0.14854006,-0.91281474,-6.8990827,6.4876165,-0.6934509,-0.4572677,-1.2543911,-2.8822055,0
1.0600000000000007,14.134477550336866,0.16960349940118685,-2.8137776071027556,-1.7909990306516104,16.251242,-0.6223666,0.22310205,-0.5853772,8.337566,-7.3506956,0.8957778,-0.18619983,0.33499062,-0.14063007,-0.9128708,-6.97886,6.542144,-0.68839884,-0.35991213,-1.4977723,-2.8286595,0
1.0700000000000007,14.134477550336866,0.16960349940118685,-2.8137776071027556,-1.7909990306516104,16.251242,-0.6223666,0.22310205,-0.5853772,8.267384,-7.285005,0.8889252,-0.19956225,0.32989553,-0.13297202,-0.9130506,-7.0573997,6.595699,-0.68189824,-0.27765644,-1.7031637,-2.7777412,0
1.0800000000000007,14.647342615906707,0.9691665140549093,-3.394359792505252,-1.1718406240787316,16.46919,-0.46754116,-0.047321487,0.028354257,8.196424,-7.218785,0.8821454,-0.21289533,0.32374132,-0.12551776,-0.91329706,-7.1344566,6.648245,-0.6737956,-0.20816076,-1.876496,-2.7293215,0
1.0900000000000007,14.647342615906707,0.9691665140549093,-3.394359792505252,-1.1718406240787316,16.46919,-0.46754116,-0.047321487,0.028354257,8.124687,-7.152035,0.87547475,-0.22621936,0.31638044,-0.11849397,-0.91361177,-7.2125363,6.701605,-0.6600472,-0.024873566,-2.1135333,-2.6528955,0
1.1000000000000008,14.647342615906707,0.9691665140549093,-3.394359792505252,-1.1718406240787316,16.46919,-0.46754116,-0.047321487,0.028354257,8.05218,-7.084757,0.86895114,-0.23953411,0.30769798,-0.112078205,-0.9139928,-7.2885213,6.753881,-0.6443615,0.12991022,-2.3135393,-2.5802197,0
1.1100000000000008,14.647342615906707,0.9691665140549093,-3.394359792505252,-1.1718406240787316,16.46919,-0.46754116,-0.047321487,0.028354257,7.9789257,-7.016961,0.8625946,-0.25277546,0.29787228,-0.10616868,-0.91438717,-7.362092,6.805071,-0.6266147,0.2606199,-2.4823008,-2.51111,0
1.1200000000000008,15.266900662547934,1.4543244938404813,-3.236884448380771,-0.5967678987293924,17.052622,-0.21265014,-0.57911164,0.4766247,7.904948,-6.9486594,0.85642624,-0.26589128,0.287056,-0.10068025,-0.9147476,-7.432971,6.855139,-0.60672,0.37099677,-2.6247008,-2.4453917,0
1.1300000000000008,15.266900662547934,1.4543244938404813,-3.236884448380771,-0.5967678987293924,17.052622,-0.21265014,-0.57911164,0.4766247,7.830262,-6.8798523,0.8504931,-0.2788235,0.27537838,-0.095756695,-0.9150157,-7.5037866,6.906102,-0.5795431,0.53994936,-2.720408,-2.354679,0
1.1400000000000008,15.266900662547934,1.4543244938404813,-3.236884448380771,-0.5967678987293924,17.052622,-0.21265014,-0.57911164,0.4766247,7.754884,-6.8105416,0.84484315,-0.29151517,0.2629482,-0.09151188,-0.9151511,-7.571294,6.9558425,-0.55006945,0.68257946,-2.801133,-2.268418,0
1.1500000000000008,15.266900662547934,1.4543244938404813,-3.236884448380771,-0.5967678987293924,17.052622,-0.21265014,-0.57911164,0.4766247,7.6788483,-6.7407393,0.83949935,-0.30393055,0.24986029,-0.08783927,-0.91513884,-7.6352654,7.004355,-0.51832163,0.80298525,-2.8692234,-2.1863897,0
1.1600000000000008,15.897537006981622,1.5458707731682928,-2.525375775401011,-0.025986885268657705,16.853441,-0.39562124,-0.7403945,0.8800354,7.602192,-6.6704583,0.83448434,-0.31604224,0.2361973,-0.084648445,-0.91496533,-7.695502,7.0516076,-0.48434252,0.9046283,-2.926659,-2.1083865,0
1.1700000000000008,15.897537006981622,1.5458707731682928,-2.525375775401011,-0.025986885268657705,16.853441,-0.39562124,-0.7403945,0.8800354,7.5249405,-6.599702,0.82984763,-0.32775095,0.22227466,-0.082004316,-0.914575,-7.754169,7.0994577,-0.4426573,1.0049064,-2.8641503,-2.0062025,0
1.1800000000000008,15.897537006981622,1.5458707731682928,-2.525375775401011,-0.025986885268657705,16.853441,-0.39562124,-0.7403945,0.8800354,7.447123,-6.528474,0.8256384,-0.3389745,0.20834953,-0.07995976,-0.9139431,-7.808701,7.1459703,-0.3988623,1.0895168,-2.8113604,-1.9090327,0
1.1900000000000008,15.897537006981622,1.5458707731682928,-2.525375775401011,-0.025986885268657705,16.853441,-0.39562124,-0.7403945,0.8800354,7.3687816,-6.4567876,0.82187706,-0.34971884,0.1944103,-0.07842639,-0.9130989,-7.859053,7.1911716,-0.3531121,1.1609073,-2.7667804,-1.8166311,0
1.2000000000000008,15.634891987481607,1.1972190703505334,-1.709686971989635,0.496397985375406,17.661667,-0.10246058,-1.0181783,1.0334277,7.289957,-6.3846555,0.8185823,-0.35999206,0.18044844,-0.07732799,-0.91206545,-7.905185,7.235068,-0.30555397,1.2211431,-2.7291353,-1.7287636,0
1.2100000000000009,15.634891987481607,1.1972190703505334,-1.709686971989635,0.496397985375406,17.661667,-0.10246058,-1.0181783,1.0334277,7.210696,-6.312094,0.8157594,-0.3696967,0.16680188,-0.07660234,-0.91084164,-7.946392,7.2769556,-0.25877225,1.2177747,-2.5700624,-1.6195743,0
1.2200000000000009,15.634891987481607,1.1972190703505334,-1.709686971989635,0.496397985375406,17.661667,-0.10246058,-1.0181783,1.0334277,7.131044,-6.2391205,0.8134118,-0.37875855,0.15374196,-0.07620107,-0.90944916,-7.9835505,7.317595,-0.21054664,1.214876,-2.4358017,-1.5157429,0
1.2300000000000009,15.634891987481607,1.1972190703505334,-1.709686971989635,0.496397985375406,17.661667,-0.10246058,-1.0181783,1.0334277,7.051039,-6.165747,0.8115528,-0.3872188,0.14117277,-0.07608068,-0.9079331,-8.016803,7.3570266,-0.16105583,1.2123841,-2.322484,-1.4170065,0
1.2400000000000009,15.634891987481607,1.1972190703505334,-1.709686971989635,0.496397985375406,18.136522,-1.0871731,-1.9664171,2.1773646,6.9707212,-6.0919847,0.8101945,-0.39511463,0.12901329,-0.07620262,-0.9063289,-8.046268,7.3952847,-0.1104553,1.210244,-2.2268426,-1.3231152,0
1.2500000000000009,15.634891987481607,1.1972190703505334,-1.709686971989635,0.496397985375406,18.136522,-1.0871731,-1.9664171,2.1773646,6.890127,-6.0178456,0.8093471,-0.4024799,0.1171951,-0.07653282,-0.904664,-8.072051,7.4323936,-0.058882147,1.2084073,-2.1461203,-1.2338312,0
1.260000000000001,15.634891987481607,1.1972190703505334,-1.709686971989635,0.496397985375406,18.136522,-1.0871731,-1.9664171,2.1773646,6.8092933,-5.943341,0.8090198,-0.40934545,0.10566064,-0.0770412,-0.9029594,-8.094234,7.4683714,-0.006458817,1.2068324,-2.0779905,-1.1489283,0
1.270000000000001,15.634891987481607,1.1972190703505334,-1.709686971989635,0.496397985375406,18.136522,-1.0871731,-1.9664171,2.1773646,6.728255,-5.8684816,0.8092205,-0.41573957,0.09436147,-0.07770132,-0.90123135,-8.112897,7.503231,0.046703964,1.2054828,-2.0204892,-1.0681916,0
1.280000000000001,15.407071905517071,0.5216045230894533,-0.8061466145662098,0.986466404121534,18.819075,-2.0516298,-3.538721,3.3951857,6.6470466,-5.793279,0.8099561,-0.4216883,0.083256885,-0.07848993,-0.8994918,-8.1281,7.536979,0.10050478,1.2043265,-1.9719586,-0.9914169,0
1.290000000000001,15.407071905517071,0.5216045230894533,-0.8061466145662098,0.986466404121534,18.819075,-2.0516298,-3.538721,3.3951857,6.565705,-5.7177477,0.81122136,-0.42711264,0.072747916,-0.079302154,-0.8977709,-8.139758,7.5691504,0.15262465,1.0980878,-1.7900125,-0.8943616,0
1.300000000000001,15.407071905517071,0.5216045230894533,-0.8061466145662098,0.986466404121534,18.819075,-2.0516298,-3.538721,3.3951857,6.484262,-5.6418996,0.81301,-0.43195418,0.063151866,-0.080056936,-0.89611226,-8.148336,7.6002836,0.20517053,1.0083739,-1.636466,-0.8020688,0
1.310000000000001,15.407071905517071,0.5216045230894533,-0.8061466145662098,0.986466404121534,18.819075,-2.0516298,-3.538721,3.3951857,6.4027476,-5.5657454,0.81532586,-0.43626267,0.054324005,-0.080766544,-0.89453864,-8.154102,7.6304364,0.25804967,0.9326167,-1.5068848,-0.7143049,0
1.320000000000001,14.99338835292518,-0.36131321819766876,0.029866907902764663,1.4107991357654786,18.154505,-2.4753675,-3.1656215,3.715833,6.3211884,-5.489294,0.81817186,-0.44008127,0.04614176,-0.08144018,-0.8930654,-8.15728,7.6596622,0.3111878,0.868647,-1.3975278,-0.6308476,0
1.330000000000001,14.99338835292518,-0.36131321819766876,0.029866907902764663,1.4107991357654786,18.154505,-2.4753675,-3.1656215,3.715833,6.23961,-5.412559,0.8215299,-0.44335905,0.038951892,-0.08191968,-0.8917418,-8.158072,7.68725,0.3604582,0.67700434,-1.1748028,-0.53066343,0
1.340000000000001,14.99338835292518,-0.36131321819766876,0.029866907902764663,1.4107991357654786,18.154505,-2.4753675,-3.1656215,3.715833,6.158034,-5.335552,0.8253815,-0.44605893,0.033024218,-0.082081705,-0.89061904,-8.156937,7.71405,0.40987217,0.5152062,-0.98684686,-0.43539533,0
1.350000000000001,14.99338835292518,-0.36131321819766876,0.029866907902764663,1.4107991357654786,18.154505,-2.4753675,-3.1656215,3.715833,6.076477,-5.2582803,0.8297278,-0.44823322,0.028159115,-0.08197876,-0.8897035,-8.154248,7.740128,0.4593956,0.37860784,-0.8282293,-0.34480205,0
1.360000000000001,14.213082254538893,-1.2441488011346886,0.5443483107939961,1.7289124696673381,17.075024,-2.8364105,-3.2552588,4.1087613,5.994953,-5.180752,0.83456975,-0.4499261,0.02418784,-0.08165417,-0.88899547,-8.150324,7.765546,0.50900674,0.2632871,-0.6943686,-0.25865418,0
1.370000000000001,14.213082254538893,-1.2441488011346886,0.5443483107939961,1.7289124696673381,17.075024,-2.8364105,-3.2552588,4.1087613,5.9134727,-5.1029787,0.83986974,-0.45111567,0.021306861,-0.080923565,-0.888533,-8.14571,7.789063,0.5510022,0.028268423,-0.5011491,-0.16112372,0
1.380000000000001,14.213082254538893,-1.2441488011346886,0.5443483107939961,1.7289124696673381,17.075024,-2.8364105,-3.2552588,4.1087613,5.832041,-5.0249724,0.84559,-0.45178422,0.019664543,-0.079642765,-0.8883469,-8.140586,7.812032,0.593071,-0.1701262,-0.3380931,-0.06837909,0
1.390000000000001,14.213082254538893,-1.2441488011346886,0.5443483107939961,1.7289124696673381,17.075024,-2.8364105,-3.2552588,4.1087613,5.750661,-4.9467397,0.8517314,-0.45197135,0.019064654,-0.07789862,-0.8884194,-8.135325,7.8344746,0.63522005,-0.33760133,-0.20048806,0.01981453,0
1.400000000000001,13.54632191492804,-1.9347616249315331,0.6103960841135001,1.9245650084903012,16.287588,-3.1044557,-3.362396,4.250068,5.6693335,-4.8682847,0.8582947,-0.45171052,0.019341663,-0.075763986,-0.8887306,-8.130243,7.8564086,0.6774561,-0.4789736,-0.084358804,0.10368048,0
1.410000000000001,13.54632191492804,-1.9347616249315331,0.6103960841135001,1.9245650084903012,16.287588,-3.1044557,-3.362396,4.250068,5.588053,-4.789618,0.8652479,-0.45100117,0.020502457,-0.07306681,-0.8892905,-8.125836,7.8768353,0.71319765,-0.70601135,0.023932312,0.1930318,0
1.420000000000001,13.54632191492804,-1.9347616249315331,0.6103960841135001,1.9245650084903012,16.287588,-3.1044557,-3.362396,4.250068,5.506814,-4.7107496,0.872559,-0.44984037,0.022545077,-0.06967349,-0.89010096,-8.122177,7.896739,0.7490403,-0.89765185,0.11531787,0.27799866,0
1.430000000000001,13.54632191492804,-1.9347616249315331,0.6103960841135001,1.9245650084903012,16.287588,-3.1044557,-3.362396,4.250068,5.4256063,-4.6316857,0.88022906,-0.44825152,0.025329001,-0.065692425,-0.8911298,-8.119551,7.916063,0.7849919,-1.0594121,0.19244048,0.35879615,0
1.440000000000001,13.54632191492804,-1.9347616249315331,0.6103960841135001,1.9245650084903012,16.408531,-3.582224,-3.662558,4.369043,5.3444185,-4.552431,0.88825923,-0.44625494,0.028735874,-0.061215192,-0.8923465,-8.118201,7.9347544,0.8210519,-1.1959503,0.25752896,0.4356289,0
1.450000000000001,13.54632191492804,-1.9347616249315331,0.6103960841135001,1.9245650084903012,16.408531,-3.582224,-3.662558,4.369043,5.2632375,-4.472993,0.8966505,-0.44386885,0.03266603,-0.056319345,-0.8937227,-8.118331,7.952766,0.8572114,-1.3111979,0.31246355,0.50869143,0
1.460000000000001,13.54632191492804,-1.9347616249315331,0.6103960841135001,1.9245650084903012,16.408531,-3.582224,-3.662558,4.369043,5.182047,-4.3933783,0.9054038,-0.44110984,0.037035566,-0.051070627,-0.89523244,-8.1201105,7.9700522,0.89345425,-1.408474,0.3588303,0.57816875,0
1.470000000000001,13.54632191492804,-1.9347616249315331,0.6103960841135001,1.9245650084903012,16.408531,-3.582224,-3.662558,4.369043,5.100829,-4.3135943,0.9145198,-0.4379931,0.04177384,-0.045524877,-0.89685196,-8.123681,7.986571,0.9297579,-1.4905798,0.39796686,0.6442368,0
1.480000000000001,13.556305597517323,-2.374670270215771,0.517316429805092,1.9575302592643413,17.226486,-4.031076,-4.005507,4.3002887,5.0195665,-4.2336493,0.92399895,-0.43453288,0.046821408,-0.03972957,-0.89855963,-8.129162,8.002279,0.96609426,-1.5598812,0.43100217,0.7070629,0
1.490000000000001,13.556305597517323,-2.374670270215771,0.517316429805092,1.9575302592643413,17.226486,-4.031076,-4.005507,4.3002887,4.9382386,-4.1535516,0.93384206,-0.4307314,0.05217074,-0.03355085,-0.90034544,-8.136662,8.01714,1.0025299,-1.6869711,0.44433728,0.7684237,0
1.500000000000001,13.556305597517323,-2.374670270215771,0.517316429805092,1.9575302592643413,17.226486,-4.031076,-4.005507,4.3002887,4.856826,-4.07331,0.9440494,-0.42658895,0.057812355,-0.026884833,-0.9021949,-8.1463,8.031049,1.0389309,-1.7942405,0.45559663,0.8267735,0
1.5100000000000011,13.556305597517323,-2.374670270215771,0.517316429805092,1.9575302592643413,17.226486,-4.031076,-4.005507,4.3002887,4.7753053,-3.9929338,0.9546205,-0.4221162,0.06369763,-0.019809488,-0.90408355,-8.158193,8.0439,1.0752565,-1.8847802,0.46510515,0.88226014,0
1.5200000000000011,13.439912557004213,-2.4847135432306278,0.19670212744820975,1.8354412797522466,16.468964,-4.223799,-3.8461628,3.671347,4.693654,-3.9124355,0.9655542,-0.41732356,0.069785684,-0.012391109,-0.9059892,-8.172432,8.0556,1.1114591,-1.9611993,0.47313643,0.93502396,0
1.5300000000000011,13.439912557004213,-2.4847135432306278,0.19670212744820975,1.8354412797522466,16.468964,-4.223799,-3.8461628,3.671347,4.6118493,-3.8318267,0.97684324,-0.41223308,0.0759442,-0.0045918613,-0.9078955,-8.188943,8.065966,1.1463346,-2.0428274,0.42991823,0.9792077,0
1.5400000000000011,13.439912557004213,-2.4847135432306278,0.19670212744820975,1.8354412797522466,16.468964,-4.223799,-3.8461628,3.671347,4.5298676,-3.751121,0.98848003,-0.4068648,0.08206599,0.0036144706,-0.90978694,-8.207881,8.07497,1.1809855,-2.1117268,0.39344656,1.0212233,0
1.5500000000000012,13.439912557004213,-2.4847135432306278,0.19670212744820975,1.8354412797522466,16.468964,-4.223799,-3.8461628,3.671347,4.447684,-3.6703324,1.000462,-0.401226,0.0881533,0.012160065,-0.9116457,-8.229263,8.082483,1.2153572,-2.169883,0.36266938,1.0611773,0
1.5600000000000012,13.066641141421487,-2.232026123020997,-0.3064963179022947,1.579564964422728,15.486843,-3.7935987,-3.648196,2.5353422,4.365274,-3.5894766,1.012786,-0.39532462,0.09420814,0.020987341,-0.91345596,-8.253096,8.088392,1.2493917,-2.218971,0.3366981,1.0991706,0
1.5700000000000012,13.066641141421487,-2.232026123020997,-0.3064963179022947,1.579564964422728,15.486843,-3.7935987,-3.648196,2.5353422,4.282617,-3.508571,1.0254302,-0.38920286,0.10000791,0.03003705,-0.91521376,-8.278631,8.092474,1.2793709,-2.220939,0.23635681,1.1227437,0
1.5800000000000012,13.066641141421487,-2.232026123020997,-0.3064963179022947,1.579564964422728,15.486843,-3.7935987,-3.648196,2.5353422,4.199693,-3.427633,1.038372,-0.38290045,0.10537664,0.039258584,-0.9169191,-8.30644,8.094776,1.3089203,-2.2226083,0.15166536,1.14516,0
1.5900000000000012,13.066641141421487,-2.232026123020997,-0.3064963179022947,1.579564964422728,15.486843,-3.7935987,-3.648196,2.5353422,4.1164804,-3.3466816,1.051607,-0.37642175,0.1103789,0.048618734,-0.9185631,-8.336414,8.09519,1.3379989,-2.2240252,0.0801832,1.1664764,0
1.6000000000000012,12.29928808587755,-1.5622786564314062,-0.8926635229167482,1.1889201528061508,15.016314,-3.1658714,-3.6575663,1.8516442,4.0329576,-3.265736,1.0651304,-0.3697715,0.11506924,0.05808956,-0.9201373,-8.368452,8.09362,1.3665644,-2.2252276,0.0198504,1.1867466,0
1.6100000000000012,12.29928808587755,-1.5622786564314062,-0.8926635229167482,1.1889201528061508,15.016314,-3.1658714,-3.6575663,1.8516442,3.9491148,-3.1848154,1.0788994,-0.363017,0.11917672,0.06749254,-0.9216612,-8.400444,8.0902,1.3871721,-2.1217313,-0.12237592,1.1868532,0
1.6200000000000012,12.29928808587755,-1.5622786564314062,-0.8926635229167482,1.1889201528061508,15.016314,-3.1658714,-3.6575663,1.8516442,3.8649433,-3.1039388,1.0928719,-0.3562208,0.12249072,0.07668436,-0.92315835,-8.434066,8.084786,1.4072542,-2.034392,-0.24243455,1.1869546,0
1.6300000000000012,12.29928808587755,-1.5622786564314062,-0.8926635229167482,1.1889201528061508,15.016314,-3.1658714,-3.6575663,1.8516442,3.7804284,-3.0231266,1.1070427,-0.3493811,0.12513459,0.085691385,-0.9246243,-8.469098,8.077337,1.4268143,-1.9606879,-0.3437806,1.187051,0
1.6400000000000012,12.29928808587755,-1.5622786564314062,-0.8926635229167482,1.1889201528061508,15.548986,-2.9883816,-4.4496546,1.6897177,3.695557,-2.942399,1.1214063,-0.34249654,0.12721215,0.09453639,-0.9260534,-8.505355,8.067822,1.4458537,-1.8984903,-0.42933065,1.1871428,0
1.6500000000000012,12.29928808587755,-1.5622786564314062,-0.8926635229167482,1.1889201528061508,15.548986,-2.9883816,-4.4496546,1.6897177,3.6103175,-2.861777,1.135958,-0.3355663,0.12881076,0.10323899,-0.9274393,-8.542671,8.056217,1.4643712,-1.8460025,-0.50154674,1.18723,0
1.6600000000000013,12.29928808587755,-1.5622786564314062,-0.8926635229167482,1.1889201528061508,15.548986,-2.9883816,-4.4496546,1.6897177,3.5247002,-2.7812817,1.1506921,-0.32859,0.13000396,0.11181611,-0.92877525,-8.5809,8.042504,1.4823627,-1.8017088,-0.5625071,1.187313,0
1.6700000000000013,12.29928808587755,-1.5622786564314062,-0.8926635229167482,1.1889201528061508,15.548986,-2.9883816,-4.4496546,1.6897177,3.4386966,-2.7009342,1.1656034,-0.32156765,0.13085362,0.12028228,-0.93005514,-8.619915,8.026669,1.4998217,-1.7643301,-0.6139659,1.1873916,0
1.6800000000000013,11.153417186947673,-0.7061273403061845,-1.4398376664249988,0.7083588968491725,14.209673,-2.9103887,-4.5090394,1.6652861,3.3522995,-2.6207557,1.1806867,-0.3144996,0.13141182,0.12864994,-0.9312728,-8.659601,8.008701,1.516739,-1.7327868,-0.6574043,1.1874665,0
1.6900000000000013,11.153417186947673,-0.7061273403061845,-1.4398376664249988,0.7083588968491725,14.209673,-2.9103887,-4.5090394,1.6652861,3.2655215,-2.5407584,1.195883,-0.30745876,0.13140412,0.13668671,-0.9324793,-8.696087,7.9904737,1.5224465,-1.5725975,-0.7792763,1.1639565,0
1.7000000000000013,11.153417186947673,-0.7061273403061845,-1.4398376664249988,0.7083588968491725,14.209673,-2.9103887,-4.5090394,1.6652861,3.1783772,-2.460953,1.2111341,-0.3005109,0.1306167,0.14420882,-0.93372107,-8.732872,7.970352,1.5276983,-1.4374069,-0.88216716,1.1416001,0
1.7100000000000013,11.153417186947673,-0.7061273403061845,-1.4398376664249988,0.7083588968491725,14.209673,-2.9103887,-4.5090394,1.6652861,3.0908642,-2.381358,1.2264355,-0.2936467,0.12917107,0.15129197,-0.93498445,-8.769751,7.9483886,1.5325412,-1.3233129,-0.96903235,1.1203408,0
1.7200000000000013,9.78699171582513,0.2265939507877042,-1.9635553811163555,0.11216119428660859,11.947363,-1.4946584,-4.1846747,0.8220886,3.0029826,-2.3019912,1.2417836,-0.28685784,0.1271692,0.15800032,-0.936256,-8.806544,7.924629,1.5370144,-1.2270232,-1.0423676,1.1001248,0
1.7300000000000013,9.78699171582513,0.2265939507877042,-1.9635553811163555,0.11216119428660859,11.947363,-1.4946584,-4.1846747,0.8220886,2.9147565,-2.2228558,1.257112,-0.28022006,0.12438268,0.16410771,-0.937589,-8.838609,7.9022517,1.5286326,-1.000267,-1.1858318,1.051645,0
1.7400000000000013,9.78699171582513,0.2265939507877042,-1.9635553811163555,0.11216119428660859,11.947363,-1.4946584,-4.1846747,0.8220886,2.826212,-2.1439512,1.2723554,-0.2738008,0.120635174,0.16943727,-0.9390261,-8.870238,7.878431,1.520034,-0.8088949,-1.3069615,1.0055442,0
1.7500000000000013,9.78699171582513,0.2265939507877042,-1.9635553811163555,0.11216119428660859,11.947363,-1.4946584,-4.1846747,0.8220886,2.737354,-2.0652916,1.2875122,-0.2675814,0.116074964,0.1741058,-0.94053847,-8.901218,7.853261,1.5112928,-0.64738417,-1.4092326,0.9617056,0
1.7600000000000013,8.98335807632889,1.1480256680193437,-2.1846289511883827,-0.48197365497299277,11.201656,0.3371399,-4.1923556,-0.47311488,2.6481903,-1.9868902,1.3025811,-0.26154524,0.11082647,0.17821191,-0.9420991,-8.931371,7.8268256,1.5024697,-0.5110743,-1.4955794,0.9200183,0
1.7700000000000014,8.98335807632889,1.1480256680193437,-2.1846289511883827,-0.48197365497299277,11.201656,0.3371399,-4.1923556,-0.47311488,2.5587356,-1.9087536,1.3175437,-0.25576988,0.10493684,0.18159695,-0.9437114,-8.9592905,7.800395,1.4897963,-0.29218552,-1.5630709,0.8547981,0
1.7800000000000014,8.98335807632889,1.1480256680193437,-2.1846289511883827,-0.48197365497299277,11.201656,0.3371399,-4.1923556,-0.47311488,2.46901,-1.8308837,1.3323711,-0.25032333,0.0983688,0.18409543,-0.94539374,-8.985573,7.7735147,1.4754391,-0.087792546,-1.6397026,0.7910225,0
1.7900000000000014,8.98335807632889,1.1480256680193437,-2.1846289511883827,-0.48197365497299277,11.201656,0.3371399,-4.1923556,-0.47311488,2.37903,-1.7532845,1.3470472,-0.24517742,0.091108404,0.18577561,-0.9471395,-9.010163,7.746292,1.4596511,0.10209124,-1.7217754,0.72881716,0
1.8000000000000014,8.508714546611039,1.8302791961481146,-2.144341039819674,-1.0151557103299276,10.855004,-0.33115387,-4.222909,0.038439415,2.2888114,-1.6759603,1.361564,-0.24030675,0.083197266,0.1867242,-0.9489275,-9.03332,7.718443,1.4437584,0.26516902,-1.7938898,0.6694033,0
1.8100000000000014,8.508714546611039,1.8302791961481146,-2.144341039819674,-1.0151557103299276,10.855004,-0.33115387,-4.222909,0.038439415,2.1983652,-1.5989223,1.3759362,-0.23578176,0.07491245,0.18693338,-0.95071,-9.055636,7.68916,1.4304868,0.43237787,-1.7717183,0.593617,0
1.8200000000000014,8.508714546611039,1.8302791961481146,-2.144341039819674,-1.0151557103299276,10.855004,-0.33115387,-4.222909,0.038439415,2.1077054,-1.522177,1.3901699,-0.23166193,0.066418424,0.18636902,-0.9524633,-9.0760145,7.6598916,1.4160612,0.5893208,-1.7688224,0.5201374,0
1.8300000000000014,8.508714546611039,1.8302791961481146,-2.144341039819674,-1.0151557103299276,10.855004,-0.33115387,-4.222909,0.038439415,2.0168514,-1.4457238,1.4042535,-0.22791064,0.057647865,0.18509112,-0.9541872,-9.094441,7.6307926,1.4004968,0.73767257,-1.7822711,0.4488445,0
1.8400000000000014,8.508714546611039,1.8302791961481146,-2.144341039819674,-1.0151557103299276,10.084243,-0.0799496,-4.0703206,-0.39548603,1.9258232,-1.36956,1.4181758,-0.22449483,0.04854375,0.18314862,-0.9558769,-9.1109,7.601997,1.3838066,0.8788045,-1.8095478,0.37962767,0
1.8500000000000014,8.508714546611039,1.8302791961481146,-2.144341039819674,-1.0151557103299276,10.084243,-0.0799496,-4.0703206,-0.39548603,1.8346403,-1.2936823,1.4319258,-0.22138461,0.039058156,0.1805812,-0.957524,-9.125371,7.5736203,1.3659991,1.013837,-1.8484911,0.3123854,0
1.8600000000000014,8.508714546611039,1.8302791961481146,-2.144341039819674,-1.0151557103299276,10.084243,-0.0799496,-4.0703206,-0.39548603,1.7433225,-1.2180861,1.4454927,-0.21855305,0.02915576,0.17742397,-0.95911616,-9.137879,7.545661,1.3473718,1.1402555,-1.8938167,0.24732065,0
1.8700000000000014,8.508714546611039,1.8302791961481146,-2.144341039819674,-1.0151557103299276,10.084243,-0.0799496,-4.0703206,-0.39548603,1.651889,-1.1427687,1.4588742,-0.2159786,0.018861676,0.17373909,-0.9606305,-9.148534,7.517843,1.3289721,1.2477925,-1.9329187,0.18537056,0
1.8800000000000014,8.184269348703593,2.252211470435904,-1.8211712455974496,-1.419701093517961,9.860427,-0.123777136,-3.97012,-0.4378688,1.5603584,-1.0677286,1.4720733,-0.21364379,0.008232951,0.16960052,-0.9620411,-9.157274,7.490219,1.3108723,1.3385595,-1.9659301,0.1264604,0
1.8900000000000015,8.184269348703593,2.252211470435904,-1.8211712455974496,-1.419701093517961,9.860427,-0.123777136,-3.97012,-0.4378688,1.4687506,-0.99296224,1.4850893,-0.21160899,-0.0025214015,0.16493152,-0.9633336,-9.163972,7.46317,1.2921749,1.4570496,-1.9195179,0.052736565,0
1.9000000000000015,8.184269348703593,2.252211470435904,-1.8211712455974496,-1.419701093517961,9.860427,-0.123777136,-3.97012,-0.4378688,1.3770859,-0.9184626,1.4979137,-0.2099209,-0.013283846,0.15964246,-0.964505,-9.168629,7.436892,1.2725687,1.570034,-1.893318,-0.018528335,0
1.9100000000000015,8.184269348703593,2.252211470435904,-1.8211712455974496,-1.419701093517961,9.860427,-0.123777136,-3.97012,-0.4378688,1.2853849,-0.8442216,1.510538,-0.20854598,-0.02412882,0.15377507,-0.96554565,-9.171289,7.4114027,1.2522662,1.6756594,-1.8814671,-0.08722105,0
1.9200000000000015,8.078842525312943,2.3748233321463044,-1.2252023196027961,-1.6591912676307525,9.517737,-0.33398032,-3.6062596,-0.36983868,1.1936668,-0.77023256,1.5229597,-0.20745787,-0.03507397,0.14739233,-0.96643955,-9.171985,7.3865013,1.2321235,1.765493,-1.8721442,-0.15260623,0
1.9300000000000015,8.078842525312943,2.3748233321463044,-1.2252023196027961,-1.6591912676307525,9.517737,-0.33398032,-3.6062596,-0.36983868,1.1019518,-0.69648767,1.5351759,-0.20669699,-0.04588858,0.14046791,-0.9671805,-9.170715,7.3625665,1.2111722,1.8604422,-1.7713528,-0.22653478,0
1.9400000000000015,8.078842525312943,2.3748233321463044,-1.2252023196027961,-1.6591912676307525,9.517737,-0.33398032,-3.6062596,-0.36983868,1.0102593,-0.62297857,1.5471835,-0.20629568,-0.05638812,0.13298535,-0.96776855,-9.167519,7.339379,1.1903932,1.9405947,-1.6862814,-0.29683566,0
1.9500000000000015,8.078842525312943,2.3748233321463044,-1.2252023196027961,-1.6591912676307525,9.517737,-0.33398032,-3.6062596,-0.36983868,0.91860807,-0.5496972,1.5589843,-0.20622303,-0.06662121,0.12502371,-0.96819484,-9.16243,7.3170347,1.169761,2.0082557,-1.6144768,-0.36368683,0
1.9600000000000015,8.112263531057078,2.1731762797186436,-0.629875068575227,-1.7719485131554322,9.337128,-0.3146441,-3.0513053,-0.36813286,0.8270171,-0.4766347,1.5705793,-0.20645177,-0.07662819,0.11664975,-0.9684509,-9.155481,7.295615,1.149245,2.0653715,-1.5538687,-0.4272576,0
1.9700000000000015,8.112263531057078,2.1731762797186436,-0.629875068575227,-1.7719485131554322,9.337128,-0.3146441,-3.0513053,-0.36813286,0.7355051,-0.40378228,1.5819725,-0.20700316,-0.086205356,0.10794245,-0.9685377,-9.146652,7.27506,1.1292992,2.0838642,-1.4115688,-0.49308398,0
1.9800000000000015,8.112263531057078,2.1731762797186436,-0.629875068575227,-1.7719485131554322,9.337128,-0.3146441,-3.0513053,-0.36813286,0.6440901,-0.3311298,1.593165,-0.20789692,-0.095178075,0.09897738,-0.9684638,-9.136088,7.2556095,1.1092417,2.0977786,-1.2897544,-0.5558382,0
1.9900000000000015,8.112263531057078,2.1731762797186436,-0.629875068575227,-1.7719485131554322,9.337128,-0.3146441,-3.0513053,-0.36813286,0.55278915,-0.25866628,1.6041573,-0.20910339,-0.10363658,0.08978896,-0.96823126,-9.123859,7.237272,1.0892105,2.1095273,-1.1869328,-0.61551315,0
2.0000000000000013,,,,,9.261867,-0.9572221,-2.018272,-0.32819393,0.46161845,-0.18638039,1.6149493,-0.210596,-0.111658424,0.08040517,-0.9678405,-9.110039,7.220091,1.0691769,2.1194472,-1.1001422,-0.6722598,0
2.010000000000001,,,,,9.261867,-0.9572221,-2.018272,-0.32819393,0.37059566,-0.11426258,1.6255513,-0.21238731,-0.11901546,0.07096131,-0.96731067,-9.094279,7.2036624,1.0512497,2.0606897,-0.92353135,-0.7244012,0
2.020000000000001,,,,,9.261867,-0.9572221,-2.018272,-0.32819393,0.27973774,-0.04230287,1.6359739,-0.21448459,-0.12553059,0.061566133,-0.9666677,-9.077086,7.1884737,1.0332729,2.0110948,-0.7744601,-0.7739839,0
2.0300000000000007,,,,,9.261867,-0.9572221,-2.018272,-0.32819393,0.18905838,0.0295112,1.6462165,-0.2168584,-0.13133238,0.052206006,-0.96591777,-9.058591,7.1745358,1.0152333,1.9692323,-0.64863414,-0.8211336,0
2.0400000000000005,,,,,9.261867,-0.9572221,-2.018272,-0.32819393,0.098570004,0.10119217,1.6562785,-0.21948293,-0.13652904,0.042869717,-0.9650635,-9.0389,7.161855,0.9971178,1.933896,-0.542429,-0.8659697,0
2.0500000000000003,,,,,9.20851,-1.5287029,-1.0620368,-0.2836083,0.008284152,0.17275266,1.6661587,-0.2223354,-0.14121161,0.033548135,-0.96410537,-9.018105,7.1504383,0.97891307,1.9040673,-0.452785,-0.9086056,1
2.06,,,,,9.20851,-1.5287029,-1.0620368,-0.2836083,-0.08177716,0.24419975,1.6758984,-0.22539783,-0.14558066,0.025618287,-0.9629871,-8.993994,7.1391673,0.9689839,1.368843,-0.5472934,-0.8779517,1
2.07,,,,,9.20851,-1.5287029,-1.0620368,-0.2836083,-0.17159227,0.3155394,1.6855379,-0.22864619,-0.14979956,0.020177938,-0.9617028,-8.968881,7.1288767,0.9588782,0.9169383,-0.6272914,-0.84878707,1
2.0799999999999996,,,,,9.20851,-1.5287029,-1.0620368,-0.2836083,-0.26115173,0.38677922,1.6950754,-0.23204997,-0.15388702,0.016841097,-0.96030533,-8.942885,7.119144,0.94857967,0.53551704,-0.6948688,-0.82105356,1
2.0899999999999994,,,,,9.254938,-1.4140061,-1.7070587,0.27309117,-0.3504473,0.457923,1.7045089,-0.23557982,-0.1578582,0.015281429,-0.95882624,-8.916113,7.109615,0.9380699,0.2135854,-0.75195235,-0.794681,1
2.099999999999999,,,,,9.254938,-1.4140061,-1.7070587,0.27309117,-0.43947062,0.52897084,1.7138394,-0.23913088,-0.1619786,0.015244623,-0.95725924,-8.8884735,7.0999246,0.9278921,-0.03907919,-0.89956725,-0.7423978,1
2.109999999999999,,,,,9.254938,-1.4140061,-1.7070587,0.27309117,-0.52821445,0.5999203,1.7230659,-0.24260777,-0.16646591,0.016530301,-0.95559174,-8.860193,7.089874,0.9173396,-0.25352597,-1.0253993,-0.69256735,1
2.1199999999999988,,,,,9.254938,-1.4140061,-1.7070587,0.27309117,-0.61667216,0.67076623,1.7321852,-0.24599725,-0.17125648,0.01893875,-0.9538323,-8.83124,7.079211,0.9064936,-0.4345153,-1.1316352,-0.6451822,1
2.1299999999999986,,,,,9.40197,-0.88845503,-1.0607139,0.4531097,-0.70483696,0.7415016,1.7411946,-0.24928795,-0.17629607,0.02230013,-0.95198536,-8.801617,7.067737,0.8953194,-0.58726835,-1.2213249,-0.6001222,1
2.1399999999999983,,,,,9.40197,-0.88845503,-1.0607139,0.4531097,-0.7926999,0.81211656,1.7500973,-0.25241822,-0.18134521,0.026209803,-0.9501107,-8.770859,7.055095,0.88516086,-0.634188,-1.1962808,-0.5484398,1
2.149999999999998,,,,,9.40197,-0.88845503,-1.0607139,0.4531097,-0.88025206,0.8825999,1.7588965,-0.2553377,-0.18621416,0.03033978,-0.94826406,-8.739478,7.041409,0.87462527,-0.6737955,-1.1751465,-0.49929345,1
2.159999999999998,,,,,9.40197,-0.88845503,-1.0607139,0.4531097,-0.9674875,0.95294106,1.7675884,-0.2580534,-0.19092746,0.034660757,-0.94644177,-8.707522,7.026654,0.8637068,-0.70723045,-1.1573114,-0.45255876,1
2.1699999999999977,,,,,9.123376,-0.53225344,-0.04037421,0.3373973,-1.0544007,1.0231292,1.7761692,-0.26057243,-0.1955058,0.039147876,-0.94464016,-8.67503,7.0108094,0.8523985,-0.7354548,-1.14226,-0.40811735,1
2.1799999999999975,,,,,9.123376,-0.53225344,-0.04037421,0.3373973,-1.1409913,1.0931559,1.7846222,-0.26290414,-0.19961935,0.04353589,-0.94294024,-8.643026,6.9943748,0.8381384,-0.7036967,-0.97044677,-0.3715347,1
2.1899999999999973,,,,,9.123376,-0.53225344,-0.04037421,0.3373973,-1.2272601,1.1630132,1.7929307,-0.26506242,-0.20301037,0.047612343,-0.94141376,-8.610644,6.9769526,0.8235331,-0.67690635,-0.8254244,-0.3367472,1
2.199999999999997,,,,,9.123376,-0.53225344,-0.04037421,0.3373973,-1.3132035,1.2326918,1.8010917,-0.26705933,-0.20579153,0.051428966,-0.9400438,-8.577984,6.95863,0.8086265,-0.6543057,-0.7030154,-0.30366674,1
2.209999999999997,,,,,9.905897,-0.68678665,0.87671334,0.523062,-1.3988191,1.3021829,1.8091023,-0.26890528,-0.20805757,0.055029426,-0.93881416,-8.545131,6.9394803,0.7934571,-0.63523895,-0.59969366,-0.27220953,1
2.2199999999999966,,,,,9.905897,-0.68678665,0.87671334,0.523062,-1.4840915,1.3714703,1.8169955,-0.27062154,-0.20952591,0.058414433,-0.9377894,-8.509339,6.917865,0.78515875,-0.64322734,-0.36946377,-0.2331853,1
