time-since-start [s],throttle_mpc,roll_mpc,pitch_mpc,yaw_mpc,throttle_nw,roll_nw,pitch_nw,yaw_nw,position_x [m],position_y [m],position_z [m],rotation_w [quaternion],rotation_x [quaternion],rotation_y [quaternion],rotation_z [quaternion],velocity_x [m/s],velocity_y [m/s],velocity_z [m/s],omega_x [rad/s],omega_y [rad/s],omega_z [rad/s],network_used
0.0,14.423931124162953,5.999999065625142,-5.999999882178196,-1.9930547733827375,13.00366,-0.7635287,-4.4714084,-1.1183426,18.376646,-10.295783,1.5470786,-0.057042357,0.41748342,-0.2798924,-0.8626204,-10.0681095,-3.8038437,-0.5494833,1.5143124,0.2134714,-0.04452833,0
0.01,14.423931124162953,5.999999065625142,-5.999999882178196,-1.9930547733827375,12.012566,0.72553456,-6.488377,-1.2000735,18.275478,-10.333429,1.541453,-0.086496376,0.39229417,-0.2996273,-0.8653595,-10.164141,-3.7242434,-0.57522863,5.999999,-6.0,-1.9930547,0
0.02,14.423931124162953,5.999999065625142,-5.999999882178196,-1.9930547733827375,12.012566,0.72553456,-6.488377,-1.2000735,18.173395,-10.37024,1.5355824,-0.11578613,0.36635998,-0.31879324,-0.8664553,-10.251074,-3.6368465,-0.59851074,5.999999,-6.0,-1.9930547,0
0.03,14.423931124162953,5.999999065625142,-5.999999882178196,-1.9930547733827375,12.012566,0.72553456,-6.488377,-1.2000735,18.07049,-10.406142,1.52949,-0.144856,0.33973008,-0.33735377,-0.8659057,-10.328236,-3.5424078,-0.61966455,5.999999,-6.0,-1.9930547,0
0.04,14.423931124162953,5.999999065625142,-5.999999882178196,-1.9930547733827375,13.32514,-1.8960651,-3.6186864,-0.25161034,17.966864,-10.441068,1.5231953,-0.17365082,0.312455,-0.35527366,-0.8637117,-10.395025,-3.4417346,-0.6390412,5.999999,-6.0,-1.9930547,0
0.05,14.423931124162953,5.999999065625142,-5.999999882178196,-1.9930547733827375,13.32514,-1.8960651,-3.6186864,-0.25161034,17.862625,-10.474958,1.5167141,-0.20211585,0.28458658,-0.37251887,-0.8598775,-10.45092,-3.3356814,-0.6570054,5.999999,-6.0,-1.9930547,0
0.060000000000000005,14.423931124162953,5.999999065625142,-5.999999882178196,-1.9930547733827375,13.32514,-1.8960651,-3.6186864,-0.25161034,17.757885,-10.507766,1.5100588,-0.23019706,0.25617772,-0.38905665,-0.85441047,-10.495482,-3.2251441,-0.67393273,5.999999,-6.0,-1.9930547,0
0.07,14.423931124162953,5.999999065625142,-5.999999882178196,-1.9930547733827375,13.32514,-1.8960651,-3.6186864,-0.25161034,17.652758,-10.539449,1.5032377,-0.2578411,0.22728238,-0.40485567,-0.84732085,-10.528359,-3.1110528,-0.6902063,5.999999,-6.0,-1.9930547,0
0.08,19.233433996637732,4.594194546748461,-5.999999763732985,-0.782859793632861,15.599881,-2.0705001,-1.5832391,0.2526242,17.54736,-10.569977,1.4962555,-0.28499553,0.19795543,-0.4198858,-0.83862215,-10.549286,-2.9943643,-0.7062144,5.999999,-6.0,-1.9930547,0
0.09,19.233433996637732,4.594194546748461,-5.999999763732985,-0.782859793632861,15.599881,-2.0705001,-1.5832391,0.2526242,17.441795,-10.599134,1.4892515,-0.30521142,0.16775812,-0.42951977,-0.83319634,-10.561684,-2.8370585,-0.694418,4.5941944,-6.0,-0.7828598,0
0.09999999999999999,19.233433996637732,4.594194546748461,-5.999999763732985,-0.782859793632861,15.599881,-2.0705001,-1.5832391,0.2526242,17.336178,-10.62672,1.4823703,-0.32498696,0.13731876,-0.438534,-0.8265683,-10.559584,-2.679909,-0.68172276,4.5941944,-6.0,-0.7828598,0
0.10999999999999999,19.233433996637732,4.594194546748461,-5.999999763732985,-0.782859793632861,15.599881,-2.0705001,-1.5832391,0.2526242,17.230652,-10.652738,1.4756182,-0.34429362,0.10668128,-0.44691548,-0.8187477,-10.543002,-2.5238779,-0.6686682,4.5941944,-6.0,-0.7828598,0
0.11999999999999998,19.233433996637732,4.594194546748461,-5.999999763732985,-0.782859793632861,15.599881,-2.0705001,-1.5832391,0.2526242,17.125364,-10.677204,1.4689963,-0.36310354,0.07588988,-0.4546522,-0.8097458,-10.512044,-2.369921,-0.65579593,4.5941944,-6.0,-0.7828598,0
0.12999999999999998,20.999997751478716,0.899391982981197,-5.999997108470209,0.9053658262143776,14.51566,-3.1139505,-0.80017763,0.08211392,17.02046,-10.700146,1.4625,-0.38138953,0.04498898,-0.46173292,-0.7995755,-10.466894,-2.2189822,-0.64364666,4.5941944,-6.0,-0.7828598,0
0.13999999999999999,20.999997751478716,0.899391982981197,-5.999997108470209,0.9053658262143776,14.51566,-3.1139505,-0.80017763,0.08211392,16.916096,-10.721532,1.4561752,-0.39164326,0.017179644,-0.4538746,-0.8001991,-10.404264,-2.059261,-0.6206923,0.899392,-5.999997,0.9053658,0
0.15,20.999997751478716,0.899391982981197,-5.999997108470209,0.9053658262143776,14.51566,-3.1139505,-0.80017763,0.08211392,16.812408,-10.741355,1.4500982,-0.4015286,-0.0106458515,-0.4455893,-0.8000699,-10.331675,-1.9066412,-0.59419197,0.899392,-5.999997,0.9053658,0
0.16,20.999918341419868,-1.1294925670014573,-1.7050407437504165,0.760218744492044,14.416385,-4.372887,1.2799178,-0.31886512,16.709496,-10.75969,1.4443017,-0.41103622,-0.03846133,-0.4368849,-0.7991882,-10.24933,-1.7616416,-0.56469214,0.899392,-5.999997,0.9053658,0
0.17,20.999918341419868,-1.1294925670014573,-1.7050407437504165,0.760218744492044,14.416385,-4.372887,1.2799178,-0.31886512,16.607445,-10.77661,1.4388134,-0.4119157,-0.044611488,-0.42869535,-0.80284244,-10.160668,-1.6228211,-0.53253734,-1.1294925,-1.7050407,0.76021874,0
0.18000000000000002,20.999918341419868,-1.1294925670014573,-1.7050407437504165,0.760218744492044,14.416385,-4.372887,1.2799178,-0.31886512,16.506285,-10.792158,1.4336604,-0.41274616,-0.05075634,-0.42045474,-0.806401,-10.071132,-1.4871929,-0.49764588,-1.1294925,-1.7050407,0.76021874,0
0.19000000000000003,20.999918341419868,-1.1294925670014573,-1.7050407437504165,0.760218744492044,14.416385,-4.372887,1.2799178,-0.31886512,16.406023,-10.806367,1.4288696,-0.4135275,-0.056895148,-0.4121641,-0.8098637,-9.980731,-1.3548186,-0.46008822,-1.1294925,-1.7050407,0.76021874,0
0.20000000000000004,19.816376339754306,-1.4117131048148002,0.34786886003163325,0.5918981476525923,15.433473,-4.126353,4.660846,0.14502758,16.306673,-10.819267,1.4244676,-0.41425958,-0.06302719,-0.40382436,-0.8132299,-9.889474,-1.225758,-0.4199359,-1.1294925,-1.7050407,0.76021874,0
0.21000000000000005,19.816376339754306,-1.4117131048148002,0.34786886003163325,0.5918981476525923,15.433473,-4.126353,4.660846,0.14502758,16.208208,-10.830927,1.4204395,-0.4115826,-0.05988183,-0.39860573,-0.81739086,-9.803681,-1.1061149,-0.3853958,-1.4117131,0.34786886,0.59189814,0
0.22000000000000006,19.816376339754306,-1.4117131048148002,0.34786886003163325,0.5918981476525923,15.433473,-4.126353,4.660846,0.14502758,16.110592,-10.841392,1.4167658,-0.4088803,-0.05673278,-0.39336255,-0.8215015,-9.720087,-0.98693097,-0.34905088,-1.4117131,0.34786886,0.59189814,0
0.23000000000000007,19.816376339754306,-1.4117131048148002,0.34786886003163325,0.5918981476525923,15.433473,-4.126353,4.660846,0.14502758,16.0138,-10.850667,1.4134647,-0.40615276,-0.053580232,-0.38809517,-0.82556146,-9.6387005,-0.86824477,-0.31092295,-1.4117131,0.34786886,0.59189814,0
0.24000000000000007,19.816376339754306,-1.4117131048148002,0.34786886003163325,0.5918981476525923,15.297094,-3.4897075,5.1893415,-0.013473805,15.91781,-10.858758,1.4105535,-0.40340018,-0.05042439,-0.38280386,-0.8295706,-9.55953,-0.75009465,-0.2710342,-1.4117131,0.34786886,0.59189814,0
0.25000000000000006,19.816376339754306,-1.4117131048148002,0.34786886003163325,0.5918981476525923,15.297094,-3.4897075,5.1893415,-0.013473805,15.822602,-10.865672,1.4080498,-0.40062276,-0.047265437,-0.37748897,-0.83352864,-9.482584,-0.6325189,-0.22940731,-1.4117131,0.34786886,0.59189814,0
0.26000000000000006,19.816376339754306,-1.4117131048148002,0.34786886003163325,0.5918981476525923,15.297094,-3.4897075,5.1893415,-0.013473805,15.728152,-10.871412,1.4059712,-0.39782068,-0.04410357,-0.3721508,-0.83743536,-9.407871,-0.5155556,-0.1860653,-1.4117131,0.34786886,0.59189814,0
0.2700000000000001,19.816376339754306,-1.4117131048148002,0.34786886003163325,0.5918981476525923,15.297094,-3.4897075,5.1893415,-0.013473805,15.634438,-10.875986,1.4043343,-0.39499408,-0.04093899,-0.36678976,-0.8412904,-9.335398,-0.39924276,-0.14103168,-1.4117131,0.34786886,0.59189814,0
0.2800000000000001,18.48092115293726,-1.4365096362168253,1.5796718128206262,0.3846280152496594,16.259644,-3.7870822,4.936698,0.16199273,15.541436,-10.8794,1.4031563,-0.39214313,-0.037771888,-0.3614061,-0.84509367,-9.265171,-0.28361818,-0.094330385,-1.4117131,0.34786886,0.59189814,0
0.2900000000000001,18.48092115293726,-1.4365096362168253,1.5796718128206262,0.3846280152496594,16.259644,-3.7870822,4.936698,0.16199273,15.449101,-10.881698,1.4024036,-0.3879117,-0.028973432,-0.3583396,-0.8486922,-9.20238,-0.17588383,-0.056034558,-1.4365096,1.5796719,0.38462803,0
0.3000000000000001,18.48092115293726,-1.4365096362168253,1.5796718128206262,0.3846280152496594,16.259644,-3.7870822,4.936698,0.16199273,15.357375,-10.882915,1.402039,-0.38363463,-0.020171568,-0.355231,-0.85219085,-9.143314,-0.06733305,-0.016725741,-1.4365096,1.5796719,0.38462803,0
0.3100000000000001,18.48092115293726,-1.4365096362168253,1.5796718128206262,0.3846280152496594,16.259644,-3.7870822,4.936698,0.16199273,15.266222,-10.883042,1.4020724,-0.37931237,-0.011367329,-0.35208052,-0.8555892,-9.088,0.04197275,0.023542818,-1.4365096,1.5796719,0.38462803,0
0.3200000000000001,17.365774452476177,-1.456712652410255,2.9035358629042616,0.18388439311250443,16.624033,-3.6785998,4.926757,0.15913981,15.175603,-10.882073,1.402513,-0.37494552,-0.002561753,-0.34888864,-0.8588869,-9.036465,0.15197182,0.06471746,-1.4365096,1.5796719,0.38462803,0
0.3300000000000001,17.365774452476177,-1.456712652410255,2.9035358629042616,0.18388439311250443,16.624033,-3.6785998,4.926757,0.15913981,15.085464,-10.880033,1.4033267,-0.3690601,0.012317138,-0.3480277,-0.86169624,-8.99224,0.25647074,0.09806609,-1.4567126,2.9035358,0.1838844,0
0.34000000000000014,17.365774452476177,-1.456712652410255,2.9035358629042616,0.18388439311250443,16.624033,-3.6785998,4.926757,0.15913981,14.99574,-10.876938,1.4044747,-0.36307698,0.02719277,-0.3470747,-0.8642775,-8.953308,0.3629204,0.13152319,-1.4567126,2.9035358,0.1838844,0
0.35000000000000014,17.365774452476177,-1.456712652410255,2.9035358629042616,0.18388439311250443,16.624033,-3.6785998,4.926757,0.15913981,14.906379,-10.872768,1.4059572,-0.35699782,0.042061202,-0.34602985,-0.86662996,-8.919711,0.471201,0.16495672,-1.4567126,2.9035358,0.1838844,0
0.36000000000000015,16.586530784342663,-1.2136153636684561,2.661445242533335,0.003916893807229842,15.351053,-2.68964,5.1583877,-0.04046732,14.817327,-10.867508,1.4077734,-0.35082415,0.056918506,-0.34489343,-0.86875314,-8.891487,0.5811909,0.19823465,-1.4567126,2.9035358,0.1838844,0
0.37000000000000016,16.586530784342663,-1.2136153636684561,2.661445242533335,0.003916893807229842,15.351053,-2.68964,5.1583877,-0.04046732,14.728525,-10.861164,1.4098915,-0.3458348,0.0705947,-0.34425452,-0.8700025,-8.869481,0.6877552,0.22531159,-1.2136154,2.6614451,0.0039168936,0
0.38000000000000017,16.586530784342663,-1.2136153636684561,2.661445242533335,0.003916893807229842,15.351053,-2.68964,5.1583877,-0.04046732,14.639921,-10.853748,1.412278,-0.3407715,0.0842558,-0.34354198,-0.87106574,-8.852097,0.7957184,0.25191602,-1.2136154,2.6614451,0.0039168936,0
0.3900000000000002,16.586530784342663,-1.2136153636684561,2.661445242533335,0.003916893807229842,15.351053,-2.68964,5.1583877,-0.04046732,14.551469,-10.845245,1.4149278,-0.33563527,0.09789887,-0.3427559,-0.87194264,-8.839349,0.904988,0.2779414,-1.2136154,2.6614451,0.0039168936,0
0.4000000000000002,16.0860991010167,-1.0421895011656173,2.029173752846695,-0.14245731793580094,14.93508,-2.7732365,4.8763304,0.12210721,14.463119,-10.835644,1.4178346,-0.33042732,0.111521006,-0.34189656,-0.87263304,-8.831248,1.0154704,0.30328164,-1.2136154,2.6614451,0.0039168936,0
0.4100000000000002,16.0860991010167,-1.0421895011656173,2.029173752846695,-0.14245731793580094,14.93508,-2.7732365,4.8763304,0.12210721,14.374826,-10.824949,1.4209726,-0.3269774,0.12233247,-0.34060004,-0.8729908,-8.827549,1.1235739,0.3242411,-1.0421895,2.0291739,-0.14245732,0
0.4200000000000002,16.0860991010167,-1.0421895011656173,2.029173752846695,-0.14245731793580094,14.93508,-2.7732365,4.8763304,0.12210721,14.286554,-10.81317,1.4243176,-0.32348478,0.13312797,-0.33925903,-0.87323457,-8.8274145,1.2323465,0.34464735,-1.0421895,2.0291739,-0.14245732,0
0.4300000000000002,16.0860991010167,-1.0421895011656173,2.029173752846695,-0.14245731793580094,14.93508,-2.7732365,4.8763304,0.12210721,14.198266,-10.800301,1.4278636,-0.3199499,0.14390607,-0.33787373,-0.87336427,-8.830844,1.3417354,0.3644353,-1.0421895,2.0291739,-0.14245732,0
0.4400000000000002,16.0860991010167,-1.0421895011656173,2.029173752846695,-0.14245731793580094,14.849399,-2.9704208,4.377604,0.17564195,14.109926,-10.786335,1.4316041,-0.31637323,0.15466538,-0.33644432,-0.8733799,-8.837834,1.451687,0.38354015,-1.0421895,2.0291739,-0.14245732,0
0.45000000000000023,16.0860991010167,-1.0421895011656173,2.029173752846695,-0.14245731793580094,14.849399,-2.9704208,4.377604,0.17564195,14.021498,-10.771266,1.435532,-0.31275526,0.16540448,-0.33497098,-0.8732815,-8.84838,1.5621482,0.40189752,-1.0421895,2.0291739,-0.14245732,0
0.46000000000000024,16.0860991010167,-1.0421895011656173,2.029173752846695,-0.14245731793580094,14.849399,-2.9704208,4.377604,0.17564195,13.932946,-10.755091,1.4396392,-0.30909646,0.17612201,-0.33345386,-0.87306905,-8.862476,1.6730652,0.41944334,-1.0421895,2.0291739,-0.14245732,0
0.47000000000000025,16.0860991010167,-1.0421895011656173,2.029173752846695,-0.14245731793580094,14.849399,-2.9704208,4.377604,0.17564195,13.844236,-10.737804,1.4439178,-0.30539727,0.18681651,-0.33189324,-0.87274253,-8.880114,1.7843839,0.43611404,-1.0421895,2.0291739,-0.14245732,0
0.48000000000000026,15.496720568825788,-0.7780964293009536,1.0333646312068947,-0.2195549027334134,14.382931,-2.9406765,3.4112277,0.26403707,13.755333,-10.719402,1.4483583,-0.3016582,0.19748662,-0.33028924,-0.87230206,-8.901279,1.8960503,0.45184645,-1.0421895,2.0291739,-0.14245732,0
0.49000000000000027,15.496720568825788,-0.7780964293009536,1.0333646312068947,-0.2195549027334134,14.382931,-2.9406765,3.4112277,0.26403707,13.666205,-10.6999035,1.4529313,-0.30013445,0.20352553,-0.3282303,-0.8722167,-8.924532,2.003775,0.46269265,-0.77809644,1.0333647,-0.2195549,0
0.5000000000000002,15.496720568825788,-0.7780964293009536,1.0333646312068947,-0.2195549027334134,14.382931,-2.9406765,3.4112277,0.26403707,13.576836,-10.679327,1.4576111,-0.29859778,0.20955569,-0.32615724,-0.87209386,-8.949757,2.111397,0.47320053,-0.77809644,1.0333647,-0.2195549,0
0.5100000000000002,15.496720568825788,-0.7780964293009536,1.0333646312068947,-0.2195549027334134,14.382931,-2.9406765,3.4112277,0.26403707,13.487205,-10.657675,1.4623941,-0.29704824,0.21557681,-0.32407013,-0.87193346,-8.97695,2.2189019,0.48334888,-0.77809644,1.0333647,-0.2195549,0
0.5200000000000002,14.961049029802046,-0.4778393126646403,0.2721781956411136,-0.28947641283400105,13.950456,-2.6756988,2.7481494,0.33295578,13.39729,-10.634949,1.4672767,-0.29548594,0.22158867,-0.32196906,-0.8717356,-9.006107,2.3262746,0.49311656,-0.77809644,1.0333647,-0.2195549,0
0.5300000000000002,14.961049029802046,-0.4778393126646403,0.2721781956411136,-0.28947641283400105,13.950456,-2.6756988,2.7481494,0.33295578,13.307081,-10.611168,1.472237,-0.29577872,0.22394595,-0.31996617,-0.8717714,-9.0357275,2.4297404,0.49894315,-0.47783932,0.2721782,-0.28947642,0
0.5400000000000003,14.961049029802046,-0.4778393126646403,0.2721781956411136,-0.28947641283400105,13.950456,-2.6756988,2.7481494,0.33295578,13.216574,-10.586354,1.477256,-0.29606864,0.22630101,-0.31796017,-0.87179875,-9.066113,2.5329146,0.5048384,-0.47783932,0.2721782,-0.28947642,0
0.5500000000000003,14.961049029802046,-0.4778393126646403,0.2721781956411136,-0.28947641283400105,13.950456,-2.6756988,2.7481494,0.33295578,13.125757,-10.56051,1.4823341,-0.2963557,0.22865392,-0.3159511,-0.8718177,-9.097265,2.6357956,0.5107975,-0.47783932,0.2721782,-0.28947642,0
0.5600000000000003,14.305374479330863,-0.24353580622553064,-0.36394424153682514,-0.3084870410635535,13.387259,-2.2273147,1.7875262,0.19754189,13.034626,-10.533638,1.4874722,-0.2966399,0.23100461,-0.313939,-0.87182826,-9.129183,2.7383819,0.51681554,-0.47783932,0.2721782,-0.28947642,0
0.5700000000000003,14.305374479330863,-0.24353580622553064,-0.36394424153682514,-0.3084870410635535,13.387259,-2.2273147,1.7875262,0.19754189,12.943179,-10.505764,1.4926481,-0.29827353,0.23026274,-0.31198016,-0.8721702,-9.160106,2.8361406,0.518472,-0.2435358,-0.36394423,-0.30848703,0
0.5800000000000003,14.305374479330863,-0.24353580622553064,-0.36394424153682514,-0.3084870410635535,13.387259,-2.2273147,1.7875262,0.19754189,12.851424,-10.476915,1.497843,-0.29990503,0.2295192,-0.31001908,-0.8725059,-9.190887,2.9334846,0.5205765,-0.2435358,-0.36394423,-0.30848703,0
0.5900000000000003,14.305374479330863,-0.24353580622553064,-0.36394424153682514,-0.3084870410635535,13.387259,-2.2273147,1.7875262,0.19754189,12.759361,-10.447096,1.5030613,-0.30153438,0.22877406,-0.3080558,-0.8728354,-9.221529,3.030412,0.523127,-0.2435358,-0.36394423,-0.30848703,0
0.6000000000000003,13.82409903304758,-0.06203781552933255,-0.38606540764050923,-0.3257911725195372,13.412115,-1.6506125,0.95489794,0.18189043,12.666992,-10.416309,1.5083071,-0.3031616,0.22802724,-0.30609027,-0.8731586,-9.25203,3.12692,0.52612174,-0.2435358,-0.36394423,-0.30848703,0
0.6100000000000003,13.82409903304758,-0.06203781552933255,-0.38606540764050923,-0.3257911725195372,13.412115,-1.6506125,0.95489794,0.18189043,12.574325,-10.384576,1.513568,-0.30510303,0.22693367,-0.3048618,-0.87319696,-9.281302,3.2198284,0.5261122,-0.062037814,-0.3860654,-0.32579118,0
0.6200000000000003,13.82409903304758,-0.06203781552933255,-0.38606540764050923,-0.3257911725195372,13.412115,-1.6506125,0.95489794,0.18189043,12.481366,-10.351914,1.5188305,-0.30704254,0.22583862,-0.30363134,-0.8732298,-9.310252,3.3124728,0.5264473,-0.062037814,-0.3860654,-0.32579118,0
0.6300000000000003,13.82409903304758,-0.06203781552933255,-0.38606540764050923,-0.3257911725195372,13.412115,-1.6506125,0.95489794,0.18189043,12.38812,-10.318328,1.5240983,-0.30898005,0.22474213,-0.30239895,-0.873257,-9.33888,3.4048505,0.52712613,-0.062037814,-0.3860654,-0.32579118,0
0.6400000000000003,13.82409903304758,-0.06203781552933255,-0.38606540764050923,-0.3257911725195372,13.383803,-1.5014162,0.5042306,0.22552294,12.294589,-10.283818,1.5293744,-0.31091556,0.22364415,-0.30116454,-0.87327844,-9.3671875,3.4969594,0.5281477,-0.062037814,-0.3860654,-0.32579118,0
0.6500000000000004,13.82409903304758,-0.06203781552933255,-0.38606540764050923,-0.3257911725195372,13.383803,-1.5014162,0.5042306,0.22552294,12.200777,-10.248389,1.5346624,-0.31284904,0.22254474,-0.29992822,-0.8732942,-9.395178,3.5887973,0.529511,-0.062037814,-0.3860654,-0.32579118,0
0.6600000000000004,13.82409903304758,-0.06203781552933255,-0.38606540764050923,-0.3257911725195372,13.383803,-1.5014162,0.5042306,0.22552294,12.106688,-10.212043,1.5399657,-0.3147805,0.2214439,-0.29869,-0.8733044,-9.422849,3.6803615,0.531215,-0.062037814,-0.3860654,-0.32579118,0
0.6700000000000004,13.82409903304758,-0.06203781552933255,-0.38606540764050923,-0.3257911725195372,13.383803,-1.5014162,0.5042306,0.22552294,12.012323,-10.174783,1.5452878,-0.31670994,0.22034164,-0.29744974,-0.87330896,-9.450203,3.7716498,0.5332587,-0.062037814,-0.3860654,-0.32579118,0
0.6800000000000004,13.277911331988292,0.012660466062684998,-0.3984862635831939,-0.3208798586989998,13.665968,-1.312789,0.28091627,0.26309103,11.9176855,-10.136611,1.5506321,-0.31863734,0.21923794,-0.29620758,-0.87330776,-9.477241,3.8626597,0.535641,-0.062037814,-0.3860654,-0.32579118,0
0.6900000000000004,13.277911331988292,0.012660466062684998,-0.3984862635831939,-0.3208798586989998,13.665968,-1.312789,0.28091627,0.26309103,11.822785,-10.0975485,1.5559821,-0.3206415,0.21795227,-0.29527524,-0.8732117,-9.502877,3.9498246,0.53436714,0.012660466,-0.39848626,-0.32087985,0
0.7000000000000004,13.277911331988292,0.012660466062684998,-0.3984862635831939,-0.3208798586989998,13.665968,-1.312789,0.28091627,0.26309103,11.72763,-10.057614,1.5613207,-0.32264355,0.21666516,-0.294341,-0.8731099,-9.528132,4.036772,0.5333887,0.012660466,-0.39848626,-0.32087985,0
0.7100000000000004,13.277911331988292,0.012660466062684998,-0.3984862635831939,-0.3208798586989998,13.665968,-1.312789,0.28091627,0.26309103,11.632223,-10.016813,1.5666509,-0.32464346,0.21537666,-0.29340485,-0.87300235,-9.553006,4.1235,0.5327048,0.012660466,-0.39848626,-0.32087985,0
0.7200000000000004,12.594206597901104,0.15433049715897582,-0.7319548679398867,-0.32882400660569,13.235732,-1.0029423,-0.114814185,0.23131412,11.53657,-9.975145,1.5719757,-0.32664126,0.21408676,-0.2924668,-0.8728891,-9.577499,4.2100053,0.5323144,0.012660466,-0.39848626,-0.32087985,0
0.7300000000000004,12.594206597901104,0.15433049715897582,-0.7319548679398867,-0.32882400660569,13.235732,-1.0029423,-0.114814185,0.23131412,11.440681,-9.932636,1.5772731,-0.32930923,0.21111919,-0.29159048,-0.87290263,-9.600216,4.2918134,0.52723426,0.15433049,-0.7319549,-0.328824,0
0.7400000000000004,12.594206597901104,0.15433049715897582,-0.7319548679398867,-0.32882400660569,13.235732,-1.0029423,-0.114814185,0.23131412,11.344568,-9.889311,1.5825218,-0.3319717,0.20814812,-0.29070932,-0.87290156,-9.622157,4.373325,0.5225994,0.15433049,-0.7319549,-0.328824,0
0.7500000000000004,12.594206597901104,0.15433049715897582,-0.7319548679398867,-0.32882400660569,13.235732,-1.0029423,-0.114814185,0.23131412,11.2482395,-9.845171,1.5877265,-0.3346286,0.20517357,-0.28982332,-0.8728859,-9.643323,4.4545336,0.5184063,0.15433049,-0.7319549,-0.328824,0
0.7600000000000005,12.022260316026696,0.24806457824676667,-0.7852830176691497,-0.32573523989614167,13.19298,-0.8212328,-0.65652865,0.16969484,11.151704,-9.8002205,1.5928913,-0.33727995,0.20219558,-0.28893247,-0.87285566,-9.663714,4.535433,0.51465094,0.15433049,-0.7319549,-0.328824,0
0.7700000000000005,12.022260316026696,0.24806457824676667,-0.7852830176691497,-0.32573523989614167,13.19298,-0.8212328,-0.65652865,0.16969484,11.054973,-9.754481,1.5979995,-0.3400835,0.19881865,-0.28835866,-0.87273335,-9.682395,4.61237,0.50702286,0.24806458,-0.785283,-0.32573524,0
0.7800000000000005,12.022260316026696,0.24806457824676667,-0.7852830176691497,-0.32573523989614167,13.19298,-0.8212328,-0.65652865,0.16969484,10.958058,-9.707974,1.6030332,-0.3428804,0.19543783,-0.28777918,-0.8725939,-9.700213,4.6890354,0.49979842,0.24806458,-0.785283,-0.32573524,0
0.7900000000000005,12.022260316026696,0.24806457824676667,-0.7852830176691497,-0.32573523989614167,13.19298,-0.8212328,-0.65652865,0.16969484,10.8609705,-9.660703,1.6079967,-0.34567055,0.19205318,-0.28719407,-0.87243724,-9.71717,4.765422,0.49297303,0.24806458,-0.785283,-0.32573524,0
0.8000000000000005,11.470103295046906,0.2784070717757705,-1.167861005186311,-0.3265267631570795,12.53702,-0.8112614,-0.7191642,0.071838915,10.763718,-9.612668,1.6128939,-0.3484539,0.18866476,-0.28660333,-0.8722636,-9.733264,4.8415213,0.48654217,0.24806458,-0.785283,-0.32573524,0
0.8100000000000005,11.470103295046906,0.2784070717757705,-1.167861005186311,-0.3265267631570795,12.53702,-0.8112614,-0.7191642,0.071838915,10.666312,-9.563891,1.617708,-0.35180745,0.18355058,-0.28546926,-0.87238055,-9.747675,4.9137697,0.47635475,0.27840707,-1.167861,-0.32652676,0
0.8200000000000005,11.470103295046906,0.2784070717757705,-1.167861005186311,-0.3265267631570795,12.53702,-0.8112614,-0.7191642,0.071838915,10.5687685,-9.514394,1.622423,-0.35514733,0.17842929,-0.28432417,-0.87246376,-9.76094,4.9855266,0.46674886,0.27840707,-1.167861,-0.32652676,0
0.8300000000000005,11.470103295046906,0.2784070717757705,-1.167861005186311,-0.3265267631570795,12.53702,-0.8112614,-0.7191642,0.071838915,10.471097,-9.464182,1.6270449,-0.35847345,0.17330112,-0.28316802,-0.8725132,-9.773057,5.056778,0.45771393,0.27840707,-1.167861,-0.32652676,0
0.8400000000000005,11.470103295046906,0.2784070717757705,-1.167861005186311,-0.3265267631570795,12.138886,-0.6264943,-1.0858039,0.0076376833,10.37331,-9.41326,1.6315793,-0.36178574,0.16816624,-0.2820009,-0.8725288,-9.78403,5.1275105,0.44923925,0.27840707,-1.167861,-0.32652676,1
0.8500000000000005,11.470103295046906,0.2784070717757705,-1.167861005186311,-0.3265267631570795,12.138886,-0.6264943,-1.0858039,0.0076376833,10.275415,-9.361613,1.6360583,-0.36274955,0.1645485,-0.27730447,-0.8743217,-9.794754,5.2015862,0.4467055,-0.6264943,-1.0858039,0.0076376833,1
0.8600000000000005,11.470103295046906,0.2784070717757705,-1.167861005186311,-0.3265267631570795,12.138886,-0.6264943,-1.0858039,0.0076376833,10.177416,-9.309232,1.6405166,-0.36369905,0.16092429,-0.27259716,-0.8760803,-9.80513,5.2745037,0.44509605,-0.6264943,-1.0858039,0.0076376833,1
0.8700000000000006,11.470103295046906,0.2784070717757705,-1.167861005186311,-0.3265267631570795,12.138886,-0.6264943,-1.0858039,0.0076376833,10.079313,-9.256126,1.6449635,-0.36463425,0.15729377,-0.26787916,-0.8778045,-9.815157,5.3462524,0.4443957,-0.6264943,-1.0858039,0.0076376833,1
0.8800000000000006,11.105269076501013,0.3663461525156716,-1.174618269140777,-0.33691491081455704,11.952072,-0.709648,-0.5842901,0.03450555,9.981113,-9.20231,1.6494076,-0.36555514,0.15365706,-0.2631506,-0.87949425,-9.824833,5.4168205,0.44458914,-0.6264943,-1.0858039,0.0076376833,0
0.8900000000000006,11.105269076501013,0.3663461525156716,-1.174618269140777,-0.33691491081455704,11.952072,-0.709648,-0.5842901,0.03450555,9.882823,-9.147822,1.6538157,-0.3688562,0.14826232,-0.26235047,-0.879281,-9.833037,5.4805145,0.43708897,0.36634615,-1.1746182,-0.3369149,0
0.9000000000000006,11.105269076501013,0.3663461525156716,-1.174618269140777,-0.33691491081455704,11.952072,-0.709648,-0.5842901,0.03450555,9.784456,-9.0927,1.6581511,-0.37214226,0.14286155,-0.26153967,-0.87903196,-9.840054,5.5437055,0.43003964,0.36634615,-1.1746182,-0.3369149,0
0.9100000000000006,11.105269076501013,0.3663461525156716,-1.174618269140777,-0.33691491081455704,11.952072,-0.709648,-0.5842901,0.03450555,9.686026,-9.03695,1.6624182,-0.3754132,0.13745496,-0.26071823,-0.87874717,-9.845883,5.6063805,0.42342952,0.36634615,-1.1746182,-0.3369149,0
0.9200000000000006,10.626733982763664,0.6378348316450471,-1.179676233469188,-0.3529514775043527,11.386062,-0.0017994372,-0.3794053,-0.043251332,9.5875435,-8.980576,1.6666212,-0.37866887,0.13204277,-0.25988618,-0.8784266,-9.850528,5.668527,0.41724685,0.36634615,-1.1746182,-0.3369149,1
0.9300000000000006,10.626733982763664,0.6378348316450471,-1.179676233469188,-0.3529514775043527,11.386062,-0.0017994372,-0.3794053,-0.043251332,9.489018,-8.923574,1.670776,-0.37934998,0.13043576,-0.25913087,-0.87859595,-9.854421,5.7318034,0.41372618,-0.0017994372,-0.3794053,-0.043251332,1
0.9400000000000006,10.626733982763664,0.6378348316450471,-1.179676233469188,-0.3529514775043527,11.386062,-0.0017994372,-0.3794053,-0.043251332,9.390456,-8.865941,1.6748965,-0.38002968,0.12882829,-0.2583746,-0.87876207,-9.858024,5.7948194,0.41039035,-0.0017994372,-0.3794053,-0.043251332,1
0.9500000000000006,10.626733982763664,0.6378348316450471,-1.179676233469188,-0.3529514775043527,11.386062,-0.0017994372,-0.3794053,-0.043251332,9.291859,-8.807678,1.6789844,-0.38070804,0.12722033,-0.25761738,-0.87892497,-9.861334,5.8575745,0.40723807,-0.0017994372,-0.3794053,-0.043251332,1
0.9600000000000006,10.336376440784269,0.7195345085680577,-1.6136483377239792,-0.3742627123231553,11.117347,0.54476416,-0.57466763,-0.110925615,9.19323,-8.748789,1.6830418,-0.38138497,0.1256119,-0.25685933,-0.8790847,-9.864353,5.920068,0.404268,-0.0017994372,-0.3794053,-0.043251332,0
0.9700000000000006,10.336376440784269,0.7195345085680577,-1.6136483377239792,-0.3742627123231553,11.117347,0.54476416,-0.57466763,-0.110925615,9.094576,-8.689305,1.6870269,-0.3855387,0.11762279,-0.25669935,-0.8784246,-9.866301,5.9764304,0.3927896,0.7195345,-1.6136483,-0.37426272,0
0.9800000000000006,10.336376440784269,0.7195345085680577,-1.6136483377239792,-0.3742627123231553,11.117347,0.54476416,-0.57466763,-0.110925615,8.99591,-8.629262,1.690899,-0.389661,0.10962408,-0.25651842,-0.87769276,-9.866573,6.0321913,0.38172102,0.7195345,-1.6136483,-0.37426272,0
0.9900000000000007,10.336376440784269,0.7195345085680577,-1.6136483377239792,-0.3742627123231553,11.117347,0.54476416,-0.57466763,-0.110925615,8.897249,-8.568664,1.6946625,-0.39375156,0.10161643,-0.2563166,-0.8768894,-9.865173,6.0873275,0.37103847,0.7195345,-1.6136483,-0.37426272,0
1.0000000000000007,10.284903194563428,0.6139684589967385,-1.3565301432684207,-0.37439300649870055,11.289181,1.5215418,-1.0687282,-0.33622414,8.798613,-8.507518,1.698321,-0.39781,0.093600504,-0.2560939,-0.87601453,-9.862105,6.1418176,0.360718,0.7195345,-1.6136483,-0.37426272,0
1.0100000000000007,10.284903194563428,0.6139684589967385,-1.3565301432684207,-0.37439300649870055,11.289181,1.5215418,-1.0687282,-0.33622414,8.700012,-8.445832,1.7018757,-0.40146247,0.08691429,-0.25590214,-0.8750928,-9.8574915,6.195413,0.35027638,0.61396843,-1.3565302,-0.37439302,0
1.0200000000000007,10.284903194563428,0.6139684589967385,-1.3565301432684207,-0.37439300649870055,11.289181,1.5215418,-1.0687282,-0.33622414,8.601467,-8.383613,1.7053274,-0.40509126,0.080222964,-0.2556953,-0.87411934,-9.851481,6.2484374,0.34009695,0.61396843,-1.3565302,-0.37439302,0
1.0300000000000007,10.284903194563428,0.6139684589967385,-1.3565301432684207,-0.37439300649870055,11.289181,1.5215418,-1.0687282,-0.33622414,8.502989,-8.320866,1.7086786,-0.40869617,0.073526904,-0.2554734,-0.8730944,-9.844079,6.300874,0.33016306,0.61396843,-1.3565302,-0.37439302,0
1.0400000000000007,10.284903194563428,0.6139684589967385,-1.3565301432684207,-0.37439300649870055,11.324382,1.5252066,-0.95976955,-0.31104356,8.404591,-8.257599,1.7119315,-0.412277,0.066826515,-0.25523648,-0.87201804,-9.835288,6.3527083,0.320458,0.61396843,-1.3565302,-0.37439302,0
1.0500000000000007,10.284903194563428,0.6139684589967385,-1.3565301432684207,-0.37439300649870055,11.324382,1.5252066,-0.95976955,-0.31104356,8.306289,-8.193815,1.7150884,-0.41583356,0.06012219,-0.25498447,-0.8708903,-9.82511,6.4039235,0.310965,0.61396843,-1.3565302,-0.37439302,0
1.0600000000000007,10.284903194563428,0.6139684589967385,-1.3565301432684207,-0.37439300649870055,11.324382,1.5252066,-0.95976955,-0.31104356,8.208095,-8.129522,1.7181515,-0.41936558,0.053414315,-0.25471744,-0.8697113,-9.813554,6.454504,0.30166715,0.61396843,-1.3565302,-0.37439302,0
1.0700000000000007,10.284903194563428,0.6139684589967385,-1.3565301432684207,-0.37439300649870055,11.324382,1.5252066,-0.95976955,-0.31104356,8.110023,-8.064727,1.7211223,-0.42287287,0.046703294,-0.2544354,-0.868481,-9.800622,6.504434,0.29254764,0.61396843,-1.3565302,-0.37439302,0
1.0800000000000007,10.423746996808612,0.372209448156456,-0.7248980117593516,-0.3650726354026708,11.216374,1.090285,0.69137865,-0.20644623,8.012087,-7.9994354,1.7240028,-0.42635527,0.03998952,-0.25413838,-0.86719954,-9.786321,6.5536985,0.2835895,0.61396843,-1.3565302,-0.37439302,0
1.0900000000000007,10.423746996808612,0.372209448156456,-0.7248980117593516,-0.3650726354026708,11.216374,1.090285,0.69137865,-0.20644623,7.9143014,-7.933651,1.7268004,-0.42892948,0.036516402,-0.25413144,-0.8660847,-9.770672,6.603068,0.27595037,0.37220946,-0.72489804,-0.36507264,0
1.1000000000000008,10.423746996808612,0.372209448156456,-0.7248980117593516,-0.3650726354026708,11.216374,1.090285,0.69137865,-0.20644623,7.816676,-7.867375,1.729522,-0.43149522,0.033042558,-0.25411943,-0.86495245,-9.7542515,6.652086,0.26836568,0.37220946,-0.72489804,-0.36507264,0
1.1100000000000008,10.423746996808612,0.372209448156456,-0.7248980117593516,-0.3650726354026708,11.216374,1.090285,0.69137865,-0.20644623,7.719219,-7.8006105,1.732168,-0.4340523,0.029568054,-0.25410235,-0.863803,-9.7370615,6.7007465,0.26083094,0.37220946,-0.72489804,-0.36507264,0
1.1200000000000008,10.581246157232782,0.16133732647621915,-0.32364230376468545,-0.3423704142044708,11.353168,0.5632664,0.85449064,-0.196554,7.6219378,-7.7333612,1.7347388,-0.43660074,0.02609296,-0.2540802,-0.86263645,-9.719106,6.7490444,0.25334165,0.37220946,-0.72489804,-0.36507264,0
1.1300000000000008,10.581246157232782,0.16133732647621915,-0.32364230376468545,-0.3423704142044708,11.353168,0.5632664,0.85449064,-0.196554,7.5248404,-7.6656275,1.7372417,-0.4385083,0.0247797,-0.25402412,-0.86172366,-9.700265,6.797775,0.24725579,0.16133733,-0.3236423,-0.34237042,0
1.1400000000000008,10.581246157232782,0.16133732647621915,-0.32364230376468545,-0.3423704142044708,11.353168,0.5632664,0.85449064,-0.196554,7.427933,-7.597407,1.739684,-0.44041312,0.023466285,-0.25396645,-0.8608055,-9.681083,6.846334,0.24118991,0.16133733,-0.3236423,-0.34237042,0
1.1500000000000008,10.581246157232782,0.16133732647621915,-0.32364230376468545,-0.3423704142044708,11.353168,0.5632664,0.85449064,-0.196554,7.3312197,-7.5287013,1.7420657,-0.44231522,0.022152726,-0.2539072,-0.859882,-9.66156,6.8947206,0.23514342,0.16133733,-0.3236423,-0.34237042,0
1.1600000000000008,10.825425693995262,-0.009827121238060314,0.399736012793923,-0.31393317137250376,11.392157,0.87559056,0.32455006,-0.23689419,7.234703,-7.459513,1.7443869,-0.44421458,0.020839028,-0.2538464,-0.8589532,-9.641697,6.9429326,0.22911577,0.16133733,-0.3236423,-0.34237042,1
1.1700000000000008,10.825425693995262,-0.009827121238060314,0.399736012793923,-0.31393317137250376,11.392157,0.87559056,0.32455006,-0.23689419,7.138395,-7.389824,1.7466828,-0.44490615,0.020588577,-0.25830007,-0.85727197,-9.619877,6.995003,0.22996329,0.87559056,0.32455006,-0.23689419,1
1.1800000000000008,10.825425693995262,-0.009827121238060314,0.399736012793923,-0.31393317137250376,11.392157,0.87559056,0.32455006,-0.23689419,7.042308,-7.3196106,1.7489843,-0.44558737,0.020337649,-0.26274773,-0.8555708,-9.597507,7.0478225,0.23029035,0.87559056,0.32455006,-0.23689419,1
1.1900000000000008,10.825425693995262,-0.009827121238060314,0.399736012793923,-0.31393317137250376,11.392157,0.87559056,0.32455006,-0.23689419,6.9464464,-7.248865,1.7512866,-0.44625825,0.020086247,-0.2671893,-0.85384977,-9.574593,7.1013837,0.2300886,0.87559056,0.32455006,-0.23689419,1
1.2000000000000008,10.869000581014989,-0.39769338980148,0.06824428614532642,-0.29302123099589994,11.149975,0.48280862,0.88945705,-0.23137552,6.850817,-7.1775804,1.7535843,-0.4469188,0.01983438,-0.27162465,-0.85210896,-9.551128,7.1556816,0.2293498,0.87559056,0.32455006,-0.23689419,1
1.2100000000000009,10.869000581014989,-0.39769338980148,0.06824428614532642,-0.29302123099589994,11.149975,0.48280862,0.88945705,-0.23137552,6.755422,-7.1057544,1.7558615,-0.44673845,0.022859028,-0.27564263,-0.8508365,-9.527894,7.209643,0.22601508,0.48280862,0.88945705,-0.23137552,1
1.2200000000000009,10.869000581014989,-0.39769338980148,0.06824428614532642,-0.29302123099589994,11.149975,0.48280862,0.88945705,-0.23137552,6.660259,-7.033384,1.7581029,-0.44654608,0.025883058,-0.27965316,-0.8495412,-9.504838,7.264588,0.22215728,0.48280862,0.88945705,-0.23137552,1
1.2300000000000009,10.869000581014989,-0.39769338980148,0.06824428614532642,-0.29302123099589994,11.149975,0.48280862,0.88945705,-0.23137552,6.5653243,-6.9604588,1.760303,-0.44634166,0.028906392,-0.2836562,-0.848223,-9.48196,7.320511,0.21776615,0.48280862,0.88945705,-0.23137552,1
1.2400000000000009,10.869000581014989,-0.39769338980148,0.06824428614532642,-0.29302123099589994,11.282282,0.13250771,0.7878974,-0.14902002,6.4706182,-6.88697,1.7624563,-0.44612524,0.031928945,-0.2876516,-0.84688187,-9.459261,7.377406,0.21283136,0.48280862,0.88945705,-0.23137552,1
1.2500000000000009,10.869000581014989,-0.39769338980148,0.06824428614532642,-0.29302123099589994,11.282282,0.13250771,0.7878974,-0.14902002,6.376139,-6.8129044,1.7645633,-0.44564053,0.035183705,-0.289944,-0.84622616,-9.436563,7.435859,0.20852342,0.13250771,0.7878974,-0.14902002,1
1.260000000000001,10.869000581014989,-0.39769338980148,0.06824428614532642,-0.29302123099589994,11.282282,0.13250771,0.7878974,-0.14902002,6.281885,-6.7382503,1.7666255,-0.44514844,0.038437888,-0.29223162,-0.84555644,-9.414281,7.49503,0.20386499,0.13250771,0.7878974,-0.14902002,1
1.270000000000001,10.869000581014989,-0.39769338980148,0.06824428614532642,-0.29302123099589994,11.282282,0.13250771,0.7878974,-0.14902002,6.1878514,-6.663001,1.7686394,-0.444649,0.04169143,-0.29451445,-0.8448727,-9.392418,7.554915,0.19884956,0.13250771,0.7878974,-0.14902002,1
1.280000000000001,11.081005199755609,-0.7371573005957556,-0.43596994791155164,-0.28218299971907224,10.852149,-0.20771274,0.5612419,0.045629684,6.0940347,-6.5871496,1.7706014,-0.44414225,0.044944286,-0.2967924,-0.8441751,-9.370974,7.6155105,0.19347063,0.13250771,0.7878974,-0.14902002,1
1.290000000000001,11.081005199755609,-0.7371573005957556,-0.43596994791155164,-0.28218299971907224,10.852149,-0.20771274,0.5612419,0.045629684,6.0004263,-6.5107,1.7724901,-0.44306812,0.047706567,-0.29717094,-0.84445477,-9.350801,7.674351,0.18429641,-0.20771274,0.5612419,0.045629684,1
1.300000000000001,11.081005199755609,-0.7371573005957556,-0.43596994791155164,-0.28218299971907224,10.852149,-0.20771274,0.5612419,0.045629684,5.907017,-6.4336615,1.7742869,-0.44199002,0.050468422,-0.2975468,-0.8447268,-9.331171,7.733533,0.17501672,-0.20771274,0.5612419,0.045629684,1
1.310000000000001,11.081005199755609,-0.7371573005957556,-0.43596994791155164,-0.28218299971907224,10.852149,-0.20771274,0.5612419,0.045629684,5.8138013,-6.3560286,1.7759902,-0.4409079,0.05322982,-0.29792,-0.8449912,-9.312084,7.793054,0.16562852,-0.20771274,0.5612419,0.045629684,1
1.320000000000001,11.293033310345812,-0.8648238095533433,-1.466989871790255,-0.2989953307960353,11.047291,-0.50508225,0.18500695,0.17195266,5.7207737,-6.2777987,1.7775991,-0.4398218,0.05599074,-0.2982905,-0.845248,-9.29354,7.8529124,0.15612882,-0.20771274,0.5612419,0.045629684,0
1.330000000000001,11.293033310345812,-0.8648238095533433,-1.466989871790255,-0.2989953307960353,11.047291,-0.50508225,0.18500695,0.17195266,5.627933,-6.1989584,1.7791318,-0.44301477,0.052136626,-0.29131472,-0.8462594,-9.274506,7.914818,0.1505403,-0.8648238,-1.4669899,-0.29899532,0
1.340000000000001,11.293033310345812,-0.8648238095533433,-1.466989871790255,-0.2989953307960353,11.047291,-0.50508225,0.18500695,0.17195266,5.535284,-6.119508,1.7806135,-0.44617462,0.04827861,-0.2843172,-0.84720755,-9.255236,7.9751062,0.1459652,-0.8648238,-1.4669899,-0.29899532,0
1.350000000000001,11.293033310345812,-0.8648238095533433,-1.466989871790255,-0.2989953307960353,11.047291,-0.50508225,0.18500695,0.17195266,5.442829,-6.039462,1.7820545,-0.44930112,0.044416986,-0.2772984,-0.84809244,-9.23574,8.03376,0.14237759,-0.8648238,-1.4669899,-0.29899532,0
1.360000000000001,11.64915447563067,-0.7132817586280737,-1.2829528422509338,-0.2681422739625461,11.849205,-0.91664016,0.1965105,0.17057866,5.35057,-5.958838,1.7834644,-0.4523941,0.040552046,-0.27025887,-0.8489139,-9.21603,8.090761,0.13975126,-0.8648238,-1.4669899,-0.29899532,0
1.370000000000001,11.64915447563067,-0.7132817586280737,-1.2829528422509338,-0.2681422739625461,11.849205,-0.91664016,0.1965105,0.17057866,5.258513,-5.877643,1.7848678,-0.45510867,0.037081126,-0.26426747,-0.8495077,-9.195483,8.14793,0.14104755,-0.71328175,-1.2829528,-0.26814228,0
1.380000000000001,11.64915447563067,-0.7132817586280737,-1.2829528422509338,-0.2681422739625461,11.849205,-0.91664016,0.1965105,0.17057866,5.1666617,-5.7958846,1.7862883,-0.45779788,0.033608142,-0.25826135,-0.85005426,-9.174723,8.203604,0.14314508,-0.71328175,-1.2829528,-0.26814228,0
1.390000000000001,11.64915447563067,-0.7132817586280737,-1.2829528422509338,-0.2681422739625461,11.849205,-0.91664016,0.1965105,0.17057866,5.0750194,-5.713577,1.7877336,-0.46046162,0.030133292,-0.25224084,-0.85055345,-9.153757,8.25777,0.14602326,-0.71328175,-1.2829528,-0.26814228,0
1.400000000000001,11.816528529924279,-0.34787877840104253,-0.7175156332761703,-0.225937883635201,12.308918,-0.80842006,-0.9046446,0.24263674,4.9835873,-5.630735,1.7892113,-0.46309972,0.026656762,-0.24620628,-0.8510053,-9.132596,8.310416,0.14966129,-0.71328175,-1.2829528,-0.26814228,1
1.410000000000001,11.816528529924279,-0.34787877840104253,-0.7175156332761703,-0.225937883635201,12.308918,-0.80842006,-0.9046446,0.24263674,4.8923736,-5.547359,1.7907581,-0.46306434,0.024380183,-0.24069938,-0.8526666,-9.110173,8.364543,0.15981235,-0.80842006,-0.9046446,0.24263674,1
1.420000000000001,11.816528529924279,-0.34787877840104253,-0.7175156332761703,-0.225937883635201,12.308918,-0.80842006,-0.9046446,0.24263674,4.801383,-5.4634485,1.7924099,-0.46301123,0.022102669,-0.23518328,-0.85429525,-9.0879135,8.417351,0.17064595,-0.80842006,-0.9046446,0.24263674,1
1.430000000000001,11.816528529924279,-0.34787877840104253,-0.7175156332761703,-0.225937883635201,12.308918,-0.80842006,-0.9046446,0.24263674,4.710615,-5.3790164,1.7941734,-0.4629404,0.019824311,-0.22965817,-0.8558912,-9.065816,8.468832,0.18214566,-0.80842006,-0.9046446,0.24263674,1
1.440000000000001,11.816528529924279,-0.34787877840104253,-0.7175156332761703,-0.225937883635201,12.519177,-0.7009772,-0.7461995,0.32115382,4.6200666,-5.294077,1.7960551,-0.46285185,0.017545193,-0.22412427,-0.8574544,-9.04388,8.518979,0.19429491,-0.80842006,-0.9046446,0.24263674,1
1.450000000000001,11.816528529924279,-0.34787877840104253,-0.7175156332761703,-0.225937883635201,12.519177,-0.7009772,-0.7461995,0.32115382,4.5297394,-5.2086377,1.7980709,-0.46224305,0.01560814,-0.21941705,-0.8590363,-9.021738,8.5687,0.20893544,-0.7009772,-0.7461995,0.32115382,1
1.460000000000001,11.816528529924279,-0.34787877840104253,-0.7175156332761703,-0.225937883635201,12.519177,-0.7009772,-0.7461995,0.32115382,4.439632,-5.122707,1.8002357,-0.4616209,0.013670639,-0.21470353,-0.86059344,-8.9997635,8.617268,0.22411019,-0.7009772,-0.7461995,0.32115382,1
1.470000000000001,11.816528529924279,-0.34787877840104253,-0.7175156332761703,-0.225937883635201,12.519177,-0.7009772,-0.7461995,0.32115382,4.3497434,-5.0362964,1.8025548,-0.4609855,0.011732744,-0.20998383,-0.86212575,-8.977957,8.664677,0.23980688,-0.7009772,-0.7461995,0.32115382,1
1.480000000000001,11.787448349325084,0.10677286771816928,0.2397099132788641,-0.2490656988345548,13.019135,0.0052298578,0.37159312,0.21375531,4.260072,-4.949418,1.8050334,-0.46033683,0.009794512,-0.2052581,-0.8636333,-8.956314,8.71092,0.2560131,-0.7009772,-0.7461995,0.32115382,0
1.490000000000001,11.787448349325084,0.10677286771816928,0.2397099132788641,-0.2490656988345548,13.019135,0.0052298578,0.37159312,0.21375531,4.1706104,-4.8620944,1.8076426,-0.4611708,0.010839459,-0.20625836,-0.8629372,-8.936056,8.753881,0.26579443,0.10677287,0.23970991,-0.2490657,0
1.500000000000001,11.787448349325084,0.10677286771816928,0.2397099132788641,-0.2490656988345548,13.019135,0.0052298578,0.37159312,0.21375531,4.0813513,-4.7743397,1.810349,-0.46200326,0.011884371,-0.20725796,-0.8622383,-8.915861,8.797128,0.27547327,0.10677287,0.23970991,-0.2490657,0
1.5100000000000011,11.787448349325084,0.10677286771816928,0.2397099132788641,-0.2490656988345548,13.019135,0.0052298578,0.37159312,0.21375531,3.9922931,-4.6861506,1.8131517,-0.4628342,0.012929243,-0.20825687,-0.86153674,-8.895727,8.840658,0.28504872,0.10677287,0.23970991,-0.2490657,0
1.5200000000000011,11.715513083660285,0.47904732056579447,0.47734655505489293,-0.269116892769932,13.162318,0.15674296,0.07000502,-0.10549289,3.9034364,-4.5975256,1.8160497,-0.46366364,0.013974073,-0.2092551,-0.86083233,-8.875652,8.884474,0.29451987,0.10677287,0.23970991,-0.2490657,0
1.5300000000000011,11.715513083660285,0.47904732056579447,0.47734655505489293,-0.269116892769932,13.162318,0.15674296,0.07000502,-0.10549289,3.8147795,-4.5084615,1.8190382,-0.46435294,0.015199541,-0.21240345,-0.85966814,-8.855687,8.928467,0.30314994,0.47904733,0.47734657,-0.26911688,0
1.5400000000000011,11.715513083660285,0.47904732056579447,0.47734655505489293,-0.269116892769932,13.162318,0.15674296,0.07000502,-0.10549289,3.7263231,-4.418954,1.8221115,-0.46503606,0.016424809,-0.21554896,-0.8584925,-8.835588,8.973171,0.3114587,0.47904733,0.47734657,-0.26911688,0
1.5500000000000012,11.715513083660285,0.47904732056579447,0.47734655505489293,-0.269116892769932,13.162318,0.15674296,0.07000502,-0.10549289,3.6380687,-4.3289957,1.8252662,-0.46571302,0.01764986,-0.21869162,-0.85730565,-8.815354,9.018585,0.31944105,0.47904733,0.47734657,-0.26911688,0
1.5600000000000012,11.818650324646638,0.4878260944298158,0.7237730321704332,-0.18868266083113228,13.174155,-0.11735639,-0.26449567,0.06708592,3.5500169,-4.2385798,1.8284992,-0.46638387,0.018874675,-0.2218314,-0.85610735,-8.794986,9.064705,0.327092,0.47904733,0.47734657,-0.26911688,0
1.5700000000000012,11.818650324646638,0.4878260944298158,0.7237730321704332,-0.18868266083113228,13.174155,-0.11735639,-0.26449567,0.06708592,3.4621701,-4.1476965,1.8318115,-0.46643013,0.021044323,-0.22558731,-0.8550495,-8.774358,9.11203,0.33530656,0.4878261,0.723773,-0.18868266,0
1.5800000000000012,11.818650324646638,0.4878260944298158,0.7237730321704332,-0.18868266083113228,13.174155,-0.11735639,-0.26449567,0.06708592,3.3745294,-4.0563354,1.8352039,-0.46646708,0.023213554,-0.22933874,-0.8539745,-8.753745,9.160296,0.3431003,0.4878261,0.723773,-0.18868266,0
1.5900000000000012,11.818650324646638,0.4878260944298158,0.7237730321704332,-0.18868266083113228,13.174155,-0.11735639,-0.26449567,0.06708592,3.2870946,-3.964487,1.838672,-0.46649474,0.02538232,-0.23308556,-0.85288256,-8.733151,9.209501,0.35046482,0.4878261,0.723773,-0.18868266,0
1.6000000000000012,11.815750968814035,0.33169970658973363,0.19804027018923387,-0.1049475356012626,13.403268,0.10964051,-0.7231354,0.0442676,3.1998658,-3.872142,1.8422116,-0.4665131,0.027550578,-0.23682775,-0.8517736,-8.712573,9.25964,0.35739177,0.4878261,0.723773,-0.18868266,0
1.6100000000000012,11.815750968814035,0.33169970658973363,0.19804027018923387,-0.1049475356012626,13.403268,0.10964051,-0.7231354,0.0442676,3.112843,-3.7792916,1.8458183,-0.46677035,0.027744511,-0.23868741,-0.85110706,-8.691939,9.310482,0.3639364,0.3316997,0.19804028,-0.10494754,0
1.6200000000000012,11.815750968814035,0.33169970658973363,0.19804027018923387,-0.1049475356012626,13.403268,0.10964051,-0.7231354,0.0442676,3.0260277,-3.6859312,1.8494896,-0.4670257,0.027938332,-0.24054612,-0.8504371,-8.671123,9.361685,0.37026897,0.3316997,0.19804028,-0.10494754,0
1.6300000000000012,11.815750968814035,0.33169970658973363,0.19804027018923387,-0.1049475356012626,13.403268,0.10964051,-0.7231354,0.0442676,2.9394212,-3.5920568,1.8532231,-0.46727914,0.028132042,-0.24240388,-0.8497637,-8.65012,9.413245,0.37638792,0.3316997,0.19804028,-0.10494754,0
1.6400000000000012,11.815750968814035,0.33169970658973363,0.19804027018923387,-0.1049475356012626,13.479285,-0.16166076,-1.326466,0.21990174,2.853026,-3.497665,1.8570166,-0.46753073,0.02832564,-0.24426068,-0.84908694,-8.628933,9.465163,0.38229167,0.3316997,0.19804028,-0.10494754,0
1.6500000000000012,11.815750968814035,0.33169970658973363,0.19804027018923387,-0.1049475356012626,13.479285,-0.16166076,-1.326466,0.21990174,2.7668433,-3.402752,1.860868,-0.46778047,0.028519124,-0.24611647,-0.84840673,-8.607559,9.517437,0.38797873,0.3316997,0.19804028,-0.10494754,0
1.6600000000000013,11.815750968814035,0.33169970658973363,0.19804027018923387,-0.1049475356012626,13.479285,-0.16166076,-1.326466,0.21990174,2.6808753,-3.3073149,1.8647753,-0.4680283,0.028712494,-0.2479713,-0.8477231,-8.586001,9.570067,0.39344758,0.3316997,0.19804028,-0.10494754,0
1.6700000000000013,11.815750968814035,0.33169970658973363,0.19804027018923387,-0.1049475356012626,13.479285,-0.16166076,-1.326466,0.21990174,2.5951242,-3.2113497,1.8687363,-0.46827424,0.028905747,-0.24982512,-0.8470361,-8.564258,9.623052,0.39869666,0.3316997,0.19804028,-0.10494754,0
1.6800000000000013,11.81867977012678,0.1584693061132943,0.06334059168826402,-0.011817309019794395,14.478241,-0.85079134,-1.6159104,1.0080731,2.509591,-3.114853,1.8727486,-0.46851838,0.029098889,-0.25167796,-0.8463458,-8.542328,9.676391,0.40372446,0.3316997,0.19804028,-0.10494754,0
1.6900000000000013,11.81867977012678,0.1584693061132943,0.06334059168826402,-0.011817309019794395,14.478241,-0.85079134,-1.6159104,1.0080731,2.4242783,-3.0178208,1.8768103,-0.46851155,0.02901056,-0.2524951,-0.84610915,-8.520236,9.730015,0.4086027,0.1584693,0.06334059,-0.011817309,0
1.7000000000000013,11.81867977012678,0.1584693061132943,0.06334059168826402,-0.011817309019794395,14.478241,-0.85079134,-1.6159104,1.0080731,2.3391867,-2.9202518,1.8809204,-0.4685044,0.028922211,-0.2533121,-0.8458719,-8.498035,9.783777,0.4133847,0.1584693,0.06334059,-0.011817309,0
1.7100000000000013,11.81867977012678,0.1584693061132943,0.06334059168826402,-0.011817309019794395,14.478241,-0.85079134,-1.6159104,1.0080731,2.2543178,-2.8221447,1.8850777,-0.4684969,0.02883384,-0.2541289,-0.84563404,-8.475725,9.837681,0.41807014,0.1584693,0.06334059,-0.011817309,0
1.7200000000000013,11.711609708821754,-0.1273435499085696,-0.11824937608932701,0.09050290236956575,14.457747,-1.1888136,-1.9914364,0.88157505,2.1696725,-2.7234979,1.8892815,-0.46848905,0.028745448,-0.25494552,-0.84539557,-8.453305,9.891722,0.42265868,0.1584693,0.06334059,-0.011817309,0
1.7300000000000013,11.711609708821754,-0.1273435499085696,-0.11824937608932701,0.09050290236956575,14.457747,-1.1888136,-1.9914364,0.88157505,2.0852509,-2.6243124,1.8935261,-0.46823868,0.028428527,-0.25414312,-0.84578645,-8.431037,9.945295,0.4262943,-0.12734355,-0.11824938,0.0905029,0
1.7400000000000013,11.711609708821754,-0.1273435499085696,-0.11824937608932701,0.09050290236956575,14.457747,-1.1888136,-1.9914364,0.88157505,2.0010517,-2.5245924,1.8978076,-0.46798792,0.028111575,-0.25334048,-0.84617656,-8.408812,9.998697,0.43002966,-0.12734355,-0.11824938,0.0905029,0
1.7500000000000013,11.711609708821754,-0.1273435499085696,-0.11824937608932701,0.09050290236956575,14.457747,-1.1888136,-1.9914364,0.88157505,1.9170746,-2.4243393,1.9021269,-0.4677367,0.0277946,-0.2525376,-0.84656584,-8.386628,10.051927,0.43386456,-0.12734355,-0.11824938,0.0905029,0
1.7600000000000013,11.53381830084199,-0.4167416202578465,-0.4030606000638821,0.20188892948547232,15.659136,-1.1003987,-3.1292365,1.2285037,1.8333191,-2.3235545,1.9064852,-0.46748498,0.027477596,-0.2517345,-0.84695435,-8.364488,10.104984,0.43779865,-0.12734355,-0.11824938,0.0905029,0
1.7700000000000014,11.53381830084199,-0.4167416202578465,-0.4030606000638821,0.20188892948547232,15.659136,-1.1003987,-3.1292365,1.2285037,1.7497829,-2.2222447,1.9108758,-0.46707788,0.026490588,-0.24905413,-0.84800214,-8.342757,10.156916,0.4403656,-0.4167416,-0.4030606,0.20188893,0
1.7800000000000014,11.53381830084199,-0.4167416202578465,-0.4030606000638821,0.20188892948547232,15.659136,-1.1003987,-3.1292365,1.2285037,1.6664634,-2.1204183,1.9152936,-0.4666664,0.02550333,-0.24637142,-0.849042,-8.321152,10.208273,0.44325322,-0.4167416,-0.4030606,0.20188893,0
1.7900000000000014,11.53381830084199,-0.4167416202578465,-0.4030606000638821,0.20188892948547232,15.659136,-1.1003987,-3.1292365,1.2285037,1.5833594,-2.0180812,1.9197419,-0.4662505,0.024515832,-0.24368638,-0.8500738,-8.299671,10.259055,0.44645792,-0.4167416,-0.4030606,0.20188893,0
1.8000000000000014,11.316815971029687,-0.6904310909915619,-0.29666750189329133,0.3012956235856056,14.550561,-1.2058041,-2.9566526,0.62661034,1.5004694,-1.9152392,1.9242238,-0.46583024,0.023528105,-0.24099904,-0.85109764,-8.2783165,10.30926,0.44997627,-0.4167416,-0.4030606,0.20188893,0
1.8100000000000014,11.316815971029687,-0.6904310909915619,-0.29666750189329133,0.3012956235856056,14.550561,-1.2058041,-2.9566526,0.62661034,1.4177903,-1.8119028,1.9287329,-0.46482053,0.023510503,-0.23740342,-0.8526593,-8.257604,10.357935,0.45191988,-0.6904311,-0.29666752,0.30129564,0
1.8200000000000014,11.316815971029687,-0.6904310909915619,-0.29666750189329133,0.3012956235856056,14.550561,-1.2058041,-2.9566526,0.62661034,1.335316,-1.7080827,1.9332634,-0.4638032,0.02349252,-0.2338039,-0.8542069,-8.237329,10.4059925,0.45425102,-0.6904311,-0.29666752,0.30129564,0
1.8300000000000014,11.316815971029687,-0.6904310909915619,-0.29666750189329133,0.3012956235856056,14.550561,-1.2058041,-2.9566526,0.62661034,1.2530422,-1.603785,1.9378192,-0.46277824,0.023474151,-0.23020056,-0.8557406,-8.21749,10.453428,0.45696416,-0.6904311,-0.29666752,0.30129564,0
1.8400000000000014,11.316815971029687,-0.6904310909915619,-0.29666750189329133,0.3012956235856056,14.47444,-1.4025615,-2.9798977,0.77283424,1.1709646,-1.4990162,1.9424042,-0.46174574,0.023455396,-0.22659343,-0.8572603,-8.198089,10.500238,0.4600539,-0.6904311,-0.29666752,0.30129564,0
1.8500000000000014,11.316815971029687,-0.6904310909915619,-0.29666750189329133,0.3012956235856056,14.47444,-1.4025615,-2.9798977,0.77283424,1.0890789,-1.3937823,1.9470217,-0.46070564,0.02343626,-0.2229826,-0.8587659,-8.179122,10.546419,0.46351466,-0.6904311,-0.29666752,0.30129564,0
1.8600000000000014,11.316815971029687,-0.6904310909915619,-0.29666750189329133,0.3012956235856056,14.47444,-1.4025615,-2.9798977,0.77283424,1.0073806,-1.2880899,1.9516757,-0.45965803,0.023416735,-0.21936812,-0.86025745,-8.160588,10.591966,0.467341,-0.6904311,-0.29666752,0.30129564,0
1.8700000000000014,11.316815971029687,-0.6904310909915619,-0.29666750189329133,0.3012956235856056,14.47444,-1.4025615,-2.9798977,0.77283424,0.9258656,-1.1819452,1.9563696,-0.45860288,0.023396831,-0.21575002,-0.86173487,-8.142487,10.636875,0.47152734,-0.6904311,-0.29666752,0.30129564,0
1.8800000000000014,11.037973418781855,-0.9419886616390789,-0.38504899226516176,0.41283501715132453,14.245576,-1.6456506,-3.275076,0.42411143,0.84452945,-1.0753547,1.9611074,-0.45754018,0.02337654,-0.2121284,-0.86319816,-8.124817,10.681143,0.47606814,-0.6904311,-0.29666752,0.30129564,0
1.8900000000000015,11.037973418781855,-0.9419886616390789,-0.38504899226516176,0.41283501715132453,14.245576,-1.6456506,-3.275076,0.42411143,0.76336545,-0.9683302,1.9658797,-0.45604977,0.023431437,-0.20722699,-0.8651737,-8.108065,10.72361,0.47846413,-0.94198865,-0.385049,0.41283503,0
1.9000000000000015,11.037973418781855,-0.9419886616390789,-0.38504899226516176,0.41283501715132453,14.245576,-1.6456506,-3.275076,0.42411143,0.68236613,-0.8608853,1.9706781,-0.45454565,0.023485629,-0.20231932,-0.8671232,-8.091894,10.765228,0.48130953,-0.94198865,-0.385049,0.41283503,0
1.9100000000000015,11.037973418781855,-0.9419886616390789,-0.38504899226516176,0.41283501715132453,14.245576,-1.6456506,-3.275076,0.42411143,0.6015256,-0.7530286,1.9755074,-0.45302778,0.023539111,-0.19740556,-0.8690465,-8.076307,10.805992,0.48459432,-0.94198865,-0.385049,0.41283503,0
1.9200000000000015,10.702346976534857,-1.297472461644962,-0.6551623375897457,0.5350417657260068,14.302021,-1.8149176,-3.3142016,0.5363458,0.520838,-0.6447685,1.9803715,-0.4514963,0.023591883,-0.19248585,-0.8709436,-8.061296,10.845895,0.4883083,-0.94198865,-0.385049,0.41283503,0
1.9300000000000015,10.702346976534857,-1.297472461644962,-0.6551623375897457,0.5350417657260068,14.302021,-1.8149176,-3.3142016,0.5363458,0.4402953,-0.5361201,1.9852597,-0.44963032,0.023152214,-0.18541414,-0.87345135,-8.047351,10.883582,0.48939976,-1.2974725,-0.65516233,0.53504175,0
1.9400000000000015,10.702346976534857,-1.297472461644962,-0.6551623375897457,0.5350417657260068,14.302021,-1.8149176,-3.3142016,0.5363458,0.35988864,-0.42710122,1.9901614,-0.4477374,0.022711154,-0.17833127,-0.8759067,-8.034092,10.919996,0.49105996,-1.2974725,-0.65516233,0.53504175,0
1.9500000000000015,10.702346976534857,-1.297472461644962,-0.6551623375897457,0.5350417657260068,14.302021,-1.8149176,-3.3142016,0.5363458,0.2796111,-0.31772465,1.9950826,-0.4458176,0.022268735,-0.17123772,-0.87830955,-8.021515,10.955123,0.49326813,-1.2974725,-0.65516233,0.53504175,0
1.9600000000000015,10.364714239690906,-1.6171786259827923,-0.982790655963357,0.687218872037254,13.53764,-2.0578978,-3.0701056,0.37202936,0.19945599,-0.20800327,2.0000286,-0.44387102,0.02182498,-0.1641339,-0.88065964,-8.009614,10.988953,0.49600354,-1.2974725,-0.65516233,0.53504175,0
1.9700000000000015,10.364714239690906,-1.6171786259827923,-0.982790655963357,0.687218872037254,13.53764,-2.0578978,-3.0701056,0.37202936,0.11941468,-0.09795575,2.004989,-0.44145262,0.02052149,-0.15489866,-0.88357455,-7.9987597,11.02028,0.4961035,-1.6171787,-0.98279065,0.68721884,0
1.9800000000000015,10.364714239690906,-1.6171786259827923,-0.982790655963357,0.687218872037254,13.53764,-2.0578978,-3.0701056,0.37202936,0.0394784,0.012396401,2.009953,-0.43898946,0.019215921,-0.1456477,-0.8864,-7.988604,11.049878,0.49681252,-1.6171787,-0.98279065,0.68721884,0
1.9900000000000015,10.364714239690906,-1.6171786259827923,-0.982790655963357,0.687218872037254,13.53764,-2.0578978,-3.0701056,0.37202936,-0.040359776,0.12303582,2.0149271,-0.43648183,0.017908404,-0.13638201,-0.88913554,-7.979138,11.077733,0.49809542,-1.6171787,-0.98279065,0.68721884,0
2.0000000000000013,,,,,13.405248,-2.2656531,-2.6421444,0.59280795,-0.1201067,0.233945,2.0199165,-0.43392998,0.016599072,-0.1271025,-0.89178103,-7.9703526,11.103828,0.49991676,-1.6171787,-0.98279065,0.68721884,0
2.010000000000001,,,,,13.405248,-2.2656531,-2.6421444,0.59280795,-0.19977015,0.34510228,2.024913,-0.43080115,0.013456245,-0.1156884,-0.89489925,-7.9624157,11.127274,0.49947974,-1.8527265,-1.4819827,0.8706884,0
2.020000000000001,,,,,13.405248,-2.2656531,-2.6421444,0.59280795,-0.27935678,0.45648268,2.029908,-0.4276035,0.010311268,-0.10425583,-0.89787465,-7.954988,11.14845,0.4995993,-1.8527265,-1.4819827,0.8706884,0
2.0300000000000007,,,,,13.405248,-2.2656531,-2.6421444,0.59280795,-0.3588716,0.5680635,2.0349066,-0.42433763,0.0071646445,-0.092806615,-0.90070665,-7.9480524,11.167342,0.50021964,-1.8527265,-1.4819827,0.8706884,0
2.0400000000000005,,,,,13.405248,-2.2656531,-2.6421444,0.59280795,-0.43831947,0.6798217,2.039914,-0.42100397,0.0040168776,-0.081342585,-0.9033948,-7.9415927,11.183934,0.5012846,-1.8527265,-1.4819827,0.8706884,0
2.0500000000000003,,,,,13.417955,-2.2496748,-2.7239294,0.6176173,-0.517705,0.7917343,2.0449338,-0.4176031,0.00086846895,-0.06986556,-0.90593874,-7.9355927,11.198213,0.50273776,-1.8527265,-1.4819827,0.8706884,1
2.06,,,,,13.417955,-2.2496748,-2.7239294,0.6176173,-0.5970228,0.9037967,2.0501354,-0.4156802,-0.0069882106,-0.05397992,-0.9078803,-7.927936,11.21353,0.5377135,-2.2496748,-2.7239294,0.6176173,1
2.07,,,,,13.417955,-2.2496748,-2.7239294,0.6176173,-0.6762634,1.0159886,2.0556893,-0.41362363,-0.014842643,-0.03807692,-0.90952986,-7.9201665,11.22413,0.5731413,-2.2496748,-2.7239294,0.6176173,1
2.0799999999999996,,,,,13.417955,-2.2496748,-2.7239294,0.6176173,-0.75542563,1.1282629,2.0615993,-0.41143408,-0.022692304,-0.022161676,-0.91088706,-7.912265,11.2300005,0.6088527,-2.2496748,-2.7239294,0.6176173,1
2.0899999999999994,,,,,12.5632305,-2.114885,-2.3804948,0.21337205,-0.8345081,1.2405723,2.0678668,-0.40911222,-0.030534666,-0.006239305,-0.91195136,-7.9042106,11.231135,0.6446789,-2.2496748,-2.7239294,0.6176173,1
2.099999999999999,,,,,12.5632305,-2.114885,-2.3804948,0.21337205,-0.913512,1.3528707,2.07445,-0.40848437,-0.03706551,0.008306257,-0.91197425,-7.896571,11.227927,0.6719327,-2.114885,-2.3804948,0.21337205,1
2.109999999999999,,,,,12.5632305,-2.114885,-2.3804948,0.21337205,-0.9924395,1.465117,2.0813048,-0.40775254,-0.043586913,0.022849703,-0.9117649,-7.8889294,11.220722,0.6990201,-2.114885,-2.3804948,0.21337205,1
2.1199999999999988,,,,,12.5632305,-2.114885,-2.3804948,0.21337205,-1.0712907,1.5772713,2.0884295,-0.4069169,-0.050097223,0.037387334,-0.9113234,-7.8812833,11.209528,0.72581375,-2.114885,-2.3804948,0.21337205,1
2.1299999999999986,,,,,12.32799,-1.9675943,-2.5495892,0.1989289,-1.1500652,1.6892939,2.09582,-0.40597758,-0.056594778,0.05191544,-0.9106499,-7.873633,11.194355,0.75218654,-2.114885,-2.3804948,0.21337205,1
2.1399999999999983,,,,,12.32799,-1.9675943,-2.5495892,0.1989289,-1.2287637,1.8011465,2.1034596,-0.40491396,-0.06415036,0.06609869,-0.909703,-7.866018,11.175566,0.775683,-1.9675943,-2.5495892,0.1989289,1
2.149999999999998,,,,,12.32799,-1.9675943,-2.5495892,0.1989289,-1.3073847,1.9127917,2.111331,-0.40374497,-0.071689256,0.08026473,-0.9085193,-7.8581233,11.152876,0.7984944,-1.9675943,-2.5495892,0.1989289,1
