time-since-start [s],throttle_mpc,roll_mpc,pitch_mpc,yaw_mpc,throttle_nw,roll_nw,pitch_nw,yaw_nw,position_x [m],position_y [m],position_z [m],rotation_w [quaternion],rotation_x [quaternion],rotation_y [quaternion],rotation_z [quaternion],velocity_x [m/s],velocity_y [m/s],velocity_z [m/s],omega_x [rad/s],omega_y [rad/s],omega_z [rad/s],network_used
0.0,14.423931124162953,5.999999065625142,-5.999999882178196,-1.993054773382745,13.097704,-0.7892014,-4.4595046,-1.1275535,18.376646,-10.295783,1.5470786,-0.057042357,0.41748342,-0.2798924,-0.8626204,-10.0681095,-3.8038437,-0.5494833,1.5143124,0.2134714,-0.04452833,0
0.01,14.423931124162953,5.999999065625142,-5.999999882178196,-1.993054773382745,12.097696,0.6503784,-6.475912,-1.1888835,18.275478,-10.333429,1.541453,-0.086496376,0.39229417,-0.2996273,-0.8653595,-10.164141,-3.7242434,-0.57522863,5.999999,-6.0,-1.9930547,0
0.02,14.423931124162953,5.999999065625142,-5.999999882178196,-1.993054773382745,12.097696,0.6503784,-6.475912,-1.1888835,18.173395,-10.37024,1.5355824,-0.11578613,0.36635998,-0.31879324,-0.8664553,-10.251074,-3.6368465,-0.59851074,5.999999,-6.0,-1.9930547,0
0.03,14.423931124162953,5.999999065625142,-5.999999882178196,-1.993054773382745,12.097696,0.6503784,-6.475912,-1.1888835,18.07049,-10.406142,1.52949,-0.144856,0.33973008,-0.33735377,-0.8659057,-10.328236,-3.5424078,-0.61966455,5.999999,-6.0,-1.9930547,0
0.04,14.423931124162953,5.999999065625142,-5.999999882178196,-1.993054773382745,13.453501,-1.9441289,-3.6798453,-0.24364048,17.966864,-10.441068,1.5231953,-0.17365082,0.312455,-0.35527366,-0.8637117,-10.395025,-3.4417346,-0.6390412,5.999999,-6.0,-1.9930547,0
0.05,14.423931124162953,5.999999065625142,-5.999999882178196,-1.993054773382745,13.453501,-1.9441289,-3.6798453,-0.24364048,17.862625,-10.474958,1.5167141,-0.20211585,0.28458658,-0.37251887,-0.8598775,-10.45092,-3.3356814,-0.6570054,5.999999,-6.0,-1.9930547,0
0.060000000000000005,14.423931124162953,5.999999065625142,-5.999999882178196,-1.993054773382745,13.453501,-1.9441289,-3.6798453,-0.24364048,17.757885,-10.507766,1.5100588,-0.23019706,0.25617772,-0.38905665,-0.85441047,-10.495482,-3.2251441,-0.67393273,5.999999,-6.0,-1.9930547,0
0.07,14.423931124162953,5.999999065625142,-5.999999882178196,-1.993054773382745,13.453501,-1.9441289,-3.6798453,-0.24364048,17.652758,-10.539449,1.5032377,-0.2578411,0.22728238,-0.40485567,-0.84732085,-10.528359,-3.1110528,-0.6902063,5.999999,-6.0,-1.9930547,0
0.08,19.23343399663773,4.594194546748458,-5.999999763732985,-0.7828597936328678,15.61022,-2.1723807,-1.5346268,0.21539849,17.54736,-10.569977,1.4962555,-0.28499553,0.19795543,-0.4198858,-0.83862215,-10.549286,-2.9943643,-0.7062144,5.999999,-6.0,-1.9930547,0
0.09,19.23343399663773,4.594194546748458,-5.999999763732985,-0.7828597936328678,15.61022,-2.1723807,-1.5346268,0.21539849,17.441795,-10.599134,1.4892515,-0.30521142,0.16775812,-0.42951977,-0.83319634,-10.561684,-2.8370585,-0.694418,4.5941944,-6.0,-0.7828598,0
0.09999999999999999,19.23343399663773,4.594194546748458,-5.999999763732985,-0.7828597936328678,15.61022,-2.1723807,-1.5346268,0.21539849,17.336178,-10.62672,1.4823703,-0.32498696,0.13731876,-0.438534,-0.8265683,-10.559584,-2.679909,-0.68172276,4.5941944,-6.0,-0.7828598,0
0.10999999999999999,19.23343399663773,4.594194546748458,-5.999999763732985,-0.7828597936328678,15.61022,-2.1723807,-1.5346268,0.21539849,17.230652,-10.652738,1.4756182,-0.34429362,0.10668128,-0.44691548,-0.8187477,-10.543002,-2.5238779,-0.6686682,4.5941944,-6.0,-0.7828598,0
0.11999999999999998,19.23343399663773,4.594194546748458,-5.999999763732985,-0.7828597936328678,15.61022,-2.1723807,-1.5346268,0.21539849,17.125364,-10.677204,1.4689963,-0.36310354,0.07588988,-0.4546522,-0.8097458,-10.512044,-2.369921,-0.65579593,4.5941944,-6.0,-0.7828598,0
0.12999999999999998,20.999997751478716,0.8993919829811917,-5.999997108470209,0.9053658262143774,14.420188,-3.0588477,-0.4909851,0.08683628,17.02046,-10.700146,1.4625,-0.38138953,0.04498898,-0.46173292,-0.7995755,-10.466894,-2.2189822,-0.64364666,4.5941944,-6.0,-0.7828598,0
0.13999999999999999,20.999997751478716,0.8993919829811917,-5.999997108470209,0.9053658262143774,14.420188,-3.0588477,-0.4909851,0.08683628,16.916096,-10.721532,1.4561752,-0.39164326,0.017179644,-0.4538746,-0.8001991,-10.404264,-2.059261,-0.6206923,0.899392,-5.999997,0.9053658,0
0.15,20.999997751478716,0.8993919829811917,-5.999997108470209,0.9053658262143774,14.420188,-3.0588477,-0.4909851,0.08683628,16.812408,-10.741355,1.4500982,-0.4015286,-0.0106458515,-0.4455893,-0.8000699,-10.331675,-1.9066412,-0.59419197,0.899392,-5.999997,0.9053658,0
0.16,20.999918341419868,-1.1294925670014626,-1.7050407437504127,0.7602187444920537,14.267216,-4.3631463,1.1752673,-0.30246943,16.709496,-10.75969,1.4443017,-0.41103622,-0.03846133,-0.4368849,-0.7991882,-10.24933,-1.7616416,-0.56469214,0.899392,-5.999997,0.9053658,0
0.17,20.999918341419868,-1.1294925670014626,-1.7050407437504127,0.7602187444920537,14.267216,-4.3631463,1.1752673,-0.30246943,16.607445,-10.77661,1.4388134,-0.4119157,-0.044611488,-0.42869535,-0.80284244,-10.160668,-1.6228211,-0.53253734,-1.1294925,-1.7050407,0.76021874,0
0.18000000000000002,20.999918341419868,-1.1294925670014626,-1.7050407437504127,0.7602187444920537,14.267216,-4.3631463,1.1752673,-0.30246943,16.506285,-10.792158,1.4336604,-0.41274616,-0.05075634,-0.42045474,-0.806401,-10.071132,-1.4871929,-0.49764588,-1.1294925,-1.7050407,0.76021874,0
0.19000000000000003,20.999918341419868,-1.1294925670014626,-1.7050407437504127,0.7602187444920537,14.267216,-4.3631463,1.1752673,-0.30246943,16.406023,-10.806367,1.4288696,-0.4135275,-0.056895148,-0.4121641,-0.8098637,-9.980731,-1.3548186,-0.46008822,-1.1294925,-1.7050407,0.76021874,0
0.20000000000000004,19.816376339754296,-1.4117131048148046,0.3478688600316413,0.5918981476525874,15.477667,-4.1217694,4.9163094,0.10919756,16.306673,-10.819267,1.4244676,-0.41425958,-0.06302719,-0.40382436,-0.8132299,-9.889474,-1.225758,-0.4199359,-1.1294925,-1.7050407,0.76021874,0
0.21000000000000005,19.816376339754296,-1.4117131048148046,0.3478688600316413,0.5918981476525874,15.477667,-4.1217694,4.9163094,0.10919756,16.208208,-10.830927,1.4204395,-0.4115826,-0.05988183,-0.39860573,-0.81739086,-9.803681,-1.1061149,-0.3853958,-1.4117131,0.34786886,0.59189814,0
0.22000000000000006,19.816376339754296,-1.4117131048148046,0.3478688600316413,0.5918981476525874,15.477667,-4.1217694,4.9163094,0.10919756,16.110592,-10.841392,1.4167658,-0.4088803,-0.05673278,-0.39336255,-0.8215015,-9.720087,-0.98693097,-0.34905088,-1.4117131,0.34786886,0.59189814,0
0.23000000000000007,19.816376339754296,-1.4117131048148046,0.3478688600316413,0.5918981476525874,15.477667,-4.1217694,4.9163094,0.10919756,16.0138,-10.850667,1.4134647,-0.40615276,-0.053580232,-0.38809517,-0.82556146,-9.6387005,-0.86824477,-0.31092295,-1.4117131,0.34786886,0.59189814,0
0.24000000000000007,19.816376339754296,-1.4117131048148046,0.3478688600316413,0.5918981476525874,15.377872,-3.4220343,5.3703055,-0.053597268,15.91781,-10.858758,1.4105535,-0.40340018,-0.05042439,-0.38280386,-0.8295706,-9.55953,-0.75009465,-0.2710342,-1.4117131,0.34786886,0.59189814,0
0.25000000000000006,19.816376339754296,-1.4117131048148046,0.3478688600316413,0.5918981476525874,15.377872,-3.4220343,5.3703055,-0.053597268,15.822602,-10.865672,1.4080498,-0.40062276,-0.047265437,-0.37748897,-0.83352864,-9.482584,-0.6325189,-0.22940731,-1.4117131,0.34786886,0.59189814,0
0.26000000000000006,19.816376339754296,-1.4117131048148046,0.3478688600316413,0.5918981476525874,15.377872,-3.4220343,5.3703055,-0.053597268,15.728152,-10.871412,1.4059712,-0.39782068,-0.04410357,-0.3721508,-0.83743536,-9.407871,-0.5155556,-0.1860653,-1.4117131,0.34786886,0.59189814,0
0.2700000000000001,19.816376339754296,-1.4117131048148046,0.3478688600316413,0.5918981476525874,15.377872,-3.4220343,5.3703055,-0.053597268,15.634438,-10.875986,1.4043343,-0.39499408,-0.04093899,-0.36678976,-0.8412904,-9.335398,-0.39924276,-0.14103168,-1.4117131,0.34786886,0.59189814,0
0.2800000000000001,18.480921152937256,-1.4365096362168326,1.5796718128206435,0.38462801524966045,16.15285,-3.4384165,4.9285464,0.038308326,15.541436,-10.8794,1.4031563,-0.39214313,-0.037771888,-0.3614061,-0.84509367,-9.265171,-0.28361818,-0.094330385,-1.4117131,0.34786886,0.59189814,0
0.2900000000000001,18.480921152937256,-1.4365096362168326,1.5796718128206435,0.38462801524966045,16.15285,-3.4384165,4.9285464,0.038308326,15.449101,-10.881698,1.4024036,-0.3879117,-0.028973432,-0.3583396,-0.8486922,-9.20238,-0.17588383,-0.056034558,-1.4365096,1.5796719,0.38462803,0
0.3000000000000001,18.480921152937256,-1.4365096362168326,1.5796718128206435,0.38462801524966045,16.15285,-3.4384165,4.9285464,0.038308326,15.357375,-10.882915,1.402039,-0.38363463,-0.020171568,-0.355231,-0.85219085,-9.143314,-0.06733305,-0.016725741,-1.4365096,1.5796719,0.38462803,0
0.3100000000000001,18.480921152937256,-1.4365096362168326,1.5796718128206435,0.38462801524966045,16.15285,-3.4384165,4.9285464,0.038308326,15.266222,-10.883042,1.4020724,-0.37931237,-0.011367329,-0.35208052,-0.8555892,-9.088,0.04197275,0.023542818,-1.4365096,1.5796719,0.38462803,0
0.3200000000000001,17.36577445247618,-1.4567126524102552,2.9035358629042562,0.18388439311250493,16.550587,-3.3436472,4.980979,0.04825181,15.175603,-10.882073,1.402513,-0.37494552,-0.002561753,-0.34888864,-0.8588869,-9.036465,0.15197182,0.06471746,-1.4365096,1.5796719,0.38462803,0
0.3300000000000001,17.36577445247618,-1.4567126524102552,2.9035358629042562,0.18388439311250493,16.550587,-3.3436472,4.980979,0.04825181,15.085464,-10.880033,1.4033267,-0.3690601,0.012317138,-0.3480277,-0.86169624,-8.99224,0.25647074,0.09806609,-1.4567126,2.9035358,0.1838844,0
0.34000000000000014,17.36577445247618,-1.4567126524102552,2.9035358629042562,0.18388439311250493,16.550587,-3.3436472,4.980979,0.04825181,14.99574,-10.876938,1.4044747,-0.36307698,0.02719277,-0.3470747,-0.8642775,-8.953308,0.3629204,0.13152319,-1.4567126,2.9035358,0.1838844,0
0.35000000000000014,17.36577445247618,-1.4567126524102552,2.9035358629042562,0.18388439311250493,16.550587,-3.3436472,4.980979,0.04825181,14.906379,-10.872768,1.4059572,-0.35699782,0.042061202,-0.34602985,-0.86662996,-8.919711,0.471201,0.16495672,-1.4567126,2.9035358,0.1838844,0
0.36000000000000015,16.586530784342667,-1.2136153636684546,2.661445242533343,0.003916893807231402,15.323942,-2.71197,4.987033,0.02610058,14.817327,-10.867508,1.4077734,-0.35082415,0.056918506,-0.34489343,-0.86875314,-8.891487,0.5811909,0.19823465,-1.4567126,2.9035358,0.1838844,0
0.37000000000000016,16.586530784342667,-1.2136153636684546,2.661445242533343,0.003916893807231402,15.323942,-2.71197,4.987033,0.02610058,14.728525,-10.861164,1.4098915,-0.3458348,0.0705947,-0.34425452,-0.8700025,-8.869481,0.6877552,0.22531159,-1.2136154,2.6614451,0.0039168936,0
0.38000000000000017,16.586530784342667,-1.2136153636684546,2.661445242533343,0.003916893807231402,15.323942,-2.71197,4.987033,0.02610058,14.639921,-10.853748,1.412278,-0.3407715,0.0842558,-0.34354198,-0.87106574,-8.852097,0.7957184,0.25191602,-1.2136154,2.6614451,0.0039168936,0
0.3900000000000002,16.586530784342667,-1.2136153636684546,2.661445242533343,0.003916893807231402,15.323942,-2.71197,4.987033,0.02610058,14.551469,-10.845245,1.4149278,-0.33563527,0.09789887,-0.3427559,-0.87194264,-8.839349,0.904988,0.2779414,-1.2136154,2.6614451,0.0039168936,0
0.4000000000000002,16.0860991010167,-1.0421895011656175,2.0291737528466953,-0.1424573179358041,16.207445,-2.7342994,4.2726836,-0.08369118,14.463119,-10.835644,1.4178346,-0.33042732,0.111521006,-0.34189656,-0.87263304,-8.831248,1.0154704,0.30328164,-1.2136154,2.6614451,0.0039168936,0
0.4100000000000002,16.0860991010167,-1.0421895011656175,2.0291737528466953,-0.1424573179358041,16.207445,-2.7342994,4.2726836,-0.08369118,14.374826,-10.824949,1.4209726,-0.3269774,0.12233247,-0.34060004,-0.8729908,-8.827549,1.1235739,0.3242411,-1.0421895,2.0291739,-0.14245732,0
0.4200000000000002,16.0860991010167,-1.0421895011656175,2.0291737528466953,-0.1424573179358041,16.207445,-2.7342994,4.2726836,-0.08369118,14.286554,-10.81317,1.4243176,-0.32348478,0.13312797,-0.33925903,-0.87323457,-8.8274145,1.2323465,0.34464735,-1.0421895,2.0291739,-0.14245732,0
0.4300000000000002,16.0860991010167,-1.0421895011656175,2.0291737528466953,-0.1424573179358041,16.207445,-2.7342994,4.2726836,-0.08369118,14.198266,-10.800301,1.4278636,-0.3199499,0.14390607,-0.33787373,-0.87336427,-8.830844,1.3417354,0.3644353,-1.0421895,2.0291739,-0.14245732,0
0.4400000000000002,16.0860991010167,-1.0421895011656175,2.0291737528466953,-0.1424573179358041,15.810891,-3.1534395,3.7427294,0.019089166,14.109926,-10.786335,1.4316041,-0.31637323,0.15466538,-0.33644432,-0.8733799,-8.837834,1.451687,0.38354015,-1.0421895,2.0291739,-0.14245732,0
0.45000000000000023,16.0860991010167,-1.0421895011656175,2.0291737528466953,-0.1424573179358041,15.810891,-3.1534395,3.7427294,0.019089166,14.021498,-10.771266,1.435532,-0.31275526,0.16540448,-0.33497098,-0.8732815,-8.84838,1.5621482,0.40189752,-1.0421895,2.0291739,-0.14245732,0
0.46000000000000024,16.0860991010167,-1.0421895011656175,2.0291737528466953,-0.1424573179358041,15.810891,-3.1534395,3.7427294,0.019089166,13.932946,-10.755091,1.4396392,-0.30909646,0.17612201,-0.33345386,-0.87306905,-8.862476,1.6730652,0.41944334,-1.0421895,2.0291739,-0.14245732,0
0.47000000000000025,16.0860991010167,-1.0421895011656175,2.0291737528466953,-0.1424573179358041,15.810891,-3.1534395,3.7427294,0.019089166,13.844236,-10.737804,1.4439178,-0.30539727,0.18681651,-0.33189324,-0.87274253,-8.880114,1.7843839,0.43611404,-1.0421895,2.0291739,-0.14245732,0
0.48000000000000026,15.496720568825783,-0.7780964293009572,1.0333646312069102,-0.21955490273341288,15.510502,-2.9307544,3.2414005,0.24393195,13.755333,-10.719402,1.4483583,-0.3016582,0.19748662,-0.33028924,-0.87230206,-8.901279,1.8960503,0.45184645,-1.0421895,2.0291739,-0.14245732,0
0.49000000000000027,15.496720568825783,-0.7780964293009572,1.0333646312069102,-0.21955490273341288,15.510502,-2.9307544,3.2414005,0.24393195,13.666205,-10.6999035,1.4529313,-0.30013445,0.20352553,-0.3282303,-0.8722167,-8.924532,2.003775,0.46269265,-0.77809644,1.0333647,-0.2195549,0
0.5000000000000002,15.496720568825783,-0.7780964293009572,1.0333646312069102,-0.21955490273341288,15.510502,-2.9307544,3.2414005,0.24393195,13.576836,-10.679327,1.4576111,-0.29859778,0.20955569,-0.32615724,-0.87209386,-8.949757,2.111397,0.47320053,-0.77809644,1.0333647,-0.2195549,0
0.5100000000000002,15.496720568825783,-0.7780964293009572,1.0333646312069102,-0.21955490273341288,15.510502,-2.9307544,3.2414005,0.24393195,13.487205,-10.657675,1.4623941,-0.29704824,0.21557681,-0.32407013,-0.87193346,-8.97695,2.2189019,0.48334888,-0.77809644,1.0333647,-0.2195549,0
0.5200000000000002,14.961049029802044,-0.4778393126646392,0.27217819564112034,-0.28947641283400144,14.9039135,-2.697003,2.5557024,0.27835268,13.39729,-10.634949,1.4672767,-0.29548594,0.22158867,-0.32196906,-0.8717356,-9.006107,2.3262746,0.49311656,-0.77809644,1.0333647,-0.2195549,0
0.5300000000000002,14.961049029802044,-0.4778393126646392,0.27217819564112034,-0.28947641283400144,14.9039135,-2.697003,2.5557024,0.27835268,13.307081,-10.611168,1.472237,-0.29577872,0.22394595,-0.31996617,-0.8717714,-9.0357275,2.4297404,0.49894315,-0.47783932,0.2721782,-0.28947642,0
0.5400000000000003,14.961049029802044,-0.4778393126646392,0.27217819564112034,-0.28947641283400144,14.9039135,-2.697003,2.5557024,0.27835268,13.216574,-10.586354,1.477256,-0.29606864,0.22630101,-0.31796017,-0.87179875,-9.066113,2.5329146,0.5048384,-0.47783932,0.2721782,-0.28947642,0
0.5500000000000003,14.961049029802044,-0.4778393126646392,0.27217819564112034,-0.28947641283400144,14.9039135,-2.697003,2.5557024,0.27835268,13.125757,-10.56051,1.4823341,-0.2963557,0.22865392,-0.3159511,-0.8718177,-9.097265,2.6357956,0.5107975,-0.47783932,0.2721782,-0.28947642,0
0.5600000000000003,14.305374479330842,-0.24353580622554558,-0.3639442415368323,-0.30848704106355396,14.036613,-2.2385395,1.6577293,-0.005792197,13.034626,-10.533638,1.4874722,-0.2966399,0.23100461,-0.313939,-0.87182826,-9.129183,2.7383819,0.51681554,-0.47783932,0.2721782,-0.28947642,0
0.5700000000000003,14.305374479330842,-0.24353580622554558,-0.3639442415368323,-0.30848704106355396,14.036613,-2.2385395,1.6577293,-0.005792197,12.943179,-10.505764,1.4926481,-0.29827353,0.23026274,-0.31198016,-0.8721702,-9.160106,2.8361406,0.518472,-0.2435358,-0.36394423,-0.30848703,0
0.5800000000000003,14.305374479330842,-0.24353580622554558,-0.3639442415368323,-0.30848704106355396,14.036613,-2.2385395,1.6577293,-0.005792197,12.851424,-10.476915,1.497843,-0.29990503,0.2295192,-0.31001908,-0.8725059,-9.190887,2.9334846,0.5205765,-0.2435358,-0.36394423,-0.30848703,0
0.5900000000000003,14.305374479330842,-0.24353580622554558,-0.3639442415368323,-0.30848704106355396,14.036613,-2.2385395,1.6577293,-0.005792197,12.759361,-10.447096,1.5030613,-0.30153438,0.22877406,-0.3080558,-0.8728354,-9.221529,3.030412,0.523127,-0.2435358,-0.36394423,-0.30848703,0
0.6000000000000003,13.824099033047577,-0.062037815529330624,-0.3860654076405084,-0.32579117251954004,14.585874,-1.965289,0.92790234,0.12788194,12.666992,-10.416309,1.5083071,-0.3031616,0.22802724,-0.30609027,-0.8731586,-9.25203,3.12692,0.52612174,-0.2435358,-0.36394423,-0.30848703,0
0.6100000000000003,13.824099033047577,-0.062037815529330624,-0.3860654076405084,-0.32579117251954004,14.585874,-1.965289,0.92790234,0.12788194,12.574325,-10.384576,1.513568,-0.30510303,0.22693367,-0.3048618,-0.87319696,-9.281302,3.2198284,0.5261122,-0.062037814,-0.3860654,-0.32579118,0
0.6200000000000003,13.824099033047577,-0.062037815529330624,-0.3860654076405084,-0.32579117251954004,14.585874,-1.965289,0.92790234,0.12788194,12.481366,-10.351914,1.5188305,-0.30704254,0.22583862,-0.30363134,-0.8732298,-9.310252,3.3124728,0.5264473,-0.062037814,-0.3860654,-0.32579118,0
0.6300000000000003,13.824099033047577,-0.062037815529330624,-0.3860654076405084,-0.32579117251954004,14.585874,-1.965289,0.92790234,0.12788194,12.38812,-10.318328,1.5240983,-0.30898005,0.22474213,-0.30239895,-0.873257,-9.33888,3.4048505,0.52712613,-0.062037814,-0.3860654,-0.32579118,0
0.6400000000000003,13.824099033047577,-0.062037815529330624,-0.3860654076405084,-0.32579117251954004,14.469797,-1.8083652,0.6133333,0.17100686,12.294589,-10.283818,1.5293744,-0.31091556,0.22364415,-0.30116454,-0.87327844,-9.3671875,3.4969594,0.5281477,-0.062037814,-0.3860654,-0.32579118,0
0.6500000000000004,13.824099033047577,-0.062037815529330624,-0.3860654076405084,-0.32579117251954004,14.469797,-1.8083652,0.6133333,0.17100686,12.200777,-10.248389,1.5346624,-0.31284904,0.22254474,-0.29992822,-0.8732942,-9.395178,3.5887973,0.529511,-0.062037814,-0.3860654,-0.32579118,0
0.6600000000000004,13.824099033047577,-0.062037815529330624,-0.3860654076405084,-0.32579117251954004,14.469797,-1.8083652,0.6133333,0.17100686,12.106688,-10.212043,1.5399657,-0.3147805,0.2214439,-0.29869,-0.8733044,-9.422849,3.6803615,0.531215,-0.062037814,-0.3860654,-0.32579118,0
0.6700000000000004,13.824099033047577,-0.062037815529330624,-0.3860654076405084,-0.32579117251954004,14.469797,-1.8083652,0.6133333,0.17100686,12.012323,-10.174783,1.5452878,-0.31670994,0.22034164,-0.29744974,-0.87330896,-9.450203,3.7716498,0.5332587,-0.062037814,-0.3860654,-0.32579118,0
0.6800000000000004,13.277911331988294,0.01266046606268641,-0.39848626358318895,-0.32087985869899643,14.133558,-1.716988,0.16294666,0.2858805,11.9176855,-10.136611,1.5506321,-0.31863734,0.21923794,-0.29620758,-0.87330776,-9.477241,3.8626597,0.535641,-0.062037814,-0.3860654,-0.32579118,0
0.6900000000000004,13.277911331988294,0.01266046606268641,-0.39848626358318895,-0.32087985869899643,14.133558,-1.716988,0.16294666,0.2858805,11.822785,-10.0975485,1.5559821,-0.3206415,0.21795227,-0.29527524,-0.8732117,-9.502877,3.9498246,0.53436714,0.012660466,-0.39848626,-0.32087985,0
0.7000000000000004,13.277911331988294,0.01266046606268641,-0.39848626358318895,-0.32087985869899643,14.133558,-1.716988,0.16294666,0.2858805,11.72763,-10.057614,1.5613207,-0.32264355,0.21666516,-0.294341,-0.8731099,-9.528132,4.036772,0.5333887,0.012660466,-0.39848626,-0.32087985,0
0.7100000000000004,13.277911331988294,0.01266046606268641,-0.39848626358318895,-0.32087985869899643,14.133558,-1.716988,0.16294666,0.2858805,11.632223,-10.016813,1.5666509,-0.32464346,0.21537666,-0.29340485,-0.87300235,-9.553006,4.1235,0.5327048,0.012660466,-0.39848626,-0.32087985,0
0.7200000000000004,12.594206597901103,0.15433049715898056,-0.7319548679399018,-0.3288240066056892,13.807726,-1.401074,-0.2758452,0.24523681,11.53657,-9.975145,1.5719757,-0.32664126,0.21408676,-0.2924668,-0.8728891,-9.577499,4.2100053,0.5323144,0.012660466,-0.39848626,-0.32087985,0
0.7300000000000004,12.594206597901103,0.15433049715898056,-0.7319548679399018,-0.3288240066056892,13.807726,-1.401074,-0.2758452,0.24523681,11.440681,-9.932636,1.5772731,-0.32930923,0.21111919,-0.29159048,-0.87290263,-9.600216,4.2918134,0.52723426,0.15433049,-0.7319549,-0.328824,0
0.7400000000000004,12.594206597901103,0.15433049715898056,-0.7319548679399018,-0.3288240066056892,13.807726,-1.401074,-0.2758452,0.24523681,11.344568,-9.889311,1.5825218,-0.3319717,0.20814812,-0.29070932,-0.87290156,-9.622157,4.373325,0.5225994,0.15433049,-0.7319549,-0.328824,0
0.7500000000000004,12.594206597901103,0.15433049715898056,-0.7319548679399018,-0.3288240066056892,13.807726,-1.401074,-0.2758452,0.24523681,11.2482395,-9.845171,1.5877265,-0.3346286,0.20517357,-0.28982332,-0.8728859,-9.643323,4.4545336,0.5184063,0.15433049,-0.7319549,-0.328824,0
0.7600000000000005,12.022260316026703,0.24806457824677436,-0.7852830176691387,-0.32573523989613967,13.148726,-1.3061395,-1.0118859,0.23835963,11.151704,-9.8002205,1.5928913,-0.33727995,0.20219558,-0.28893247,-0.87285566,-9.663714,4.535433,0.51465094,0.15433049,-0.7319549,-0.328824,0
0.7700000000000005,12.022260316026703,0.24806457824677436,-0.7852830176691387,-0.32573523989613967,13.148726,-1.3061395,-1.0118859,0.23835963,11.054973,-9.754481,1.5979995,-0.3400835,0.19881865,-0.28835866,-0.87273335,-9.682395,4.61237,0.50702286,0.24806458,-0.785283,-0.32573524,0
0.7800000000000005,12.022260316026703,0.24806457824677436,-0.7852830176691387,-0.32573523989613967,13.148726,-1.3061395,-1.0118859,0.23835963,10.958058,-9.707974,1.6030332,-0.3428804,0.19543783,-0.28777918,-0.8725939,-9.700213,4.6890354,0.49979842,0.24806458,-0.785283,-0.32573524,0
0.7900000000000005,12.022260316026703,0.24806457824677436,-0.7852830176691387,-0.32573523989613967,13.148726,-1.3061395,-1.0118859,0.23835963,10.8609705,-9.660703,1.6079967,-0.34567055,0.19205318,-0.28719407,-0.87243724,-9.71717,4.765422,0.49297303,0.24806458,-0.785283,-0.32573524,0
0.8000000000000005,11.470103295046904,0.2784070717757641,-1.167861005186311,-0.32652676315707885,12.502752,-1.112029,-0.7517379,0.13741201,10.763718,-9.612668,1.6128939,-0.3484539,0.18866476,-0.28660333,-0.8722636,-9.733264,4.8415213,0.48654217,0.24806458,-0.785283,-0.32573524,0
0.8100000000000005,11.470103295046904,0.2784070717757641,-1.167861005186311,-0.32652676315707885,12.502752,-1.112029,-0.7517379,0.13741201,10.666312,-9.563891,1.617708,-0.35180745,0.18355058,-0.28546926,-0.87238055,-9.747675,4.9137697,0.47635475,0.27840707,-1.167861,-0.32652676,0
0.8200000000000005,11.470103295046904,0.2784070717757641,-1.167861005186311,-0.32652676315707885,12.502752,-1.112029,-0.7517379,0.13741201,10.5687685,-9.514394,1.622423,-0.35514733,0.17842929,-0.28432417,-0.87246376,-9.76094,4.9855266,0.46674886,0.27840707,-1.167861,-0.32652676,0
0.8300000000000005,11.470103295046904,0.2784070717757641,-1.167861005186311,-0.32652676315707885,12.502752,-1.112029,-0.7517379,0.13741201,10.471097,-9.464182,1.6270449,-0.35847345,0.17330112,-0.28316802,-0.8725132,-9.773057,5.056778,0.45771393,0.27840707,-1.167861,-0.32652676,0
0.8400000000000005,11.470103295046904,0.2784070717757641,-1.167861005186311,-0.32652676315707885,12.016196,-0.9186785,-0.8279395,0.09677094,10.37331,-9.41326,1.6315793,-0.36178574,0.16816624,-0.2820009,-0.8725288,-9.78403,5.1275105,0.44923925,0.27840707,-1.167861,-0.32652676,0
0.8500000000000005,11.470103295046904,0.2784070717757641,-1.167861005186311,-0.32652676315707885,12.016196,-0.9186785,-0.8279395,0.09677094,10.275419,-9.361632,1.6360316,-0.36508402,0.16302483,-0.28082293,-0.8725107,-9.793855,5.197711,0.4413141,0.27840707,-1.167861,-0.32652676,0
0.8600000000000005,11.470103295046904,0.2784070717757641,-1.167861005186311,-0.32652676315707885,12.016196,-0.9186785,-0.8279395,0.09677094,10.177436,-9.309307,1.6404074,-0.36836818,0.15787713,-0.2796341,-0.87245876,-9.802537,5.2673664,0.43392757,0.27840707,-1.167861,-0.32652676,0
0.8700000000000006,11.470103295046904,0.2784070717757641,-1.167861005186311,-0.32652676315707885,12.016196,-0.9186785,-0.8279395,0.09677094,10.079372,-9.256288,1.6447121,-0.3716381,0.15272333,-0.2784344,-0.8723731,-9.810077,5.3364635,0.4270687,0.27840707,-1.167861,-0.32652676,0
0.8800000000000006,11.146985284310446,0.28132612357768594,-1.1685871448543284,-0.33021567872819246,11.766792,-0.50052583,-1.0270938,-0.031872924,9.981239,-9.2025795,1.6489506,-0.3748936,0.1475636,-0.27722394,-0.87225366,-9.816475,5.404989,0.42072654,0.27840707,-1.167861,-0.32652676,1
0.8900000000000006,11.146985284310446,0.28132612357768594,-1.1685871448543284,-0.33021567872819246,11.766792,-0.50052583,-1.0270938,-0.031872924,9.883046,-9.148181,1.6531405,-0.37608087,0.14406417,-0.27308774,-0.87363124,-9.822165,5.4745293,0.41737565,-0.50052583,-1.0270938,-0.031872924,1
0.9000000000000006,11.146985284310446,0.28132612357768594,-1.1685871448543284,-0.33021567872819246,11.766792,-0.50052583,-1.0270938,-0.031872924,9.784798,-9.093092,1.6573007,-0.37725583,0.14056005,-0.2689426,-0.8749802,-9.82747,5.5430374,0.41479594,-0.50052583,-1.0270938,-0.031872924,1
0.9100000000000006,11.146985284310446,0.28132612357768594,-1.1685871448543284,-0.33021567872819246,11.766792,-0.50052583,-1.0270938,-0.031872924,9.686499,-9.037323,1.661439,-0.37841848,0.13705133,-0.2647887,-0.8763008,-9.832393,5.610503,0.41297498,-0.50052583,-1.0270938,-0.031872924,1
0.9200000000000006,10.727146572296864,0.41008582801545257,-1.1775110245311187,-0.3344784456516944,11.7401285,-0.38842747,-0.80139405,-0.034402426,9.588151,-8.9808855,1.6655627,-0.37956873,0.13353814,-0.26062614,-0.8775927,-9.83693,5.676919,0.41190037,-0.50052583,-1.0270938,-0.031872924,0
0.9300000000000006,10.727146572296864,0.41008582801545257,-1.1775110245311187,-0.3344784456516944,11.7401285,-0.38842747,-0.80139405,-0.034402426,9.489763,-8.923817,1.669636,-0.38283673,0.12802611,-0.25996208,-0.8771915,-9.840407,5.7366757,0.4028177,0.41008583,-1.177511,-0.33447844,0
0.9400000000000006,10.727146572296864,0.41008582801545257,-1.1775110245311187,-0.3344784456516944,11.7401285,-0.38842747,-0.80139405,-0.034402426,9.391347,-8.866153,1.6736205,-0.3860888,0.12250876,-0.2592872,-0.8767537,-9.84271,5.7959213,0.3941141,0.41008583,-1.177511,-0.33447844,0
0.9500000000000006,10.727146572296864,0.41008582801545257,-1.1775110245311187,-0.3344784456516944,11.7401285,-0.38842747,-0.80139405,-0.034402426,9.2929125,-8.807899,1.6775197,-0.38932472,0.11698629,-0.25860152,-0.87627935,-9.843837,5.8546433,0.3857778,0.41008583,-1.177511,-0.33447844,0
0.9600000000000006,10.476171757963074,0.5124207553012677,-1.2804682374681045,-0.35024643505104924,11.012487,0.4795443,-0.820723,-0.20187062,9.194474,-8.749062,1.6813374,-0.39254445,0.11145895,-0.25790507,-0.87576854,-9.84379,5.912829,0.37779704,0.41008583,-1.177511,-0.33447844,1
0.9700000000000006,10.476171757963074,0.5124207553012677,-1.2804682374681045,-0.35024643505104924,11.012487,0.4795443,-0.820723,-0.20187062,9.096042,-8.689637,1.6850888,-0.39474934,0.10718294,-0.25827852,-0.875201,-9.842618,5.972109,0.37249768,0.4795443,-0.820723,-0.20187062,1
0.9800000000000006,10.476171757963074,0.5124207553012677,-1.2804682374681045,-0.35024643505104924,11.012487,0.4795443,-0.820723,-0.20187062,8.997625,-8.629621,1.6887878,-0.39694494,0.102904394,-0.25864586,-0.87461275,-9.84045,6.031108,0.36735904,0.4795443,-0.820723,-0.20187062,1
0.9900000000000007,10.476171757963074,0.5124207553012677,-1.2804682374681045,-0.35024643505104924,11.012487,0.4795443,-0.820723,-0.20187062,8.899237,-8.569016,1.6924363,-0.39913115,0.098623425,-0.25900713,-0.8740039,-9.837287,6.0898194,0.36237383,0.4795443,-0.820723,-0.20187062,1
1.0000000000000007,10.304692645692993,0.42678744476260244,-1.2699465343176017,-0.3531087710772428,10.504206,1.2143131,-0.43134746,-0.13399166,8.800884,-8.507826,1.6960359,-0.40130794,0.09434013,-0.25936225,-0.8733744,-9.833131,6.1482368,0.35753465,0.4795443,-0.820723,-0.20187062,1
1.0100000000000007,10.304692645692993,0.42678744476260244,-1.2699465343176017,-0.3531087710772428,10.504206,1.2143131,-0.43134746,-0.13399166,8.702578,-8.446066,1.6995655,-0.4030168,0.09019174,-0.26373085,-0.87171596,-9.828103,6.203927,0.3483562,1.2143131,-0.43134746,-0.13399166,1
1.0200000000000007,10.304692645692993,0.42678744476260244,-1.2699465343176017,-0.3531087710772428,10.504206,1.2143131,-0.43134746,-0.13399166,8.604326,-8.383746,1.703002,-0.40470874,0.08603956,-0.26808834,-0.8700209,-9.82182,6.260005,0.3388533,1.2143131,-0.43134746,-0.13399166,1
1.0300000000000007,10.304692645692993,0.42678744476260244,-1.2699465343176017,-0.3531087710772428,10.504206,1.2143131,-0.43134746,-0.13399166,8.5061455,-8.320863,1.7063416,-0.4063837,0.081883766,-0.2724346,-0.8682894,-9.814282,6.316461,0.3290121,1.2143131,-0.43134746,-0.13399166,1
1.0400000000000007,10.304692645692993,0.42678744476260244,-1.2699465343176017,-0.3531087710772428,10.458366,0.9928368,-0.33742404,-0.09344679,8.408045,-8.257414,1.7095811,-0.40804163,0.07772454,-0.2767694,-0.8665215,-9.80549,6.3732834,0.3188188,1.2143131,-0.43134746,-0.13399166,1
1.0500000000000007,10.304692645692993,0.42678744476260244,-1.2699465343176017,-0.3531087710772428,10.458366,0.9928368,-0.33742404,-0.09344679,8.310039,-8.193397,1.712715,-0.40929362,0.07436527,-0.2803424,-0.86507607,-9.795576,6.430192,0.30790105,0.9928368,-0.33742404,-0.09344679,1
1.0600000000000007,10.304692645692993,0.42678744476260244,-1.2699465343176017,-0.3531087710772428,10.458366,0.9928368,-0.33742404,-0.09344679,8.212136,-8.128808,1.7157382,-0.41053426,0.07100394,-0.28390762,-0.8636066,-9.784654,6.4873934,0.29667035,0.9928368,-0.33742404,-0.09344679,1
1.0700000000000007,10.304692645692993,0.42678744476260244,-1.2699465343176017,-0.3531087710772428,10.458366,0.9928368,-0.33742404,-0.09344679,8.114348,-8.063647,1.7186475,-0.41176355,0.067640655,-0.28746498,-0.86211324,-9.772721,6.544882,0.2851177,0.9928368,-0.33742404,-0.09344679,1
1.0800000000000007,10.397188518353522,-0.12085686641606574,-1.4468317728714033,-0.3661227133513697,10.382322,0.58949095,0.501997,0.0034810938,8.0166855,-7.997909,1.7214396,-0.4129814,0.06427549,-0.29101437,-0.86059606,-9.759782,6.602648,0.27323404,0.9928368,-0.33742404,-0.09344679,0
1.0900000000000007,10.397188518353522,-0.12085686641606574,-1.4468317728714033,-0.3661227133513697,10.382322,0.58949095,0.501997,0.0034810938,7.9191556,-7.9315953,1.7241095,-0.4166116,0.058830343,-0.287381,-0.86045676,-9.745962,6.659842,0.2608536,-0.120856866,-1.4468318,-0.36612272,0
1.1000000000000008,10.397188518353522,-0.12085686641606574,-1.4468317728714033,-0.3661227133513697,10.382322,0.58949095,0.501997,0.0034810938,7.8217688,-7.8647156,1.7266585,-0.42021847,0.0533819,-0.28373146,-0.86026925,-9.731264,6.715949,0.24904361,-0.120856866,-1.4468318,-0.36612272,0
1.1100000000000008,10.397188518353522,-0.12085686641606574,-1.4468317728714033,-0.3661227133513697,10.382322,0.58949095,0.501997,0.0034810938,7.724533,-7.79728,1.7290922,-0.42380178,0.047930468,-0.28006607,-0.8600335,-9.715695,6.7709546,0.23778819,-0.120856866,-1.4468318,-0.36612272,0
1.1200000000000008,10.548804593757612,-0.4425503112370741,-1.6308914877233815,-0.3525278425222193,10.810624,0.17559484,0.34892908,-0.06757885,7.6274576,-7.7292995,1.7314161,-0.42736137,0.042476345,-0.27638498,-0.85974956,-9.699264,6.824845,0.22707132,-0.120856866,-1.4468318,-0.36612272,0
1.1300000000000008,10.548804593757612,-0.4425503112370741,-1.6308914877233815,-0.3525278425222193,10.810624,0.17559484,0.34892908,-0.06757885,7.530552,-7.660783,1.7336421,-0.43102062,0.036896855,-0.27091256,-0.8599222,-9.681775,6.8782625,0.21823634,-0.4425503,-1.6308914,-0.35252786,0
1.1400000000000008,10.548804593757612,-0.4425503112370741,-1.6308914877233815,-0.3525278425222193,10.810624,0.17559484,0.34892908,-0.06757885,7.4338245,-7.591739,1.7357833,-0.43464774,0.031314615,-0.26542,-0.8600308,-9.663566,6.930216,0.21011789,-0.4425503,-1.6308914,-0.35252786,0
1.1500000000000008,10.548804593757612,-0.4425503112370741,-1.6308914877233815,-0.3525278425222193,10.810624,0.17559484,0.34892908,-0.06757885,7.337283,-7.5221834,1.737847,-0.4382425,0.025730042,-0.2599076,-0.86007524,-9.644643,6.980689,0.20269242,-0.4425503,-1.6308914,-0.35252786,0
1.1600000000000008,10.803709120720978,-0.42269025043345065,-0.39164498176361134,-0.3088220908456832,11.309346,0.07803872,0.32659367,-0.1607061,7.240934,-7.452131,1.7398396,-0.44180462,0.020143554,-0.25437585,-0.8600556,-9.62502,7.0296664,0.19593616,-0.4425503,-1.6308914,-0.35252786,1
1.1700000000000008,10.803709120720978,-0.42269025043345065,-0.39164498176361134,-0.3088220908456832,11.309346,0.07803872,0.32659367,-0.1607061,7.144791,-7.3815765,1.7418001,-0.4420874,0.02157997,-0.25541627,-0.859567,-9.603578,7.0812836,0.19615197,0.07803872,0.32659367,-0.1607061,1
1.1800000000000008,10.803709120720978,-0.42269025043345065,-0.39164498176361134,-0.3088220908456832,11.309346,0.07803872,0.32659367,-0.1607061,7.048862,-7.310505,1.7437621,-0.4423687,0.023016311,-0.25645578,-0.85907537,-9.582292,7.1332197,0.19623378,0.07803872,0.32659367,-0.1607061,1
1.1900000000000008,10.803709120720978,-0.42269025043345065,-0.39164498176361134,-0.3088220908456832,11.309346,0.07803872,0.32659367,-0.1607061,6.953145,-7.2389116,1.7457242,-0.4426484,0.024452575,-0.25749445,-0.85858077,-9.561162,7.1854744,0.19618024,0.07803872,0.32659367,-0.1607061,1
1.2000000000000008,10.85948517795607,-0.45651281317621906,-0.5961173061516765,-0.3008012721042568,11.316584,0.4442965,-0.59267056,-0.124181926,6.8576384,-7.166794,1.7476852,-0.4429266,0.025888752,-0.25853217,-0.8580832,-9.540189,7.238047,0.19599004,0.07803872,0.32659367,-0.1607061,1
1.2100000000000009,10.85948517795607,-0.45651281317621906,-0.5961173061516765,-0.3008012721042568,11.316584,0.4442965,-0.59267056,-0.124181926,6.762342,-7.0941496,1.749644,-0.4442799,0.022522347,-0.25910792,-0.8573045,-9.519002,7.2907534,0.19576535,0.4442965,-0.59267056,-0.124181926,1
1.2200000000000009,10.85948517795607,-0.45651281317621906,-0.5961173061516765,-0.3008012721042568,11.316584,0.4442965,-0.59267056,-0.124181926,6.6672616,-7.0209794,1.7516005,-0.4456269,0.019155623,-0.25968003,-0.85651374,-9.497022,7.3431935,0.19550824,0.4442965,-0.59267056,-0.124181926,1
1.2300000000000009,10.85948517795607,-0.45651281317621906,-0.5961173061516765,-0.3008012721042568,11.316584,0.4442965,-0.59267056,-0.124181926,6.572405,-6.947286,1.7535541,-0.44696766,0.01578863,-0.26024848,-0.8557109,-9.474248,7.3953643,0.19521391,0.4442965,-0.59267056,-0.124181926,1
1.2400000000000009,10.85948517795607,-0.45651281317621906,-0.5961173061516765,-0.3008012721042568,11.507683,0.23051468,0.4095229,-0.0075378977,6.47778,-6.873073,1.7555046,-0.44830212,0.012421413,-0.26081327,-0.854896,-9.450682,7.4472613,0.1948775,0.4442965,-0.59267056,-0.124181926,0
1.2500000000000009,10.85948517795607,-0.45651281317621906,-0.5961173061516765,-0.3008012721042568,11.507683,0.23051468,0.4095229,-0.0075378977,6.3833885,-6.7983527,1.7574322,-0.45033324,0.011288767,-0.2575049,-0.85484713,-9.427592,7.4966264,0.19070707,-0.4565128,-0.5961173,-0.30080128,0
1.260000000000001,10.85948517795607,-0.45651281317621906,-0.5961173061516765,-0.3008012721042568,11.507683,0.23051468,0.4095229,-0.0075378977,6.289228,-6.7231426,1.75932,-0.452357,0.010155936,-0.25419232,-0.85478425,-9.404502,7.5452685,0.18691307,-0.4565128,-0.5961173,-0.30080128,0
1.270000000000001,10.85948517795607,-0.45651281317621906,-0.5961173061516765,-0.3008012721042568,11.507683,0.23051468,0.4095229,-0.0075378977,6.195298,-6.6474495,1.7611718,-0.45437336,0.009022938,-0.2508756,-0.8547074,-9.381416,7.593185,0.18349066,-0.4565128,-0.5961173,-0.30080128,0
1.280000000000001,11.04339726032215,-0.6776506238686382,0.0761808482530873,-0.2810508575060451,11.313626,-0.2794493,-0.025175402,-0.080349505,6.101599,-6.5712814,1.7629912,-0.4563823,0.007889793,-0.24755476,-0.8546166,-9.358337,7.6403728,0.18043499,-0.4565128,-0.5961173,-0.30080128,1
1.290000000000001,11.04339726032215,-0.6776506238686382,0.0761808482530873,-0.2810508575060451,11.313626,-0.2794493,-0.025175402,-0.080349505,6.008136,-6.4946346,1.7648015,-0.4567453,0.008519341,-0.24629977,-0.8547792,-9.334386,7.688995,0.1816422,-0.2794493,-0.025175402,-0.080349505,1
1.300000000000001,11.04339726032215,-0.6776506238686382,0.0761808482530873,-0.2810508575060451,11.313626,-0.2794493,-0.025175402,-0.080349505,5.9149113,-6.4175024,1.7666247,-0.45710734,0.0091488715,-0.24504426,-0.85494,-9.310665,7.737449,0.18298702,-0.2794493,-0.025175402,-0.080349505,1
1.310000000000001,11.04339726032215,-0.6776506238686382,0.0761808482530873,-0.2810508575060451,11.313626,-0.2794493,-0.025175402,-0.080349505,5.8219223,-6.339886,1.768462,-0.45746842,0.009778382,-0.24378821,-0.855099,-9.287177,7.7857356,0.18446858,-0.2794493,-0.025175402,-0.080349505,1
1.320000000000001,11.244317037770903,-0.5301440748822271,0.25970727414363437,-0.2636485539300884,12.020424,-0.2916623,-0.62610453,-0.10639173,5.729167,-6.261789,1.7703146,-0.4578285,0.010407872,-0.24253166,-0.85525614,-9.263921,7.833854,0.18608606,-0.2794493,-0.025175402,-0.080349505,1
1.330000000000001,11.244317037770903,-0.5301440748822271,0.25970727414363437,-0.2636485539300884,12.020424,-0.2916623,-0.62610453,-0.10639173,5.6366506,-6.183196,1.7722154,-0.45902473,0.008527086,-0.23984417,-0.8553936,-9.239306,7.884586,0.19414349,-0.2916623,-0.62610453,-0.10639173,1
1.340000000000001,11.244317037770903,-0.5301440748822271,0.25970727414363437,-0.2636485539300884,12.020424,-0.2916623,-0.62610453,-0.10639173,5.5443816,-6.1040998,1.7741985,-0.46021536,0.006646197,-0.23715375,-0.85552055,-9.214533,7.934568,0.20251934,-0.2916623,-0.62610453,-0.10639173,1
1.350000000000001,11.244317037770903,-0.5301440748822271,0.25970727414363437,-0.2636485539300884,12.020424,-0.2916623,-0.62610453,-0.10639173,5.452361,-6.0245075,1.7762669,-0.4614004,0.0047652265,-0.23446046,-0.85563725,-9.189603,7.983797,0.21120875,-0.2916623,-0.62610453,-0.10639173,1
1.360000000000001,11.36089934998263,-0.4062160828417816,0.8877766386178734,-0.2465318046093954,11.8802395,-0.26632985,0.29450566,-0.07914096,5.36059,-5.9444265,1.7784238,-0.46257976,0.002884198,-0.2317643,-0.85574347,-9.164517,8.032271,0.22020687,-0.2916623,-0.62610453,-0.10639173,1
1.370000000000001,11.36089934998263,-0.4062160828417816,0.8877766386178734,-0.2465318046093954,11.8802395,-0.26632985,0.29450566,-0.07914096,5.2690687,-5.8638663,1.7806656,-0.46257234,0.004852001,-0.23130427,-0.85586303,-9.1398,8.079761,0.22816218,-0.26632985,0.29450566,-0.07914096,1
1.380000000000001,11.36089934998263,-0.4062160828417816,0.8877766386178734,-0.2465318046093954,11.8802395,-0.26632985,0.29450566,-0.07914096,5.1777925,-5.7828307,1.7829874,-0.46256304,0.006819785,-0.23084332,-0.8559791,-9.115533,8.127379,0.23616381,-0.26632985,0.29450566,-0.07914096,1
1.390000000000001,11.36089934998263,-0.4062160828417816,0.8877766386178734,-0.2465318046093954,11.8802395,-0.26632985,0.29450566,-0.07914096,5.0867567,-5.7013183,1.7853892,-0.46255183,0.008787541,-0.23038144,-0.8560917,-9.091718,8.175127,0.2442099,-0.26632985,0.29450566,-0.07914096,1
1.400000000000001,11.358849795142472,-0.19243292555816935,0.9023314315513765,-0.25254363168616817,12.332115,-0.066405386,-1.1029695,-0.22396141,4.995957,-5.6193275,1.7878717,-0.46253872,0.010755261,-0.22991861,-0.85620075,-9.068355,8.223003,0.25229862,-0.26632985,0.29450566,-0.07914096,0
1.410000000000001,11.358849795142472,-0.19243292555816935,0.9023314315513765,-0.25254363168616817,12.332115,-0.066405386,-1.1029695,-0.22396141,4.905383,-5.5368676,1.7904118,-0.4625669,0.015353366,-0.23116542,-0.8557796,-9.046573,8.269119,0.25569323,-0.19243293,0.9023314,-0.25254363,0
1.420000000000001,11.358849795142472,-0.19243292555816935,0.9023314315513765,-0.25254363168616817,12.332115,-0.066405386,-1.1029695,-0.22396141,4.8150234,-5.4539423,1.7929851,-0.46258453,0.019951118,-0.23240693,-0.8553389,-9.02555,8.315937,0.2589263,-0.19243293,0.9023314,-0.25254363,0
1.430000000000001,11.358849795142472,-0.19243292555816935,0.9023314315513765,-0.25254363168616817,12.332115,-0.066405386,-1.1029695,-0.22396141,4.7248697,-5.3705463,1.7955898,-0.46259156,0.024548417,-0.23364311,-0.8548786,-9.005289,8.363456,0.26198813,-0.19243293,0.9023314,-0.25254363,0
1.440000000000001,11.358849795142472,-0.19243292555816935,0.9023314315513765,-0.25254363168616817,12.30809,-0.08551285,-0.9237066,-0.15801483,4.634915,-5.286671,1.7982241,-0.46258798,0.029145153,-0.23487395,-0.8543988,-8.985788,8.411673,0.26486894,-0.19243293,0.9023314,-0.25254363,0
1.450000000000001,11.358849795142472,-0.19243292555816935,0.9023314315513765,-0.25254363168616817,12.30809,-0.08551285,-0.9237066,-0.15801483,4.545151,-5.2023106,1.8008863,-0.46257383,0.033741225,-0.23609942,-0.8538994,-8.967048,8.460585,0.26755905,-0.19243293,0.9023314,-0.25254363,0
1.460000000000001,11.358849795142472,-0.19243292555816935,0.9023314315513765,-0.25254363168616817,12.30809,-0.08551285,-0.9237066,-0.15801483,4.4555717,-5.1174574,1.8035744,-0.46254912,0.038336523,-0.23731948,-0.8533805,-8.949067,8.51019,0.27004874,-0.19243293,0.9023314,-0.25254363,0
1.470000000000001,11.358849795142472,-0.19243292555816935,0.9023314315513765,-0.25254363168616817,12.30809,-0.08551285,-0.9237066,-0.15801483,4.3661675,-5.032105,1.8062866,-0.46251383,0.042930946,-0.23853414,-0.85284203,-8.931847,8.560485,0.27232832,-0.19243293,0.9023314,-0.25254363,0
1.480000000000001,11.588813567999479,-0.013386701671412869,0.6439649958509863,-0.2068182332320244,12.623247,0.16734889,0.030081546,-0.24538738,4.276932,-4.946246,1.8090204,-0.46246794,0.04752438,-0.2397433,-0.8522841,-8.915386,8.611468,0.27438813,-0.19243293,0.9023314,-0.25254363,0
1.490000000000001,11.588813567999479,-0.013386701671412869,0.6439649958509863,-0.2068182332320244,12.623247,0.16734889,0.030081546,-0.24538738,4.187859,-4.859869,1.8117837,-0.4625715,0.05054718,-0.24112481,-0.851664,-8.89924,8.664132,0.27824786,-0.013386701,0.643965,-0.20681824,0
1.500000000000001,11.588813567999479,-0.013386701671412869,0.6439649958509863,-0.2068182332320244,12.623247,0.16734889,0.030081546,-0.24538738,4.0989456,-4.772962,1.8145844,-0.4626698,0.053569403,-0.24250355,-0.85103416,-8.883529,8.71736,0.28188312,-0.013386701,0.643965,-0.20681824,0
1.5100000000000011,11.588813567999479,-0.013386701671412869,0.6439649958509863,-0.2068182332320244,12.623247,0.16734889,0.030081546,-0.24538738,4.010187,-4.6855197,1.8174205,-0.4627628,0.056591008,-0.24387951,-0.8503946,-8.868253,8.771148,0.28528914,-0.013386701,0.643965,-0.20681824,0
1.5200000000000011,11.742284454408159,0.18248609053235681,-0.2547749489489257,-0.16812660114818073,12.817268,0.19038406,-0.6284294,-0.15344435,3.921579,-4.5975366,1.8202893,-0.46285048,0.05961197,-0.24525268,-0.84974533,-8.853412,8.825496,0.28846106,-0.013386701,0.643965,-0.20681824,0
1.5300000000000011,11.742284454408159,0.18248609053235681,-0.2547749489489257,-0.16812660114818073,12.817268,0.19038406,-0.6284294,-0.15344435,3.833119,-4.5090046,1.8231958,-0.4639309,0.05831325,-0.24538791,-0.8492071,-8.838521,8.88087,0.29283133,0.18248609,-0.25477496,-0.1681266,0
1.5400000000000011,11.742284454408159,0.18248609053235681,-0.2547749489489257,-0.16812660114818073,12.817268,0.19038406,-0.6284294,-0.15344435,3.7448096,-4.4199195,1.8261462,-0.4650098,0.057014354,-0.24552235,-0.84866613,-8.823287,8.936112,0.29722172,0.18248609,-0.25477496,-0.1681266,0
1.5500000000000012,11.742284454408159,0.18248609053235681,-0.2547749489489257,-0.16812660114818073,12.817268,0.19038406,-0.6284294,-0.15344435,3.6566544,-4.3302827,1.8291405,-0.46608728,0.055715278,-0.24565601,-0.8481225,-8.80771,8.991223,0.30163157,0.18248609,-0.25477496,-0.1681266,0
1.5600000000000012,11.896769261224943,0.24786586870698582,-0.2370698291050725,-0.09332821917187889,12.761358,0.060089137,-1.0985615,0.23895448,3.5686564,-4.2400956,1.832179,-0.4671633,0.054416023,-0.2457889,-0.84757614,-8.791789,9.046201,0.3060601,0.18248609,-0.25477496,-0.1681266,1
1.5700000000000012,11.896769261224943,0.24786586870698582,-0.2370698291050725,-0.09332821917187889,12.761358,0.060089137,-1.0985615,0.23895448,3.480827,-4.149337,1.8353068,-0.46750966,0.049325597,-0.24353865,-0.84834594,-8.773937,9.105469,0.31955618,0.060089137,-1.0985615,0.23895448,1
1.5800000000000012,11.896769261224943,0.24786586870698582,-0.2370698291050725,-0.09332821917187889,12.761358,0.060089137,-1.0985615,0.23895448,3.3931806,-4.0579906,1.8385715,-0.46784124,0.044233605,-0.24128067,-0.84908885,-8.755241,9.163693,0.3334625,0.060089137,-1.0985615,0.23895448,1
1.5900000000000012,11.896769261224943,0.24786586870698582,-0.2370698291050725,-0.09332821917187889,12.761358,0.060089137,-1.0985615,0.23895448,3.3057256,-3.966067,1.8419774,-0.46815792,0.039140213,-0.23901504,-0.8498048,-8.7357,9.22087,0.34776425,0.060089137,-1.0985615,0.23895448,1
1.6000000000000012,11.682613629697835,0.2764700140204424,0.17972813524530265,-0.07263776391656378,12.611393,-0.16208503,-1.8537213,0.41767353,3.2184699,-3.8735769,1.8455281,-0.4684598,0.03404558,-0.23674186,-0.85049385,-8.715313,9.276992,0.36244655,0.060089137,-1.0985615,0.23895448,0
1.6100000000000012,11.682613629697835,0.2764700140204424,0.17972813524530265,-0.07263776391656378,12.611393,-0.16208503,-1.8537213,0.41767353,3.1314125,-3.7805529,1.8491791,-0.46860236,0.03424823,-0.23832582,-0.8499647,-8.696112,9.32788,0.36773935,0.27647,0.17972814,-0.07263777,0
1.6200000000000012,11.682613629697835,0.2764700140204424,0.17972813524530265,-0.07263776391656378,12.611393,-0.16208503,-1.8537213,0.41767353,3.044548,-3.6870184,1.8528823,-0.46874356,0.034450777,-0.2399091,-0.849433,-8.6767645,9.379076,0.37285268,0.27647,0.17972814,-0.07263777,0
1.6300000000000012,11.682613629697835,0.2764700140204424,0.17972813524530265,-0.07263776391656378,12.611393,-0.16208503,-1.8537213,0.41767353,2.9578776,-3.5929704,1.8566355,-0.46888342,0.034653228,-0.24149169,-0.84889895,-8.657271,9.430579,0.3777854,0.27647,0.17972814,-0.07263777,0
1.6400000000000012,11.682613629697835,0.2764700140204424,0.17972813524530265,-0.07263776391656378,12.419147,-0.2788591,-2.4036791,0.057814065,2.871403,-3.4984057,1.8604372,-0.46902195,0.034855578,-0.24307358,-0.8483625,-8.637633,9.48239,0.38253647,0.27647,0.17972814,-0.07263777,0
1.6500000000000012,11.682613629697835,0.2764700140204424,0.17972813524530265,-0.07263776391656378,12.419147,-0.2788591,-2.4036791,0.057814065,2.7851253,-3.4033215,1.8642856,-0.46915913,0.035057828,-0.2446548,-0.8478236,-8.61785,9.534507,0.38710472,0.27647,0.17972814,-0.07263777,0
1.6600000000000013,11.682613629697835,0.2764700140204424,0.17972813524530265,-0.07263776391656378,12.419147,-0.2788591,-2.4036791,0.057814065,2.6990461,-3.3077147,1.8681787,-0.46929497,0.03525998,-0.24623531,-0.8472823,-8.597921,9.586928,0.39148903,0.27647,0.17972814,-0.07263777,0
1.6700000000000013,11.682613629697835,0.2764700140204424,0.17972813524530265,-0.07263776391656378,12.419147,-0.2788591,-2.4036791,0.057814065,2.613167,-3.2115822,1.8721148,-0.4694295,0.035462033,-0.2478151,-0.8467386,-8.577847,9.639655,0.39568833,0.27647,0.17972814,-0.07263777,0
1.6800000000000013,11.716588013471085,0.14187914224764953,0.003271704720537028,0.015335511071248182,12.686015,-0.3367717,-1.7682774,0.08298749,2.5274894,-3.1149209,1.8760918,-0.46956268,0.035663985,-0.2493942,-0.8461925,-8.557627,9.692687,0.39970154,0.27647,0.17972814,-0.07263777,0
1.6900000000000013,11.716588013471085,0.14187914224764953,0.003271704720537028,0.015335511071248182,12.686015,-0.3367717,-1.7682774,0.08298749,2.442015,-3.0177271,1.8801097,-0.46951887,0.03532559,-0.25000483,-0.84605074,-8.537207,9.746091,0.4038698,0.14187914,0.0032717048,0.015335511,0
1.7000000000000013,11.716588013471085,0.14187914224764953,0.003271704720537028,0.015335511071248182,12.686015,-0.3367717,-1.7682774,0.08298749,2.3567455,-2.919999,1.884169,-0.46947482,0.034987178,-0.25061533,-0.8459086,-8.516654,9.799571,0.40797222,0.14187914,0.0032717048,0.015335511,0
1.7100000000000013,11.716588013471085,0.14187914224764953,0.003271704720537028,0.015335511071248182,12.686015,-0.3367717,-1.7682774,0.08298749,2.2716823,-2.8217356,1.888269,-0.46943054,0.034648746,-0.2512257,-0.845766,-8.495968,9.853127,0.41200846,0.14187914,0.0032717048,0.015335511,0
1.7200000000000013,11.64173235958077,-0.10502450751154029,-0.20865376791471485,0.11387947730556894,12.902039,-0.530743,-1.8729578,0.10704106,2.1868267,-2.7229362,1.892409,-0.469386,0.0343103,-0.25183597,-0.845623,-8.47515,9.906755,0.4159784,0.14187914,0.0032717048,0.015335511,0
1.7300000000000013,11.64173235958077,-0.10502450751154029,-0.20865376791471485,0.11387947730556894,12.902039,-0.530743,-1.8729578,0.10704106,2.102179,-2.6236022,1.8965853,-0.46914884,0.033531155,-0.25092158,-0.84605765,-8.45437,9.959998,0.41929975,-0.10502451,-0.20865376,0.11387948,0
1.7400000000000013,11.64173235958077,-0.10502450751154029,-0.20865376791471485,0.11387947730556894,12.902039,-0.530743,-1.8729578,0.10704106,2.0177393,-2.5237367,1.9007953,-0.46891087,0.03275195,-0.2500067,-0.84649086,-8.433552,10.013,0.4227402,-0.10502451,-0.20865376,0.11387948,0
1.7500000000000013,11.64173235958077,-0.10502450751154029,-0.20865376791471485,0.11387947730556894,12.902039,-0.530743,-1.8729578,0.10704106,1.933508,-2.4233427,1.9050405,-0.46867213,0.031972688,-0.24909143,-0.84692264,-8.412698,10.06576,0.42629915,-0.10502451,-0.20865376,0.11387948,0
1.7600000000000013,11.49014926316006,-0.3727914678414487,-0.4865850063435989,0.22219521590045527,15.029244,-0.77695954,-3.834874,0.49790138,1.8494855,-2.3224223,1.9093218,-0.46843258,0.03119337,-0.24817574,-0.847353,-8.391807,10.118277,0.42997596,-0.10502451,-0.20865376,0.11387948,0
1.7700000000000014,11.49014926316006,-0.3727914678414487,-0.4865850063435989,0.22219521590045527,15.029244,-0.77695954,-3.834874,0.49790138,1.7656707,-2.2209816,1.9136342,-0.46803436,0.029729081,-0.24548998,-0.8484074,-8.371178,10.169727,0.4325222,-0.37279147,-0.48658502,0.22219522,0
1.7800000000000014,11.49014926316006,-0.3727914678414487,-0.4865850063435989,0.22219521590045527,15.029244,-0.77695954,-3.834874,0.49790138,1.682062,-2.1190298,1.9179735,-0.46763113,0.028264478,-0.24280162,-0.84945273,-8.350582,10.220552,0.4353922,-0.37279147,-0.48658502,0.22219522,0
1.7900000000000014,11.49014926316006,-0.3727914678414487,-0.4865850063435989,0.22219521590045527,15.029244,-0.77695954,-3.834874,0.49790138,1.598659,-2.016573,1.9223431,-0.46722296,0.026799574,-0.24011068,-0.8504891,-8.33002,10.270752,0.43858188,-0.37279147,-0.48658502,0.22219522,0
1.8000000000000014,11.292594892004743,-0.6404661072978534,-0.35327800363911077,0.3201255151314601,13.641821,-1.1996782,-1.5373968,0.6247596,1.5154616,-1.913617,1.9267464,-0.46680984,0.025334386,-0.23741719,-0.8515164,-8.309489,10.320321,0.4420872,-0.37279147,-0.48658502,0.22219522,0
1.8100000000000014,11.292594892004743,-0.6404661072978534,-0.35327800363911077,0.3201255151314601,13.641821,-1.1996782,-1.5373968,0.6247596,1.4324671,-1.8101729,1.9311774,-0.4657814,0.024944937,-0.23390445,-0.85306185,-8.289466,10.368412,0.44417992,-0.6404661,-0.353278,0.32012552,0
1.8200000000000014,11.292594892004743,-0.6404661072978534,-0.35327800363911077,0.3201255151314601,13.641821,-1.1996782,-1.5373968,0.6247596,1.3496711,-1.706251,1.9356313,-0.46474552,0.02455509,-0.23038799,-0.8545937,-8.2698,10.41586,0.44664901,-0.6404661,-0.353278,0.32012552,0
1.8300000000000014,11.292594892004743,-0.6404661072978534,-0.35327800363911077,0.3201255151314601,13.641821,-1.1996782,-1.5373968,0.6247596,1.2670699,-1.6018579,1.9401116,-0.46370226,0.024164855,-0.22686785,-0.8561119,-8.250491,10.462663,0.4494892,-0.6404661,-0.353278,0.32012552,0
1.8400000000000014,11.292594892004743,-0.6404661072978534,-0.35327800363911077,0.3201255151314601,13.735611,-1.4292046,-2.1642838,0.6300501,1.1846602,-1.4970001,1.9446224,-0.4626516,0.023774233,-0.22334412,-0.8576165,-8.231537,10.508816,0.45269522,-0.6404661,-0.353278,0.32012552,0
1.8500000000000014,11.292594892004743,-0.6404661072978534,-0.35327800363911077,0.3201255151314601,13.735611,-1.4292046,-2.1642838,0.6300501,1.1024381,-1.3916839,1.949167,-0.46159357,0.023383232,-0.2198168,-0.85910743,-8.212937,10.554316,0.45626178,-0.6404661,-0.353278,0.32012552,0
1.8600000000000014,11.292594892004743,-0.6404661072978534,-0.35327800363911077,0.3201255151314601,13.735611,-1.4292046,-2.1642838,0.6300501,1.0204002,-1.2859161,1.953749,-0.4605282,0.022991857,-0.21628599,-0.8605846,-8.19469,10.599158,0.46018356,-0.6404661,-0.353278,0.32012552,0
1.8700000000000014,11.292594892004743,-0.6404661072978534,-0.35327800363911077,0.3201255151314601,13.735611,-1.4292046,-2.1642838,0.6300501,0.938543,-1.1797031,1.958372,-0.45945546,0.022600116,-0.21275172,-0.86204815,-8.176793,10.64334,0.46445525,-0.6404661,-0.353278,0.32012552,0
1.8800000000000014,11.027300112093483,-0.8931330048190538,-0.42284343771431704,0.43049372720762535,13.573972,-1.4996003,-2.4207425,0.76761,0.8568631,-1.0730516,1.9630394,-0.45837542,0.022208015,-0.20921406,-0.8634979,-8.159247,10.686857,0.4690714,-0.6404661,-0.353278,0.32012552,0
1.8900000000000015,11.027300112093483,-0.8931330048190538,-0.42284343771431704,0.43049372720762535,13.573972,-1.4996003,-2.4207425,0.76761,0.7753546,-0.9659735,1.9677426,-0.45685324,0.021978697,-0.20443365,-0.86545324,-8.14252,10.728626,0.47164732,-0.893133,-0.42284343,0.4304937,0
1.9000000000000015,11.027300112093483,-0.8931330048190538,-0.42284343771431704,0.43049372720762535,13.573972,-1.4996003,-2.4207425,0.76761,0.69401085,-0.858482,1.9724739,-0.45531783,0.02174874,-0.1996473,-0.8673834,-8.12631,10.76954,0.474658,-0.893133,-0.42284343,0.4304937,0
1.9100000000000015,11.027300112093483,-0.8931330048190538,-0.42284343771431704,0.43049372720762535,13.573972,-1.4996003,-2.4207425,0.76761,0.61282665,-0.7505857,1.9772372,-0.4537692,0.021518148,-0.19485515,-0.8692884,-8.110615,10.809591,0.47809386,-0.893133,-0.42284343,0.4304937,0
1.9200000000000015,10.703705195274853,-1.251495609056493,-0.6685741077669056,0.5516444348874092,13.466168,-1.6860527,-2.2825203,0.7756879,0.5317968,-0.6422932,1.9820372,-0.4522074,0.021286935,-0.19005734,-0.8711681,-8.095431,10.848776,0.48194525,-0.893133,-0.42284343,0.4304937,0
1.9300000000000015,10.703705195274853,-1.251495609056493,-0.6685741077669056,0.5516444348874092,13.466168,-1.6860527,-2.2825203,0.7756879,0.45091397,-0.53361934,1.9868628,-0.45029354,0.020679578,-0.18314762,-0.8736506,-8.081244,10.885811,0.48326316,-1.2514956,-0.6685741,0.55164444,0
1.9400000000000015,10.703705195274853,-1.251495609056493,-0.6685741077669056,0.5516444348874092,13.466168,-1.6860527,-2.2825203,0.7756879,0.37016976,-0.42458138,1.9917043,-0.44835365,0.020071024,-0.1762273,-0.8760825,-8.067697,10.921583,0.48513114,-1.2514956,-0.6685741,0.55164444,0
1.9500000000000015,10.703705195274853,-1.251495609056493,-0.6685741077669056,0.5516444348874092,13.466168,-1.6860527,-2.2825203,0.7756879,0.28955784,-0.31519204,1.9965672,-0.44638774,0.019461308,-0.16929677,-0.87846357,-8.054784,10.956081,0.4875294,-1.2514956,-0.6685741,0.55164444,0
1.9600000000000015,10.37280957947562,-1.5760375465092444,-0.9805814446379348,0.7024258929686615,13.607351,-1.8312509,-2.6000454,0.8546198,0.2090719,-0.20546415,2.0014567,-0.444396,0.018850463,-0.16235642,-0.88079375,-8.042501,10.989295,0.49043792,-1.2514956,-0.6685741,0.55164444,0
1.9700000000000015,10.37280957947562,-1.5760375465092444,-0.9805814446379348,0.7024258929686615,13.607351,-1.8312509,-2.6000454,0.8546198,0.12870377,-0.09541604,2.0063622,-0.44192818,0.017462814,-0.15329513,-0.88368297,-8.031229,11.020063,0.49075294,-1.5760375,-0.98058146,0.7024259,0
1.9800000000000015,10.37280957947562,-1.5760375465092444,-0.9805814446379348,0.7024258929686615,13.607351,-1.8312509,-2.6000454,0.8546198,0.048445016,0.014931245,2.0112739,-0.43941686,0.016073447,-0.14421874,-0.8864851,-8.020625,11.049126,0.49165905,-1.5760375,-0.98058146,0.7024259,0
1.9900000000000015,10.37280957947562,-1.5760375465092444,-0.9805814446379348,0.7024258929686615,13.607351,-1.8312509,-2.6000454,0.8546198,-0.031711005,0.12556057,2.0161974,-0.43686226,0.014682497,-0.13512816,-0.8891999,-8.01068,11.076467,0.49312222,-1.5760375,-0.98058146,0.7024259,0
2.0000000000000013,,,,,13.239023,-2.062688,-2.2798247,0.5151866,-0.11177082,0.23645462,2.0211382,-0.4342646,0.013290101,-0.12602426,-0.8918273,-8.001384,11.102071,0.4951082,-1.5760375,-0.98058146,0.7024259,0
2.010000000000001,,,,,13.239023,-2.062688,-2.2798247,0.5151866,-0.19174196,0.3475921,2.0260875,-0.43109828,0.0101031745,-0.114766076,-0.89491975,-7.992921,11.12507,0.49484643,-1.8176854,-1.4746952,0.88377225,0
2.020000000000001,,,,,13.239023,-2.062688,-2.2798247,0.5151866,-0.27163094,0.4589483,2.0310369,-0.42786455,0.006914668,-0.10348993,-0.8978722,-7.984945,11.145822,0.49512613,-1.8176854,-1.4746952,0.88377225,0
2.0300000000000007,,,,,13.239023,-2.062688,-2.2798247,0.5151866,-0.3514425,0.5705008,2.0359917,-0.4245638,0.0037250784,-0.09219758,-0.9006841,-7.977439,11.164312,0.49589273,-1.8176854,-1.4746952,0.88377225,0
2.0400000000000005,,,,,13.239023,-2.062688,-2.2798247,0.5151866,-0.43118125,0.68222684,2.0409563,-0.4211966,0.000534906,-0.08089081,-0.9033551,-7.970387,11.180528,0.49709132,-1.8176854,-1.4746952,0.88377225,0
2.0500000000000003,,,,,13.2616,-2.1450922,-2.3603868,0.5788905,-0.51085174,0.79410356,2.0459347,-0.41776353,-0.0026553506,-0.06957138,-0.9058847,-7.9637737,11.194453,0.4986667,-1.8176854,-1.4746952,0.88377225,1
2.06,,,,,13.2616,-2.1450922,-2.3603868,0.5788905,-0.5904479,0.90612555,2.0510879,-0.41593623,-0.009066578,-0.054908756,-0.9076897,-7.9554687,11.2093,0.5320817,-2.1450922,-2.3603868,0.5788905,1
2.07,,,,,13.2616,-2.1450922,-2.3603868,0.5788905,-0.66996145,1.018275,2.0565774,-0.41399968,-0.015475425,-0.0402317,-0.9092562,-7.9472632,11.219939,0.56591004,-2.1450922,-2.3603868,0.5788905,1
2.0799999999999996,,,,,13.2616,-2.1450922,-2.3603868,0.5788905,-0.7493934,1.1305097,2.062407,-0.41195437,-0.021880204,-0.02554408,-0.9105839,-7.9391427,11.226358,0.6000161,-2.1450922,-2.3603868,0.5788905,1
2.0899999999999994,,,,,13.101634,-2.0931723,-2.1700208,0.50121087,-0.8287445,1.2427876,2.0685782,-0.4098009,-0.028279236,-0.010849748,-0.9116724,-7.9310904,11.228551,0.63426393,-2.1450922,-2.3603868,0.5788905,1
2.099999999999999,,,,,13.101634,-2.0931723,-2.1700208,0.50121087,-0.90801597,1.3550667,2.0750842,-0.4078821,-0.033905726,0.0032096603,-0.91239965,-7.9232297,11.226625,0.66692543,-2.0931723,-2.1700208,0.50121087,1
2.109999999999999,,,,,13.101634,-2.0931723,-2.1700208,0.50121087,-0.9872096,1.4673066,2.0819163,-0.40586802,-0.039524302,0.017268319,-0.9129138,-7.915522,11.220756,0.6994783,-2.0931723,-2.1700208,0.50121087,1
2.1199999999999988,,,,,13.101634,-2.0931723,-2.1700208,0.50121087,-1.066327,1.5794681,2.089073,-0.4037592,-0.045133643,0.031322945,-0.91321474,-7.907954,11.210944,0.7318027,-2.0931723,-2.1700208,0.50121087,1
2.1299999999999986,,,,,12.004712,-2.3229592,-1.954826,0.36449283,-1.1453692,1.6915118,2.0965514,-0.40155607,-0.050732445,0.04537026,-0.9133024,-7.9005136,11.1972,0.76377887,-2.0931723,-2.1700208,0.50121087,1
2.1399999999999983,,,,,12.004712,-2.3229592,-1.954826,0.36449283,-1.2243412,1.8034055,2.104293,-0.39999053,-0.054906413,0.059989523,-0.9129047,-7.893943,11.181016,0.78444403,-2.3229592,-1.954826,0.36449283,1
