time-since-start [s],throttle_mpc,roll_mpc,pitch_mpc,yaw_mpc,throttle_nw,roll_nw,pitch_nw,yaw_nw,position_x [m],position_y [m],position_z [m],rotation_w [quaternion],rotation_x [quaternion],rotation_y [quaternion],rotation_z [quaternion],velocity_x [m/s],velocity_y [m/s],velocity_z [m/s],omega_x [rad/s],omega_y [rad/s],omega_z [rad/s],network_used
0.0,8.76296741381637,5.99999968663462,-5.999999869669543,-0.9678370159303817,593.5311,2530.2346,773.8156,97.42484,20.259338,-9.049643,2.127388,-0.038632873,-0.4913106,0.1774246,0.85184616,-9.612645,-6.2047634,-0.06984365,1.6413139,-0.38879362,-0.1760042,0
0.01,8.76296741381637,5.99999968663462,-5.999999869669543,-0.9678370159303817,406.29233,1939.4418,358.28708,-670.03406,20.162842,-9.1115675,2.1264007,-0.014420709,-0.46733207,0.2015923,0.86067027,-9.685908,-6.17931,-0.12720902,5.9999995,-6.0,-0.96783704,0
0.02,8.76296741381637,5.99999968663462,-5.999999869669543,-0.9678370159303817,406.29233,1939.4418,358.28708,-670.03406,20.065634,-9.173207,2.1248517,0.0098177465,-0.44250154,0.22539246,0.8679253,-9.755421,-6.14788,-0.18224165,5.9999995,-6.0,-0.96783704,0
0.03,8.76296741381637,5.99999968663462,-5.999999869669543,-0.9678370159303817,406.29233,1939.4418,358.28708,-670.03406,19.967749,-9.234505,2.1227632,0.0340383,-0.41686425,0.24878171,0.8735979,-9.8206625,-6.1107364,-0.23519254,5.9999995,-6.0,-0.96783704,0
0.04,8.76296741381637,5.99999968663462,-5.999999869669543,-0.9678370159303817,284.09747,1667.6222,261.8019,-1215.0062,19.869236,-9.295404,2.1201544,0.058196798,-0.39046696,0.2717174,0.87767786,-9.881144,-6.0681815,-0.2863279,5.9999995,-6.0,-0.96783704,0
0.05,8.76296741381637,5.99999968663462,-5.999999869669543,-0.9678370159303817,284.09747,1667.6222,261.8019,-1215.0062,19.770145,-9.355852,2.117042,0.082249194,-0.3633578,0.2941577,0.88015765,-9.936411,-6.02056,-0.33592716,5.9999995,-6.0,-0.96783704,0
0.060000000000000005,8.76296741381637,5.99999968663462,-5.999999869669543,-0.9678370159303817,284.09747,1667.6222,261.8019,-1215.0062,19.67053,-9.415799,2.11344,0.10615164,-0.3355862,0.3160617,0.88103276,-9.986048,-5.9682517,-0.38428098,5.9999995,-6.0,-0.96783704,0
0.07,8.76296741381637,5.99999968663462,-5.999999869669543,-0.9678370159303817,284.09747,1667.6222,261.8019,-1215.0062,19.570448,-9.475202,2.1093595,0.12986055,-0.30720276,0.3373895,0.88030165,-10.029678,-5.911671,-0.43168905,5.9999995,-6.0,-0.96783704,0
0.08,16.477230323808232,5.999999396590121,-5.999999769579453,-0.1646576870425866,15.473859,2.177879,-4.407755,-1.994775,19.46996,-9.534019,2.1048083,0.15333271,-0.27825928,0.35810217,0.8779656,-10.066972,-5.851264,-0.478458,5.9999995,-6.0,-0.96783704,0
0.09,16.477230323808232,5.999999396590121,-5.999999769579453,-0.1646576870425866,15.473859,2.177879,-4.407755,-1.994775,19.368992,-9.591937,2.1000187,0.17300239,-0.24737385,0.37928325,0.87465453,-10.124641,-5.731366,-0.4794323,5.9999995,-6.0,-0.16465768,0
0.09999999999999999,16.477230323808232,5.999999396590121,-5.999999769579453,-0.1646576870425866,15.473859,2.177879,-4.407755,-1.994775,19.267511,-9.648629,2.0952199,0.19236061,-0.21604306,0.3997815,0.86976874,-10.169434,-5.606046,-0.48045912,5.9999995,-6.0,-0.16465768,0
0.10999999999999999,16.477230323808232,5.999999396590121,-5.999999769579453,-0.1646576870425866,15.473859,2.177879,-4.407755,-1.994775,19.16565,-9.704043,2.0904071,0.2113725,-0.1843233,0.41955993,0.8633169,-10.20102,-5.4762177,-0.48221833,5.9999995,-6.0,-0.16465768,0
0.11999999999999998,16.477230323808232,5.999999396590121,-5.999999769579453,-0.1646576870425866,15.473859,2.177879,-4.407755,-1.994775,19.06354,-9.758141,2.0855703,0.23000383,-0.15227167,0.438583,0.8553108,-10.219169,-5.342828,-0.48538455,5.9999995,-6.0,-0.16465768,0
0.12999999999999998,20.999992822280063,3.6269447704894446,-5.999998769337384,0.009329362910728788,17.19865,1.4739726,-1.2653476,-1.5219761,18.961313,-9.810891,2.0806925,0.24822105,-0.1199459,0.4568164,0.8457648,-10.2237425,-5.2068486,-0.49062237,5.9999995,-6.0,-0.16465768,0
0.13999999999999999,20.999992822280063,3.6269447704894446,-5.999998769337384,0.009329362910728788,17.19865,1.4739726,-1.2653476,-1.5219761,18.859118,-9.862086,2.0758772,0.26390553,-0.08998266,0.4644308,0.8405719,-10.213211,-5.0323205,-0.4724805,3.6269448,-5.9999986,0.009329363,0
0.15,20.999992822280063,3.6269447704894446,-5.999998769337384,0.009329362910728788,17.19865,1.4739726,-1.2653476,-1.5219761,18.757101,-9.911541,2.0712411,0.27926576,-0.059908852,0.47147453,0.8343461,-10.188017,-4.858952,-0.45485735,3.6269448,-5.9999986,0.009329363,0
0.16,20.999989849576973,0.6726816283763609,-2.2742464758842535,-0.18666976000355806,16.563345,-1.455899,-0.22581664,-0.5799142,18.655409,-9.959271,2.0667763,0.29428282,-0.029761437,0.47793895,0.8270951,-10.148284,-4.687595,-0.4383227,3.6269448,-5.9999986,0.009329363,0
0.17,20.999989849576973,0.6726816283763609,-2.2742464758842535,-0.18666976000355806,16.563345,-1.455899,-0.22581664,-0.5799142,18.554174,-10.005301,2.0624714,0.3005687,-0.019810766,0.4773129,0.82549286,-10.097803,-4.518526,-0.42255726,0.6726816,-2.2742465,-0.18666977,0
0.18000000000000002,20.999989849576973,0.6726816283763609,-2.2742464758842535,-0.18666976000355806,16.563345,-1.455899,-0.22581664,-0.5799142,18.453468,-10.049648,2.0583265,0.30681202,-0.009857293,0.47661927,0.8237738,-10.042681,-4.351211,-0.4063546,0.6726816,-2.2742465,-0.18666977,0
0.19000000000000003,20.999989849576973,0.6726816283763609,-2.2742464758842535,-0.18666976000355806,16.563345,-1.455899,-0.22581664,-0.5799142,18.353336,-10.092332,2.0543456,0.31301194,9.7574666e-05,0.47585824,0.8219382,-9.982951,-4.1857476,-0.38977122,0.6726816,-2.2742465,-0.18666977,0
0.20000000000000004,20.027480736022884,-0.13347340275081662,0.10851878743565926,-0.3918201999510272,16.149975,-2.2379665,3.1779966,-0.90577996,18.253824,-10.133369,2.050532,0.31916758,0.010052429,0.47502992,0.81998634,-9.918651,-4.0222335,-0.37286395,0.6726816,-2.2742465,-0.18666977,0
0.21000000000000005,20.027480736022884,-0.13347340275081662,0.10851878743565926,-0.3918201999510272,16.149975,-2.2379665,3.1779966,-0.90577996,18.154959,-10.172818,2.0468621,0.32052222,0.008463855,0.47467446,0.81968164,-9.854736,-3.8674884,-0.36105978,-0.1334734,0.10851879,-0.3918202,0
0.22000000000000006,20.027480736022884,-0.13347340275081662,0.10851878743565926,-0.3918201999510272,16.149975,-2.2379665,3.1779966,-0.90577996,18.05673,-10.210719,2.0433114,0.32187542,0.006875241,0.47431684,0.81937313,-9.791133,-3.7127192,-0.3491091,-0.1334734,0.10851879,-0.3918202,0
0.23000000000000007,20.027480736022884,-0.13347340275081662,0.10851878743565926,-0.3918201999510272,16.149975,-2.2379665,3.1779966,-0.90577996,17.959135,-10.247073,2.0398805,0.32322717,0.005286596,0.47395706,0.819061,-9.727841,-3.557926,-0.3370132,-0.1334734,0.10851879,-0.3918202,0
0.24000000000000007,20.027480736022884,-0.13347340275081662,0.10851878743565926,-0.3918201999510272,15.932734,-2.4002125,4.148743,-0.9539709,17.862173,-10.281878,2.0365713,0.3245774,0.0036979264,0.47359508,0.8187451,-9.664862,-3.403108,-0.32477343,-0.1334734,0.10851879,-0.3918202,0
0.25000000000000006,20.027480736022884,-0.13347340275081662,0.10851878743565926,-0.3918201999510272,15.932734,-2.4002125,4.148743,-0.9539709,17.765837,-10.315135,2.0333853,0.32592618,0.0021092403,0.47323096,0.81842536,-9.602194,-3.2482646,-0.31239104,-0.1334734,0.10851879,-0.3918202,0
0.26000000000000006,20.027480736022884,-0.13347340275081662,0.10851878743565926,-0.3918201999510272,15.932734,-2.4002125,4.148743,-0.9539709,17.670126,-10.346843,2.0303237,0.32727343,0.0005205444,0.47286466,0.8181019,-9.53984,-3.0933957,-0.29986733,-0.1334734,0.10851879,-0.3918202,0
0.2700000000000001,20.027480736022884,-0.13347340275081662,0.10851878743565926,-0.3918201999510272,15.932734,-2.4002125,4.148743,-0.9539709,17.575037,-10.377002,2.027388,0.3286192,-0.0010681538,0.47249618,0.8177748,-9.477799,-2.9385011,-0.28720364,-0.1334734,0.10851879,-0.3918202,0
0.2800000000000001,18.72587666663599,-0.7887195386943281,1.654489055155308,-0.5316785747652791,16.29145,-2.4397302,4.303682,-0.96724594,17.480568,-10.405612,2.02458,0.32996348,-0.002656847,0.47212556,0.81744385,-9.416074,-2.78358,-0.27440125,-0.1334734,0.10851879,-0.3918202,0
0.2900000000000001,18.72587666663599,-0.7887195386943281,1.654489055155308,-0.5316785747652791,16.29145,-2.4397302,4.303682,-0.96724594,17.386692,-10.432722,2.0218644,0.32820544,-0.011975182,0.47160295,0.8183694,-9.359755,-2.6382787,-0.26867202,-0.78871953,1.654489,-0.53167856,0
0.3000000000000001,18.72587666663599,-0.7887195386943281,1.654489055155308,-0.5316785747652791,16.29145,-2.4397302,4.303682,-0.96724594,17.293364,-10.458372,2.0192068,0.32641754,-0.02129243,0.47103742,0.81922036,-9.306672,-2.4918451,-0.26282793,-0.78871953,1.654489,-0.53167856,0
0.3100000000000001,18.72587666663599,-0.7887195386943281,1.654489055155308,-0.5316785747652791,16.29145,-2.4397302,4.303682,-0.96724594,17.20055,-10.482554,2.016608,0.32459992,-0.030607738,0.47042897,0.8199968,-9.256843,-2.3443182,-0.25691906,-0.78871953,1.654489,-0.53167856,0
0.3200000000000001,17.79072162768362,-1.429440603886026,3.0092534120768577,-0.5947727273611984,16.24727,-2.8183818,4.921561,-0.91361463,17.108215,-10.505256,2.0140684,0.32275274,-0.039920256,0.4697777,0.8206985,-9.21028,-2.1957383,-0.2509955,-0.78871953,1.654489,-0.53167856,0
0.3300000000000001,17.79072162768362,-1.429440603886026,3.0092534120768577,-0.5947727273611984,16.24727,-2.8183818,4.921561,-0.91361463,17.016317,-10.526503,2.0115619,0.31779367,-0.055966057,0.4685823,0.82237804,-9.170116,-2.053332,-0.25032514,-1.4294406,3.0092535,-0.59477276,0
0.34000000000000014,17.79072162768362,-1.429440603886026,3.0092534120768577,-0.5947727273611984,16.24727,-2.8183818,4.921561,-0.91361463,16.924793,-10.546318,2.0090613,0.31274366,-0.07199584,0.46725273,0.82382214,-9.13565,-1.9093035,-0.24985524,-1.4294406,3.0092535,-0.59477276,0
0.35000000000000014,17.79072162768362,-1.429440603886026,3.0092534120768577,-0.5947727273611984,16.24727,-2.8183818,4.921561,-0.91361463,16.833586,-10.564685,2.0065634,0.3076041,-0.088005,0.46578944,0.8250303,-9.106911,-1.7637941,-0.24972437,-1.4294406,3.0092535,-0.59477276,0
0.36000000000000015,17.323964941789324,-1.5229769586531285,2.64980758490074,-0.6421203784567862,15.952144,-2.8765883,4.744782,-1.1678089,16.742638,-10.58159,2.004065,0.30237645,-0.10398896,0.46419272,0.82600236,-9.083925,-1.6169466,-0.25007093,-1.4294406,3.0092535,-0.59477276,0
0.37000000000000016,17.323964941789324,-1.5229769586531285,2.64980758490074,-0.6421203784567862,15.952144,-2.8765883,4.744782,-1.1678089,16.651888,-10.597039,2.0015478,0.29804978,-0.11871233,0.46151862,0.8270878,-9.067015,-1.4729046,-0.25343087,-1.522977,2.6498077,-0.64212036,0
0.38000000000000017,17.323964941789324,-1.5229769586531285,2.64980758490074,-0.6421203784567862,15.952144,-2.8765883,4.744782,-1.1678089,16.56128,-10.611045,1.9989955,0.29365045,-0.13340674,0.45873204,0.8279716,-9.055338,-1.3281333,-0.25711298,-1.522977,2.6498077,-0.64212036,0
0.3900000000000002,17.323964941789324,-1.5229769586531285,2.64980758490074,-0.6421203784567862,15.952144,-2.8765883,4.744782,-1.1678089,16.470762,-10.6236,1.9964043,0.2891795,-0.14806864,0.45583358,0.82865345,-9.048902,-1.1827501,-0.26123387,-1.522977,2.6498077,-0.64212036,0
0.4000000000000002,17.10087111392791,-1.354879417845332,1.6976227599376936,-0.6675277552505244,15.809528,-2.687271,3.696601,-1.4775473,16.380283,-10.634699,1.993769,0.28463805,-0.16269441,0.45282397,0.8291334,-9.047708,-1.0368726,-0.2659097,-1.522977,2.6498077,-0.64212036,0
0.4100000000000002,17.10087111392791,-1.354879417845332,1.6976227599376936,-0.6675277552505244,15.809528,-2.687271,3.696601,-1.4775473,16.289793,-10.644346,1.9910785,0.28244132,-0.17316107,0.449051,0.82981646,-9.051153,-0.89264745,-0.27219394,-1.3548794,1.6976228,-0.66752774,0
0.4200000000000002,17.10087111392791,-1.354879417845332,1.6976227599376936,-0.6675277552505244,15.809528,-2.687271,3.696601,-1.4775473,16.199247,-10.652552,1.9883249,0.28020808,-0.1836054,0.44522002,0.8303924,-9.058311,-0.748519,-0.27854076,-1.3548794,1.6976228,-0.66752774,0
0.4300000000000002,17.10087111392791,-1.354879417845332,1.6976227599376936,-0.6675277552505244,15.809528,-2.687271,3.696601,-1.4775473,16.108614,-10.659317,1.9855072,0.2779387,-0.19402604,0.4413316,0.8308612,-9.069178,-0.604542,-0.28501433,-1.3548794,1.6976228,-0.66752774,0
0.4400000000000002,17.10087111392791,-1.354879417845332,1.6976227599376936,-0.6675277552505244,15.671749,-2.6294048,2.9299843,-1.5092146,16.01785,-10.664643,1.982624,0.27563345,-0.20442161,0.43738618,0.8312228,-9.083749,-0.46077096,-0.2916788,-1.3548794,1.6976228,-0.66752774,0
0.45000000000000023,17.10087111392791,-1.354879417845332,1.6976227599376936,-0.6675277552505244,15.671749,-2.6294048,2.9299843,-1.5092146,15.926926,-10.668534,1.9796728,0.2732926,-0.21479079,0.43338433,0.83147705,-9.102017,-0.31726035,-0.29859814,-1.3548794,1.6976228,-0.66752774,0
0.46000000000000024,17.10087111392791,-1.354879417845332,1.6976227599376936,-0.6675277552505244,15.671749,-2.6294048,2.9299843,-1.5092146,15.835799,-10.670991,1.9766508,0.27091646,-0.22513226,0.42932653,0.831624,-9.123972,-0.17406452,-0.30583635,-1.3548794,1.6976228,-0.66752774,0
0.47000000000000025,17.10087111392791,-1.354879417845332,1.6976227599376936,-0.6675277552505244,15.671749,-2.6294048,2.9299843,-1.5092146,15.744434,-10.672017,1.9735547,0.2685054,-0.23544466,0.42521337,0.83166355,-9.149602,-0.0312377,-0.31345716,-1.3548794,1.6976228,-0.66752774,0
0.48000000000000026,16.95743978188317,-1.0547202977990011,0.7126065351773699,-0.6346741137362505,15.776446,-2.5000408,2.1054993,-1.5678664,15.652795,-10.671617,1.9703803,0.26605964,-0.24572666,0.42104527,0.8315958,-9.178895,0.11116611,-0.32152402,-1.3548794,1.6976228,-0.66752774,0
0.49000000000000027,16.95743978188317,-1.0547202977990011,0.7126065351773699,-0.6346741137362505,15.776446,-2.5000408,2.1054993,-1.5678664,15.560847,-10.669801,1.9671197,0.2658958,-0.2514226,0.41681734,0.8320753,-9.210975,0.25185537,-0.33055958,-1.0547203,0.71260655,-0.63467413,0
0.5000000000000002,16.95743978188317,-1.0547202977990011,0.7126065351773699,-0.6346741137362505,15.776446,-2.5000408,2.1054993,-1.5678664,15.468569,-10.666581,1.9637699,0.26571855,-0.25710586,0.41256836,0.8325128,-9.245107,0.39191395,-0.33936387,-1.0547203,0.71260655,-0.63467413,0
0.5100000000000002,16.95743978188317,-1.0547202977990011,0.7126065351773699,-0.6346741137362505,15.776446,-2.5000408,2.1054993,-1.5678664,15.375939,-10.661964,1.9603331,0.2655278,-0.2627761,0.4082985,0.83290815,-9.281288,0.5313257,-0.3479629,-1.0547203,0.71260655,-0.63467413,0
0.5200000000000002,16.886379063822982,-0.6713169234098569,-0.1617908710124218,-0.5901079334819107,15.895572,-2.292365,1.1598997,-1.4513513,15.282937,-10.655958,1.9568112,0.26532367,-0.26843306,0.40400797,0.83326143,-9.319515,0.67007464,-0.35638273,-1.0547203,0.71260655,-0.63467413,0
0.5300000000000002,16.886379063822982,-0.6713169234098569,-0.1617908710124218,-0.5901079334819107,15.895572,-2.292365,1.1598997,-1.4513513,15.189546,-10.648569,1.9532046,0.26720533,-0.26983884,0.40020025,0.8340432,-9.359062,0.807572,-0.36478645,-0.6713169,-0.16179088,-0.5901079,0
0.5400000000000003,16.886379063822982,-0.6713169234098569,-0.1617908710124218,-0.5901079334819107,15.895572,-2.292365,1.1598997,-1.4513513,15.095756,-10.639809,1.949518,0.26908144,-0.27123904,0.39638427,0.8348078,-9.399164,0.9443988,-0.3724145,-0.6713169,-0.16179088,-0.5901079,0
0.5500000000000003,16.886379063822982,-0.6713169234098569,-0.1617908710124218,-0.5901079334819107,15.895572,-2.292365,1.1598997,-1.4513513,15.00156,-10.6296835,1.9457588,0.27095202,-0.27263367,0.3925601,0.83555526,-9.439825,1.080549,-0.3792748,-0.6713169,-0.16179088,-0.5901079,0
0.5600000000000003,16.6575898791982,-0.38009798215426727,-0.7295272431997922,-0.5193751470188299,15.739166,-2.0790572,0.61163366,-1.292213,14.906958,-10.6182,1.9419348,0.27281702,-0.27402267,0.3887278,0.83628535,-9.481049,1.216017,-0.3853753,-0.6713169,-0.16179088,-0.5901079,0
0.5700000000000003,16.6575898791982,-0.38009798215426727,-0.7295272431997922,-0.5193751470188299,15.739166,-2.0790572,0.61163366,-1.292213,14.811943,-10.605374,1.9380479,0.27588266,-0.27249694,0.38542712,0.8373053,-9.521904,1.3489836,-0.39183378,-0.380098,-0.72952724,-0.51937515,0
0.5800000000000003,16.6575898791982,-0.38009798215426727,-0.7295272431997922,-0.5193751470188299,15.739166,-2.0790572,0.61163366,-1.292213,14.716522,-10.591222,1.934102,0.27894178,-0.27096474,0.38211733,0.8383054,-9.562333,1.481297,-0.39716515,-0.380098,-0.72952724,-0.51937515,0
0.5900000000000003,16.6575898791982,-0.38009798215426727,-0.7295272431997922,-0.5193751470188299,15.739166,-2.0790572,0.61163366,-1.292213,14.620698,-10.57575,1.9301084,0.28199428,-0.26942614,0.37879848,0.8392857,-9.602342,1.6129454,-0.4013748,-0.380098,-0.72952724,-0.51937515,0
0.6000000000000003,16.578218965180586,-0.18147126502260866,-0.7098520419462515,-0.45983673126117824,15.545759,-1.8660834,0.2181383,-1.0650145,14.524476,-10.558966,1.9260783,0.2850401,-0.26788118,0.37547067,0.84024614,-9.6419325,1.7439175,-0.40446818,-0.380098,-0.72952724,-0.51937515,0
0.6100000000000003,16.578218965180586,-0.18147126502260866,-0.7098520419462515,-0.45983673126117824,15.545759,-1.8660834,0.2181383,-1.0650145,14.427861,-10.540878,1.9220204,0.2880589,-0.26601836,0.37307718,0.8408744,-9.68085,1.8736529,-0.40697584,-0.18147126,-0.70985204,-0.45983672,0
0.6200000000000003,16.578218965180586,-0.18147126502260866,-0.7098520419462515,-0.45983673126117824,15.545759,-1.8660834,0.2181383,-1.0650145,14.33086,-10.521495,1.917942,0.2910723,-0.26415053,0.3706767,0.8414869,-9.719157,2.0028858,-0.408561,-0.18147126,-0.70985204,-0.45983672,0
0.6300000000000003,16.578218965180586,-0.18147126502260866,-0.7098520419462515,-0.45983673126117824,15.545759,-1.8660834,0.2181383,-1.0650145,14.2334795,-10.500822,1.9138525,0.29408026,-0.26227778,0.36826926,0.84208363,-9.756856,2.1316068,-0.40922716,-0.18147126,-0.70985204,-0.45983672,0
0.6400000000000003,16.578218965180586,-0.18147126502260866,-0.7098520419462515,-0.45983673126117824,15.279363,-1.6867607,0.10929102,-0.84732914,14.135725,-10.478865,1.9097608,0.29708272,-0.26040012,0.36585498,0.84266466,-9.79395,2.2598062,-0.408978,-0.18147126,-0.70985204,-0.45983672,0
0.6500000000000004,16.578218965180586,-0.18147126502260866,-0.7098520419462515,-0.45983673126117824,15.279363,-1.6867607,0.10929102,-0.84732914,14.037603,-10.455627,1.9056761,0.3000796,-0.25851756,0.36343384,0.84322995,-9.830442,2.3874743,-0.40781713,-0.18147126,-0.70985204,-0.45983672,0
0.6600000000000004,16.578218965180586,-0.18147126502260866,-0.7098520419462515,-0.45983673126117824,15.279363,-1.6867607,0.10929102,-0.84732914,13.939119,-10.431117,1.9016076,0.3030709,-0.25663018,0.3610059,0.84377944,-9.866336,2.5146022,-0.40574837,-0.18147126,-0.70985204,-0.45983672,0
0.6700000000000004,16.578218965180586,-0.18147126502260866,-0.7098520419462515,-0.45983673126117824,15.279363,-1.6867607,0.10929102,-0.84732914,13.840279,-10.405339,1.8975644,0.3060565,-0.25473797,0.35857117,0.84431314,-9.901631,2.64118,-0.40277544,-0.18147126,-0.70985204,-0.45983672,0
0.6800000000000004,16.338530164358314,-0.09164683529708913,-0.6719746789682103,-0.4034792281598208,15.080429,-1.4551859,-0.03500116,-0.63627625,13.741088,-10.378297,1.8935553,0.30903637,-0.252841,0.35612977,0.84483105,-9.936336,2.767199,-0.39890227,-0.18147126,-0.70985204,-0.45983672,0
0.6900000000000004,16.338530164358314,-0.09164683529708913,-0.6719746789682103,-0.4034792281598208,15.080429,-1.4551859,-0.03500116,-0.63627625,13.641555,-10.350005,1.8895818,0.31181902,-0.25086057,0.35419148,0.8452137,-9.969932,2.8908744,-0.39565954,-0.091646835,-0.67197466,-0.40347922,0
0.7000000000000004,16.338530164358314,-0.09164683529708913,-0.6719746789682103,-0.4034792281598208,15.080429,-1.4551859,-0.03500116,-0.63627625,13.541691,-10.320479,1.8856446,0.3145968,-0.24887623,0.35224766,0.84558326,-10.002887,3.0140839,-0.3916421,-0.091646835,-0.67197466,-0.40347922,0
0.7100000000000004,16.338530164358314,-0.09164683529708913,-0.6719746789682103,-0.4034792281598208,15.080429,-1.4551859,-0.03500116,-0.63627625,13.4415,-10.289724,1.8817515,0.31736967,-0.24688803,0.35029835,0.84593964,-10.035204,3.13682,-0.38685313,-0.091646835,-0.67197466,-0.40347922,0
0.7200000000000004,16.05889548586038,0.03808252812957647,-0.6957659137863567,-0.3531160132964726,14.741213,-1.2194972,-0.13759455,-0.47491792,13.340989,-10.257746,1.8779101,0.32013762,-0.24489598,0.34834358,0.84628284,-10.066884,3.2590747,-0.3812957,-0.091646835,-0.67197466,-0.40347922,0
0.7300000000000004,16.05889548586038,0.03808252812957647,-0.6957659137863567,-0.3531160132964726,14.741213,-1.2194972,-0.13759455,-0.47491792,13.240167,-10.224556,1.8741193,0.3228878,-0.24250412,0.34695598,0.8464968,-10.097332,3.3787935,-0.37678504,0.03808253,-0.6957659,-0.353116,0
0.7400000000000004,16.05889548586038,0.03808252812957647,-0.6957659137863567,-0.3531160132964726,14.741213,-1.2194972,-0.13759455,-0.47491792,13.139045,-10.190171,1.870377,0.32563305,-0.24010855,0.34556308,0.8466978,-10.126984,3.4981244,-0.37159124,0.03808253,-0.6957659,-0.353116,0
0.7500000000000004,16.05889548586038,0.03808252812957647,-0.6957659137863567,-0.3531160132964726,14.741213,-1.2194972,-0.13759455,-0.47491792,13.037629,-10.154595,1.8666899,0.32837337,-0.23770933,0.34416494,0.8468859,-10.155839,3.6170592,-0.36571747,0.03808253,-0.6957659,-0.353116,0
0.7600000000000005,15.742840324437136,0.13467101702381068,-0.6869102012409716,-0.30644336907263714,14.584877,-0.9369224,-0.24349543,-0.37080342,12.93593,-10.117831,1.863065,0.33110866,-0.23530647,0.34276155,0.8470611,-10.1839,3.73559,-0.359167,0.03808253,-0.6957659,-0.353116,0
0.7700000000000005,15.742840324437136,0.13467101702381068,-0.6869102012409716,-0.30644336907263714,14.584877,-0.9369224,-0.24349543,-0.37080342,12.833958,-10.079896,1.8594986,0.3337398,-0.23269773,0.34183165,0.8471249,-10.210595,3.8514173,-0.3540435,0.13467102,-0.6869102,-0.30644336,0
0.7800000000000005,15.742840324437136,0.13467101702381068,-0.6869102012409716,-0.30644336907263714,14.584877,-0.9369224,-0.24349543,-0.37080342,12.731722,-10.040804,1.8559864,0.33636606,-0.23008557,0.3408968,0.8471763,-10.236413,3.9669213,-0.34833637,0.13467102,-0.6869102,-0.30644336,0
0.7900000000000005,15.742840324437136,0.13467101702381068,-0.6869102012409716,-0.30644336907263714,14.584877,-0.9369224,-0.24349543,-0.37080342,12.629233,-10.000559,1.852534,0.3389874,-0.22747006,0.33995694,0.84721553,-10.2613535,4.082094,-0.34204888,0.13467102,-0.6869102,-0.30644336,0
0.8000000000000005,15.429724677256846,0.15312381619981102,-0.7117956819118632,-0.27027064617714475,14.463931,-0.7180385,-0.32600024,-0.3229402,12.526499,-9.959164,1.8491473,0.34160382,-0.22485122,0.33901215,0.84724236,-10.285419,4.1969285,-0.33518437,0.13467102,-0.6869102,-0.30644336,1
0.8100000000000005,15.429724677256846,0.15312381619981102,-0.7117956819118632,-0.27027064617714475,14.463931,-0.7180385,-0.32600024,-0.3229402,12.423535,-9.916669,1.8457896,0.34271407,-0.225242,0.33504742,0.84826666,-10.307195,4.301951,-0.33624557,-0.7180385,-0.32600024,-0.3229402,1
0.8200000000000005,15.429724677256846,0.15312381619981102,-0.7117956819118632,-0.27027064617714475,14.463931,-0.7180385,-0.32600024,-0.3229402,12.320353,-9.873127,1.8424248,0.34381813,-0.22562869,0.33107665,0.84927565,-10.329417,4.40621,-0.3365874,-0.7180385,-0.32600024,-0.3229402,1
0.8300000000000005,15.429724677256846,0.15312381619981102,-0.7117956819118632,-0.27027064617714475,14.463931,-0.7180385,-0.32600024,-0.3229402,12.216946,-9.828547,1.8390602,0.34491596,-0.22601128,0.32709983,0.85026914,-10.35209,4.5096993,-0.3362173,-0.7180385,-0.32600024,-0.3229402,1
0.8400000000000005,15.429724677256846,0.15312381619981102,-0.7117956819118632,-0.27027064617714475,14.607855,-0.54347855,-0.45216253,-0.28226376,12.11331,-9.782935,1.8357028,0.3460075,-0.22638977,0.3231171,0.85124725,-10.375213,4.612414,-0.3351429,-0.7180385,-0.32600024,-0.3229402,1
0.8500000000000005,15.429724677256846,0.15312381619981102,-0.7117956819118632,-0.27027064617714475,14.607855,-0.54347855,-0.45216253,-0.28226376,12.009439,-9.736296,1.8323647,0.34732166,-0.22585988,0.31969985,0.85214263,-10.398908,4.715384,-0.3323733,-0.54347855,-0.45216253,-0.28226376,1
0.8600000000000005,15.429724677256846,0.15312381619981102,-0.7117956819118632,-0.27027064617714475,14.607855,-0.54347855,-0.45216253,-0.28226376,11.905331,-9.688629,1.8290578,0.34863082,-0.22532672,0.31627795,0.8530256,-10.422753,4.8176184,-0.32889402,-0.54347855,-0.45216253,-0.28226376,1
0.8700000000000006,15.429724677256846,0.15312381619981102,-0.7117956819118632,-0.27027064617714475,14.607855,-0.54347855,-0.45216253,-0.28226376,11.800983,-9.639945,1.8257893,0.34993494,-0.22479029,0.31285146,0.8538962,-10.446752,4.9191127,-0.32471082,-0.54347855,-0.45216253,-0.28226376,1
0.8800000000000006,15.363913403769564,0.6624631715778527,-1.1063464747159177,-0.21968500542848932,14.677981,-0.070157856,-0.6195823,-0.23887774,11.696396,-9.590251,1.822566,0.35123396,-0.2242506,0.30942044,0.8547544,-10.470903,5.0198617,-0.31982943,-0.54347855,-0.45216253,-0.28226376,1
0.8900000000000006,15.363913403769564,0.6624631715778527,-1.1063464747159177,-0.21968500542848932,14.677981,-0.070157856,-0.6195823,-0.23887774,11.591565,-9.53955,1.8193974,0.3531328,-0.22209418,0.30776295,0.8551335,-10.495074,5.1204443,-0.3137991,-0.070157856,-0.6195823,-0.23887774,1
0.9000000000000006,15.363913403769564,0.6624631715778527,-1.1063464747159177,-0.21968500542848932,14.677981,-0.070157856,-0.6195823,-0.23887774,11.486495,-9.487844,1.816292,0.3550277,-0.21993528,0.30610204,0.855503,-10.518729,5.220545,-0.30718717,-0.070157856,-0.6195823,-0.23887774,1
0.9100000000000006,15.363913403769564,0.6624631715778527,-1.1063464747159177,-0.21968500542848932,14.677981,-0.070157856,-0.6195823,-0.23887774,11.381192,-9.435141,1.8132557,0.35691866,-0.21777393,0.3044377,0.85586303,-10.541868,5.320158,-0.29999712,-0.070157856,-0.6195823,-0.23887774,1
0.9200000000000006,15.242707849594026,1.0529560304129013,-1.297029844419667,-0.17395358768058342,14.702377,0.35812077,-0.74796355,-0.20057602,11.2756605,-9.381443,1.810294,0.35880563,-0.21561016,0.30277,0.8562135,-10.564492,5.4192796,-0.29223233,-0.070157856,-0.6195823,-0.23887774,1
0.9300000000000006,15.242707849594026,1.0529560304129013,-1.297029844419667,-0.17395358768058342,14.702377,0.35812077,-0.74796355,-0.20057602,11.169905,-9.326756,1.8074136,0.3611794,-0.21206729,0.30274227,0.8561101,-10.586417,5.5181656,-0.28376403,0.35812077,-0.74796355,-0.20057602,1
0.9400000000000006,15.242707849594026,1.0529560304129013,-1.297029844419667,-0.17395358768058342,14.702377,0.35812077,-0.74796355,-0.20057602,11.063935,-9.27108,1.8046201,0.36354664,-0.20852058,0.30270907,0.85599107,-10.607234,5.6168065,-0.27484748,0.35812077,-0.74796355,-0.20057602,1
0.9500000000000006,15.242707849594026,1.0529560304129013,-1.297029844419667,-0.17395358768058342,14.702377,0.35812077,-0.74796355,-0.20057602,10.957763,-9.21442,1.8019181,0.36590722,-0.20497005,0.30267033,0.8558565,-10.626945,5.7151933,-0.26548862,0.35812077,-0.74796355,-0.20057602,1
0.9600000000000006,14.93897267155892,1.1961202233907047,-1.596826388279933,-0.12767794096955312,14.590378,0.6910174,-0.8879205,-0.16672511,10.851398,-9.156777,1.799312,0.36826113,-0.20141579,0.3026261,0.85570633,-10.645547,5.813318,-0.25569338,0.35812077,-0.74796355,-0.20057602,1
0.9700000000000006,14.93897267155892,1.1961202233907047,-1.596826388279933,-0.12767794096955312,14.590378,0.6910174,-0.8879205,-0.16672511,10.744857,-9.098159,1.7968017,0.37100795,-0.19659345,0.30377492,0.85523415,-10.662721,5.910486,-0.2463175,0.6910174,-0.8879205,-0.16672511,1
0.9800000000000006,14.93897267155892,1.1961202233907047,-1.596826388279933,-0.12767794096955312,14.590378,0.6910174,-0.8879205,-0.16672511,10.63815,-9.0385685,1.794387,0.37374276,-0.19176477,0.30491388,0.8547343,-10.678296,6.0075336,-0.2365893,0.6910174,-0.8879205,-0.16672511,1
0.9900000000000007,14.93897267155892,1.1961202233907047,-1.596826388279933,-0.12767794096955312,14.590378,0.6910174,-0.8879205,-0.16672511,10.531296,-8.978008,1.7920712,0.3764655,-0.1869299,0.306043,0.8542068,-10.692271,6.104446,-0.22652064,0.6910174,-0.8879205,-0.16672511,1
1.0000000000000007,14.713523049258272,1.0322336921219737,-1.6497738970005187,-0.09559369156438133,14.54917,0.9350714,-0.907586,-0.13314141,10.42431,-8.91648,1.7898577,0.37917605,-0.18208896,0.3071622,0.85365164,-10.704644,6.201208,-0.21612349,0.6910174,-0.8879205,-0.16672511,1
1.0100000000000007,14.713523049258272,1.0322336921219737,-1.6497738970005187,-0.09559369156438133,14.54917,0.9350714,-0.907586,-0.13314141,10.317208,-8.853986,1.7877482,0.3819814,-0.17664297,0.30930483,0.8527711,-10.715277,6.2975974,-0.20576328,0.9350714,-0.907586,-0.13314141,1
1.0200000000000007,14.713523049258272,1.0322336921219737,-1.6497738970005187,-0.09559369156438133,14.54917,0.9350714,-0.907586,-0.13314141,10.21001,-8.790527,1.7857431,0.38477036,-0.17118943,0.31143415,0.851854,-10.724022,6.393976,-0.19522524,0.9350714,-0.907586,-0.13314141,1
1.0300000000000007,14.713523049258272,1.0322336921219737,-1.6497738970005187,-0.09559369156438133,14.54917,0.9350714,-0.907586,-0.13314141,10.102734,-8.726107,1.7838444,0.3875428,-0.16572852,0.3135501,0.8509004,-10.730878,6.490326,-0.18452612,0.9350714,-0.907586,-0.13314141,1
1.0400000000000007,14.713523049258272,1.0322336921219737,-1.6497738970005187,-0.09559369156438133,14.395018,0.96218705,-0.8862051,-0.10860673,9.9953985,-8.660721,1.7820531,0.39029863,-0.16026051,0.31565267,0.84991026,-10.735845,6.5866284,-0.17368273,0.9350714,-0.907586,-0.13314141,1
1.0500000000000007,14.713523049258272,1.0322336921219737,-1.6497738970005187,-0.09559369156438133,14.395018,0.96218705,-0.8862051,-0.10860673,9.888022,-8.594378,1.7803652,0.3929214,-0.15478483,0.31791827,0.8488716,-10.738885,6.68186,-0.16387963,0.96218705,-0.8862051,-0.10860673,1
1.0600000000000007,14.713523049258272,1.0322336921219737,-1.6497738970005187,-0.09559369156438133,14.395018,0.96218705,-0.8862051,-0.10860673,9.780626,-8.527084,1.7787758,0.39552724,-0.14930248,0.3201702,0.8477963,-10.740044,6.7770457,-0.15399955,0.96218705,-0.8862051,-0.10860673,1
1.0700000000000007,14.713523049258272,1.0322336921219737,-1.6497738970005187,-0.09559369156438133,14.395018,0.96218705,-0.8862051,-0.10860673,9.673228,-8.458838,1.7772855,0.39811605,-0.1438137,0.3224083,0.8466845,-10.739322,6.8721676,-0.14405963,0.96218705,-0.8862051,-0.10860673,1
1.0800000000000007,14.317967074955176,0.6084156099522917,-1.870597365254073,-0.04397421409415724,14.076816,0.8287532,-0.8283584,-0.083603,9.565846,-8.389642,1.7758948,0.40068775,-0.13831873,0.32463253,0.8455363,-10.736719,6.9672084,-0.134077,0.96218705,-0.8862051,-0.10860673,0
1.0900000000000007,14.317967074955176,0.6084156099522917,-1.870597365254073,-0.04397421409415724,14.076816,0.8287532,-0.8283584,-0.083603,9.458501,-8.319498,1.7746022,0.4043113,-0.12925634,0.323411,0.84571344,-10.732067,7.06124,-0.12430572,0.6084156,-1.8705974,-0.043974213,0
1.1000000000000008,14.317967074955176,0.6084156099522917,-1.870597365254073,-0.04397421409415724,14.076816,0.8287532,-0.8283584,-0.083603,9.351213,-8.248421,1.7734118,0.40789568,-0.12018145,0.32215816,0.84580874,-10.725033,7.1540728,-0.113628805,0.6084156,-1.8705974,-0.043974213,0
1.1100000000000008,14.317967074955176,0.6084156099522917,-1.870597365254073,-0.04397421409415724,14.076816,0.8287532,-0.8283584,-0.083603,9.244009,-8.176422,1.7723324,0.4114406,-0.11109493,0.32087412,0.8458221,-10.71562,7.24567,-0.102087654,0.6084156,-1.8705974,-0.043974213,0
1.1200000000000008,13.990434235425402,0.03250349491184255,-1.6459448083052175,-0.0046339652459921775,13.585177,0.65487665,-0.9726002,-0.050120264,9.1369095,-8.103514,1.7713727,0.41494572,-0.10199765,0.31955907,0.84575367,-10.703833,7.335995,-0.08972398,0.6084156,-1.8705974,-0.043974213,1
1.1300000000000008,13.990434235425402,0.03250349491184255,-1.6459448083052175,-0.0046339652459921775,13.585177,0.65487665,-0.9726002,-0.050120264,9.029937,-8.02973,1.7705115,0.41703853,-0.09660441,0.32027942,0.8450848,-10.690673,7.420761,-0.082481444,0.65487665,-0.9726002,-0.050120264,1
1.1400000000000008,13.990434235425402,0.03250349491184255,-1.6459448083052175,-0.0046339652459921775,13.585177,0.65487665,-0.9726002,-0.050120264,8.923103,-7.9551,1.7697235,0.41911694,-0.09120785,0.32098877,0.8443868,-10.675994,7.505077,-0.07507835,0.65487665,-0.9726002,-0.050120264,1
1.1500000000000008,13.990434235425402,0.03250349491184255,-1.6459448083052175,-0.0046339652459921775,13.585177,0.65487665,-0.9726002,-0.050120264,8.816423,-7.87963,1.7690104,0.42118096,-0.08580815,0.32168707,0.84365976,-10.659798,7.58893,-0.06752874,0.65487665,-0.9726002,-0.050120264,1
1.1600000000000008,13.597170024565,-0.5492092806090594,-1.5043269938288142,0.0685093607385804,13.2973585,0.2712055,-0.36458114,-0.0885444,8.709913,-7.8033237,1.7683735,0.42323047,-0.080405496,0.32237428,0.8429036,-10.642087,7.672309,-0.05984661,0.65487665,-0.9726002,-0.050120264,0
1.1700000000000008,13.597170024565,-0.5492092806090594,-1.5043269938288142,0.0685093607385804,13.2973585,0.2712055,-0.36458114,-0.0885444,8.603587,-7.726187,1.7678156,0.42513213,-0.075114734,0.31689346,0.84451157,-10.623146,7.754827,-0.051551424,-0.5492093,-1.5043269,0.06850936,0
1.1800000000000008,13.597170024565,-0.5492092806090594,-1.5043269938288142,0.0685093607385804,13.2973585,0.2712055,-0.36458114,-0.0885444,8.497453,-7.6482334,1.7673465,0.42700645,-0.06981916,0.31139234,0.8460652,-10.603495,7.8356495,-0.04209012,-0.5492093,-1.5043269,0.06850936,0
1.1900000000000008,13.597170024565,-0.5492092806090594,-1.5043269938288142,0.0685093607385804,13.2973585,0.2712055,-0.36458114,-0.0885444,8.391519,-7.5694795,1.7669778,0.42885333,-0.06451909,0.3058712,0.8475645,-10.583135,7.9147563,-0.031490743,-0.5492093,-1.5043269,0.06850936,0
1.2000000000000008,13.314715240173525,-0.8574299410848877,-0.7963035723653676,0.1269413051477488,12.876754,-0.32477874,-0.5881349,-0.044283703,8.285791,-7.489944,1.7667205,0.4306727,-0.059214883,0.3003304,0.84900945,-10.56207,7.9921265,-0.019781629,-0.5492093,-1.5043269,0.06850936,1
1.2100000000000009,13.314715240173525,-0.8574299410848877,-0.7963035723653676,0.1269413051477488,12.876754,-0.32477874,-0.5881349,-0.044283703,8.180273,-7.4096622,1.7665559,0.43164527,-0.057483755,0.29767042,0.84957117,-10.54165,8.064093,-0.013072864,-0.32477874,-0.5881349,-0.044283703,1
1.2200000000000009,13.314715240173525,-0.8574299410848877,-0.7963035723653676,0.1269413051477488,12.876754,-0.32477874,-0.5881349,-0.044283703,8.074959,-7.3286643,1.7664607,0.43261296,-0.055751976,0.2950071,0.85012317,-10.521081,8.135342,-0.0059041632,-0.32477874,-0.5881349,-0.044283703,1
1.2300000000000009,13.314715240173525,-0.8574299410848877,-0.7963035723653676,0.1269413051477488,12.876754,-0.32477874,-0.5881349,-0.044283703,7.969851,-7.246958,1.7664394,0.43357572,-0.054019567,0.29234046,0.85066557,-10.500364,8.205871,0.0017198003,-0.32477874,-0.5881349,-0.044283703,1
1.2400000000000009,13.314715240173525,-0.8574299410848877,-0.7963035723653676,0.1269413051477488,12.791556,-0.48874253,-0.45241973,-0.10680148,7.8649516,-7.1645494,1.7664968,0.4345336,-0.052286547,0.28967047,0.8511984,-10.479501,8.275676,0.009794346,-0.32477874,-0.5881349,-0.044283703,1
1.2500000000000009,13.314715240173525,-0.8574299410848877,-0.7963035723653676,0.1269413051477488,12.791556,-0.48874253,-0.45241973,-0.10680148,7.7602606,-7.0814486,1.7666335,0.43551317,-0.051577315,0.28657788,0.8517876,-10.458732,8.344307,0.017622365,-0.48874253,-0.45241973,-0.10680148,1
1.260000000000001,13.314715240173525,-0.8574299410848877,-0.7963035723653676,0.1269413051477488,12.791556,-0.48874253,-0.45241973,-0.10680148,7.655777,-6.9976654,1.7668508,0.43648776,-0.050867498,0.28348202,0.8523672,-10.438088,8.412241,0.025923397,-0.48874253,-0.45241973,-0.10680148,1
1.270000000000001,13.314715240173525,-0.8574299410848877,-0.7963035723653676,0.1269413051477488,12.791556,-0.48874253,-0.45241973,-0.10680148,7.5514994,-6.913206,1.7671536,0.4374574,-0.050157104,0.28038293,0.8529371,-10.417573,8.479475,0.03469278,-0.48874253,-0.45241973,-0.10680148,1
1.280000000000001,13.069485207162677,-1.099091079580928,-1.1801402797882894,0.2239841273901707,12.60665,-0.86403555,-0.6174618,-0.08167048,7.4474254,-6.8280783,1.7675464,0.43842208,-0.04944614,0.27728066,0.85349727,-10.397187,8.546006,0.04392581,-0.48874253,-0.45241973,-0.10680148,1
1.290000000000001,13.069485207162677,-1.099091079580928,-1.1801402797882894,0.2239841273901707,12.60665,-0.86403555,-0.6174618,-0.08167048,7.343553,-6.742294,1.7680262,0.43940684,-0.048817724,0.27221575,0.8546567,-10.3773155,8.610742,0.052160658,-0.86403555,-0.6174618,-0.08167048,1
1.300000000000001,13.069485207162677,-1.099091079580928,-1.1801402797882894,0.2239841273901707,12.60665,-0.86403555,-0.6174618,-0.08167048,7.239878,-6.6558676,1.7685921,0.4403791,-0.04818792,0.26714316,0.85579187,-10.357817,8.674407,0.061108276,-0.86403555,-0.6174618,-0.08167048,1
1.310000000000001,13.069485207162677,-1.099091079580928,-1.1801402797882894,0.2239841273901707,12.60665,-0.86403555,-0.6174618,-0.08167048,7.136396,-6.5688095,1.7692509,0.4413389,-0.047556747,0.26206297,0.8569028,-10.338694,8.736996,0.07075658,-0.86403555,-0.6174618,-0.08167048,1
1.320000000000001,12.973473006726389,-1.314770655768567,-0.9006301310181073,0.2953144166401506,12.600922,-0.99577874,-0.7357937,-0.1345112,7.0331035,-6.481131,1.7700096,0.44228616,-0.04692423,0.25697535,0.8579894,-10.31995,8.7985,0.08109339,-0.86403555,-0.6174618,-0.08167048,1
1.330000000000001,12.973473006726389,-1.314770655768567,-0.9006301310181073,0.2953144166401506,12.600922,-0.99577874,-0.7357937,-0.1345112,6.929996,-6.3928437,1.770875,0.44356635,-0.046141732,0.25103986,0.85912734,-10.301612,8.858814,0.09209848,-0.99577874,-0.7357937,-0.1345112,1
1.340000000000001,12.973473006726389,-1.314770655768567,-0.9006301310181073,0.2953144166401506,12.600922,-0.99577874,-0.7357937,-0.1345112,6.8270698,-6.3039594,1.7718543,0.44482937,-0.045357447,0.24509463,0.86023206,-10.2837,8.917843,0.10387555,-0.99577874,-0.7357937,-0.1345112,1
1.350000000000001,12.973473006726389,-1.314770655768567,-0.9006301310181073,0.2953144166401506,12.600922,-0.99577874,-0.7357937,-0.1345112,6.72432,-6.214492,1.7729552,0.44607517,-0.044571403,0.23913988,0.8613034,-10.266219,8.975576,0.1164077,-0.99577874,-0.7357937,-0.1345112,1
1.360000000000001,12.732655132510992,-1.2707735628099184,-1.2708201335507323,0.3979707988700319,12.747239,-1.0359066,-1.3835155,-0.2156689,6.6217437,-6.1244526,1.7741851,0.44730365,-0.043783635,0.23317587,0.86234134,-10.249174,9.032006,0.12967798,-0.99577874,-0.7357937,-0.1345112,1
1.370000000000001,12.732655132510992,-1.2707735628099184,-1.2708201335507323,0.3979707988700319,12.747239,-1.0359066,-1.3835155,-0.2156689,6.5193367,-6.033853,1.775558,0.4496028,-0.04038497,0.22555912,0.8633369,-10.232207,9.087521,0.14506404,-1.0359066,-1.3835155,-0.2156689,1
1.380000000000001,12.732655132510992,-1.2707735628099184,-1.2708201335507323,0.3979707988700319,12.747239,-1.0359066,-1.3835155,-0.2156689,6.4170995,-5.942709,1.7770896,0.45186785,-0.036983244,0.21792527,0.864267,-10.215244,9.141048,0.1614013,-1.0359066,-1.3835155,-0.2156689,1
1.390000000000001,12.732655132510992,-1.2707735628099184,-1.2708201335507323,0.3979707988700319,12.747239,-1.0359066,-1.3835155,-0.2156689,6.3150315,-5.8510394,1.7787892,0.4540986,-0.033578716,0.21027489,0.8651315,-10.198294,9.192573,0.17865609,-1.0359066,-1.3835155,-0.2156689,1
1.400000000000001,12.552458001571972,-1.1998844957055737,-0.18488974289838395,0.4892419170541502,12.7954445,-0.9605854,-1.8035973,-0.291723,6.2131333,-5.758865,1.7806656,0.45629495,-0.030171638,0.20260856,0.8659304,-10.181366,9.24208,0.19679454,-1.0359066,-1.3835155,-0.2156689,0
1.410000000000001,12.552458001571972,-1.1998844957055737,-0.18488974289838395,0.4892419170541502,12.7954445,-0.9605854,-1.8035973,-0.291723,6.1114016,-5.666208,1.7827185,0.4541732,-0.03161236,0.19706115,0.8682715,-10.165118,9.289228,0.21388651,-1.1998845,-0.18488975,0.48924193,0
1.420000000000001,12.552458001571972,-1.1998844957055737,-0.18488974289838395,0.4892419170541502,12.7954445,-0.9605854,-1.8035973,-0.291723,6.009827,-5.573084,1.784945,0.45203206,-0.033051725,0.19150531,0.8705755,-10.149941,9.335431,0.23150688,-1.1998845,-0.18488975,0.48924193,0
1.430000000000001,12.552458001571972,-1.1998844957055737,-0.18488974289838395,0.4892419170541502,12.7954445,-0.9605854,-1.8035973,-0.291723,5.908399,-5.479503,1.7873503,0.4498715,-0.034489673,0.18594128,0.872842,-10.135833,9.380675,0.24963996,-1.1998845,-0.18488975,0.48924193,0
1.440000000000001,12.552458001571972,-1.1998844957055737,-0.18488974289838395,0.4892419170541502,12.972722,-0.8832497,-2.3943303,0.11482088,5.8071065,-5.3854747,1.7899395,0.4476917,-0.035926145,0.18036929,0.8750712,-10.122789,9.424949,0.26826996,-1.1998845,-0.18488975,0.48924193,0
1.450000000000001,12.552458001571972,-1.1998844957055737,-0.18488974289838395,0.4892419170541502,12.972722,-0.8832497,-2.3943303,0.11482088,5.70594,-5.291008,1.7927173,0.44549277,-0.037361078,0.17478956,0.87726295,-10.110807,9.468242,0.287381,-1.1998845,-0.18488975,0.48924193,0
1.460000000000001,12.552458001571972,-1.1998844957055737,-0.18488974289838395,0.4892419170541502,12.972722,-0.8832497,-2.3943303,0.11482088,5.6048875,-5.196113,1.7956887,0.44327477,-0.03879441,0.16920234,0.87941706,-10.099883,9.510541,0.30695716,-1.1998845,-0.18488975,0.48924193,0
1.470000000000001,12.552458001571972,-1.1998844957055737,-0.18488974289838395,0.4892419170541502,12.972722,-0.8832497,-2.3943303,0.11482088,5.5039387,-5.1008005,1.798858,0.4410377,-0.04022608,0.16360787,0.8815335,-10.090013,9.551835,0.3269824,-1.1998845,-0.18488975,0.48924193,0
1.480000000000001,12.226809477106523,-0.9170681702932781,-0.6871534212276404,0.4740398383344227,13.108811,-0.7167301,-2.7944684,0.19994038,5.4030833,-5.0050797,1.8022298,0.4387818,-0.04165603,0.15800638,0.8836122,-10.081193,9.5921135,0.34744063,-1.1998845,-0.18488975,0.48924193,0
1.490000000000001,12.226809477106523,-0.9170681702932781,-0.6871534212276404,0.4740398383344227,13.108811,-0.7167301,-2.7944684,0.19994038,5.3023105,-4.9089665,1.8057929,0.43703088,-0.04025681,0.15254289,0.8855028,-10.073379,9.630246,0.36524656,-0.9170682,-0.6871534,0.47403985,0
1.500000000000001,12.226809477106523,-0.9170681702932781,-0.6871534212276404,0.4740398383344227,13.108811,-0.7167301,-2.7944684,0.19994038,5.201614,-4.8124785,1.8095362,0.4352632,-0.03885604,0.14707354,0.8873594,-10.065929,9.667099,0.3834898,-0.9170682,-0.6871534,0.47403985,0
1.5100000000000011,12.226809477106523,-0.9170681702932781,-0.6871534212276404,0.4740398383344227,13.108811,-0.7167301,-2.7944684,0.19994038,5.1009903,-4.7156286,1.813464,0.4334788,-0.037453778,0.14159854,0.88918185,-10.058842,9.702665,0.40215513,-0.9170682,-0.6871534,0.47403985,0
1.5200000000000011,12.017256065499833,-0.6393222847272744,-0.2257572460460674,0.4453856254532949,12.754474,-0.54817766,-2.8662536,0.34503362,5.000436,-4.6184297,1.8175806,0.43167773,-0.036050078,0.13611808,0.8909702,-10.052107,9.736938,0.42122743,-0.9170682,-0.6871534,0.47403985,0
1.5300000000000011,12.017256065499833,-0.6393222847272744,-0.2257572460460674,0.4453856254532949,12.754474,-0.54817766,-2.8662536,0.34503362,4.8999467,-4.5208964,1.8218796,0.42972848,-0.036120843,0.1328619,0.89239997,-10.045866,9.76958,0.43861336,-0.6393223,-0.22575724,0.44538563,0
1.5400000000000011,12.017256065499833,-0.6393222847272744,-0.2257572460460674,0.4453856254532949,12.754474,-0.54817766,-2.8662536,0.34503362,4.7995176,-4.42304,1.8263535,0.42777213,-0.036191013,0.12960352,0.8938151,-10.0400505,9.8015585,0.4562067,-0.6393223,-0.22575724,0.44538563,0
1.5500000000000012,12.017256065499833,-0.6393222847272744,-0.2257572460460674,0.4453856254532949,12.754474,-0.54817766,-2.8662536,0.34503362,4.6991444,-4.3248677,1.8310045,0.42580876,-0.036260586,0.12634301,0.8952155,-10.034658,9.832871,0.47400254,-0.6393223,-0.22575724,0.44538563,0
1.5600000000000012,11.712939375750501,-0.4119478293931937,-0.4196091138323584,0.42198522118833504,13.368205,-0.57159877,-3.6720746,0.41887328,4.5988226,-4.2263856,1.8358345,0.42383838,-0.036329564,0.123080425,0.8966012,-10.029688,9.863515,0.49199587,-0.6393223,-0.22575724,0.44538563,0
1.5700000000000012,11.712939375750501,-0.4119478293931937,-0.4196091138323584,0.42198522118833504,13.368205,-0.57159877,-3.6720746,0.41887328,4.4985495,-4.127604,1.8408304,0.42212725,-0.035061523,0.12042028,0.89781934,-10.02512,9.892724,0.5072325,-0.41194782,-0.4196091,0.4219852,0
1.5800000000000012,11.712939375750501,-0.4119478293931937,-0.4196091138323584,0.42198522118833504,13.368205,-0.57159877,-3.6720746,0.41887328,4.39832,-4.028534,1.8459797,0.42041057,-0.033793025,0.11775856,0.8990257,-10.020606,9.921268,0.5226406,-0.41194782,-0.4196091,0.4219852,0
1.5900000000000012,11.712939375750501,-0.4119478293931937,-0.4196091138323584,0.42198522118833504,13.368205,-0.57159877,-3.6720746,0.41887328,4.2981367,-3.9291816,1.8512838,0.41868842,-0.032524083,0.115095295,0.9002203,-10.016144,9.949147,0.5382161,-0.41194782,-0.4196091,0.4219852,0
1.6000000000000012,11.562123321529066,-0.29247681767400235,-0.0894352140357185,0.40555611334019637,12.900351,-0.33268532,-3.098757,0.42944744,4.197997,-3.8295538,1.8567445,0.41696078,-0.03125472,0.11243052,0.90140307,-10.011732,9.976358,0.5539552,-0.41194782,-0.4196091,0.4219852,0
1.6100000000000012,11.562123321529066,-0.29247681767400235,-0.0894352140357185,0.40555611334019637,12.900351,-0.33268532,-3.098757,0.42944744,4.0979013,-3.7296581,1.862356,0.41513616,-0.031233305,0.11098889,0.902424,-10.007477,10.002698,0.5683556,-0.2924768,-0.08943521,0.4055561,0
1.6200000000000012,11.562123321529066,-0.29247681767400235,-0.0894352140357185,0.40555611334019637,12.900351,-0.33268532,-3.098757,0.42944744,3.9978468,-3.6295006,1.8681118,0.41330886,-0.03121169,0.10954655,0.90343916,-10.00341,10.028748,0.5828304,-0.2924768,-0.08943521,0.4055561,0
1.6300000000000012,11.562123321529066,-0.29247681767400235,-0.0894352140357185,0.40555611334019637,12.900351,-0.33268532,-3.098757,0.42944744,3.8978322,-3.529084,1.8740128,0.4114789,-0.031189872,0.10810349,0.9044485,-9.999531,10.054506,0.5973788,-0.2924768,-0.08943521,0.4055561,0
1.6400000000000012,11.562123321529066,-0.29247681767400235,-0.0894352140357185,0.40555611334019637,12.863805,-0.30255264,-3.3018968,0.4113982,3.7978554,-3.4284112,1.8800596,0.4096463,-0.031167854,0.10665974,0.905452,-9.995838,10.079974,0.61199975,-0.2924768,-0.08943521,0.4055561,0
1.6500000000000012,11.562123321529066,-0.29247681767400235,-0.0894352140357185,0.40555611334019637,12.863805,-0.30255264,-3.3018968,0.4113982,3.6979146,-3.3274853,1.886253,0.40781102,-0.031145634,0.105215296,0.9064497,-9.992329,10.105149,0.62669235,-0.2924768,-0.08943521,0.4055561,0
1.6600000000000013,11.562123321529066,-0.29247681767400235,-0.0894352140357185,0.40555611334019637,12.863805,-0.30255264,-3.3018968,0.4113982,3.598008,-3.226309,1.8925937,0.4059731,-0.031123213,0.103770174,0.9074415,-9.989002,10.13003,0.6414557,-0.2924768,-0.08943521,0.4055561,0
1.6700000000000013,11.562123321529066,-0.29247681767400235,-0.0894352140357185,0.40555611334019637,12.863805,-0.30255264,-3.3018968,0.4113982,3.498134,-3.1248856,1.8990824,0.40413257,-0.031100592,0.10232438,0.9084275,-9.985859,10.154615,0.6562889,-0.2924768,-0.08943521,0.4055561,0
1.6800000000000013,11.321769596704383,-0.22327376589034276,-0.5175639231482462,0.39506556520971986,13.117054,-0.38722655,-3.6389813,0.4963183,3.3982904,-3.0232177,1.9057198,0.40228948,-0.03107777,0.100877926,0.9094076,-9.982898,10.1789055,0.671191,-0.2924768,-0.08943521,0.4055561,0
1.6900000000000013,11.321769596704383,-0.22327376589034276,-0.5175639231482462,0.39506556520971986,13.117054,-0.38722655,-3.6389813,0.4963183,3.2984755,-2.9213116,1.9124948,0.4007171,-0.028974045,0.09888243,0.9103899,-9.98003,10.202288,0.6838305,-0.22327377,-0.51756394,0.39506558,0
1.7000000000000013,11.321769596704383,-0.22327376589034276,-0.5175639231482462,0.39506556520971986,13.117054,-0.38722655,-3.6389813,0.4963183,3.1986907,-2.8191743,1.9193968,0.39913997,-0.026869975,0.09688577,0.91136146,-9.976952,10.22508,0.69658756,-0.22327377,-0.51756394,0.39506558,0
1.7100000000000013,11.321769596704383,-0.22327376589034276,-0.5175639231482462,0.39506556520971986,13.117054,-0.38722655,-3.6389813,0.4963183,3.0989373,-2.716812,1.9264269,0.39755806,-0.024765588,0.09488796,0.9123222,-9.9736595,10.24728,0.7094583,-0.22327377,-0.51756394,0.39506558,0
1.7200000000000013,11.13652831848872,-0.17680316914148814,-0.04190890439819773,0.3961294287202117,12.527844,-0.37459782,-3.2780843,0.52447295,2.999218,-2.6142306,1.9335862,0.3959715,-0.022660907,0.092889026,0.91327214,-9.970153,10.26889,0.722439,-0.22327377,-0.51756394,0.39506558,0
1.7300000000000013,11.13652831848872,-0.17680316914148814,-0.04190890439819773,0.3961294287202117,12.527844,-0.37459782,-3.2780843,0.52447295,2.8995342,-2.5114374,1.9408668,0.3941611,-0.022635547,0.09204337,0.9141411,-9.966612,10.2897215,0.73368126,-0.17680317,-0.041908905,0.39612943,0
1.7400000000000013,11.13652831848872,-0.17680316914148814,-0.04190890439819773,0.3961294287202117,12.527844,-0.37459782,-3.2780843,0.52447295,2.7998853,-2.4084368,1.94826,0.3923489,-0.02261008,0.091197275,0.91500574,-9.9631815,10.310388,0.7449585,-0.17680317,-0.041908905,0.39612943,0
1.7500000000000013,11.13652831848872,-0.17680316914148814,-0.04190890439819773,0.3961294287202117,12.527844,-0.37459782,-3.2780843,0.52447295,2.7002702,-2.3052304,1.9557661,0.39053476,-0.022584505,0.09035075,0.915866,-9.959861,10.330886,0.75627047,-0.17680317,-0.041908905,0.39612943,0
1.7600000000000013,10.894239502421375,-0.1584544226295519,-0.5987433557809833,0.4101552885485547,12.876669,-0.43169194,-3.653153,0.50488794,2.6006877,-2.2018197,1.9633855,0.3887188,-0.022558823,0.08950379,0.91672194,-9.956651,10.351219,0.7676168,-0.17680317,-0.041908905,0.39612943,0
1.7700000000000014,10.894239502421375,-0.1584544226295519,-0.5987433557809833,0.4101552885485547,12.876669,-0.43169194,-3.653153,0.50488794,2.501137,-2.0982094,1.9711068,0.3870862,-0.019938687,0.087659426,0.91765124,-9.953452,10.370789,0.776639,-0.15845442,-0.5987434,0.4101553,0
1.7800000000000014,10.894239502421375,-0.1584544226295519,-0.5987433557809833,0.4101552885485547,12.876669,-0.43169194,-3.653153,0.50488794,2.40162,-1.994406,1.9789187,0.38544828,-0.017318273,0.08581386,0.9185679,-9.94992,10.389779,0.78575504,-0.15845442,-0.5987434,0.4101553,0
1.7900000000000014,10.894239502421375,-0.1584544226295519,-0.5987433557809833,0.4101552885485547,12.876669,-0.43169194,-3.653153,0.50488794,2.3021395,-1.8904157,1.9868222,0.38380504,-0.0146976225,0.083967105,0.91947186,-9.946052,10.408193,0.7949604,-0.15845442,-0.5987434,0.4101553,0
1.8000000000000014,10.752031344758091,-0.20198155248115177,0.18553978634488485,0.42362608166698906,12.616848,-0.370958,-3.5118399,0.5522989,2.2026994,-1.7862442,1.9948182,0.3821565,-0.01207677,0.0821192,0.9203631,-9.941848,10.426026,0.8042507,-0.15845442,-0.5987434,0.4101553,0
1.8100000000000014,10.752031344758091,-0.20198155248115177,0.18553978634488485,0.42362608166698906,12.616848,-0.370958,-3.5118399,0.5522989,2.1033022,-1.6818976,2.0029004,0.38011748,-0.013142554,0.08156956,0.9212414,-9.937599,10.443267,0.8121947,-0.20198156,0.18553978,0.4236261,0
1.8200000000000014,10.752031344758091,-0.20198155248115177,0.18553978634488485,0.42362608166698906,12.616848,-0.370958,-3.5118399,0.5522989,2.0039463,-1.5773789,2.0110621,0.378076,-0.014208254,0.0810194,0.9221138,-9.933646,10.460496,0.82015204,-0.20198156,0.18553978,0.4236261,0
1.8300000000000014,10.752031344758091,-0.20198155248115177,0.18553978634488485,0.42362608166698906,12.616848,-0.370958,-3.5118399,0.5522989,1.9046284,-1.4726878,2.0193033,0.37603208,-0.015273864,0.08046873,0.9229803,-9.929987,10.477711,0.828122,-0.20198156,0.18553978,0.4236261,0
1.8400000000000014,10.752031344758091,-0.20198155248115177,0.18553978634488485,0.42362608166698906,12.490605,-0.49841172,-3.4407184,0.52339375,1.8053455,-1.3678247,2.0276246,0.3739858,-0.016339377,0.07991754,0.923841,-9.926622,10.494913,0.8361042,-0.20198156,0.18553978,0.4236261,0
1.8500000000000014,10.752031344758091,-0.20198155248115177,0.18553978634488485,0.42362608166698906,12.490605,-0.49841172,-3.4407184,0.52339375,1.7060949,-1.2627896,2.036026,0.37193713,-0.017404785,0.07936585,0.92469573,-9.923552,10.512096,0.8440979,-0.20198156,0.18553978,0.4236261,0
1.8600000000000014,10.752031344758091,-0.20198155248115177,0.18553978634488485,0.42362608166698906,12.490605,-0.49841172,-3.4407184,0.52339375,1.6068735,-1.1575826,2.0445065,0.36988607,-0.018470084,0.07881365,0.9255446,-9.920774,10.5292635,0.8521026,-0.20198156,0.18553978,0.4236261,0
1.8700000000000014,10.752031344758091,-0.20198155248115177,0.18553978634488485,0.42362608166698906,12.490605,-0.49841172,-3.4407184,0.52339375,1.5076783,-1.0522043,2.0530672,0.36783272,-0.019535264,0.07826095,0.9263876,-9.918292,10.5464115,0.86011755,-0.20198156,0.18553978,0.4236261,0
1.8800000000000014,10.518744499024884,-0.27787817122875846,-0.5644162125577128,0.46940291031622167,12.790363,-0.41219997,-3.7809289,0.5127882,1.4085065,-0.9466545,2.061709,0.36577702,-0.02060032,0.07770775,0.9272247,-9.916103,10.5635395,0.86814225,-0.20198156,0.18553978,0.4236261,0
1.8900000000000015,10.518744499024884,-0.27787817122875846,-0.5644162125577128,0.46940291031622167,12.790363,-0.41219997,-3.7809289,0.5127882,1.3093556,-0.840936,2.0704193,0.36378866,-0.01830929,0.075434975,0.92824215,-9.914053,10.580053,0.8739048,-0.27787817,-0.5644162,0.4694029,0
1.9000000000000015,10.518744499024884,-0.27787817122875846,-0.5644162125577128,0.46940291031622167,12.790363,-0.41219997,-3.7809289,0.5127882,1.2102264,-0.7350555,2.0791874,0.3617947,-0.016017979,0.07316104,0.9292453,-9.911766,10.595957,0.8797578,-0.27787817,-0.5644162,0.4694029,0
1.9100000000000015,10.518744499024884,-0.27787817122875846,-0.5644162125577128,0.46940291031622167,12.790363,-0.41219997,-3.7809289,0.5127882,1.1111213,-0.629019,2.0880146,0.35979518,-0.013726421,0.070885986,0.93023413,-9.909238,10.61125,0.8856968,-0.27787817,-0.5644162,0.4694029,0
1.9200000000000015,10.325220479010975,-0.4226411171453487,-0.4687402241953138,0.5034809722363762,11.853583,-0.5576961,-3.1954055,0.5942664,1.0120425,-0.52283263,2.0969017,0.3577901,-0.01143465,0.06860982,0.93120867,-9.906468,10.625933,0.8917175,-0.27787817,-0.5644162,0.4694029,0
1.9300000000000015,10.325220479010975,-0.4226411171453487,-0.4687402241953138,0.5034809722363762,11.853583,-0.5576961,-3.1954055,0.5942664,0.9129923,-0.41650382,2.10584,0.3555796,-0.009835451,0.06583166,0.93227357,-9.903572,10.63973,0.89590245,-0.42264113,-0.46874022,0.503481,0
1.9400000000000015,10.325220479010975,-0.4226411171453487,-0.4687402241953138,0.5034809722363762,11.853583,-0.5576961,-3.1954055,0.5942664,0.81397134,-0.31004024,2.1148202,0.3533633,-0.0082360925,0.06305243,0.9333233,-9.900604,10.652885,0.90017,-0.42264113,-0.46874022,0.503481,0
1.9500000000000015,10.325220479010975,-0.4226411171453487,-0.4687402241953138,0.5034809722363762,11.853583,-0.5576961,-3.1954055,0.5942664,0.7149804,-0.20344833,2.1238437,0.35114124,-0.0066365995,0.06027218,0.9343578,-9.897562,10.665398,0.90451604,-0.42264113,-0.46874022,0.503481,0
1.9600000000000015,10.08738575866106,-0.582772394090602,-0.7422814311940048,0.5869880467478688,12.233403,-0.8387776,-3.7034051,0.5801872,0.6160203,-0.09673451,2.1329107,0.34891346,-0.0050369985,0.05749094,0.93537706,-9.894443,10.677267,0.9089361,-0.42264113,-0.46874022,0.503481,0
1.9700000000000015,10.08738575866106,-0.582772394090602,-0.7422814311940048,0.5869880467478688,12.233403,-0.8387776,-3.7034051,0.5801872,0.5170916,0.010093158,2.1420107,0.3463615,-0.0024133222,0.053484343,0.93657285,-9.891276,10.688122,0.9110738,-0.5827724,-0.74228144,0.58698803,0
1.9800000000000015,10.08738575866106,-0.582772394090602,-0.7422814311940048,0.5869880467478688,12.233403,-0.8387776,-3.7034051,0.5801872,0.41819543,0.117024735,2.1511326,0.34379882,0.00021042861,0.04947609,0.93773973,-9.887924,10.698049,0.91330177,-0.5827724,-0.74228144,0.58698803,0
1.9900000000000015,10.08738575866106,-0.582772394090602,-0.7422814311940048,0.5869880467478688,12.233403,-0.8387776,-3.7034051,0.5801872,0.31933376,0.22405094,2.1602774,0.34122556,0.002834173,0.045466308,0.93887764,-9.88438,10.707046,0.9156107,-0.5827724,-0.74228144,0.58698803,0
2.0000000000000013,9.908683702955384,-0.7608340661283522,-0.46732713740375703,0.6427641080245207,11.778149,-0.7858845,-3.011332,0.57546866,0.22050853,0.33116245,2.1694453,0.33864173,0.0054578297,0.04145512,0.9399866,-9.880639,10.715115,0.9179913,-0.5827724,-0.74228144,0.58698803,0
2.010000000000001,9.908683702955384,-0.7608340661283522,-0.46732713740375703,0.6427641080245207,11.778149,-0.7858845,-3.011332,0.57546866,0.121721,0.4383494,2.1786284,0.3357333,0.006499127,0.03706982,0.9412056,-9.876885,10.722143,0.91865695,-0.76083404,-0.46732715,0.6427641,0
2.020000000000001,9.908683702955384,-0.7608340661283522,-0.46732713740375703,0.6427641080245207,11.778149,-0.7858845,-3.011332,0.57546866,0.022970418,0.5456023,2.1878188,0.3328147,0.0075402274,0.0326834,0.9423962,-9.87325,10.728297,0.9193854,-0.76083404,-0.46732715,0.6427641,0
2.0300000000000007,9.908683702955384,-0.7608340661283522,-0.46732713740375703,0.6427641080245207,11.778149,-0.7858845,-3.011332,0.57546866,-0.07574439,0.6529124,2.1970165,0.32988602,0.008581099,0.028295992,0.9435583,-9.869727,10.733575,0.92016846,-0.76083404,-0.46732715,0.6427641,0
2.0400000000000005,9.908683702955384,-0.7608340661283522,-0.46732713740375703,0.6427641080245207,11.778149,-0.7858845,-3.011332,0.57546866,-0.1744245,0.76027083,2.2062223,0.32694736,0.009621711,0.023907727,0.9446917,-9.866311,10.737975,0.9209983,-0.76083404,-0.46732715,0.6427641,0
2.0500000000000003,9.908683702955384,-0.7608340661283522,-0.46732713740375703,0.6427641080245207,11.696809,-0.9037426,-2.602603,0.4588425,-0.27307096,0.8676689,2.2154365,0.32399884,0.010662033,0.019518742,0.94579655,-9.862998,10.741498,0.9218667,-0.76083404,-0.46732715,0.6427641,0
2.06,9.908683702955384,-0.7608340661283522,-0.46732713740375703,0.6427641080245207,11.696809,-0.9037426,-2.602603,0.4588425,-0.3716848,0.97509784,2.2246597,0.32104048,0.011702031,0.015129166,0.9468728,-9.859782,10.744143,0.92276573,-0.76083404,-0.46732715,0.6427641,0
2.07,9.908683702955384,-0.7608340661283522,-0.46732713740375703,0.6427641080245207,11.696809,-0.9037426,-2.602603,0.4588425,-0.4702669,1.0825487,2.233892,0.31807244,0.012741675,0.010739132,0.9479204,-9.856657,10.745907,0.9236872,-0.76083404,-0.46732715,0.6427641,0
2.0799999999999996,9.908683702955384,-0.7608340661283522,-0.46732713740375703,0.6427641080245207,11.696809,-0.9037426,-2.602603,0.4588425,-0.56881815,1.1900129,2.2431335,0.31509474,0.013780934,0.006348772,0.9489394,-9.853618,10.746791,0.92462313,-0.76083404,-0.46732715,0.6427641,0
2.0899999999999994,9.682757367860981,-0.9617246050414923,-0.7768639460255446,0.7556978936563215,12.109166,-0.9922839,-2.594782,0.45869228,-0.6673395,1.2974815,2.2523847,0.3121075,0.014819776,0.0019582198,0.9499296,-9.850659,10.746794,0.9255655,-0.76083404,-0.46732715,0.6427641,0
2.099999999999999,9.682757367860981,-0.9617246050414923,-0.7768639460255446,0.7556978936563215,12.109166,-0.9922839,-2.594782,0.45869228,-0.7658319,1.4049455,2.2616339,0.30858892,0.017015789,-0.0038779555,0.9510358,-9.847794,10.7458105,0.92424506,-0.9617246,-0.77686393,0.7556979,0
2.109999999999999,9.682757367860981,-0.9617246050414923,-0.7768639460255446,0.7556978936563215,12.109166,-0.9922839,-2.594782,0.45869228,-0.86429524,1.5123936,2.2708697,0.30505413,0.019210912,-0.009713926,0.9520921,-9.844867,10.743631,0.9229033,-0.9617246,-0.77686393,0.7556979,0
