time-since-start [s],throttle_mpc,roll_mpc,pitch_mpc,yaw_mpc,throttle_nw,roll_nw,pitch_nw,yaw_nw,position_x [m],position_y [m],position_z [m],rotation_w [quaternion],rotation_x [quaternion],rotation_y [quaternion],rotation_z [quaternion],velocity_x [m/s],velocity_y [m/s],velocity_z [m/s],omega_x [rad/s],omega_y [rad/s],omega_z [rad/s],network_used
0.0,7.628857501570974,-0.6878014517316624,-5.444545841173633,0.1277681677573101,7.141915,-0.46426946,0.41741344,-0.10907302,13.21693,-12.155018,1.0673448,0.28637874,-0.44752774,0.21027036,0.8206659,-1.4196247,1.4252394,0.20125002,0.025093222,0.070338935,-0.013706389,0
0.01,7.628857501570974,-0.6878014517316624,-5.444545841173633,0.1277681677573101,7.066624,-0.8482101,-0.27516702,0.24342372,13.202483,-12.14052,1.0690755,0.28678304,-0.44614002,0.20973723,0.8214164,-1.4694211,1.474021,0.14465159,-0.036119588,-0.7397349,-0.011259533,0
0.02,7.628857501570974,-0.6878014517316624,-5.444545841173633,0.1277681677573101,7.066624,-0.8482101,-0.27516702,0.24342372,13.187549,-12.125545,1.0702336,0.28780198,-0.44171438,0.20781328,0.82393694,-1.5170469,1.5207161,0.08683463,-0.12118332,-1.4568812,-0.0059450353,0
0.03,7.628857501570974,-0.6878014517316624,-5.444545841173633,0.1277681677573101,7.066624,-0.8482101,-0.27516702,0.24342372,13.172147,-12.11011,1.0708122,0.2892792,-0.4346226,0.20455728,0.8279959,-1.5632684,1.5660676,0.029066097,-0.20954075,-2.0787556,0.00061631226,0
0.04,7.628857501570974,-0.6878014517316624,-5.444545841173633,0.1277681677573101,6.4308558,-0.8925963,-0.45171848,-0.023049932,13.156285,-12.094225,1.0708194,0.29110664,-0.42522585,0.20012887,0.8332997,-1.6088969,1.6108478,-0.027410809,-0.2841146,-2.6036499,0.00685569,0
0.05,7.628857501570974,-0.6878014517316624,-5.444545841173633,0.1277681677573101,6.4308558,-0.8925963,-0.45171848,-0.023049932,13.139972,-12.077896,1.0702697,0.29319623,-0.4138384,0.19469056,0.839565,-1.6537578,1.6548641,-0.08227134,-0.34705582,-3.0466876,0.012788895,0
0.060000000000000005,7.628857501570974,-0.6878014517316624,-5.444545841173633,0.1277681677573101,6.4308558,-0.8925963,-0.45171848,-0.023049932,13.123214,-12.0611315,1.0691805,0.29546973,-0.40072244,0.18837813,0.8465417,-1.6976844,1.6979343,-0.13526149,-0.40017942,-3.4206343,0.018430956,0
0.07,7.628857501570974,-0.6878014517316624,-5.444545841173633,0.1277681677573101,6.4308558,-0.8925963,-0.45171848,-0.023049932,13.106021,-12.0439415,1.0675716,0.2978587,-0.38609916,0.18130606,0.8540116,-1.7405142,1.7398846,-0.18619005,-0.44501707,-3.7362645,0.023796165,0
0.08,10.244119665068858,-0.5934955411362048,-4.8971681737076915,0.11661809703348004,7.5307684,-0.59801084,-0.7275142,-0.068545915,13.0884075,-12.02634,1.0654643,0.3003037,-0.37015665,0.17357168,0.86178577,-1.7820894,1.7805479,-0.23492146,-0.48286176,-4.002672,0.0288981,0
0.09,10.244119665068858,-0.5934955411362048,-4.8971681737076915,0.11661809703348004,7.5307684,-0.59801084,-0.7275142,-0.068545915,13.070314,-12.008269,1.0629689,0.30273226,-0.35323554,0.16535683,0.86961776,-1.8360301,1.8332125,-0.26366964,-0.50010085,-4.1421704,0.033202544,0
0.09999999999999999,10.244119665068858,-0.5934955411362048,-4.8971681737076915,0.11661809703348004,7.5307684,-0.59801084,-0.7275142,-0.068545915,13.051693,-11.989683,1.0602013,0.3050891,-0.33562362,0.15681438,0.87731797,-1.8879138,1.8837682,-0.28934774,-0.5146519,-4.259914,0.03729575,0
0.10999999999999999,10.244119665068858,-0.5934955411362048,-4.8971681737076915,0.11661809703348004,7.5307684,-0.59801084,-0.7275142,-0.068545915,13.032563,-11.970603,1.0571922,0.3073506,-0.31739965,0.14798264,0.88481313,-1.9375863,1.9320631,-0.31199646,-0.5269342,-4.3592954,0.04118814,0
0.11999999999999998,10.244119665068858,-0.5934955411362048,-4.8971681737076915,0.11661809703348004,7.5307684,-0.59801084,-0.7275142,-0.068545915,13.01295,-11.951051,1.0539714,0.30949706,-0.298633,0.13889524,0.89204144,-1.9848996,1.9779527,-0.33168602,-0.5373015,-4.4431777,0.04488951,0
0.12999999999999998,13.059702852835818,-0.2509813933110921,-3.083445495317548,-0.04461580061431407,9.246651,-0.58054405,-0.70207137,-0.07673857,12.992876,-11.931052,1.0505682,0.3115119,-0.27938512,0.12958182,0.898951,-2.0297122,2.0213,-0.3485127,-0.5460525,-4.513979,0.048409246,0
0.13999999999999999,13.059702852835818,-0.2509813933110921,-3.083445495317548,-0.04461580061431407,9.246651,-0.58054405,-0.70207137,-0.07673857,12.972306,-11.910577,1.0471253,0.31334838,-0.26032734,0.120414615,0.9052861,-2.0835063,2.0731838,-0.33952773,-0.50005615,-4.290885,0.043844484,0
0.15,13.059702852835818,-0.2509813933110921,-3.083445495317548,-0.04461580061431407,9.246651,-0.58054405,-0.70207137,-0.07673857,12.951217,-11.889601,1.0437883,0.31498992,-0.24201286,0.11169821,0.91089773,-2.1339622,2.1217217,-0.3273941,-0.46123022,-4.102583,0.039503712,0
0.16,14.850609191395431,0.06131835843055436,-0.6248546517894936,-0.07455018330884605,10.4017315,-0.46109015,-0.0013366062,-0.3407782,12.929639,-11.8681555,1.0405871,0.31646267,-0.22432987,0.10336437,0.91588396,-2.1811235,2.1669965,-0.3124481,-0.42845672,-3.9436471,0.035375934,0
0.17,14.850609191395431,0.06131835843055436,-0.6248546517894936,-0.07455018330884605,10.4017315,-0.46109015,-0.0013366062,-0.3407782,12.907575,-11.846243,1.037627,0.31772286,-0.2080483,0.09578146,0.92010546,-2.2310915,2.2148926,-0.27916783,-0.35210052,-3.4260802,0.029981826,0
0.18000000000000002,14.850609191395431,0.06131835843055436,-0.6248546517894936,-0.07455018330884605,10.4017315,-0.46109015,-0.0013366062,-0.3407782,12.885029,-11.823869,1.0350119,0.3187569,-0.19378532,0.089243725,0.92351335,-2.277714,2.2595522,-0.24353655,-0.28764668,-2.9892287,0.024852421,0
0.19000000000000003,14.850609191395431,0.06131835843055436,-0.6248546517894936,-0.07455018330884605,10.4017315,-0.46109015,-0.0013366062,-0.3407782,12.862031,-11.801062,1.0327629,0.3196195,-0.1812414,0.08359499,0.9262866,-2.321353,2.3013682,-0.2059911,-0.23324016,-2.6205041,0.019974714,0
0.20000000000000004,16.035770701637563,0.27951124550692014,1.2110276786509204,-0.09406239287577106,11.628538,-0.875879,1.7373781,-0.5409806,12.838611,-11.77785,1.0308974,0.32035178,-0.17015862,0.07870117,0.92856175,-2.3623264,2.340684,-0.16687436,-0.18731488,-2.3092825,0.015336347,0
0.21000000000000005,16.035770701637563,0.27951124550692014,1.2110276786509204,-0.09406239287577106,11.628538,-0.875879,1.7373781,-0.5409806,12.814776,-11.754242,1.0294849,0.32094657,-0.16097179,0.07476416,0.930318,-2.404025,2.3807926,-0.11542092,-0.11452532,-1.7602912,0.0099681225,0
0.22000000000000006,16.035770701637563,0.27951124550692014,1.2110276786509204,-0.09406239287577106,11.628538,-0.875879,1.7373781,-0.5409806,12.790538,-11.730242,1.0285923,0.32140496,-0.15401568,0.07193882,0.93155926,-2.4436703,2.4190648,-0.062930174,-0.053082995,-1.2969153,0.004863321,0
0.23000000000000007,16.035770701637563,0.27951124550692014,1.2110276786509204,-0.09406239287577106,11.628538,-0.875879,1.7373781,-0.5409806,12.765909,-11.705866,1.0282286,0.32176262,-0.14894924,0.0700548,0.93240285,-2.4817545,2.456007,-0.009705425,-0.0012193769,-0.90580285,9.014853e-06,0
0.24000000000000007,16.035770701637563,0.27951124550692014,1.2110276786509204,-0.09406239287577106,12.535574,-1.0016493,2.3980353,-0.5077903,12.740906,-11.681125,1.0284,0.32204485,-0.14548185,0.068967015,0.93293387,-2.5186992,2.4920516,0.044017937,0.04255877,-0.5756843,-0.0046070926,0
0.25000000000000006,16.035770701637563,0.27951124550692014,1.2110276786509204,-0.09406239287577106,12.535574,-1.0016493,2.3980353,-0.5077903,12.715537,-11.656027,1.0291102,0.3222697,-0.14336647,0.0685522,0.9332142,-2.5548635,2.5275671,0.09805388,0.079511315,-0.29704788,-0.008996681,0
0.26000000000000006,16.035770701637563,0.27951124550692014,1.2110276786509204,-0.09406239287577106,12.535574,-1.0016493,2.3980353,-0.5077903,12.68981,-11.630574,1.0303617,0.32245013,-0.14239344,0.0687058,0.93328947,-2.590552,2.5628655,0.15225264,0.11070241,-0.06186489,-0.013170883,0
0.2700000000000001,16.035770701637563,0.27951124550692014,1.2110276786509204,-0.09406239287577106,12.535574,-1.0016493,2.3980353,-0.5077903,12.663727,-11.60477,1.0321554,0.32259545,-0.14238508,0.06933916,0.9331937,-2.626023,2.5982118,0.20649122,0.1370301,0.1366414,-0.01714025,0
0.2800000000000001,16.71541912256399,0.4412341856217885,2.6462346545459297,-0.10555928667202513,12.025794,-0.43978602,2.2649443,-0.074124314,12.637289,-11.578609,1.0344914,0.32271242,-0.14319092,0.07037727,0.93295217,-2.6614945,2.6338289,0.2606665,0.15925254,0.3041907,-0.020914843,0
0.2900000000000001,16.71541912256399,0.4412341856217885,2.6462346545459297,-0.10555928667202513,12.025794,-0.43978602,2.2649443,-0.074124314,12.610489,-11.552083,1.0374006,0.32277566,-0.14519854,0.07200207,0.93249595,-2.69869,2.6714635,0.32112426,0.20323396,0.66942996,-0.025068352,0
0.3000000000000001,16.71541912256399,0.4412341856217885,2.6462346545459297,-0.10555928667202513,12.025794,-0.43978602,2.2649443,-0.074124314,12.583314,-11.525176,1.0409126,0.32276213,-0.14870708,0.07435394,0.9317629,-2.7364595,2.70996,0.3812388,0.24035744,0.97771025,-0.029018072,0
0.3100000000000001,16.71541912256399,0.4412341856217885,2.6462346545459297,-0.10555928667202513,12.025794,-0.43978602,2.2649443,-0.074124314,12.555757,-11.497878,1.0450234,0.32267833,-0.15347941,0.07731783,0.9307763,-2.7751553,2.7496724,0.44082776,0.27169207,1.2379143,-0.03277398,0
0.3200000000000001,17.52249459125405,0.5167278169726506,3.5438794851669133,-0.10163891877452774,13.215904,-0.17014344,2.111008,-0.21799682,12.527806,-11.470178,1.0497268,0.32252818,-0.15931451,0.080796145,0.92955166,-2.8150713,2.7908955,0.499723,0.2981401,1.4575397,-0.036345582,0
0.3300000000000001,17.52249459125405,0.5167278169726506,3.5438794851669133,-0.10163891877452774,13.215904,-0.17014344,2.111008,-0.21799682,12.499439,-11.442045,1.0550528,0.3222885,-0.16636568,0.08484995,0.9280371,-2.8584676,2.8359668,0.5652949,0.3322402,1.7829018,-0.039549544,0
0.34000000000000014,17.52249459125405,0.5167278169726506,3.5438794851669133,-0.10163891877452774,13.215904,-0.17014344,2.111008,-0.21799682,12.47063,-11.413451,1.061029,0.32193604,-0.17474282,0.08952207,0.9261791,-2.903753,2.8832245,0.6297336,0.361022,2.0575237,-0.04259629,0
0.35000000000000014,17.52249459125405,0.5167278169726506,3.5438794851669133,-0.10163891877452774,13.215904,-0.17014344,2.111008,-0.21799682,12.441357,-11.384373,1.0676427,0.32147244,-0.18422958,0.094711095,0.923983,-2.951239,2.9329722,0.6927945,0.3853149,2.2893188,-0.04549354,0
0.36000000000000015,17.79598078431267,0.5073176048111626,3.7360372990805186,-0.08606799221020033,14.126434,0.28916472,2.2099574,-0.33828935,12.411595,-11.354783,1.0748792,0.3208983,-0.19464211,0.100330755,0.92145115,-3.001179,2.9854555,0.7542374,0.405819,2.4849653,-0.048248608,0
0.37000000000000016,17.79598078431267,0.5073176048111626,3.7360372990805186,-0.08606799221020033,14.126434,0.28916472,2.2099574,-0.33828935,12.381318,-11.324649,1.0827333,0.32020327,-0.20589581,0.106329106,0.91856986,-3.0545979,3.041737,0.8162836,0.42165697,2.6800683,-0.050104417,0
0.38000000000000017,17.79598078431267,0.5073176048111626,3.7360372990805186,-0.08606799221020033,14.126434,0.28916472,2.2099574,-0.33828935,12.3504925,-11.293937,1.0911974,0.31937742,-0.21791364,0.1126603,0.91532457,-3.1109042,3.101172,0.8761862,0.43502432,2.8447452,-0.05186916,0
0.3900000000000002,17.79598078431267,0.5073176048111626,3.7360372990805186,-0.08606799221020033,14.126434,0.28916472,2.2099574,-0.33828935,12.31909,-11.262614,1.1002487,0.3184215,-0.23056105,0.11926451,0.9117154,-3.1702495,3.1638973,0.93368566,0.4463063,2.9837408,-0.053547304,0
0.4000000000000002,17.2666267756022,0.38288422679039513,3.2210058042133554,-0.06671772741880053,14.94404,-0.1478606,1.6264101,-0.23381375,12.287077,-11.230648,1.1098619,0.3173365,-0.24372338,0.12609059,0.9077429,-3.2327447,3.2300112,0.9885257,0.4558283,3.1010602,-0.055143114,0
0.4100000000000002,17.2666267756022,0.38288422679039513,3.2210058042133554,-0.06671772741880053,14.94404,-0.1478606,1.6264101,-0.23381375,12.254434,-11.198012,1.1199868,0.316136,-0.25713205,0.13298523,0.90346867,-3.2965014,3.297499,1.0359999,0.44445458,3.1197655,-0.055711076,0
0.4200000000000002,17.2666267756022,0.38288422679039513,3.2210058042133554,-0.06671772741880053,14.94404,-0.1478606,1.6264101,-0.23381375,12.221137,-11.164686,1.1305716,0.31483462,-0.27057153,0.13982607,0.89895403,-3.3633685,3.3682902,1.0804787,0.43485427,3.1355543,-0.056251187,0
0.4300000000000002,17.2666267756022,0.38288422679039513,3.2210058042133554,-0.06671772741880053,14.94404,-0.1478606,1.6264101,-0.23381375,12.187156,-11.130635,1.1415856,0.3134347,-0.28402275,0.14661431,0.8941999,-3.4333067,3.4423172,1.1218058,0.42675093,3.1488807,-0.05676479,0
0.4400000000000002,17.2666267756022,0.38288422679039513,3.2210058042133554,-0.06671772741880053,14.628267,-0.4723361,1.4129549,0.09103408,12.15246,-11.095828,1.1529964,0.31193832,-0.29746914,0.15335073,0.8892073,-3.5062678,3.5195086,1.1598285,0.41991153,3.1601288,-0.05725318,0
0.45000000000000023,17.2666267756022,0.38288422679039513,3.2210058042133554,-0.06671772741880053,14.628267,-0.4723361,1.4129549,0.09103408,12.117021,-11.060234,1.1647702,0.31034753,-0.31089616,0.16003563,0.8839774,-3.5821965,3.5997884,1.1943983,0.4141386,3.1696227,-0.0577176,0
0.46000000000000024,17.2666267756022,0.38288422679039513,3.2210058042133554,-0.06671772741880053,14.628267,-0.4723361,1.4129549,0.09103408,12.080807,-11.023822,1.1768719,0.30866423,-0.32429087,0.166669,0.8785116,-3.6610303,3.683077,1.22537,0.40926546,3.177636,-0.05815922,0
0.47000000000000025,17.2666267756022,0.38288422679039513,3.2210058042133554,-0.06671772741880053,14.628267,-0.4723361,1.4129549,0.09103408,12.04379,-10.986563,1.1892648,0.30689016,-0.33764207,0.17325057,0.8728115,-3.7426996,3.7692914,1.2526032,0.40515244,3.1843994,-0.05857919,0
0.48000000000000026,16.316310169720396,0.17707331968110285,2.163415332428097,-0.049644521773170254,14.861095,-0.56995565,0.8530322,0.17143692,12.005942,-10.948426,1.2019107,0.30502704,-0.35093957,0.17977986,0.8668786,-3.8271308,3.8583446,1.2759614,0.40168068,3.1901083,-0.05897857,0
0.49000000000000027,16.316310169720396,0.17707331968110285,2.163415332428097,-0.049644521773170254,14.861095,-0.56995565,0.8530322,0.17143692,11.967261,-10.90941,1.2147378,0.3031237,-0.3638346,0.18605764,0.86088467,-3.9094365,3.9450774,1.2888716,0.3666464,3.0299976,-0.058520544,0
0.5000000000000002,16.316310169720396,0.17707331968110285,2.163415332428097,-0.049644521773170254,14.861095,-0.56995565,0.8530322,0.17143692,11.927746,-10.869515,1.2276752,0.30122605,-0.37605906,0.19193079,0.854988,-3.9940999,4.034198,1.2980561,0.33707657,2.8948557,-0.058085002,0
0.5100000000000002,16.316310169720396,0.17707331968110285,2.163415332428097,-0.049644521773170254,14.861095,-0.56995565,0.8530322,0.17143692,11.887373,-10.828718,1.2406862,0.29933056,-0.38771257,0.19746032,0.8491696,-4.080952,4.125504,1.3035915,0.31211922,2.7807891,-0.057670828,0
0.5200000000000002,15.29278931872273,-0.10038319459112255,0.8137321338339465,-0.04060209310890005,14.19589,-0.6999832,-0.048140913,0.7446445,11.84612,-10.786998,1.2537347,0.29743367,-0.3988784,0.20269735,0.84341127,-4.1698465,4.2188225,1.305542,0.29105458,2.6845107,-0.057276983,0
0.5300000000000002,15.29278931872273,-0.10038319459112255,0.8137321338339465,-0.04060209310890005,14.19589,-0.6999832,-0.048140913,0.7446445,11.803997,-10.744365,1.2667546,0.29559812,-0.40920636,0.20743233,0.8379399,-4.2549434,4.308013,1.2979364,0.229998,2.3927662,-0.056458738,0
0.5400000000000003,15.29278931872273,-0.10038319459112255,0.8137321338339465,-0.04060209310890005,14.19589,-0.6999832,-0.048140913,0.7446445,11.761015,-10.700832,1.2796831,0.2938795,-0.41843238,0.21150666,0.83295476,-4.341629,4.39869,1.2872956,0.17846508,2.1465187,-0.055680662,0
0.5500000000000003,15.29278931872273,-0.10038319459112255,0.8137321338339465,-0.04060209310890005,14.19589,-0.6999832,-0.048140913,0.7446445,11.717159,-10.656386,1.2924911,0.29226375,-0.42673486,0.21502751,0.8283973,-4.429722,4.4906244,1.2738947,0.13497043,1.9386733,-0.054940745,0
0.5600000000000003,13.692422129345386,-0.3843105793450779,-0.5896143487848446,-0.05142208041132881,12.953575,-0.60116965,-0.7836347,1.0908574,11.672417,-10.611016,1.3051523,0.2907374,-0.43426242,0.21808428,0.82421285,-4.5190735,4.5836267,1.2579725,0.09826009,1.7632407,-0.05423713,0
0.5700000000000003,13.692422129345386,-0.3843105793450779,-0.5896143487848446,-0.05142208041132881,12.953575,-0.60116965,-0.7836347,1.0908574,11.6268215,-10.564761,1.3176007,0.28936335,-0.44071156,0.22049513,0.820624,-4.600084,4.6676974,1.2314081,0.02299034,1.396317,-0.05409899,0
0.5800000000000003,13.692422129345386,-0.3843105793450779,-0.5896143487848446,-0.05142208041132881,12.953575,-0.60116965,-0.7836347,1.0908574,11.580411,-10.517661,1.3297749,0.28819385,-0.4458536,0.22212273,0.8178142,-4.6819453,4.7523594,1.2031593,-0.040539075,1.0866143,-0.053967644,0
0.5900000000000003,13.692422129345386,-0.3843105793450779,-0.5896143487848446,-0.05142208041132881,12.953575,-0.60116965,-0.7836347,1.0908574,11.533179,-10.469712,1.3416595,0.2872012,-0.449901,0.22309425,0.81567955,-4.764511,4.837412,1.1735942,-0.09415946,0.8252093,-0.053842742,0
0.6000000000000003,12.69406495040677,-0.6232179330146493,-1.743081764710562,-0.04153968517514835,11.97334,-1.2233001,-2.284927,1.6999084,11.485119,-10.420911,1.3532434,0.2863602,-0.45303032,0.22351551,0.8141265,-4.8476644,4.922693,1.1430286,-0.13941625,0.60457,-0.053723972,0
0.6100000000000003,12.69406495040677,-0.6232179330146493,-1.743081764710562,-0.04153968517514835,11.97334,-1.2233001,-2.284927,1.6999084,11.4362545,-10.371289,1.3644933,0.28570735,-0.45503995,0.22326545,0.81330323,-4.9252033,5.001832,1.1068846,-0.21487771,0.23845756,-0.053126086,0
0.6200000000000003,12.69406495040677,-0.6232179330146493,-1.743081764710562,-0.04153968517514835,11.97334,-1.2233001,-2.284927,1.6999084,11.386612,-10.320875,1.3753802,0.28526923,-0.45577687,0.22225249,0.8133218,-5.00307,5.080875,1.0704528,-0.2785688,-0.07056027,-0.052557535,0
0.6300000000000003,12.69406495040677,-0.6232179330146493,-1.743081764710562,-0.04153968517514835,11.97334,-1.2233001,-2.284927,1.6999084,11.336191,-10.269672,1.3859028,0.28501055,-0.4554395,0.22059643,0.814052,-5.081149,5.159654,1.0340896,-0.33232558,-0.33138734,-0.0520169,0
0.6400000000000003,12.69406495040677,-0.6232179330146493,-1.743081764710562,-0.04153968517514835,11.576756,-1.5807344,-2.658779,1.7370702,11.284988,-10.217684,1.3960632,0.2849002,-0.45419276,0.21839705,0.81537914,-5.1593432,5.238028,0.9980949,-0.3776975,-0.55153894,-0.051502783,0
0.6500000000000004,12.69406495040677,-0.6232179330146493,-1.743081764710562,-0.04153968517514835,11.576756,-1.5807344,-2.658779,1.7370702,11.233004,-10.164913,1.4058667,0.28491092,-0.45217407,0.21573766,0.81720334,-5.2375684,5.315875,0.9627208,-0.41599217,-0.7373582,-0.051013883,0
0.6600000000000004,12.69406495040677,-0.6232179330146493,-1.743081764710562,-0.04153968517514835,11.576756,-1.5807344,-2.658779,1.7370702,11.180237,-10.111368,1.4153205,0.2850194,-0.44949844,0.21268798,0.819438,-5.31575,5.3930893,0.92817706,-0.4483137,-0.89419925,-0.05054898,0
0.6700000000000004,12.69406495040677,-0.6232179330146493,-1.743081764710562,-0.04153968517514835,11.576756,-1.5807344,-2.658779,1.7370702,11.126688,-10.0570545,1.4244337,0.28520554,-0.4462623,0.20930657,0.8220086,-5.3938227,5.469577,0.89463764,-0.47559407,-1.0265812,-0.050106887,0
0.6800000000000004,12.383498739714062,-0.7961760512110657,-2.5065724941267122,-0.025267328452783705,12.606777,-1.6461293,-2.460184,1.8522242,11.072361,-10.00198,1.4332172,0.28545225,-0.4425467,0.2056426,0.8248516,-5.471727,5.545255,0.86224574,-0.49861938,-1.1383184,-0.049686495,0
0.6900000000000004,12.383498739714062,-0.7961760512110657,-2.5065724941267122,-0.025267328452783705,12.606777,-1.6461293,-2.460184,1.8522242,11.017264,-9.946161,1.4416747,0.28577495,-0.43818632,0.20159371,0.828061,-5.547502,5.6182113,0.8294944,-0.54502904,-1.3516959,-0.048488237,0
0.7000000000000004,12.383498739714062,-0.7961760512110657,-2.5065724941267122,-0.025267328452783705,12.606777,-1.6461293,-2.460184,1.8522242,10.961411,-9.889618,1.4498119,0.286182,-0.43304983,0.19707946,0.8317013,-5.62297,5.6901774,0.7981788,-0.58419985,-1.5317975,-0.047348775,0
0.7100000000000004,12.383498739714062,-0.7961760512110657,-2.5065724941267122,-0.025267328452783705,12.606777,-1.6461293,-2.460184,1.8522242,10.904806,-9.832361,1.457644,0.2866505,-0.4272458,0.19216749,0.8356816,-5.6980424,5.7610316,0.76847863,-0.61726075,-1.6838125,-0.04626522,0
0.7200000000000004,13.254173296279014,-0.8964294501683582,-2.8764381856017773,-0.0004408851222181292,13.187528,-1.6251701,-2.8433223,1.8918695,10.847452,-9.774402,1.4651877,0.28716105,-0.42086574,0.18691483,0.8399244,-5.772636,5.8306613,0.74053717,-0.64516515,-1.812121,-0.045234837,0
0.7300000000000004,13.254173296279014,-0.8964294501683582,-2.8764381856017773,-0.0004408851222181292,13.187528,-1.6251701,-2.8433223,1.8918695,10.789329,-9.715728,1.4724864,0.2877049,-0.41387305,0.18129458,0.8444329,-5.851874,5.903761,0.71953815,-0.68435174,-1.9781004,-0.04303679,0
0.7400000000000004,13.254173296279014,-0.8964294501683582,-2.8764381856017773,-0.0004408851222181292,13.187528,-1.6251701,-2.8433223,1.8918695,10.730416,-9.656331,1.4795858,0.2882721,-0.4062404,0.1752871,0.8492008,-5.930413,5.9753003,0.70068717,-0.7174262,-2.1181958,-0.040946588,0
0.7500000000000004,13.254173296279014,-0.8964294501683582,-2.8764381856017773,-0.0004408851222181292,13.187528,-1.6251701,-2.8433223,1.8918695,10.670722,-9.596228,1.486508,0.28884587,-0.39805192,0.16894697,0.8541541,-6.0081506,6.0451474,0.68410224,-0.745342,-2.2364433,-0.038958956,0
0.7600000000000005,14.17954546722831,-0.9326289532248923,-2.8774383468253943,0.03742774358626111,13.082271,-1.7430357,-2.3824925,1.6631132,10.610256,-9.535435,1.493276,0.28941205,-0.3893791,0.16232048,0.85923,-6.084991,6.1131797,0.66986924,-0.7689036,-2.3362505,-0.03706887,0
0.7700000000000005,14.17954546722831,-0.9326289532248923,-2.8774383468253943,0.03742774358626111,13.082271,-1.7430357,-2.3824925,1.6631132,10.548999,-9.473948,1.4999436,0.28994942,-0.38028607,0.15543632,0.8643789,-6.166136,6.1838975,0.66406995,-0.7944328,-2.4206495,-0.033413302,0
0.7800000000000005,14.17954546722831,-0.9326289532248923,-2.8774383468253943,0.03742774358626111,13.082271,-1.7430357,-2.3824925,1.6631132,10.486936,-9.411764,1.5065664,0.29044008,-0.37082714,0.14831969,0.8695589,-6.246128,6.252433,0.660886,-0.8159803,-2.491887,-0.029937122,0
0.7900000000000005,14.17954546722831,-0.9326289532248923,-2.8774383468253943,0.03742774358626111,13.082271,-1.7430357,-2.3824925,1.6631132,10.424079,-9.3489065,1.5131704,0.290878,-0.36104587,0.14100258,0.87473065,-6.3248773,6.3186755,0.6603323,-0.83416724,-2.5520148,-0.02663152,0
0.8000000000000005,14.241695274843112,-0.8407738531231945,-2.537885491948755,0.05477084800116007,13.637653,-1.6079854,-2.5021203,1.539133,10.360441,-9.285399,1.519782,0.29125825,-0.35097975,0.13351226,0.8798613,-6.4022975,6.3825226,0.6624049,-0.84951794,-2.6027658,-0.023488108,0
0.8100000000000005,14.241695274843112,-0.8407738531231945,-2.537885491948755,0.05477084800116007,13.637653,-1.6079854,-2.5021203,1.539133,10.296035,-9.221264,1.5264297,0.29157034,-0.34077033,0.12594517,0.88487273,-6.47864,6.444153,0.6675276,-0.8481475,-2.5926497,-0.01964792,0
0.8200000000000005,14.241695274843112,-0.8407738531231945,-2.537885491948755,0.05477084800116007,13.637653,-1.6079854,-2.5021203,1.539133,10.230874,-9.156525,1.5331414,0.2918079,-0.33053443,0.118380144,0.8897083,-6.5535083,6.5032353,0.6751884,-0.8469912,-2.5841115,-0.015996177,0
0.8300000000000005,14.241695274843112,-0.8407738531231945,-2.537885491948755,0.05477084800116007,13.637653,-1.6079854,-2.5021203,1.539133,10.164971,-9.0912075,1.539942,0.29197273,-0.32026872,0.11081531,0.8943709,-6.6268544,6.5597324,0.68530035,-0.8460156,-2.5769045,-0.012523615,0
0.8400000000000005,14.241695274843112,-0.8407738531231945,-2.537885491948755,0.05477084800116007,13.678091,-1.500414,-2.4362981,1.4368817,10.098342,-9.025338,1.5468556,0.29206648,-0.30997056,0.10324921,0.89886296,-6.69863,6.6136084,0.69777656,-0.8451925,-2.5708213,-0.009221457,0
0.8500000000000005,14.241695274843112,-0.8407738531231945,-2.537885491948755,0.05477084800116007,13.678091,-1.500414,-2.4362981,1.4368817,10.031005,-8.958944,1.5539054,0.29209054,-0.29963803,0.09568077,0.903186,-6.7687874,6.6648283,0.7125301,-0.84449804,-2.5656867,-0.0060813357,0
0.8600000000000005,14.241695274843112,-0.8407738531231945,-2.537885491948755,0.05477084800116007,13.678091,-1.500414,-2.4362981,1.4368817,9.962973,-8.892051,1.5611137,0.29204622,-0.28926975,0.088109255,0.90734136,-6.83728,6.7133584,0.7294739,-0.84391254,-2.5613527,-0.0030952846,0
0.8700000000000006,14.241695274843112,-0.8407738531231945,-2.537885491948755,0.05477084800116007,13.678091,-1.500414,-2.4362981,1.4368817,9.894264,-8.824686,1.5685021,0.29193458,-0.27886492,0.08053419,0.91133,-6.9040613,6.7591667,0.7485203,-0.8434183,-2.5576944,-0.0002557821,0
0.8800000000000006,13.673229228888372,-0.6808060260835956,-2.0421536537400993,0.06860203542397121,13.510454,-1.4663819,-1.8798212,1.2178208,9.824897,-8.756877,1.576091,0.29175666,-0.26842305,0.07295537,0.91515255,-6.969086,6.8022237,0.76958114,-0.8430014,-2.554607,0.0024443953,0
0.8900000000000006,13.673229228888372,-0.6808060260835956,-2.0421536537400993,0.06860203542397121,13.510454,-1.4663819,-1.8798212,1.2178208,9.754901,-8.688659,1.5838763,0.29151535,-0.25810757,0.065489896,0.9187546,-7.029793,6.840902,0.7877283,-0.8177018,-2.4746916,0.0056907744,0
0.9000000000000006,13.673229228888372,-0.6808060260835956,-2.0421536537400993,0.06860203542397121,13.510454,-1.4663819,-1.8798212,1.2178208,9.684306,-8.620068,1.5918515,0.29121587,-0.24805096,0.058231425,0.92210245,-7.0887766,6.8769565,0.80759335,-0.79634845,-2.4072392,0.0087778475,0
0.9100000000000006,13.673229228888372,-0.6808060260835956,-2.0421536537400993,0.06860203542397121,13.510454,-1.4663819,-1.8798212,1.2178208,9.613131,-8.551128,1.6000335,0.29086193,-0.23821099,0.05114823,0.92522347,-7.1460466,6.910435,0.8290511,-0.7783257,-2.3503056,0.01171344,0
0.9200000000000006,12.145654439121074,-0.45315144022832354,-1.3744207586577328,0.06970943450728148,12.302973,-1.5179363,-2.008966,1.1349498,9.541391,-8.481867,1.6084377,0.29045644,-0.22855191,0.04421345,0.9281401,-7.2016096,6.941379,0.85198843,-0.76311386,-2.3022506,0.014504976,0
0.9300000000000006,12.145654439121074,-0.45315144022832354,-1.3744207586577328,0.06970943450728148,12.302973,-1.5179363,-2.008966,1.1349498,9.469135,-8.412325,1.6170096,0.2900116,-0.2192657,0.037566755,0.9308084,-7.249459,6.9666557,0.8626201,-0.71477294,-2.1575568,0.017213874,0
0.9400000000000006,12.145654439121074,-0.45315144022832354,-1.3744207586577328,0.06970943450728148,12.302973,-1.5179363,-2.008966,1.1349498,9.396408,-8.342541,1.6256937,0.28954065,-0.21050553,0.03131805,0.9332056,-7.2958546,6.989825,0.87434614,-0.67397106,-2.0354276,0.019789848,0
0.9500000000000006,12.145654439121074,-0.45315144022832354,-1.3744207586577328,0.06970943450728148,12.302973,-1.5179363,-2.008966,1.1349498,9.323223,-8.272534,1.6345,0.28904644,-0.20219056,0.025406156,0.93537456,-7.3408575,7.010997,0.8870509,-0.6395325,-1.9323446,0.022239434,0
0.9600000000000006,10.735692549852565,-0.23485759479278923,-0.8502165439121695,0.059952839550273695,12.700172,-1.3575889,-2.25493,0.61437166,9.249595,-8.202328,1.6434379,0.28853098,-0.19425197,0.01977925,0.93734986,-7.384519,7.030266,0.9006364,-0.610465,-1.8453372,0.02456882,0
0.9700000000000006,10.735692549852565,-0.23485759479278923,-0.8502165439121695,0.059952839550273695,12.700172,-1.3575889,-2.25493,0.61437166,9.175562,-8.131947,1.6524504,0.28801012,-0.18680318,0.0145356925,0.9391184,-7.4219704,7.0456953,0.9019574,-0.5518899,-1.6901484,0.026305124,0
0.9800000000000006,10.735692549852565,-0.23485759479278923,-0.8502165439121695,0.059952839550273695,12.700172,-1.3575889,-2.25493,0.61437166,9.10116,-8.061419,1.6614791,0.28749833,-0.17993213,0.009751167,0.94067734,-7.458348,7.059642,0.9038944,-0.50244933,-1.5591612,0.027956238,0
0.9900000000000007,10.735692549852565,-0.23485759479278923,-0.8502165439121695,0.059952839550273695,12.700172,-1.3575889,-2.25493,0.61437166,9.026399,-7.9907584,1.67053,0.28699464,-0.17355025,0.005354569,0.9420645,-7.4937215,7.0722237,0.9063712,-0.46071905,-1.4486014,0.029526327,0
1.0000000000000007,9.952103854840844,-0.045854318114747716,-0.3652575482851874,0.042998628080322614,13.284864,-1.3784205,-2.4406617,0.65692365,8.951289,-7.919978,1.6796081,0.28649765,-0.16758221,0.0012857628,0.9433099,-7.5281506,7.083542,0.9093248,-0.42549646,-1.3552833,0.03101937,0
1.0100000000000007,9.952103854840844,-0.045854318114747716,-0.3652575482851874,0.042998628080322614,13.284864,-1.3784205,-2.4406617,0.65692365,8.875852,-7.8490944,1.6886809,0.28602064,-0.16212581,-0.0023794859,0.94440544,-7.5592427,7.0929484,0.9052942,-0.36629423,-1.2008883,0.031607192,0
1.0200000000000007,9.952103854840844,-0.045854318114747716,-0.3652575482851874,0.042998628080322614,13.284864,-1.3784205,-2.4406617,0.65692365,8.800107,-7.778122,1.697715,0.28557536,-0.15725575,-0.005583874,0.9453497,-7.5895844,7.101387,0.9016002,-0.31632408,-1.0705712,0.03216618,0
1.0300000000000007,9.952103854840844,-0.045854318114747716,-0.3652575482851874,0.042998628080322614,13.284864,-1.3784205,-2.4406617,0.65692365,8.724063,-7.7070694,1.7067139,0.285158,-0.15288179,-0.008399187,0.946172,-7.6192474,7.1089706,0.8981941,-0.27414647,-0.96057683,0.032697726,0
1.0400000000000007,9.952103854840844,-0.045854318114747716,-0.3652575482851874,0.042998628080322614,14.246704,-1.5313405,-2.2490196,0.7244917,8.647725,-7.6359453,1.7156799,0.28476495,-0.14892736,-0.010886053,0.9468955,-7.648293,7.1157956,0.8950368,-0.23854625,-0.8677365,0.033203203,0
1.0500000000000007,9.952103854840844,-0.045854318114747716,-0.3652575482851874,0.042998628080322614,14.246704,-1.5313405,-2.2490196,0.7244917,8.571099,-7.564756,1.7246153,0.28439274,-0.14532766,-0.013095663,0.9475385,-7.6767745,7.121943,0.8920967,-0.20849746,-0.7893746,0.03368387,0
1.0600000000000007,9.952103854840844,-0.045854318114747716,-0.3652575482851874,0.042998628080322614,14.246704,-1.5313405,-2.2490196,0.7244917,8.494192,-7.4935083,1.7335224,0.28403836,-0.14202777,-0.0150712365,0.94811565,-7.7047358,7.127481,0.889348,-0.18313457,-0.72323316,0.034140963,0
1.0700000000000007,9.952103854840844,-0.045854318114747716,-0.3652575482851874,0.042998628080322614,14.246704,-1.5313405,-2.2490196,0.7244917,8.417006,-7.422208,1.7424029,0.28369907,-0.13898122,-0.016849257,0.9486387,-7.732215,7.132468,0.8867697,-0.16172683,-0.66740674,0.03457561,0
1.0800000000000007,9.751883436428104,0.09836808842438478,-0.07526482560216481,0.015492586305464413,12.339496,-1.1010891,-1.8462584,0.8521546,8.339548,-7.35086,1.7512584,0.28337237,-0.13614874,-0.018460516,0.94911695,-7.759244,7.1369534,0.8843446,-0.14365746,-0.6202863,0.034988925,0
1.0900000000000007,9.751883436428104,0.09836808842438478,-0.07526482560216481,0.015492586305464413,12.339496,-1.1010891,-1.8462584,0.8521546,8.261826,-7.279471,1.7600808,0.2830695,-0.13359083,-0.01984381,0.94954276,-7.785319,7.140902,0.88012975,-0.105916,-0.5352895,0.034032226,0
1.1000000000000008,9.751883436428104,0.09836808842438478,-0.07526482560216481,0.015492586305464413,12.339496,-1.1010891,-1.8462584,0.8521546,8.183844,-7.208044,1.7688615,0.28279987,-0.13135391,-0.020952059,0.94991124,-7.8110228,7.144471,0.8760323,-0.074059874,-0.4635481,0.03312247,0
1.1100000000000008,9.751883436428104,0.09836808842438478,-0.07526482560216481,0.015492586305464413,12.339496,-1.1010891,-1.8462584,0.8521546,8.105607,-7.136583,1.7776017,0.28255907,-0.12938818,-0.021828258,0.9502329,-7.836396,7.1477256,0.8720361,-0.04717132,-0.40299505,0.032257367,0
1.1200000000000008,10.020158090760217,0.24988662382105362,0.3795851213525554,-0.021955948872480566,12.290903,-0.7125934,-1.6411761,0.8021239,8.027118,-7.06509,1.7863026,0.28234315,-0.12765154,-0.022508683,0.95051605,-7.861472,7.150721,0.86812806,-0.024475746,-0.35188517,0.031434715,0
1.1300000000000008,10.020158090760217,0.24988662382105362,0.3795851213525554,-0.021955948872480566,12.290903,-0.7125934,-1.6411761,0.8021239,7.948375,-6.9935684,1.7949777,0.28216505,-0.12626423,-0.022915512,0.9507445,-7.8869677,7.1535883,0.86688936,0.018308194,-0.23781185,0.028814824,0
1.1400000000000008,10.020158090760217,0.24988662382105362,0.3795851213525554,-0.021955948872480566,12.290903,-0.7125934,-1.6411761,0.8021239,7.8693795,-6.922019,1.8036406,0.28203556,-0.12531978,-0.022988757,0.95090616,-7.9122515,7.1563287,0.8657098,0.054420613,-0.14152846,0.026323494,0
1.1500000000000008,10.020158090760217,0.24988662382105362,0.3795851213525554,-0.021955948872480566,12.290903,-0.7125934,-1.6411761,0.8021239,7.790132,-6.850442,1.8122919,0.28194842,-0.12474926,-0.022780646,0.951012,-7.937384,7.159027,0.8645706,0.084901996,-0.0602607,0.023954408,0
1.1600000000000008,10.127972544592321,0.3268482596947818,0.4380581867474706,-0.07369787207344569,12.723599,-0.41975313,-1.5435703,1.104879,7.710633,-6.778838,1.820932,0.2818982,-0.1244944,-0.02233523,0.9510709,-7.9624157,7.1617556,0.86345667,0.1106302,0.0083333105,0.021701578,0
1.1700000000000008,10.127972544592321,0.3268482596947818,0.4380581867474706,-0.07369787207344569,12.723599,-0.41975313,-1.5435703,1.104879,7.630882,-6.7072067,1.8295664,0.2818905,-0.12451941,-0.021654582,0.9510856,-7.9876595,7.164606,0.8633986,0.14434853,0.07534861,0.017020304,0
1.1800000000000008,10.127972544592321,0.3268482596947818,0.4380581867474706,-0.07369787207344569,12.723599,-0.41975313,-1.5435703,1.104879,7.550879,-6.6355457,1.8382001,0.28193033,-0.12479329,-0.020742353,0.95105827,-8.012882,7.1676116,0.86334115,0.17280887,0.13191272,0.012568735,0
1.1900000000000008,10.127972544592321,0.3268482596947818,0.4380581867474706,-0.07369787207344569,12.723599,-0.41975313,-1.5435703,1.104879,7.4706244,-6.5638537,1.8468331,0.28201222,-0.12527712,-0.019634947,0.9509939,-8.038117,7.17083,0.86327404,0.19683143,0.1796557,0.008335612,0
1.2000000000000008,10.095627663159888,0.3761245040412993,0.31984140959572493,-0.13052161568731555,10.9254265,0.27217215,-0.21834293,0.19445528,7.3901167,-6.4921284,1.8554655,0.2821314,-0.12593798,-0.018363077,0.9508966,-8.063389,7.1743083,0.8631882,0.21710783,0.21995282,0.00431021,1
1.2100000000000009,10.095627663159888,0.3761245040412993,0.31984140959572493,-0.13052161568731555,10.9254265,0.27217215,-0.21834293,0.19445528,7.309346,-6.420365,1.8641354,0.2822448,-0.12650517,-0.017043406,0.9508123,-8.090706,7.1783767,0.8707938,0.22569442,0.1516022,0.013640684,1
1.2200000000000009,10.095627663159888,0.3761245040412993,0.31984140959572493,-0.13052161568731555,10.9254265,0.27217215,-0.21834293,0.19445528,7.2283025,-6.3485594,1.8728813,0.28231403,-0.12676279,-0.015769128,0.95077944,-8.118034,7.1827455,0.87838465,0.23294249,0.09391091,0.022513319,1
1.2300000000000009,10.095627663159888,0.3761245040412993,0.31984140959572493,-0.13052161568731555,10.9254265,0.27217215,-0.21834293,0.19445528,7.1469855,-6.276709,1.8817031,0.28234172,-0.12675917,-0.014532557,0.9507914,-8.145318,7.1873875,0.88597554,0.23906079,0.04521642,0.030950552,1
1.2400000000000009,10.095627663159888,0.3761245040412993,0.31984140959572493,-0.13052161568731555,10.752919,0.27185243,-0.4968684,0.22414376,7.0653963,-6.2048106,1.8906009,0.2823301,-0.12653504,-0.013327231,0.9508423,-8.172508,7.1922784,0.8935793,0.24422532,0.004115789,0.03897378,1
1.2500000000000009,10.095627663159888,0.3761245040412993,0.31984140959572493,-0.13052161568731555,10.752919,0.27185243,-0.4968684,0.22414376,6.9835377,-6.132863,1.8995665,0.28227642,-0.1260189,-0.012178843,0.9509422,-8.199133,7.197315,0.89953834,0.24853614,-0.074010774,0.04806012,1
1.260000000000001,10.095627663159888,0.3761245040412993,0.31984140959572493,-0.13052161568731555,10.752919,0.27185243,-0.4968684,0.22414376,6.9014144,-6.0608635,1.9085919,0.28217822,-0.12515572,-0.0111074345,0.9510985,-8.22556,7.2025385,0.90553856,0.2521751,-0.13995361,0.056700602,1
1.270000000000001,10.095627663159888,0.3761245040412993,0.31984140959572493,-0.13052161568731555,10.752919,0.27185243,-0.4968684,0.22414376,6.8190274,-5.9888105,1.9176775,0.28203803,-0.12399952,-0.0101004,0.9513027,-8.251728,7.2079134,0.9115965,0.25524682,-0.1956128,0.06491708,1
1.280000000000001,9.528551543490257,0.3789175988169751,0.041776291499530556,-0.20091858748749836,14.21163,-0.73317987,-1.4728583,0.12019362,6.73638,-5.916704,1.9268242,0.28185815,-0.12259586,-0.009147137,0.95154756,-8.277586,7.2134094,0.9177255,0.25783947,-0.24259183,0.07273038,0
1.290000000000001,9.528551543490257,0.3789175988169751,0.041776291499530556,-0.20091858748749836,14.21163,-0.73317987,-1.4728583,0.12019362,6.653491,-5.8445454,1.935973,0.28169772,-0.12117578,-0.008143651,0.95178604,-8.300193,7.218371,0.9120575,0.27671772,-0.19824639,0.05930234,0
1.300000000000001,9.528551543490257,0.3789175988169751,0.041776291499530556,-0.20091858748749836,14.21163,-0.73317987,-1.4728583,0.12019362,6.5703773,-5.7723365,1.9450655,0.28161097,-0.119924486,-0.007007964,0.9519792,-8.3225,7.2234473,0.9064555,0.29265293,-0.1608168,0.046533223,0
1.310000000000001,9.528551543490257,0.3789175988169751,0.041776291499530556,-0.20091858748749836,14.21163,-0.73317987,-1.4728583,0.12019362,6.4870424,-5.7000756,1.9541023,0.2815927,-0.11881567,-0.0057614585,0.9521319,-8.344533,7.228672,0.90091145,0.30610386,-0.1292246,0.034390677,0
1.320000000000001,8.828692375482648,0.3976275401136393,-0.10312931462874514,-0.293431139201392,14.042641,-0.077636555,-1.4647478,-0.96848166,6.403488,-5.6277614,1.9630839,0.28163823,-0.11782712,-0.0044221417,0.9522484,-8.366307,7.2340727,0.89541847,0.31745782,-0.1025593,0.022843972,0
1.330000000000001,8.828692375482648,0.3976275401136393,-0.10312931462874514,-0.293431139201392,14.042641,-0.077636555,-1.4647478,-0.96848166,6.319725,-5.555395,1.9719768,0.28175485,-0.11688269,-0.0030157187,0.9523358,-8.386254,7.2392597,0.8831658,0.32995924,-0.10265124,0.0073242546,0
1.340000000000001,8.828692375482648,0.3976275401136393,-0.10312931462874514,-0.293431139201392,14.042641,-0.077636555,-1.4647478,-0.96848166,6.2357635,-5.482976,1.9807472,0.28194937,-0.11592108,-0.0015634892,0.9523992,-8.4059725,7.2446423,0.8709541,0.34051114,-0.10272887,-0.0074339043,0
1.350000000000001,8.828692375482648,0.3976275401136393,-0.10312931462874514,-0.293431139201392,14.042641,-0.077636555,-1.4647478,-0.96848166,6.1516066,-5.410502,1.9893959,0.28221717,-0.114944965,-7.347218e-05,0.9524395,-8.425456,7.250228,0.85878295,0.34941748,-0.102794506,-0.021467866,0
1.360000000000001,8.167438443816526,0.3826390539357838,-0.47217190890523714,-0.37431297184527307,9.63557,0.5790345,-1.3964232,-0.6235031,6.0672555,-5.3379707,1.9979229,0.28255394,-0.11395661,0.0014476118,0.9524573,-8.4447,7.256023,0.84665185,0.35693488,-0.1028499,-0.034813188,0
1.370000000000001,8.167438443816526,0.3826390539357838,-0.47217190890523714,-0.37431297184527307,9.63557,0.5790345,-1.3964232,-0.6235031,5.982721,-5.265383,2.0062966,0.2829648,-0.11281897,0.002945535,0.9524674,-8.462274,7.26158,0.8281193,0.3609405,-0.16044949,-0.05147255,0
1.380000000000001,8.167438443816526,0.3826390539357838,-0.47217190890523714,-0.37431297184527307,9.63557,0.5790345,-1.3964232,-0.6235031,5.898011,-5.1927385,2.0144854,0.28345472,-0.11142357,0.0043768603,0.95248044,-8.479588,7.267317,0.809631,0.36432055,-0.20906633,-0.06731442,0
1.390000000000001,8.167438443816526,0.3826390539357838,-0.47217190890523714,-0.37431297184527307,9.63557,0.5790345,-1.3964232,-0.6235031,5.81313,-5.120036,2.0224893,0.28401965,-0.10981058,0.00575098,0.9524921,-8.496604,7.273214,0.7911948,0.36717302,-0.2501012,-0.08237895,0
1.400000000000001,7.649721748087303,0.38969413940218917,-0.7324209916736054,-0.44696771281669667,9.629521,2.0538116,-1.9015044,-2.2702072,5.72808,-5.047274,2.0303094,0.28465557,-0.10801395,0.0070758937,0.9524988,-8.513296,7.2792544,0.77281666,0.3695805,-0.2847367,-0.096704245,0
1.410000000000001,7.649721748087303,0.38969413940218917,-0.7324209916736054,-0.44696771281669667,9.629521,2.0538116,-1.9015044,-2.2702072,5.6428704,-4.9744525,2.0379207,0.28536838,-0.10596235,0.008330465,0.9525058,-8.5286,7.2850313,0.74944454,0.37270886,-0.3545572,-0.11389179,0
1.420000000000001,7.649721748087303,0.38969413940218917,-0.7324209916736054,-0.44696771281669667,9.629521,2.0538116,-1.9015044,-2.2702072,5.5575094,-4.901573,2.0452988,0.2861632,-0.103600696,0.009498161,0.95251626,-8.543533,7.290903,0.72613996,0.37534896,-0.41348904,-0.13023593,0
1.430000000000001,7.649721748087303,0.38969413940218917,-0.7324209916736054,-0.44696771281669667,9.629521,2.0538116,-1.9015044,-2.2702072,5.472001,-4.8286343,2.0524442,0.28703544,-0.100977264,0.010591522,0.95252395,-8.558056,7.2968464,0.7029103,0.37757722,-0.46323034,-0.14577805,0
1.440000000000001,7.649721748087303,0.38969413940218917,-0.7324209916736054,-0.44696771281669667,8.850029,2.0963821,-2.2221708,-2.2549243,5.3863497,-4.755636,2.0593574,0.28798062,-0.098132804,0.011621222,0.95252395,-8.572136,7.30284,0.67976123,0.37945804,-0.5052143,-0.16055754,0
1.450000000000001,7.649721748087303,0.38969413940218917,-0.7324209916736054,-0.44696771281669667,8.850029,2.0963821,-2.2221708,-2.2549243,5.3005595,-4.682577,2.0660398,0.28899446,-0.09510171,0.012596356,0.9525119,-8.585745,7.308868,0.6566965,0.38104564,-0.54065084,-0.17461176,0
1.460000000000001,7.649721748087303,0.38969413940218917,-0.7324209916736054,-0.44696771281669667,8.850029,2.0963821,-2.2221708,-2.2549243,5.2146363,-4.609459,2.072492,0.29007295,-0.091912985,0.013524679,0.95248437,-8.598858,7.314913,0.6337185,0.38238594,-0.5705608,-0.18797636,0
1.470000000000001,7.649721748087303,0.38969413940218917,-0.7324209916736054,-0.44696771281669667,8.850029,2.0963821,-2.2221708,-2.2549243,5.1285844,-4.5362797,2.0787146,0.29121226,-0.08859115,0.014412807,0.9524384,-8.611456,7.3209624,0.61082816,0.38351762,-0.5958061,-0.20068514,0
1.480000000000001,7.353706323396245,0.42633365676850477,-0.945014153113445,-0.5136474244855859,8.225125,2.1395907,-2.2520304,-2.4578476,5.042409,-4.4630394,2.0847087,0.2924088,-0.0851569,0.015266393,0.9523717,-8.623522,7.327006,0.5880257,0.38447312,-0.61711425,-0.2127703,0
1.490000000000001,7.353706323396245,0.42633365676850477,-0.945014153113445,-0.5136474244855859,8.225125,2.1395907,-2.2520304,-2.4578476,4.956118,-4.3897405,2.0904608,0.2936695,-0.081542484,0.016078612,0.9522868,-8.634591,7.332798,0.5623935,0.39098784,-0.6682549,-0.22753443,0
1.500000000000001,7.353706323396245,0.42633365676850477,-0.945014153113445,-0.5136474244855859,8.225125,2.1395907,-2.2520304,-2.4578476,4.8697195,-4.316384,2.0959573,0.2950002,-0.07769509,0.016844159,0.95218396,-8.645103,7.338557,0.53684694,0.39648706,-0.7114199,-0.24157408,0
1.5100000000000011,7.353706323396245,0.42633365676850477,-0.945014153113445,-0.5136474244855859,8.225125,2.1395907,-2.2520304,-2.4578476,4.7832184,-4.24297,2.1011984,0.29639602,-0.07365093,0.017569607,0.9520588,-8.655029,7.344266,0.51138693,0.4011294,-0.74785304,-0.2549248,0
1.5200000000000011,7.142578064726563,0.5335786754920406,-0.9725193012781784,-0.6024789452814299,7.617768,1.6098515,-2.1924095,-1.651321,4.696621,-4.169499,2.1061852,0.29785255,-0.06944059,0.01826058,0.95190763,-8.664343,7.3499103,0.4860128,0.4050484,-0.7786042,-0.2676204,0
1.5300000000000011,7.142578064726563,0.5335786754920406,-0.9725193012781784,-0.6024789452814299,7.617768,1.6098515,-2.1924095,-1.651321,4.609935,-4.095973,2.1109083,0.29937914,-0.06506681,0.018958712,0.95172405,-8.672774,7.3553195,0.4586324,0.42507872,-0.80885315,-0.28405198,0
1.5400000000000011,7.142578064726563,0.5335786754920406,-0.9725193012781784,-0.6024789452814299,7.617768,1.6098515,-2.1924095,-1.651321,4.5231676,-4.0223923,2.115358,0.3009838,-0.06053306,0.019697236,0.951502,-8.680565,7.3606496,0.43133128,0.44198605,-0.8343845,-0.29967728,0
1.5500000000000012,7.142578064726563,0.5335786754920406,-0.9725193012781784,-0.6024789452814299,7.617768,1.6098515,-2.1924095,-1.651321,4.4363256,-3.9487596,2.1195352,0.30266058,-0.055864185,0.02046932,0.9512394,-8.687695,7.3658986,0.40410593,0.4562573,-0.8559337,-0.31453586,0
1.5600000000000012,7.414239593572989,0.690434964622731,-0.8799758377526624,-0.6890891969906798,8.178272,1.098817,-2.0507765,-1.0557891,4.349416,-3.8750749,2.1234405,0.30440414,-0.051081184,0.021269271,0.9509343,-8.694142,7.371063,0.37695202,0.4683038,-0.874122,-0.32866532,0
1.5700000000000012,7.414239593572989,0.690434964622731,-0.8799758377526624,-0.6890891969906798,8.178272,1.098817,-2.0507765,-1.0557891,4.262444,-3.8013377,2.1270883,0.306222,-0.046218123,0.0221628,0.9505789,-8.700112,7.376336,0.3525651,0.5029347,-0.87504816,-0.34635141,0
1.5800000000000012,7.414239593572989,0.690434964622731,-0.8799758377526624,-0.6890891969906798,8.178272,1.098817,-2.0507765,-1.0557891,4.1754165,-3.7275484,2.1304922,0.3081206,-0.041302837,0.023201833,0.9501668,-8.70534,7.3815327,0.3282398,0.5321656,-0.87582904,-0.36316967,0
1.5900000000000012,7.414239593572989,0.690434964622731,-0.8799758377526624,-0.6890891969906798,8.178272,1.098817,-2.0507765,-1.0557891,4.0883403,-3.6537073,2.1336532,0.3100937,-0.036343403,0.024363438,0.94969845,-8.709815,7.3866677,0.30396834,0.55683833,-0.87648726,-0.37916264,0
1.6000000000000012,7.805276958392188,0.8434487188783055,-0.4688800851740649,-0.7615987794000055,8.169273,0.96989626,-1.9286762,-1.0760067,4.001223,-3.579815,2.136572,0.31213558,-0.031346697,0.025628304,0.9491742,-8.713524,7.3917527,0.27974272,0.5776637,-0.87704223,-0.39437082,0
1.6100000000000012,7.805276958392188,0.8434487188783055,-0.4688800851740649,-0.7615987794000055,8.169273,0.96989626,-1.9286762,-1.0760067,3.9140718,-3.5058708,2.1392677,0.3142473,-0.026455775,0.027089516,0.94858557,-8.716616,7.3970675,0.25945258,0.61911947,-0.8134074,-0.4123908,0
1.6200000000000012,7.805276958392188,0.8434487188783055,-0.4688800851740649,-0.7615987794000055,8.169273,0.96989626,-1.9286762,-1.0760067,3.8268936,-3.4318733,2.141761,0.31642997,-0.021784177,0.028820423,0.9479275,-8.718907,7.4023857,0.23918992,0.6541096,-0.7596951,-0.42952657,0
1.6300000000000012,7.805276958392188,0.8434487188783055,-0.4688800851740649,-0.7615987794000055,8.169273,0.96989626,-1.9286762,-1.0760067,3.7396963,-3.3578224,2.1440516,0.31867883,-0.01729763,0.030779382,0.94720477,-8.720416,7.40775,0.21894315,0.683642,-0.7143581,-0.44582143,0
1.6400000000000012,7.805276958392188,0.8434487188783055,-0.4688800851740649,-0.7615987794000055,8.371538,0.9124641,-1.5387393,-1.1292788,3.6524878,-3.2837179,2.1461396,0.3209895,-0.012967273,0.03293117,0.9464211,-8.721156,7.413198,0.19870171,0.7085682,-0.67609024,-0.46131673,0
1.6500000000000012,7.805276958392188,0.8434487188783055,-0.4688800851740649,-0.7615987794000055,8.371538,0.9124641,-1.5387393,-1.1292788,3.5652757,-3.2095582,2.1480255,0.323358,-0.008768825,0.035246022,0.9455793,-8.72114,7.41876,0.17845574,0.7296063,-0.6437892,-0.47605163,0
1.6600000000000013,7.805276958392188,0.8434487188783055,-0.4688800851740649,-0.7615987794000055,8.371538,0.9124641,-1.5387393,-1.1292788,3.4780674,-3.135342,2.1497087,0.3257806,-0.0046818657,0.037698742,0.9446818,-8.720376,7.424461,0.15819599,0.74736285,-0.6165246,-0.49006352,0
1.6700000000000013,7.805276958392188,0.8434487188783055,-0.4688800851740649,-0.7615987794000055,8.371538,0.9124641,-1.5387393,-1.1292788,3.3908706,-3.061068,2.1511893,0.3282538,-0.00068921957,0.040268037,0.94373053,-8.718873,7.430321,0.13791363,0.7623495,-0.5935108,-0.5033878,0
1.6800000000000013,8.027361011628201,0.9443692475610916,-0.010705053188737945,-0.8128988562136475,8.422926,0.4872412,-1.0887966,-1.1198337,3.3036926,-2.9867349,2.152467,0.3307744,0.0032235482,0.04293589,0.942727,-8.716638,7.436357,0.11760025,0.7749984,-0.57408524,-0.51605827,0
1.6900000000000013,8.027361011628201,0.9443692475610916,-0.010705053188737945,-0.8128988562136475,8.422926,0.4872412,-1.0887966,-1.1198337,3.216541,-2.9123392,2.1535523,0.33333716,0.0069089215,0.045786,0.9416698,-8.713594,7.4427643,0.0994595,0.80143654,-0.4862427,-0.53062433,0
1.7000000000000013,8.027361011628201,0.9443692475610916,-0.010705053188737945,-0.8128988562136475,8.422926,0.4872412,-1.0887966,-1.1198337,3.1294231,-2.8378785,2.154456,0.33593783,0.010250866,0.048884448,0.9405588,-8.709838,7.4494166,0.08126846,0.82374877,-0.41209802,-0.5444756,0
1.7100000000000013,8.027361011628201,0.9443692475610916,-0.010705053188737945,-0.8128988562136475,8.422926,0.4872412,-1.0887966,-1.1198337,3.0423462,-2.7633498,2.1551774,0.3385747,0.013302895,0.052193258,0.93939656,-8.705404,7.4563622,0.063017726,0.84257865,-0.3495149,-0.5576472,0
1.7200000000000013,8.317865041955468,0.9848233513620562,0.5833825520049896,-0.8159260346332075,8.493999,0.39382797,-0.5694843,-1.1078619,2.9553173,-2.68875,2.1557162,0.3412461,0.016110074,0.05568023,0.93818504,-8.700321,7.4636416,0.044698574,0.8584695,-0.2966904,-0.5701725,0
1.7300000000000013,8.317865041955468,0.9848233513620562,0.5833825520049896,-0.8159260346332075,8.493999,0.39382797,-0.5694843,-1.1078619,2.868343,-2.6140742,2.1560855,0.34393692,0.01849295,0.059414674,0.9369286,-8.694412,7.4715714,0.029187016,0.8782237,-0.15945776,-0.5822317,0
1.7400000000000013,8.317865041955468,0.9848233513620562,0.5833825520049896,-0.8159260346332075,8.493999,0.39382797,-0.5694843,-1.1078619,2.781431,-2.539317,2.1562996,0.3466339,0.020311592,0.063450694,0.93563145,-8.687923,7.4799576,0.01358684,0.8948914,-0.04362513,-0.59369916,0
1.7500000000000013,8.317865041955468,0.9848233513620562,0.5833825520049896,-0.8159260346332075,8.493999,0.39382797,-0.5694843,-1.1078619,2.6945865,-2.4644732,2.156357,0.3493379,0.021654135,0.06774238,0.9342938,-8.680918,7.4888697,-0.0021108608,0.90895426,0.054144576,-0.6046039,0
1.7600000000000013,8.684768543503361,0.8686253483522096,0.8631911675578153,-0.753862825847049,9.203709,0.21612613,-0.17473069,-1.0982177,2.6078143,-2.3895376,2.156257,0.35204932,0.02259483,0.07225069,0.932915,-8.673449,7.4983687,-0.017914936,0.92081946,0.13666809,-0.61497355,0
1.7700000000000014,8.684768543503361,0.8686253483522096,0.8631911675578153,-0.753862825847049,9.203709,0.21612613,-0.17473069,-1.0982177,2.5211208,-2.3145013,2.1560163,0.354754,0.02307597,0.076938435,0.9315027,-8.6652155,7.5089536,-0.03020906,0.91272604,0.24996808,-0.62178886,0
1.7800000000000014,8.684768543503361,0.8686253483522096,0.8631911675578153,-0.753862825847049,9.203709,0.21612613,-0.17473069,-1.0982177,2.4345114,-2.2393558,2.1556523,0.35743907,0.023055125,0.08177463,0.9300636,-8.656613,7.5202584,-0.04263139,0.90588874,0.34559885,-0.6282698,0
1.7900000000000014,8.684768543503361,0.8686253483522096,0.8631911675578153,-0.753862825847049,9.203709,0.21612613,-0.17473069,-1.0982177,2.3479896,-2.1640935,2.1551635,0.36010644,0.02261055,0.08673675,0.9285949,-8.647707,7.5323334,-0.05519002,0.9001123,0.42631578,-0.6344327,0
1.8000000000000014,9.30159881805843,0.6348302495331872,1.2050347696770103,-0.6130142002466509,8.856001,0.34361833,0.28340933,-0.75580037,2.261558,-2.0887063,2.1545484,0.3627576,0.021808228,0.09180551,0.9270937,-8.638548,7.5452194,-0.067893796,0.89523196,0.49444488,-0.6402931,1
1.8100000000000014,9.30159881805843,0.6348302495331872,1.2050347696770103,-0.6130142002466509,8.856001,0.34361833,0.28340933,-0.75580037,2.1752205,-2.013185,2.1538138,0.36542058,0.020842284,0.09668539,0.92557275,-8.628994,7.5592093,-0.07906975,0.80919605,0.46156684,-0.64596117,1
1.8200000000000014,9.30159881805843,0.6348302495331872,1.2050347696770103,-0.6130142002466509,8.856001,0.34361833,0.28340933,-0.75580037,2.0889792,-1.9375196,2.1529667,0.36812025,0.01986841,0.10114116,0.924047,-8.619254,7.5739994,-0.090398856,0.7365793,0.43381128,-0.65135103,1
1.8300000000000014,9.30159881805843,0.6348302495331872,1.2050347696770103,-0.6130142002466509,8.856001,0.34361833,0.28340933,-0.75580037,2.0028358,-1.8617026,2.1520054,0.37085313,0.018886356,0.105238885,0.922516,-8.609348,7.5895233,-0.10187474,0.6752886,0.4103798,-0.65647644,1
1.8400000000000014,9.30159881805843,0.6348302495331872,1.2050347696770103,-0.6130142002466509,9.370502,0.23373954,0.3875794,-0.7032855,1.9167924,-1.7857267,2.1509287,0.3736159,0.017896086,0.10903424,0.92097896,-8.5992985,7.605725,-0.11349156,0.6235577,0.39059895,-0.66135025,1
1.8500000000000014,9.30159881805843,0.6348302495331872,1.2050347696770103,-0.6130142002466509,9.370502,0.23373954,0.3875794,-0.7032855,1.8308532,-1.7095808,2.1497602,0.37639576,0.016843576,0.11254925,0.9194428,-8.588528,7.623534,-0.120227344,0.5627661,0.3901536,-0.6634081,1
1.8600000000000014,9.30159881805843,0.6348302495331872,1.2050347696770103,-0.6130142002466509,9.370502,0.23373954,0.3875794,-0.7032855,1.7450223,-1.6332537,2.1485233,0.37918124,0.015686216,0.115803994,0.91791326,-8.577652,7.641968,-0.12709959,0.5114548,0.38977364,-0.66536486,1
1.8700000000000014,9.30159881805843,0.6348302495331872,1.2050347696770103,-0.6130142002466509,9.370502,0.23373954,0.3875794,-0.7032855,1.6593006,-1.5567393,2.1472175,0.3819713,0.014439548,0.11883907,0.9163877,-8.5667,7.6609898,-0.13410181,0.46814552,0.38944972,-0.6672256,1
1.8800000000000014,10.28553695768038,0.34991540371115976,1.5299763109065858,-0.41076028557207817,10.353712,0.37382478,0.6970518,-0.50866795,1.5736885,-1.4800321,2.1458411,0.38476488,0.013116801,0.121688716,0.91486365,-8.555697,7.6805706,-0.14122859,0.4315903,0.3891734,-0.668995,1
1.8900000000000015,10.28553695768038,0.34991540371115976,1.5299763109065858,-0.41076028557207817,10.353712,0.37382478,0.6970518,-0.50866795,1.4881926,-1.4031156,2.1444402,0.38752323,0.011640589,0.124480486,0.9133425,-8.5435095,7.7028017,-0.13894361,0.42260048,0.437193,-0.6611277,1
1.9000000000000015,10.28553695768038,0.34991540371115976,1.5299763109065858,-0.41076028557207817,10.353712,0.37382478,0.6970518,-0.50866795,1.4028183,-1.3259739,2.1430616,0.39021173,0.009951146,0.1273171,0.91182554,-8.531324,7.7256436,-0.13679543,0.41500908,0.4777231,-0.65364647,1
1.9100000000000015,10.28553695768038,0.34991540371115976,1.5299763109065858,-0.41076028557207817,10.353712,0.37382478,0.6970518,-0.50866795,1.3175659,-1.2486005,2.1417038,0.3928355,0.008082517,0.1301916,0.9103102,-8.519176,7.7491207,-0.13478982,0.40859866,0.5119318,-0.64653236,1
1.9200000000000015,11.41509442264249,0.06791998627360853,1.9787443033921843,-0.15126307347707535,11.074121,0.2279207,0.8573738,-0.28809366,1.2324347,-1.1709892,2.1403654,0.39539915,0.0060634045,0.133098,0.9087944,-8.507089,7.773254,-0.13293284,0.40318552,0.54080504,-0.6397673,0
1.9300000000000015,11.41509442264249,0.06791998627360853,1.9787443033921843,-0.15126307347707535,11.074121,0.2279207,0.8573738,-0.28809366,1.1474301,-1.0931205,2.1390958,0.39779818,0.003409543,0.13612309,0.907312,-8.493876,7.800617,-0.121000916,0.35098267,0.7650783,-0.6157962,0
1.9400000000000015,11.41509442264249,0.06791998627360853,1.9787443033921843,-0.15126307347707535,11.074121,0.2279207,0.8573738,-0.28809366,1.0625563,-1.0149738,2.1379447,0.3999408,-0.00026004517,0.13933644,0.90588754,-8.480944,7.8288527,-0.109256126,0.3069011,0.9543711,-0.5930014,0
1.9500000000000015,11.41509442264249,0.06791998627360853,1.9787443033921843,-0.15126307347707535,11.074121,0.2279207,0.8573738,-0.28809366,0.9778096,-0.9365399,2.13691,0.40184784,-0.004784019,0.14270951,0.90450484,-8.468474,7.858086,-0.09771907,0.2696781,1.1141396,-0.5713252,0
1.9600000000000015,11.987526222947162,-0.37038169123596304,1.9565149220423297,0.13968184699908093,11.364483,-0.31778532,1.1365986,0.0155418115,0.89318466,-0.85780823,2.1359894,0.40353715,-0.0100262575,0.14621758,0.9031485,-8.456624,7.8884244,-0.086414166,0.23824748,1.2489892,-0.55071265,1
1.9700000000000015,11.987526222947162,-0.37038169123596304,1.9565149220423297,0.13968184699908093,11.364483,-0.31778532,1.1365986,0.0155418115,0.80867434,-0.77876794,2.1351783,0.40505415,-0.015627094,0.14956419,0.90184087,-8.445561,7.9198008,-0.075848915,0.1515058,1.2314959,-0.5229264,1
1.9800000000000015,11.987526222947162,-0.37038169123596304,1.9565149220423297,0.13968184699908093,11.364483,-0.31778532,1.1365986,0.0155418115,0.7242707,-0.6994082,2.1344714,0.40643638,-0.021295968,0.1525137,0.9006081,-8.435305,7.9523115,-0.06553821,0.078294136,1.2167232,-0.49650353,1
1.9900000000000015,11.987526222947162,-0.37038169123596304,1.9565149220423297,0.13968184699908093,11.364483,-0.31778532,1.1365986,0.0155418115,0.6399654,-0.61971796,2.1338665,0.4076882,-0.027019914,0.1551284,0.8994414,-8.4259,7.9858885,-0.055475708,0.016501918,1.2042482,-0.4713773,1
2.0000000000000013,,,,,11.956184,-0.7601741,0.61587983,0.5353956,0.55574965,-0.53968686,2.1333609,0.40881404,-0.03278797,0.15746087,0.89833266,-8.417391,8.020477,-0.045658085,-0.03565173,1.1937137,-0.44748405,0
2.010000000000001,,,,,11.956184,-0.7601741,0.61587983,0.5353956,0.47161847,-0.45928633,2.1330094,0.40972856,-0.038861685,0.15944603,0.8973231,-8.409019,8.059798,-0.024672588,-0.1653527,1.2670168,-0.40334845,0
2.020000000000001,,,,,11.956184,-0.7601741,0.61587983,0.5353956,0.38756523,-0.3784874,2.1328666,0.41035473,-0.04544631,0.16103515,0.89644337,-8.401834,8.100146,-0.0039540455,-0.27483198,1.3288765,-0.36137858,0
2.0300000000000007,,,,,11.956184,-0.7601741,0.61587983,0.5353956,0.30357724,-0.29728,2.1329293,0.4107086,-0.052457437,0.16229093,0.89567167,-8.3959875,8.141493,0.016494786,-0.3672415,1.3810802,-0.32146817,0
2.0400000000000005,,,,,11.956184,-0.7601741,0.61587983,0.5353956,0.21964042,-0.21565425,2.1331954,0.41080496,-0.0598238,0.16326606,0.89498824,-8.391614,8.183809,0.03666453,-0.44524226,1.4251356,-0.2835162,0
2.0500000000000003,,,,,12.3734455,-1.2626882,0.29811332,1.0908383,0.1357395,-0.1336006,2.1336617,0.4106575,-0.06748524,0.16400494,0.89437574,-8.388822,8.227069,0.056540065,-0.5110805,1.4623156,-0.24742654,1
2.06,,,,,12.3734455,-1.2626882,0.29811332,1.0908383,0.051858135,-0.051113203,2.134316,0.41028792,-0.0749546,0.16418491,0.8939174,-8.38771,8.270535,0.07428175,-0.62837774,1.2807511,-0.18175748,1
2.07,,,,,12.3734455,-1.2626882,0.29811332,1.0908383,-0.032020286,0.03181246,2.1351464,0.40970755,-0.08184224,0.16355537,0.89369494,-8.388226,8.314685,0.09176937,-0.72736233,1.1274917,-0.119310826,1
2.0799999999999996,,,,,12.3734455,-1.2626882,0.29811332,1.0908383,-0.11591186,0.11518209,2.1361506,0.4089145,-0.08823285,0.16224754,0.89368844,-8.390337,8.359297,0.10906124,-0.8108951,0.99812603,-0.05992847,1
2.0899999999999994,,,,,12.232311,-1.8394873,-0.17289057,1.1530851,-0.19983241,0.19899935,2.137327,0.4079084,-0.09419812,0.1603718,0.893878,-8.394016,8.404185,0.12620674,-0.881389,0.8889298,-0.0034600087,1
2.099999999999999,,,,,12.232311,-1.8394873,-0.17289057,1.1530851,-0.28379723,0.2832636,2.1386678,0.4066911,-0.09972312,0.15773845,0.89430183,-8.399185,8.448663,0.14193913,-1.0308315,0.72330225,0.053292014,1
2.109999999999999,,,,,12.232311,-1.8394873,-0.17289057,1.1530851,-0.36782137,0.36797214,2.1401656,0.40526187,-0.10479873,0.15420182,0.89498675,-8.405884,8.493009,0.15764304,-1.1569569,0.5834967,0.10725917,1
2.1199999999999988,,,,,12.232311,-1.8394873,-0.17289057,1.1530851,-0.45192018,0.45312253,2.1418207,0.40361848,-0.10948888,0.14990638,0.8958972,-8.414118,8.536996,0.17338568,-1.2634046,0.46548885,0.15857814,1
2.1299999999999986,,,,,12.291071,-2.095037,-0.908714,1.4767631,-0.53610903,0.5387102,2.1436336,0.4017602,-0.113847815,0.14497368,0.89700025,-8.423889,8.580428,0.1892195,-1.3532459,0.36588186,0.2073789,1
2.1399999999999983,,,,,12.291071,-2.095037,-0.908714,1.4767631,-0.62040347,0.62472963,2.1456084,0.39968216,-0.11769254,0.1393007,0.89833033,-8.435247,8.623327,0.20573787,-1.4689082,0.16703436,0.26966792,1
2.149999999999998,,,,,12.291071,-2.095037,-0.908714,1.4767631,-0.704819,0.71117336,2.1477494,0.39737365,-0.1208793,0.13281207,0.89991266,-8.448103,8.665244,0.22246148,-1.5665234,-0.0008054003,0.32890043,1
2.159999999999998,,,,,12.291071,-2.095037,-0.908714,1.4767631,-0.7893705,0.7980304,2.1500587,0.39482817,-0.123503655,0.12563896,0.90170497,-8.462404,8.705941,0.23945269,-1.6489097,-0.14247122,0.38522637,1
