time-since-start [s],throttle_mpc,roll_mpc,pitch_mpc,yaw_mpc,throttle_nw,roll_nw,pitch_nw,yaw_nw,position_x [m],position_y [m],position_z [m],rotation_w [quaternion],rotation_x [quaternion],rotation_y [quaternion],rotation_z [quaternion],velocity_x [m/s],velocity_y [m/s],velocity_z [m/s],omega_x [rad/s],omega_y [rad/s],omega_z [rad/s],network_used
0.0,7.628857501570856,-0.6878014517316842,-5.444545841173623,0.127768167757322,7.3775992,-0.5398236,0.729049,-0.08283005,13.21693,-12.155018,1.0673448,0.28637874,-0.44752774,0.21027036,0.8206659,-1.4196247,1.4252394,0.20125002,0.025093222,0.070338935,-0.013706389,0
0.01,7.628857501570856,-0.6878014517316842,-5.444545841173623,0.127768167757322,7.148036,-0.9097292,-0.10389164,0.32985148,13.202483,-12.14052,1.0690755,0.28678304,-0.44614002,0.20973723,0.8214164,-1.4694211,1.474021,0.14465159,-0.036119588,-0.7397349,-0.011259533,0
0.02,7.628857501570856,-0.6878014517316842,-5.444545841173623,0.127768167757322,7.148036,-0.9097292,-0.10389164,0.32985148,13.187549,-12.125545,1.0702336,0.28780198,-0.44171438,0.20781328,0.82393694,-1.5170469,1.5207161,0.08683463,-0.12118332,-1.4568812,-0.0059450353,0
0.03,7.628857501570856,-0.6878014517316842,-5.444545841173623,0.127768167757322,7.148036,-0.9097292,-0.10389164,0.32985148,13.172147,-12.11011,1.0708122,0.2892792,-0.4346226,0.20455728,0.8279959,-1.5632684,1.5660676,0.029066097,-0.20954075,-2.0787556,0.00061631226,0
0.04,7.628857501570856,-0.6878014517316842,-5.444545841173623,0.127768167757322,6.3301716,-0.9115376,-0.5444605,-0.016747694,13.156285,-12.094225,1.0708194,0.29110664,-0.42522585,0.20012887,0.8332997,-1.6088969,1.6108478,-0.027410809,-0.2841146,-2.6036499,0.00685569,0
0.05,7.628857501570856,-0.6878014517316842,-5.444545841173623,0.127768167757322,6.3301716,-0.9115376,-0.5444605,-0.016747694,13.139972,-12.077896,1.0702697,0.29319623,-0.4138384,0.19469056,0.839565,-1.6537578,1.6548641,-0.08227134,-0.34705582,-3.0466876,0.012788895,0
0.060000000000000005,7.628857501570856,-0.6878014517316842,-5.444545841173623,0.127768167757322,6.3301716,-0.9115376,-0.5444605,-0.016747694,13.123214,-12.0611315,1.0691805,0.29546973,-0.40072244,0.18837813,0.8465417,-1.6976844,1.6979343,-0.13526149,-0.40017942,-3.4206343,0.018430956,0
0.07,7.628857501570856,-0.6878014517316842,-5.444545841173623,0.127768167757322,6.3301716,-0.9115376,-0.5444605,-0.016747694,13.106021,-12.0439415,1.0675716,0.2978587,-0.38609916,0.18130606,0.8540116,-1.7405142,1.7398846,-0.18619005,-0.44501707,-3.7362645,0.023796165,0
0.08,10.24411966506886,-0.5934955411362073,-4.8971681737076915,0.11661809703348155,7.5346694,-0.35788935,-0.72820455,-0.16310869,13.0884075,-12.02634,1.0654643,0.3003037,-0.37015665,0.17357168,0.86178577,-1.7820894,1.7805479,-0.23492146,-0.48286176,-4.002672,0.0288981,0
0.09,10.24411966506886,-0.5934955411362073,-4.8971681737076915,0.11661809703348155,7.5346694,-0.35788935,-0.72820455,-0.16310869,13.070314,-12.008269,1.0629689,0.30273226,-0.35323554,0.16535683,0.86961776,-1.8360301,1.8332125,-0.26366964,-0.50010085,-4.1421704,0.033202544,0
0.09999999999999999,10.24411966506886,-0.5934955411362073,-4.8971681737076915,0.11661809703348155,7.5346694,-0.35788935,-0.72820455,-0.16310869,13.051693,-11.989683,1.0602013,0.3050891,-0.33562362,0.15681438,0.87731797,-1.8879138,1.8837682,-0.28934774,-0.5146519,-4.259914,0.03729575,0
0.10999999999999999,10.24411966506886,-0.5934955411362073,-4.8971681737076915,0.11661809703348155,7.5346694,-0.35788935,-0.72820455,-0.16310869,13.032563,-11.970603,1.0571922,0.3073506,-0.31739965,0.14798264,0.88481313,-1.9375863,1.9320631,-0.31199646,-0.5269342,-4.3592954,0.04118814,0
0.11999999999999998,10.24411966506886,-0.5934955411362073,-4.8971681737076915,0.11661809703348155,7.5346694,-0.35788935,-0.72820455,-0.16310869,13.01295,-11.951051,1.0539714,0.30949706,-0.298633,0.13889524,0.89204144,-1.9848996,1.9779527,-0.33168602,-0.5373015,-4.4431777,0.04488951,0
0.12999999999999998,13.059702852835818,-0.25098139331109254,-3.083445495317547,-0.04461580061431408,9.185804,-0.30634767,-0.71816534,-0.17268185,12.992876,-11.931052,1.0505682,0.3115119,-0.27938512,0.12958182,0.898951,-2.0297122,2.0213,-0.3485127,-0.5460525,-4.513979,0.048409246,0
0.13999999999999999,13.059702852835818,-0.25098139331109254,-3.083445495317547,-0.04461580061431408,9.185804,-0.30634767,-0.71816534,-0.17268185,12.972306,-11.910577,1.0471253,0.31334838,-0.26032734,0.120414615,0.9052861,-2.0835063,2.0731838,-0.33952773,-0.50005615,-4.290885,0.043844484,0
0.15,13.059702852835818,-0.25098139331109254,-3.083445495317547,-0.04461580061431408,9.185804,-0.30634767,-0.71816534,-0.17268185,12.951217,-11.889601,1.0437883,0.31498992,-0.24201286,0.11169821,0.91089773,-2.1339622,2.1217217,-0.3273941,-0.46123022,-4.102583,0.039503712,0
0.16,14.850609191395431,0.06131835843055563,-0.6248546517894934,-0.0745501833088433,10.58717,-0.31875664,0.03488931,-0.3602793,12.929639,-11.8681555,1.0405871,0.31646267,-0.22432987,0.10336437,0.91588396,-2.1811235,2.1669965,-0.3124481,-0.42845672,-3.9436471,0.035375934,0
0.17,14.850609191395431,0.06131835843055563,-0.6248546517894934,-0.0745501833088433,10.58717,-0.31875664,0.03488931,-0.3602793,12.907575,-11.846243,1.037627,0.31772286,-0.2080483,0.09578146,0.92010546,-2.2310915,2.2148926,-0.27916783,-0.35210052,-3.4260802,0.029981826,0
0.18000000000000002,14.850609191395431,0.06131835843055563,-0.6248546517894934,-0.0745501833088433,10.58717,-0.31875664,0.03488931,-0.3602793,12.885029,-11.823869,1.0350119,0.3187569,-0.19378532,0.089243725,0.92351335,-2.277714,2.2595522,-0.24353655,-0.28764668,-2.9892287,0.024852421,0
0.19000000000000003,14.850609191395431,0.06131835843055563,-0.6248546517894934,-0.0745501833088433,10.58717,-0.31875664,0.03488931,-0.3602793,12.862031,-11.801062,1.0327629,0.3196195,-0.1812414,0.08359499,0.9262866,-2.321353,2.3013682,-0.2059911,-0.23324016,-2.6205041,0.019974714,0
0.20000000000000004,16.035770701637563,0.2795112455069209,1.2110276786509198,-0.09406239287577223,11.742767,-0.7190345,1.590881,-0.48427305,12.838611,-11.77785,1.0308974,0.32035178,-0.17015862,0.07870117,0.92856175,-2.3623264,2.340684,-0.16687436,-0.18731488,-2.3092825,0.015336347,0
0.21000000000000005,16.035770701637563,0.2795112455069209,1.2110276786509198,-0.09406239287577223,11.742767,-0.7190345,1.590881,-0.48427305,12.814776,-11.754242,1.0294849,0.32094657,-0.16097179,0.07476416,0.930318,-2.404025,2.3807926,-0.11542092,-0.11452532,-1.7602912,0.0099681225,0
0.22000000000000006,16.035770701637563,0.2795112455069209,1.2110276786509198,-0.09406239287577223,11.742767,-0.7190345,1.590881,-0.48427305,12.790538,-11.730242,1.0285923,0.32140496,-0.15401568,0.07193882,0.93155926,-2.4436703,2.4190648,-0.062930174,-0.053082995,-1.2969153,0.004863321,0
0.23000000000000007,16.035770701637563,0.2795112455069209,1.2110276786509198,-0.09406239287577223,11.742767,-0.7190345,1.590881,-0.48427305,12.765909,-11.705866,1.0282286,0.32176262,-0.14894924,0.0700548,0.93240285,-2.4817545,2.456007,-0.009705425,-0.0012193769,-0.90580285,9.014853e-06,0
0.24000000000000007,16.035770701637563,0.2795112455069209,1.2110276786509198,-0.09406239287577223,12.771361,-0.9358142,2.366797,-0.45883998,12.740906,-11.681125,1.0284,0.32204485,-0.14548185,0.068967015,0.93293387,-2.5186992,2.4920516,0.044017937,0.04255877,-0.5756843,-0.0046070926,0
0.25000000000000006,16.035770701637563,0.2795112455069209,1.2110276786509198,-0.09406239287577223,12.771361,-0.9358142,2.366797,-0.45883998,12.715537,-11.656027,1.0291102,0.3222697,-0.14336647,0.0685522,0.9332142,-2.5548635,2.5275671,0.09805388,0.079511315,-0.29704788,-0.008996681,0
0.26000000000000006,16.035770701637563,0.2795112455069209,1.2110276786509198,-0.09406239287577223,12.771361,-0.9358142,2.366797,-0.45883998,12.68981,-11.630574,1.0303617,0.32245013,-0.14239344,0.0687058,0.93328947,-2.590552,2.5628655,0.15225264,0.11070241,-0.06186489,-0.013170883,0
0.2700000000000001,16.035770701637563,0.2795112455069209,1.2110276786509198,-0.09406239287577223,12.771361,-0.9358142,2.366797,-0.45883998,12.663727,-11.60477,1.0321554,0.32259545,-0.14238508,0.06933916,0.9331937,-2.626023,2.5982118,0.20649122,0.1370301,0.1366414,-0.01714025,0
0.2800000000000001,16.71541912256399,0.4412341856217882,2.646234654545928,-0.10555928667202677,12.16486,-0.42099553,2.2353113,0.029307265,12.637289,-11.578609,1.0344914,0.32271242,-0.14319092,0.07037727,0.93295217,-2.6614945,2.6338289,0.2606665,0.15925254,0.3041907,-0.020914843,0
0.2900000000000001,16.71541912256399,0.4412341856217882,2.646234654545928,-0.10555928667202677,12.16486,-0.42099553,2.2353113,0.029307265,12.610489,-11.552083,1.0374006,0.32277566,-0.14519854,0.07200207,0.93249595,-2.69869,2.6714635,0.32112426,0.20323396,0.66942996,-0.025068352,0
0.3000000000000001,16.71541912256399,0.4412341856217882,2.646234654545928,-0.10555928667202677,12.16486,-0.42099553,2.2353113,0.029307265,12.583314,-11.525176,1.0409126,0.32276213,-0.14870708,0.07435394,0.9317629,-2.7364595,2.70996,0.3812388,0.24035744,0.97771025,-0.029018072,0
0.3100000000000001,16.71541912256399,0.4412341856217882,2.646234654545928,-0.10555928667202677,12.16486,-0.42099553,2.2353113,0.029307265,12.555757,-11.497878,1.0450234,0.32267833,-0.15347941,0.07731783,0.9307763,-2.7751553,2.7496724,0.44082776,0.27169207,1.2379143,-0.03277398,0
0.3200000000000001,17.522494591254052,0.5167278169726502,3.543879485166913,-0.1016389187745282,13.355473,-0.15729983,2.041833,-0.10117731,12.527806,-11.470178,1.0497268,0.32252818,-0.15931451,0.080796145,0.92955166,-2.8150713,2.7908955,0.499723,0.2981401,1.4575397,-0.036345582,0
0.3300000000000001,17.522494591254052,0.5167278169726502,3.543879485166913,-0.1016389187745282,13.355473,-0.15729983,2.041833,-0.10117731,12.499439,-11.442045,1.0550528,0.3222885,-0.16636568,0.08484995,0.9280371,-2.8584676,2.8359668,0.5652949,0.3322402,1.7829018,-0.039549544,0
0.34000000000000014,17.522494591254052,0.5167278169726502,3.543879485166913,-0.1016389187745282,13.355473,-0.15729983,2.041833,-0.10117731,12.47063,-11.413451,1.061029,0.32193604,-0.17474282,0.08952207,0.9261791,-2.903753,2.8832245,0.6297336,0.361022,2.0575237,-0.04259629,0
0.35000000000000014,17.522494591254052,0.5167278169726502,3.543879485166913,-0.1016389187745282,13.355473,-0.15729983,2.041833,-0.10117731,12.441357,-11.384373,1.0676427,0.32147244,-0.18422958,0.094711095,0.923983,-2.951239,2.9329722,0.6927945,0.3853149,2.2893188,-0.04549354,0
0.36000000000000015,17.795980784312665,0.5073176048111608,3.7360372990805177,-0.08606799221020174,13.959255,0.38409895,1.9941207,-0.40002498,12.411595,-11.354783,1.0748792,0.3208983,-0.19464211,0.100330755,0.92145115,-3.001179,2.9854555,0.7542374,0.405819,2.4849653,-0.048248608,0
0.37000000000000016,17.795980784312665,0.5073176048111608,3.7360372990805177,-0.08606799221020174,13.959255,0.38409895,1.9941207,-0.40002498,12.381318,-11.324649,1.0827333,0.32020327,-0.20589581,0.106329106,0.91856986,-3.0545979,3.041737,0.8162836,0.42165697,2.6800683,-0.050104417,0
0.38000000000000017,17.795980784312665,0.5073176048111608,3.7360372990805177,-0.08606799221020174,13.959255,0.38409895,1.9941207,-0.40002498,12.3504925,-11.293937,1.0911974,0.31937742,-0.21791364,0.1126603,0.91532457,-3.1109042,3.101172,0.8761862,0.43502432,2.8447452,-0.05186916,0
0.3900000000000002,17.795980784312665,0.5073176048111608,3.7360372990805177,-0.08606799221020174,13.959255,0.38409895,1.9941207,-0.40002498,12.31909,-11.262614,1.1002487,0.3184215,-0.23056105,0.11926451,0.9117154,-3.1702495,3.1638973,0.93368566,0.4463063,2.9837408,-0.053547304,0
0.4000000000000002,17.26662677560221,0.38288422679039674,3.2210058042133585,-0.06671772741880057,15.133783,-0.24592765,1.7631723,-0.25089642,12.287077,-11.230648,1.1098619,0.3173365,-0.24372338,0.12609059,0.9077429,-3.2327447,3.2300112,0.9885257,0.4558283,3.1010602,-0.055143114,0
0.4100000000000002,17.26662677560221,0.38288422679039674,3.2210058042133585,-0.06671772741880057,15.133783,-0.24592765,1.7631723,-0.25089642,12.254434,-11.198012,1.1199868,0.316136,-0.25713205,0.13298523,0.90346867,-3.2965014,3.297499,1.0359999,0.44445458,3.1197655,-0.055711076,0
0.4200000000000002,17.26662677560221,0.38288422679039674,3.2210058042133585,-0.06671772741880057,15.133783,-0.24592765,1.7631723,-0.25089642,12.221137,-11.164686,1.1305716,0.31483462,-0.27057153,0.13982607,0.89895403,-3.3633685,3.3682902,1.0804787,0.43485427,3.1355543,-0.056251187,0
0.4300000000000002,17.26662677560221,0.38288422679039674,3.2210058042133585,-0.06671772741880057,15.133783,-0.24592765,1.7631723,-0.25089642,12.187156,-11.130635,1.1415856,0.3134347,-0.28402275,0.14661431,0.8941999,-3.4333067,3.4423172,1.1218058,0.42675093,3.1488807,-0.05676479,0
0.4400000000000002,17.26662677560221,0.38288422679039674,3.2210058042133585,-0.06671772741880057,14.951681,-0.47046214,1.6634549,0.0026531415,12.15246,-11.095828,1.1529964,0.31193832,-0.29746914,0.15335073,0.8892073,-3.5062678,3.5195086,1.1598285,0.41991153,3.1601288,-0.05725318,0
0.45000000000000023,17.26662677560221,0.38288422679039674,3.2210058042133585,-0.06671772741880057,14.951681,-0.47046214,1.6634549,0.0026531415,12.117021,-11.060234,1.1647702,0.31034753,-0.31089616,0.16003563,0.8839774,-3.5821965,3.5997884,1.1943983,0.4141386,3.1696227,-0.0577176,0
0.46000000000000024,17.26662677560221,0.38288422679039674,3.2210058042133585,-0.06671772741880057,14.951681,-0.47046214,1.6634549,0.0026531415,12.080807,-11.023822,1.1768719,0.30866423,-0.32429087,0.166669,0.8785116,-3.6610303,3.683077,1.22537,0.40926546,3.177636,-0.05815922,0
0.47000000000000025,17.26662677560221,0.38288422679039674,3.2210058042133585,-0.06671772741880057,14.951681,-0.47046214,1.6634549,0.0026531415,12.04379,-10.986563,1.1892648,0.30689016,-0.33764207,0.17325057,0.8728115,-3.7426996,3.7692914,1.2526032,0.40515244,3.1843994,-0.05857919,0
0.48000000000000026,16.316310169720396,0.1770733196811011,2.1634153324280994,-0.049644521773171,15.147018,-0.3030873,1.0121647,0.12885536,12.005942,-10.948426,1.2019107,0.30502704,-0.35093957,0.17977986,0.8668786,-3.8271308,3.8583446,1.2759614,0.40168068,3.1901083,-0.05897857,0
0.49000000000000027,16.316310169720396,0.1770733196811011,2.1634153324280994,-0.049644521773171,15.147018,-0.3030873,1.0121647,0.12885536,11.967261,-10.90941,1.2147378,0.3031237,-0.3638346,0.18605764,0.86088467,-3.9094365,3.9450774,1.2888716,0.3666464,3.0299976,-0.058520544,0
0.5000000000000002,16.316310169720396,0.1770733196811011,2.1634153324280994,-0.049644521773171,15.147018,-0.3030873,1.0121647,0.12885536,11.927746,-10.869515,1.2276752,0.30122605,-0.37605906,0.19193079,0.854988,-3.9940999,4.034198,1.2980561,0.33707657,2.8948557,-0.058085002,0
0.5100000000000002,16.316310169720396,0.1770733196811011,2.1634153324280994,-0.049644521773171,15.147018,-0.3030873,1.0121647,0.12885536,11.887373,-10.828718,1.2406862,0.29933056,-0.38771257,0.19746032,0.8491696,-4.080952,4.125504,1.3035915,0.31211922,2.7807891,-0.057670828,0
0.5200000000000002,15.292789318722736,-0.10038319459112205,0.8137321338339478,-0.04060209310889928,14.351654,-0.45689684,0.16743192,0.6588656,11.84612,-10.786998,1.2537347,0.29743367,-0.3988784,0.20269735,0.84341127,-4.1698465,4.2188225,1.305542,0.29105458,2.6845107,-0.057276983,1
0.5300000000000002,15.292789318722736,-0.10038319459112205,0.8137321338339478,-0.04060209310889928,14.351654,-0.45689684,0.16743192,0.6588656,11.804024,-10.744392,1.2667266,0.29552135,-0.40901434,0.20727064,0.83810073,-4.249705,4.3025117,1.2923815,0.17434435,2.2919822,-0.022135664,1
0.5400000000000003,15.292789318722736,-0.10038319459112205,0.8137321338339478,-0.04060209310889928,14.351654,-0.45689684,0.16743192,0.6588656,11.761121,-10.700943,1.279573,0.29358053,-0.41770536,0.21090272,0.833578,-4.3310394,4.387505,1.2764828,0.07585487,1.9606628,0.011281271,1
0.5500000000000003,15.292789318722736,-0.10038319459112205,0.8137321338339478,-0.04060209310889928,14.351654,-0.45689684,0.16743192,0.6588656,11.717399,-10.656638,1.2922481,0.29160747,-0.4251839,0.21375719,0.82975364,-4.413671,4.473499,1.2582173,-0.0072604716,1.6810088,0.043058433,1
0.5600000000000003,13.84948793811538,-0.36128635297103506,-0.5506802048642259,-0.058248097230928754,12.675461,-0.63583666,-0.5478303,1.2157217,11.672845,-10.61147,1.3047302,0.28959736,-0.43164295,0.21596983,0.82654357,-4.497457,4.5602446,1.237909,-0.07740301,1.444964,0.07327626,0
0.5700000000000003,13.84948793811538,-0.36128635297103506,-0.5506802048642259,-0.058248097230928754,12.675461,-0.63583666,-0.5478303,1.2157217,11.627461,-10.565447,1.3169869,0.28769773,-0.43701467,0.2175639,0.8239622,-4.5793066,4.6444826,1.2131923,-0.12165474,1.1337429,0.066822335,0
0.5800000000000003,13.84948793811538,-0.36128635297103506,-0.5506802048642259,-0.058248097230928754,12.675461,-0.63583666,-0.5478303,1.2157217,11.581256,-10.5185795,1.3289893,0.28603688,-0.44125763,0.2185573,0.822014,-4.662001,4.7290654,1.1871201,-0.15901007,0.871057,0.06068509,0
0.5900000000000003,13.84948793811538,-0.36128635297103506,-0.5506802048642259,-0.058248097230928754,12.675461,-0.63583666,-0.5478303,1.2157217,11.53422,-10.470865,1.3407257,0.28458315,-0.44455406,0.21904615,0.8206111,-4.7453985,4.8138394,1.1600057,-0.19054352,0.6493372,0.054849014,0
0.6000000000000003,12.856966609825756,-0.5375831288995457,-1.578027951468207,-0.0752860047603356,12.4489,-1.1611105,-2.6226046,1.7780325,11.486347,-10.422302,1.3521868,0.28330827,-0.4470558,0.21911043,0.8196755,-4.8293834,4.898678,1.1321173,-0.2171624,0.46219507,0.04929931,0
0.6100000000000003,12.856966609825756,-0.5375831288995457,-1.578027951468207,-0.0752860047603356,12.4489,-1.1611105,-2.6226046,1.7780325,11.437661,-10.372922,1.3633412,0.2822478,-0.44857317,0.21864183,0.8193374,-4.907799,4.9773917,1.098711,-0.26712087,0.14402287,0.043185882,0
0.6200000000000003,12.856966609825756,-0.5375831288995457,-1.578027951468207,-0.0752860047603356,12.4489,-1.1611105,-2.6226046,1.7780325,11.38819,-10.322755,1.3741606,0.28142792,-0.4489615,0.21755782,0.8196953,-4.9865394,5.055919,1.0651357,-0.3092922,-0.12452999,0.037372433,0
0.6300000000000003,12.856966609825756,-0.5375831288995457,-1.578027951468207,-0.0752860047603356,12.4489,-1.1611105,-2.6226046,1.7780325,11.337931,-10.271805,1.3846447,0.28081208,-0.4483966,0.21595371,0.8206393,-5.065486,5.1341248,1.0317,-0.3448896,-0.35120168,0.03184425,0
0.6400000000000003,12.856966609825756,-0.5375831288995457,-1.578027951468207,-0.0752860047603356,12.223948,-1.2619615,-2.857462,1.7017237,11.2868805,-10.220076,1.3947961,0.28036836,-0.4470251,0.21390899,0.8220736,-5.1445374,5.2118917,0.998664,-0.37493786,-0.5425239,0.026587332,0
0.6500000000000004,12.856966609825756,-0.5375831288995457,-1.578027951468207,-0.0752860047603356,12.223948,-1.2619615,-2.857462,1.7017237,11.23504,-10.16757,1.4046202,0.28006917,-0.44496948,0.21149008,0.8239145,-5.223605,5.289121,0.9662455,-0.4003017,-0.70400935,0.02158839,0
0.6600000000000004,12.856966609825756,-0.5375831288995457,-1.578027951468207,-0.0752860047603356,12.223948,-1.2619615,-2.857462,1.7017237,11.182408,-10.114295,1.4141239,0.27989066,-0.4423324,0.20875268,0.82609046,-5.302612,5.365726,0.9346259,-0.4217113,-0.84031117,0.016834736,0
0.6700000000000004,12.856966609825756,-0.5375831288995457,-1.578027951468207,-0.0752860047603356,12.223948,-1.2619615,-2.857462,1.7017237,11.128988,-10.060257,1.423316,0.27981246,-0.43920007,0.2057436,0.82853943,-5.3814893,5.4416304,0.90395576,-0.43978292,-0.95535654,0.012314356,0
0.6800000000000004,12.471949587226407,-0.6910907879390763,-2.2831440829973833,-0.0795013021700897,12.968835,-1.6309835,-2.307468,1.8760462,11.0747795,-10.005465,1.4322067,0.2798172,-0.435645,0.20250219,0.83120906,-5.460177,5.516767,0.87435913,-0.45503697,-1.0524609,0.008015788,0
0.6900000000000004,12.471949587226407,-0.6910907879390763,-2.2831440829973833,-0.0795013021700897,12.968835,-1.6309835,-2.307468,1.8760462,11.019798,-9.949936,1.440797,0.2799203,-0.43151024,0.19893117,0.8341881,-5.536265,5.5888424,0.843864,-0.4918517,-1.244384,0.0037212935,0
0.7000000000000004,12.471949587226407,-0.6910907879390763,-2.2831440829973833,-0.0795013021700897,12.968835,-1.6309835,-2.307468,1.8760462,10.964056,-9.893691,1.4490885,0.280131,-0.42667136,0.19495386,0.8375387,-5.6120267,5.6600056,0.8146893,-0.5229262,-1.4063768,-0.00036245596,0
0.7100000000000004,12.471949587226407,-0.6910907879390763,-2.2831440829973833,-0.0795013021700897,12.968835,-1.6309835,-2.307468,1.8760462,10.907559,-9.83674,1.4570957,0.28042695,-0.4212284,0.19062866,0.84118253,-5.6873736,5.730151,0.78699625,-0.5491553,-1.5431068,-0.004245819,0
0.7200000000000004,13.265211656320202,-0.8025001107417605,-2.64625874531956,-0.06765162399294268,13.402229,-1.5213442,-2.632245,1.9027141,10.85031,-9.779092,1.4648341,0.28078917,-0.41526574,0.18600486,0.84505266,-5.7622247,5.799183,0.76091427,-0.57129437,-1.6585138,-0.007938632,0
0.7300000000000004,13.265211656320202,-0.8025001107417605,-2.64625874531956,-0.06765162399294268,13.402229,-1.5213442,-2.632245,1.9027141,10.792293,-9.720737,1.4723433,0.28120837,-0.40874338,0.1810461,0.8491601,-5.841226,5.871321,0.74124163,-0.60735494,-1.8125507,-0.010868762,0
0.7400000000000004,13.265211656320202,-0.8025001107417605,-2.64625874531956,-0.06765162399294268,13.402229,-1.5213442,-2.632245,1.9027141,10.733488,-9.661669,1.4796656,0.28167462,-0.40163144,0.17572491,0.8535058,-5.9195237,5.942058,0.72352684,-0.6377922,-1.9425657,-0.013655108,0
0.7500000000000004,13.265211656320202,-0.8025001107417605,-2.64625874531956,-0.06765162399294268,13.402229,-1.5213442,-2.632245,1.9027141,10.673904,-9.6019,1.486821,0.28217196,-0.39400902,0.170092,0.8580235,-5.997023,6.0112753,0.7078819,-0.6634829,-2.0523047,-0.016304735,0
0.7600000000000005,14.146802387863174,-0.873054476534334,-2.6846708383382625,-0.036124712111943874,12.808945,-1.582353,-2.0878415,1.4533635,10.61355,-9.541449,1.4938307,0.28268698,-0.38594335,0.16419046,0.862657,-6.0736346,6.0788636,0.69438964,-0.685167,-2.1449304,-0.018824345,0
0.7700000000000005,14.146802387863174,-0.873054476534334,-2.6846708383382625,-0.036124712111943874,12.808945,-1.582353,-2.0878415,1.4533635,10.55241,-9.480307,1.5007453,0.2831965,-0.37748557,0.15802962,0.86737007,-6.1542997,6.149098,0.6888785,-0.7144702,-2.229102,-0.019673282,0
0.7800000000000005,14.146802387863174,-0.873054476534334,-2.6846708383382625,-0.036124712111943874,12.808945,-1.582353,-2.0878415,1.4533635,10.490468,-9.418473,1.5076166,0.2836812,-0.36867917,0.15161909,0.8721308,-6.2338433,6.2173758,0.68576956,-0.7392035,-2.300147,-0.02048056,0
0.7900000000000005,14.146802387863174,-0.873054476534334,-2.6846708383382625,-0.036124712111943874,12.808945,-1.582353,-2.0878415,1.4533635,10.427738,-9.355967,1.514469,0.28413564,-0.35956693,0.1449931,0.87690103,-6.3121853,6.2835913,0.6850877,-0.7600795,-2.360113,-0.021248218,0
0.8000000000000005,14.19542817598548,-0.8265017844216623,-2.410180672422289,-0.018900581034042435,13.144897,-1.6609975,-2.215369,1.4586245,10.36423,-9.292809,1.5213269,0.28455517,-0.35018542,0.13818093,0.88164866,-6.3892484,6.347647,0.6868392,-0.7776998,-2.4107268,-0.021978235,0
0.8100000000000005,14.19542817598548,-0.8265017844216623,-2.410180672422289,-0.018900581034042435,13.144897,-1.6609975,-2.215369,1.4586245,10.299957,-9.229019,1.5282161,0.28492594,-0.34065792,0.13125627,0.8863075,-6.4652214,6.409669,0.6913614,-0.78531027,-2.4106417,-0.02182721,0
0.8200000000000005,14.19542817598548,-0.8265017844216623,-2.410180672422289,-0.018900581034042435,13.144897,-1.6609975,-2.215369,1.4586245,10.234931,-9.164622,1.5351624,0.2852383,-0.33108586,0.12427985,0.89082855,-6.5397906,6.4693794,0.6982571,-0.791734,-2.4105697,-0.021683607,0
0.8300000000000005,14.19542817598548,-0.8265017844216623,-2.410180672422289,-0.018900581034042435,13.144897,-1.6609975,-2.215369,1.4586245,10.169166,-9.09964,1.5421892,0.28549427,-0.32146916,0.117257446,0.89521,-6.612913,6.5267324,0.7074589,-0.7971558,-2.410509,-0.021547047,0
0.8400000000000005,14.19542817598548,-0.8265017844216623,-2.410180672422289,-0.018900581034042435,13.27713,-1.5758127,-2.167266,1.3545941,10.102677,-9.034096,1.5493191,0.2856956,-0.3118079,0.11019412,0.8994503,-6.684548,6.5816836,0.71889776,-0.80173194,-2.4104578,-0.021417191,0
0.8500000000000005,14.19542817598548,-0.8265017844216623,-2.410180672422289,-0.018900581034042435,13.27713,-1.5758127,-2.167266,1.3545941,10.0354805,-8.968015,1.5565745,0.2858437,-0.3021025,0.10309435,0.9035479,-6.754654,6.634192,0.732503,-0.80559456,-2.410415,-0.02129369,0
0.8600000000000005,14.19542817598548,-0.8265017844216623,-2.410180672422289,-0.018900581034042435,13.27713,-1.5758127,-2.167266,1.3545941,9.967589,-8.901421,1.5639764,0.2859397,-0.29235354,0.09596212,0.9075015,-6.8231883,6.6842184,0.74820244,-0.808855,-2.4103782,-0.021176256,0
0.8700000000000006,14.19542817598548,-0.8265017844216623,-2.410180672422289,-0.018900581034042435,13.27713,-1.5758127,-2.167266,1.3545941,9.899021,-8.834338,1.5715455,0.28598455,-0.2825617,0.08880099,0.91131,-6.8901114,6.7317266,0.7659225,-0.8116068,-2.4103475,-0.021064587,0
0.8800000000000006,13.62913004747661,-0.7084515986962613,-1.9867113236048692,-0.00023823346840863292,13.132435,-1.4396018,-1.9081573,1.2980493,9.829792,-8.766794,1.5793016,0.28597903,-0.27272788,0.081614144,0.91497236,-6.9553823,6.7766814,0.7855881,-0.8139295,-2.4103215,-0.02095841,0
0.8900000000000006,13.62913004747661,-0.7084515986962613,-1.9867113236048692,-0.00023823346840863292,13.132435,-1.4396018,-1.9081573,1.2980493,9.759932,-8.698823,1.58724,0.28592145,-0.262995,0.07449699,0.9184403,-7.0164304,6.817368,0.80234486,-0.79747784,-2.3442605,-0.019941673,0
0.9000000000000006,13.62913004747661,-0.7084515986962613,-1.9867113236048692,-0.00023823346840863292,13.132435,-1.4396018,-1.9081573,1.2980493,9.689468,-8.630456,1.5953543,0.28581268,-0.25347883,0.06752607,0.921683,-7.07586,6.8556004,0.8207819,-0.7835921,-2.2885017,-0.018974822,0
0.9100000000000006,13.62913004747661,-0.7084515986962613,-1.9867113236048692,-0.00023823346840863292,13.132435,-1.4396018,-1.9081573,1.2980493,9.61842,-8.561719,1.6036611,0.28565657,-0.24414329,0.06067863,0.9247228,-7.133679,6.891408,0.8407887,-0.771872,-2.2414382,-0.018055413,0
0.9200000000000006,12.10570838409071,-0.5139473851804979,-1.3888687053760258,0.009225638979591451,11.937252,-1.378461,-2.0809193,1.2149237,9.546801,-8.492636,1.6121752,0.28545615,-0.23495793,0.05393543,0.9275776,-7.189892,6.924817,0.8622648,-0.76197994,-2.201714,-0.017181123,0
0.9300000000000006,12.10570838409071,-0.5139473851804979,-1.3888687053760258,0.009225638979591451,11.937252,-1.378461,-2.0809193,1.2149237,9.474658,-8.423248,1.6208436,0.28521898,-0.2260972,0.047421187,0.9302049,-7.238404,6.9523883,0.8715921,-0.7232961,-2.0749524,-0.015885342,0
0.9400000000000006,12.10570838409071,-0.5139473851804979,-1.3888687053760258,0.009225638979591451,11.937252,-1.378461,-2.0809193,1.2149237,9.402037,-8.353595,1.6296109,0.28495392,-0.21770039,0.041234422,0.932581,-7.2855444,6.9779387,0.8820242,-0.6906456,-1.9679589,-0.014653135,0
0.9500000000000006,12.10570838409071,-0.5139473851804979,-1.3888687053760258,0.009225638979591451,11.937252,-1.378461,-2.0809193,1.2149237,9.328951,-8.283696,1.6384875,0.28466454,-0.20969573,0.035324752,0.9347437,-7.331368,7.0015564,0.89345366,-0.6630871,-1.877651,-0.013481393,0
0.9600000000000006,10.699471977453909,-0.31813914221674267,-0.9237368165422434,0.01031266128554704,13.016691,-1.4103299,-2.396611,0.5989734,9.255414,-8.213571,1.6474831,0.28435344,-0.2020222,0.0296495,0.9367235,-7.375921,7.0233183,0.9057887,-0.63982695,-1.8014262,-0.012367138,0
0.9700000000000006,10.699471977453909,-0.31813914221674267,-0.9237368165422434,0.01031266128554704,13.016691,-1.4103299,-2.396611,0.5989734,9.181463,-8.143248,1.6565416,0.2840331,-0.19478042,0.024298962,0.9385069,-7.414212,7.0409765,0.90602225,-0.58965755,-1.6645517,-0.011254242,0
0.9800000000000006,10.699471977453909,-0.31813914221674267,-0.9237368165422434,0.01031266128554704,13.016691,-1.4103299,-2.396611,0.5989734,9.107134,-8.072756,1.6656057,0.28371498,-0.18804859,0.019342965,0.94009,-7.451479,7.0571585,0.9069017,-0.54731256,-1.5490229,-0.0101959435,0
0.9900000000000007,10.699471977453909,-0.31813914221674267,-0.9237368165422434,0.01031266128554704,13.016691,-1.4103299,-2.396611,0.5989734,9.032436,-8.002109,1.6746814,0.28339916,-0.18174817,0.014720492,0.9415071,-7.487781,7.071965,0.90835345,-0.5115714,-1.4515105,-0.009189595,0
1.0000000000000007,9.924873930034169,-0.13538535584015043,-0.47704272128645303,0.005385154762568999,11.869595,-1.0067657,-1.9644392,0.5514494,8.957381,-7.93132,1.6837744,0.28308517,-0.17581257,0.010379926,0.9427856,-7.5231705,7.085481,0.91031617,-0.48140436,-1.369205,-0.008232613,0
1.0100000000000007,9.924873930034169,-0.13538535584015043,-0.47704272128645303,0.005385154762568999,11.869595,-1.0067657,-1.9644392,0.5514494,8.8819895,-7.860408,1.692853,0.28278416,-0.17033336,0.0063970913,0.9439166,-7.5551972,7.0968957,0.9054587,-0.42744163,-1.2300732,-0.0075643766,0
1.0200000000000007,9.924873930034169,-0.13538535584015043,-0.47704272128645303,0.005385154762568999,11.869595,-1.0067657,-1.9644392,0.5514494,8.806281,-7.7893863,1.7018849,0.2825062,-0.16538069,0.0028298006,0.94489753,-7.5864873,7.1072893,0.9009702,-0.38189465,-1.112639,-0.0069289473,0
1.0300000000000007,9.924873930034169,-0.13538535584015043,-0.47704272128645303,0.005385154762568999,11.869595,-1.0067657,-1.9644392,0.5514494,8.730262,-7.7182655,1.7108734,0.2822486,-0.16087346,-0.00038651784,0.9457564,-7.617104,7.1167636,0.8968013,-0.34345084,-1.0135183,-0.0063246815,0
1.0400000000000007,9.924873930034169,-0.13538535584015043,-0.47704272128645303,0.005385154762568999,12.889408,-1.0851749,-1.9983162,0.5698961,8.65394,-7.647054,1.7198218,0.28200865,-0.15674289,-0.0033064268,0.94651556,-7.6471024,7.125403,0.89291215,-0.31100234,-0.9298554,-0.005750069,0
1.0500000000000007,9.924873930034169,-0.13538535584015043,-0.47704272128645303,0.005385154762568999,12.889408,-1.0851749,-1.9983162,0.5698961,8.577321,-7.57576,1.7287326,0.2817839,-0.15293069,-0.0059760213,0.9471928,-7.6765285,7.13328,0.88926995,-0.28361443,-0.85923976,-0.005203661,0
1.0600000000000007,9.924873930034169,-0.13538535584015043,-0.47704272128645303,0.005385154762568999,12.889408,-1.0851749,-1.9983162,0.5698961,8.500411,-7.5043907,1.737608,0.28157207,-0.14938752,-0.008434232,0.9478023,-7.705422,7.140456,0.885848,-0.2604977,-0.7996365,-0.00468406,0
1.0700000000000007,9.924873930034169,-0.13538535584015043,-0.47704272128645303,0.005385154762568999,12.889408,-1.0851749,-1.9983162,0.5698961,8.423215,-7.432953,1.7464502,0.28137103,-0.14607163,-0.010713939,0.94835573,-7.733816,7.1469827,0.88262385,-0.24098614,-0.74932826,-0.00418996,0
1.0800000000000007,9.732367951018105,0.01630316037233135,-0.2021750929808796,-0.01104921176189191,11.552498,-0.498452,-1.9988078,0.9286386,8.3457365,-7.3614526,1.7552612,0.2811789,-0.14294769,-0.012842901,0.94886225,-7.761739,7.152903,0.8795791,-0.22451733,-0.70686555,-0.003720098,0
1.0900000000000007,9.732367951018105,0.01630316037233135,-0.2021750929808796,-0.01104921176189191,11.552498,-0.498452,-1.9988078,0.9286386,8.267983,-7.2898974,1.7640333,0.28100616,-0.14007318,-0.01475632,0.94931424,-7.788685,7.1581554,0.87485045,-0.18696147,-0.62815934,-0.004079744,0
1.1000000000000008,9.732367951018105,0.01630316037233135,-0.2021750929808796,-0.01104921176189191,11.552498,-0.498452,-1.9988078,0.9286386,8.189963,-7.2182918,1.772759,0.2808616,-0.13749225,-0.0164041,0.9497072,-7.8152304,7.162916,0.8702625,-0.15526234,-0.56172746,-0.0044217375,0
1.1100000000000008,9.732367951018105,0.01630316037233135,-0.2021750929808796,-0.01104921176189191,11.552498,-0.498452,-1.9988078,0.9286386,8.11168,-7.146641,1.7814392,0.28074124,-0.13515939,-0.01782767,0.95005196,-7.841412,7.1672482,0.86579806,-0.12850669,-0.5056555,-0.004746957,0
1.1200000000000008,10.007499768313947,0.18583781192136603,0.2534301397327231,-0.03883744656541166,11.423836,-0.12198646,-1.6945188,0.89876354,8.033137,-7.0749483,1.7900754,0.28064173,-0.13303605,-0.019061998,0.9503571,-7.8672595,7.1712036,0.8614431,-0.10592369,-0.45832807,-0.0050562206,0
1.1300000000000008,10.007499768313947,0.18583781192136603,0.2534301397327231,-0.03883744656541166,11.423836,-0.12198646,-1.6945188,0.89876354,7.9543333,-7.0032177,1.7986817,0.28057596,-0.13124391,-0.020021418,0.9506059,-7.8935256,7.1749353,0.85983753,-0.060423587,-0.3473298,-0.006713876,0
1.1400000000000008,10.007499768313947,0.18583781192136603,0.2534301397327231,-0.03883744656541166,11.423836,-0.12198646,-1.6945188,0.89876354,7.875268,-6.931451,1.8072724,0.28055462,-0.1298778,-0.020639628,0.95078665,-7.9195337,7.1784163,0.85831106,-0.022019204,-0.2536416,-0.00829019,0
1.1500000000000008,10.007499768313947,0.18583781192136603,0.2534301397327231,-0.03883744656541166,11.423836,-0.12198646,-1.6945188,0.89876354,7.7959433,-6.8596497,1.8158481,0.28057194,-0.12887149,-0.020969938,0.9509113,-7.945341,7.1817307,0.85684425,0.010396275,-0.17456427,-0.009789155,0
1.1600000000000008,10.120050774008051,0.286474616730018,0.330054563147948,-0.08255341017158416,13.20676,0.14715593,-1.285453,0.9886211,7.7163615,-6.787816,1.8244095,0.28062284,-0.12816896,-0.021057336,0.95098925,-7.9709954,7.1849513,0.85542136,0.03775665,-0.10781895,-0.011214559,0
1.1700000000000008,10.120050774008051,0.286474616730018,0.330054563147948,-0.08255341017158416,13.20676,0.14715593,-1.285453,0.9886211,7.6365223,-6.7159505,1.8329622,0.2807138,-0.12774064,-0.020893563,0.9510237,-7.9968247,7.188176,0.85511696,0.07654454,-0.039533235,-0.014715187,0
1.1800000000000008,10.120050774008051,0.286474616730018,0.330054563147948,-0.08255341017158416,13.20676,0.14715593,-1.285453,0.9886211,7.556425,-6.6440525,1.8415118,0.28085026,-0.12756056,-0.020474114,0.9510167,-8.022575,7.1914353,0.85483193,0.109283604,0.018103123,-0.01804403,0
1.1900000000000008,10.120050774008051,0.286474616730018,0.330054563147948,-0.08255341017158416,13.20676,0.14715593,-1.285453,0.9886211,7.476071,-6.5721216,1.8500588,0.28102672,-0.12758996,-0.019839056,0.9509741,-8.04828,7.19479,0.8545562,0.13691719,0.066751204,-0.021209523,0
1.2000000000000008,10.0930737703469,0.36061901154425097,0.242346230454115,-0.1339531135937771,11.200954,0.3561949,0.5148724,-0.08921812,7.3954597,-6.5001564,1.858603,0.28123835,-0.12779604,-0.019022193,0.95090055,-8.073963,7.1982913,0.85428107,0.16024147,0.107812494,-0.024219692,0
1.2100000000000009,10.0930737703469,0.36061901154425097,0.242346230454115,-0.1339531135937771,11.200954,0.3561949,0.5148724,-0.08921812,7.314592,-6.428155,1.867143,0.28149012,-0.1281093,-0.018034523,0.9508031,-8.099575,7.2019725,0.85373884,0.19149113,0.12879175,-0.029604334,0
1.2200000000000009,10.0930737703469,0.36061901154425097,0.242346230454115,-0.1339531135937771,11.200954,0.3561949,0.5148724,-0.08921812,7.233468,-6.3561153,1.8756777,0.28178665,-0.12847324,-0.01688636,0.9506872,-8.125189,7.2058816,0.8531871,0.21786731,0.14649935,-0.034724757,0
1.2300000000000009,10.0930737703469,0.36061901154425097,0.242346230454115,-0.1339531135937771,11.200954,0.3561949,0.5148724,-0.08921812,7.152088,-6.2840357,1.8842067,0.28212342,-0.12887974,-0.0156030785,0.9505542,-8.1508045,7.2100515,0.8526238,0.24013025,0.16144532,-0.03959392,0
1.2400000000000009,10.0930737703469,0.36061901154425097,0.242346230454115,-0.1339531135937771,11.049778,0.4260339,0.44506726,-0.12181685,7.070452,-6.211913,1.8927299,0.28249642,-0.12932207,-0.014206087,0.95040524,-8.176424,7.214509,0.85204715,0.25892138,0.17406051,-0.044224154,1
1.2500000000000009,10.0930737703469,0.36061901154425097,0.242346230454115,-0.1339531135937771,11.049778,0.4260339,0.44506726,-0.12181685,6.988548,-6.139742,1.9012935,0.28290525,-0.12986419,-0.012665435,0.9502315,-8.204476,7.219734,0.8606969,0.2849842,0.21632229,-0.04803165,1
1.260000000000001,10.0930737703469,0.36061901154425097,0.242346230454115,-0.1339531135937771,11.049778,0.4260339,0.44506726,-0.12181685,6.906363,-6.067517,1.9099436,0.2833488,-0.13055648,-0.01095824,0.9500256,-8.232551,7.225346,0.8693213,0.30698258,0.25199354,-0.051652316,1
1.270000000000001,10.0930737703469,0.36061901154425097,0.242346230454115,-0.1339531135937771,11.049778,0.4260339,0.44506726,-0.12181685,6.823897,-5.995234,1.91868,0.28382304,-0.13137525,-0.009110687,0.9497907,-8.260664,7.2313886,0.8779115,0.32555014,0.28210178,-0.055095315,1
1.280000000000001,9.708941786670822,0.3645461663831406,-0.08632362263354787,-0.19035580537035998,13.9215765,0.43388718,-0.6886868,-0.5837511,6.7411494,-5.9228883,1.9275018,0.28432438,-0.13230054,-0.007144871,0.9495291,-8.288835,7.2378964,0.8864597,0.34122214,0.307515,-0.058369353,0
1.290000000000001,9.708941786670822,0.3645461663831406,-0.08632362263354787,-0.19035580537035998,13.9215765,0.43388718,-0.6886868,-0.5837511,6.658137,-5.850479,1.9363443,0.2848532,-0.13312058,-0.0051644403,0.9492688,-8.31364,7.244045,0.88202524,0.34485808,0.24609444,-0.06484596,0
1.300000000000001,9.708941786670822,0.3645461663831406,-0.08632362263354787,-0.19035580537035998,13.9215765,0.43388718,-0.6886868,-0.5837511,6.5748763,-5.778006,1.9451421,0.28541142,-0.1336669,-0.0032527857,0.9490328,-8.338462,7.250607,0.8775581,0.34792694,0.1942524,-0.07100477,0
1.310000000000001,9.708941786670822,0.3645461663831406,-0.08632362263354787,-0.19035580537035998,13.9215765,0.43388718,-0.6886868,-0.5837511,6.491368,-5.705465,1.9538952,0.28599808,-0.13398224,-0.0013997913,0.9488162,-8.363258,7.257558,0.8730698,0.35051724,0.15049528,-0.07686137,0
1.320000000000001,8.935568345699844,0.36039338894388523,-0.4491281194204361,-0.2542723594004541,13.133724,0.89839095,-1.0386108,-1.3442357,6.4076114,-5.632853,1.9626034,0.28661206,-0.13410264,0.00040312653,0.94861484,-8.387992,7.264875,0.86857027,0.3527036,0.11356212,-0.08243058,0
1.330000000000001,8.935568345699844,0.36039338894388523,-0.4491281194204361,-0.2542723594004541,13.133724,0.89839095,-1.0386108,-1.3442357,6.323618,-5.560169,1.9712294,0.28725958,-0.13392131,0.002118966,0.9484423,-8.410665,7.271927,0.8566135,0.35389832,0.02580892,-0.090862915,0
1.340000000000001,8.935568345699844,0.36039338894388523,-0.4491281194204361,-0.2542723594004541,13.133724,0.89839095,-1.0386108,-1.3442357,6.239399,-5.4874134,1.9797359,0.2879467,-0.13335519,0.0037185596,0.94830877,-8.433191,7.2792606,0.8446715,0.3549066,-0.048259187,-0.09888146,0
1.350000000000001,8.935568345699844,0.36039338894388523,-0.4491281194204361,-0.2542723594004541,13.133724,0.89839095,-1.0386108,-1.3442357,6.1549554,-5.414583,1.9881229,0.28867176,-0.1324643,0.005219227,0.9482061,-8.455517,7.2868395,0.8327605,0.35575765,-0.110776246,-0.10650653,0
1.360000000000001,8.255964176401914,0.33746507238634166,-0.9511315914990192,-0.3100826578055187,10.259696,2.017963,-1.8037397,-2.3250854,6.070289,-5.341676,1.9963912,0.28943297,-0.13129933,0.0066356556,0.94812727,-8.477595,7.294634,0.8208942,0.3564762,-0.1635437,-0.11375745,0
1.370000000000001,8.255964176401914,0.33746507238634166,-0.9511315914990192,-0.3100826578055187,10.259696,2.017963,-1.8037397,-2.3250854,5.9854126,-5.268693,2.004508,0.29023528,-0.12971516,0.007912485,0.94809026,-8.497723,7.3020053,0.80252254,0.3535004,-0.28636956,-0.12339119,0
1.380000000000001,8.255964176401914,0.33746507238634166,-0.9511315914990192,-0.3100826578055187,10.259696,2.017963,-1.8037397,-2.3250854,5.900336,-5.195636,2.0124416,0.2910832,-0.12759897,0.009006237,0.9481077,-8.517511,7.3094974,0.7842246,0.35098904,-0.39004073,-0.13255219,0
1.390000000000001,8.255964176401914,0.33746507238634166,-0.9511315914990192,-0.3100826578055187,10.259696,2.017963,-1.8037397,-2.3250854,5.8150635,-5.122503,2.0201926,0.29197413,-0.12503348,0.009944472,0.94816625,-8.536891,7.317059,0.7660203,0.3488697,-0.4775443,-0.14126366,0
1.400000000000001,7.751908791703865,0.3535661498559047,-1.216353321036071,-0.3665719285978917,8.527943,0.89751524,-1.5176222,-0.79277897,5.7296,-5.049295,2.0277624,0.29290542,-0.12208847,0.010750554,0.948254,-8.555803,7.3246484,0.74792534,0.3470815,-0.5514016,-0.14954765,1
1.410000000000001,7.751908791703865,0.3535661498559047,-1.216353321036071,-0.3665719285978917,8.527943,0.89751524,-1.5176222,-0.79277897,5.643946,-4.9760094,2.0351648,0.29396033,-0.118542634,0.011583063,0.94836766,-8.574793,7.3324795,0.73259383,0.4328923,-0.7021003,-0.1811112,1
1.420000000000001,7.751908791703865,0.3535661498559047,-1.216353321036071,-0.3665719285978917,8.527943,0.89751524,-1.5176222,-0.79277897,5.558106,-4.9026456,2.0424147,0.2952108,-0.11422305,0.0125676915,0.94849676,-8.593115,7.3402853,0.7174148,0.5053188,-0.8292988,-0.21112591,1
1.430000000000001,7.751908791703865,0.3535661498559047,-1.216353321036071,-0.3665719285978917,8.527943,0.89751524,-1.5176222,-0.79277897,5.4720864,-4.8292036,2.0495136,0.29663822,-0.109249204,0.013678567,0.948622,-8.610645,7.348054,0.70241016,0.5664496,-0.9366612,-0.23966779,1
1.440000000000001,7.751908791703865,0.3535661498559047,-1.216353321036071,-0.3665719285978917,8.154604,1.1582295,-1.9166552,-1.0132977,5.3858957,-4.755685,2.0564635,0.29822588,-0.10372198,0.014894068,0.9487264,-8.627277,7.355775,0.6875945,0.6180468,-1.0272806,-0.2668091,1
1.450000000000001,7.751908791703865,0.3535661498559047,-1.216353321036071,-0.3665719285978917,8.154604,1.1582295,-1.9166552,-1.0132977,5.299547,-4.6820908,2.063248,0.2999974,-0.09754423,0.016244588,0.94880104,-8.642227,7.3631015,0.66932225,0.7022362,-1.1660092,-0.3034395,1
1.460000000000001,7.751908791703865,0.3535661498559047,-1.216353321036071,-0.3665719285978917,8.154604,1.1582295,-1.9166552,-1.0132977,5.2130547,-4.608423,2.0698507,0.30197197,-0.09064304,0.017752904,0.94883204,-8.656105,7.3703604,0.6512494,0.773296,-1.2831035,-0.33827242,1
1.470000000000001,7.751908791703865,0.3535661498559047,-1.216353321036071,-0.3665719285978917,8.154604,1.1582295,-1.9166552,-1.0132977,5.126429,-4.5346837,2.0762737,0.30412915,-0.08312981,0.01939229,0.94879895,-8.668796,7.37754,0.63338053,0.83327466,-1.3819364,-0.3713961,1
1.480000000000001,7.263778815824256,0.34409988862598695,-1.3097906663010381,-0.41018969887350826,8.624679,2.41778,-2.6504436,-2.6676815,5.039683,-4.4608727,2.0825188,0.30645052,-0.075098805,0.021140441,0.94868433,-8.680202,7.384628,0.61571234,0.883901,-1.4653558,-0.40289438,0
1.490000000000001,7.263778815824256,0.34409988862598695,-1.3097906663010381,-0.41018969887350826,8.624679,2.41778,-2.6504436,-2.6676815,4.952835,-4.3869953,2.0885446,0.30882066,-0.066959,0.022749923,0.9484879,-8.689156,7.3908434,0.58942676,0.79972535,-1.4410734,-0.4032524,0
1.500000000000001,7.263778815824256,0.34409988862598695,-1.3097906663010381,-0.41018969887350826,8.624679,2.41778,-2.6504436,-2.6676815,4.865904,-4.313057,2.0943081,0.31114167,-0.059039876,0.024024883,0.9482238,-8.696923,7.396925,0.56329066,0.7286759,-1.4205813,-0.40359282,0
1.5100000000000011,7.263778815824256,0.34409988862598695,-1.3097906663010381,-0.41018969887350826,8.624679,2.41778,-2.6504436,-2.6676815,4.7789,-4.239058,2.0998108,0.3134215,-0.051307812,0.02501754,0.9478972,-8.703547,7.4028316,0.5372835,0.6687057,-1.403288,-0.4039165,0
1.5200000000000011,6.9957369002046335,0.2845599494641184,-1.055429227555157,-0.44680477279825986,8.278877,1.6646885,-2.1400552,-2.1585667,4.6918364,-4.1650014,2.1050541,0.31566635,-0.043734305,0.025771948,0.9475117,-8.709063,7.4085298,0.51138633,0.6180871,-1.388694,-0.40422434,0
1.5300000000000011,6.9957369002046335,0.2845599494641184,-1.055429227555157,-0.44680477279825986,8.278877,1.6646885,-2.1400552,-2.1585667,4.6047235,-4.0908895,2.1100256,0.317882,-0.036399327,0.026334744,0.9470656,-8.71334,7.413789,0.48291382,0.56608564,-1.3367087,-0.40631375,0
1.5400000000000011,6.9957369002046335,0.2845599494641184,-1.055429227555157,-0.44680477279825986,8.278877,1.6646885,-2.1400552,-2.1585667,4.5175734,-4.016726,2.1147127,0.32007417,-0.029365025,0.026745124,0.94655985,-8.716627,7.4188037,0.45451307,0.5221918,-1.2928323,-0.40830064,0
1.5500000000000012,6.9957369002046335,0.2845599494641184,-1.055429227555157,-0.44680477279825986,8.278877,1.6646885,-2.1400552,-2.1585667,4.430395,-3.942514,2.119116,0.3222472,-0.022585072,0.027027275,0.94600046,-8.718971,7.423564,0.42616844,0.48514163,-1.2558,-0.41019008,0
1.5600000000000012,7.302362192471747,0.3305223283697048,-0.6940850101242769,-0.4925776786271749,7.714689,0.32973713,-1.4608744,-0.5815582,4.3431973,-3.8682556,2.1232362,0.3244045,-0.016020294,0.027201531,0.9453919,-8.720407,7.4280586,0.397866,0.4538679,-1.2245444,-0.41198677,1
1.5700000000000012,7.302362192471747,0.3305223283697048,-0.6940850101242769,-0.4925776786271749,7.714689,0.32973713,-1.4608744,-0.5815582,4.255989,-3.7939515,2.1271093,0.32656878,-0.009478789,0.02724903,0.9447334,-8.721021,7.4327106,0.37676948,0.43449312,-1.2613971,-0.42030767,1
1.5800000000000012,7.302362192471747,0.3305223283697048,-0.6940850101242769,-0.4925776786271749,7.714689,0.32973713,-1.4608744,-0.5815582,4.16878,-3.7196028,2.1307716,0.3287592,-0.002806875,0.02715527,0.9440195,-8.720662,7.437031,0.3556939,0.4181414,-1.2925034,-0.42822027,1
1.5900000000000012,7.302362192471747,0.3305223283697048,-0.6940850101242769,-0.4925776786271749,7.714689,0.32973713,-1.4608744,-0.5815582,4.081579,-3.6452127,2.1342232,0.33097306,0.0039744847,0.026941992,0.9432475,-8.719324,7.440988,0.33462703,0.40434095,-1.3187587,-0.43574464,1
1.6000000000000012,7.614155045432244,0.458468352813964,-0.023218627171790435,-0.5499112696430103,8.317255,0.06640117,-1.4908164,-0.5246974,3.9943972,-3.5707848,2.137464,0.33320773,0.01084756,0.02662761,0.9424153,-8.716999,7.4445567,0.31355563,0.39269406,-1.34092,-0.44289976,0
1.6100000000000012,7.614155045432244,0.458468352813964,-0.023218627171790435,-0.5499112696430103,8.317255,0.06640117,-1.4908164,-0.5246974,3.9072425,-3.496323,2.140489,0.33544183,0.017272705,0.026468549,0.941531,-8.713737,7.4476852,0.29146236,0.40300688,-1.1354295,-0.44815087,0
1.6200000000000012,7.614155045432244,0.458468352813964,-0.023218627171790435,-0.5499112696430103,8.317255,0.06640117,-1.4908164,-0.5246974,3.820125,-3.421832,2.143293,0.33766025,0.022822399,0.026670476,0.9406137,-8.709596,7.4504914,0.269339,0.41170353,-0.96198475,-0.45314428,0
1.6300000000000012,7.614155045432244,0.458468352813964,-0.023218627171790435,-0.5499112696430103,8.317255,0.06640117,-1.4908164,-0.5246974,3.7330532,-3.3473141,2.1458755,0.3398683,0.027633749,0.027179036,0.9396744,-8.704679,7.453062,0.24717778,0.41903716,-0.815588,-0.4578927,0
1.6400000000000012,7.614155045432244,0.458468352813964,-0.023218627171790435,-0.5499112696430103,8.930382,0.08668868,-0.8116817,-0.5254903,3.646034,-3.2727714,2.1482363,0.34206995,0.03182241,0.027948026,0.9387199,-8.699071,7.4554706,0.22497405,0.42522132,-0.6920215,-0.46240807,0
1.6500000000000012,7.614155045432244,0.458468352813964,-0.023218627171790435,-0.5499112696430103,8.930382,0.08668868,-0.8116817,-0.5254903,3.5590737,-3.1982055,2.150375,0.34426793,0.03548592,0.028938185,0.9377546,-8.692843,7.4577794,0.2027252,0.43043602,-0.58772475,-0.4667019,0
1.6600000000000013,7.614155045432244,0.458468352813964,-0.023218627171790435,-0.5499112696430103,8.930382,0.08668868,-0.8116817,-0.5254903,3.472179,-3.1236167,2.1522908,0.34646437,0.038706515,0.030116158,0.93678063,-8.686057,7.4600415,0.18042986,0.43483296,-0.4996929,-0.47078502,0
1.6700000000000013,7.614155045432244,0.458468352813964,-0.023218627171790435,-0.5499112696430103,8.930382,0.08668868,-0.8116817,-0.5254903,3.3853543,-3.049005,2.1539836,0.34866077,0.041553527,0.031453606,0.9357993,-8.678762,7.4623013,0.15808739,0.43854046,-0.42538923,-0.47466776,0
1.6800000000000013,7.875183466962675,0.5968952383734637,0.6280759779190037,-0.602394619708796,8.373704,0.26484793,-0.5362055,-1.0335256,3.2986054,-2.9743705,2.1554525,0.3508582,0.04408542,0.032926463,0.934811,-8.671002,7.464596,0.13569753,0.4416666,-0.36267284,-0.47836,0
1.6900000000000013,7.875183466962675,0.5968952383734637,0.6280759779190037,-0.602394619708796,8.373704,0.26484793,-0.5362055,-1.0335256,3.2119374,-2.8997126,2.1567104,0.35305238,0.0461272,0.03465806,0.9338232,-8.662535,7.4670453,0.11585442,0.4659216,-0.2081755,-0.4844464,0
1.7000000000000013,7.875183466962675,0.5968952383734637,0.6280759779190037,-0.602394619708796,8.373704,0.26484793,-0.5362055,-1.0335256,3.125356,-2.8250294,2.1577697,0.3552401,0.04754311,0.036745623,0.93284214,-8.653694,7.4696493,0.09596506,0.48638755,-0.0777709,-0.49023417,0
1.7100000000000013,7.875183466962675,0.5968952383734637,0.6280759779190037,-0.602394619708796,8.373704,0.26484793,-0.5362055,-1.0335256,3.0388644,-2.7503188,2.1586297,0.35742337,0.04843126,0.039134935,0.93186474,-8.644547,7.4724874,0.076032296,0.5036564,0.03229831,-0.49573794,0
1.7200000000000013,8.208343627243318,0.7205606832983837,1.2771979800803843,-0.6177450396253531,8.657492,0.34809893,0.20720264,-1.1127144,2.9524658,-2.6755784,2.15929,0.35960355,0.04887432,0.041779995,0.9308875,-8.63515,7.475628,0.05605817,0.5182274,0.12520297,-0.5009716,0
1.7300000000000013,8.208343627243318,0.7205606832983837,1.2771979800803843,-0.6177450396253531,8.657492,0.34809893,0.20720264,-1.1127144,2.8661642,-2.600804,2.1597672,0.36176974,0.04871797,0.044781577,0.9299164,-8.625147,7.4792843,0.039347585,0.549841,0.30484363,-0.5067017,0
1.7400000000000013,8.208343627243318,0.7205606832983837,1.2771979800803843,-0.6177450396253531,8.657492,0.34809893,0.20720264,-1.1127144,2.7799635,-2.5259907,2.160077,0.36391187,0.047843732,0.048217878,0.9289536,-8.615014,7.4834266,0.022597631,0.57651633,0.456471,-0.51215065,0
1.7500000000000013,8.208343627243318,0.7205606832983837,1.2771979800803843,-0.6177450396253531,8.657492,0.34809893,0.20720264,-1.1127144,2.693864,-2.4511333,2.1602192,0.36603197,0.046363972,0.052022222,0.92798984,-8.604828,7.488157,0.0058088833,0.5990248,0.58445346,-0.51733226,0
1.7600000000000013,8.610707883331136,0.7195190831324638,1.5012662608011897,-0.569372688725272,8.962414,0.31375688,0.5088095,-0.79442626,2.6078668,-2.3762252,2.1601934,0.36813128,0.044373345,0.056137986,0.9270164,-8.594651,7.4935613,-0.011020802,0.6180167,0.6924783,-0.52225953,1
1.7700000000000014,8.610707883331136,0.7195190831324638,1.5012662608011897,-0.569372688725272,8.962414,0.31375688,0.5088095,-0.79442626,2.5219755,-2.3012567,2.160036,0.37025616,0.042175256,0.060253754,0.9260138,-8.583602,7.500266,-0.02043373,0.5705636,0.6638464,-0.53561485,1
1.7800000000000014,8.610707883331136,0.7195190831324638,1.5012662608011897,-0.569372688725272,8.962414,0.31375688,0.5088095,-0.79442626,2.4361944,-2.2262173,2.1597846,0.37244868,0.04001329,0.06411981,0.9249703,-8.572634,7.5077553,-0.029899402,0.5305118,0.639678,-0.5483148,1
1.7900000000000014,8.610707883331136,0.7195190831324638,1.5012662608011897,-0.569372688725272,8.962414,0.31375688,0.5088095,-0.79442626,2.3505225,-2.151099,2.159438,0.37470376,0.037880592,0.06777494,0.9238881,-8.561751,7.5159874,-0.0394203,0.49670666,0.61927724,-0.56039155,1
1.8000000000000014,9.188891405178794,0.6377120413598673,1.8081124618419468,-0.44680159720905105,9.23024,0.20274942,0.65162987,-0.6199974,2.264959,-2.0758948,2.1589959,0.37701663,0.03577146,0.07125187,0.92276895,-8.55096,7.5249276,-0.048998646,0.46817392,0.60205686,-0.5718757,0
1.8100000000000014,9.188891405178794,0.6377120413598673,1.8081124618419468,-0.44680159720905105,9.23024,0.20274942,0.65162987,-0.6199974,2.1795044,-2.0005968,2.158469,0.37930062,0.033253666,0.074892774,0.9216381,-8.540006,7.5348077,-0.056401867,0.49468008,0.7901327,-0.56573826,0
1.8200000000000014,9.188891405178794,0.6377120413598673,1.8081124618419468,-0.44680159720905105,9.23024,0.20274942,0.65162987,-0.6199974,2.0941582,-1.9251959,2.1578677,0.381477,0.029986002,0.07897087,0.92051077,-8.529238,7.5454993,-0.06387496,0.5170406,0.9488798,-0.559902,0
1.8300000000000014,9.188891405178794,0.6377120413598673,1.8081124618419468,-0.44680159720905105,9.23024,0.20274942,0.65162987,-0.6199974,2.0089185,-1.8496835,2.1571913,0.38355234,0.026086513,0.08341836,0.91937417,-8.5187435,7.557123,-0.07143082,0.5359042,1.0828717,-0.5543521,0
1.8400000000000014,9.188891405178794,0.6377120413598673,1.8081124618419468,-0.44680159720905105,9.973785,0.36003655,1.1861601,-0.399178,1.9237822,-1.7740499,2.1564388,0.38553226,0.021654736,0.08817758,0.9182163,-8.508596,7.569781,-0.07908594,0.5518179,1.1959689,-0.54907453,1
1.8500000000000014,9.188891405178794,0.6377120413598673,1.8081124618419468,-0.44680159720905105,9.973785,0.36003655,1.1861601,-0.399178,1.8387494,-1.6982782,2.155648,0.3874412,0.01696067,0.09300128,0.91703486,-8.498019,7.5847244,-0.079143465,0.5219034,1.1944522,-0.541719,1
1.8600000000000014,9.188891405178794,0.6377120413598673,1.8081124618419468,-0.44680159720905105,9.973785,0.36003655,1.1861601,-0.399178,1.7538202,-1.6223513,2.1548557,0.38930094,0.012222189,0.097690865,0.91583425,-8.487905,7.600876,-0.07934386,0.49665445,1.1931702,-0.53472453,1
1.8700000000000014,9.188891405178794,0.6377120413598673,1.8081124618419468,-0.44680159720905105,9.973785,0.36003655,1.1861601,-0.399178,1.6689897,-1.5462567,2.1540608,0.39111242,0.00744664,0.10226658,0.91461337,-8.478266,7.618217,-0.079699904,0.47534332,1.1920866,-0.52807325,1
1.8800000000000014,10.08393448547073,0.4760042059086717,2.001275147160211,-0.27106284156962307,10.112397,0.002377437,1.4083098,-0.20384096,1.5842531,-1.4699827,2.1532614,0.39287665,0.0026402753,0.106745526,0.9133711,-8.469111,7.6367316,-0.080224685,0.45735604,1.1911705,-0.52174836,1
1.8900000000000015,10.08393448547073,0.4760042059086717,2.001275147160211,-0.27106284156962307,10.112397,0.002377437,1.4083098,-0.20384096,1.4996061,-1.3935165,2.1524627,0.39456317,-0.0023264831,0.11104638,0.91213137,-8.460339,7.656678,-0.07957715,0.38640144,1.2250613,-0.5061485,1
1.9000000000000015,10.08393448547073,0.4760042059086717,2.001275147160211,-0.27106284156962307,10.112397,0.002377437,1.4083098,-0.20384096,1.4150443,-1.3168452,2.1516695,0.39614347,-0.0075556347,0.1151059,0.910914,-8.452128,7.6777787,-0.07912119,0.32651034,1.2536619,-0.49131417,1
1.9100000000000015,10.08393448547073,0.4760042059086717,2.001275147160211,-0.27106284156962307,10.112397,0.002377437,1.4083098,-0.20384096,1.3305615,-1.239957,2.1508799,0.3976217,-0.013005051,0.11896157,0.90971226,-8.44454,7.7000117,-0.07886461,0.27595797,1.2777978,-0.47720775,1
1.9200000000000015,11.133487399515715,0.26157653611728277,2.1535416291354705,-0.05545400963987733,11.081473,-0.20048006,1.2832682,0.014179011,1.2461512,-1.1628411,2.1500916,0.3990019,-0.018639099,0.122644976,0.90852004,-8.437625,7.723361,-0.07881715,0.23328823,1.2981663,-0.46379355,1
1.9300000000000015,11.133487399515715,0.26157653611728277,2.1535416291354705,-0.05545400963987733,11.081473,-0.20048006,1.2832682,0.014179011,1.1618096,-1.0854744,2.1493497,0.40026823,-0.024411326,0.1260895,0.907354,-8.430835,7.7501507,-0.06960472,0.16562182,1.2958659,-0.4403393,1
1.9400000000000015,11.133487399515715,0.26157653611728277,2.1535416291354705,-0.05545400963987733,11.081473,-0.20048006,1.2832682,0.014179011,1.0775317,-1.007834,2.1486988,0.40140557,-0.030282937,0.12924416,0.90623003,-8.424878,7.7781,-0.060638867,0.108509116,1.2939193,-0.41803592,1
1.9500000000000015,11.133487399515715,0.26157653611728277,2.1535416291354705,-0.05545400963987733,11.081473,-0.20048006,1.2832682,0.014179011,0.9933091,-0.9299085,2.1481364,0.40241888,-0.0362364,0.13215443,0.9051417,-8.419796,7.807164,-0.05192507,0.060303934,1.2922723,-0.396827,1
1.9600000000000015,11.734930094921149,-0.036829887147187705,1.83502882359555,0.18029269788619706,12.385546,-0.2062157,1.1648954,-0.09558413,0.9091327,-0.8516871,2.1476595,0.40331316,-0.0422569,0.13485862,0.9040832,-8.415626,7.837306,-0.04347067,0.019617446,1.2908788,-0.37665886,1
1.9700000000000015,11.734930094921149,-0.036829887147187705,1.83502882359555,0.18029269788619706,12.385546,-0.2062157,1.1648954,-0.09558413,0.8249954,-0.77314067,2.1473284,0.40411198,-0.048291866,0.13736732,0.9030461,-8.412013,7.87216,-0.022776302,-0.015617419,1.2712401,-0.36286646,1
1.9800000000000015,11.734930094921149,-0.036829887147187705,1.83502882359555,0.18029269788619706,12.385546,-0.2062157,1.1648954,-0.09558413,0.74088883,-0.6942401,2.1472027,0.40483695,-0.05429939,0.13969038,0.9020232,-8.409466,7.908137,-0.0023891963,-0.045355767,1.2546623,-0.34975085,1
1.9900000000000015,11.734930094921149,-0.036829887147187705,1.83502882359555,0.18029269788619706,12.385546,-0.2062157,1.1648954,-0.09558413,0.6568024,-0.61497426,2.1472793,0.40549028,-0.060282268,0.14185673,0.9010111,-8.407995,7.9451942,0.017682586,-0.07045509,1.2406684,-0.3372788,1
2.0000000000000013,,,,,12.426254,-0.43152744,0.29310212,0.5821824,0.5727252,-0.5353326,2.1475549,0.4060742,-0.06624283,0.14389075,0.9000066,-8.407609,7.9832973,0.03742985,-0.09163898,1.2288555,-0.3254188,0
2.010000000000001,,,,,12.426254,-0.43152744,0.29310212,0.5821824,0.48864645,-0.45531023,2.1480103,0.40650958,-0.07230706,0.14579982,0.8990355,-8.4083,8.021336,0.053589206,-0.1375597,1.264094,-0.28788364,0
2.020000000000001,,,,,12.426254,-0.43152744,0.29310212,0.5821824,0.40455526,-0.37490255,2.1486256,0.40672427,-0.07857311,0.14759189,0.89811975,-8.410111,8.060352,0.06940609,-0.17632,1.2938337,-0.25219035,0
2.0300000000000007,,,,,12.426254,-0.43152744,0.29310212,0.5821824,0.32044014,-0.29409984,2.1493971,0.40673053,-0.085005365,0.14928661,0.89725065,-8.413098,8.100339,0.08486113,-0.20903622,1.3189332,-0.21824853,0
2.0400000000000005,,,,,12.426254,-0.43152744,0.29310212,0.5821824,0.23628908,-0.21289246,2.1503215,0.40653962,-0.09157383,0.15090048,0.8964205,-8.41731,8.141288,0.0999336,-0.23665056,1.3401167,-0.18597224,0
2.0500000000000003,,,,,12.277486,-0.7754019,-0.07234731,0.98694754,0.15208961,-0.13127081,2.1513944,0.40616214,-0.098253205,0.15244739,0.89562225,-8.422786,8.183191,0.11460172,-0.25995827,1.3579953,-0.15527977,1
2.06,,,,,12.277486,-0.7754019,-0.07234731,0.98694754,0.067828305,-0.049221277,2.152623,0.40562618,-0.10452824,0.1535584,0.89496475,-8.429675,8.226848,0.13104446,-0.34040594,1.1349301,-0.09923035,1
2.07,,,,,12.277486,-0.7754019,-0.07234731,0.98694754,-0.016508143,0.033268698,2.154014,0.40494996,-0.109989345,0.15394515,0.8945499,-8.437799,8.271245,0.14712161,-0.40828863,0.9466462,-0.0459313,1
2.0799999999999996,,,,,12.277486,-0.7754019,-0.07234731,0.98694754,-0.10093162,0.116205394,2.1555645,0.4041294,-0.11475917,0.15372628,0.8943594,-8.447069,8.316159,0.16290891,-0.46557078,0.7877212,0.0047523696,1
2.0899999999999994,,,,,12.96908,-1.3887638,-1.2288967,1.3869196,-0.18545319,0.19959302,2.1572716,0.4031614,-0.11894125,0.15300143,0.8943742,-8.457407,8.361404,0.17847317,-0.5139093,0.65357786,0.052948963,1
2.099999999999999,,,,,12.96908,-1.3887638,-1.2288967,1.3869196,-0.27008635,0.2834468,2.1591654,0.40204123,-0.12230042,0.15145423,0.8946887,-8.469381,8.409353,0.20027754,-0.65034825,0.3599748,0.11840729,1
2.109999999999999,,,,,12.96908,-1.3887638,-1.2288967,1.3869196,-0.35484412,0.3677795,2.1612773,0.40075743,-0.12465348,0.14883934,0.89537853,-8.482311,8.457138,0.22204863,-0.76548994,0.11215164,0.18065356,1
2.1199999999999988,,,,,12.96908,-1.3887638,-1.2288967,1.3869196,-0.43973553,0.45258784,2.163607,0.3992992,-0.12615095,0.14532883,0.89639634,-8.496097,8.504432,0.24391851,-0.86266124,-0.09702858,0.23984538,1
2.1299999999999986,,,,,14.053314,-1.9120537,-2.4795296,2.0454173,-0.5247687,0.5378655,2.166156,0.3976576,-0.12691988,0.14106688,0.89769745,-8.510652,8.5509615,0.26599634,-0.94466937,-0.2735901,0.29613265,1
2.1399999999999983,,,,,14.053314,-1.9120537,-2.4795296,2.0454173,-0.60995734,0.6236227,2.168978,0.39579538,-0.12668963,0.13579778,0.89936393,-8.52717,8.600268,0.29845458,-1.0954328,-0.617695,0.38197055,1
2.149999999999998,,,,,14.053314,-1.9120537,-2.4795296,2.0454173,-0.6953142,0.7098656,2.1721268,0.39366674,-0.12524803,0.12932566,0.9014516,-8.54429,8.648047,0.33140185,-1.222665,-0.9081432,0.46359637,1
2.159999999999998,,,,,14.053314,-1.9120537,-2.4795296,2.0454173,-0.7808447,0.796577,2.1756082,0.391254,-0.122773126,0.121841654,0.90388185,-8.561862,8.693886,0.36498025,-1.3300431,-1.1532993,0.5412168,1
2.1699999999999977,,,,,14.6989565,-2.2197127,-3.8357296,2.555516,-0.8665526,0.8837355,2.179429,0.38854292,-0.11941575,0.113506146,0.90658224,-8.579754,8.737431,0.39929187,-1.4206698,-1.3602241,0.6150284,1
