t,px,py,pz,qx,qy,qz,qw,vx,vy,vz,wx,wy,wz,throttle_mpc,roll_mpc,pitch_mpc,yaw_mpc,throttle_nw,roll_nw,pitch_nw,yaw_nw,network_used
-2.0,18.397598000000002,-10.56242,2.2446425,0.43869440000000004,-0.4379411,-0.7763146,-0.114413664,-10.817858,-1.8552611,-1.2804508,0.6459881,0.08202584,0.5372745,9.29530519580439,5.9999997057966485,-5.999999937751994,-5.1761777556623985,1.6351043,-2.5882206,-1.9496491000000002,-0.6912939,0
-1.99,18.288853,-10.580208,2.2315732999999995,0.43757305,-0.4413356,-0.7750963000000001,-0.11392341,-10.930986,-1.7027279,-1.3336776000000001,0.5883558000000001,0.026056375,0.3520733,9.29530519580439,5.9999997057966485,-5.999999937751994,-5.1761777556623985,14.702452,-2.7363342999999998,-3.9220976999999997,-0.796251,0
-1.98,18.17899,-10.596486,2.2179627,0.43667996,-0.44409028,-0.7739941,-0.11413888,-11.040712,-1.5533219999999999,-1.3887273999999998,0.53999954,-0.021470949,0.17145896,9.29530519580439,5.9999997057966485,-5.999999937751994,-5.1761777556623985,14.702452,-2.7363342999999998,-3.9220976999999997,-0.796251,0
-1.97,18.068047,-10.611285,2.2037932999999996,0.43603492,-0.44625512,-0.77297795,-0.11504418,-11.147133,-1.4070219,-1.4454168,0.49942175,-0.061822113,-0.004682198,9.29530519580439,5.9999997057966485,-5.999999937751994,-5.1761777556623985,14.702452,-2.7363342999999998,-3.9220976999999997,-0.796251,0
-1.96,17.956057,-10.624638000000001,2.1890495,0.4356527,-0.44787250000000006,-0.7720208000000001,-0.11662291,-11.250339,-1.2637973999999998,-1.503591,0.46536762,-0.096074134,-0.17646092,9.29530519580439,5.9999997057966485,-5.999999937751994,-5.1761777556623985,7.815798,-3.0000157000000005,-4.099984,-0.19876352,0
-1.95,17.843045999999998,-10.636569999999999,2.1737175,0.43552690000000005,-0.44899088,-0.7710984000000001,-0.11887323,-11.350980999999999,-1.122822,-1.5629005,0.447737,-0.13610063,-0.3430528,9.29530519580439,5.9999997057966485,-5.999999937751994,-5.1761777556623985,7.815798,-3.0000157000000005,-4.099984,-0.19876352,0
-1.94,17.729042,-10.647099,2.1577884999999997,0.4355773,-0.44970492,-0.7701878000000001,-0.12185494,-11.449719,-0.9831894,-1.6230018,0.456995,-0.19404127,-0.50362813,9.29530519580439,5.9999997057966485,-5.999999937751994,-5.1761777556623985,7.815798,-3.0000157000000005,-4.099984,-0.19876352,0
-1.93,17.614061,-10.656238,2.141255,0.4357094,-0.45011133,-0.76926744,-0.12563737,-11.54646,-0.84495527,-1.6838336,0.48978448,-0.26794934,-0.6585574000000001,9.29530519580439,5.9999997057966485,-5.999999937751994,-5.1761777556623985,7.815798,-3.0000157000000005,-4.099984,-0.19876352,0
-1.92,17.498120999999998,-10.664000999999999,2.1241095000000003,0.43583655,-0.45029300000000005,-0.76831627,-0.13027993,-11.641076,-0.70813817,-1.7453346999999997,0.54312825,-0.35603642,-0.80818003,11.249209736833881,5.999999885294732,-5.999999982633097,-5.443073042573447,15.160158,-4.7667150000000005,-5.711947,0.33290073,0
-1.91,17.381197,-10.670331,2.1063657000000005,0.43586099999999994,-0.45032886,-0.7673081,-0.13589494,-11.743350999999999,-0.5581564,-1.8035698,0.6298853,-0.4721907,-0.9672878,11.249209736833881,5.999999885294732,-5.999999982633097,-5.443073042573447,15.160158,-4.7667150000000005,-5.711947,0.33290073,0
-1.9,17.263262,-10.675169,2.0880360000000002,0.43568733,-0.45028773,-0.7662156,-0.14258748,-11.842878,-0.40970337,-1.8624073,0.7329899000000001,-0.6001661,-1.121261,11.249209736833881,5.999999885294732,-5.999999982633097,-5.443073042573447,15.160158,-4.7667150000000005,-5.711947,0.33290073,0
-1.89,17.144346,-10.678531,2.0691156000000004,0.43524194,-0.45021972,-0.76501536,-0.15039313,-11.939425,-0.2627027,-1.9217653000000001,0.85023755,-0.7384675,-1.2703829,11.249209736833881,5.999999885294732,-5.999999982633097,-5.443073042573447,15.160158,-4.7667150000000005,-5.711947,0.33290073,0
-1.8800000000000001,17.024483,-10.6804285,2.0495992,0.43445602,-0.4501644,-0.76368237,-0.15933976,-12.032747,-0.11706895,-1.9815569,0.979669,-0.8857335,-1.4149135,11.249209736833881,5.999999885294732,-5.999999982633097,-5.443073042573447,15.160158,-4.7667150000000005,-5.711947,0.33290073,0
-1.87,16.903702,-10.680877,2.0294830000000004,0.43326473,-0.45015165,-0.76218927,-0.16944799,-12.122592,0.027285475,-2.0416892,1.1195431999999998,-1.040725,-1.5550925,14.153307357402149,5.99999997023664,-6.0,-5.289996047033934,9.680939,-4.4688764,-5.546469,-0.23643747,0
-1.8599999999999999,16.781992000000002,-10.679806,2.008786,0.43137082,-0.45034838,-0.7604999,-0.1809568,-12.218467,0.18673518,-2.097768,1.3680033999999999,-1.3022308,-1.6925433,14.153307357402149,5.99999997023664,-6.0,-5.289996047033934,9.680939,-4.4688764,-5.546469,-0.23643747,0
-1.85,16.65935,-10.677147999999999,1.987527,0.42849803,-0.45088822,-0.75856715,-0.19407465,-12.309492,0.34469098,-2.1540434,1.6161941999999998,-1.5615149,-1.8266930000000001,14.153307357402149,5.99999997023664,-6.0,-5.289996047033934,9.680939,-4.4688764,-5.546469,-0.23643747,0
-1.84,16.535822,-10.672916,1.965705,0.42461455,-0.45173874,-0.7563403000000001,-0.20876701,-12.395205,0.5013417,-2.21033,1.8636046999999998,-1.8183658999999999,-1.9576539000000002,17.449122205505393,6.0,-6.0,-4.7707127132602105,15.032107,-2.5327778,-6.2127604000000005,0.393972,0
-1.83,16.411427,-10.667049,1.9433416000000001,0.41927385,-0.45309192,-0.7537526999999999,-0.22533028,-12.482895,0.67194664,-2.2623482000000004,2.2710917,-2.2342987,-2.0744772,17.449122205505393,6.0,-6.0,-4.7707127132602105,15.032107,-2.5327778,-6.2127604000000005,0.393972,0
-1.82,16.286192,-10.659483999999999,1.9204593,0.41205978,-0.45508382,-0.75070965,-0.24400856,-12.563186,0.840878,-2.3140373,2.6625252,-2.6329333999999998,-2.189818,17.449122205505393,6.0,-6.0,-4.7707127132602105,15.032107,-2.5327778,-6.2127604000000005,0.393972,0
-1.81,16.160192000000002,-10.650236999999999,1.8970631000000002,0.40297836,-0.45758942,-0.74710387,-0.26468065,-12.635363,1.0082965,-2.3650842,3.0389404,-3.0154932,-2.303617,17.449122205505393,6.0,-6.0,-4.7707127132602105,15.032107,-2.5327778,-6.2127604000000005,0.393972,0
-1.8,16.033514,-10.639323,1.8731608,0.39202785,-0.46047983,-0.7428169,-0.28721964,-12.698780000000001,1.1742185,-2.415192,3.4012892,-3.3830886,-2.4158256000000002,20.558981575822887,6.0,-6.0,-4.1445161458600595,16.263218,-1.560376,-7.139666,-0.5033662,0
-1.79,15.90621,-10.626644,1.8487973999999998,0.37900500000000004,-0.463717,-0.737726,-0.3115795,-12.760557,1.3620402,-2.4570279999999998,3.8057055,-3.79204,-2.5006527999999997,20.558981575822887,6.0,-6.0,-4.1445161458600595,16.263218,-1.560376,-7.139666,-0.5033662,0
-1.7799999999999998,15.7783375,-10.612075,1.8240308,0.36387579999999997,-0.46717834,-0.73171014,-0.33754809999999996,-12.8121,1.5519923999999998,-2.495812,4.1471267,-4.1371436,-2.5813177000000005,20.558981575822887,6.0,-6.0,-4.1445161458600595,16.263218,-1.560376,-7.139666,-0.5033662,0
-1.77,15.650006,-10.595597999999999,1.7988931000000001,0.3468678,-0.47063306,-0.7246575,-0.36477172,-12.852352,1.7435596000000002,-2.531167,4.435371400000001,-4.428361,-2.6580242999999997,20.558981575822887,6.0,-6.0,-4.1445161458600595,16.263218,-1.560376,-7.139666,-0.5033662,0
-1.7599999999999998,15.521332999999998,-10.5772,1.7734203000000002,0.32818136,-0.47388664,-0.71647114,-0.3929341,-12.880428,1.9360272,-2.5627725,4.6787279999999996,-4.6741,-2.7309669999999997,20.558981575822887,6.0,-6.0,-4.1445161458600595,18.503387,-0.76986027,-7.560973599999999,-0.69820565,0
-1.75,15.392442,-10.556875999999999,1.7476512999999998,0.30799535,-0.47677654,-0.7070702,-0.42175162,-12.895617,2.1285117000000002,-2.5903654,4.884191,-4.8814589999999995,-2.8003304,20.558981575822887,6.0,-6.0,-4.1445161458600595,18.503387,-0.76986027,-7.560973599999999,-0.69820565,0
-1.7399999999999998,15.263466000000001,-10.534633,1.7216275,0.2864715,-0.47916797,-0.69638985,-0.4509689,-12.897375,2.3199897000000003,-2.613739,5.0576653,-5.0564279999999995,-2.8662899,20.558981575822887,6.0,-6.0,-4.1445161458600595,18.503387,-0.76986027,-7.560973599999999,-0.69820565,0
-1.73,15.134541500000001,-10.510484,1.6953917,0.26375756,-0.48095033,-0.6843807,-0.48035544,-12.885335000000001,2.509328,-2.6327439999999998,5.2041345,-5.204063400000001,-2.9290127999999997,20.558981575822887,6.0,-6.0,-4.1445161458600595,18.503387,-0.76986027,-7.560973599999999,-0.69820565,0
-1.72,15.005807999999998,-10.484458,1.6689880000000001,0.23998965,-0.48203382,-0.6710077,-0.50970244,-12.8593,2.6953099,-2.6472877999999995,5.327805000000001,-5.328633,-2.9886577,21.0,5.99999998816015,-6.0,-3.4973564268139463,19.92386,-1.1490886999999999,-6.645188,-0.11933771,0
-1.71,14.877407999999999,-10.456574,1.6424706999999998,0.21525583,-0.48236573,-0.65629065,-0.5387675000000001,-12.818383,2.8805549999999998,-2.6554425,5.432341,-5.433624299999999,-3.0136197,21.0,5.99999998816015,-6.0,-3.4973564268139463,19.92386,-1.1490886999999999,-6.645188,-0.11933771,0
-1.7,14.74949,-10.4268675,1.6158948,0.18963891,-0.48190649999999996,-0.6402635,-0.56733185,-12.763285,3.0597436,-2.6590178,5.5206084,-5.5222087,-3.037357,21.0,5.99999998816015,-6.0,-3.4973564268139463,19.92386,-1.1490886999999999,-6.645188,-0.11933771,0
-1.69,14.622191,-10.395405,1.5893056,0.1632544,-0.48060942,-0.62292963,-0.59524846,-12.694311,3.231541,-2.6580868,5.595139,-5.5969496,-3.0599293999999997,21.0,5.99999998816015,-6.0,-3.4973564268139463,19.92386,-1.1490886999999999,-6.645188,-0.11933771,0
-1.68,14.49565,-10.362267,1.5627481,0.13621123,-0.47843915,-0.6043014,-0.62238395,-12.611925,3.3946275999999997,-2.6527767000000004,5.6580725,-5.660009400000001,-3.081394,21.0,5.999998843820755,-5.999999854561219,-3.006747195877564,19.283644,-1.3634701,-5.632385299999999,0.5473383,0
-1.67,14.369997,-10.327547000000001,1.5362648,0.10858377,-0.47537842,-0.58443725,-0.64858115,-12.516742,3.547721,-2.6432657,5.711303,-5.713124,-3.077731,21.0,5.999998843820755,-5.999999854561219,-3.006747195877564,19.283644,-1.3634701,-5.632385299999999,0.5473383,0
-1.66,14.245357,-10.291350999999999,1.5098965,0.0804437,-0.47141686,-0.5634036,-0.6736994000000001,-12.4095125,3.6895945,-2.6297808,5.7562489999999995,-5.757939,-3.0742476,21.0,5.999998843820755,-5.999999854561219,-3.006747195877564,19.283644,-1.3634701,-5.632385299999999,0.5473383,0
-1.65,14.121845,-10.253798,1.4836818,0.051888134,-0.46654227,-0.54123425,-0.69764674,-12.2911215,3.8190942000000003,-2.6125965,5.7941985,-5.795751,-3.0709352,21.0,5.999998843820755,-5.999999854561219,-3.006747195877564,19.283644,-1.3634701,-5.632385299999999,0.5473383,0
-1.64,13.999568,-10.215015,1.4576561000000001,0.023009954,-0.46074885,-0.51796794,-0.72034,-12.16257,3.9351529999999997,-2.5920303,5.8262415,-5.827656,-3.0677855,21.0,2.621925414234707,-5.799131865431899,1.9097629331557149,19.20521,-0.53902936,-4.18492,0.7850520000000001,0
-1.63,13.878704,-10.175082000000002,1.4319233999999998,-0.0054150134999999995,-0.45391899999999996,-0.49449566,-0.7412164000000001,-12.009387,4.048496,-2.5545785,5.4803843,-5.6690035000000005,-2.845785,21.0,2.621925414234707,-5.799131865431899,1.9097629331557149,19.20521,-0.53902936,-4.18492,0.7850520000000001,0
-1.6199999999999999,13.759395000000001,-10.13411,1.4065633,-0.032786828,-0.446024,-0.47169507,-0.7599281999999999,-11.851933500000001,4.1431212,-2.5175232999999997,5.184383400000001,-5.539262,-2.6292825,21.0,2.621925414234707,-5.799131865431899,1.9097629331557149,19.20521,-0.53902936,-4.18492,0.7850520000000001,0
-1.6099999999999999,13.641675,-10.092281,1.3815716999999998,-0.059260525,-0.4371576,-0.44957903,-0.77669793,-11.691603,4.220096599999999,-2.4807532,4.9221224999999995,-5.4422197,-2.4188852,21.0,2.621925414234707,-5.799131865431899,1.9097629331557149,19.20521,-0.53902936,-4.18492,0.7850520000000001,0
-1.5999999999999999,13.525571,-10.049764,1.3569499,-0.08493418,-0.42728466,-0.42817524,-0.79175717,-11.528853999999999,4.280633,-2.4435724999999997,4.6696916,-5.3913709999999995,-2.2159332999999997,21.0,1.7510529778175994,-3.4080011997502817,1.8903751017401544,18.031271,-0.34747365,-3.2059162,1.1144652,0
-1.5899999999999999,13.411079999999998,-10.006727,1.3326837999999999,-0.10912912,-0.41673679999999996,-0.4078152,-0.80505127,-11.369372,4.324209,-2.409719,4.2261953000000005,-5.0703325,-2.0158846,21.0,1.7510529778175994,-3.4080011997502817,1.8903751017401544,18.031271,-0.34747365,-3.2059162,1.1144652,0
-1.5799999999999998,13.298186,-9.963327,1.3087583,-0.13134491,-0.40589749999999997,-0.38877723,-0.8166073,-11.209292,4.353656299999999,-2.375181,3.8411419999999996,-4.810105,-1.8242034,21.0,1.7510529778175994,-3.4080011997502817,1.8903751017401544,18.031271,-0.34747365,-3.2059162,1.1144652,0
-1.5699999999999998,13.186895999999999,-9.919699000000001,1.2851852,-0.15189329,-0.39480279999999995,-0.3709759,-0.8267015999999999,-11.048531,4.370156,-2.3392246,3.5160012000000003,-4.590641000000001,-1.6419279999999998,21.0,1.7510529778175994,-3.4080011997502817,1.8903751017401544,18.031271,-0.34747365,-3.2059162,1.1144652,0
-1.5599999999999998,13.077214,-9.875966,1.261978,-0.17104457,-0.38349375,-0.3543165,-0.83554506,-10.887995,4.374477400000001,-2.302054,3.2414549999999998,-4.405547,-1.4685968,21.0,1.7510529778175994,-3.4080011997502817,1.8903751017401544,16.354383,-0.22379902,-1.3341566,1.2424046,0
-1.5499999999999998,12.969133,-9.832249000000001,1.2391478999999999,-0.18902598,-0.37199467,-0.33870795,-0.84330624,-10.728434,4.367319599999999,-2.2638488,3.0096342999999997,-4.249434,-1.3037711,21.0,1.7510529778175994,-3.4080011997502817,1.8903751017401544,16.354383,-0.22379902,-1.3341566,1.2424046,0
-1.5399999999999998,12.862639999999999,-9.788657,1.2167041,-0.20602769,-0.3603186,-0.32406476,-0.8501203000000002,-10.570478999999999,4.349311,-2.2247744,2.8138924,-4.1177583,-1.1470334999999998,21.0,1.7510529778175994,-3.4080011997502817,1.8903751017401544,16.354383,-0.22379902,-1.3341566,1.2424046,0
-1.5299999999999998,12.757716,-9.745297,1.194655,-0.22220811,-0.34847116,-0.3103077,-0.8560958000000001,-10.414664,4.321016,-2.1849875,2.6486158,-4.0066904999999995,-0.9979870000000001,21.0,1.7510529778175994,-3.4080011997502817,1.8903751017401544,16.354383,-0.22379902,-1.3341566,1.2424046,0
-1.5199999999999998,12.654337,-9.70227,1.1730063999999998,-0.23769867,-0.3364532,-0.29736415,-0.86132026,-10.261449,4.282942299999999,-2.144641,2.5090642000000005,-3.9130019999999996,-0.8562542,20.999999942800574,0.2875565045575841,-1.3820538257764858,2.5766661085511875,15.555696,-0.89827704,-0.45590618,1.1519671999999999,0
-1.5099999999999998,12.552475999999999,-9.65967,1.1517633999999999,-0.25189704,-0.32477537,-0.28563672,-0.8657251,-10.111201,4.235635,-2.1038847,2.1632302000000005,-3.5178694999999998,-0.6877998000000001,20.999999942800574,0.2875565045575841,-1.3820538257764858,2.5766661085511875,15.555696,-0.89827704,-0.45590618,1.1519671999999999,0
-1.4999999999999998,12.452103,-9.617585,1.1309296999999998,-0.26435453,-0.3138652,-0.27546838,-0.8693226999999999,-9.964064,4.1800876,-2.0628455000000003,1.8712037000000001,-3.184462,-0.5276115,20.999999942800574,0.2875565045575841,-1.3820538257764858,2.5766661085511875,15.555696,-0.89827704,-0.45590618,1.1519671999999999,0
-1.4899999999999998,12.353185,-9.576093,1.1105074,-0.2753743,-0.30360094,-0.26670933,-0.87227356,-9.82005,4.1173153,-2.0216062,1.6246214,-2.90313,-0.37528372,20.999999942800574,0.2875565045575841,-1.3820538257764858,2.5766661085511875,15.555696,-0.89827704,-0.45590618,1.1519671999999999,0
-1.4799999999999998,12.255692,-9.535261,1.0904981000000002,-0.2852073,-0.29387220000000003,-0.25922346,-0.8746992,-9.6791315,4.04817,-1.9802186000000002,1.4164178,-2.6657336,-0.23043065,20.999999494530023,-1.11222401639664,0.7339884097132823,3.5305076447071846,16.637224,-1.7764363999999997,2.5430164,0.8463903,0
-1.4699999999999998,12.159593,-9.49515,1.0709038999999998,-0.29338738,-0.28514168,-0.25340065,-0.8765875,-9.541139,3.9734160000000003,-1.9386392,1.0214148,-2.1363666,-0.045974142999999995,20.999999494530023,-1.11222401639664,0.7339884097132823,3.5305076447071846,16.637224,-1.7764363999999997,2.5430164,0.8463903,0
-1.4599999999999997,12.064859,-9.455808,1.0517257,-0.29957482,-0.27778482,-0.24956255,-0.877957,-9.405858,3.894282,-1.8969711,0.6888844,-1.6886452,0.12952483,20.999999494530023,-1.11222401639664,0.7339884097132823,3.5305076447071846,16.637224,-1.7764363999999997,2.5430164,0.8463903,0
-1.4499999999999997,11.971468,-9.417275,1.0329653,-0.30411717,-0.27157357,-0.24749614,-0.878923,-9.272795,3.8118553,-1.8550744,0.40811574,-1.3108145,0.296412,20.999999494530023,-1.11222401639664,0.7339884097132823,3.5305076447071846,16.637224,-1.7764363999999997,2.5430164,0.8463903,0
-1.4399999999999997,11.879396,-9.37958,1.0146253,-0.30729959999999995,-0.26630864,-0.24701165,-0.8795630999999999,-9.141558999999999,3.7270648,-1.8128626,0.17106256,-0.9919553,0.45511,20.99999863659041,-3.4236674634571784,3.328621165066812,5.999993445946,18.712057,-2.9307492,5.356657,0.41380474,0
-1.4299999999999997,11.7887535,-9.342821,0.9968425,-0.3082531,-0.26227713,-0.24868666,-0.87996876,-8.98784,3.6249010000000004,-1.7442548,-0.44529182,-0.37404823,0.6911615,20.99999863659041,-3.4236674634571784,3.328621165066812,5.999993445946,18.712057,-2.9307492,5.356657,0.41380474,0
-1.4199999999999997,11.699622999999999,-9.307074,0.9797292999999999,-0.30630037,-0.25967080000000003,-0.25300097,-0.88019377,-8.838987,3.5252122999999997,-1.678838,-0.9675953000000002,0.14542860000000002,0.9213667999999999,20.99999863659041,-3.4236674634571784,3.328621165066812,5.999993445946,18.712057,-2.9307492,5.356657,0.41380474,0
-1.4099999999999997,11.6119585,-9.272304,0.96325654,-0.30190432,-0.25819042,-0.25965938,-0.880209,-8.694297,3.4295592000000004,-1.6160991000000002,-1.4117912000000001,0.58054644,1.1458707000000001,20.99999863659041,-3.4236674634571784,3.328621165066812,5.999993445946,18.712057,-2.9307492,5.356657,0.41380474,0
-1.3999999999999997,11.525723,-9.238464,0.94739956,-0.29544201,-0.25757036,-0.26840103,-0.87996125,-8.553244,3.3391480000000002,-1.555624,-1.7911966000000001,0.9433196,1.3648143999999998,20.999999206241,-5.6340856187296335,5.335912010075304,5.999992674497977,21.248552,-3.2030363,5.754502,-0.6665054,0
-1.3899999999999997,11.440884,-9.205498,0.9321374,-0.28624654,-0.25808498,-0.2794578,-0.87940764,-8.415442,3.2550132,-1.4970591999999998,-2.4472224999999996,1.5714663999999998,1.5783355,20.999999206241,-5.6340856187296335,5.335912010075304,5.999992674497977,21.248552,-3.2030363,5.754502,-0.6665054,0
-1.3799999999999997,11.357406,-9.173337,0.9174533000000001,-0.27376983,-0.25989696,-0.29297012,-0.87844837,-8.280502,3.1785705,-1.4399758999999999,-3.0106034,2.0919703999999997,1.7865686,20.999999206241,-5.6340856187296335,5.335912010075304,5.999992674497977,21.248552,-3.2030363,5.754502,-0.6665054,0
-1.3699999999999997,11.275267999999999,-9.141898,0.90333825,-0.25847128,-0.26266974,-0.30859026,-0.8769084999999999,-8.14719,3.1106083,-1.382832,-3.4789708,2.5384777,1.9880843999999998,20.999999206241,-5.6340856187296335,5.335912010075304,5.999992674497977,21.248552,-3.2030363,5.754502,-0.6665054,0
-1.3599999999999997,11.194459,-9.111093499999999,0.88980114,-0.24079868,-0.26624754,-0.32599938,-0.87455815,-8.014634,3.0518584,-1.3243989,-3.8508906,2.9388285,2.1818066000000003,20.999999206241,-5.6340856187296335,5.335912010075304,5.999992674497977,22.6029,-3.6671623999999996,6.160186,-1.3488790000000002,0
-1.3499999999999996,11.114971,-9.080825,0.8768545,-0.22114758,-0.27053708,-0.34490654,-0.8711728999999999,-7.8830886,3.0033833999999997,-1.2647612,-4.1405535,3.3010805,2.3681927000000003,20.999999206241,-5.6340856187296335,5.335912010075304,5.999992674497977,22.6029,-3.6671623999999996,6.160186,-1.3488790000000002,0
-1.3399999999999996,11.036796,-9.050987,0.8645129,-0.19984294,-0.27543628,-0.36504546,-0.8665671999999999,-7.75208,2.9657967,-1.2031308,-4.374376,3.6175447,2.546406,20.999999206241,-5.6340856187296335,5.335912010075304,5.999992674497977,22.6029,-3.6671623999999996,6.160186,-1.3488790000000002,0
-1.3299999999999996,10.9599285,-9.021467999999999,0.85280055,-0.17712235,-0.28076488,-0.3861718,-0.86062145,-7.621397999999999,2.9397428,-1.13896,-4.571697,3.884693,2.7158743999999997,20.999999206241,-5.6340856187296335,5.335912010075304,5.999992674497977,22.6029,-3.6671623999999996,6.160186,-1.3488790000000002,0
-1.3199999999999996,10.884364999999999,-8.99215,0.8417413,-0.15318742,-0.28635046,-0.40806353,-0.85324115,-7.491631,2.9259630000000003,-1.0725675,-4.738206,4.110219,2.877027,20.9999992591744,-5.999997662530122,5.880706014445383,5.999981766559713,19.94742,-3.7534845000000003,6.3872514,-0.76632005,0
-1.3099999999999996,10.810091,-8.962905000000001,0.8313555,-0.12800345,-0.29217070000000006,-0.43059015,-0.84430015,-7.3634889999999995,2.9250693,-1.0043404,-4.9359345,4.3854637,3.0302713,20.9999992591744,-5.999997662530122,5.880706014445383,5.999981766559713,19.94742,-3.7534845000000003,6.3872514,-0.76632005,0
-1.2999999999999996,10.737086999999999,-8.933602,0.8216591999999999,-0.10155734,-0.2981881,-0.45360792,-0.8336720999999999,-7.2377863,2.9376583,-0.93473643,-5.102771,4.6178336,3.1759956000000003,20.9999992591744,-5.999997662530122,5.880706014445383,5.999981766559713,19.94742,-3.7534845000000003,6.3872514,-0.76632005,0
-1.2899999999999996,10.665324,-8.904104,0.8126637,-0.074053936,-0.30424896,-0.4769045,-0.82128555,-7.1154413,2.9641938,-0.8642815,-5.2435327,4.814014,3.3145692,20.9999992591744,-5.999997662530122,5.880706014445383,5.999981766559713,19.94742,-3.7534845000000003,6.3872514,-0.76632005,0
-1.2799999999999996,10.594764999999999,-8.87427,0.8043745,-0.045680965999999996,-0.31022403,-0.5002853,-0.8070863,-6.9974604000000005,3.0049493,-0.79355705,-5.3622879999999995,4.9796476,3.4463432000000003,20.99999844269028,-5.999991798167224,4.929205882604501,5.030960711635712,18.431398,-3.5621026,5.878150499999999,-0.5102349,0
-1.2699999999999996,10.525357000000001,-8.843957000000001,0.7967914,-0.016768456,-0.3157071,-0.523465,-0.7912216,-6.8849196,3.0599804,-0.7231706999999999,-5.461971299999999,4.9712815,3.5241010000000004,20.99999844269028,-5.999991798167224,4.929205882604501,5.030960711635712,18.431398,-3.5621026,5.878150499999999,-0.5102349,0
-1.2599999999999996,10.457044,-8.813024,0.7899081,0.01239511,-0.32038528,-0.54621243,-0.7738547,-6.778973,3.1289916,-0.65365857,-5.546099,4.9642596,3.598043,20.99999844269028,-5.999991798167224,4.929205882604501,5.030960711635712,18.431398,-3.5621026,5.878150499999999,-0.5102349,0
-1.2499999999999996,10.389752,-8.781331,0.78371346,0.041703857000000004,-0.32428452,-0.56843,-0.75497496,-6.6807574999999995,3.2114877999999996,-0.5855391,-5.6170974000000005,4.9583697,3.6683567000000004,20.99999844269028,-5.999991798167224,4.929205882604501,5.030960711635712,18.431398,-3.5621026,5.878150499999999,-0.5102349,0
-1.2399999999999995,10.323399,-8.74875,0.7781908000000001,0.07106010000000001,-0.3274282,-0.5900245,-0.7345828000000001,-6.591355999999999,3.3068477999999994,-0.5193398,-5.6770144,4.9534316,3.7352202000000005,19.824068768970196,-5.351112410546507,3.174481204756061,3.5929861191620063,17.54213,-3.0365132999999997,4.1285987,-0.613697,0
-1.2299999999999995,10.257869,-8.715182,0.7732729,0.09982425,-0.32947522,-0.6107598000000001,-0.71305907,-6.516224,3.4082584000000002,-0.46462187,-5.6254945,4.676156,3.7282406999999997,19.824068768970196,-5.351112410546507,3.174481204756061,3.5929861191620063,17.54213,-3.0365132999999997,4.1285987,-0.613697,0
-1.2199999999999995,10.193041000000001,-8.680549000000001,0.76888955,0.12748463,-0.33019757,-0.6304893,-0.6907966999999999,-6.4511056,3.5199053,-0.41246262,-5.5821166,4.4421,3.7216036,19.824068768970196,-5.351112410546507,3.174481204756061,3.5929861191620063,17.54213,-3.0365132999999997,4.1285987,-0.613697,0
-1.2099999999999995,10.128811,-8.644753,0.7650142,0.15413369,-0.32976234,-0.64924616,-0.66781634,-6.396599299999999,3.6405462999999996,-0.363054,-5.545595,4.244526400000001,3.7152922,19.824068768970196,-5.351112410546507,3.174481204756061,3.5929861191620063,17.54213,-3.0365132999999997,4.1285987,-0.613697,0
-1.1999999999999995,10.065071000000001,-8.607711,0.7616184,0.17985031,-0.32830770000000004,-0.66705054,-0.6441359999999999,-6.3531914,3.768982,-0.3165697,-5.5148459999999995,4.0777493,3.7092907,16.58054191028268,-3.757960849072272,1.2303716425158362,2.652678155786752,16.218207999999997,-3.361693,3.3086047,0.09734085,0
-1.1899999999999995,10.00168,-8.569459,0.758556,0.20381454,-0.32587022,-0.6837909000000001,-0.62024015,-6.3264413,3.88191,-0.29629079999999997,-5.2396665,3.6345432,3.6574426,16.58054191028268,-3.757960849072272,1.2303716425158362,2.652678155786752,16.218207999999997,-3.361693,3.3086047,0.09734085,0
-1.1799999999999995,9.938509,-8.530057000000001,0.7556841,0.2254072,-0.32253852,-0.6994505999999999,-0.59659785,-6.309133999999999,3.9991550000000005,-0.27847192,-5.007598000000001,3.2603269,3.6081383000000002,16.58054191028268,-3.757960849072272,1.2303716425158362,2.652678155786752,16.218207999999997,-3.361693,3.3086047,0.09734085,0
-1.1699999999999995,9.875466000000001,-8.489466,0.7529786999999999,0.24496229,-0.31847662,-0.71415615,-0.5731901,-6.301005,4.119601,-0.26294634,-4.8118844,2.9443629000000002,3.5612538000000002,16.58054191028268,-3.757960849072272,1.2303716425158362,2.652678155786752,16.218207999999997,-3.361693,3.3086047,0.09734085,0
-1.1599999999999995,9.81246,-8.447659,0.7504178000000001,0.2627638,-0.31381193,-0.7280034000000001,-0.5499892,-6.3017764000000005,4.2422857,-0.24954414,-4.646829,2.6775843999999998,3.5166698,16.58054191028268,-3.757960849072272,1.2303716425158362,2.652678155786752,15.474232,-2.8865824,2.857719,1.0117935,0
-1.1499999999999995,9.749400999999999,-8.404616,0.7479811,0.27905247,-0.30864337,-0.74106514,-0.5269642,-6.3111644,4.366372599999999,-0.23810056,-4.5076265,2.4523354,3.4742733999999995,16.58054191028268,-3.757960849072272,1.2303716425158362,2.652678155786752,15.474232,-2.8865824,2.857719,1.0117935,0
-1.1399999999999995,9.686208,-8.360330000000001,0.74564964,0.29403174,-0.30304780000000003,-0.7533968000000001,-0.50408375,-6.328888,4.491128,-0.22846024,-4.390226999999999,2.2621517000000004,3.4339576000000003,16.58054191028268,-3.757960849072272,1.2303716425158362,2.652678155786752,15.474232,-2.8865824,2.857719,1.0117935,0
-1.1299999999999994,9.622796000000001,-8.314795,0.74340624,0.30787334,-0.29708493,-0.7650404000000001,-0.48131853,-6.354668599999999,4.615903,-0.22047973,-4.2912135000000005,2.1015744,3.3956196000000003,16.58054191028268,-3.757960849072272,1.2303716425158362,2.652678155786752,15.474232,-2.8865824,2.857719,1.0117935,0
-1.1199999999999994,9.559089,-8.268013999999999,0.74123484,0.3207216,-0.29080117,-0.7760282,-0.45864186,-6.388234,4.7401165999999995,-0.21402827,-4.2077065000000005,1.9659952,3.3591629999999997,14.405889103462956,-2.1631868607667233,-0.5373317643362777,1.8055876081216875,16.917645,-2.4670937000000004,2.1663632,0.8994685,0
-1.1099999999999994,9.495033,-8.220075999999999,0.73905385,0.3319011,-0.2843812,-0.78639305,-0.43652582,-6.423907,4.847188500000001,-0.22240572,-3.889204,1.5777613000000001,3.2830474,14.405889103462956,-2.1631868607667233,-0.5373317643362777,1.8055876081216875,16.917645,-2.4670937000000004,2.1663632,0.8994685,0
-1.0999999999999994,9.430591999999999,-8.171075,0.7367835,0.3408986,-0.27800784,-0.7962111999999999,-0.41538820000000004,-6.4654492999999995,4.9527903,-0.23177713,-3.6192687000000006,1.2486618,3.2105482000000003,14.405889103462956,-2.1631868607667233,-0.5373317643362777,1.8055876081216875,16.917645,-2.4670937000000004,2.1663632,0.8994685,0
-1.0899999999999994,9.365706,-8.121025999999999,0.7344162,0.34805974,-0.271698,-0.8055545000000001,-0.3951156,-6.512268,5.056675,-0.24174856,-3.391568,0.9707655999999999,3.1416063,14.405889103462956,-2.1631868607667233,-0.5373317643362777,1.8055876081216875,16.917645,-2.4670937000000004,2.1663632,0.8994685,0
-1.0799999999999994,9.300329,-8.069948,0.73194736,0.35367385,-0.26545647,-0.8144745,-0.37560442,-6.563813000000001,5.158580000000001,-0.2520445,-3.1994905,0.73610806,3.0760473999999998,13.023209513012102,-0.7875368432707822,-2.116879838219812,0.9698155342731782,16.255905,-1.9755771,1.6875297999999999,0.51677746,0
-1.0699999999999994,9.234417,-8.017864999999999,0.7293731,0.35770148,-0.25931463,-0.8230313,-0.35696609999999995,-6.619136999999999,5.2575192,-0.26310503,-2.9544857,0.42364615,2.9845029999999997,13.023209513012102,-0.7875368432707822,-2.116879838219812,0.9698155342731782,16.255905,-1.9755771,1.6875297999999999,0.51677746,0
-1.0599999999999994,9.167938000000001,-7.9648137000000006,0.7266792,0.35999906,-0.25334927,-0.83128905,-0.33937162,-6.676755,5.3519440000000005,-0.27593517,-2.7138805,0.12599851,2.8944223,13.023209513012102,-0.7875368432707822,-2.116879838219812,0.9698155342731782,16.255905,-1.9755771,1.6875297999999999,0.51677746,0
-1.0499999999999994,9.100876,-7.9108405,0.7238495,0.3606547,-0.24761972,-0.8392885,-0.32281154,-6.735994,5.441935,-0.29020625,-2.477965,-0.15816289,2.8058207000000004,13.023209513012102,-0.7875368432707822,-2.116879838219812,0.9698155342731782,16.255905,-1.9755771,1.6875297999999999,0.51677746,0
-1.0399999999999994,9.033215,-7.855989,0.7208711,0.3597492,-0.2421756,-0.8470628000000001,-0.30727157,-6.796238400000001,5.527619400000001,-0.30562815,-2.2469373,-0.43000567,2.7187095,13.066890986523736,0.2003715385227354,-3.1687525466756403,0.19205865616209128,15.847396,-1.1318933,0.8926257,0.4414835999999999,0
-1.0299999999999994,8.964907,-7.8002443,0.7177906999999999,0.35743892,-0.23698753,-0.85462177,-0.2927383,-6.865384599999999,5.6205144,-0.3105582,-2.0516946,-0.66982806,2.6114490000000004,13.066890986523736,0.2003715385227354,-3.1687525466756403,0.19205865616209128,15.847396,-1.1318933,0.8926257,0.4414835999999999,0
-1.0199999999999994,8.895906,-7.743593,0.71465796,0.35385359999999993,-0.23203139,-0.86197096,-0.27920398,-6.934639999999999,5.70907,-0.31608,-1.8557057000000001,-0.90351576,2.506659,13.066890986523736,0.2003715385227354,-3.1687525466756403,0.19205865616209128,15.847396,-1.1318933,0.8926257,0.4414835999999999,0
-1.0099999999999993,8.826215,-7.6860776,0.7114678000000001,0.34902674,-0.22735341,-0.86912864,-0.26665688,-7.003499499999999,5.793471,-0.3220091,-1.6596581000000001,-1.1314518,2.4042702,13.066890986523736,0.2003715385227354,-3.1687525466756403,0.19205865616209128,15.847396,-1.1318933,0.8926257,0.4414835999999999,0
-0.9999999999999991,8.755839,-7.627738000000001,0.70821697,0.3429894,-0.22299354,-0.876108,-0.25508168,-7.071495,5.8739214,-0.32819045,-1.4641273000000001,-1.3539636999999998,2.304215,13.629930634946874,0.7765437157528392,-3.812356704998709,-0.4672403168786227,15.6162815,-1.5140432,-0.40414742,-0.14632323,0
-0.9899999999999991,8.684747999999999,-7.568563,0.7049619,0.33585542,-0.21890719,-0.8829028,-0.2444652,-7.146695599999999,5.9604073,-0.32280615,-1.3029193000000001,-1.5486078,2.1850839,13.629930634946874,0.7765437157528392,-3.812356704998709,-0.4672403168786227,15.6162815,-1.5140432,-0.40414742,-0.14632323,0
-0.9799999999999991,8.612912,-7.5085425,0.70176136,0.3277175,-0.21505941,-0.8895049999999999,-0.2348006,-7.220164,6.0430636,-0.31727228,-1.1371094,-1.742688,2.0691373,13.629930634946874,0.7765437157528392,-3.812356704998709,-0.4672403168786227,15.6162815,-1.5140432,-0.40414742,-0.14632323,0
-0.9699999999999993,8.540352,-7.4477142999999995,0.69861716,0.3185736,-0.21149607,-0.89591813,-0.22607714,-7.291509,6.122098,-0.31152785,-0.96771675,-1.935991,1.9562462999999999,13.629930634946874,0.7765437157528392,-3.812356704998709,-0.4672403168786227,15.6162815,-1.5140432,-0.40414742,-0.14632323,0
-0.9599999999999993,8.467089999999999,-7.386112700000001,0.6955316,0.30842274,-0.20825729999999998,-0.9021406999999999,-0.21828045,-7.3603644,6.197726,-0.30553418,-0.7956263000000001,-2.1283119999999998,1.8462896,13.629930634946874,0.7765437157528392,-3.812356704998709,-0.4672403168786227,15.283045999999999,-1.4443567,-0.5777334,-0.40709558,0
-0.9499999999999993,8.393152,-7.323771000000001,0.6925073,0.29726487,-0.20537797,-0.9081664,-0.21139303,-7.426385000000001,6.270165,-0.2992743,-0.621606,-2.3194566,1.7391546000000002,13.629930634946874,0.7765437157528392,-3.812356704998709,-0.4672403168786227,15.283045999999999,-1.4443567,-0.5777334,-0.40709558,0
-0.9399999999999993,8.318571,-7.26072,0.68954694,0.28510064,-0.20288810000000002,-0.91398406,-0.20539455,-7.489249000000001,6.3396325,-0.29275283,-0.44632265,-2.509241,1.6347356000000002,13.629930634946874,0.7765437157528392,-3.812356704998709,-0.4672403168786227,15.283045999999999,-1.4443567,-0.5777334,-0.40709558,0
-0.9299999999999993,8.243379,-7.196987599999999,0.686653,0.2719313,-0.20081331,-0.9195771999999999,-0.20026219,-7.5486565,6.406341,-0.28599557,-0.27035403,-2.6974957,1.5329335,13.629930634946874,0.7765437157528392,-3.812356704998709,-0.4672403168786227,15.283045999999999,-1.4443567,-0.5777334,-0.40709558,0
-0.9199999999999993,8.167608999999999,-7.1326,0.6838307,0.25778252,-0.19915998,-0.92492336,-0.19595936,-7.604820699999999,6.471066,-0.27811155,-0.10710068,-2.8711872000000005,1.4347843999999998,13.962118947944903,0.9395801468844588,-3.9261525927968375,-0.950433928827242,15.296417000000002,-1.02075,-0.57767725,-0.55833244,0
-0.9099999999999993,8.091280000000001,-7.0675550000000005,0.6811245,0.24283071,-0.19784366,-0.9299782,-0.19243574,-7.6604475999999995,6.5375440000000005,-0.26307005,0.0260153,-3.0055695,1.3204455,13.962118947944903,0.9395801468844588,-3.9261525927968375,-0.950433928827242,15.296417000000002,-1.02075,-0.57767725,-0.55833244,0
-0.8999999999999992,8.014415,-7.001857000000001,0.6785703000000001,0.22715914,-0.19683558,-0.93470556,-0.18968357,-7.7117762999999995,6.6018424,-0.24766797,0.16271170000000001,-3.1433619999999998,1.2095354999999999,13.962118947944903,0.9395801468844588,-3.9261525927968375,-0.950433928827242,15.296417000000002,-1.02075,-0.57767725,-0.55833244,0
-0.8899999999999992,7.937057000000001,-6.9355226,0.6761773,0.21079248,-0.19613254,-0.9390853000000001,-0.18766235,-7.7592134,6.6648955,-0.23058765,0.28373486,-3.2653615,1.1035452,13.962118947944903,0.9395801468844588,-3.9261525927968375,-0.950433928827242,15.296417000000002,-1.02075,-0.57767725,-0.55833244,0
-0.8799999999999992,7.859245,-6.868562,0.6739655,0.19383277,-0.19567914,-0.94309664,-0.18629803,-7.802682000000001,6.727046499999999,-0.21146922,0.3858665,-3.3683634,1.0027559000000001,14.548772773607345,0.6086465045213884,-3.375926601755552,-1.2464055784735588,15.589179000000001,-1.1704733,-0.35958126,-0.5510221,0
-0.8699999999999992,7.78101,-6.800972,0.6719795,0.17661458,-0.19533329,-0.94670236,-0.18549006,-7.843594599999999,6.7909265,-0.18543099999999998,0.42036720000000005,-3.3695505,0.89238894,14.548772773607345,0.6086465045213884,-3.375926601755552,-1.2464055784735588,15.589179000000001,-1.1704733,-0.35958126,-0.5510221,0
-0.8599999999999992,7.702389,-6.732747,0.6702632,0.15941241,-0.1949813,-0.9498863999999999,-0.18516357,-7.8800015,6.8539443,-0.15756257,0.44949922,-3.3705587,0.7874376999999999,14.548772773607345,0.6086465045213884,-3.375926601755552,-1.2464055784735588,15.589179000000001,-1.1704733,-0.35958126,-0.5510221,0
-0.8499999999999992,7.623425999999999,-6.663896,0.668834,0.14223224,-0.19461471,-0.9526609,-0.1852891,-7.911828999999999,6.9161015,-0.12803696,0.47409916,-3.371414,0.68763644,14.548772773607345,0.6086465045213884,-3.375926601755552,-1.2464055784735588,15.589179000000001,-1.1704733,-0.35958126,-0.5510221,0
-0.8399999999999992,7.5441675,-6.5944275999999995,0.66770756,0.12507914,-0.19422720000000002,-0.95503646,-0.18583922,-7.939013,6.977389,-0.097026244,0.49487346,-3.3721387000000003,0.5927325,15.169884827770872,-0.10667235447252617,-2.2466492150052844,-1.3228126891102214,16.825993,-1.4703893999999997,-0.29398814,-0.5863298000000001,0
-0.8299999999999992,7.4646564,-6.524337999999999,0.66692585,0.10844512,-0.19362454,-0.95702714,-0.18667647,-7.9624953,7.0403633,-0.05913595,0.40079862,-3.1966805,0.49873608,15.169884827770872,-0.10667235447252617,-2.2466492150052844,-1.3228126891102214,16.825993,-1.4703893999999997,-0.29398814,-0.5863298000000001,0
-0.8199999999999992,7.384933500000001,-6.453624,0.66652894,0.092723995,-0.19265717,-0.95867324,-0.18769923,-7.981303,7.1023397,-0.020064648,0.32143262,-3.0485682,0.40935215,15.169884827770872,-0.10667235447252617,-2.2466492150052844,-1.3228126891102214,16.825993,-1.4703893999999997,-0.29398814,-0.5863298000000001,0
-0.8099999999999992,7.3050447,-6.382295,0.66652805,0.077786155,-0.19138114,-0.9600146,-0.18892957,-7.99567,7.1632433,0.020021036000000002,0.25447416,-2.9235417999999997,0.32435432,15.169884827770872,-0.10667235447252617,-2.2466492150052844,-1.3228126891102214,16.825993,-1.4703893999999997,-0.29398814,-0.5863298000000001,0
-0.7999999999999992,7.2250338,-6.310363300000001,0.6669324000000001,0.06352086,-0.18984407,-0.96108204,-0.19038239,-8.005794999999999,7.2230086,0.060977317,0.19798253,-2.8180034,0.24352735,14.986296142910303,-0.9852062326871109,-1.0803890509682863,-1.231231331951196,17.466276,-2.2485204,0.11678527,0.18454763,0
-0.7899999999999991,7.144943,-6.2378426,0.6677417,0.05034746,-0.18783894,-0.96194464,-0.19194773,-8.011814,7.2808589999999995,0.10098861,0.013300936999999999,-2.547054,0.17116053,14.986296142910303,-0.9852062326871109,-1.0803890509682863,-1.231231331951196,17.466276,-2.2485204,0.11678527,0.18454763,0
-0.7799999999999991,7.0648103,-6.16475,0.66895443,0.03859389,-0.18520732,-0.9626781999999999,-0.1935438,-8.014247,7.3374057,0.14164875,-0.1425457,-2.3183398,0.10234477,14.986296142910303,-0.9852062326871109,-1.0803890509682863,-1.231231331951196,17.466276,-2.2485204,0.11678527,0.18454763,0
-0.7699999999999991,6.984669,-6.0910993,0.6705767,0.02804865,-0.18205109,-0.96330786,-0.1952138,-8.013507,7.3925385,0.18289669,-0.27406222,-2.1252793999999997,0.03690581,14.986296142910303,-0.9852062326871109,-1.0803890509682863,-1.231231331951196,17.466276,-2.2485204,0.11678527,0.18454763,0
-0.7599999999999991,6.90455,-6.016904,0.67261416,0.018531747,-0.17845549,-0.96384907,-0.19698977,-8.009945,7.4461656000000005,0.22468816,-0.38504872,-1.9623166,-0.025322054,14.986296142910303,-0.9852062326871109,-1.0803890509682863,-1.231231331951196,17.708486999999998,-2.9349380000000003,0.72038186,0.5699015000000001,0
-0.7499999999999991,6.824478599999999,-5.9421800000000005,0.6750722,0.009890148,-0.17449193,-0.9643108,-0.19889498,-8.003857,7.4982095,0.26698979999999994,-0.47871143,-1.8247607,-0.084496364,14.986296142910303,-0.9852062326871109,-1.0803890509682863,-1.231231331951196,17.708486999999998,-2.9349380000000003,0.72038186,0.5699015000000001,0
-0.7399999999999989,6.744480599999999,-5.866944999999999,0.6779556999999999,0.001993815,-0.17022029,-0.9646976999999999,-0.20094581,-7.9954963,7.5486054000000005,0.30977523,-0.5577555999999999,-1.7086518,-0.14076698,14.986296142910303,-0.9852062326871109,-1.0803890509682863,-1.231231331951196,17.708486999999998,-2.9349380000000003,0.72038186,0.5699015000000001,0
-0.7299999999999989,6.6645765,-5.791214,0.68126935,-0.005267719000000001,-0.16569078,-0.96501166,-0.20315318,-7.9850802,7.597297,0.3530223,-0.62446374,-1.6106466,-0.19427639,14.986296142910303,-0.9852062326871109,-1.0803890509682863,-1.231231331951196,17.708486999999998,-2.9349380000000003,0.72038186,0.5699015000000001,0
-0.7199999999999989,6.5847855,-5.715005000000001,0.68501765,-0.011988278,-0.16094553,-0.96525264,-0.20552377,-7.972792,7.6442369999999995,0.39671105,-0.68076164,-1.5279236,-0.24516006,14.932258350506078,-1.7266197098009262,0.10109256163110082,-0.9917499740985845,15.884329000000001,-3.2552326000000003,1.3786413999999998,0.23726144,0
-0.7099999999999989,6.5051255,-5.638336,0.6892024,-0.017734641000000002,-0.15583102,-0.9654812,-0.20796147,-7.9588757,7.6892166,0.4403149,-0.8438530000000001,-1.2738333999999998,-0.28179544,14.932258350506078,-1.7266197098009262,0.10109256163110082,-0.9917499740985845,15.884329000000001,-3.2552326000000003,1.3786413999999998,0.23726144,0
-0.6999999999999991,6.425612,-5.561227,0.6938255,-0.022167725,-0.15022887,-0.9657514000000001,-0.21038987,-7.9436636,7.7323413,0.48436168,-0.981505,-1.059367,-0.31663314,14.932258350506078,-1.7266197098009262,0.10109256163110082,-0.9917499740985845,15.884329000000001,-3.2552326000000003,1.3786413999999998,0.23726144,0
-0.6899999999999991,6.3462559999999995,-5.483696,0.6988913,-0.025488194,-0.1442182,-0.9660496,-0.21283634,-7.927548,7.77355,0.5288764,-1.0976871000000001,-0.8783464,-0.3497613,14.932258350506078,-1.7266197098009262,0.10109256163110082,-0.9917499740985845,15.884329000000001,-3.2552326000000003,1.3786413999999998,0.23726144,0
-0.679999999999999,6.267062999999999,-5.4057627,0.70440465,-0.027865935,-0.13786496,-0.96636087,-0.21532102,-7.910861,7.812794,0.573879,-1.195749,-0.7255568,-0.38126388,14.790060040036025,-2.31496016511196,1.1280372575864552,-0.6673779063593168,16.157958999999998,-3.6752427000000005,1.5839928,1.2336334,0
-0.669999999999999,6.188038,-5.327449,0.71036375,-0.02900214,-0.13108435,-0.966722,-0.21777043,-7.894078299999999,7.849675,0.6180194999999999,-1.3702219,-0.43643412,-0.3953036,14.790060040036025,-2.31496016511196,1.1280372575864552,-0.6673779063593168,16.157958999999998,-3.6752427000000005,1.5839928,1.2336334,0
-0.659999999999999,6.1091805,-5.248776400000001,0.7167669,-0.028667405,-0.12381206,-0.96715796,-0.22012247,-7.8774858,7.884521,0.6626943000000001,-1.5174923,-0.1924046,-0.40865436,14.790060040036025,-2.31496016511196,1.1280372575864552,-0.6673779063593168,16.157958999999998,-3.6752427000000005,1.5839928,1.2336334,0
-0.649999999999999,6.030486,-5.169766,0.7236195,-0.027088145,-0.11612567,-0.9676349,-0.22240384,-7.8615203,7.9172910000000005,0.70793086,-1.6418023000000002,0.013564038999999998,-0.42135,14.790060040036025,-2.31496016511196,1.1280372575864552,-0.6673779063593168,16.157958999999998,-3.6752427000000005,1.5839928,1.2336334,0
-0.639999999999999,5.951946700000001,-5.090438,0.73092747,-0.024455892000000003,-0.10808997599999999,-0.9681207000000001,-0.22463436,-7.8465557,7.947952000000001,0.75374085,-1.746732,0.18740804,-0.43342265,14.212940742800743,-2.6743108230420805,1.7033392995566736,-0.3222269862189273,16.715006,-4.1501446,1.3097489,3.1037161,0
-0.629999999999999,5.873547599999999,-5.01082,0.7386682,-0.020681912,-0.09967076,-0.96861494,-0.22676624,-7.8334594,7.975361299999999,0.79448414,-1.8913221000000002,0.42385092,-0.42796624,14.212940742800743,-2.6743108230420805,1.7033392995566736,-0.3222269862189273,16.715006,-4.1501446,1.3097489,3.1037161,0
-0.619999999999999,5.795272,-4.930937999999999,0.746819,-0.015704367,-0.09084352,-0.9691086999999999,-0.22875516,-7.8220205,8.000684,0.83576864,-2.0133753,0.6234135999999999,-0.4227776,14.212940742800743,-2.6743108230420805,1.7033392995566736,-0.3222269862189273,16.715006,-4.1501446,1.3097489,3.1037161,0
-0.6099999999999992,5.717100599999999,-4.850813400000001,0.75538534,-0.009709371999999999,-0.08167125,-0.96956205,-0.23061842,-7.8125906,8.0238905,0.8775706,-2.116404,0.791849,-0.41784355,14.212940742800743,-2.6743108230420805,1.7033392995566736,-0.3222269862189273,16.715006,-4.1501446,1.3097489,3.1037161,0
-0.5999999999999992,5.6390123,-4.7704673,0.7643721,-0.0028546588,-0.07220714,-0.9699394,-0.23236911,-7.805469,8.044957,0.91984653,-2.2033732,0.9340122999999999,-0.41315162,13.5929145754001,-2.7491587082440607,1.7048015523086468,-0.026079208179530144,15.677185999999999,-4.338204,1.5102739,3.943161,0
-0.5899999999999992,5.5609813,-4.689926,0.77375305,0.0047309585,-0.06246725,-0.9702206,-0.23398160000000004,-7.80111,8.063038,0.9563939,-2.2884686000000003,1.054211,-0.39415783,13.5929145754001,-2.7491587082440607,1.7048015523086468,-0.026079208179530144,15.677185999999999,-4.338204,1.5102739,3.943161,0
-0.5799999999999992,5.482981,-4.6092143,0.78350115,0.012937963,-0.052467234,-0.9703878,-0.23542975,-7.799413,8.079027,0.9932653,-2.3603005,1.1556608999999998,-0.37609613,13.5929145754001,-2.7491587082440607,1.7048015523086468,-0.026079208179530144,15.677185999999999,-4.338204,1.5102739,3.943161,0
-0.5699999999999992,5.404984,-4.5283527,0.7936191999999999,0.02166863,-0.04224835,-0.9704164000000001,-0.23672217,-7.8005605,8.092898,1.0303761,-2.4209356,1.2412869,-0.35892066,13.5929145754001,-2.7491587082440607,1.7048015523086468,-0.026079208179530144,15.677185999999999,-4.338204,1.5102739,3.943161,0
-0.5599999999999992,5.32696,-4.447364,0.80410916,0.030839866,-0.0318459,-0.9702857,-0.23786606,-7.804702799999999,8.104635,1.0676302,-2.4721189999999997,1.3135571000000001,-0.342588,13.5929145754001,-2.7491587082440607,1.7048015523086468,-0.026079208179530144,15.746796,-4.3232784,0.81588745,3.9447858,0
-0.5499999999999992,5.2488790000000005,-4.366268,0.81497186,0.040380947,-0.021290207000000002,-0.9699785,-0.23886752,-7.8119664,8.114222,1.1049218,-2.5153239,1.3745555,-0.32705685,13.5929145754001,-2.7491587082440607,1.7048015523086468,-0.026079208179530144,15.746796,-4.3232784,0.81588745,3.9447858,0
-0.5399999999999991,5.1707089999999996,-4.2850876,0.8262073,0.050231613,-0.010607397,-0.9694806999999999,-0.23973179,-7.8224564,8.121645,1.1421375,-2.5517929,1.4260405,-0.31228779999999995,13.5929145754001,-2.7491587082440607,1.7048015523086468,-0.026079208179530144,15.746796,-4.3232784,0.81588745,3.9447858,0
-0.5299999999999991,5.092418,-4.203843599999999,0.8378139000000001,0.060340445,0.00017994572,-0.96878076,-0.24046353,-7.836257499999999,8.1269,1.1791575,-2.5825765,1.4694955,-0.29824346,13.5929145754001,-2.7491587082440607,1.7048015523086468,-0.026079208179530144,15.746796,-4.3232784,0.81588745,3.9447858,0
-0.5199999999999991,5.0139723,-4.122557,0.84978926,0.07066351,0.011052228999999998,-0.9678694,-0.24106678,-7.853437400000001,8.129982,1.2158567,-2.6085608,1.5061737,-0.28488827,13.537984775833499,-2.5209943593806465,1.4578866775442665,0.14369370845283333,17.053865,-3.6063662000000005,-0.9286008,3.8176107000000004,0
-0.5099999999999991,4.935338,-4.041250700000001,0.86212677,0.081045955,0.021926402999999997,-0.9667541999999999,-0.24153058,-7.8739576,8.130889,1.2515645,-2.5949267999999996,1.4986053,-0.26385766,13.537984775833499,-2.5209943593806465,1.4578866775442665,0.14369370845283333,17.053865,-3.6063662000000005,-0.9286008,3.8176107000000004,0
-0.4999999999999991,4.8564815999999995,-3.9599464,0.87481856,0.091363505,0.032735094,-0.96544915,-0.2418449,-7.8978753,8.129647,1.2867043,-2.5834177000000005,1.4922194,-0.24385901,13.537984775833499,-2.5209943593806465,1.4578866775442665,0.14369370845283333,17.053865,-3.6063662000000005,-0.9286008,3.8176107000000004,0
-0.4899999999999989,4.777369,-3.8786650000000003,0.88785845,0.10162262,0.04348354,-0.9639558000000001,-0.24201477,-7.9251595,8.126278,1.3211588,-2.5737019,1.486832,-0.22484168,13.537984775833499,-2.5209943593806465,1.4578866775442665,0.14369370845283333,17.053865,-3.6063662000000005,-0.9286008,3.8176107000000004,0
-0.47999999999999887,4.697967,-3.797428,0.90123904,0.11182848,0.054175827999999995,-0.9622752,-0.24204494,-7.955778,8.120801,1.3548122999999999,-2.5655002999999996,1.4822865,-0.20675755,13.262715295536553,-2.003160903673677,0.8703966260586103,0.197521855697402,17.19339,-2.8722887000000004,-1.655462,3.3469467000000006,0
-0.46999999999999886,4.6182456,-3.7162552000000004,0.9149383,0.12170965,0.064672135,-0.9604514000000001,-0.24194457,-7.988991,8.113392,1.3848951,-2.4778347000000003,1.3868186000000002,-0.18691944,13.262715295536553,-2.003160903673677,0.8703966260586103,0.197521855697402,17.19339,-2.8722887000000004,-1.655462,3.3469467000000006,0
-0.45999999999999885,4.538176999999999,-3.6351666,0.92893356,0.13105309,0.07486252,-0.9585355999999999,-0.2417229,-8.025272,8.103985,1.4140116000000003,-2.4038357999999995,1.3062443000000001,-0.16805479,13.262715295536553,-2.003160903673677,0.8703966260586103,0.197521855697402,17.19339,-2.8722887000000004,-1.655462,3.3469467000000006,0
-0.44999999999999885,4.4577303,-3.554182,0.94321495,0.13994125,0.08479009,-0.9565355999999999,-0.24138448,-8.06446,8.092628999999999,1.4421033,-2.3413727000000004,1.2382398000000001,-0.15011583,13.262715295536553,-2.003160903673677,0.8703966260586103,0.197521855697402,17.19339,-2.8722887000000004,-1.655462,3.3469467000000006,0
-0.43999999999999884,4.376878,-3.4733205000000003,0.9577719000000001,0.14844361,0.09449117,-0.95445615,-0.24093355,-8.106411999999999,8.079367,1.4691159,-2.2886474,1.1808442,-0.13305716,12.74210572253005,-1.255024501236407,0.03829998950355081,0.13934237871943686,16.757284,-1.68118,-1.4265466,2.5707126000000002,0
-0.4299999999999988,4.295601400000001,-3.3925982000000006,0.97256905,0.15622884,0.103792384,-0.9523811,-0.24039467,-8.149232000000001,8.064835,1.4901402,-2.127479,1.0026325999999999,-0.119690455,12.74210572253005,-1.255024501236407,0.03829998950355081,0.13934237871943686,16.757284,-1.68118,-1.4265466,2.5707126000000002,0
-0.4199999999999988,4.213885299999999,-3.3120297999999995,0.9875710999999999,0.16304016,0.11255998,-0.95039356,-0.23979102,-8.194312,8.048580000000001,1.5101040000000001,-1.9914393,0.85221845,-0.10697964,12.74210572253005,-1.255024501236407,0.03829998950355081,0.13934237871943686,16.757284,-1.68118,-1.4265466,2.5707126000000002,0
-0.4099999999999988,4.1317086000000005,-3.2316322,1.0027677,0.16903159,0.12087537,-0.94849163,-0.23912434,-8.241392,8.030669999999999,1.5290436,-1.8766104,0.7252655,-0.09489255,12.74210572253005,-1.255024501236407,0.03829998950355081,0.13934237871943686,16.757284,-1.68118,-1.4265466,2.5707126000000002,0
-0.3999999999999988,4.049052,-3.1514217999999996,1.0181487,0.17433274,0.12880716,-0.94666964,-0.23839617,-8.290253,8.011161999999999,1.5469941999999999,-1.7796855999999999,0.6181145,-0.08339856,11.922630620716493,-0.3241994992325966,-0.8643507508894563,-0.04121890546017155,16.454693,-1.017139,-3.00449,1.8108186000000002,0
-0.3899999999999988,3.9659145,-3.0714076,1.0336673,0.17861973,0.13615102,-0.94502944,-0.23764782,-8.337439999999999,7.991466,1.5565976000000001,-1.5527165,0.38691035,-0.0813288,11.922630620716493,-0.3241994992325966,-0.8643507508894563,-0.04121890546017155,16.454693,-1.017139,-3.00449,1.8108186000000002,0
-0.3799999999999988,3.8822992,-2.9915972,1.0492780000000002,0.1816433,0.14275034,-0.9436620000000001,-0.23691626,-8.385793,7.970413000000001,1.5654243,-1.3611405,0.19176511,-0.07936059,11.922630620716493,-0.3241994992325966,-0.8643507508894563,-0.04121890546017155,16.454693,-1.017139,-3.00449,1.8108186000000002,0
-0.3699999999999988,3.7981955999999997,-2.9120037999999995,1.0649736,0.18360367,0.14872217,-0.94254017,-0.23619631,-8.435014,7.9480886,1.5735959,-1.1994386000000001,0.027054735,-0.077488974,11.922630620716493,-0.3241994992325966,-0.8643507508894563,-0.04121890546017155,16.454693,-1.017139,-3.00449,1.8108186000000002,0
-0.35999999999999877,3.7135962999999994,-2.8326397,1.0807481,0.18466888,0.15416478,-0.9416356,-0.2354831,-8.484852,7.9245644,1.5812198999999998,-1.0629524,-0.11196751,-0.07570919400000001,11.922630620716493,-0.3241994992325966,-0.8643507508894563,-0.04121890546017155,15.834216,0.7341304,-3.994179,0.6527708000000001,0
-0.34999999999999876,3.6284970000000003,-2.7535167,1.0965966,0.18498005,0.15916073,-0.94092053,-0.23477231,-8.535096000000001,7.8998985,1.5883906,-0.94775,-0.22930805,-0.074016765,11.922630620716493,-0.3241994992325966,-0.8643507508894563,-0.04121890546017155,15.834216,0.7341304,-3.994179,0.6527708000000001,0
-0.33999999999999875,3.5428936,-2.6746457,1.1125147,0.1846558,0.16377944,-0.9403688,-0.2340603,-8.585571,7.874141000000001,1.5951891000000002,-0.8505120999999999,-0.3283482,-0.07240737,11.922630620716493,-0.3241994992325966,-0.8643507508894563,-0.04121890546017155,15.834216,0.7341304,-3.994179,0.6527708000000001,0
-0.32999999999999874,3.4567852,-2.5960374,1.1284993,0.18379584,0.16807927,-0.9399564,-0.23334402,-8.636128999999999,7.847335,1.6016848,-0.7684375,-0.41194203,-0.07087695599999999,11.922630620716493,-0.3241994992325966,-0.8643507508894563,-0.04121890546017155,15.834216,0.7341304,-3.994179,0.6527708000000001,0
-0.31999999999999873,3.370171,-2.5177023,1.1445475,0.18248409,0.17210938,-0.9396619,-0.23262104,-8.686643,7.8195143,1.6079363000000002,-0.6991616,-0.48249874,-0.06942162,10.820757802978873,0.5314309633896852,-1.6208705532271566,-0.3005128342594925,14.278885,0.4526777,-3.872632,0.9519449000000001,0
-0.3099999999999987,3.2830760000000003,-2.4396372000000004,1.1606091,0.18042155,0.17566562,-0.9395730999999999,-0.23192948,-8.732334,7.793375999999999,1.6043768999999999,-0.5072641,-0.66003215,-0.080761336,10.820757802978873,0.5314309633896852,-1.6208705532271566,-0.3005128342594925,14.278885,0.4526777,-3.872632,0.9519449000000001,0
-0.2999999999999987,3.1955256000000003,-2.3618376,1.1766348999999998,0.17737406,0.17858878,-0.93975705,-0.23130167,-8.77767,7.766414999999999,1.6007576000000001,-0.34529355,-0.8098806,-0.0915446,10.820757802978873,0.5314309633896852,-1.6208705532271566,-0.3005128342594925,14.278885,0.4526777,-3.872632,0.9519449000000001,0
-0.2899999999999987,3.1075244,-2.2843112999999997,1.1926246,0.17349360000000003,0.18097703,-0.9401655000000001,-0.23072788,-8.822443,7.7387,1.5971879999999998,-0.20858274,-0.93636084,-0.10179874,10.820757802978873,0.5314309633896852,-1.6208705532271566,-0.3005128342594925,14.278885,0.4526777,-3.872632,0.9519449000000001,0
-0.2799999999999987,3.0190792,-2.2070658,1.2085791000000001,0.16890797,0.18291277,-0.94075525,-0.23019964,-8.866478,7.710286999999999,1.593758,-0.09319164,-1.0431168,-0.1115497,9.550870923142467,1.3094142952927563,-2.2585674036668397,-0.6554708746697011,13.009081,1.1954094,-3.7599258,0.20014319,0
-0.2699999999999989,2.9302237,-2.1300907000000002,1.2244447,0.1634048,0.18423812,-0.94157666,-0.22975597,-8.904547,7.684642,1.579413,0.12550889,-1.2326834999999998,-0.13824007,9.550870923142467,1.3094142952927563,-2.2585674036668397,-0.6554708746697011,13.009081,1.1954094,-3.7599258,0.20014319,0
-0.2599999999999989,2.840992,-2.0533745,1.2401685,0.15681913,0.18483071,-0.94265926,-0.22942978,-8.94161,7.658505,1.5653658000000001,0.31010094,-1.392691,-0.16362071,9.550870923142467,1.3094142952927563,-2.2585674036668397,-0.6554708746697011,13.009081,1.1954094,-3.7599258,0.20014319,0
-0.2499999999999989,2.7513957,-1.9769218999999998,1.2557535,0.14931393,0.18480167,-0.94393724,-0.22920568,-8.977466,7.631950999999999,1.5517112,0.465905,-1.5277475,-0.18775593,9.550870923142467,1.3094142952927563,-2.2585674036668397,-0.6554708746697011,13.009081,1.1954094,-3.7599258,0.20014319,0
-0.23999999999999888,2.6614475,-1.9007367,1.2712044,0.14102668,0.1842442,-0.9453526,-0.22907020000000003,-9.011934,7.605044,1.5385209,0.5974115,-1.6417433999999997,-0.21070682,8.864842498075689,1.9897785972312743,-2.516187899404232,-0.9770610818759264,11.935169,2.0085948,-3.5649006,-0.3857087,0
-0.22999999999999865,2.5711741000000004,-1.8248124,1.2864951,0.13190629,0.18300796,-0.94690865,-0.22906758,-9.042489999999999,7.579801600000001,1.5197147,0.8144883,-1.7781619999999998,-0.24831204,8.864842498075689,1.9897785972312743,-2.516187899404232,-0.9770610818759264,11.935169,2.0085948,-3.5649006,-0.3857087,0
-0.21999999999999864,2.4806032000000005,-1.7491415000000001,1.3016005,0.12191665,0.18097644,-0.94859636,-0.22923344,-9.071437,7.554384,1.5014544,0.9977115,-1.8933093999999997,-0.28407198,8.864842498075689,1.9897785972312743,-2.516187899404232,-0.9770610818759264,11.935169,2.0085948,-3.5649006,-0.3857087,0
-0.20999999999999863,2.3897517,-1.6737251,1.3165262,0.1111857,0.17826712,-0.9503509,-0.2295451,-9.098606,7.5288844,1.4837897,1.1523618999999998,-1.9905008000000002,-0.31807718,8.864842498075689,1.9897785972312743,-2.516187899404232,-0.9770610818759264,11.935169,2.0085948,-3.5649006,-0.3857087,0
-0.19999999999999862,2.2986379,-1.5985638,1.3312784,0.09982213,0.17497887,-0.9521161,-0.22998302,-9.123854,7.503384,1.4667481000000002,1.2828959,-2.0725352999999997,-0.3504137,8.511581854081689,2.36070567475904,-2.419520033256969,-1.2377816417412848,12.468722,1.4788839,-4.005330000000001,-0.21623632,0
-0.18999999999999884,2.2072863999999996,-1.5236522,1.3458472,0.08791554,0.17104773,-0.95385784,-0.23058185,-9.146127,7.4789724,1.4470844999999999,1.4509072,-2.1267266,-0.3939571,8.511581854081689,2.36070567475904,-2.419520033256969,-1.2377816417412848,12.468722,1.4788839,-4.005330000000001,-0.21623632,0
-0.17999999999999883,2.1157223999999997,-1.4489839,1.3602222,0.07554183,0.16642669,-0.9555433000000001,-0.23136966,-9.166319,7.454727,1.4280335,1.5927193000000002,-2.1724667999999996,-0.43536386,8.511581854081689,2.36070567475904,-2.419520033256969,-1.2377816417412848,12.468722,1.4788839,-4.005330000000001,-0.21623632,0
-0.16999999999999882,2.0239675,-1.3745566999999999,1.3744098999999999,0.06276856,0.16121536,-0.95712876,-0.23232183,-9.184329,7.4307419999999995,1.4095867,1.7124186999999997,-2.2110727000000003,-0.47473878,8.511581854081689,2.36070567475904,-2.419520033256969,-1.2377816417412848,12.468722,1.4788839,-4.005330000000001,-0.21623632,0
-0.1599999999999988,1.9320438999999998,-1.3003677,1.388416,0.0496539,0.15549801,-0.9585773000000001,-0.23341715,-9.200067500000001,7.4070954,1.39172,1.8134539,-2.2436552000000005,-0.5121815,8.511581854081689,2.36070567475904,-2.419520033256969,-1.2377816417412848,11.366775500000001,1.6562723000000001,-3.3210013,-0.42068732,0
-0.1499999999999988,1.8399744999999998,-1.2264133999999998,1.4022462,0.0362481,0.14934589999999998,-0.95985746,-0.23463733,-9.213457,7.383857300000001,1.3743972,1.8987358,-2.2711535,-0.5477869000000001,8.511581854081689,2.36070567475904,-2.419520033256969,-1.2377816417412848,11.366775500000001,1.6562723000000001,-3.3210013,-0.42068732,0
-0.1399999999999988,1.7477831999999998,-1.1526891000000001,1.4159058,0.022594761,0.14281946,-0.96094275,-0.23596649,-9.224428,7.361086,1.3575700000000002,1.9707207999999998,-2.2943602000000003,-0.58164513,8.511581854081689,2.36070567475904,-2.419520033256969,-1.2377816417412848,11.366775500000001,1.6562723000000001,-3.3210013,-0.42068732,0
-0.12999999999999878,1.6554944999999999,-1.0791899999999999,1.4293993,0.00873182,0.13596992,-0.9618111999999999,-0.23739071,-9.232925,7.338832000000001,1.3411815,2.0314827,-2.313944,-0.61384195,8.511581854081689,2.36070567475904,-2.419520033256969,-1.2377816417412848,11.366775500000001,1.6562723000000001,-3.3210013,-0.42068732,0
-0.11999999999999877,1.5631332,-1.0059105,1.4427306999999998,-0.0053075748,0.12884088,-0.96244425,-0.23889771,-9.238895,7.3171387,1.3251663,2.0827715,-2.3304706000000004,-0.6444589,8.346774750658824,2.4156958431650217,-1.9336266674122584,-1.3893652249665116,10.649088,1.4847806000000001,-2.7318554,0.013442036000000001,0
-0.10999999999999877,1.4707257,-0.932843,1.4558955,-0.019314868,0.12140158,-0.96282816,-0.24051936,-9.242235,7.2964554,1.3078586,2.1346629,-2.2686555,-0.6810116,8.346774750658824,2.4156958431650217,-1.9336266674122584,-1.3893652249665116,10.649088,1.4847806000000001,-2.7318554,0.013442036000000001,0
-0.09999999999999876,1.3782973,-0.8599791999999999,1.4688885,-0.033122536,0.11362982,-0.9629589,-0.24228153,-9.243067,7.276418700000001,1.2907783000000002,2.1784625,-2.2164767000000003,-0.7157707,8.346774750658824,2.4156958431650217,-1.9336266674122584,-1.3893652249665116,10.649088,1.4847806000000001,-2.7318554,0.013442036000000001,0
-0.08999999999999875,1.285873,-0.78731227,1.4817115,-0.046758725999999994,0.10557142,-0.9628344999999999,-0.24416603,-9.241405499999999,7.257084,1.2738556,2.2154326,-2.1724312,-0.74882424,8.346774750658824,2.4156958431650217,-1.9336266674122584,-1.3893652249665116,10.649088,1.4847806000000001,-2.7318554,0.013442036000000001,0
-0.07999999999999874,1.1934777,-0.71483505,1.4943658000000002,-0.06024647,0.09726542,-0.9624528,-0.24615708,-9.237267,7.2384960000000005,1.2570187,2.2466378,-2.135251,-0.78025573,8.25071100066229,2.1837321256498186,-1.1495389977774582,-1.4154201669700996,10.126804,1.3557355,-2.0082145000000002,0.05370226,0
