time-since-start [s],throttle_mpc,roll_mpc,pitch_mpc,yaw_mpc,throttle_nw,roll_nw,pitch_nw,yaw_nw,position_x [m],position_y [m],position_z [m],rotation_w [quaternion],rotation_x [quaternion],rotation_y [quaternion],rotation_z [quaternion],velocity_x [m/s],velocity_y [m/s],velocity_z [m/s],omega_x [rad/s],omega_y [rad/s],omega_z [rad/s],network_used
0.0,9.266854554202794,5.9999996349568265,-5.999999921622827,-4.9018815038740575,14.539761,-1.1155354,-3.8750718,-1.1722734,18.807838,-9.694801,2.0241354,0.06314813,0.42173484,-0.27745736,-0.86091197,-10.601575,-4.6785994,0.43607044,1.5941268,-0.072918124,-0.63078696,0
0.01,9.266854554202794,5.9999996349568265,-5.999999921622827,-4.9018815038740575,12.607456,-1.6407081,-4.676177,-1.3450325,18.7012,-9.741238,2.0284057,0.05658382,0.42247066,-0.28275952,-0.859281,-10.725774,-4.6084113,0.41762605,1.5444833,-0.26073182,-0.7745044,0
0.02,9.266854554202794,5.9999996349568265,-5.999999921622827,-4.9018815038740575,12.607456,-1.6407081,-4.676177,-1.3450325,18.59333,-9.786965,2.03248,0.049214605,0.4225663,-0.2876534,-0.85806245,-10.847533,-4.5370555,0.3969294,1.5278792,-0.4445905,-0.91343325,0
0.03,9.266854554202794,5.9999996349568265,-5.999999921622827,-4.9018815038740575,12.607456,-1.6407081,-4.676177,-1.3450325,18.484257,-9.831974,2.0363371,0.04099725,0.42203978,-0.29226997,-0.85719305,-10.96662,-4.4645605,0.3742133,1.5395523,-0.6255059,-1.0478433,0
0.04,9.266854554202794,5.9999996349568265,-5.999999921622827,-4.9018815038740575,13.045485,-0.04194776,-3.2231255,-2.5016773,18.374006,-9.876253,2.039958,0.03189565,0.42089987,-0.29671907,-0.8566117,-11.082812,-4.3909254,0.34968168,1.5753937,-0.80424047,-1.1779833,0
0.05,9.266854554202794,5.9999996349568265,-5.999999921622827,-4.9018815038740575,13.045485,-0.04194776,-3.2231255,-2.5016773,18.26261,-9.919788,2.0433252,0.021880263,0.41914764,-0.3010921,-0.8562593,-11.195892,-4.3161287,0.32351398,1.6318539,-0.9813549,-1.304082,0
0.060000000000000005,9.266854554202794,5.9999996349568265,-5.999999921622827,-4.9018815038740575,13.045485,-0.04194776,-3.2231255,-2.5016773,18.150099,-9.96257,2.0464232,0.010927585,0.4167778,-0.30546418,-0.8560774,-11.305648,-4.2401366,0.2958692,1.7058632,-1.1572493,-1.4263508,0
0.07,9.266854554202794,5.9999996349568265,-5.999999921622827,-4.9018815038740575,13.045485,-0.04194776,-3.2231255,-2.5016773,18.036509,-10.004586,2.049238,-0.0009802652,0.41377985,-0.30989626,-0.856008,-11.411873,-4.1629105,0.26688904,1.7947656,-1.3321942,-1.5449849,0
0.08,11.240073328499422,5.999999811929439,-5.999999952179818,-4.556389503673283,13.976749,-0.5954208,-5.233205,-1.4528193,17.921873,-10.045824,2.0517569,-0.013855871,0.41013885,-0.31443644,-0.855993,-11.514358,-4.084412,0.23670068,1.8962594,-1.5063585,-1.6601645,0
0.09,11.240073328499422,5.999999811929439,-5.999999952179818,-4.556389503673283,13.976749,-0.5954208,-5.233205,-1.4528193,17.806198,-10.086241,2.0539918,-0.027876161,0.40560332,-0.31934437,-0.85599536,-11.619754,-3.9990265,0.21008325,2.1097627,-1.7814574,-1.7641716,0
0.09999999999999999,11.240073328499422,5.999999811929439,-5.999999952179818,-4.556389503673283,13.976749,-0.5954208,-5.233205,-1.4528193,17.689495,-10.125799,2.0559545,-0.043193202,0.39993745,-0.32483324,-0.8559601,-11.720269,-3.912356,0.18221758,2.322913,-2.0466454,-1.8660223,0
0.10999999999999999,11.240073328499422,5.999999811929439,-5.999999952179818,-4.556389503673283,13.976749,-0.5954208,-5.233205,-1.4528193,17.57181,-10.164483,2.0576324,-0.059775803,0.39314327,-0.33086833,-0.85579866,-11.815595,-3.8242614,0.15325013,2.535083,-2.3027825,-1.9657613,0
0.11999999999999998,11.240073328499422,5.999999811929439,-5.999999952179818,-4.556389503673283,13.976749,-0.5954208,-5.233205,-1.4528193,17.453201,-10.202279,2.059016,-0.07758955,0.3852178,-0.3374098,-0.855419,-11.905422,-3.7346587,0.12330867,2.7457592,-2.550609,-2.0634322,0
0.12999999999999998,14.274158652455105,5.999999899688226,-5.999999973760406,-3.943772934952104,14.648792,1.8097068,-4.5351014,-2.515116,17.333723,-10.239171,2.0600958,-0.09659635,0.37615436,-0.34441295,-0.8547261,-11.98945,-3.643519,0.09250344,2.9545214,-2.790766,-2.1590781,0
0.13999999999999999,14.274158652455105,5.999999899688226,-5.999999973760406,-3.943772934952104,14.648792,1.8097068,-4.5351014,-2.515116,17.213394,-10.275096,2.060898,-0.11702614,0.3655197,-0.35215893,-0.85363,-12.075412,-3.541269,0.0678112,3.3282776,-3.1914816,-2.23764,0
0.15,14.274158652455105,5.999999899688226,-5.999999973760406,-3.943772934952104,14.648792,1.8097068,-4.5351014,-2.515116,17.092241,-10.309992,2.061448,-0.13906533,0.3529078,-0.36085844,-0.8519965,-12.153693,-3.4377868,0.042039428,3.6840265,-3.570003,-2.3159487,0
0.16,18.38006704766253,5.999999932074694,-5.999999981137177,-3.2586308463025597,15.247332,1.0300511,-5.128207,-1.8024225,16.970346,-10.343847,2.0617356,-0.16260353,0.33834767,-0.37035733,-0.8496566,-12.223816,-3.3330755,0.015315732,4.0230236,-3.928237,-2.3938787,0
0.17,18.38006704766253,5.999999932074694,-5.999999981137177,-3.2586308463025597,15.247332,1.0300511,-5.128207,-1.8024225,16.8477,-10.3764925,2.0618563,-0.18743393,0.32185888,-0.38051456,-0.8464537,-12.303835,-3.195402,0.008959159,4.3307104,-4.2519264,-2.4363124,0
0.18000000000000002,18.38006704766253,5.999999932074694,-5.999999981137177,-3.2586308463025597,15.247332,1.0300511,-5.128207,-1.8024225,16.724302,-10.407739,2.0619192,-0.21326081,0.30358097,-0.39111856,-0.8422497,-12.373864,-3.053171,0.003803744,4.5904837,-4.52507,-2.4766638,0
0.19000000000000003,18.38006704766253,5.999999932074694,-5.999999981137177,-3.2586308463025597,15.247332,1.0300511,-5.128207,-1.8024225,16.60026,-10.437541,2.0619364,-0.23985314,0.28370684,-0.40193635,-0.83691573,-12.432953,-2.9068115,-0.00017479685,4.809807,-4.755559,-2.5150352,0
0.20000000000000004,20.999998467931338,5.9999999027148405,-5.999999966339332,-2.9217905134627395,15.862331,1.7871817,-5.0856,-2.2418504,16.475683,-10.465862,2.0619195,-0.26700202,0.26241082,-0.412769,-0.8303445,-12.480255,-2.7569265,-0.0030525997,4.9949813,-4.950051,-2.5515234,0
0.21000000000000005,20.999998467931338,5.9999999027148405,-5.999999966339332,-2.9217905134627395,15.862331,1.7871817,-5.0856,-2.2418504,16.350668,-10.49256,2.061947,-0.2944834,0.23983502,-0.42345792,-0.82246083,-12.520001,-2.582508,0.008760652,5.1513805,-5.114111,-2.5696926,0
0.22000000000000006,20.999998467931338,5.9999999027148405,-5.999999966339332,-2.9217905134627395,15.862331,1.7871817,-5.0856,-2.2418504,16.22533,-10.517504,2.0620975,-0.32209328,0.21610986,-0.43386844,-0.81320995,-12.544757,-2.4059236,0.021505121,5.2834315,-5.252545,-2.5869699,0
0.23000000000000007,20.999998467931338,5.9999999027148405,-5.999999966339332,-2.9217905134627395,15.862331,1.7871817,-5.0856,-2.2418504,16.099827,-10.540676,2.0623796,-0.3496785,0.19137275,-0.44387597,-0.80254304,-12.553978,-2.228293,0.034953024,5.3949256,-5.369356,-2.6033995,0
0.24000000000000007,20.999998467931338,5.9999999027148405,-5.999999966339332,-2.9217905134627395,17.409348,0.13605437,-4.3389626,-1.1700773,15.974306,-10.562071,2.0627985,-0.3770991,0.16575186,-0.45337468,-0.7904263,-12.547275,-2.0508296,0.04884199,5.489064,-5.4679203,-2.619023,0
0.25000000000000006,20.999998467931338,5.9999999027148405,-5.999999966339332,-2.9217905134627395,17.409348,0.13605437,-4.3389626,-1.1700773,15.848936,-10.581697,2.063357,-0.40422684,0.1393674,-0.46227473,-0.7768392,-12.524412,-1.8748153,0.06288163,5.5685487,-5.551087,-2.63388,0
0.26000000000000006,20.999998467931338,5.9999999027148405,-5.999999966339332,-2.9217905134627395,17.409348,0.13605437,-4.3389626,-1.1700773,15.723875,-10.599577,2.0640557,-0.43094406,0.11233243,-0.4705002,-0.7617729,-12.485315,-1.7015791,0.0767598,5.6356606,-5.621261,-2.6480079,0
0.2700000000000001,20.999998467931338,5.9999999027148405,-5.999999966339332,-2.9217905134627395,17.409348,0.13605437,-4.3389626,-1.1700773,15.599285,-10.615744,2.0648906,-0.45714235,0.0847538,-0.47798693,-0.74522865,-12.430066,-1.5324764,0.09014855,5.6923275,-5.680473,-2.6614425,0
0.2800000000000001,20.99999891845874,4.135653306688799,-5.4581409194519415,-0.7469224434088468,17.433054,-0.5242707,-3.6720638,-0.93326926,15.475328,-10.630245,2.0658557,-0.48272198,0.05673266,-0.4846811,-0.7272171,-12.358904,-1.3688685,0.10270984,5.7401743,-5.7304335,-2.674218,0
0.2900000000000001,20.99999891845874,4.135653306688799,-5.4581409194519415,-0.7469224434088468,17.433054,-0.5242707,-3.6720638,-0.93326926,15.35216,-10.643144,2.0669408,-0.5072654,0.028758626,-0.49013105,-0.7082555,-12.272282,-1.2120931,0.11413563,5.490376,-5.687195,-2.579645,0
0.3000000000000001,20.99999891845874,4.135653306688799,-5.4581409194519415,-0.7469224434088468,17.433054,-0.5242707,-3.6720638,-0.93326926,15.229932,-10.654514,2.068134,-0.53047377,0.001231201,-0.4940329,-0.68885934,-12.171137,-1.063356,0.1243213,5.2795,-5.650809,-2.489713,0
0.3100000000000001,20.99999891845874,4.135653306688799,-5.4581409194519415,-0.7469224434088468,17.433054,-0.5242707,-3.6720638,-0.93326926,15.108783,-10.664443,2.0694227,-0.55241996,-0.02588613,-0.49653965,-0.6690367,-12.056552,-0.9237098,0.13322067,5.10148,-5.620188,-2.4041939,0
0.3200000000000001,19.60490002346355,2.3217572329543454,-3.2917864017030194,-0.1571593418567448,16.272575,-1.9664973,-2.7972827,-0.40870094,14.988843,-10.673024,2.0707936,-0.57316214,-0.052623745,-0.49777782,-0.6487932,-11.929605,-0.7940825,0.1407695,4.9511967,-5.5944185,-2.322871,0
0.3300000000000001,19.60490002346355,2.3217572329543454,-3.2917864017030194,-0.1571593418567448,16.272575,-1.9664973,-2.7972827,-0.40870094,14.870184,-10.680403,2.0721982,-0.59232855,-0.07806667,-0.49789977,-0.6286078,-11.80062,-0.6831106,0.1399712,4.5420446,-5.234389,-2.2165987,0
0.34000000000000014,19.60490002346355,2.3217572329543454,-3.2917864017030194,-0.1571593418567448,16.272575,-1.9664973,-2.7972827,-0.40870094,14.752862,-10.686722,2.0735884,-0.6097047,-0.101509415,-0.49711588,-0.60895914,-11.662562,-0.5823381,0.1378222,4.196556,-4.9306645,-2.1155417,0
0.35000000000000014,19.60490002346355,2.3217572329543454,-3.2917864017030194,-0.1571593418567448,16.272575,-1.9664973,-2.7972827,-0.40870094,14.63696,-10.692084,2.0749502,-0.625538,-0.12326023,-0.49558604,-0.5898329,-11.516776,-0.49168605,0.13433625,3.9048288,-4.674434,-2.0194433,0
0.36000000000000015,16.865799791130513,0.3367529334005909,-0.9576762457614588,0.6466617241288766,14.150791,-3.1311238,-1.1852511,0.3470009,14.522549,-10.69659,2.0762706,-0.64003044,-0.1435821,-0.4934314,-0.57120043,-11.364418,-0.41102883,0.12954009,3.6585,-4.458268,-1.9280604,0
0.37000000000000016,16.865799791130513,0.3367529334005909,-0.9576762457614588,0.6466617241288766,14.150791,-3.1311238,-1.1852511,0.3470009,14.40958,-10.700389,2.0774722,-0.65296406,-0.16171095,-0.49089456,-0.5536328,-11.228594,-0.3500291,0.11062055,3.1414862,-3.9114425,-1.8017181,0
0.38000000000000017,16.865799791130513,0.3367529334005909,-0.9576762457614588,0.6466617241288766,14.150791,-3.1311238,-1.1852511,0.3470009,14.29799,-10.703616,2.0784798,-0.66423833,-0.17708142,-0.4882298,-0.5376435,-11.089013,-0.2967305,0.09073169,2.704903,-3.4500785,-1.6815754,0
0.3900000000000002,16.865799791130513,0.3367529334005909,-0.9576762457614588,0.6466617241288766,14.150791,-3.1311238,-1.1852511,0.3470009,14.18781,-10.7063465,2.0792844,-0.6741478,-0.19016485,-0.48551816,-0.5230999,-10.946536,-0.25033432,0.07002178,2.3362465,-3.0608103,-1.5673282,0
0.4000000000000002,15.793465128308672,-2.30969005098665,1.8849688512027256,3.2419863716049617,15.345106,-3.879835,0.98870337,2.2854066,14.079066,-10.708644,2.0798783,-0.6829253,-0.20135622,-0.48280787,-0.5098673,-10.8018265,-0.21012256,0.048634168,2.0249565,-2.7323654,-1.4586871,0
0.4100000000000002,15.793465128308672,-2.30969005098665,1.8849688512027256,3.2419863716049617,15.345106,-3.879835,0.98870337,2.2854066,13.971922,-10.710532,2.0803301,-0.690393,-0.20977497,-0.48021424,-0.4987441,-10.627466,-0.16869743,0.041299112,1.3115988,-2.0497284,-1.2680203,0
0.4200000000000002,15.793465128308672,-2.30969005098665,1.8849688512027256,3.2419863716049617,15.345106,-3.879835,0.98870337,2.2854066,13.866506,-10.712038,2.0806956,-0.6964288,-0.21477555,-0.47787166,-0.49040443,-10.456226,-0.13316242,0.031502713,0.7134155,-1.4696361,-1.0820757,0
0.4300000000000002,15.793465128308672,-2.30969005098665,1.8849688512027256,3.2419863716049617,15.345106,-3.879835,0.98870337,2.2854066,13.762783,-10.71321,2.0809531,-0.70125395,-0.21697015,-0.47580126,-0.48454037,-10.288673,-0.10177373,0.01970002,0.21151088,-0.97702414,-0.90073633,0
0.4400000000000002,15.793465128308672,-2.30969005098665,1.8849688512027256,3.2419863716049617,16.836914,-4.5148406,3.3746762,3.6430924,13.660717,-10.714083,2.081084,-0.7050297,-0.2168647,-0.4739903,-0.48086926,-10.125171,-0.07310695,0.0062500513,-0.2099419,-0.559058,-0.72388816,0
0.45000000000000023,15.793465128308672,-2.30969005098665,1.8849688512027256,3.2419863716049617,16.836914,-4.5148406,3.3746762,3.6430924,13.560265,-10.714678,2.0810735,-0.7078749,-0.2148776,-0.47240624,-0.47913712,-9.965945,-0.046011668,-0.008570615,-0.5642007,-0.2048043,-0.55142,0
0.46000000000000024,15.793465128308672,-2.30969005098665,1.8849688512027256,3.2419863716049617,16.836914,-4.5148406,3.3746762,3.6430924,13.461383,-10.715006,2.080909,-0.709878,-0.21135536,-0.47100613,-0.47911865,-9.811141,-0.019569162,-0.024553701,-0.8623707,0.095047876,-0.38322318,0
0.47000000000000025,15.793465128308672,-2.30969005098665,1.8849688512027256,3.2419863716049617,16.836914,-4.5148406,3.3746762,3.6430924,13.364026,-10.71507,2.0805793,-0.7111063,-0.20658523,-0.46974254,-0.480616,-9.660846,0.0069448627,-0.04154604,-1.1137549,0.34842712,-0.21919203,0
0.48000000000000026,15.620529099500159,-4.636594728161382,4.472003984551628,3.4269038641490988,16.386745,-5.3065763,4.094146,2.668743,13.26815,-10.714866,2.080075,-0.7116115,-0.20080578,-0.4685675,-0.48345634,-9.515111,0.03409261,-0.05943781,-1.3261465,0.5620842,-0.05922339,1
0.49000000000000027,15.620529099500159,-4.636594728161382,4.472003984551628,3.4269038641490988,16.386745,-5.3065763,4.094146,2.668743,13.173704,-10.714386,2.0793848,-0.71123374,-0.19292165,-0.46757013,-0.4881653,-9.374444,0.06231621,-0.078368194,-1.9469653,1.1127646,0.07463868,1
0.5000000000000002,15.620529099500159,-4.636594728161382,4.472003984551628,3.4269038641490988,16.386745,-5.3065763,4.094146,2.668743,13.080657,-10.713611,2.0785127,-0.7098135,-0.18205088,-0.4667946,-0.4951004,-9.235198,0.09340622,-0.0958749,-2.4710462,1.5774814,0.20193215,1
0.5100000000000002,15.620529099500159,-4.636594728161382,4.472003984551628,3.4269038641490988,16.386745,-5.3065763,4.094146,2.668743,12.988994,-10.712504,2.0774732,-0.7073738,-0.1686615,-0.46612892,-0.50388366,-9.097859,0.12841456,-0.11173872,-2.9134507,1.9696677,0.32297927,1
0.5200000000000002,16.127100287524282,-5.667471219507835,5.702188449855797,3.060125878806976,16.7947,-6.200983,4.6863565,2.2718463,12.898691,-10.711026,2.076284,-0.7039192,-0.15314676,-0.4654693,-0.5141805,-8.962924,0.16820027,-0.12581885,-3.286898,2.3006554,0.43808654,0
0.5300000000000002,16.127100287524282,-5.667471219507835,5.702188449855797,3.060125878806976,16.7947,-6.200983,4.6863565,2.2718463,12.809714,-10.709126,2.0749564,-0.6991363,-0.13542622,-0.46508968,-0.5258888,-8.833009,0.21277769,-0.1394224,-3.658533,2.8307116,0.56675076,0
0.5400000000000003,16.127100287524282,-5.667471219507835,5.702188449855797,3.060125878806976,16.7947,-6.200983,4.6863565,2.2718463,12.722019,-10.706749,2.0735013,-0.69274247,-0.11544775,-0.4651788,-0.5388763,-8.706551,0.26359025,-0.1513238,-3.9722505,3.2780857,0.6891014,0
0.5500000000000003,16.127100287524282,-5.667471219507835,5.702188449855797,3.060125878806976,16.7947,-6.200983,4.6863565,2.2718463,12.63557,-10.703829,2.0719352,-0.68477035,-0.09356147,-0.4655338,-0.5528232,-8.584181,0.3213423,-0.16171467,-4.2370644,3.6556842,0.8054483,0
0.5600000000000003,16.701253348012784,-5.673757325797688,5.727443446058788,2.7778186464995183,17.855364,-6.871839,5.3819714,3.0284564,12.550319,-10.700295,2.0702715,-0.6752443,-0.07007133,-0.46598068,-0.56744736,-8.466569,0.38654286,-0.17083237,-4.4605885,3.9743974,0.91608596,0
0.5700000000000003,16.701253348012784,-5.673757325797688,5.727443446058788,2.7778186464995183,17.855364,-6.871839,5.3819714,3.0284564,12.466238,-10.696058,2.0685377,-0.66420126,-0.0452197,-0.4663793,-0.5824788,-8.350421,0.4621201,-0.1757513,-4.6501966,4.2473946,1.0074418,0
0.5800000000000003,16.701253348012784,-5.673757325797688,5.727443446058788,2.7778186464995183,17.855364,-6.871839,5.3819714,3.0284564,12.383288,-10.691025,2.0667586,-0.6516787,-0.019220002,-0.46661064,-0.59767836,-8.240666,0.54592645,-0.17996459,-4.810224,4.4778304,1.0943148,0
0.5900000000000003,16.701253348012784,-5.673757325797688,5.727443446058788,2.7778186464995183,17.855364,-6.871839,5.3819714,3.0284564,12.301401,-10.685112,2.0649395,-0.6377008,0.007715819,-0.4665679,-0.6128556,-8.138053,0.6379774,-0.18382764,-4.9452815,4.6723447,1.176925,0
0.6000000000000003,16.254434422858715,-4.783838926943862,4.619184347111035,2.382324607060913,18.353899,-7.113933,5.3704205,3.0468585,12.220501,-10.678238,2.0630817,-0.62229514,0.035398375,-0.466163,-0.62784326,-8.043318,0.7381409,-0.18771866,-5.0592604,4.8365407,1.2554812,0
0.6100000000000003,16.254434422858715,-4.783838926943862,4.619184347111035,2.382324607060913,18.353899,-7.113933,5.3704205,3.0468585,12.140493,-10.670337,2.0611708,-0.6057546,0.06318072,-0.4652805,-0.64232624,-7.9594502,0.84323126,-0.19453432,-5.016454,4.802498,1.3107758,0
0.6200000000000003,16.254434422858715,-4.783838926943862,4.619184347111035,2.382324607060913,18.353899,-7.113933,5.3704205,3.0468585,12.06128,-10.661349,2.0591884,-0.5883695,0.09053896,-0.46386543,-0.65608865,-7.8843727,0.9553759,-0.20209314,-4.9803176,4.7737703,1.363357,0
0.6300000000000003,16.254434422858715,-4.783838926943862,4.619184347111035,2.382324607060913,18.353899,-7.113933,5.3704205,3.0468585,11.982773,-10.651207,2.057125,-0.570165,0.1174819,-0.46193114,-0.6691255,-7.81844,1.0739328,-0.21070552,-4.9498105,4.7495284,1.4133581,0
0.6400000000000003,16.254434422858715,-4.783838926943862,4.619184347111035,2.382324607060913,17.421797,-6.5924864,5.202816,2.6927996,11.904879,-10.639851,2.0549693,-0.55116594,0.14401355,-0.45948908,-0.68142897,-7.761967,1.1982436,-0.22066553,-4.9240556,4.729072,1.4609056,0
0.6500000000000004,16.254434422858715,-4.783838926943862,4.619184347111035,2.382324607060913,17.421797,-6.5924864,5.202816,2.6927996,11.8275,-10.627225,2.0527062,-0.53139746,0.1701338,-0.4565492,-0.6929888,-7.715229,1.3276341,-0.23225126,-4.9023113,4.7118115,1.5061198,0
0.6600000000000004,16.254434422858715,-4.783838926943862,4.619184347111035,2.382324607060913,17.421797,-6.5924864,5.202816,2.6927996,11.75054,-10.613282,2.050318,-0.51088506,0.19583896,-0.4531202,-0.70379335,-7.6784577,1.4614153,-0.24572487,-4.883953,4.6972475,1.5491154,0
0.6700000000000004,16.254434422858715,-4.783838926943862,4.619184347111035,2.382324607060913,17.421797,-6.5924864,5.202816,2.6927996,11.673896,-10.597983,2.0477846,-0.48965487,0.22112226,-0.44921005,-0.71382964,-7.6518435,1.5988848,-0.26133242,-4.868453,4.6849594,1.5900012,0
0.6800000000000004,15.572216919586726,-3.5691637176465756,3.0560640050016494,1.9597456072008195,16.73491,-6.1098886,4.9009542,2.272985,11.597467,-10.581294,2.0450833,-0.46773374,0.24597445,-0.4448261,-0.7230843,-7.635534,1.7393291,-0.27930373,-4.8553653,4.674592,1.6288807,0
0.6900000000000004,15.572216919586726,-3.5691637176465756,3.0560640050016494,1.9597456072008195,16.73491,-6.1098886,4.9009542,2.272985,11.521148,-10.563219,2.0421731,-0.44559598,0.26973405,-0.4400355,-0.7314752,-7.629829,1.876024,-0.30308658,-4.654562,4.422347,1.6451164,0
0.7000000000000004,15.572216919586726,-3.5691637176465756,3.0560640050016494,1.9597456072008195,16.73491,-6.1098886,4.9009542,2.272985,11.444838,-10.543769,2.039013,-0.42366895,0.291902,-0.43493962,-0.7390026,-7.6337686,2.0141103,-0.32936376,-4.4851093,4.209412,1.6605555,0
0.7100000000000004,15.572216919586726,-3.5691637176465756,3.0560640050016494,1.9597456072008195,16.73491,-6.1098886,4.9009542,2.272985,11.36844,-10.522935,2.0355775,-0.40190855,0.3126867,-0.42958382,-0.74575716,-7.6469865,2.1528897,-0.35812396,-4.342113,4.0296617,1.6752368,0
0.7200000000000004,15.6852790125531,-1.8614338662713314,1.1365481586313495,1.4964796218290506,15.905063,-5.410497,4.443233,1.4725888,11.291866,-10.500712,2.0318422,-0.38027382,0.33226314,-0.42400038,-0.7518086,-7.6691384,2.2917411,-0.38934729,-4.2214413,3.8779228,1.6891978,0
0.7300000000000004,15.6852790125531,-1.8614338662713314,1.1365481586313495,1.4964796218290506,15.905063,-5.410497,4.443233,1.4725888,11.215028,-10.477098,2.0277848,-0.35933372,0.34997508,-0.41842985,-0.75717413,-7.700057,2.4311135,-0.42251423,-3.8529081,3.450836,1.679741,0
0.7400000000000004,15.6852790125531,-1.8614338662713314,1.1365481586313495,1.4964796218290506,15.905063,-5.410497,4.443233,1.4725888,11.137839,-10.452094,2.0233843,-0.3395757,0.36534953,-0.41310817,-0.76193774,-7.7388377,2.5695376,-0.4579021,-3.5419261,3.0902846,1.6707484,0
0.7500000000000004,15.6852790125531,-1.8614338662713314,1.1365481586313495,1.4964796218290506,15.905063,-5.410497,4.443233,1.4725888,11.060227,-10.425712,2.0186203,-0.32084587,0.3787642,-0.40803766,-0.7662247,-7.7847037,2.7066712,-0.4952614,-3.2795076,2.7859042,1.662197,0
0.7600000000000005,15.096896873375934,-0.15597040557844918,-0.9849108071115357,0.9863033310652602,14.874734,-4.527143,3.7056735,0.73701453,10.982123,-10.397965,2.0134733,-0.30300456,0.39053336,-0.40320808,-0.77012634,-7.83699,2.8422623,-0.5343639,-3.0580683,2.5289438,1.6540653,0
0.7700000000000005,15.096896873375934,-0.15597040557844918,-0.9849108071115357,0.9863033310652602,14.874734,-4.527143,3.7056735,0.73701453,10.903478,-10.368897,2.0079167,-0.28658986,0.40009153,-0.39885688,-0.7737607,-7.8928804,2.9711165,-0.5771287,-2.604855,1.9815042,1.621298,0
0.7800000000000005,15.096896873375934,-0.15597040557844918,-0.9849108071115357,0.9863033310652602,14.874734,-4.527143,3.7056735,0.73701453,10.824249,-10.33855,2.001927,-0.2720398,0.40703198,-0.39519674,-0.7772633,-7.9534445,3.0983055,-0.6209614,-2.2224333,1.5193425,1.5901386,0
0.7900000000000005,15.096896873375934,-0.15597040557844918,-0.9849108071115357,0.9863033310652602,14.874734,-4.527143,3.7056735,0.73701453,10.744395,-10.306938,1.9954952,-0.2590963,0.4118005,-0.39216462,-0.7807021,-8.017811,3.2239056,-0.6654703,-1.8997433,1.1291766,1.5605081,0
0.8000000000000005,15.077996889450798,1.0482347389700442,-2.7246977785556044,0.39968174811724094,13.638613,-3.1367493,2.0372038,-0.8121511,10.663881,-10.274077,1.9886165,-0.24753255,0.41476342,-0.3896933,-0.7841158,-8.085254,3.3480294,-0.71032,-1.6274532,0.79979265,1.5323317,0
0.8100000000000005,15.077996889450798,1.0482347389700442,-2.7246977785556044,0.39968174811724094,13.638613,-3.1367493,2.0372038,-0.8121511,10.582681,-10.239983,1.9812886,-0.23767741,0.41559127,-0.38789475,-0.7876107,-8.155061,3.470721,-0.75524443,-1.2102627,0.25124985,1.476812,0
0.8200000000000005,15.077996889450798,1.0482347389700442,-2.7246977785556044,0.39968174811724094,13.638613,-3.1367493,2.0372038,-0.8121511,10.500773,-10.204667,1.9735129,-0.22979166,0.41403764,-0.38685867,-0.7912702,-8.226434,3.5922737,-0.79981494,-0.85761166,-0.21247822,1.423957,0
0.8300000000000005,15.077996889450798,1.0482347389700442,-2.7246977785556044,0.39968174811724094,13.638613,-3.1367493,2.0372038,-0.8121511,10.418148,-10.168139,1.965295,-0.22359017,0.41049314,-0.3864805,-0.7950693,-8.298613,3.7130084,-0.843622,-0.5600521,-0.60396296,1.3736955,0
0.8400000000000005,15.077996889450798,1.0482347389700442,-2.7246977785556044,0.39968174811724094,13.058651,-1.7480005,0.79893047,-1.8428595,10.334801,-10.130408,1.9566442,-0.21882685,0.40527865,-0.38666144,-0.79897213,-8.370931,3.8331695,-0.886353,-0.3089737,-0.934456,1.3259004,0
0.8500000000000005,15.077996889450798,1.0482347389700442,-2.7246977785556044,0.39968174811724094,13.058651,-1.7480005,0.79893047,-1.8428595,10.2507305,-10.091477,1.9475726,-0.21529067,0.39865902,-0.38731086,-0.8029389,-8.44282,3.9529703,-0.92775947,-0.09711248,-1.2134572,1.2804507,0
0.8600000000000005,15.077996889450798,1.0482347389700442,-2.7246977785556044,0.39968174811724094,13.058651,-1.7480005,0.79893047,-1.8428595,10.165947,-10.05135,1.9380943,-0.21280122,0.3908537,-0.3883474,-0.8069293,-8.513788,4.072592,-0.967648,0.08165966,-1.4489875,1.2372311,0
0.8700000000000006,15.077996889450798,1.0482347389700442,-2.7246977785556044,0.39968174811724094,13.058651,-1.7480005,0.79893047,-1.8428595,10.080461,-10.010026,1.9282253,-0.21120471,0.38204545,-0.38969886,-0.81090575,-8.583411,4.192182,-1.0058726,0.23251289,-1.6478184,1.1961323,0
0.8800000000000006,16.014672201720717,1.8151400543621847,-3.6676027274858343,-0.0924557111860471,12.56979,-1.1252558,0.10299532,-2.1010387,9.994286,-9.967505,1.9179828,-0.21037015,0.37238702,-0.3913021,-0.814834,-8.651318,4.311859,-1.0423274,0.35980886,-1.815667,1.1570503,0
0.8900000000000006,16.014672201720717,1.8151400543621847,-3.6676027274858343,-0.0924557111860471,12.56979,-1.1252558,0.10299532,-2.1010387,9.907421,-9.923751,1.9074045,-0.2104963,0.3616571,-0.3932501,-0.8186875,-8.721247,4.4391694,-1.0729864,0.5869009,-2.1043272,1.0957367,0
0.9000000000000006,16.014672201720717,1.8151400543621847,-3.6676027274858343,-0.0924557111860471,12.56979,-1.1252558,0.10299532,-2.1010387,9.81987,-9.878721,1.89653,-0.2117359,0.34968394,-0.39560658,-0.8224256,-8.788467,4.56682,-1.1015708,0.7785293,-2.3480117,1.0374317,0
0.9100000000000006,16.014672201720717,1.8151400543621847,-3.6676027274858343,-0.0924557111860471,12.56979,-1.1252558,0.10299532,-2.1010387,9.731663,-9.832414,1.8853805,-0.21392307,0.33665204,-0.39827985,-0.8259993,-8.85247,4.6949315,-1.1279998,0.9402352,-2.5537257,0.9819879,0
0.9200000000000006,16.58901108438077,1.8909317087036734,-4.235889600556902,-0.4708268381296801,12.70063,-0.3279058,-0.99944717,-1.8200784,9.642834,-9.7848215,1.8739774,-0.21691625,0.32271686,-0.4011906,-0.8293652,-8.912806,4.823575,-1.152236,1.0766939,-2.7273839,0.92926466,0
0.9300000000000006,16.58901108438077,1.8909317087036734,-4.235889600556902,-0.4708268381296801,12.70063,-0.3279058,-0.99944717,-1.8200784,9.553411,-9.735917,1.8623568,-0.22073403,0.30783278,-0.40423065,-0.8325337,-8.971082,4.957414,-1.1715418,1.2036839,-2.9626112,0.8605617,0
0.9400000000000006,16.58901108438077,1.8909317087036734,-4.235889600556902,-0.4708268381296801,12.70063,-0.3279058,-0.99944717,-1.8200784,9.4634285,-9.68567,1.8505546,-0.22538753,0.29197025,-0.40730426,-0.83549774,-9.024683,5.0918207,-1.1885321,1.3108368,-3.1611738,0.79523015,0
0.9500000000000006,16.58901108438077,1.8909317087036734,-4.235889600556902,-0.4708268381296801,12.70063,-0.3279058,-0.99944717,-1.8200784,9.372934,-9.634078,1.8385941,-0.23075369,0.2752735,-0.41036513,-0.83819866,-9.073185,5.226739,-1.2031965,1.4012545,-3.3287852,0.73310435,0
0.9600000000000006,17.31342894271715,1.4731003482102543,-4.28811367634824,-0.7434775111012616,13.542237,-0.25253442,-1.7186046,-1.7811893,9.281982,-9.581134,1.8264985,-0.23672642,0.2578657,-0.41337407,-0.8405873,-9.116213,5.362074,-1.2155669,1.4775537,-3.470268,0.6740271,0
0.9700000000000006,17.31342894271715,1.4731003482102543,-4.28811367634824,-0.7434775111012616,13.542237,-0.25253442,-1.7186046,-1.7811893,9.19062,-9.526806,1.8143096,-0.24320912,0.23988888,-0.41614413,-0.84268975,-9.155071,5.503615,-1.2218615,1.4767523,-3.597878,0.6044698,0
0.9800000000000006,17.31342894271715,1.4731003482102543,-4.28811367634824,-0.7434775111012616,13.542237,-0.25253442,-1.7186046,-1.7811893,9.098902,-9.471062,1.8020692,-0.25012678,0.22146674,-0.41852593,-0.8445262,-9.187627,5.645243,-1.2258686,1.4760656,-3.7055836,0.53832567,0
0.9900000000000007,17.31342894271715,1.4731003482102543,-4.28811367634824,-0.7434775111012616,13.542237,-0.25253442,-1.7186046,-1.7811893,9.006891,-9.413901,1.7897999,-0.25742212,0.2026724,-0.42054033,-0.84605134,-9.213671,5.7867208,-1.2276487,1.4754795,-3.7964897,0.47542727,0
1.0000000000000007,17.230580039914067,0.7000662948984223,-3.783862182987521,-0.8050492687362312,14.0953865,-0.8633134,-1.7303507,-1.6435919,8.914653,-9.355329,1.7775235,-0.265044,0.18356891,-0.42220592,-0.84722817,-9.233027,5.9277987,-1.2272918,1.4749812,-3.873216,0.41561523,0
1.0100000000000007,17.230580039914067,0.7000662948984223,-3.783862182987521,-0.8050492687362312,14.0953865,-0.8633134,-1.7303507,-1.6435919,8.822255,-9.295351,1.7652586,-0.27281404,0.16446832,-0.42333165,-0.84812284,-9.245515,6.067542,-1.2253866,1.3539792,-3.859367,0.3557169,0
1.0200000000000007,17.230580039914067,0.7000662948984223,-3.783862182987521,-0.8050492687362312,14.0953865,-0.8633134,-1.7303507,-1.6435919,8.729766,-9.233982,1.7530224,-0.28059798,0.14562774,-0.4237762,-0.84880537,-9.251283,6.2063246,-1.2215472,1.2518562,-3.8476624,0.2987578,0
1.0300000000000007,17.230580039914067,0.7000662948984223,-3.783862182987521,-0.8050492687362312,14.0953865,-0.8633134,-1.7303507,-1.6435919,8.637252,-9.17123,1.740834,-0.28841066,0.1270223,-0.42362222,-0.8492516,-9.250439,6.3438473,-1.2158574,1.1656674,-3.8377707,0.24459368,0
1.0400000000000007,17.230580039914067,0.7000662948984223,-3.783862182987521,-0.8050492687362312,14.610346,-1.5486366,-1.1331127,-1.4501376,8.54478,-9.107111,1.7287112,-0.29626134,0.108630314,-0.42294002,-0.849441,-9.243083,6.4798303,-1.2084115,1.0929273,-3.8294122,0.19308741,0
1.0500000000000007,17.230580039914067,0.7000662948984223,-3.783862182987521,-0.8050492687362312,14.610346,-1.5486366,-1.1331127,-1.4501376,8.4524145,-9.041639,1.7166713,-0.3041548,0.09043306,-0.42178962,-0.8493555,-9.229311,6.6140113,-1.1993133,1.0315379,-3.8223498,0.14410855,0
1.0600000000000007,17.230580039914067,0.7000662948984223,-3.783862182987521,-0.8050492687362312,14.610346,-1.5486366,-1.1331127,-1.4501376,8.360217,-8.974836,1.7047303,-0.31209236,0.07241446,-0.4202221,-0.84898025,-9.209212,6.746139,-1.1886752,0.9797287,-3.8163824,0.097533114,0
1.0700000000000007,17.230580039914067,0.7000662948984223,-3.783862182987521,-0.8050492687362312,14.610346,-1.5486366,-1.1331127,-1.4501376,8.268251,-8.906724,1.6929028,-0.3200726,0.054560777,-0.41828114,-0.8483025,-9.1828785,6.8759756,-1.1766171,0.93600523,-3.811341,0.053243145,0
1.0800000000000007,17.488216850207372,-0.16883152458012152,-2.809554862454157,-0.8184576841795039,14.96433,-2.2678308,-0.74938184,-1.3671035,8.17658,-8.837326,1.6812024,-0.32809195,0.036860414,-0.4160041,-0.84731174,-9.150403,7.0032926,-1.1632652,0.899106,-3.8070817,0.0111265,0
1.0900000000000007,17.488216850207372,-0.16883152458012152,-2.809554862454157,-0.8184576841795039,14.96433,-2.2678308,-0.74938184,-1.3671035,8.085267,-8.766659,1.6696498,-0.33597597,0.019749675,-0.41325974,-0.846136,-9.11134,7.129737,-1.1470585,0.7324634,-3.6515388,-0.02958143,0
1.1000000000000008,17.488216850207372,-0.16883152458012152,-2.809554862454157,-0.8184576841795039,14.96433,-2.2678308,-0.74938184,-1.3671035,7.994374,-8.694742,1.658265,-0.34359998,0.0035767509,-0.40995947,-0.8449018,-9.066531,7.2532306,-1.1297371,0.5918205,-3.5202444,-0.0682918,0
1.1100000000000008,17.488216850207372,-0.16883152458012152,-2.809554862454157,-0.8184576841795039,14.96433,-2.2678308,-0.74938184,-1.3671035,7.9039555,-8.621606,1.6470587,-0.35102355,-0.011787598,-0.40618843,-0.8435959,-9.016368,7.3736286,-1.1113523,0.47312018,-3.409419,-0.10510264,0
1.1200000000000008,17.34251207752637,-1.1203941088524085,-1.684724733848163,-0.6940544812675142,15.840009,-3.4795854,-0.41364416,-0.79427445,7.8140635,-8.547281,1.6360414,-0.35829347,-0.026454002,-0.40201712,-0.8422042,-8.961187,7.4908047,-1.0919535,0.37293857,-3.3158722,-0.14010718,0
1.1300000000000008,17.34251207752637,-1.1203941088524085,-1.684724733848163,-0.6940544812675142,15.840009,-3.4795854,-0.41364416,-0.79427445,7.7247453,-8.471806,1.625218,-0.36526656,-0.040007133,-0.39734748,-0.8408891,-8.90183,7.603707,-1.072565,0.14002286,-3.061477,-0.16728954,0
1.1400000000000008,17.34251207752637,-1.1203941088524085,-1.684724733848163,-0.6940544812675142,15.840009,-3.4795854,-0.41364416,-0.79427445,7.636041,-8.395219,1.6145936,-0.371842,-0.052123107,-0.39211538,-0.8397988,-8.838374,7.713281,-1.0521702,-0.056563213,-2.846751,-0.19313803,0
1.1500000000000008,17.34251207752637,-1.1203941088524085,-1.684724733848163,-0.6940544812675142,15.840009,-3.4795854,-0.41364416,-0.79427445,7.54799,-8.317553,1.6041784,-0.3781067,-0.06301351,-0.38641736,-0.83889574,-8.771362,7.819529,-1.0307076,-0.22248721,-2.665509,-0.21771817,0
1.1600000000000008,17.08938231849534,-1.954948341977335,-0.4768628952075838,-0.4864456103256888,16.86735,-4.086347,0.046394747,0.016869294,7.4606247,-8.238839,1.5939834,-0.3841293,-0.072858445,-0.3803318,-0.83814305,-8.701255,7.922458,-1.0081216,-0.36253193,-2.512531,-0.24109213,0
1.1700000000000008,17.08938231849534,-1.954948341977335,-0.4768628952075838,-0.4864456103256888,16.86735,-4.086347,0.046394747,0.016869294,7.373969,-8.159121,1.5840112,-0.38978603,-0.08128707,-0.37382898,-0.83768183,-8.629545,8.020638,-0.98613155,-0.61083585,-2.195026,-0.25313172,0
1.1800000000000008,17.08938231849534,-1.954948341977335,-0.4768628952075838,-0.4864456103256888,16.86735,-4.086347,0.046394747,0.016869294,7.2880406,-8.078437,1.5742651,-0.39498663,-0.08801461,-0.36689356,-0.83763224,-8.555804,8.115688,-0.9628577,-0.8204197,-1.9270389,-0.26458052,0
1.1900000000000008,17.08938231849534,-1.954948341977335,-0.4768628952075838,-0.4864456103256888,16.86735,-4.086347,0.046394747,0.016869294,7.202858,-7.996818,1.5647589,-0.39982185,-0.09329865,-0.35960108,-0.8379288,-8.480613,8.207741,-0.9381721,-0.99732196,-1.7008473,-0.27546751,0
1.2000000000000008,17.14477332540323,-2.3939200326944796,0.5166641735752552,-0.2552377269051809,17.513847,-4.457869,0.5145318,0.35275757,7.1184316,-7.914293,1.555507,-0.4043632,-0.097357295,-0.3520117,-0.8385103,-8.404461,8.296917,-0.9119649,-1.1466395,-1.5099331,-0.28582028,0
1.2100000000000009,17.14477332540323,-2.3939200326944796,0.5166641735752552,-0.2552377269051809,17.513847,-4.457869,0.5145318,0.35275757,7.034771,-7.8308883,1.5465271,-0.4085218,-0.09998058,-0.34418547,-0.8394343,-8.327542,8.383617,-0.8837315,-1.3410922,-1.1938515,-0.2843196,0
1.2200000000000009,17.14477332540323,-2.3939200326944796,0.5166641735752552,-0.2552377269051809,17.513847,-4.457869,0.5145318,0.35275757,6.9518805,-7.7466297,1.5378382,-0.41222885,-0.10101234,-0.3361728,-0.8407446,-8.250644,8.467755,-0.8537652,-1.5052297,-0.9270685,-0.28289255,0
1.2300000000000009,17.14477332540323,-2.3939200326944796,0.5166641735752552,-0.2552377269051809,17.513847,-4.457869,0.5145318,0.35275757,6.869756,-7.661541,1.5294582,-0.41556028,-0.10069549,-0.32800326,-0.8423679,-8.174276,8.549538,-0.82196736,-1.6437784,-0.7018951,-0.28153554,0
1.2400000000000009,17.14477332540323,-2.3939200326944796,0.5166641735752552,-0.2552377269051809,17.54515,-4.5047045,0.75311834,0.62041855,6.788391,-7.575646,1.5214056,-0.41857618,-0.09923535,-0.31969962,-0.8442383,-8.098878,8.629137,-0.7882622,-1.7607274,-0.5118416,-0.28024513,0
1.2500000000000009,17.14477332540323,-2.3939200326944796,0.5166641735752552,-0.2552377269051809,17.54515,-4.5047045,0.75311834,0.62041855,6.7077737,-7.488965,1.5136997,-0.42132443,-0.09680556,-0.3112795,-0.8462974,-8.024822,8.706698,-0.75259584,-1.8594439,-0.3514301,-0.279018,0
1.260000000000001,17.14477332540323,-2.3939200326944796,0.5166641735752552,-0.2552377269051809,17.54515,-4.5047045,0.75311834,0.62041855,6.6278887,-7.4015183,1.5063605,-0.42384318,-0.093553096,-0.30275685,-0.84849447,-7.9524293,8.782339,-0.7149348,-1.9427702,-0.2160377,-0.27785113,0
1.270000000000001,17.14477332540323,-2.3939200326944796,0.5166641735752552,-0.2552377269051809,17.54515,-4.5047045,0.75311834,0.62041855,6.548718,-7.313324,1.499408,-0.42616296,-0.08960244,-0.29414287,-0.8507857,-7.8819776,8.856158,-0.6752642,-2.013106,-0.10176191,-0.27674147,0
1.280000000000001,16.709006968854222,-2.442967347804412,1.1554338332643432,0.0018744420835334948,17.500353,-4.402741,1.0304674,0.92445964,6.470241,-7.224401,1.4928622,-0.4283083,-0.08505909,-0.28544673,-0.85313356,-7.813708,8.928231,-0.6335853,-2.0724764,-0.005309403,-0.27568632,0
1.290000000000001,16.709006968854222,-2.442967347804412,1.1554338332643432,0.0018744420835334948,17.500353,-4.402741,1.0304674,0.92445964,6.3924265,-7.1347747,1.4867252,-0.43020117,-0.07979481,-0.2767662,-0.85554665,-7.7495174,8.996843,-0.59351856,-2.1302233,0.1756994,-0.26206633,0
1.300000000000001,16.709006968854222,-2.442967347804412,1.1554338332643432,0.0018744420835334948,17.500353,-4.402741,1.0304674,0.92445964,6.3152413,-7.0444694,1.4809984,-0.4317779,-0.073713146,-0.26817918,-0.8580291,-7.687934,9.063966,-0.55154693,-2.178972,0.32847843,-0.24911469,0
1.310000000000001,16.709006968854222,-2.442967347804412,1.1554338332643432,0.0018744420835334948,17.500353,-4.402741,1.0304674,0.92445964,6.2386575,-6.9535,1.4757006,-0.43307525,-0.06693964,-0.25966552,-0.8605455,-7.629211,9.129741,-0.5077197,-2.2201245,0.45743048,-0.2367986,0
1.320000000000001,16.117677318534895,-2.3217797600651404,1.2549866018146272,0.27848415399415194,17.716932,-4.245367,0.8945866,1.6873415,6.162646,-6.861879,1.4708501,-0.43412328,-0.059580687,-0.25120813,-0.8630651,-7.573567,9.194279,-0.46209598,-2.2548642,0.56627184,-0.22508685,0
1.330000000000001,16.117677318534895,-2.3217797600651404,1.2549866018146272,0.27848415399415194,17.716932,-4.245367,0.8945866,1.6873415,6.0871654,-6.76963,1.4664389,-0.43490443,-0.051721755,-0.24284977,-0.8655673,-7.523044,9.25543,-0.41989374,-2.2652946,0.67364156,-0.20037648,0
1.340000000000001,16.117677318534895,-2.3217797600651404,1.2549866018146272,0.27848415399415194,17.716932,-4.245367,0.8945866,1.6873415,6.012173,-6.676774,1.4624577,-0.43540254,-0.043436516,-0.23462425,-0.8680375,-7.475829,9.315575,-0.37611306,-2.2741034,0.7642683,-0.17687865,0
1.350000000000001,16.117677318534895,-2.3217797600651404,1.2549866018146272,0.27848415399415194,17.716932,-4.245367,0.8945866,1.6873415,5.937637,-6.583322,1.4589218,-0.4356421,-0.034792423,-0.22650614,-0.87045974,-7.4320536,9.374793,-0.33084777,-2.2815418,0.8407632,-0.15453386,0
1.360000000000001,15.476725879400288,-2.073006164319915,1.0097435080327444,0.5339344312511495,17.509758,-3.7798798,0.40180746,2.04221,5.8635206,-6.4892817,1.4558455,-0.43564358,-0.025846701,-0.21847413,-0.8728203,-7.391832,9.433149,-0.28419426,-2.287823,0.90533,-0.13328554,0
1.370000000000001,15.476725879400288,-2.073006164319915,1.0097435080327444,0.5339344312511495,17.509758,-3.7798798,0.40180746,2.04221,5.789781,-6.3946733,1.4532133,-0.43541613,-0.016783893,-0.21055412,-0.8750987,-7.356708,9.4883995,-0.24206038,-2.254341,0.9215621,-0.10054489,0
1.380000000000001,15.476725879400288,-2.073006164319915,1.0097435080327444,0.5339344312511495,17.509758,-3.7798798,0.40180746,2.04221,5.716375,-6.299516,1.4510081,-0.4349659,-0.00775393,-0.20276743,-0.87728536,-7.3251038,9.542888,-0.19879554,-2.2260797,0.9352669,-0.06941082,0
1.390000000000001,15.476725879400288,-2.073006164319915,1.0097435080327444,0.5339344312511495,17.509758,-3.7798798,0.40180746,2.04221,5.643267,-6.203818,1.4492408,-0.4343052,0.0012451364,-0.19509141,-0.87938416,-7.297017,9.596624,-0.15450428,-2.2022257,0.94683784,-0.039804507,0
1.400000000000001,14.51555693710637,-1.8023073150305624,0.5921120458745752,0.7390622245733669,17.270782,-3.202111,0.041356962,2.1082373,5.5704226,-6.107586,1.447921,-0.4334448,0.010215005,-0.1875071,-0.8813978,-7.2724485,9.649616,-0.1092863,-2.1820912,0.9566074,-0.011650973,0
1.410000000000001,14.51555693710637,-1.8023073150305624,0.5921120458745752,0.7390622245733669,17.270782,-3.202111,0.041356962,2.1082373,5.4977994,-6.0108438,1.4470131,-0.43240494,0.018958107,-0.18002237,-0.8833223,-7.252692,9.698613,-0.07218965,-2.1228864,0.8997131,0.025186736,0
1.420000000000001,14.51555693710637,-1.8023073150305624,0.5921120458745752,0.7390622245733669,17.270782,-3.202111,0.041356962,2.1082373,5.425358,-5.913616,1.4464797,-0.4312011,0.027317444,-0.17264447,-0.8851627,-7.2361417,9.746876,-0.03439966,-2.072911,0.85169643,0.060216796,0
1.430000000000001,14.51555693710637,-1.8023073150305624,0.5921120458745752,0.7390622245733669,17.270782,-3.202111,0.041356962,2.1082373,5.353066,-5.815909,1.4463273,-0.42983624,0.035349242,-0.16535772,-0.8869317,-7.2227025,9.794364,0.004005092,-2.0307267,0.8111718,0.09352792,0
1.440000000000001,14.51555693710637,-1.8023073150305624,0.5921120458745752,0.7390622245733669,17.919102,-2.8322718,-1.3521034,2.741589,5.2808933,-5.7177315,1.4465617,-0.42831346,0.043101218,-0.15814885,-0.8886387,-7.2122955,9.841043,0.04295268,-1.9951186,0.77697057,0.1252045,0
1.450000000000001,14.51555693710637,-1.8023073150305624,0.5921120458745752,0.7390622245733669,17.919102,-2.8322718,-1.3521034,2.741589,5.20881,-5.619091,1.4471881,-0.42663607,0.050613854,-0.1510066,-0.89029026,-7.204851,9.886882,0.0823765,-1.9650624,0.7481058,0.15532666,0
1.460000000000001,14.51555693710637,-1.8023073150305624,0.5921120458745752,0.7390622245733669,17.919102,-2.8322718,-1.3521034,2.741589,5.136786,-5.5199966,1.4482108,-0.42480752,0.057921495,-0.14392139,-0.8918913,-7.2003098,9.931849,0.12221412,-1.9396918,0.72374487,0.18397075,0
1.470000000000001,14.51555693710637,-1.8023073150305624,0.5921120458745752,0.7390622245733669,17.919102,-2.8322718,-1.3521034,2.741589,5.0647936,-5.420457,1.4496336,-0.42283136,0.06505326,-0.13688518,-0.893445,-7.1986194,9.975915,0.16240641,-1.9182768,0.7031852,0.21120924,0
1.480000000000001,14.05285506252288,-1.568944037381807,0.19529733955569586,0.9515568628783818,19.39621,-3.377457,-3.4611208,3.996513,4.9928036,-5.3204813,1.45146,-0.42071122,0.07203384,-0.12989117,-0.8949532,-7.199735,10.019053,0.20289685,-1.9002007,0.68583393,0.23711114,0
1.490000000000001,14.05285506252288,-1.568944037381807,0.19529733955569586,0.9515568628783818,19.39621,-3.377457,-3.4611208,3.996513,4.9207897,-5.2200856,1.4536703,-0.41845497,0.07869942,-0.12295264,-0.8964286,-7.203483,10.059889,0.23920697,-1.8485438,0.60930073,0.2721692,0
1.500000000000001,14.05285506252288,-1.568944037381807,0.19529733955569586,0.9515568628783818,19.39621,-3.377457,-3.4611208,3.996513,4.8487253,-5.1192865,1.4562447,-0.416067,0.08492136,-0.11608133,-0.89788723,-7.2097926,10.099748,0.27571437,-1.8049407,0.5447057,0.30550697,0
1.5100000000000011,14.05285506252288,-1.568944037381807,0.19529733955569586,0.9515568628783818,19.39621,-3.377457,-3.4611208,3.996513,4.7765856,-5.018094,1.459185,-0.41354668,0.09076646,-0.109269634,-0.8993333,-7.218551,10.138579,0.31238478,-1.7681366,0.4901864,0.33720884,0
1.5200000000000011,12.940146865973254,-1.4556310308963079,-0.48148602718550854,1.0603035200769115,19.153543,-3.3591323,-3.8596518,3.7993026,4.704346,-4.9165187,1.4624927,-0.4108941,0.09629121,-0.10251097,-0.9007693,-7.229661,10.17634,0.34918636,-1.7370714,0.44417128,0.36735508,0
1.5300000000000011,12.940146865973254,-1.4556310308963079,-0.48148602718550854,1.0603035200769115,19.153543,-3.3591323,-3.8596518,3.7993026,4.63199,-4.8145857,1.4661156,-0.40812987,0.101279445,-0.095730826,-0.9022239,-7.2419677,10.210079,0.37540278,-1.6931533,0.29978836,0.40135828,0
1.5400000000000011,12.940146865973254,-1.4556310308963079,-0.48148602718550854,1.0603035200769115,19.153543,-3.3591323,-3.8596518,3.7993026,4.5595,-4.712321,1.470001,-0.40526828,0.10556227,-0.08887114,-0.9037234,-7.256203,10.24269,0.40171435,-1.6560838,0.17792374,0.4336929,0
1.5500000000000012,12.940146865973254,-1.4556310308963079,-0.48148602718550854,1.0603035200769115,19.153543,-3.3591323,-3.8596518,3.7993026,4.48686,-4.609736,1.4741502,-0.40230206,0.10924757,-0.081948355,-0.9052637,-7.272217,10.274073,0.42812565,-1.6247958,0.07506551,0.46444085,0
1.5600000000000012,11.992990752873421,-1.4599163259324275,-1.1072074666163239,1.1209504878222507,19.083063,-4.0441003,-4.124057,3.6803825,4.4140506,-4.5068436,1.478564,-0.3992258,0.11242657,-0.074975975,-0.90683925,-7.2898793,10.304142,0.4546382,-1.5983883,-0.011750909,0.49368,0
1.5700000000000012,11.992990752873421,-1.4599163259324275,-1.1072074666163239,1.1209504878222507,19.083063,-4.0441003,-4.124057,3.6803825,4.3410645,-4.4036684,1.4831977,-0.39604715,0.11494926,-0.06786469,-0.9084754,-7.307665,10.330714,0.47212568,-1.5767354,-0.18261151,0.5244603,0
1.5800000000000012,11.992990752873421,-1.4599163259324275,-1.1072074666163239,1.1209504878222507,19.083063,-4.0441003,-4.124057,3.6803825,4.267894,-4.3002343,1.4880068,-0.39276934,0.116700314,-0.060545053,-0.9101909,-7.3267164,10.35587,0.48972815,-1.5584625,-0.32682526,0.5537302,0
1.5900000000000012,11.992990752873421,-1.4599163259324275,-1.1072074666163239,1.1209504878222507,19.083063,-4.0441003,-4.124057,3.6803825,4.1945267,-4.1965566,1.4929928,-0.38938376,0.11779766,-0.053053647,-0.91196996,-7.34689,10.379488,0.5074647,-1.5430424,-0.44854778,0.58156383,0
1.6000000000000012,12.116980190495157,-1.696775993012007,-1.2849937221885503,1.2356452569507177,20.218895,-4.0948486,-4.7263026,3.284634,4.120952,-4.0926504,1.4981567,-0.3858842,0.118340984,-0.045420963,-0.9137973,-7.3680573,10.401465,0.5253468,-1.5300306,-0.55128706,0.6080317,0
1.6100000000000012,12.116980190495157,-1.696775993012007,-1.2849937221885503,1.2356452569507177,20.218895,-4.0948486,-4.7263026,3.284634,4.047161,-3.988532,1.5035062,-0.38224486,0.11838526,-0.03756002,-0.9156762,-7.390335,10.421916,0.5445808,-1.555976,-0.66574967,0.6388289,0
1.6200000000000012,12.116980190495157,-1.696775993012007,-1.2849937221885503,1.2356452569507177,20.218895,-4.0948486,-4.7263026,3.284634,3.9731424,-3.8842185,1.5090487,-0.3784425,0.11797778,-0.029403204,-0.9176044,-7.4134126,10.440497,0.56397104,-1.5778793,-0.7623595,0.66811484,0
1.6300000000000012,12.116980190495157,-1.696775993012007,-1.2849937221885503,1.2356452569507177,20.218895,-4.0948486,-4.7263026,3.284634,3.89889,-3.779729,1.514786,-0.3744771,0.11718613,-0.020999992,-0.91956145,-7.4372077,10.457097,0.5835146,-1.5963706,-0.84390116,0.69596374,0
1.6400000000000012,12.116980190495157,-1.696775993012007,-1.2849937221885503,1.2356452569507177,20.58593,-4.640496,-4.995448,3.914211,3.8243961,-3.6750836,1.5207195,-0.37034976,0.11606764,-0.012392025,-0.92152905,-7.461646,10.47162,0.60320073,-1.6119819,-0.9127243,0.7224461,0
1.6500000000000012,12.116980190495157,-1.696775993012007,-1.2849937221885503,1.2356452569507177,20.58593,-4.640496,-4.995448,3.914211,3.749655,-3.5703042,1.5268505,-0.36606252,0.11467097,-0.0036143758,-0.92349106,-7.48666,10.483984,0.6230124,-1.6251625,-0.9708124,0.7476289,0
1.6600000000000013,12.116980190495157,-1.696775993012007,-1.2849937221885503,1.2356452569507177,20.58593,-4.640496,-4.995448,3.914211,3.6746612,-3.4654117,1.5331801,-0.36161807,0.11303745,0.0053033894,-0.9254333,-7.512185,10.494122,0.64292705,-1.6362909,-1.0198399,0.771576,0
1.6700000000000013,12.116980190495157,-1.696775993012007,-1.2849937221885503,1.2356452569507177,20.58593,-4.640496,-4.995448,3.914211,3.5994096,-3.3604295,1.5397092,-0.35701963,0.1112022,0.014336328,-0.9273432,-7.538161,10.501973,0.66291726,-1.6456869,-1.0612196,0.79434794,0
1.6800000000000013,12.499967942209254,-1.9570236929844373,-1.2734156803796273,1.3344127743394485,19.7851,-4.6756463,-4.7271686,4.047782,3.5238962,-3.2553802,1.5464386,-0.35227087,0.10919507,0.02346337,-0.9292098,-7.564532,10.50749,0.68295205,-1.6536207,-1.0961444,0.81600255,0
1.6900000000000013,12.499967942209254,-1.9570236929844373,-1.2734156803796273,1.3344127743394485,19.7851,-4.6756463,-4.7271686,4.047782,3.4481132,-3.1502872,1.553387,-0.347353,0.107082486,0.032760587,-0.931024,-7.5920925,10.510728,0.7067306,-1.700903,-1.123843,0.84144115,0
1.7000000000000013,12.499967942209254,-1.9570236929844373,-1.2734156803796273,1.3344127743394485,19.7851,-4.6756463,-4.7271686,4.047782,3.3720531,-3.0451741,1.5605732,-0.34225002,0.10491791,0.04228728,-0.9327747,-7.6199813,10.511447,0.73047507,-1.7408142,-1.1472181,0.86563146,0
1.7100000000000013,12.499967942209254,-1.9570236929844373,-1.2734156803796273,1.3344127743394485,19.7851,-4.6756463,-4.7271686,4.047782,3.2957125,-2.940067,1.5679964,-0.33696964,0.10270754,0.05200424,-0.93445057,-7.6481767,10.509586,0.7541369,-1.7745035,-1.1669441,0.88863474,0
1.7200000000000013,12.928698314974874,-2.2184585749900236,-1.3475650690939873,1.4403952783537393,19.685034,-4.509133,-4.1223984,3.8156662,3.2190886,-2.8349917,1.5756555,-0.3315192,0.10045686,0.06187817,-0.9360418,-7.6766515,10.5050955,0.77766484,-1.8029408,-1.1835904,0.91050917,0
1.7300000000000013,12.928698314974874,-2.2184585749900236,-1.3475650690939873,1.4403952783537393,19.685034,-4.509133,-4.1223984,3.8156662,3.1421738,-2.7299755,1.5835699,-0.32588074,0.09817814,0.07198713,-0.93753946,-7.7063646,10.497681,0.8051702,-1.867705,-1.2092321,0.9365108,0
1.7400000000000013,12.928698314974874,-2.2184585749900236,-1.3475650690939873,1.4403952783537393,19.685034,-4.509133,-4.1223984,3.8156662,3.0649605,-2.625048,1.591758,-0.32003826,0.095880814,0.08239088,-0.93893224,-7.736319,10.487423,0.83241767,-1.9223719,-1.2308692,0.96123654,0
1.7500000000000013,12.928698314974874,-2.2184585749900236,-1.3475650690939873,1.4403952783537393,19.685034,-4.509133,-4.1223984,3.8156662,2.9874463,-2.5202372,1.6002171,-0.31400123,0.0935658,0.09303839,-0.94020855,-7.7664943,10.474251,0.8593391,-1.968516,-1.2491268,0.984749,0
1.7600000000000013,13.179513150405976,-2.3267337627452847,-1.3134663920122156,1.4578325228139322,18.925,-4.5641007,-3.5062633,3.501527,2.9096298,-2.4155731,1.6089435,-0.30777848,0.091234215,0.10388619,-0.94135857,-7.7968636,10.458105,0.8858644,-2.007466,-1.2645324,1.0071077,0
1.7700000000000014,13.179513150405976,-2.3267337627452847,-1.3134663920122156,1.4578325228139322,18.925,-4.5641007,-3.5062633,3.501527,2.8315055,-2.3110874,1.6179448,-0.30137375,0.08891356,0.114933684,-0.9423684,-7.8279877,10.438567,0.9143294,-2.0572321,-1.272226,1.029225,0
1.7800000000000014,13.179513150405976,-2.3267337627452847,-1.3134663920122156,1.4578325228139322,18.925,-4.5641007,-3.5062633,3.501527,2.7530696,-2.2068126,1.6272283,-0.29479098,0.086625636,0.12617812,-0.94322485,-7.859253,10.415901,0.94223684,-2.0992389,-1.2787143,1.0502568,0
1.7900000000000014,13.179513150405976,-2.3267337627452847,-1.3134663920122156,1.4578325228139322,18.925,-4.5641007,-3.5062633,3.501527,2.6743202,-2.1027803,1.6367874,-0.28803825,0.084364034,0.13758217,-0.9439214,-7.8906326,10.390069,0.96950465,-2.1346962,-1.284186,1.0702567,0
1.8000000000000014,13.047430410775744,-2.196581010841444,-1.2098444718252364,1.3448979368162262,20.138718,-4.1344757,-4.2016425,3.6418333,2.5952568,-1.9990225,1.6466157,-0.28112337,0.0821236,0.1491139,-0.94445235,-7.9220934,10.36104,0.9960508,-2.1646254,-1.2887998,1.0892751,0
1.8100000000000014,13.047430410775744,-2.196581010841444,-1.2098444718252364,1.3448979368162262,20.138718,-4.1344757,-4.2016425,3.6418333,2.5158799,-1.8955692,1.6566994,-0.27407748,0.07992284,0.16068639,-0.944814,-7.953282,10.3291235,1.0205528,-2.1696072,-1.2765079,1.1018186,0
1.8200000000000014,13.047430410775744,-2.196581010841444,-1.2098444718252364,1.3448979368162262,20.138718,-4.1344757,-4.2016425,3.6418333,2.436191,-1.7924508,1.6670237,-0.26692927,0.07777652,0.1722298,-0.9450059,-7.984474,10.294039,1.0441852,-2.1738114,-1.2661315,1.1137465,0
1.8300000000000014,13.047430410775744,-2.196581010841444,-1.2098444718252364,1.3448979368162262,20.138718,-4.1344757,-4.2016425,3.6418333,2.3561904,-1.689699,1.6775799,-0.2596823,0.07567577,0.18374163,-0.9450275,-8.01563,10.255811,1.0668764,-2.1773593,-1.2573724,1.1250892,0
1.8400000000000014,13.047430410775744,-2.196581010841444,-1.2098444718252364,1.3448979368162262,19.111502,-3.368352,-3.6715965,3.1815944,2.2758787,-1.5873452,1.688358,-0.25233996,0.07361314,0.19521937,-0.9448781,-8.046705,10.214461,1.0885563,-2.1803534,-1.2499781,1.1358752,0
1.8500000000000014,13.047430410775744,-2.196581010841444,-1.2098444718252364,1.3448979368162262,19.111502,-3.368352,-3.6715965,3.1815944,2.1952567,-1.4854206,1.6993474,-0.24490555,0.07158239,0.20666052,-0.94455713,-8.077657,10.170018,1.1091558,-2.1828804,-1.2437357,1.1461321,0
1.8600000000000014,13.047430410775744,-2.196581010841444,-1.2098444718252364,1.3448979368162262,19.111502,-3.368352,-3.6715965,3.1815944,2.114326,-1.3839556,1.7105371,-0.2373823,0.0695783,0.21806265,-0.94406396,-8.108435,10.12251,1.1286072,-2.185013,-1.2384659,1.1558856,0
1.8700000000000014,13.047430410775744,-2.196581010841444,-1.2098444718252364,1.3448979368162262,19.111502,-3.368352,-3.6715965,3.1815944,2.0330884,-1.2829808,1.7219154,-0.22977337,0.067596495,0.2294233,-0.94339776,-8.138992,10.071966,1.1468439,-2.186813,-1.2340169,1.1651604,0
1.8800000000000014,12.510186388433228,-1.9186835815265617,-1.3093648244808351,1.1300425261953029,17.075613,-3.0488274,-2.7888885,2.3226314,1.9515469,-1.1825266,1.7334696,-0.22208191,0.06563333,0.24074003,-0.942558,-8.169279,10.01842,1.1638007,-2.188332,-1.2302611,1.1739802,0
1.8900000000000015,12.510186388433228,-1.9186835815265617,-1.3093648244808351,1.1300425261953029,17.075613,-3.0488274,-2.7888885,2.3226314,1.8697101,-1.0826111,1.7451634,-0.21433368,0.06361746,0.2519163,-0.9415686,-8.198007,9.964234,1.1747344,-2.1462727,-1.242562,1.1718241,0
1.9000000000000015,12.510186388433228,-1.9186835815265617,-1.3093648244808351,1.1300425261953029,17.075613,-3.0488274,-2.7888885,2.3226314,1.7875881,-0.9832515,1.7569599,-0.2065531,0.06149218,0.26287583,-0.9404521,-8.226343,9.907265,1.1843433,-2.1107738,-1.2529501,1.1697739,0
1.9100000000000015,12.510186388433228,-1.9186835815265617,-1.3093648244808351,1.1300425261953029,17.075613,-3.0488274,-2.7888885,2.3226314,1.705185,-0.88447523,1.7688457,-0.19874121,0.059274193,0.2736437,-0.9392055,-8.254209,9.847578,1.1925948,-2.0808125,-1.2617224,1.1678243,0
1.9200000000000015,11.507576361019993,-1.4536882261077786,-1.6522798168119592,0.785244806904116,16.05963,-2.8407981,-2.577654,1.5075881,1.622506,-0.78630906,1.7808071,-0.1908992,0.05697748,0.2842409,-0.93782604,-8.2815275,9.785235,1.199455,-2.0555243,-1.2691306,1.1659703,0
1.9300000000000015,11.507576361019993,-1.4536882261077786,-1.6522798168119592,0.785244806904116,16.05963,-2.8407981,-2.577654,1.5075881,1.5395675,-0.68875355,1.7927884,-0.18303943,0.054438014,0.29453883,-0.936365,-8.306083,9.725504,1.1965978,-1.9616394,-1.3287872,1.147288,0
1.9400000000000015,11.507576361019993,-1.4536882261077786,-1.6522798168119592,0.785244806904116,16.05963,-2.8407981,-2.577654,1.5075881,1.4563867,-0.59180695,1.8047346,-0.17517601,0.051526166,0.3044366,-0.934867,-8.32994,9.663474,1.1924393,-1.882403,-1.3791549,1.1295223,0
1.9500000000000015,11.507576361019993,-1.4536882261077786,-1.6522798168119592,0.785244806904116,16.05963,-2.8407981,-2.577654,1.5075881,1.3729714,-0.49549174,1.8166327,-0.16731246,0.048298735,0.31398755,-0.9333194,-8.352973,9.599233,1.1869907,-1.8155296,-1.4216795,1.1126286,0
1.9600000000000015,10.634986029496355,-0.9498702628050161,-1.9388104250445075,0.3681436096520378,15.978587,-2.1156824,-2.692274,0.38605022,1.2893305,-0.3998297,1.8284701,-0.15945186,0.044803403,0.32323673,-0.9317109,-8.3750725,9.532861,1.1802588,-1.75909,-1.4575824,1.0965637,0
1.9700000000000015,10.634986029496355,-0.9498702628050161,-1.9388104250445075,0.3681436096520378,15.978587,-2.1156824,-2.692274,0.38605022,1.2054818,-0.3048158,1.8401995,-0.15161654,0.040925194,0.3320547,-0.93009496,-8.394536,9.469626,1.1654202,-1.6328747,-1.5325013,1.0608199,0
1.9800000000000015,10.634986029496355,-0.9498702628050161,-1.9388104250445075,0.3681436096520378,15.978587,-2.1156824,-2.692274,0.38605022,1.1214436,-0.2104433,1.8517748,-0.1438295,0.036574103,0.34034112,-0.9285164,-8.412912,9.404601,1.1494408,-1.5263519,-1.5957575,1.0268301,0
1.9900000000000015,10.634986029496355,-0.9498702628050161,-1.9388104250445075,0.3681436096520378,15.978587,-2.1156824,-2.692274,0.38605022,1.0372277,-0.11672958,1.8631847,-0.13609402,0.031820394,0.34817007,-0.9269535,-8.430074,9.337887,1.1323621,-1.4364489,-1.6491659,0.9945082,0
2.0000000000000013,,,,,15.270443,-1.5331059,-3.0852273,-0.45624727,0.9528468,-0.023691045,1.8744184,-0.12841271,0.026723098,0.35560396,-0.9253871,-8.445916,9.269578,1.1142173,-1.360572,-1.6942593,0.96377236,0
2.010000000000001,,,,,15.270443,-1.5331059,-3.0852273,-0.45624727,0.8683177,0.06867258,1.8854475,-0.12084051,0.021302206,0.36251187,-0.92386603,-8.45969,9.202932,1.0914619,-1.2192767,-1.7272748,0.9160129,0
2.020000000000001,,,,,15.270443,-1.5331059,-3.0852273,-0.45624727,0.78365797,0.1603631,1.8962443,-0.1134263,0.0155750355,0.36879447,-0.9224326,-8.472032,9.134974,1.0677772,-1.1000183,-1.7551643,0.870597,0
2.0300000000000007,,,,,15.270443,-1.5331059,-3.0852273,-0.45624727,0.6988822,0.25136796,1.9067999,-0.10616336,0.009583516,0.3745425,-0.92106175,-8.482869,9.065823,1.043223,-0.9993598,-1.7787228,0.8274097,0
2.0400000000000005,,,,,15.270443,-1.5331059,-3.0852273,-0.45624727,0.6140059,0.3416758,1.9171058,-0.09904544,0.00336287,0.3798322,-0.9197312,-8.492141,8.995586,1.0178487,-0.9143996,-1.7986225,0.78634155,0
2.0500000000000003,,,,,12.381294,-1.713808,-2.9088752,-0.45917255,0.529045,0.43127626,1.9271542,-0.092066705,-0.0030572312,0.38472766,-0.9184216,-8.499794,8.924357,0.9916941,-0.84268916,-1.8154311,0.74728864,1
2.06,,,,,12.381294,-1.713808,-2.9088752,-0.45917255,0.44400892,0.5200808,1.9370154,-0.08511998,-0.009996216,0.38977966,-0.91691095,-8.507086,8.8363695,0.9803933,-0.97853297,-1.9859817,0.6880873,1
2.07,,,,,12.381294,-1.713808,-2.9088752,-0.45917255,0.35891083,0.60799956,1.9467585,-0.07812701,-0.017712329,0.39541635,-0.9150014,-8.512179,8.747205,0.9680412,-1.093212,-2.1299176,0.6317909,1
2.0799999999999996,,,,,12.381294,-1.713808,-2.9088752,-0.45917255,0.2737735,0.69502056,1.9563723,-0.07112085,-0.026098715,0.40152216,-0.91271013,-8.514902,8.656795,0.9544843,-1.190022,-2.251394,0.5782569,1
2.0899999999999994,,,,,10.391794,-1.2385029,-2.8428943,-0.67674625,0.18862142,0.7811311,1.9658437,-0.06412812,-0.03506367,0.40799913,-0.91005164,-8.51511,8.565102,0.9395789,-1.2717456,-2.3539166,0.5273499,1
2.099999999999999,,,,,10.391794,-1.2385029,-2.8428943,-0.67674625,0.103478745,0.86639273,1.9750929,-0.05719834,-0.044527106,0.41458893,-0.9071168,-8.51307,8.487064,0.9100668,-1.2666287,-2.430122,0.46826452,1
2.109999999999999,,,,,10.391794,-1.2385029,-2.8428943,-0.67674625,0.018367924,0.9508688,1.9840405,-0.050372567,-0.05442071,0.42108464,-0.9039844,-8.508728,8.407995,0.87925345,-1.2623142,-2.4944458,0.41207853,1
2.1199999999999988,,,,,10.391794,-1.2385029,-2.8428943,-0.67674625,-0.06668766,1.0345494,1.9926732,-0.043658815,-0.06468729,0.4274784,-0.90065014,-8.502011,8.32796,0.8470898,-1.2586749,-2.5487413,0.35864958,1
2.1299999999999986,,,,,9.02764,-0.15376344,-2.0238261,-0.97145283,-0.15166394,1.1174251,2.0009773,-0.037062977,-0.075277634,0.4337635,-0.89711076,-8.492861,8.24703,0.81352526,-1.2556043,-2.5945718,0.3078424,1
2.1399999999999983,,,,,9.02764,-0.15376344,-2.0238261,-0.97145283,-0.23654376,1.1995407,2.008897,-0.03073066,-0.08588695,0.43953297,-0.893582,-8.482769,8.176021,0.770243,-1.0838935,-2.5054853,0.24506703,1
2.149999999999998,,,,,9.02764,-0.15376344,-2.0238261,-0.97145283,-0.3213121,1.2809434,2.016378,-0.02477849,-0.09627289,0.44447485,-0.8902576,-8.4705715,8.104438,0.7257765,-0.9389469,-2.4303107,0.18537205,1
2.159999999999998,,,,,9.02764,-0.15376344,-2.0238261,-0.97145283,-0.40594816,1.3616279,2.0234087,-0.019170858,-0.10648058,0.44871053,-0.8871032,-8.456326,8.032417,0.68020827,-0.81659335,-2.3668747,0.12860632,1
2.1699999999999977,,,,,7.7042713,0.8824996,-0.9316037,-1.2140763,-0.4904317,1.4415907,2.0299783,-0.013876869,-0.116547756,0.45234117,-0.88408726,-8.440082,7.9600744,0.633607,-0.71331143,-2.3133423,0.07462611,1
2.1799999999999975,,,,,7.7042713,0.8824996,-0.9316037,-1.2140763,-0.57475615,1.520882,2.03604,-0.00904473,-0.12613899,0.45507798,-0.881425,-8.424566,7.898153,0.57863766,-0.464543,-2.0978293,0.01138911,1
2.1899999999999973,,,,,7.7042713,0.8824996,-0.9316037,-1.2140763,-0.65891767,1.5995537,2.0415485,-0.0047903107,-0.1349926,0.45670515,-0.8793028,-8.407514,7.8361645,0.5229876,-0.25454953,-1.9159452,-0.04874483,1
