time-since-start [s],throttle_mpc,roll_mpc,pitch_mpc,yaw_mpc,throttle_nw,roll_nw,pitch_nw,yaw_nw,position_x [m],position_y [m],position_z [m],rotation_w [quaternion],rotation_x [quaternion],rotation_y [quaternion],rotation_z [quaternion],velocity_x [m/s],velocity_y [m/s],velocity_z [m/s],omega_x [rad/s],omega_y [rad/s],omega_z [rad/s],network_used
0.0,9.266854554202789,5.9999996349568265,-5.999999921622827,-4.901881503874057,9.865585,2.894643,-4.214978,-2.3828034,18.807838,-9.694801,2.0241354,0.06314813,0.42173484,-0.27745736,-0.86091197,-10.601575,-4.6785994,0.43607044,1.5941268,-0.072918124,-0.63078696,0
0.01,9.266854554202789,5.9999996349568265,-5.999999921622827,-4.901881503874057,15.091139,3.1497602,-4.3637457,-2.4657626,18.7012,-9.741238,2.0284057,0.05658382,0.42247066,-0.28275952,-0.859281,-10.725774,-4.6084113,0.41762605,1.5444833,-0.26073182,-0.7745044,0
0.02,9.266854554202789,5.9999996349568265,-5.999999921622827,-4.901881503874057,15.091139,3.1497602,-4.3637457,-2.4657626,18.59333,-9.786965,2.03248,0.049214605,0.4225663,-0.2876534,-0.85806245,-10.847533,-4.5370555,0.3969294,1.5278792,-0.4445905,-0.91343325,0
0.03,9.266854554202789,5.9999996349568265,-5.999999921622827,-4.901881503874057,15.091139,3.1497602,-4.3637457,-2.4657626,18.484257,-9.831974,2.0363371,0.04099725,0.42203978,-0.29226997,-0.85719305,-10.96662,-4.4645605,0.3742133,1.5395523,-0.6255059,-1.0478433,0
0.04,9.266854554202789,5.9999996349568265,-5.999999921622827,-4.901881503874057,14.745274,5.867441,-4.6676793,-3.2859304,18.374006,-9.876253,2.039958,0.03189565,0.42089987,-0.29671907,-0.8566117,-11.082812,-4.3909254,0.34968168,1.5753937,-0.80424047,-1.1779833,0
0.05,9.266854554202789,5.9999996349568265,-5.999999921622827,-4.901881503874057,14.745274,5.867441,-4.6676793,-3.2859304,18.26261,-9.919788,2.0433252,0.021880263,0.41914764,-0.3010921,-0.8562593,-11.195892,-4.3161287,0.32351398,1.6318539,-0.9813549,-1.304082,0
0.060000000000000005,9.266854554202789,5.9999996349568265,-5.999999921622827,-4.901881503874057,14.745274,5.867441,-4.6676793,-3.2859304,18.150099,-9.96257,2.0464232,0.010927585,0.4167778,-0.30546418,-0.8560774,-11.305648,-4.2401366,0.2958692,1.7058632,-1.1572493,-1.4263508,0
0.07,9.266854554202789,5.9999996349568265,-5.999999921622827,-4.901881503874057,14.745274,5.867441,-4.6676793,-3.2859304,18.036509,-10.004586,2.049238,-0.0009802652,0.41377985,-0.30989626,-0.856008,-11.411873,-4.1629105,0.26688904,1.7947656,-1.3321942,-1.5449849,0
0.08,11.240073328499422,5.999999811929439,-5.999999952179818,-4.556389503673283,12.503662,6.200554,-4.917979,-4.0794683,17.921873,-10.045824,2.0517569,-0.013855871,0.41013885,-0.31443644,-0.855993,-11.514358,-4.084412,0.23670068,1.8962594,-1.5063585,-1.6601645,0
0.09,11.240073328499422,5.999999811929439,-5.999999952179818,-4.556389503673283,12.503662,6.200554,-4.917979,-4.0794683,17.806198,-10.086241,2.0539918,-0.027876161,0.40560332,-0.31934437,-0.85599536,-11.619754,-3.9990265,0.21008325,2.1097627,-1.7814574,-1.7641716,0
0.09999999999999999,11.240073328499422,5.999999811929439,-5.999999952179818,-4.556389503673283,12.503662,6.200554,-4.917979,-4.0794683,17.689495,-10.125799,2.0559545,-0.043193202,0.39993745,-0.32483324,-0.8559601,-11.720269,-3.912356,0.18221758,2.322913,-2.0466454,-1.8660223,0
0.10999999999999999,11.240073328499422,5.999999811929439,-5.999999952179818,-4.556389503673283,12.503662,6.200554,-4.917979,-4.0794683,17.57181,-10.164483,2.0576324,-0.059775803,0.39314327,-0.33086833,-0.85579866,-11.815595,-3.8242614,0.15325013,2.535083,-2.3027825,-1.9657613,0
0.11999999999999998,11.240073328499422,5.999999811929439,-5.999999952179818,-4.556389503673283,12.503662,6.200554,-4.917979,-4.0794683,17.453201,-10.202279,2.059016,-0.07758955,0.3852178,-0.3374098,-0.855419,-11.905422,-3.7346587,0.12330867,2.7457592,-2.550609,-2.0634322,0
0.12999999999999998,14.274158652455103,5.999999899688226,-5.999999973760406,-3.9437729349521047,14.272846,5.9225388,-4.204457,-3.1612697,17.333723,-10.239171,2.0600958,-0.09659635,0.37615436,-0.34441295,-0.8547261,-11.98945,-3.643519,0.09250344,2.9545214,-2.790766,-2.1590781,0
0.13999999999999999,14.274158652455103,5.999999899688226,-5.999999973760406,-3.9437729349521047,14.272846,5.9225388,-4.204457,-3.1612697,17.213394,-10.275096,2.060898,-0.11702614,0.3655197,-0.35215893,-0.85363,-12.075412,-3.541269,0.0678112,3.3282776,-3.1914816,-2.23764,0
0.15,14.274158652455103,5.999999899688226,-5.999999973760406,-3.9437729349521047,14.272846,5.9225388,-4.204457,-3.1612697,17.092241,-10.309992,2.061448,-0.13906533,0.3529078,-0.36085844,-0.8519965,-12.153693,-3.4377868,0.042039428,3.6840265,-3.570003,-2.3159487,0
0.16,18.380067047662525,5.999999932074694,-5.999999981137177,-3.2586308463025633,16.181149,5.3917184,-4.5463066,-2.3814192,16.970346,-10.343847,2.0617356,-0.16260353,0.33834767,-0.37035733,-0.8496566,-12.223816,-3.3330755,0.015315732,4.0230236,-3.928237,-2.3938787,0
0.17,18.380067047662525,5.999999932074694,-5.999999981137177,-3.2586308463025633,16.181149,5.3917184,-4.5463066,-2.3814192,16.8477,-10.3764925,2.0618563,-0.18743393,0.32185888,-0.38051456,-0.8464537,-12.303835,-3.195402,0.008959159,4.3307104,-4.2519264,-2.4363124,0
0.18000000000000002,18.380067047662525,5.999999932074694,-5.999999981137177,-3.2586308463025633,16.181149,5.3917184,-4.5463066,-2.3814192,16.724302,-10.407739,2.0619192,-0.21326081,0.30358097,-0.39111856,-0.8422497,-12.373864,-3.053171,0.003803744,4.5904837,-4.52507,-2.4766638,0
0.19000000000000003,18.380067047662525,5.999999932074694,-5.999999981137177,-3.2586308463025633,16.181149,5.3917184,-4.5463066,-2.3814192,16.60026,-10.437541,2.0619364,-0.23985314,0.28370684,-0.40193635,-0.83691573,-12.432953,-2.9068115,-0.00017479685,4.809807,-4.755559,-2.5150352,0
0.20000000000000004,20.999998467931338,5.9999999027148405,-5.999999966339332,-2.9217905134627418,17.4765,5.300819,-4.6582375,-1.350466,16.475683,-10.465862,2.0619195,-0.26700202,0.26241082,-0.412769,-0.8303445,-12.480255,-2.7569265,-0.0030525997,4.9949813,-4.950051,-2.5515234,0
0.21000000000000005,20.999998467931338,5.9999999027148405,-5.999999966339332,-2.9217905134627418,17.4765,5.300819,-4.6582375,-1.350466,16.350668,-10.49256,2.061947,-0.2944834,0.23983502,-0.42345792,-0.82246083,-12.520001,-2.582508,0.008760652,5.1513805,-5.114111,-2.5696926,0
0.22000000000000006,20.999998467931338,5.9999999027148405,-5.999999966339332,-2.9217905134627418,17.4765,5.300819,-4.6582375,-1.350466,16.22533,-10.517504,2.0620975,-0.32209328,0.21610986,-0.43386844,-0.81320995,-12.544757,-2.4059236,0.021505121,5.2834315,-5.252545,-2.5869699,0
0.23000000000000007,20.999998467931338,5.9999999027148405,-5.999999966339332,-2.9217905134627418,17.4765,5.300819,-4.6582375,-1.350466,16.099827,-10.540676,2.0623796,-0.3496785,0.19137275,-0.44387597,-0.80254304,-12.553978,-2.228293,0.034953024,5.3949256,-5.369356,-2.6033995,0
0.24000000000000007,20.999998467931338,5.9999999027148405,-5.999999966339332,-2.9217905134627418,17.712976,4.144743,-3.0941653,-0.82707524,15.974306,-10.562071,2.0627985,-0.3770991,0.16575186,-0.45337468,-0.7904263,-12.547275,-2.0508296,0.04884199,5.489064,-5.4679203,-2.619023,0
0.25000000000000006,20.999998467931338,5.9999999027148405,-5.999999966339332,-2.9217905134627418,17.712976,4.144743,-3.0941653,-0.82707524,15.848936,-10.581697,2.063357,-0.40422684,0.1393674,-0.46227473,-0.7768392,-12.524412,-1.8748153,0.06288163,5.5685487,-5.551087,-2.63388,0
0.26000000000000006,20.999998467931338,5.9999999027148405,-5.999999966339332,-2.9217905134627418,17.712976,4.144743,-3.0941653,-0.82707524,15.723875,-10.599577,2.0640557,-0.43094406,0.11233243,-0.4705002,-0.7617729,-12.485315,-1.7015791,0.0767598,5.6356606,-5.621261,-2.6480079,0
0.2700000000000001,20.999998467931338,5.9999999027148405,-5.999999966339332,-2.9217905134627418,17.712976,4.144743,-3.0941653,-0.82707524,15.599285,-10.615744,2.0648906,-0.45714235,0.0847538,-0.47798693,-0.74522865,-12.430066,-1.5324764,0.09014855,5.6923275,-5.680473,-2.6614425,0
0.2800000000000001,20.99999891845874,4.135653306688805,-5.458140919451943,-0.7469224434088502,17.800468,3.0856304,-1.2841499,-1.3304669,15.475328,-10.630245,2.0658557,-0.48272198,0.05673266,-0.4846811,-0.7272171,-12.358904,-1.3688685,0.10270984,5.7401743,-5.7304335,-2.674218,0
0.2900000000000001,20.99999891845874,4.135653306688805,-5.458140919451943,-0.7469224434088502,17.800468,3.0856304,-1.2841499,-1.3304669,15.35216,-10.643144,2.0669408,-0.5072654,0.028758626,-0.49013105,-0.7082555,-12.272282,-1.2120931,0.11413563,5.490376,-5.687195,-2.579645,0
0.3000000000000001,20.99999891845874,4.135653306688805,-5.458140919451943,-0.7469224434088502,17.800468,3.0856304,-1.2841499,-1.3304669,15.229932,-10.654514,2.068134,-0.53047377,0.001231201,-0.4940329,-0.68885934,-12.171137,-1.063356,0.1243213,5.2795,-5.650809,-2.489713,0
0.3100000000000001,20.99999891845874,4.135653306688805,-5.458140919451943,-0.7469224434088502,17.800468,3.0856304,-1.2841499,-1.3304669,15.108783,-10.664443,2.0694227,-0.55241996,-0.02588613,-0.49653965,-0.6690367,-12.056552,-0.9237098,0.13322067,5.10148,-5.620188,-2.4041939,0
0.3200000000000001,19.604900023463546,2.321757232954346,-3.2917864017030185,-0.15715934185674957,18.381105,1.7887111,-0.09802322,-0.74646896,14.988843,-10.673024,2.0707936,-0.57316214,-0.052623745,-0.49777782,-0.6487932,-11.929605,-0.7940825,0.1407695,4.9511967,-5.5944185,-2.322871,0
0.3300000000000001,19.604900023463546,2.321757232954346,-3.2917864017030185,-0.15715934185674957,18.381105,1.7887111,-0.09802322,-0.74646896,14.870184,-10.680403,2.0721982,-0.59232855,-0.07806667,-0.49789977,-0.6286078,-11.80062,-0.6831106,0.1399712,4.5420446,-5.234389,-2.2165987,0
0.34000000000000014,19.604900023463546,2.321757232954346,-3.2917864017030185,-0.15715934185674957,18.381105,1.7887111,-0.09802322,-0.74646896,14.752862,-10.686722,2.0735884,-0.6097047,-0.101509415,-0.49711588,-0.60895914,-11.662562,-0.5823381,0.1378222,4.196556,-4.9306645,-2.1155417,0
0.35000000000000014,19.604900023463546,2.321757232954346,-3.2917864017030185,-0.15715934185674957,18.381105,1.7887111,-0.09802322,-0.74646896,14.63696,-10.692084,2.0749502,-0.625538,-0.12326023,-0.49558604,-0.5898329,-11.516776,-0.49168605,0.13433625,3.9048288,-4.674434,-2.0194433,0
0.36000000000000015,16.865799791130502,0.3367529334005763,-0.9576762457614534,0.6466617241289073,19.758345,1.8506938,0.36012143,-0.5913335,14.522549,-10.69659,2.0762706,-0.64003044,-0.1435821,-0.4934314,-0.57120043,-11.364418,-0.41102883,0.12954009,3.6585,-4.458268,-1.9280604,0
0.37000000000000016,16.865799791130502,0.3367529334005763,-0.9576762457614534,0.6466617241289073,19.758345,1.8506938,0.36012143,-0.5913335,14.40958,-10.700389,2.0774722,-0.65296406,-0.16171095,-0.49089456,-0.5536328,-11.228594,-0.3500291,0.11062055,3.1414862,-3.9114425,-1.8017181,0
0.38000000000000017,16.865799791130502,0.3367529334005763,-0.9576762457614534,0.6466617241289073,19.758345,1.8506938,0.36012143,-0.5913335,14.29799,-10.703616,2.0784798,-0.66423833,-0.17708142,-0.4882298,-0.5376435,-11.089013,-0.2967305,0.09073169,2.704903,-3.4500785,-1.6815754,0
0.3900000000000002,16.865799791130502,0.3367529334005763,-0.9576762457614534,0.6466617241289073,19.758345,1.8506938,0.36012143,-0.5913335,14.18781,-10.7063465,2.0792844,-0.6741478,-0.19016485,-0.48551816,-0.5230999,-10.946536,-0.25033432,0.07002178,2.3362465,-3.0608103,-1.5673282,0
0.4000000000000002,15.793465128308675,-2.3096900509866467,1.8849688512027287,3.241986371604955,19.672358,-1.0385537,1.3400519,0.52498996,14.079066,-10.708644,2.0798783,-0.6829253,-0.20135622,-0.48280787,-0.5098673,-10.8018265,-0.21012256,0.048634168,2.0249565,-2.7323654,-1.4586871,0
0.4100000000000002,15.793465128308675,-2.3096900509866467,1.8849688512027287,3.241986371604955,19.672358,-1.0385537,1.3400519,0.52498996,13.971922,-10.710532,2.0803301,-0.690393,-0.20977497,-0.48021424,-0.4987441,-10.627466,-0.16869743,0.041299112,1.3115988,-2.0497284,-1.2680203,0
0.4200000000000002,15.793465128308675,-2.3096900509866467,1.8849688512027287,3.241986371604955,19.672358,-1.0385537,1.3400519,0.52498996,13.866506,-10.712038,2.0806956,-0.6964288,-0.21477555,-0.47787166,-0.49040443,-10.456226,-0.13316242,0.031502713,0.7134155,-1.4696361,-1.0820757,0
0.4300000000000002,15.793465128308675,-2.3096900509866467,1.8849688512027287,3.241986371604955,19.672358,-1.0385537,1.3400519,0.52498996,13.762783,-10.71321,2.0809531,-0.70125395,-0.21697015,-0.47580126,-0.48454037,-10.288673,-0.10177373,0.01970002,0.21151088,-0.97702414,-0.90073633,0
0.4400000000000002,15.793465128308675,-2.3096900509866467,1.8849688512027287,3.241986371604955,19.579586,-3.4340482,2.8308516,1.5851638,13.660717,-10.714083,2.081084,-0.7050297,-0.2168647,-0.4739903,-0.48086926,-10.125171,-0.07310695,0.0062500513,-0.2099419,-0.559058,-0.72388816,0
0.45000000000000023,15.793465128308675,-2.3096900509866467,1.8849688512027287,3.241986371604955,19.579586,-3.4340482,2.8308516,1.5851638,13.560265,-10.714678,2.0810735,-0.7078749,-0.2148776,-0.47240624,-0.47913712,-9.965945,-0.046011668,-0.008570615,-0.5642007,-0.2048043,-0.55142,0
0.46000000000000024,15.793465128308675,-2.3096900509866467,1.8849688512027287,3.241986371604955,19.579586,-3.4340482,2.8308516,1.5851638,13.461383,-10.715006,2.080909,-0.709878,-0.21135536,-0.47100613,-0.47911865,-9.811141,-0.019569162,-0.024553701,-0.8623707,0.095047876,-0.38322318,0
0.47000000000000025,15.793465128308675,-2.3096900509866467,1.8849688512027287,3.241986371604955,19.579586,-3.4340482,2.8308516,1.5851638,13.364026,-10.71507,2.0805793,-0.7111063,-0.20658523,-0.46974254,-0.480616,-9.660846,0.0069448627,-0.04154604,-1.1137549,0.34842712,-0.21919203,0
0.48000000000000026,15.620529099500155,-4.636594728161382,4.472003984551629,3.426903864149102,20.47027,-3.7462454,3.9477491,1.4738098,13.26815,-10.714866,2.080075,-0.7116115,-0.20080578,-0.4685675,-0.48345634,-9.515111,0.03409261,-0.05943781,-1.3261465,0.5620842,-0.05922339,0
0.49000000000000027,15.620529099500155,-4.636594728161382,4.472003984551629,3.426903864149102,20.47027,-3.7462454,3.9477491,1.4738098,13.173726,-10.714381,2.0793974,-0.71115917,-0.193042,-0.46765214,-0.48814777,-9.370592,0.06307985,-0.076216914,-1.8892982,1.1248652,0.100550175,0
0.5000000000000002,15.620529099500155,-4.636594728161382,4.472003984551629,3.426903864149102,20.47027,-3.7462454,3.9477491,1.4738098,13.080722,-10.713597,2.0785484,-0.70952654,-0.18251719,-0.46709928,-0.49505275,-9.231031,0.09419679,-0.09365165,-2.366244,1.5982646,0.25636667,0
0.5100000000000002,15.620529099500155,-4.636594728161382,4.472003984551629,3.426903864149102,20.47027,-3.7462454,3.9477491,1.4738098,12.989088,-10.712486,2.0775235,-0.70674956,-0.16968006,-0.4667712,-0.50382304,-9.096233,0.12844971,-0.111323416,-2.7651975,2.0014544,0.40779638,0
0.5200000000000002,16.12440076134297,-5.6831986549797024,5.714000968984794,3.054704899005616,21.524796,-4.5992026,4.3245935,1.4094702,12.898784,-10.711014,2.0763242,-0.7028059,-0.15491824,-0.46662274,-0.51412714,-8.9653015,0.16684687,-0.12844054,-3.0828555,2.3608627,0.553649,0
0.5300000000000002,16.12440076134297,-5.6831986549797024,5.714000968984794,3.054704899005616,21.524796,-4.5992026,4.3245935,1.4094702,12.809784,-10.709129,2.0749674,-0.69748133,-0.13799524,-0.4668193,-0.52588594,-8.8349495,0.21123382,-0.14266975,-3.488794,2.8833592,0.6763765,0
0.5400000000000003,16.12440076134297,-5.6831986549797024,5.714000968984794,3.054704899005616,21.524796,-4.5992026,4.3245935,1.4094702,12.722074,-10.706768,2.073476,-0.69061375,-0.11871416,-0.46738386,-0.53899086,-8.707872,0.26181102,-0.15539765,-3.8314552,3.3243551,0.7930818,0
0.5500000000000003,16.12440076134297,-5.6831986549797024,5.714000968984794,3.054704899005616,21.524796,-4.5992026,4.3245935,1.4094702,12.635614,-10.703869,2.0718644,-0.6822248,-0.09744006,-0.46812516,-0.553112,-8.5847225,0.31929606,-0.16675803,-4.120692,3.6965728,0.9040603,0
0.5600000000000003,16.782964829902397,-5.730176710572015,5.751381193489665,2.7359746668372735,20.955557,-4.9321933,4.5436673,1.1222824,12.550364,-10.700357,2.0701451,-0.6723297,-0.07448906,-0.4688788,-0.5679578,-8.466194,0.38420904,-0.17693608,-4.3648233,4.0107465,1.0095931,0
0.5700000000000003,16.782964829902397,-5.730176710572015,5.751381193489665,2.7359746668372735,20.955557,-4.9321933,4.5436673,1.1222824,12.466295,-10.696143,2.0683472,-0.6609589,-0.050097585,-0.4695071,-0.5832546,-8.348385,0.4598578,-0.18253218,-4.5781636,4.2818055,1.0943071,0
0.5800000000000003,16.782964829902397,-5.730176710572015,5.751381193489665,2.7359746668372735,20.955557,-4.9321933,4.5436673,1.1222824,12.383375,-10.691131,2.0664968,-0.6481435,-0.024474401,-0.46989232,-0.5987582,-8.236912,0.54377717,-0.18741676,-4.758219,4.5106077,1.1748642,0
0.5900000000000003,16.782964829902397,-5.730176710572015,5.751381193489665,2.7359746668372735,20.955557,-4.9321933,4.5436673,1.1222824,12.301535,-10.685238,2.0646002,-0.6339013,0.002157556,-0.4699341,-0.6142683,-8.132555,0.6359919,-0.1919044,-4.9101777,4.703745,1.2514683,0
0.6000000000000003,16.361676670297523,-4.854436785866587,4.667154660349781,2.3172526198526073,20.729246,-5.212446,4.843952,1.5727133,12.220697,-10.678383,2.062659,-0.6182546,0.02959957,-0.46954998,-0.62960863,-8.036086,0.73637474,-0.19633824,-5.0384197,4.86678,1.3243135,0
0.6100000000000003,16.361676670297523,-4.854436785866587,4.667154660349781,2.3172526198526073,20.729246,-5.212446,4.843952,1.5727133,12.140772,-10.670497,2.0606606,-0.6014885,0.057208344,-0.46863425,-0.64445317,-7.950426,0.8419129,-0.20342025,-5.0098543,4.835514,1.3730373,0
0.6200000000000003,16.361676670297523,-4.854436785866587,4.667154660349781,2.3172526198526073,20.729246,-5.212446,4.843952,1.5727133,12.06166,-10.661519,2.0585885,-0.5838866,0.08446212,-0.46714005,-0.65857565,-7.8736424,0.95457304,-0.2111199,-4.9857388,4.809129,1.4193703,0
0.6300000000000003,16.361676670297523,-4.854436785866587,4.667154660349781,2.3172526198526073,20.729246,-5.212446,4.843952,1.5727133,11.983269,-10.6513815,2.056435,-0.5654721,0.111360155,-0.465083,-0.6719651,-7.8061185,1.0737092,-0.21973531,-4.9653797,4.7868648,1.4634297,0
0.6400000000000003,16.361676670297523,-4.854436785866587,4.667154660349781,2.3172526198526073,20.129827,-5.2459297,4.510612,2.2401397,11.905504,-10.640023,2.05419,-0.54626846,0.13789816,-0.4624768,-0.6846089,-7.7481956,1.1986554,-0.22955185,-4.948191,4.7680774,1.5053271,0
0.6500000000000004,16.361676670297523,-4.854436785866587,4.667154660349781,2.3172526198526073,20.129827,-5.2459297,4.510612,2.2401397,11.828271,-10.62739,2.051839,-0.52629995,0.16406877,-0.4593334,-0.6964925,-7.700172,1.328726,-0.24084207,-4.933678,4.7522244,1.5451684,0
0.6600000000000004,16.361676670297523,-4.854436785866587,4.667154660349781,2.3172526198526073,20.129827,-5.2459297,4.510612,2.2401397,11.751467,-10.613434,2.0493667,-0.50559175,0.18986201,-0.45566365,-0.707601,-7.6623006,1.4632188,-0.2538652,-4.921424,4.7388487,1.5830549,0
0.6700000000000004,16.361676670297523,-4.854436785866587,4.667154660349781,2.3172526198526073,20.129827,-5.2459297,4.510612,2.2401397,11.67499,-10.598113,2.0467544,-0.4841699,0.2152656,-0.4514774,-0.7179189,-7.634788,1.6014158,-0.26886675,-4.911076,4.7275634,1.6190822,0
0.6800000000000004,15.664619279905628,-3.6246348842532203,3.1201009385033003,1.8834423345065696,19.857683,-5.409382,2.8249424,2.092705,11.598736,-10.581394,2.0439816,-0.46206146,0.24026541,-0.44678387,-0.72743046,-7.6177945,1.7425855,-0.28607774,-4.9023385,4.718043,1.6533415,0
0.6900000000000004,15.664619279905628,-3.6246348842532203,3.1201009385033003,1.8834423345065696,19.857683,-5.409382,2.8249424,2.092705,11.522596,-10.563282,2.0410078,-0.43973935,0.26419836,-0.44166526,-0.73604316,-7.6116533,1.8798655,-0.3090382,-4.7028465,4.4690247,1.6646326,0
0.7000000000000004,15.664619279905628,-3.6246348842532203,3.1201009385033003,1.8834423345065696,19.857683,-5.409382,2.8249424,2.092705,11.446468,-10.543791,2.0377924,-0.41763017,0.28656387,-0.43623564,-0.74374986,-7.6153655,2.018501,-0.3343605,-4.5345016,4.258811,1.6753696,0
0.7100000000000004,15.664619279905628,-3.6246348842532203,3.1201009385033003,1.8834423345065696,19.857683,-5.409382,2.8249424,2.092705,11.370256,-10.52291,2.0343122,-0.39569113,0.30756637,-0.43053883,-0.7506443,-7.628561,2.1577806,-0.36204803,-4.392442,4.0813556,1.6855798,0
0.7200000000000004,15.737161551723997,-1.8851256507601424,1.2049144884561622,1.4164610083086164,19.000568,-4.4476204,1.0900805,1.4370078,11.293866,-10.500636,2.030543,-0.37388235,0.32737762,-0.42460608,-0.7567989,-7.6508927,2.297069,-0.39209428,-4.2725635,3.931553,1.6952889,0
0.7300000000000004,15.737161551723997,-1.8851256507601424,1.2049144884561622,1.4164610083086164,19.000568,-4.4476204,1.0900805,1.4370078,11.217207,-10.476969,2.0264637,-0.35277513,0.34533602,-0.4186961,-0.762224,-7.682106,2.4364412,-0.4241573,-3.899743,3.506781,1.6816068,0
0.7400000000000004,15.737161551723997,-1.8851256507601424,1.2049144884561622,1.4164610083086164,19.000568,-4.4476204,1.0900805,1.4370078,11.140196,-10.451913,2.022053,-0.33285904,0.36096478,-0.4130601,-0.76700056,-7.72134,2.574786,-0.45836484,-3.585145,3.1481812,1.6685959,0
0.7500000000000004,15.737161551723997,-1.8851256507601424,1.2049144884561622,1.4164610083086164,19.000568,-4.4476204,1.0900805,1.4370078,11.062756,-10.425478,2.01729,-0.313981,0.37464118,-0.40769568,-0.77126086,-7.767803,2.7117593,-0.494488,-3.319676,2.845445,1.6562237,0
0.7600000000000005,15.110370393644379,-0.14721972107527803,-0.9233453865942911,0.9061505154234779,17.89364,-3.19239,-0.9327523,0.7825452,10.9848175,-10.397683,2.0121574,-0.29600185,0.38667905,-0.40258852,-0.77510244,-7.8208165,2.8471076,-0.5323158,-3.095663,2.5898707,1.6444584,0
0.7700000000000005,15.110370393644379,-0.14721972107527803,-0.9233453865942911,0.9061505154234779,17.89364,-3.19239,-0.9327523,0.7825452,10.90633,-10.368569,2.006627,-0.27946338,0.39650738,-0.3979916,-0.77864236,-7.8773837,2.9753401,-0.57396775,-2.6352198,2.0425422,1.6082295,0
0.7800000000000005,15.110370393644379,-0.14721972107527803,-0.9233453865942911,0.9061505154234779,17.89364,-3.19239,-0.9327523,0.7825452,10.827253,-10.338182,2.0006747,-0.26480666,0.40371576,-0.3941304,-0.78201747,-7.938709,3.1018398,-0.6166812,-2.2466972,1.5804714,1.5737784,0
0.7900000000000005,15.110370393644379,-0.14721972107527803,-0.9233453865942911,0.9061505154234779,17.89364,-3.19239,-0.9327523,0.7825452,10.747542,-10.30654,1.9942913,-0.25177297,0.40875217,-0.39093488,-0.7853031,-8.003906,3.2266932,-0.6600817,-1.918859,1.1903797,1.5410177,0
0.8000000000000005,15.067597989076878,1.0824002039226008,-2.6783296839774646,0.32346087931410084,17.67086,-1.6298974,-3.0748887,-0.2816803,10.667164,-10.273655,1.9874718,-0.24013482,0.41198468,-0.38833165,-0.7885439,-8.072239,3.3500214,-0.7038482,-1.6422247,0.8610565,1.5098646,0
0.8100000000000005,15.067597989076878,1.0824002039226008,-2.6783296839774646,0.32346087931410084,17.67086,-1.6298974,-3.0748887,-0.2816803,10.586089,-10.239544,1.9802144,-0.23021415,0.41309017,-0.38643554,-0.79184884,-8.143002,3.4719057,-0.74771607,-1.2200714,0.3128558,1.4519557,0
0.8200000000000005,15.067597989076878,1.0824002039226008,-2.6783296839774646,0.32346087931410084,17.67086,-1.6298974,-3.0748887,-0.2816803,10.504299,-10.204222,1.9725184,-0.22228488,0.4118063,-0.3853499,-0.79530466,-8.215246,3.5924063,-0.7913796,-0.86056626,-0.15324649,1.3965801,0
0.8300000000000005,15.067597989076878,1.0824002039226008,-2.6783296839774646,0.32346087931410084,17.67086,-1.6298974,-3.0748887,-0.2816803,10.4217825,-10.167698,1.9643891,-0.21606207,0.4085248,-0.3849639,-0.79889077,-8.288332,3.7120786,-0.8343425,-0.5572219,-0.5467365,1.3439218,0
0.8400000000000005,15.067597989076878,1.0824002039226008,-2.6783296839774646,0.32346087931410084,17.647583,-1.0192466,-4.5804095,-0.6283697,10.338534,-10.129982,1.9558349,-0.211298,0.4035694,-0.38517228,-0.80257475,-8.361585,3.8311803,-0.87630105,-0.3012612,-0.8789231,1.2938474,0
0.8500000000000005,15.067597989076878,1.0824002039226008,-2.6783296839774646,0.32346087931410084,17.647583,-1.0192466,-4.5804095,-0.6283697,10.254554,-10.091076,1.9468672,-0.20778017,0.397207,-0.38587895,-0.806319,-8.43443,3.9499373,-0.9170135,-0.08527921,-1.1593546,1.2462304,0
0.8600000000000005,15.067597989076878,1.0824002039226008,-2.6783296839774646,0.32346087931410084,17.647583,-1.0192466,-4.5804095,-0.6283697,10.169848,-10.050983,1.9374995,-0.20532687,0.38965866,-0.3869979,-0.81008554,-8.506375,4.068541,-0.9562921,0.09697114,-1.3960925,1.2009498,0
0.8700000000000006,15.067597989076878,1.0824002039226008,-2.6783296839774646,0.32346087931410084,17.647583,-1.0192466,-4.5804095,-0.6283697,10.084431,-10.009706,1.9277469,-0.20378315,0.3811083,-0.38845304,-0.8138378,-8.576995,4.1871495,-0.99399465,0.25076005,-1.5959432,1.1578913,0
0.8800000000000006,15.99607941820559,1.8637768854640817,-3.6454991420269454,-0.16168273400404404,17.464603,-1.0150231,-5.3190274,-0.71980774,9.998315,-9.96724,1.9176254,-0.20301695,0.37170964,-0.3901779,-0.81754273,-8.645916,4.3058887,-1.0300181,0.38053408,-1.7646531,1.1169455,0
0.8900000000000006,15.99607941820559,1.8637768854640817,-3.6454991420269454,-0.16168273400404404,17.464603,-1.0150231,-5.3190274,-0.71980774,9.911499,-9.923551,1.9071721,-0.20323092,0.36123362,-0.3922694,-0.82117665,-8.716908,4.4321985,-1.0603496,0.6119745,-2.0578263,1.0542028,0
0.9000000000000006,15.99607941820559,1.8637768854640817,-3.6454991420269454,-0.16168273400404404,17.464603,-1.0150231,-5.3190274,-0.71980774,9.823985,-9.878596,1.8964252,-0.20458077,0.3495023,-0.39479408,-0.82470083,-8.785211,4.558916,-1.0887072,0.8072731,-2.3053198,0.99453896,0
0.9100000000000006,15.99607941820559,1.8637768854640817,-3.6454991420269454,-0.16168273400404404,17.464603,-1.0150231,-5.3190274,-0.71980774,9.735804,-9.832371,1.8854051,-0.20689856,0.3367026,-0.39765614,-0.82806575,-8.850307,4.6861706,-1.11501,0.9720771,-2.5142486,0.93780285,0
0.9200000000000006,16.572038294805093,1.9408519922051342,-4.239300408666473,-0.5305571787214497,16.458702,-1.0488173,-5.6865406,-0.8278885,9.646991,-9.78487,1.8741322,-0.21004087,0.32299194,-0.4007729,-0.8312274,-8.911747,4.8140435,-1.1392207,1.1111505,-2.6906202,0.88385075,0
0.9300000000000006,16.572038294805093,1.9408519922051342,-4.239300408666473,-0.5305571787214497,16.458702,-1.0488173,-5.6865406,-0.8278885,9.557573,-9.736065,1.8626413,-0.21402799,0.30831677,-0.40403333,-0.8341994,-8.971182,4.9472,-1.1585923,1.240549,-2.9321175,0.8144453,0
0.9400000000000006,16.572038294805093,1.9408519922051342,-4.239300408666473,-0.5305571787214497,16.458702,-1.0488173,-5.6865406,-0.8278885,9.467583,-9.685924,1.850968,-0.21887209,0.2926414,-0.40733913,-0.8369765,-9.025942,5.081028,-1.1757469,1.3497345,-3.1359718,0.74844563,0
0.9500000000000006,16.572038294805093,1.9408519922051342,-4.239300408666473,-0.5305571787214497,16.458702,-1.0488173,-5.6865406,-0.8278885,9.37707,-9.63444,1.8391341,-0.22444777,0.2761133,-0.41064152,-0.8394981,-9.075596,5.2154775,-1.1906698,1.4418678,-3.3080494,0.6856846,0
0.9600000000000006,17.306711168908187,1.5155173546850484,-4.315901273391702,-0.7923519849748227,15.174992,-1.1621445,-5.449156,-0.55639654,9.28609,-9.581611,1.827162,-0.23064682,0.25885847,-0.4138991,-0.841713,-9.119761,5.350458,-1.2033888,1.5196149,-3.4533017,0.6260032,0
0.9700000000000006,17.306711168908187,1.5155173546850484,-4.315901273391702,-0.7923519849748227,15.174992,-1.1621445,-5.449156,-0.55639654,9.194687,-9.5274,1.8150928,-0.23737279,0.24101214,-0.41691852,-0.8436499,-9.159811,5.491841,-1.2100784,1.5188684,-3.587893,0.55640405,0
0.9800000000000006,17.306711168908187,1.5155173546850484,-4.315901273391702,-0.7923519849748227,15.174992,-1.1621445,-5.449156,-0.55639654,9.102915,-9.471774,1.8029679,-0.24455035,0.22269267,-0.41954497,-0.8453307,-9.193522,5.6334314,-1.2145606,1.5182275,-3.701491,0.49022022,0
0.9900000000000007,17.306711168908187,1.5155173546850484,-4.315901273391702,-0.7923519849748227,15.174992,-1.1621445,-5.449156,-0.55639654,9.0108385,-9.414732,1.790809,-0.25211993,0.20397732,-0.42179903,-0.84670734,-9.220681,5.774989,-1.2168877,1.5176798,-3.7973707,0.427284,0
1.0000000000000007,17.233814825375642,0.7280252212758708,-3.8287064738420153,-0.8415539837605005,15.466942,-1.70144,-4.676897,-0.5891243,8.918525,-9.356276,1.7786372,-0.26002827,0.18493253,-0.42369902,-0.84774023,-9.241098,5.9162607,-1.2171428,1.517214,-3.8782942,0.36743614,0
1.0100000000000007,17.233814825375642,0.7280252212758708,-3.8287064738420153,-0.8415539837605005,15.466942,-1.70144,-4.676897,-0.5891243,8.826041,-9.2964115,1.7664707,-0.26809493,0.16586703,-0.42504597,-0.8484976,-9.254591,6.056385,-1.2158476,1.3939888,-3.8706446,0.30811068,0
1.0200000000000007,17.233814825375642,0.7280252212758708,-3.8287064738420153,-0.8415539837605005,15.466942,-1.70144,-4.676897,-0.5891243,8.733457,-9.23515,1.7543266,-0.27618363,0.14703557,-0.42569247,-0.8490513,-9.261292,6.1956463,-1.2126663,1.2899886,-3.864173,0.2516963,0
1.0300000000000007,17.233814825375642,0.7280252212758708,-3.8287064738420153,-0.8415539837605005,15.466942,-1.70144,-4.676897,-0.5891243,8.640838,-9.1725025,1.7422235,-0.28430754,0.1284172,-0.42572325,-0.8493745,-9.261305,6.333735,-1.2076737,1.2022151,-3.8586986,0.19805019,0
1.0400000000000007,17.233814825375642,0.7280252212758708,-3.8287064738420153,-0.8415539837605005,15.16699,-3.3752084,-3.8844433,-0.489201,8.548252,-9.108481,1.730179,-0.29247445,0.109993674,-0.42521033,-0.8494441,-9.254724,6.470361,-1.200957,1.1281366,-3.8540688,0.14703652,0
1.0500000000000007,17.233814825375642,0.7280252212758708,-3.8287064738420153,-0.8415539837605005,15.16699,-3.3752084,-3.8844433,-0.489201,8.455766,-9.043102,1.7182099,-0.30068782,0.09174915,-0.42421508,-0.8492405,-9.241637,6.6052513,-1.1926142,1.0656174,-3.8501534,0.09852609,0
1.0600000000000007,17.233814825375642,0.7280252212758708,-3.8287064738420153,-0.8415539837605005,15.16699,-3.3752084,-3.8844433,-0.489201,8.363442,-8.976383,1.7063318,-0.30894786,0.07367003,-0.42278996,-0.848747,-9.222136,6.7381454,-1.1827532,1.0128542,-3.846843,0.05239609,0
1.0700000000000007,17.233814825375642,0.7280252212758708,-3.8287064738420153,-0.8415539837605005,15.16699,-3.3752084,-3.8844433,-0.489201,8.271344,-8.908346,1.6945595,-0.31725213,0.0557447,-0.42097968,-0.8479497,-9.196306,6.868795,-1.1714902,0.9683253,-3.844044,0.008529702,0
1.0800000000000007,17.498742903021668,-0.1585068276771597,-2.8625514010470856,-0.8429538973634247,15.144705,-3.6616764,-2.8800473,-0.6859807,8.179536,-8.839016,1.6829064,-0.32559618,0.03796336,-0.41882244,-0.8468368,-9.164239,6.9969625,-1.1589484,0.9307461,-3.8416777,-0.03318415,0
1.0900000000000007,17.498742903021668,-0.1585068276771597,-2.8625514010470856,-0.8429538973634247,15.144705,-3.6616764,-2.8800473,-0.6859807,8.088082,-8.768407,1.6713932,-0.3338031,0.020761808,-0.4161802,-0.8455397,-9.12548,7.124352,-1.1435293,0.7607852,-3.6889997,-0.07291978,0
1.1000000000000008,17.498742903021668,-0.1585068276771597,-2.8625514010470856,-0.8429538973634247,15.144705,-3.6616764,-2.8800473,-0.6859807,7.997046,-8.696539,1.6600398,-0.34174624,0.004488007,-0.41295913,-0.84418774,-9.080877,7.248805,-1.1270024,0.61734027,-3.560124,-0.11070557,0
1.1100000000000008,17.498742903021668,-0.1585068276771597,-2.8625514010470856,-0.8429538973634247,15.144705,-3.6616764,-2.8800473,-0.6859807,7.906483,-8.623442,1.6488569,-0.34948504,-0.0109854685,-0.4092475,-0.84276617,-9.030825,7.3701663,-1.1094142,0.49627435,-3.4513412,-0.14663722,0
1.1200000000000008,17.357042483941246,-1.1297162344520761,-1.73754125234251,-0.7054564528811331,15.382259,-4.474601,-1.8833041,-0.7003995,7.8164463,-8.549146,1.6378549,-0.357066,-0.02576774,-0.4051184,-0.8412597,-8.975662,7.488298,-1.0908104,0.39409545,-3.359519,-0.18080567,0
1.1300000000000008,17.357042483941246,-1.1297162344520761,-1.73754125234251,-0.7054564528811331,15.382259,-4.474601,-1.8833041,-0.7003995,7.7269835,-8.47369,1.6270392,-0.36434305,-0.039440904,-0.4004694,-0.83983445,-8.91622,7.6021576,-1.0721775,0.15643522,-3.1065476,-0.20655042,0
1.1400000000000008,17.357042483941246,-1.1297162344520761,-1.73754125234251,-0.7054564528811331,15.382259,-4.474601,-1.8833041,-0.7003995,7.6381364,-8.397114,1.6164148,-0.37121317,-0.051678926,-0.3952331,-0.8386417,-8.852594,7.712662,-1.052528,-0.04415703,-2.8930242,-0.23103186,0
1.1500000000000008,17.357042483941246,-1.1297162344520761,-1.73754125234251,-0.7054564528811331,15.382259,-4.474601,-1.8833041,-0.7003995,7.549944,-8.319448,1.6059922,-0.377764,-0.06269287,-0.38950998,-0.8376425,-8.785333,7.8198047,-1.0317953,-0.2134636,-2.7127986,-0.254312,0
1.1600000000000008,17.107117185308724,-1.9817547336026715,-0.5231039081402621,-0.48502465187329324,17.133753,-4.8655405,-0.8376029,-0.43733847,7.4624405,-8.240728,1.5957828,-0.3840647,-0.07266244,-0.3833816,-0.83679867,-8.714901,7.9235845,-1.0099196,-0.35636455,-2.560679,-0.2764498,0
1.1700000000000008,17.107117185308724,-1.9817547336026715,-0.5231039081402621,-0.48502465187329324,17.133753,-4.8655405,-0.8376029,-0.43733847,7.37565,-8.1609955,1.5857892,-0.38998887,-0.08121293,-0.37681636,-0.8362545,-8.642791,8.022574,-0.98858356,-0.6098011,-2.2428708,-0.28668463,0
1.1800000000000008,17.107117185308724,-1.9817547336026715,-0.5231039081402621,-0.48502465187329324,17.133753,-4.8655405,-0.8376029,-0.43733847,7.289592,-8.080288,1.5760156,-0.39544412,-0.088056505,-0.36979797,-0.83613306,-8.56859,8.118379,-0.96593654,-0.8237191,-1.974629,-0.29641724,0
1.1900000000000008,17.107117185308724,-1.9817547336026715,-0.5231039081402621,-0.48502465187329324,17.133753,-4.8655405,-0.8376029,-0.43733847,7.204283,-7.998637,1.5664755,-0.4005226,-0.0934516,-0.36240533,-0.8363671,-8.492887,8.211129,-0.9418463,-1.0042812,-1.7482237,-0.30567226,0
1.2000000000000008,17.166801406263858,-2.432230573950459,0.48177776139409323,-0.24225228962848713,16.980349,-5.0514135,0.012331083,0.32157105,7.1197376,-7.9160743,1.5571841,-0.40529677,-0.097617045,-0.35470134,-0.83689386,-8.416175,8.300943,-0.9161997,-1.1566885,-1.5571299,-0.31447315,0
1.2100000000000009,17.166801406263858,-2.432230573950459,0.48177776139409323,-0.24225228962848713,16.980349,-5.0514135,0.012331083,0.32157105,7.0359635,-7.8326263,1.5481595,-0.4096755,-0.10033893,-0.34674677,-0.8377731,-8.338636,8.388243,-0.8884601,-1.3555405,-1.2391256,-0.31092924,0
1.2200000000000009,17.166801406263858,-2.432230573950459,0.48177776139409323,-0.24225228962848713,16.980349,-5.0514135,0.012331083,0.32157105,6.952965,-7.7483187,1.539421,-0.41358808,-0.10145801,-0.3385929,-0.8390501,-8.261086,8.472918,-0.8589465,-1.5233933,-0.9707211,-0.30755925,0
1.2300000000000009,17.166801406263858,-2.432230573950459,0.48177776139409323,-0.24225228962848713,16.980349,-5.0514135,0.012331083,0.32157105,6.87074,-7.6631765,1.530987,-0.41711196,-0.10121903,-0.3302714,-0.84064984,-8.184043,8.555174,-0.82755744,-1.6650789,-0.7441798,-0.3043546,0
1.2400000000000009,17.166801406263858,-2.432230573950459,0.48177776139409323,-0.24225228962848713,18.086252,-5.3459773,0.49839061,0.7492845,6.7892804,-7.5772233,1.5228766,-0.4203085,-0.09982881,-0.3218067,-0.84250486,-8.10795,8.635187,-0.79421526,-1.7846768,-0.552972,-0.3013072,0
1.2500000000000009,17.166801406263858,-2.432230573950459,0.48177776139409323,-0.24225228962848713,18.086252,-5.3459773,0.49839061,0.7492845,6.7085757,-7.49048,1.5151097,-0.4232265,-0.09746231,-0.31321776,-0.84455556,-8.033188,8.713101,-0.75886476,-1.8856299,-0.39158717,-0.29840937,0
1.260000000000001,17.166801406263858,-2.432230573950459,0.48177776139409323,-0.24225228962848713,18.086252,-5.3459773,0.49839061,0.7492845,6.628611,-7.4029675,1.5077064,-0.42590496,-0.09426759,-0.30451962,-0.84674996,-7.960082,8.789036,-0.72147155,-1.970845,-0.25537342,-0.29565373,0
1.270000000000001,17.166801406263858,-2.432230573950459,0.48177776139409323,-0.24225228962848713,18.086252,-5.3459773,0.49839061,0.7492845,6.5493674,-7.314705,1.5006874,-0.42837504,-0.09037005,-0.29572442,-0.84904313,-7.888914,8.863089,-0.68202025,-2.0427754,-0.14040476,-0.2930333,0
1.280000000000001,16.733483845042606,-2.4844227879288105,1.1332970192023806,0.023869166890871207,17.220322,-5.0989256,0.068773106,1.5930979,6.4708247,-7.2257113,1.4940732,-0.43066192,-0.085875966,-0.28684205,-0.85139674,-7.819931,8.935337,-0.6405122,-2.1034923,-0.043367676,-0.29054147,0
1.290000000000001,16.733483845042606,-2.4844227879288105,1.1332970192023806,0.023869166890871207,17.220322,-5.0989256,0.068773106,1.5930979,6.3929515,-7.136013,1.4878663,-0.4326854,-0.080653615,-0.27797258,-0.8538201,-7.755039,9.004077,-0.6005406,-2.1628647,0.14012209,-0.27511325,0
1.300000000000001,16.733483845042606,-2.4844227879288105,1.1332970192023806,0.023869166890871207,17.220322,-5.0989256,0.068773106,1.5930979,6.315715,-7.045635,1.482069,-0.4343802,-0.07460384,-0.2691958,-0.8563183,-7.692765,9.071273,-0.55861765,-2.2129865,0.29499513,-0.2604421,0
1.310000000000001,16.733483845042606,-2.4844227879288105,1.1332970192023806,0.023869166890871207,17.220322,-5.0989256,0.068773106,1.5930979,6.239086,-6.954592,1.4767004,-0.43578416,-0.067853816,-0.26049167,-0.8588547,-7.633366,9.13707,-0.5147937,-2.2552984,0.42571455,-0.24649085,0
1.320000000000001,16.14422437443882,-2.3589378385247017,1.245543126687443,0.3073674814071217,17.108492,-4.8571825,-0.30849653,1.6055927,6.163037,-6.862898,1.4717793,-0.4369281,-0.060511306,-0.25184307,-0.86139804,-7.5770655,9.201582,-0.46912915,-2.291017,0.53604764,-0.23322423,0
1.330000000000001,16.14422437443882,-2.3589378385247017,1.245543126687443,0.3073674814071217,17.108492,-4.8571825,-0.30849653,1.6055927,6.087525,-6.7705755,1.4672983,-0.43779314,-0.052659765,-0.24329655,-0.8639272,-7.5259237,9.262674,-0.4268208,-2.3016033,0.6466548,-0.20669726,0
1.340000000000001,16.14422437443882,-2.3589378385247017,1.245543126687443,0.3073674814071217,17.108492,-4.8571825,-0.30849653,1.6055927,6.0125074,-6.6776476,1.4632485,-0.4383621,-0.044371307,-0.23488882,-0.86642736,-7.478115,9.322721,-0.3828948,-2.310544,0.7400142,-0.18147194,0
1.350000000000001,16.14422437443882,-2.3589378385247017,1.245543126687443,0.3073674814071217,17.108492,-4.8571825,-0.30849653,1.6055927,5.93795,-6.584124,1.4596456,-0.43866047,-0.03571512,-0.2265935,-0.86888206,-7.433776,9.381803,-0.33744755,-2.3180945,0.8188157,-0.15748444,0
1.360000000000001,15.502162332254535,-2.100402483153516,1.0108678801653828,0.5670199109504368,17.013212,-4.3694315,-0.6037838,0.9417264,5.8638186,-6.490014,1.4565045,-0.43870968,-0.026749885,-0.21838842,-0.8712772,-7.393024,9.439988,-0.29057777,-2.3244703,0.88532966,-0.13467403,0
1.370000000000001,15.502162332254535,-2.100402483153516,1.0108678801653828,0.5670199109504368,17.013212,-4.3694315,-0.6037838,0.9417264,5.7900686,-6.3953385,1.4538096,-0.4385182,-0.017659659,-0.21030363,-0.8735912,-7.3574257,9.495043,-0.24820632,-2.2895455,0.90485287,-0.10024171,0
1.380000000000001,15.502162332254535,-2.100402483153516,1.0108678801653828,0.5670199109504368,17.013212,-4.3694315,-0.6037838,0.9417264,5.7166576,-6.3001156,1.4515444,-0.43809164,-0.00859406,-0.20236365,-0.8758139,-7.3253827,9.54931,-0.20467688,-2.2600672,0.92133576,-0.067499,0
1.390000000000001,15.502162332254535,-2.100402483153516,1.0108678801653828,0.5670199109504368,17.013212,-4.3694315,-0.6037838,0.9417264,5.6435485,-6.204355,1.4497198,-0.43744338,0.00044750213,-0.19454406,-0.87794924,-7.2968965,9.602804,-0.1600974,-2.2351859,0.93525183,-0.036362976,0
1.400000000000001,14.537272802180087,-1.8174824639048017,0.5991510375347258,0.7730825434834863,15.695467,-2.9037642,-1.0729096,0.97066903,5.5707064,-6.1080627,1.4483457,-0.43658516,0.009465588,-0.18682446,-0.87999976,-7.271967,9.655535,-0.11457066,-2.2141843,0.94700086,-0.0067548007,0
1.410000000000001,14.537272802180087,-1.8174824639048017,0.5991510375347258,0.7730825434834863,15.695467,-2.9037642,-1.0729096,0.97066903,5.49809,-6.011263,1.4473865,-0.4355373,0.018261509,-0.17921607,-0.8819607,-7.251913,9.704264,-0.077187985,-2.1523411,0.8926998,0.031512037,0
1.420000000000001,14.537272802180087,-1.8174824639048017,0.5991510375347258,0.7730825434834863,15.695467,-2.9037642,-1.0729096,0.97066903,5.4256573,-5.9139795,1.4468045,-0.4343156,0.02667734,-0.1717288,-0.8838364,-7.2351017,9.752246,-0.03909897,-2.1001394,0.84687215,0.06790112,0
1.430000000000001,14.537272802180087,-1.8174824639048017,0.5991510375347258,0.7730825434834863,15.695467,-2.9037642,-1.0729096,0.97066903,5.3533773,-5.8162203,1.4466066,-0.43292388,0.03476869,-0.16434483,-0.8856399,-7.2214394,9.799444,-0.00038537942,-2.0560758,0.80819565,0.102504574,0
1.440000000000001,14.537272802180087,-1.8174824639048017,0.5991510375347258,0.7730825434834863,15.076319,-2.5954623,-1.4518129,1.0473472,5.281218,-5.7179933,1.4467987,-0.431366,0.042582754,-0.15704909,-0.8873809,-7.2108445,9.845828,0.03887812,-2.018882,0.7755545,0.13541003,0
1.450000000000001,14.537272802180087,-1.8174824639048017,0.5991510375347258,0.7730825434834863,15.076319,-2.5954623,-1.4518129,1.0473472,5.20915,-5.619306,1.4473858,-0.42964593,0.05015959,-0.14982873,-0.88906634,-7.2032485,9.891366,0.07862252,-1.9874867,0.74800664,0.1667008,0
1.460000000000001,14.537272802180087,-1.8174824639048017,0.5991510375347258,0.7730825434834863,15.076319,-2.5954623,-1.4518129,1.0473472,5.1371427,-5.5201683,1.4483725,-0.42776766,0.057533164,-0.14267297,-0.8907011,-7.198591,9.9360285,0.118783236,-1.9609864,0.7247575,0.19645612,0
1.470000000000001,14.537272802180087,-1.8174824639048017,0.5991510375347258,0.7730825434834863,15.076319,-2.5954623,-1.4518129,1.0473472,5.065168,-5.420589,1.4497626,-0.4257352,0.06473229,-0.13557261,-0.89228845,-7.1968207,9.979789,0.15929922,-1.9386175,0.7051363,0.22475135,0
1.480000000000001,14.069717153088375,-1.5725572330679727,0.2039039701621713,0.98409337571942,15.596981,-2.4397657,-3.49791,1.6089432,4.9931965,-5.3205757,1.4515593,-0.42355272,0.071781404,-0.12851995,-0.8938302,-7.197891,10.022619,0.20011227,-1.9197363,0.6885772,0.25165814,0
1.490000000000001,14.069717153088375,-1.5725572330679727,0.2039039701621713,0.98409337571942,15.596981,-2.4397657,-3.49791,1.6089432,4.921201,-5.2201457,1.4537432,-0.42122853,0.07851506,-0.12153135,-0.8953386,-7.2016277,10.063146,0.23669223,-1.8655958,0.6129578,0.28759894,0
1.500000000000001,14.069717153088375,-1.5725572330679727,0.2039039701621713,0.98409337571942,15.596981,-2.4397657,-3.49791,1.6089432,4.849155,-5.1193156,1.4562938,-0.41876775,0.08480336,-0.11462092,-0.89682955,-7.207957,10.102697,0.27346513,-1.8198972,0.5491341,0.3217761,0
1.5100000000000011,14.069717153088375,-1.5725572330679727,0.2039039701621713,0.98409337571942,15.596981,-2.4397657,-3.49791,1.6089432,4.7770333,-5.018095,1.4592131,-0.41617,0.090713345,-0.10777949,-0.89830756,-7.216764,10.141226,0.31039533,-1.781324,0.49526584,0.3542762,0
1.5200000000000011,12.951790271908932,-1.448157410120054,-0.4748649107762284,1.0890841316180764,15.1226425,-2.3605273,-3.9001122,1.7939516,4.704812,-4.9164944,1.4625022,-0.41343582,0.09630177,-0.1009991,-0.8997751,-7.2279506,10.178687,0.34744966,-1.7487655,0.4498004,0.38518152,0
1.5300000000000011,12.951790271908932,-1.448157410120054,-0.4748649107762284,1.0890841316180764,15.1226425,-2.3605273,-3.9001122,1.7939516,4.632472,-4.8145394,1.4661087,-0.41058663,0.10135035,-0.09420703,-0.9012608,-7.240348,10.212146,0.3738542,-1.7018567,0.3055727,0.4197222,0
1.5400000000000011,12.951790271908932,-1.448157410120054,-0.4748649107762284,1.0890841316180764,15.1226425,-2.3605273,-3.9001122,1.7939516,4.5599985,-4.712255,1.4699795,-0.40763754,0.105688535,-0.087346554,-0.90279096,-7.254695,10.244481,0.4003458,-1.6622634,0.18383902,0.452568,0
1.5500000000000012,12.951790271908932,-1.448157410120054,-0.4748649107762284,1.0890841316180764,15.1226425,-2.3605273,-3.9001122,1.7939516,4.4873724,-4.609654,1.4741158,-0.40458143,0.10942504,-0.08043253,-0.90436167,-7.2708397,10.275596,0.4269285,-1.6288452,0.08109131,0.48380202,0
1.5600000000000012,12.00013912616429,-1.4441825817070852,-1.1044640152381144,1.1445894244974282,15.065268,-2.625785,-4.273651,2.472978,4.4145765,-4.5067477,1.4785185,-0.40141317,0.11265176,-0.07347709,-0.9059677,-7.28865,10.305405,0.45360348,-1.6006397,-0.0056319684,0.5135034,0
1.5700000000000012,12.00013912616429,-1.4441825817070852,-1.1044640152381144,1.1445894244974282,15.065268,-2.625785,-4.273651,2.472978,4.341602,-4.4035606,1.4831425,-0.39814118,0.11521682,-0.06639156,-0.9076344,-7.306581,10.331737,0.4711979,-1.5761797,-0.17701791,0.5444709,0
1.5800000000000012,12.00013912616429,-1.4441825817070852,-1.1044640152381144,1.1445894244974282,15.065268,-2.625785,-4.273651,2.472978,4.2684407,-4.300117,1.4879428,-0.39476952,0.117003456,-0.0591069,-0.90938044,-7.32579,10.35666,0.48889887,-1.5555375,-0.3216753,0.5739189,0
1.5900000000000012,12.00013912616429,-1.4441825817070852,-1.1044640152381144,1.1445894244974282,15.065268,-2.625785,-4.273651,2.472978,4.195082,-4.1964326,1.4929209,-0.39128968,0.11813069,-0.05165842,-0.91119045,-7.3461285,10.380056,0.5067257,-1.5381181,-0.44377214,0.6019218,0
1.6000000000000012,12.120931403186374,-1.6772909268335725,-1.2869131477426488,1.2536652220002826,13.823502,-2.6048727,-3.8561945,1.6449016,4.121515,-4.0925217,1.4980779,-0.3876954,0.11869915,-0.044075478,-0.91304946,-7.3674674,10.401821,0.5246903,-1.523419,-0.5468274,0.62855065,0
1.6100000000000012,12.120931403186374,-1.6772909268335725,-1.2869131477426488,1.2536652220002826,13.823502,-2.6048727,-3.8561945,1.6449016,4.0477285,-3.988401,1.5034211,-0.3839617,0.118762575,-0.036270656,-0.9149603,-7.389919,10.422064,0.5439683,-1.547355,-0.6622841,0.65922517,0
1.6200000000000012,12.120931403186374,-1.6772909268335725,-1.2869131477426488,1.2536652220002826,13.823502,-2.6048727,-3.8561945,1.6449016,3.9737134,-3.8840868,1.5089577,-0.38006607,0.118367285,-0.028175933,-0.9169211,-7.413172,10.440448,0.5633957,-1.5675623,-0.75973314,0.6883945,0
1.6300000000000012,12.120931403186374,-1.6772909268335725,-1.2869131477426488,1.2536652220002826,13.823502,-2.6048727,-3.8561945,1.6449016,3.8994625,-3.7795985,1.5146894,-0.37600845,0.11758197,-0.019839948,-0.91891116,-7.4371433,10.456862,0.5829701,-1.5846226,-0.8419829,0.7161325,0
1.6400000000000012,12.120931403186374,-1.6772909268335725,-1.2869131477426488,1.2536652220002826,12.686432,-2.6938996,-4.0102167,1.5194428,3.8249683,-3.6749563,1.5206175,-0.3717898,0.11646488,-0.011303614,-0.9209124,-7.461757,10.471211,0.6026817,-1.5990263,-0.91140383,0.74250937,0
1.6500000000000012,12.120931403186374,-1.6772909268335725,-1.2869131477426488,1.2536652220002826,12.686432,-2.6938996,-4.0102167,1.5194428,3.750225,-3.5701814,1.5267434,-0.36741212,0.11506547,-0.0026013826,-0.9229088,-7.486943,10.483415,0.62251407,-1.6111875,-0.96999663,0.7675919,0
1.6600000000000013,12.120931403186374,-1.6772909268335725,-1.2869131477426488,1.2536652220002826,12.686432,-2.6938996,-4.0102167,1.5194428,3.6752274,-3.4652956,1.5330682,-0.36287802,0.11342572,0.006237719,-0.92488617,-7.512635,10.493405,0.6424453,-1.6214558,-1.0194501,0.79144365,0
1.6700000000000013,12.120931403186374,-1.6772909268335725,-1.2869131477426488,1.2536652220002826,12.686432,-2.6938996,-4.0102167,1.5194428,3.5999706,-3.360321,1.5395925,-0.35819066,0.11158129,0.015189213,-0.92683196,-7.538773,10.501124,0.66244906,-1.6301261,-1.0611893,0.814125,0
1.6800000000000013,12.501746776648453,-1.9378018309631326,-1.2786945087296502,1.346800004171695,12.618139,-2.9362283,-4.1800246,2.3383594,3.5244505,-3.2552812,1.5463171,-0.35335365,0.109562494,0.02423243,-0.92873526,-7.5652995,10.506523,0.68249506,-1.6374475,-1.0964178,0.83569336,0
1.6900000000000013,12.501746776648453,-1.9378018309631326,-1.2786945087296502,1.346800004171695,12.618139,-2.9362283,-4.1800246,2.3383594,3.4486594,-3.1501985,1.5532608,-0.34834877,0.10743504,0.033444382,-0.93058664,-7.593007,10.509652,0.7062612,-1.6842538,-1.1248968,0.8607735,0
1.7000000000000013,12.501746776648453,-1.9378018309631326,-1.2786945087296502,1.346800004171695,12.618139,-2.9362283,-4.1800246,2.3383594,3.3725896,-3.0450966,1.5604422,-0.34316042,0.10525181,0.042885125,-0.93237495,-7.6210346,10.51028,0.72999275,-1.723763,-1.1489304,0.88462293,0
1.7100000000000013,12.501746776648453,-1.9378018309631326,-1.2786945087296502,1.346800004171695,12.618139,-2.9362283,-4.1800246,2.3383594,3.296238,-2.9400012,1.5678604,-0.3377963,0.10301955,0.052515566,-0.9340888,-7.6493587,10.508344,0.7536419,-1.7571133,-1.1692121,0.90730214,0
1.7200000000000013,12.928612626647741,-2.202549655674476,-1.3546270309492758,1.4476132587247263,12.23848,-2.841677,-4.19685,2.3431869,3.2196016,-2.8349385,1.5755146,-0.33226365,0.10074422,0.062302493,-0.93571854,-7.6779513,10.503793,0.7771584,-1.7852648,-1.1863275,0.9288684,0
1.7300000000000013,12.928612626647741,-2.202549655674476,-1.3546270309492758,1.4476132587247263,12.23848,-2.841677,-4.19685,2.3431869,3.1426733,-2.7299356,1.5834237,-0.32654482,0.0984383,0.07232558,-0.93725485,-7.7077684,10.49633,0.80463517,-1.8503042,-1.2126437,0.9543234,0
1.7400000000000013,12.928612626647741,-2.202549655674476,-1.3546270309492758,1.4476132587247263,12.23848,-2.841677,-4.19685,2.3431869,3.0654457,-2.6250215,1.5916064,-0.32062414,0.09611139,0.08264588,-0.9386862,-7.737815,10.48604,0.8318572,-1.9052032,-1.2348502,0.9785292,0
1.7500000000000013,12.928612626647741,-2.202549655674476,-1.3546270309492758,1.4476132587247263,12.23848,-2.841677,-4.19685,2.3431869,2.9879165,-2.5202246,1.6000597,-0.314511,0.09376468,0.093211986,-0.940001,-7.7680683,10.472851,0.85875714,-1.9515435,-1.2535882,1.0015472,0
1.7600000000000013,13.178616040982243,-2.3166138510906906,-1.320062290548371,1.4609349981380684,11.880024,-3.022748,-4.24363,2.2834787,2.9100838,-2.4155746,1.6087801,-0.30821416,0.09139954,0.10398017,-0.9411894,-7.7985015,10.456702,0.88526547,-1.9906594,-1.269399,1.0234357,0
1.7700000000000014,13.178616040982243,-2.3166138510906906,-1.320062290548371,1.4609349981380684,11.880024,-3.022748,-4.24363,2.2834787,2.831943,-2.3111029,1.6177753,-0.3017376,0.08904455,0.114951715,-0.94223714,-7.8296742,10.437176,0.91371095,-2.0414686,-1.2773623,1.0449039,0
1.7800000000000014,13.178616040982243,-2.3166138510906906,-1.320062290548371,1.4609349981380684,11.880024,-3.022748,-4.24363,2.2834787,2.75349,-2.2068417,1.6270524,-0.29508543,0.086722314,0.12612538,-0.9431307,-7.860974,10.414535,0.94160485,-2.0843556,-1.2840782,1.0653186,0
1.7900000000000014,13.178616040982243,-2.3166138510906906,-1.320062290548371,1.4609349981380684,11.880024,-3.022748,-4.24363,2.2834787,2.6747234,-2.1028228,1.6366054,-0.28826576,0.084426306,0.13746311,-0.9438634,-7.892374,10.388739,0.9688658,-2.1205559,-1.2897418,1.0847316,0
1.8000000000000014,13.046648417545828,-2.193029676599553,-1.213950608979204,1.34514179283978,11.392548,-3.3457217,-3.4940321,1.6662917,2.5956423,-1.9990777,1.6464273,-0.2812863,0.08215128,0.1489323,-0.94442976,-7.9238415,10.359757,0.9954119,-2.1511123,-1.2945176,1.1031921,0
1.8100000000000014,13.046648417545828,-2.193029676599553,-1.213950608979204,1.34514179283978,11.392548,-3.3457217,-3.4940321,1.6662917,2.516248,-1.895637,1.6565045,-0.27417833,0.07991727,0.16044773,-0.94482553,-7.9550223,10.327895,1.0199221,-2.1576486,-1.2819747,1.1150646,0
1.8200000000000014,13.046648417545828,-2.193029676599553,-1.213950608979204,1.34514179283978,11.392548,-3.3457217,-3.4940321,1.6662917,2.436542,-1.7925308,1.6668226,-0.26697084,0.07774023,0.17194085,-0.9450496,-7.9861946,10.292874,1.0435702,-2.1631644,-1.2713863,1.1263546,0
1.8300000000000014,13.046648417545828,-2.193029676599553,-1.213950608979204,1.34514179283978,11.392548,-3.3457217,-3.4940321,1.6662917,2.3565245,-1.6897905,1.6773726,-0.25966722,0.07561076,0.18340814,-0.94510144,-8.017319,10.254718,1.0662843,-2.1678197,-1.262448,1.1370907,0
1.8400000000000014,13.046648417545828,-2.193029676599553,-1.213950608979204,1.34514179283978,11.001345,-2.82464,-3.1969962,1.1853497,2.2761962,-1.5874472,1.6881449,-0.2522708,0.07352097,0.19484624,-0.9449806,-8.048351,10.213447,1.0879941,-2.1717482,-1.2549021,1.1472999,0
1.8500000000000014,13.046648417545828,-2.193029676599553,-1.213950608979204,1.34514179283978,11.001345,-2.82464,-3.1969962,1.1853497,2.1955578,-1.485532,1.699129,-0.24478474,0.07146426,0.20625193,-0.94468665,-8.079247,10.169088,1.1086307,-2.1750638,-1.248532,1.157008,0
1.8600000000000014,13.046648417545828,-2.193029676599553,-1.213950608979204,1.34514179283978,11.001345,-2.82464,-3.1969962,1.1853497,2.1146116,-1.3840759,1.7103138,-0.23721224,0.0694351,0.21762212,-0.9442189,-8.1099615,10.121669,1.128126,-2.1778622,-1.2431544,1.1662399,0
1.8700000000000014,13.046648417545828,-2.193029676599553,-1.213950608979204,1.34514179283978,11.001345,-2.82464,-3.1969962,1.1853497,2.0333595,-1.2831091,1.7216874,-0.22955635,0.06742887,0.22895385,-0.9435767,-8.140445,10.071217,1.1464136,-2.180224,-1.2386143,1.1750187,0
1.8800000000000014,12.509760581649147,-1.92075209863216,-1.3102190602757389,1.1285471324573786,9.198429,-1.9617112,-2.908998,1.0491704,1.9518039,-1.1826618,1.7332377,-0.2218201,0.06544171,0.24024427,-0.9427596,-8.170648,10.017765,1.163428,-2.1822171,-1.2347814,1.1833668,0
1.8900000000000015,12.509760581649147,-1.92075209863216,-1.3102190602757389,1.1285471324573786,9.198429,-1.9617112,-2.908998,1.0491704,1.869954,-1.0827523,1.744928,-0.21402957,0.06340383,0.2513982,-0.9417908,-8.199286,9.963672,1.1744262,-2.141435,-1.2465106,1.1806769,0
1.9000000000000015,12.509760581649147,-1.92075209863216,-1.3102190602757389,1.1285471324573786,9.198429,-1.9617112,-2.908998,1.0491704,1.7878195,-0.9833979,1.7567216,-0.20620942,0.061259694,0.26234052,-0.94069237,-8.227526,9.906796,1.1841056,-2.107014,-1.256416,1.178119,0
1.9100000000000015,12.509760581649147,-1.92075209863216,-1.3102190602757389,1.1285471324573786,9.198429,-1.9617112,-2.908998,1.0491704,1.705405,-0.88462585,1.7686055,-0.19836058,0.059025384,0.2730955,-0.93946135,-8.255287,9.847205,1.1924329,-2.0779622,-1.264781,1.1756865,0
1.9200000000000015,11.50766303704075,-1.4606316158103116,-1.6497574924751626,0.783022795852696,9.668253,-0.9428892,-2.792821,0.8920502,1.6227156,-0.78646296,1.7805656,-0.19048406,0.05671437,0.2836834,-0.9380952,-8.282496,9.784958,1.1993736,-2.0534418,-1.2718451,1.1733733,0
1.9300000000000015,11.50766303704075,-1.4606316158103116,-1.6497574924751626,0.783022795852696,9.668253,-0.9428892,-2.792821,0.8920502,1.539768,-0.68890977,1.7925465,-0.18259253,0.054163862,0.29397663,-0.93664485,-8.306945,9.725313,1.196598,-1.9609649,-1.3306851,1.1542188,0
1.9400000000000015,11.50766303704075,-1.4606316158103116,-1.6497574924751626,0.783022795852696,9.668253,-0.9428892,-2.792821,0.8920502,1.4565792,-0.5919646,1.8044931,-0.17470032,0.051245186,0.3038749,-0.9351542,-8.33069,9.663368,1.1925241,-1.8829173,-1.3803635,1.1360041,0
1.9500000000000015,11.50766303704075,-1.4606316158103116,-1.6497574924751626,0.783022795852696,9.668253,-0.9428892,-2.792821,0.8920502,1.3731569,-0.49565002,1.8163925,-0.16681075,0.04801437,0.31343076,-0.933611,-8.353609,9.599209,1.187162,-1.817047,-1.422306,1.1186832,0
1.9600000000000015,10.635094970209185,-0.9604387317393541,-1.9335322164550452,0.36589900326335056,8.890448,0.14941536,-3.4756837,0.5112031,1.2895103,-0.39998776,1.8282318,-0.15892673,0.044518437,0.3226885,-0.93200433,-8.375592,9.532917,1.1805176,-1.7614539,-1.4577174,1.1022122,0
1.9700000000000015,10.635094970209185,-0.9604387317393541,-1.9335322164550452,0.36589900326335056,8.890448,0.14941536,-3.4756837,0.5112031,1.2056568,-0.30497298,1.8399642,-0.15107074,0.04064321,0.33151913,-0.93038726,-8.394948,9.469755,1.1657605,-1.636519,-1.5317922,1.066081,0
1.9800000000000015,10.635094970209185,-0.9604387317393541,-1.9335322164550452,0.36589900326335056,8.890448,0.14941536,-3.4756837,0.5112031,1.121615,-0.21059887,1.8515431,-0.14326592,0.036299318,0.3398227,-0.9288042,-8.413215,9.4047985,1.149862,-1.5310767,-1.5943357,1.031723,0
1.9900000000000015,10.635094970209185,-0.9604387317393541,-1.9335322164550452,0.36589900326335056,8.890448,0.14941536,-3.4756837,0.5112031,1.0373967,-0.116882846,1.8629575,-0.13551532,0.031556256,0.34767258,-0.92723405,-8.430268,9.338151,1.1328628,-1.4420857,-1.6471426,0.99905086,0
2.0000000000000013,,,,,9.636969,0.51728,-3.5969448,0.3166824,0.95301425,-0.023841353,1.8741965,-0.12782137,0.026472418,0.35513055,-0.9256579,-8.446004,9.269905,1.114795,-1.3669783,-1.6917285,0.9679819,0
2.010000000000001,,,,,9.636969,0.51728,-3.5969448,0.3166824,0.8684847,0.06852585,1.8852319,-0.12023901,0.021068053,0.36206564,-0.9241247,-8.459679,9.2033205,1.0921072,-1.2265558,-1.7240775,0.9199091,0
2.020000000000001,,,,,9.636969,0.51728,-3.5969448,0.3166824,0.7838255,0.16022053,1.8960356,-0.1128171,0.015360652,0.36837846,-0.92267704,-8.471924,9.135419,1.0684863,-1.1080344,-1.7514048,0.8741954,0
2.0300000000000007,,,,,9.636969,0.51728,-3.5969448,0.3166824,0.6990513,0.25123015,1.9065986,-0.10554874,0.009391554,0.37415922,-0.92129004,-8.482668,9.066321,1.0439918,-1.0079976,-1.7744886,0.83072484,0
2.0400000000000005,,,,,9.636969,0.51728,-3.5969448,0.3166824,0.61417747,0.34154323,1.9169126,-0.09842752,0.0031954874,0.37948382,-0.9199419,-8.491849,8.996134,1.0186725,-0.92356217,-1.7939876,0.7893874,0
2.0500000000000003,,,,,9.058535,1.6533118,-2.9995499,-0.2791034,0.5292198,0.4311494,1.9269694,-0.09144745,-0.003198287,0.38441604,-0.91861343,-8.499418,8.924951,0.99256754,-0.8522946,-1.8104578,0.7500784,1
2.06,,,,,9.058535,1.6533118,-2.9995499,-0.2791034,0.44419688,0.520064,1.9367367,-0.08449158,-0.010147854,0.3883566,-0.917571,-8.504888,8.858129,0.96054137,-0.49816543,-1.9590756,0.702872,1
2.07,,,,,9.058535,1.6533118,-2.9995499,-0.2791034,0.35912827,0.6083158,1.9461726,-0.077434525,-0.018018546,0.39075854,-0.917053,-8.508544,8.792425,0.92630637,-0.17395154,-2.1098702,0.655718,1
2.0799999999999996,,,,,9.058535,1.6533118,-2.9995499,-0.2791034,0.27403247,0.69591385,1.9552593,-0.07026816,-0.026769415,0.39176106,-0.9169887,-8.510314,8.727141,0.8909778,0.11100124,-2.2484963,0.60984606,1
2.0899999999999994,,,,,9.3273735,1.8511796,-2.5803096,-0.34708744,0.18892887,0.7828581,1.9639916,-0.06301278,-0.03628139,0.39154726,-0.9172802,-8.510077,8.66168,0.85548913,0.35150325,-2.3655367,0.56622505,1
2.099999999999999,,,,,9.3273735,1.8511796,-2.5803096,-0.34708744,0.10383859,0.8691379,1.9723783,-0.05576267,-0.046289135,0.39020333,-0.91787165,-8.507628,8.594288,0.82182395,0.5853191,-2.398961,0.5214086,1
2.109999999999999,,,,,9.3273735,1.8511796,-2.5803096,-0.34708744,0.01878416,0.9547446,1.9804286,-0.048594773,-0.05657612,0.38780856,-0.91871727,-8.502898,8.527099,0.7882434,0.7826716,-2.4271967,0.47879127,1
2.1199999999999988,,,,,9.3273735,1.8511796,-2.5803096,-0.34708744,-0.06621136,1.0396811,1.9881439,-0.04150814,-0.06709782,0.38450918,-0.91974276,-8.495837,8.460291,0.75484586,0.94924736,-2.4510474,0.43826514,1
2.1299999999999986,,,,,9.294691,1.9411794,-2.2016144,-0.5589051,-0.15112446,1.1239523,1.9955264,-0.034502506,-0.07781646,0.3804282,-0.9208842,-8.48641,8.394027,0.721705,1.0898468,-2.4711928,0.39972767,1
2.1399999999999983,,,,,9.294691,1.9411794,-2.2016144,-0.5589051,-0.23593156,1.2075652,2.002578,-0.027656777,-0.08857144,0.37562972,-0.92211264,-8.474638,8.328685,0.68864685,1.2225262,-2.429155,0.35268727,1
2.149999999999998,,,,,9.294691,1.9411794,-2.2016144,-0.5589051,-0.32060912,1.2905288,2.0093007,-0.021036135,-0.099234655,0.37017217,-0.9234077,-8.460507,8.2641735,0.6559477,1.3345218,-2.3936832,0.30795515,1
2.159999999999998,,,,,9.294691,1.9411794,-2.2016144,-0.5589051,-0.4051337,1.372852,2.0156987,-0.014622361,-0.10982004,0.36414346,-0.92472947,-8.444055,8.200623,0.62364423,1.4290581,-2.3637507,0.26541802,1
2.1699999999999977,,,,,6.8454385,2.4768472,-1.3767388,-1.9011102,-0.4894823,1.454545,2.0217755,-0.008400107,-0.12033896,0.35761777,-0.9260436,-8.425313,8.138148,0.59175855,1.508857,-2.3384914,0.22496825,1
2.1799999999999975,,,,,6.8454385,2.4768472,-1.3767388,-1.9011102,-0.5736358,1.5356297,2.0275242,-0.002554723,-0.13053744,0.35044348,-0.92743844,-8.405134,8.079208,0.55775636,1.6595699,-2.1884747,0.1401313,1
2.1899999999999973,,,,,6.8454385,2.4768472,-1.3767388,-1.9011102,-0.65757984,1.6161386,2.0329273,0.002750738,-0.14021948,0.34250385,-0.92898935,-8.383456,8.022965,0.5226311,1.786602,-2.0616705,0.057395436,1
