time-since-start [s],throttle_mpc,roll_mpc,pitch_mpc,yaw_mpc,throttle_nw,roll_nw,pitch_nw,yaw_nw,position_x [m],position_y [m],position_z [m],rotation_w [quaternion],rotation_x [quaternion],rotation_y [quaternion],rotation_z [quaternion],velocity_x [m/s],velocity_y [m/s],velocity_z [m/s],omega_x [rad/s],omega_y [rad/s],omega_z [rad/s],network_used
0.0,10.692674404968077,5.999999703314515,-5.9999999667496065,-5.99999832657287,7.6886044,-0.38556165,-2.8025339,-1.312909,19.701073,-9.040716,1.4638128,-0.21353997,-0.41930658,0.22965811,0.8519623,-11.232557,-7.1480403,0.046952076,1.8408781,-0.21887502,-0.5144682,0
0.01,10.692674404968077,5.999999703314515,-5.9999999667496065,-5.99999832657287,16.875305,0.39038715,-6.2259846,0.27618796,19.587946,-9.111984,1.4643244,-0.20688725,-0.42067048,0.23624687,0.85112953,-11.39202,-7.105253,0.054677814,1.7167853,-0.34798506,-0.70059377,0
0.02,10.692674404968077,5.999999703314515,-5.9999999667496065,-5.99999832657287,16.875305,0.39038715,-6.2259846,0.27618796,19.473244,-9.182816,1.4648921,-0.19953255,-0.42158908,0.24206685,0.85079557,-11.547696,-7.060516,0.058266822,1.61269,-0.4576007,-0.8821096,0
0.03,10.692674404968077,5.999999703314515,-5.9999999667496065,-5.99999832657287,16.875305,0.39038715,-6.2259846,0.27618796,19.357004,-9.253189,1.4654768,-0.19147627,-0.42216107,0.24718198,0.85089254,-11.699468,-7.0140004,0.058092225,1.5253592,-0.5506483,-1.0591298,0
0.04,10.692674404968077,5.999999703314515,-5.9999999667496065,-5.99999832657287,9.568519,-0.81166625,-4.2663856,-1.835165,19.239267,-9.32309,1.4660422,-0.18272091,-0.42246702,0.251647,0.85135704,-11.847329,-6.9658403,0.05452194,1.4530679,-0.6306026,-1.2316817,0
0.05,10.692674404968077,5.999999703314515,-5.9999999667496065,-5.99999832657287,9.568519,-0.81166625,-4.2663856,-1.835165,19.120068,-9.392499,1.4665594,-0.17324632,-0.42254388,0.2555519,0.85213614,-11.992467,-6.915745,0.04861996,1.4103079,-0.7163714,-1.3984516,0
0.060000000000000005,10.692674404968077,5.999999703314515,-5.9999999667496065,-5.99999832657287,9.568519,-0.81166625,-4.2663856,-1.835165,18.999428,-9.461397,1.4670081,-0.16299394,-0.4223691,0.2590479,0.85318923,-12.135151,-6.863652,0.04082139,1.3990349,-0.813628,-1.5592581,0
0.07,10.692674404968077,5.999999703314515,-5.9999999667496065,-5.99999832657287,9.568519,-0.81166625,-4.2663856,-1.835165,18.877373,-9.529765,1.4673698,-0.15190846,-0.4219098,0.2622725,0.85447615,-12.275177,-6.8096046,0.031238565,1.4151181,-0.92136765,-1.714464,0
0.08,13.460918603265938,5.9999999199983725,-5.99999999644386,-5.740583978381426,15.198005,0.083520316,-5.7203946,-0.92644674,18.753933,-9.597583,1.467627,-0.1399421,-0.4211296,0.26534322,0.85595524,-12.412347,-6.7536054,0.019974317,1.4549351,-1.0386041,-1.8644017,0
0.09,13.460918603265938,5.9999999199983725,-5.99999999644386,-5.740583978381426,15.198005,0.083520316,-5.7203946,-0.92644674,18.629066,-9.664802,1.4678072,-0.12686695,-0.4197833,0.26864082,0.8576242,-12.559958,-6.6897583,0.015715167,1.6261395,-1.2754987,-2.0065598,0
0.09999999999999999,13.460918603265938,5.9999999199983725,-5.99999999644386,-5.740583978381426,15.198005,0.083520316,-5.7203946,-0.92644674,18.502747,-9.731369,1.467935,-0.112478636,-0.41763702,0.2724908,0.8594632,-12.703475,-6.623643,0.009569277,1.8058362,-1.5107187,-2.1448913,0
0.10999999999999999,13.460918603265938,5.9999999199983725,-5.99999999644386,-5.740583978381426,15.198005,0.083520316,-5.7203946,-0.92644674,18.375011,-9.797264,1.4679925,-0.09677338,-0.41466632,0.2769058,0.8614002,-12.842595,-6.5549726,0.0016781136,1.9924313,-1.7442513,-2.27956,0
0.11999999999999998,13.460918603265938,5.9999999199983725,-5.99999999644386,-5.740583978381426,15.198005,0.083520316,-5.7203946,-0.92644674,18.245909,-9.862458,1.467963,-0.07975142,-0.41084236,0.28188905,0.8633581,-12.97701,-6.4834995,-0.007825084,2.184542,-1.9760499,-2.4107182,0
0.12999999999999998,17.62963411975131,5.9999999878166825,-6.0,-4.585233263358988,17.208595,0.45528206,-6.9709954,-0.9969333,18.115486,-9.926924,1.4678309,-0.061417248,-0.40613258,0.2874351,0.8652547,-13.106392,-6.4090185,-0.018814607,2.3809693,-2.2060428,-2.5385072,0
0.13999999999999999,17.62963411975131,5.9999999878166825,-6.0,-4.585233263358988,17.208595,0.45528206,-6.9709954,-0.9969333,17.983742,-9.990592,1.4676217,-0.041367795,-0.39990848,0.2941998,0.8670691,-13.241637,-6.324243,-0.023366163,2.8541234,-2.7084224,-2.6308322,0
0.15,17.62963411975131,5.9999999878166825,-6.0,-4.585233263358988,17.208595,0.45528206,-6.9709954,-0.9969333,17.850681,-10.053396,1.4673569,-0.019256089,-0.3915762,0.30271426,0.8687128,-13.369363,-6.236035,-0.02988644,3.3032978,-3.1822891,-2.7230814,0
0.16,20.999998764557855,5.999999998190185,-6.0,-3.445566429441618,17.172745,2.1613903,-7.418078,-0.21751232,17.716381,-10.115298,1.467019,0.004814804,-0.38115564,0.3127697,0.8699844,-13.489521,-6.1434283,-0.037692983,3.720312,-3.6201243,-2.8142195,0
0.17,20.999998764557855,5.999999998190185,-6.0,-3.445566429441618,17.172745,2.1613903,-7.418078,-0.21751232,17.580801,-10.176148,1.4666919,0.030514954,-0.36872876,0.32410714,0.8706682,-13.625275,-6.0253234,-0.027571887,4.0750675,-3.991997,-2.8451998,0
0.18000000000000002,20.999998764557855,5.999999998190185,-6.0,-3.445566429441618,17.172745,2.1613903,-7.418078,-0.21751232,17.443903,-10.235776,1.4664705,0.05747097,-0.35443932,0.33642936,0.8705663,-13.752602,-5.8989573,-0.016549857,4.3745966,-4.305783,-2.87466,0
0.19000000000000003,20.999998764557855,5.999999998190185,-6.0,-3.445566429441618,17.172745,2.1613903,-7.418078,-0.21751232,17.30578,-10.294099,1.4663639,0.08545932,-0.3384575,0.34943193,0.8695062,-13.870264,-5.764299,-0.0046079876,4.627499,-4.570553,-2.9026744,0
0.20000000000000004,21.0,5.999999968677332,-5.999999995539052,-2.5713727477252357,18.123966,3.248796,-8.3244,-1.1203156,17.166536,-10.351034,1.4663813,0.11427682,-0.3209377,0.36285362,0.86733925,-13.977074,-5.6215687,0.0082174875,4.841035,-4.7939625,-2.9293141,0
0.21000000000000005,21.0,5.999999968677332,-5.999999995539052,-2.5713727477252357,18.123966,3.248796,-8.3244,-1.1203156,17.026281,-10.406504,1.466531,0.14364403,-0.3019828,0.37650502,0.8639543,-14.071913,-5.4712114,0.02183965,5.021473,-4.9823303,-2.91175,0
0.22000000000000006,21.0,5.999999968677332,-5.999999995539052,-2.5713727477252357,18.123966,3.248796,-8.3244,-1.1203156,16.885143,-10.460435,1.4668205,0.17330372,-0.2816876,0.3902251,0.8592686,-14.153746,-5.313872,0.03612407,5.1738286,-5.1412683,-2.8950474,0
0.23000000000000007,21.0,5.999999968677332,-5.999999995539052,-2.5713727477252357,18.123966,3.248796,-8.3244,-1.1203156,16.743256,-10.512761,1.4672552,0.20310915,-0.26017857,0.40384385,0.85320824,-14.221637,-5.15037,0.05089196,5.3024716,-5.275375,-2.8791647,0
0.24000000000000007,21.0,5.999999968677332,-5.999999995539052,-2.5713727477252357,18.821014,3.9222765,-8.143065,-1.320148,16.600763,-10.563425,1.4678392,0.2329253,-0.23757505,0.41721466,0.84571636,-14.274769,-4.9816747,0.065925986,5.411092,-5.3885303,-2.8640614,0
0.25000000000000006,21.0,5.999999968677332,-5.999999995539052,-2.5713727477252357,18.821014,3.9222765,-8.143065,-1.320148,16.457817,-10.61238,1.4685738,0.26262766,-0.2139901,0.4302113,0.83675176,-14.312449,-4.8088837,0.080976374,5.502805,-5.484008,-2.849699,0
0.26000000000000006,21.0,5.999999968677332,-5.999999995539052,-2.5713727477252357,18.821014,3.9222765,-8.143065,-1.320148,16.314571,-10.659592,1.4694577,0.29210111,-0.1895312,0.44272488,0.8262868,-14.334121,-4.633199,0.09576687,5.5802426,-5.5645704,-2.8360415,0
0.2700000000000001,21.0,5.999999968677332,-5.999999995539052,-2.5713727477252357,18.821014,3.9222765,-8.143065,-1.320148,16.17119,-10.705038,1.4704871,0.3212389,-0.16430086,0.45466143,0.8143059,-14.339371,-4.455909,0.1100008,5.6456256,-5.6325483,-2.823054,0
0.2800000000000001,21.0,5.072810243441627,-5.999999043884449,-0.28184986288211095,18.92494,3.6082363,-7.7110333,-1.2236421,16.02784,-10.74871,1.4716547,0.34994212,-0.13839704,0.46594003,0.80080396,-14.327934,-4.278363,0.12336661,5.7008305,-5.6899076,-2.810704,0
0.2900000000000001,21.0,5.072810243441627,-5.999999043884449,-0.28184986288211095,18.92494,3.6082363,-7.7110333,-1.2236421,15.884688,-10.79061,1.4729502,0.3778481,-0.111916155,0.4762382,0.78606814,-14.299719,-4.101967,0.13556589,5.6032677,-5.737634,-2.6866124,0
0.3000000000000001,21.0,5.072810243441627,-5.999999043884449,-0.28184986288211095,18.92494,3.6082363,-7.7110333,-1.2236421,15.741902,-10.830758,1.4743614,0.40465677,-0.08494338,0.48531678,0.7703931,-14.254923,-3.9281862,0.146422,5.5209165,-5.7779803,-2.5686097,0
0.3100000000000001,21.0,5.072810243441627,-5.999999043884449,-0.28184986288211095,18.92494,3.6082363,-7.7110333,-1.2236421,15.599647,-10.869187,1.4758737,0.43036705,-0.057551548,0.49322253,0.753793,-14.1939125,-3.758455,0.15577877,5.451402,-5.8120885,-2.4563978,0
0.3200000000000001,21.0,3.6543042837375785,-3.9681967738896,1.0652270773697812,17.716093,2.0018046,-6.8144164,0.19025354,15.45808,-10.905946,1.4774714,0.4549756,-0.029808765,0.49999398,0.7362845,-14.117163,-3.5941405,0.1634535,5.3927207,-5.8409243,-2.3496919,0
0.3300000000000001,21.0,3.6543042837375785,-3.9681967738896,1.0652270773697812,17.716093,2.0018046,-6.8144164,0.19025354,15.317357,-10.9410925,1.4791363,0.47794816,-0.0025528935,0.50564355,0.7182505,-14.02533,-3.4364932,0.16924267,5.122671,-5.5478983,-2.1821208,0
0.34000000000000014,21.0,3.6543042837375785,-3.9681967738896,1.0652270773697812,17.716093,2.0018046,-6.8144164,0.19025354,15.177622,-10.9747,1.4808489,0.49890968,0.023559414,0.51026314,0.70011836,-13.919583,-3.2863762,0.17294407,4.894583,-5.30071,-2.0227728,0
0.35000000000000014,21.0,3.6543042837375785,-3.9681967738896,1.0652270773697812,17.716093,2.0018046,-6.8144164,0.19025354,15.039009,-11.006846,1.4825875,0.5180703,0.048716396,0.51397854,0.6819501,-13.801168,-3.144416,0.1743822,4.7019405,-5.092186,-1.8712437,0
0.36000000000000015,21.0,2.239779435614112,-1.2640406067911614,1.3631914615059422,16.549433,0.7628859,-4.0463667,0.9887672,14.901639,-11.037617,1.4843284,0.5356087,0.07307767,0.5168864,0.6637856,-13.6712265,-3.0111265,0.17340355,4.539239,-4.916275,-1.7271503,0
0.37000000000000016,21.0,2.239779435614112,-1.2640406067911614,1.3631914615059422,16.549433,0.7628859,-4.0463667,0.9887672,14.76562,-11.0671,1.4860468,0.5511517,0.0957806,0.51928526,0.6460654,-13.530876,-2.8868468,0.16986515,4.181713,-4.3458934,-1.5755064,0
0.38000000000000017,21.0,2.239779435614112,-1.2640406067911614,1.3631914615059422,16.549433,0.7628859,-4.0463667,0.9887672,14.631052,-11.095385,1.4877164,0.56447375,0.11617292,0.5214874,0.62922484,-13.38153,-2.7713218,0.16362204,3.8797293,-3.8646035,-1.4313037,0
0.3900000000000002,21.0,2.239779435614112,-1.2640406067911614,1.3631914615059422,16.549433,0.7628859,-4.0463667,0.9887672,14.498015,-11.122556,1.4893095,0.5759059,0.13466145,0.52356213,0.61325455,-13.224493,-2.6640818,0.1545681,3.6246696,-3.458484,-1.294177,0
0.4000000000000002,20.99999992009316,0.5127661715428623,1.4540870247635502,1.1921225408736653,15.871076,0.43332574,-1.2841415,0.5456317,14.366584,-11.148694,1.4907978,0.5857207,0.15158825,0.5255499,0.59812146,-13.060836,-2.5646653,0.14263438,3.409252,-3.1157892,-1.1637793,0
0.4100000000000002,20.99999992009316,0.5127661715428623,1.4540870247635502,1.1921225408736653,15.871076,0.43332574,-1.2841415,0.5456317,14.236819,-11.173875,1.4921521,0.593702,0.1661792,0.5277151,0.5843107,-12.8914995,-2.4725344,0.12778427,2.9582713,-2.4025524,-1.0481745,0
0.4200000000000002,20.99999992009316,0.5127661715428623,1.4540870247635502,1.1921225408736653,15.871076,0.43332574,-1.2841415,0.5456317,14.108771,-11.198167,1.4933435,0.5997318,0.17785278,0.53031117,0.5722413,-12.717575,-2.3865871,0.110052064,2.5774384,-1.8006653,-0.9382425,0
0.4300000000000002,20.99999992009316,0.5127661715428623,1.4540870247635502,1.1921225408736653,15.871076,0.43332574,-1.2841415,0.5456317,13.982481,-11.221623,1.4943435,0.6041342,0.18712674,0.5333237,0.5617572,-12.540016,-2.305626,0.089506716,2.2558541,-1.2927369,-0.8337048,0
0.4400000000000002,20.99999992009316,0.5127661715428623,1.4540870247635502,1.1921225408736653,15.588904,-0.5385518,1.7265303,0.32353252,13.857982,-11.244291,1.4951242,0.6071667,0.19443062,0.5367195,0.55270004,-12.359552,-2.2285988,0.06622094,1.984311,-0.86409444,-0.7342969,0
0.45000000000000023,20.99999992009316,0.5127661715428623,1.4540870247635502,1.1921225408736653,15.588904,-0.5385518,1.7265303,0.32353252,13.735298,-11.266206,1.4956588,0.60903543,0.20012039,0.54045606,0.5449171,-12.176749,-2.1545901,0.04026298,1.7550296,-0.5023568,-0.63976693,0
0.46000000000000024,20.99999992009316,0.5127661715428623,1.4540870247635502,1.1921225408736653,15.588904,-0.5385518,1.7265303,0.32353252,13.614453,-11.287391,1.4959207,0.60990703,0.20449096,0.54448736,0.5382658,-11.992054,-2.0828116,0.011692606,1.5614389,-0.19707792,-0.54987556,0
0.47000000000000025,20.99999992009316,0.5127661715428623,1.4540870247635502,1.1921225408736653,15.588904,-0.5385518,1.7265303,0.32353252,13.495462,-11.307868,1.4958838,0.6099174,0.20778659,0.5487675,0.5326157,-11.8058195,-2.0125875,-0.01944031,1.3979888,0.06055733,-0.46439523,0
0.48000000000000026,20.99999972597515,-1.321770582142647,3.6062830655819123,1.0874819619197293,17.249912,-1.5331385,2.5362463,0.9824124,13.378342,-11.327647,1.4955231,0.6091781,0.21020955,0.55325305,0.5278492,-11.618333,-1.9433415,-0.05309557,1.2599906,0.2779864,-0.38310942,0
0.49000000000000027,20.99999972597515,-1.321770582142647,3.6062830655819123,1.0874819619197293,17.249912,-1.5331385,2.5362463,0.9824124,13.2631,-11.346737,1.4948134,0.6074664,0.21102013,0.55804545,0.5244428,-11.429871,-1.8744888,-0.08922068,0.8574597,0.7971742,-0.31094706,0
0.5000000000000002,20.99999972597515,-1.321770582142647,3.6062830655819123,1.0874819619197293,17.249912,-1.5331385,2.5362463,0.9824124,13.149746,-11.365135,1.4937308,0.6046049,0.20964132,0.5632214,0.52276665,-11.240904,-1.8049855,-0.12765296,0.5176445,1.2353462,-0.24232572,0
0.5100000000000002,20.99999972597515,-1.321770582142647,3.6062830655819123,1.0874819619197293,17.249912,-1.5331385,2.5362463,0.9824124,13.038281,-11.382832,1.4922532,0.6007326,0.20644207,0.56870174,0.5225707,-11.051916,-1.7337625,-0.16822097,0.2307798,1.6051481,-0.17707169,0
0.5200000000000002,20.999999730360457,-3.1973075099234527,5.028359610338081,1.0203820957745335,18.619303,-3.0356345,3.736707,0.90769655,12.928706,-11.399802,1.4903597,0.5959591,0.20172817,0.5744105,0.52363235,-10.863334,-1.659924,-0.21079022,-0.011380468,1.9172518,-0.11501967,0
0.5300000000000002,20.999999730360457,-3.1973075099234527,5.028359610338081,1.0203820957745335,18.619303,-3.0356345,3.736707,0.90769655,12.821012,-11.416019,1.488031,0.590196,0.19500363,0.5802211,0.5262941,-10.67559,-1.582654,-0.25522465,-0.5082737,2.4024472,-0.05930519,0
0.5400000000000003,20.999999730360457,-3.1973075099234527,5.028359610338081,1.0203820957745335,18.619303,-3.0356345,3.736707,0.90769655,12.715188,-11.431441,1.4852499,0.5833518,0.18588342,0.58600503,0.53079754,-10.489324,-1.5008719,-0.30122903,-0.9277075,2.8119416,-0.0063246386,0
0.5500000000000003,20.999999730360457,-3.1973075099234527,5.028359610338081,1.0203820957745335,18.619303,-3.0356345,3.736707,0.90769655,12.611217,-11.446018,1.4820021,0.575498,0.1747485,0.5916873,0.5368157,-10.30523,-1.4135599,-0.34850842,-1.2817519,3.1575506,0.044056155,0
0.5600000000000003,20.999999896952513,-4.495601046005403,5.258358700921914,0.948389180061712,19.549744,-3.4107714,4.4732165,0.34035558,12.509073,-11.459691,1.4782761,0.5666899,0.16191766,0.59719586,0.5440608,-10.123991,-1.3199072,-0.39683703,-1.5805974,3.4492447,0.091964744,0
0.5700000000000003,20.999999896952513,-4.495601046005403,5.258358700921914,0.948389180061712,19.549744,-3.4107714,4.4732165,0.34035558,12.408725,-11.472392,1.4740626,0.55700207,0.14731011,0.6022313,0.55259895,-9.946306,-1.2192631,-0.44601136,-2.0353093,3.7312927,0.13398975,0
0.5800000000000003,20.999999896952513,-4.495601046005403,5.258358700921914,0.948389180061712,19.549744,-3.4107714,4.4732165,0.34035558,12.310132,-11.48405,1.4693544,0.5464773,0.13087752,0.60653186,0.56245226,-9.773016,-1.1110129,-0.4956766,-2.419114,3.9693415,0.17395256,0
0.5900000000000003,20.999999896952513,-4.495601046005403,5.258358700921914,0.948389180061712,19.549744,-3.4107714,4.4732165,0.34035558,12.213246,-11.494584,1.4641485,0.5351156,0.11291188,0.6100852,0.57332206,-9.605003,-0.9946842,-0.54549104,-2.743067,4.1702585,0.21195439,0
0.6000000000000003,20.999999963593282,-4.776401658716658,4.469088158043167,0.7828062701585687,20.321499,-4.5043464,5.116773,0.4669469,12.1180105,-11.503915,1.458445,0.5229195,0.093661815,0.61287814,0.584947,-9.443141,-0.8699868,-0.5951969,-3.0164993,4.3398385,0.24809144,1
0.6100000000000003,20.999999963593282,-4.776401658716658,4.469088158043167,0.7828062701585687,20.321499,-4.5043464,5.116773,0.4669469,12.024334,-11.511976,1.4522378,0.5099657,0.073335566,0.61487323,0.59706587,-9.293288,-0.74110305,-0.6461774,-3.2485788,4.4609404,0.25883073,1
0.6200000000000003,20.999999963593282,-4.776401658716658,4.469088158043167,0.7828062701585687,20.321499,-4.5043464,5.116773,0.4669469,11.932119,-11.518708,1.445523,0.4963285,0.052108712,0.61604303,0.6094535,-9.151013,-0.6040516,-0.6967273,-3.4444628,4.563161,0.26904303,1
0.6300000000000003,20.999999963593282,-4.776401658716658,4.469088158043167,0.7828062701585687,20.321499,-4.5043464,5.116773,0.4669469,11.841285,-11.52403,1.4383053,0.48201278,0.030136218,0.6163908,0.62194675,-9.017081,-0.45901152,-0.7467528,-3.6097953,4.649444,0.27875423,1
0.6400000000000003,20.999999963593282,-4.776401658716658,4.469088158043167,0.7828062701585687,21.112864,-4.930351,5.487001,0.44237572,11.751746,-11.527862,1.4305899,0.46702832,0.0075534335,0.6159212,0.6344041,-8.892224,-0.30627286,-0.7962072,-3.7493415,4.722276,0.2879889,0
0.6500000000000004,20.999999963593282,-4.776401658716658,4.469088158043167,0.7828062701585687,21.112864,-4.930351,5.487001,0.44237572,11.663426,-11.530103,1.4223913,0.45152506,-0.015381517,0.6144524,0.6467896,-8.773282,-0.1408936,-0.8434182,-3.9095776,4.6826997,0.31226972,0
0.6600000000000004,20.999999963593282,-4.776401658716658,4.469088158043167,0.7828062701585687,21.112864,-4.930351,5.487001,0.44237572,11.576243,-11.530656,1.4137242,0.43562523,-0.038444716,0.61185384,0.65908086,-8.665034,0.03145539,-0.88989127,-4.0448217,4.6492987,0.33535904,0
0.6700000000000004,20.999999963593282,-4.776401658716658,4.469088158043167,0.7828062701585687,21.112864,-4.930351,5.487001,0.44237572,11.490087,-11.529453,1.4045966,0.41930705,-0.061572418,0.60820043,0.6711802,-8.568025,0.21012221,-0.9355125,-4.1589713,4.6211104,0.35731542,0
0.6800000000000004,20.999999982564063,-4.282813407269002,3.0060798001079156,0.5366705251402464,20.50902,-5.4219003,4.7059116,0.10946183,11.404843,-11.526435,1.3950173,0.40255755,-0.08470868,0.60355747,0.68300104,-8.482741,0.39441004,-0.98021466,-4.2553167,4.5973225,0.3781944,0
0.6900000000000004,20.999999982564063,-4.282813407269002,3.0060798001079156,0.5366705251402464,20.50902,-5.4219003,4.7059116,0.10946183,11.32039,-11.521548,1.3849957,0.3857671,-0.107342936,0.59789,0.6943982,-8.409568,0.5835585,-1.0239515,-4.259566,4.3491464,0.38597086,0
0.7000000000000004,20.999999982564063,-4.282813407269002,3.0060798001079156,0.5366705251402464,20.50902,-5.4219003,4.7059116,0.10946183,11.236608,-11.51475,1.374542,0.36927152,-0.12907009,0.5912155,0.705297,-8.348548,0.77666205,-1.0665979,-4.263159,4.139674,0.39336574,0
0.7100000000000004,20.999999982564063,-4.282813407269002,3.0060798001079156,0.5366705251402464,20.50902,-5.4219003,4.7059116,0.10946183,11.153376,-11.506003,1.3636678,0.35299033,-0.14998846,0.5836531,0.71571684,-8.2996025,0.97282684,-1.1080266,-4.2661967,3.9628708,0.40039775,0
0.7200000000000004,20.999999904373855,-3.28109840467343,1.2610420207440625,0.1751469689506308,20.69051,-5.8116136,3.5501962,0.017304946,11.070574,-11.495284,1.3523859,0.3368564,-0.1701823,0.57530093,0.72566855,-8.262636,1.1712211,-1.1481465,-4.268766,3.8136406,0.4070847,0
0.7300000000000004,20.999999904373855,-3.28109840467343,1.2610420207440625,0.1751469689506308,20.69051,-5.8116136,3.5501962,0.017304946,10.988083,-11.4825735,1.3407097,0.32132202,-0.18910979,0.5663014,0.735046,-8.237475,1.371052,-1.1868843,-4.114609,3.4156358,0.39570343,0
0.7400000000000004,20.999999904373855,-3.28109840467343,1.2610420207440625,0.1751469689506308,20.69051,-5.8116136,3.5501962,0.017304946,10.9057865,-11.46786,1.3286536,0.3067673,-0.20635943,0.55681485,0.7438193,-8.223523,1.5715253,-1.2241045,-3.9845147,3.07969,0.38488066,0
0.7500000000000004,20.999999904373855,-3.28109840467343,1.2610420207440625,0.1751469689506308,20.69051,-5.8116136,3.5501962,0.017304946,10.823577,-11.451143,1.3162334,0.2930395,-0.22217399,0.5469315,0.7520857,-8.220098,1.7719469,-1.259666,-3.8747275,2.7961264,0.37458897,0
0.7600000000000005,20.999999772416388,-2.0229912941264074,-0.6213219841553911,-0.21845322005630854,20.216969,-5.632934,2.489597,-0.20324774,10.741352,-11.432424,1.3034664,0.28000626,-0.23675951,0.536719,0.7599175,-8.226596,1.9717317,-1.2934523,-3.7820766,2.5567775,0.3648023,0
0.7700000000000005,20.999999772416388,-2.0229912941264074,-0.6213219841553911,-0.21845322005630854,20.216969,-5.632934,2.489597,-0.20324774,10.659013,-11.411712,1.290371,0.26811758,-0.2496064,0.52639925,0.767277,-8.242403,2.170381,-1.3253559,-3.5075915,2.0612855,0.3361818,0
0.7800000000000005,20.999999772416388,-2.0229912941264074,-0.6213219841553911,-0.21845322005630854,20.216969,-5.632934,2.489597,-0.20324774,10.576475,-11.389021,1.2769665,0.25773826,-0.26033512,0.5161801,0.7741804,-8.266497,2.367499,-1.3552015,-3.2759476,1.6430434,0.30896565,0
0.7900000000000005,20.999999772416388,-2.0229912941264074,-0.6213219841553911,-0.21845322005630854,20.216969,-5.632934,2.489597,-0.20324774,10.493658,-11.364368,1.2632747,0.2486445,-0.26928,0.50607884,0.7807362,-8.297841,2.5628026,-1.3828046,-3.0804565,1.2900082,0.28308505,0
0.8000000000000005,20.999999450063285,-0.7345670324287036,-2.201836333460665,-0.5478679108318316,16.707975,-3.4418988,0.45056367,-0.8118753,10.410496,-11.337771,1.2493188,0.24064313,-0.27672145,0.49609828,0.78702176,-8.335553,2.7560892,-1.4080033,-2.9154742,0.99201477,0.25847444,0
0.8100000000000005,20.999999450063285,-0.7345670324287036,-2.201836333460665,-0.5478679108318316,16.707975,-3.4418988,0.45056367,-0.8118753,10.326927,-11.309253,1.2351235,0.23405777,-0.28229487,0.48648036,0.79300946,-8.378807,2.9472249,-1.43065,-2.5752654,0.49405962,0.218907,0
0.8200000000000005,20.999999450063285,-0.7345670324287036,-2.201836333460665,-0.5478679108318316,16.707975,-3.4418988,0.45056367,-0.8118753,10.242904,-11.278834,1.2207153,0.22914062,-0.28573006,0.47742653,0.7986973,-8.426478,3.136202,-1.450565,-2.2881474,0.073733404,0.18128112,0
0.8300000000000005,20.999999450063285,-0.7345670324287036,-2.201836333460665,-0.5478679108318316,16.707975,-3.4418988,0.45056367,-0.8118753,10.158386,-11.246536,1.2061223,0.22564013,-0.28736797,0.4688677,0.80415785,-8.47747,3.3230762,-1.4675716,-2.0458317,-0.28106382,0.14550155,0
0.8400000000000005,20.999999450063285,-0.7345670324287036,-2.201836333460665,-0.5478679108318316,16.871527,-3.2452435,-0.569864,-0.9319959,10.073347,-11.212379,1.1913744,0.2233413,-0.2874929,0.46073556,0.809438,-8.530864,3.5079165,-1.4815173,-1.8413248,-0.5805468,0.11147773,0
0.8500000000000005,20.999999450063285,-0.7345670324287036,-2.201836333460665,-0.5478679108318316,16.871527,-3.2452435,-0.569864,-0.9319959,9.987764,-11.176385,1.176503,0.22206113,-0.28634214,0.4529658,0.8145672,-8.585882,3.6907904,-1.4922737,-1.6687256,-0.83333796,0.07912345,0
0.8600000000000005,20.999999450063285,-0.7345670324287036,-2.201836333460665,-0.5478679108318316,16.871527,-3.2452435,-0.569864,-0.9319959,9.901626,-11.13857,1.1615403,0.2216443,-0.28411442,0.44549945,0.8195632,-8.64187,3.8717568,-1.4997346,-1.5230538,-1.0467163,0.048356812,0
0.8700000000000006,20.999999450063285,-0.7345670324287036,-2.201836333460665,-0.5478679108318316,16.871527,-3.2452435,-0.569864,-0.9319959,9.814924,-11.098955,1.1465198,0.2219593,-0.28097638,0.4382837,0.8244359,-8.698272,4.050861,-1.503816,-1.4001073,-1.226826,0.019099891,0
0.8800000000000006,20.99999922065712,0.29034822370080876,-3.112553948585546,-0.8448562116339642,16.331156,-3.3977442,-0.39433032,-0.98056006,9.727661,-11.057559,1.1314758,0.22289485,-0.27706805,0.43127212,0.82919014,-8.754618,4.228132,-1.5044526,-1.2963395,-1.3788536,-0.0087213805,0
0.8900000000000006,20.99999922065712,0.29034822370080876,-3.112553948585546,-0.8448562116339642,16.331156,-3.3977442,-0.39433032,-0.98056006,9.639835,-11.014399,1.1164428,0.22465678,-0.27212864,0.42467323,0.8337438,-8.810458,4.4035983,-1.5015979,-1.0489416,-1.6491963,-0.04975076,0
0.9000000000000006,20.99999922065712,0.29034822370080876,-3.112553948585546,-0.8448562116339642,16.331156,-3.3977442,-0.39433032,-0.98056006,9.551456,-10.969492,1.1014559,0.22740206,-0.26595584,0.41864833,0.83802754,-8.865131,4.5773644,-1.4952236,-0.8401349,-1.8773911,-0.08876683,0
0.9100000000000006,20.99999922065712,0.29034822370080876,-3.112553948585546,-0.8448562116339642,16.331156,-3.3977442,-0.39433032,-0.98056006,9.462539,-10.922856,1.0865505,0.23097783,-0.2587366,0.41309452,0.84205604,-8.917975,4.7495303,-1.4853187,-0.6638977,-2.0700078,-0.12586835,0
0.9200000000000006,20.99999830911101,0.9965467162781942,-3.6032228744088592,-1.001799467650305,16.03125,-2.9496722,-1.3370469,-1.0730942,9.373105,-10.874506,1.0717617,0.23525456,-0.2506283,0.4079228,0.84583724,-8.9684305,4.920156,-1.4718863,-0.5151482,-2.2325923,-0.1611493,0
0.9300000000000006,20.99999830911101,0.9965467162781942,-3.6032228744088592,-1.001799467650305,16.03125,-2.9496722,-1.3370469,-1.0730942,9.28318,-10.824458,1.0571249,0.24028853,-0.24153809,0.40324447,0.84930295,-9.015987,5.0892806,-1.454949,-0.27948818,-2.4463584,-0.20240024,0
0.9400000000000006,20.99999830911101,0.9965467162781942,-3.6032228744088592,-1.001799467650305,16.03125,-2.9496722,-1.3370469,-1.0730942,9.192798,-10.772727,1.0426747,0.24611533,-0.23139684,0.39914033,0.85239106,-9.0600395,5.2569685,-1.4345663,-0.08058186,-2.6267946,-0.241627,0
0.9500000000000006,20.99999830911101,0.9965467162781942,-3.6032228744088592,-1.001799467650305,16.03125,-2.9496722,-1.3370469,-1.0730942,9.101994,-10.719325,1.0284451,0.2526056,-0.2203593,0.39549807,0.8551107,-9.100009,5.42326,-1.4108179,0.087304264,-2.7790964,-0.27892888,0
0.9600000000000006,20.99997285443836,1.3426521733270265,-3.7299239812518548,-1.104755340449575,16.77112,-2.5241108,-1.7437217,-0.6897647,9.010814,-10.664268,1.0144696,0.25964963,-0.2085568,0.39222196,0.8574666,-9.135405,5.588151,-1.3837962,0.22900984,-2.9076493,-0.31440035,0
0.9700000000000006,20.99997285443836,1.3426521733270265,-3.7299239812518548,-1.104755340449575,16.77112,-2.5241108,-1.7437217,-0.6897647,8.919304,-10.607568,1.0007802,0.26721314,-0.19602625,0.38933355,0.8594132,-9.165798,5.751601,-1.3536103,0.40257895,-3.035928,-0.35318327,0
0.9800000000000006,20.99997285443836,1.3426521733270265,-3.7299239812518548,-1.104755340449575,16.77112,-2.5241108,-1.7437217,-0.6897647,8.827517,-10.549241,0.9874078,0.27526227,-0.18280263,0.38684413,0.8609102,-9.190757,5.9135675,-1.3204072,0.54908264,-3.1442027,-0.39006314,0
0.9900000000000007,20.99997285443836,1.3426521733270265,-3.7299239812518548,-1.104755340449575,16.77112,-2.5241108,-1.7437217,-0.6897647,8.735508,-10.489303,0.97438186,0.28371117,-0.16898732,0.38466498,0.8619657,-9.209894,6.07398,-1.2843512,0.6727423,-3.2355921,-0.42513326,0
1.0000000000000007,20.31726592218888,1.266584927403047,-3.4279824330915063,-1.1094513372031367,16.765562,-1.597783,-1.698606,-0.68050754,8.643339,-10.427768,0.96173,0.29248682,-0.15466739,0.38272136,0.862586,-9.222886,6.232733,-1.2456127,0.7771211,-3.3127284,-0.4584825,0
1.0100000000000007,20.31726592218888,1.266584927403047,-3.4279824330915063,-1.1094513372031367,16.765562,-1.597783,-1.698606,-0.68050754,8.551074,-10.364679,0.9494556,0.301477,-0.1400315,0.3809602,0.86277056,-9.229257,6.38459,-1.208902,0.85337806,-3.3307424,-0.49042574,0
1.0200000000000007,20.31726592218888,1.266584927403047,-3.4279824330915063,-1.1094513372031367,16.765562,-1.597783,-1.698606,-0.68050754,8.4587755,-10.300082,0.93755966,0.3105915,-0.12523563,0.37934,0.86252594,-9.229285,6.534581,-1.169969,0.9177464,-3.3459454,-0.5208015,0
1.0300000000000007,20.31726592218888,1.266584927403047,-3.4279824330915063,-1.1094513372031367,16.765562,-1.597783,-1.698606,-0.68050754,8.366509,-10.2339945,0.92606324,0.3198019,-0.110305235,0.3778182,0.8618664,-9.222877,6.682562,-1.1290153,0.97208005,-3.3587759,-0.54968673,0
1.0400000000000007,20.31726592218888,1.266584927403047,-3.4279824330915063,-1.1094513372031367,16.711807,-1.8649154,-1.478183,-0.740865,8.274341,-10.166438,0.91498566,0.32908353,-0.09526281,0.37635908,0.86080414,-9.209962,6.8283763,-1.0862373,1.0179437,-3.3696032,-0.5771546,0
1.0500000000000007,20.31726592218888,1.266584927403047,-3.4279824330915063,-1.1094513372031367,16.711807,-1.8649154,-1.478183,-0.740865,8.182333,-10.097435,0.90434414,0.3384147,-0.080128275,0.3749327,0.8593493,-9.190493,6.9718575,-1.0418271,1.056658,-3.3787398,-0.6032745,0
1.0600000000000007,20.31726592218888,1.266584927403047,-3.4279824330915063,-1.1094513372031367,16.711807,-1.8649154,-1.478183,-0.740865,8.090552,-10.027009,0.8941541,0.34777635,-0.064919345,0.37351412,0.85751104,-9.164446,7.112832,-0.99597293,1.0893383,-3.3864496,-0.6281128,0
1.0700000000000007,20.31726592218888,1.266584927403047,-3.4279824330915063,-1.1094513372031367,16.711807,-1.8649154,-1.478183,-0.740865,7.9990664,-9.955187,0.8844291,0.35715148,-0.04965184,0.3720824,0.8552971,-9.131814,7.251119,-0.94885975,1.116925,-3.392955,-0.6517322,0
1.0800000000000007,19.48182669992637,0.79037307096155,-2.5394654915210446,-0.9612763147259411,16.10298,-1.9846551,-0.819157,-0.66453743,7.907939,-9.881997,0.8751807,0.36652488,-0.03433996,0.3706202,0.85271436,-9.09261,7.3865347,-0.90067,1.140212,-3.3984442,-0.67419267,0
1.0900000000000007,19.48182669992637,0.79037307096155,-2.5394654915210446,-0.9612763147259411,16.10298,-1.9846551,-0.819157,-0.66453743,7.8172274,-9.807495,0.86638856,0.3757318,-0.019363156,0.3690846,0.84984004,-9.048777,7.51346,-0.8576354,1.0856835,-3.264473,-0.6882799,0
1.1000000000000008,19.48182669992637,0.79037307096155,-2.5394654915210446,-0.9612763147259411,16.10298,-1.9846551,-0.819157,-0.66453743,7.726984,-9.731738,0.8580304,0.38464892,-0.0050235847,0.36745214,0.8467584,-8.99896,7.6373663,-0.813903,1.0396531,-3.151397,-0.7016759,0
1.1100000000000008,19.48182669992637,0.79037307096155,-2.5394654915210446,-0.9612763147259411,16.10298,-1.9846551,-0.819157,-0.66453743,7.6372676,-9.6547575,0.85011244,0.39331836,0.008771639,0.36573413,0.84348285,-8.943457,7.7581835,-0.7696173,1.0007961,-3.0559573,-0.7144146,0
1.1200000000000008,18.5279008662707,0.004061835826163028,-1.474414009120117,-0.7026117763863585,15.869269,-2.3406634,-0.29302055,-0.43013462,7.5481334,-9.576585,0.8426395,0.4017743,0.022101223,0.36393914,0.84002274,-8.882528,7.875845,-0.72490716,0.9679946,-2.975403,-0.7265282,0
1.1300000000000008,18.5279008662707,0.004061835826163028,-1.474414009120117,-0.7026117763863585,15.869269,-2.3406634,-0.29302055,-0.43013462,7.4596186,-9.49728,0.83558035,0.4098732,0.034558687,0.36198315,0.83652776,-8.819687,7.9846964,-0.686889,0.8177825,-2.7412531,-0.7253546,0
1.1400000000000008,18.5279008662707,0.004061835826163028,-1.474414009120117,-0.7026117763863585,15.869269,-2.3406634,-0.29302055,-0.43013462,7.371754,-9.416902,0.82890266,0.41751143,0.045826655,0.35981098,0.8331393,-8.752413,8.090539,-0.6486144,0.6909786,-2.54363,-0.72423863,0
1.1500000000000008,18.5279008662707,0.004061835826163028,-1.474414009120117,-0.7026117763863585,15.869269,-2.3406634,-0.29302055,-0.43013462,7.284583,-9.33548,0.82260895,0.4247664,0.05608724,0.35746437,0.8298481,-8.68118,8.19344,-0.61009854,0.58393455,-2.3768356,-0.7231774,0
1.1600000000000008,17.540464345966814,-0.8956336881155519,-0.5136647713090852,-0.30013278189291576,15.698247,-3.048264,0.49708623,0.01603542,7.198143,-9.253043,0.8167015,0.43170083,0.065494776,0.35497612,0.82664245,-8.60639,8.293467,-0.57134795,0.49357146,-2.2360604,-0.7221682,0
1.1700000000000008,17.540464345966814,-0.8956336881155519,-0.5136647713090852,-0.30013278189291576,15.698247,-3.048264,0.49708623,0.01603542,7.112446,-9.169647,0.8111462,0.4382148,0.07372409,0.3522396,0.8236873,-8.532578,8.3855095,-0.5396579,0.27707887,-1.9673479,-0.7014588,0
1.1800000000000008,17.540464345966814,-0.8956336881155519,-0.5136647713090852,-0.30013278189291576,15.698247,-3.048264,0.49708623,0.01603542,7.027499,-9.085342,0.80590934,0.44423434,0.08052639,0.3491772,0.82112586,-8.456277,8.475041,-0.5076494,0.09432108,-1.7405618,-0.6817657,0
1.1900000000000008,17.540464345966814,-0.8956336881155519,-0.5136647713090852,-0.30013278189291576,15.698247,-3.048264,0.49708623,0.01603542,6.9433265,-9.0001545,0.8009947,0.449839,0.08612521,0.34584907,0.81891197,-8.377992,8.562214,-0.47521767,-0.059957895,-1.54916,-0.66303885,0
1.2000000000000008,16.647033246277427,-1.711241728010941,0.2199036102970215,0.1715533230976732,15.293308,-4.4369545,1.4419351,1.3532895,6.8599443,-8.914107,0.79640687,0.45509315,0.090709336,0.34230295,0.8170017,-8.298146,8.647167,-0.44226804,-0.19019508,-1.3876213,-0.64523095,0
1.2100000000000009,16.647033246277427,-1.711241728010941,0.2199036102970215,0.1715533230976732,15.293308,-4.4369545,1.4419351,1.3532895,6.777346,-8.827241,0.7921179,0.4599317,0.094069324,0.3384398,0.8155202,-8.221255,8.725816,-0.41541097,-0.42726612,-1.1368397,-0.6051511,0
1.2200000000000009,16.647033246277427,-1.711241728010941,0.2199036102970215,0.1715533230976732,15.293308,-4.4369545,1.4419351,1.3532895,6.6955214,-8.739596,0.7881011,0.46430132,0.09604892,0.3341834,0.81456816,-8.143725,8.802651,-0.3878233,-0.6273948,-0.9251929,-0.567038,0
1.2300000000000009,16.647033246277427,-1.711241728010941,0.2199036102970215,0.1715533230976732,15.293308,-4.4369545,1.4419351,1.3532895,6.6144724,-8.651194,0.7843644,0.468264,0.096866496,0.3295978,0.81407124,-8.066013,8.877842,-0.35935593,-0.7963365,-0.7465719,-0.53079504,0
1.2400000000000009,16.647033246277427,-1.711241728010941,0.2199036102970215,0.1715533230976732,15.505868,-4.45337,1.4497063,2.0145133,6.5342,-8.562045,0.78091735,0.4718698,0.09670608,0.3247348,0.8139626,-7.9885035,8.95153,-0.32988498,-0.9389498,-0.5958222,-0.4963306,0
1.2500000000000009,16.647033246277427,-1.711241728010941,0.2199036102970215,0.1715533230976732,15.505868,-4.45337,1.4497063,2.0145133,6.454701,-8.472167,0.77777046,0.47515938,0.09572276,0.31963658,0.81418306,-7.911524,9.023843,-0.29931003,-1.059337,-0.46859372,-0.46355733,0
1.260000000000001,16.647033246277427,-1.711241728010941,0.2199036102970215,0.1715533230976732,15.505868,-4.45337,1.4497063,2.0145133,6.3759675,-8.381572,0.7749352,0.4781662,0.09404725,0.31433773,0.8146809,-7.8353515,9.094883,-0.2675516,-1.1609612,-0.3612159,-0.43239224,0
1.270000000000001,16.647033246277427,-1.711241728010941,0.2199036102970215,0.1715533230976732,15.505868,-4.45337,1.4497063,2.0145133,6.297991,-8.290273,0.7724237,0.48091796,0.09178974,0.30886677,0.81541085,-7.7602253,9.1647415,-0.23454867,-1.2467461,-0.27059045,-0.40275645,0
1.280000000000001,16.50995281476489,-2.376483668129565,0.9487349852223748,0.6698072186695617,15.872932,-4.5121922,1.3673291,2.625813,6.220759,-8.19828,0.77024865,0.48343778,0.089043126,0.30324742,0.816334,-7.686349,9.233492,-0.2002564,-1.3191602,-0.19410332,-0.3745749,0
1.290000000000001,16.50995281476489,-2.376483668129565,0.9487349852223748,0.6698072186695617,15.872932,-4.5121922,1.3673291,2.625813,6.144256,-8.10561,0.7684176,0.48562986,0.08553712,0.29741752,0.8175518,-7.6145205,9.300651,-0.16573703,-1.484005,-0.015887417,-0.32332674,0
1.300000000000001,16.50995281476489,-2.376483668129565,0.9487349852223748,0.6698072186695617,15.872932,-4.5121922,1.3673291,2.625813,6.068463,-8.012272,0.7669386,0.48741055,0.08106218,0.29132715,0.8191395,-7.5444517,9.366906,-0.12983018,-1.6231589,0.13452286,-0.27459335,0
1.310000000000001,16.50995281476489,-2.376483668129565,0.9487349852223748,0.6698072186695617,15.872932,-4.5121922,1.3673291,2.625813,5.9933596,-7.9182744,0.7658259,0.4888136,0.07577232,0.28501055,0.82102984,-7.476468,9.432383,-0.09247409,-1.7406243,0.26146737,-0.22825135,0
1.320000000000001,16.026772829001835,-2.8645923653216174,1.273071537446077,1.0887983141528588,15.737546,-4.526289,1.3732097,3.1620214,5.9189243,-7.823626,0.7650942,0.48986715,0.069797456,0.27849615,0.82316446,-7.4108524,9.497178,-0.05363158,-1.8397807,0.36860836,-0.18418336,0
1.330000000000001,16.026772829001835,-2.8645923653216174,1.273071537446077,1.0887983141528588,15.737546,-4.526289,1.3732097,3.1620214,5.8451242,-7.728342,0.76473826,0.49052882,0.06305877,0.27170673,0.82557976,-7.349707,9.559494,-0.017332911,-1.999603,0.50959694,-0.12171779,0
1.340000000000001,16.026772829001835,-2.8645923653216174,1.273071537446077,1.0887983141528588,15.737546,-4.526289,1.3732097,3.1620214,5.771921,-7.6324377,0.76475275,0.49075684,0.05550021,0.26458025,0.82829714,-7.291421,9.621299,0.020462867,-2.1345122,0.62858886,-0.062317412,0
1.350000000000001,16.026772829001835,-2.8645923653216174,1.273071537446077,1.0887983141528588,15.737546,-4.526289,1.3732097,3.1620214,5.699285,-7.5359173,0.76515275,0.49057385,0.047253616,0.25715965,0.83124894,-7.236294,9.6826515,0.05977305,-2.2483902,0.7290175,-0.0058318237,0
1.360000000000001,15.36809553934838,-3.1293117644594637,1.0457575733139233,1.395540818450153,15.377167,-3.874328,-0.3874486,3.6227171,5.6271834,-7.4387856,0.76595336,0.48999944,0.038430378,0.24948134,0.8343766,-7.184585,9.743588,0.10058882,-2.3445144,0.81378084,0.047881998,0
1.370000000000001,15.36809553934838,-3.1293117644594637,1.0457575733139233,1.395540818450153,15.377167,-3.874328,-0.3874486,3.6227171,5.5555706,-7.3410587,0.7671408,0.48904508,0.029158173,0.24144213,0.8376706,-7.1385007,9.801633,0.13711347,-2.4669406,0.8498477,0.114012,0
1.380000000000001,15.36809553934838,-3.1293117644594637,1.0457575733139233,1.395540818450153,15.377167,-3.874328,-0.3874486,3.6227171,5.4844003,-7.242754,0.7687005,0.48771375,0.019544547,0.23296185,0.8411206,-7.096122,9.859239,0.17503615,-2.5702753,0.8802869,0.176897,0
1.390000000000001,15.36809553934838,-3.1293117644594637,1.0457575733139233,1.395540818450153,15.377167,-3.874328,-0.3874486,3.6227171,5.4136343,-7.143876,0.7706462,0.4860109,0.009649201,0.22410099,0.8446779,-7.057632,9.916332,0.21432327,-2.6574948,0.9059784,0.23669618,0
1.400000000000001,14.732086930160412,-3.181249504671767,0.40515749727885997,1.595664341390123,18.553358,-4.760443,-1.8011754,5.183434,5.3432336,-7.0444293,0.7729915,0.48394287,-0.0004774758,0.21491145,0.8483005,-7.0231915,9.97284,0.2549209,-2.7311125,0.92766446,0.29356104,0
1.410000000000001,14.732086930160412,-3.181249504671767,0.40515749727885997,1.595664341390123,18.553358,-4.760443,-1.8011754,5.183434,5.27315,-6.9444327,0.77572006,0.48154995,-0.010579899,0.20529667,0.8519698,-6.994183,10.02636,0.29097083,-2.8013308,0.8460498,0.35745567,0
1.420000000000001,14.732086930160412,-3.181249504671767,0.40515749727885997,1.595664341390123,18.553358,-4.760443,-1.8011754,5.183434,5.2033362,-6.843905,0.77881485,0.47886083,-0.020451788,0.19518465,0.8556743,-6.9692416,10.079058,0.32815894,-2.860594,0.7771659,0.41821492,0
1.430000000000001,14.732086930160412,-3.181249504671767,0.40515749727885997,1.595664341390123,18.553358,-4.760443,-1.8011754,5.183434,5.1337514,-6.742855,0.78228694,0.47586733,-0.030120708,0.18464999,0.8593887,-6.948402,10.130747,0.36642548,-2.9106116,0.7190282,0.4759927,0
1.440000000000001,14.732086930160412,-3.181249504671767,0.40515749727885997,1.595664341390123,19.545097,-4.9901547,-2.9659097,5.049553,5.064354,-6.641294,0.78614676,0.47256473,-0.039610356,0.17375632,0.86308974,-6.931691,10.181258,0.4056979,-2.9528263,0.66996145,0.53093535,0
1.450000000000001,14.732086930160412,-3.181249504671767,0.40515749727885997,1.595664341390123,19.545097,-4.9901547,-2.9659097,5.049553,4.9951034,-6.539234,0.790404,0.4689509,-0.048941083,0.16255799,0.86675614,-6.919129,10.230436,0.445893,-2.988456,0.6285514,0.583182,0
1.460000000000001,14.732086930160412,-3.181249504671767,0.40515749727885997,1.595664341390123,19.545097,-4.9901547,-2.9659097,5.049553,4.925957,-6.43669,0.7950675,0.46502605,-0.058130346,0.15110147,0.8703686,-6.910729,10.278137,0.48691836,-3.018528,0.5936042,0.63286483,0
1.470000000000001,14.732086930160412,-3.181249504671767,0.40515749727885997,1.595664341390123,19.545097,-4.9901547,-2.9659097,5.049553,4.8568745,-6.3336763,0.80014485,0.460792,-0.0671931,0.13942662,0.87390935,-6.906496,10.324227,0.52867407,-3.0439095,0.5641117,0.6801097,0
1.480000000000001,14.4665431826496,-2.8711572672487495,0.16839300788061032,1.613596169080393,18.579672,-4.942444,-3.973743,4.998712,4.787813,-6.230211,0.805643,0.45625207,-0.07614211,0.1275677,0.8773622,-6.9064293,10.368582,0.57105374,-3.0653324,0.5392236,0.72503626,0
1.490000000000001,14.4665431826496,-2.8711572672487495,0.16839300788061032,1.613596169080393,18.579672,-4.942444,-3.973743,4.998712,4.7187324,-6.126315,0.8115549,0.45143086,-0.08484846,0.11562053,0.8807067,-6.9104376,10.410316,0.61140496,-3.0350373,0.48132074,0.7686382,0
1.500000000000001,14.4665431826496,-2.8711572672487495,0.16839300788061032,1.613596169080393,18.579672,-4.942444,-3.973743,4.998712,4.649591,-6.0220113,0.8178724,0.44635177,-0.09321148,0.103664815,0.8839326,-6.918439,10.45012,0.6521508,-3.0094676,0.4324512,0.8101005,0
1.5100000000000011,14.4665431826496,-2.8711572672487495,0.16839300788061032,1.613596169080393,18.579672,-4.942444,-3.973743,4.998712,4.5803504,-5.9173193,0.8245989,0.4410178,-0.10127927,0.091705844,0.8870385,-6.930337,10.487894,0.6931846,-2.9878867,0.39120606,0.84952825,0
1.5200000000000011,14.14519531024007,-2.421876924893719,-0.32763970012337434,1.566986153008631,19.11045,-5.0407825,-4.8012233,4.9526377,4.5109715,-5.81226,0.83173674,0.43543267,-0.10909254,0.0797482,0.89002186,-6.9460425,10.523543,0.7344012,-2.9696722,0.3563961,0.88702136,0
1.5300000000000011,14.14519531024007,-2.421876924893719,-0.32763970012337434,1.566986153008631,19.11045,-5.0407825,-4.8012233,4.9526377,4.441419,-5.7068596,0.8392717,0.4296419,-0.11643158,0.06786967,0.89288676,-6.9650235,10.556236,0.77260315,-2.884188,0.24970767,0.9203874,0
1.5400000000000011,14.14519531024007,-2.421876924893719,-0.32763970012337434,1.566986153008631,19.11045,-5.0407825,-4.8012233,4.9526377,4.3716593,-5.6011434,0.8471888,0.42368582,-0.12312556,0.056134492,0.8956455,-6.987441,10.58667,0.8108064,-2.81204,0.1596556,0.95211625,0
1.5500000000000012,14.14519531024007,-2.421876924893719,-0.32763970012337434,1.566986153008631,19.11045,-5.0407825,-4.8012233,4.9526377,4.301659,-5.4951344,0.8554876,0.41756162,-0.129272,0.04452754,0.89830387,-7.013095,10.6147585,0.8489425,-2.751149,0.083645605,0.9822881,0
1.5600000000000012,13.56304457143825,-1.8410770438502388,-0.968294242552599,1.3890846137227775,19.00157,-4.5052056,-5.1474724,4.2155643,4.2313867,-5.388857,0.86416715,0.41126788,-0.13495323,0.03303559,0.9008643,-7.0418086,10.640427,0.8869461,-2.6997585,0.019488221,1.0109794,0
1.5700000000000012,13.56304457143825,-1.8410770438502388,-0.968294242552599,1.3890846137227775,19.00157,-4.5052056,-5.1474724,4.2155643,4.160819,-5.282339,0.8731979,0.40486428,-0.13991344,0.021749064,0.903348,-7.0721025,10.662647,0.9191653,-2.5657449,-0.13449878,1.0295331,0
1.5800000000000012,13.56304457143825,-1.8410770438502388,-0.968294242552599,1.3890846137227775,19.00157,-4.5052056,-5.1474724,4.2155643,4.0899363,-5.175612,0.8825498,0.398403,-0.14395535,0.010740863,0.9057803,-7.1048875,10.68241,0.95117784,-2.4526434,-0.2644813,1.0471764,0
1.5900000000000012,13.56304457143825,-1.8410770438502388,-0.968294242552599,1.3890846137227775,19.00157,-4.5052056,-5.1474724,4.2155643,4.018714,-5.0686994,0.89222074,0.39187357,-0.1472216,-2.4067238e-05,0.90816426,-7.139888,10.699653,0.98297155,-2.357191,-0.37420133,1.063954,0
1.6000000000000012,13.158787162762051,-1.2806071602240578,-1.6319259266349733,1.1354451562593788,20.44012,-5.1949363,-5.537708,4.8366637,3.947132,-4.9616275,0.90220845,0.3852676,-0.14983223,-0.010576156,0.91049916,-7.1768646,10.714326,1.0145335,-2.2766347,-0.46681774,1.0799081,0
1.6100000000000012,13.158787162762051,-1.2806071602240578,-1.6319259266349733,1.1354451562593788,20.44012,-5.1949363,-5.537708,4.8366637,3.875177,-4.854424,0.9124913,0.3786377,-0.15156032,-0.020843621,0.9128142,-7.2144337,10.726026,1.0419976,-2.1211758,-0.6484102,1.0826334,0
1.6200000000000012,13.158787162762051,-1.2806071602240578,-1.6319259266349733,1.1354451562593788,20.44012,-5.1949363,-5.537708,4.8366637,3.8028386,-4.7471156,0.9230477,0.37202907,-0.15223224,-0.03076971,0.91513616,-7.2533894,10.735148,1.0692527,-1.9899802,-0.8016998,1.0852249,0
1.6300000000000012,13.158787162762051,-1.2806071602240578,-1.6319259266349733,1.1354451562593788,20.44012,-5.1949363,-5.537708,4.8366637,3.7301052,-4.6397295,0.93387574,0.36542532,-0.15201266,-0.04039971,0.91745603,-7.293428,10.741659,1.0963297,-1.879261,-0.93109775,1.0876892,0
1.6400000000000012,13.158787162762051,-1.2806071602240578,-1.6319259266349733,1.1354451562593788,20.956749,-5.018594,-5.8786297,4.797052,3.6569672,-4.532292,0.9449738,0.35881296,-0.15104008,-0.049772695,0.919763,-7.334286,10.745531,1.1232512,-1.7858223,-1.040328,1.0900326,0
1.6500000000000012,13.158787162762051,-1.2806071602240578,-1.6319259266349733,1.1354451562593788,20.956749,-5.018594,-5.8786297,4.797052,3.5834172,-4.4248285,0.9563403,0.35218114,-0.14943103,-0.058922283,0.92204565,-7.3757358,10.746748,1.1500323,-1.7069671,-1.1325339,1.0922611,0
1.6600000000000013,13.158787162762051,-1.2806071602240578,-1.6319259266349733,1.1354451562593788,20.956749,-5.018594,-5.8786297,4.797052,3.509451,-4.3173656,0.967974,0.34552112,-0.14728364,-0.06787737,0.9242924,-7.417575,10.7453,1.1766807,-1.6404195,-1.2103686,1.0943801,0
1.6700000000000013,13.158787162762051,-1.2806071602240578,-1.6319259266349733,1.1354451562593788,20.956749,-5.018594,-5.8786297,4.797052,3.435065,-4.2099314,0.9798735,0.3388262,-0.14468051,-0.076662734,0.92649245,-7.459629,10.741179,1.2031972,-1.5842584,-1.2760723,1.0963953,0
1.6800000000000013,13.3616224799381,-0.7093597612005508,-1.2113791842455817,0.9050825037720927,21.086702,-5.3244414,-5.9980545,4.3492427,3.3602583,-4.1025515,0.9920374,0.33209124,-0.14169125,-0.085299596,0.92863566,-7.501742,10.734386,1.2295768,-1.536863,-1.3315355,1.0983115,0
1.6900000000000013,13.3616224799381,-0.7093597612005508,-1.2113791842455817,0.9050825037720927,21.086702,-5.3244414,-5.9980545,4.3492427,3.2850277,-3.9952538,1.004474,0.32538652,-0.13845348,-0.09354238,0.9307015,-7.544423,10.724793,1.2577268,-1.4078358,-1.3126962,1.0888298,0
1.7000000000000013,13.3616224799381,-0.7093597612005508,-1.2113791842455817,0.9050825037720927,21.086702,-5.3244414,-5.9980545,4.3492427,3.2093709,-3.8880646,1.0171914,0.3187753,-0.13508181,-0.10119959,0.9326816,-7.5868955,10.712623,1.285725,-1.2989277,-1.2968109,1.0798132,0
1.7100000000000013,13.3616224799381,-0.7093597612005508,-1.2113791842455817,0.9050825037720927,21.086702,-5.3244414,-5.9980545,4.3492427,3.1332908,-3.7810097,1.0301881,0.31224397,-0.13159867,-0.10836077,0.93458253,-7.6290493,10.6980095,1.3135709,-1.2070016,-1.2834166,1.0712391,0
1.7200000000000013,13.175689696460177,-0.11518253015945648,-0.723885165034734,0.6587673467600139,21.164845,-4.8692036,-6.1417847,4.1797595,3.0567913,-3.6741126,1.0434624,0.30578083,-0.12802245,-0.115101516,0.9364086,-7.670789,10.681073,1.3412634,-1.1294091,-1.2721223,1.0630857,0
1.7300000000000013,13.175689696460177,-0.11518253015945648,-0.723885165034734,0.6587673467600139,21.164845,-4.8692036,-6.1417847,4.1797595,2.9798796,-3.5673947,1.0570042,0.29945794,-0.12447561,-0.1212078,0.938158,-7.71146,10.662197,1.3670547,-0.9713158,-1.1865028,1.0432456,0
1.7400000000000013,13.175689696460177,-0.11518253015945648,-0.723885165034734,0.6587673467600139,21.164845,-4.8692036,-6.1417847,4.1797595,2.902564,-3.4608755,1.0708032,0.29333818,-0.12105781,-0.12651548,0.93983644,-7.7515845,10.641352,1.3927088,-0.83786505,-1.1142569,1.0243793,0
1.7500000000000013,13.175689696460177,-0.11518253015945648,-0.723885165034734,0.6587673467600139,21.164845,-4.8692036,-6.1417847,4.1797595,2.8248503,-3.3545737,1.084858,0.2873992,-0.11775137,-0.13115036,0.94145465,-7.791117,10.618746,1.4182446,-0.72521627,-1.0532951,1.0064386,0
1.7600000000000013,12.724629692232934,0.40097145253892846,-0.3156343991052358,0.40714804722349335,22.623402,-5.0445323,-6.3346267,4.5320706,2.7467442,-3.248506,1.0991677,0.2816213,-0.11454057,-0.13521841,0.94302005,-7.8300214,10.594559,1.4436805,-0.63012666,-1.0018545,0.98937833,0
1.7700000000000014,12.724629692232934,0.40097145253892846,-0.3156343991052358,0.40714804722349335,22.623402,-5.0445323,-6.3346267,4.5320706,2.6682587,-3.1426833,1.1137102,0.27606255,-0.11150393,-0.13857196,0.9445396,-7.866961,10.569834,1.4648098,-0.46941322,-0.8947265,0.96080816,0
1.7800000000000014,12.724629692232934,0.40097145253892846,-0.3156343991052358,0.40714804722349335,22.623402,-5.0445323,-6.3346267,4.5320706,2.589407,-3.0371137,1.1284637,0.27077258,-0.10870368,-0.14109991,0.94602185,-7.903258,10.543965,1.4858937,-0.333748,-0.8043266,0.9336399,0
1.7900000000000014,12.724629692232934,0.40097145253892846,-0.3156343991052358,0.40714804722349335,22.623402,-5.0445323,-6.3346267,4.5320706,2.5101955,-2.9318073,1.1434281,0.26572335,-0.10610453,-0.14293352,0.94747233,-7.9389105,10.517167,1.5069673,-0.21922761,-0.7280419,0.90780485,0
1.8000000000000014,11.966953072033471,0.8357144291563486,0.04246549521983679,0.1853307554954236,20.115412,-4.364103,-5.738921,1.6429678,2.4306307,-2.8267727,1.1586032,0.26089022,-0.103676,-0.14418307,0.94889396,-7.97392,10.489624,1.5280615,-0.12255655,-0.6636679,0.8832375,0
1.8100000000000014,11.966953072033471,0.8357144291563486,0.04246549521983679,0.1853307554954236,20.115412,-4.364103,-5.738921,1.6429678,2.3507297,-2.7220085,1.173954,0.2563162,-0.10147896,-0.14474194,0.95029193,-8.006246,10.463176,1.5421057,0.026809353,-0.5534613,0.848991,0
1.8200000000000014,11.966953072033471,0.8357144291563486,0.04246549521983679,0.1853307554954236,20.115412,-4.364103,-5.738921,1.6429678,2.2705083,-2.6175106,1.1894455,0.25203738,-0.09956058,-0.14453112,0.95167047,-8.0379925,10.436383,1.5562336,0.15289631,-0.4604603,0.81642497,0
1.8300000000000014,11.966953072033471,0.8357144291563486,0.04246549521983679,0.1853307554954236,20.115412,-4.364103,-5.738921,1.6429678,2.189972,-2.5132813,1.205079,0.24802355,-0.0978778,-0.14367302,0.9530285,-8.069182,10.40944,1.5704808,0.25933182,-0.3819779,0.78545696,0
1.8400000000000014,11.966953072033471,0.8357144291563486,0.04246549521983679,0.1853307554954236,20.165794,-4.301688,-5.8918157,1.4107294,2.1091263,-2.4093215,1.2208556,0.24424829,-0.09639379,-0.14227055,0.95436424,-8.09984,10.382505,1.584877,0.3491783,-0.31574678,0.75600857,0
1.8500000000000014,11.966953072033471,0.8357144291563486,0.04246549521983679,0.1853307554954236,20.165794,-4.301688,-5.8918157,1.4107294,2.0279768,-2.3056304,1.236777,0.24068841,-0.09507715,-0.14041024,0.95567536,-8.129986,10.355718,1.5994464,0.42502105,-0.25985408,0.72800523,0
1.8600000000000014,11.966953072033471,0.8357144291563486,0.04246549521983679,0.1853307554954236,20.165794,-4.301688,-5.8918157,1.4107294,1.9465283,-2.2022061,1.252845,0.23732363,-0.09390115,-0.13816488,0.95695955,-8.159639,10.329195,1.6142088,0.48904228,-0.21268575,0.7013761,0
1.8700000000000014,11.966953072033471,0.8357144291563486,0.04246549521983679,0.1853307554954236,20.165794,-4.301688,-5.8918157,1.4107294,1.8647856,-2.0990453,1.2690618,0.23413616,-0.09284306,-0.13559571,0.95821464,-8.188819,10.303035,1.629179,0.5430846,-0.17287923,0.6760535,0
1.8800000000000014,12.272448013046851,0.862152546957097,0.6883065081671709,0.032630839460181985,20.411863,-4.627717,-6.0850015,1.2823215,1.7827535,-1.996144,1.2854294,0.23111036,-0.09188362,-0.13275427,0.95943874,-8.217541,10.277319,1.6443686,0.5887031,-0.13928545,0.6519736,0
1.8900000000000015,12.272448013046851,0.862152546957097,0.6883065081671709,0.032630839460181985,20.411863,-4.627717,-6.0850015,1.2823215,1.7004327,-1.8935004,1.3019644,0.22828563,-0.09124969,-0.12961614,0.96060383,-8.246553,10.251485,1.6626823,0.6312921,-0.010217335,0.62158227,0
1.9000000000000015,12.272448013046851,0.862152546957097,0.6883065081671709,0.032630839460181985,20.411863,-4.627717,-6.0850015,1.2823215,1.6178236,-1.7911121,1.3186836,0.22569363,-0.091120265,-0.12616521,0.9616874,-8.275218,10.226296,1.6812235,0.66725236,0.09871909,0.5926823,0
1.9100000000000015,12.272448013046851,0.862152546957097,0.6883065081671709,0.032630839460181985,20.411863,-4.627717,-6.0850015,1.2823215,1.534929,-1.6889719,1.3355895,0.22331093,-0.09141573,-0.122452356,0.962695,-8.303638,10.201859,1.6999838,0.6976147,0.19066419,0.56520045,0
1.9200000000000015,11.953023787422962,0.8716935028152191,1.2016878177321841,-0.08236866008951582,20.000273,-4.524485,-5.8160515,1.0803404,1.4517512,-1.5870719,1.352684,0.22111714,-0.0920688,-0.11852024,0.96363086,-8.331906,10.178263,1.7189537,0.72325003,0.2682684,0.5390671,0
1.9300000000000015,11.953023787422962,0.8716935028152191,1.2016878177321841,-0.08236866008951582,20.000273,-4.524485,-5.8160515,1.0803404,1.3682947,-1.4854004,1.369954,0.21913256,-0.09321811,-0.11435701,0.96447635,-8.359373,10.156175,1.735069,0.74635655,0.4138279,0.50857306,0
1.9400000000000015,11.953023787422962,0.8716935028152191,1.2016878177321841,-0.08236866008951582,20.000273,-4.524485,-5.8160515,1.0803404,1.2845634,-1.383945,1.3873861,0.2173725,-0.094970554,-0.10995551,0.96521527,-8.386902,10.135077,1.7513565,0.7658721,0.5366862,0.4795754,0
1.9500000000000015,11.953023787422962,0.8716935028152191,1.2016878177321841,-0.08236866008951582,20.000273,-4.524485,-5.8160515,1.0803404,1.200556,-1.2826952,1.4049819,0.21581365,-0.09723074,-0.105354875,0.965853,-8.4146185,10.115058,1.767792,0.7823538,0.6403839,0.45200065,0
1.9600000000000015,11.332430158278973,0.7843638297329856,1.4486526319045578,-0.17038786328408975,17.571507,-4.180648,-5.121735,0.9011667,1.1162701,-1.1816398,1.4227425,0.21443574,-0.0999181,-0.10058789,0.9663937,-8.442631,10.09619,1.7843512,0.7962729,0.72790927,0.42577899,0
1.9700000000000015,11.332430158278973,0.7843638297329856,1.4486526319045578,-0.17038786328408975,17.571507,-4.180648,-5.121735,0.9011667,1.0317093,-1.0807626,1.4406396,0.21323788,-0.10306645,-0.09569579,0.9668248,-8.46956,10.079455,1.7950495,0.79440033,0.84029317,0.39652494,0
1.9800000000000015,11.332430158278973,0.7843638297329856,1.4486526319045578,-0.17038786328408975,17.571507,-4.180648,-5.121735,0.9011667,0.94687706,-0.9800466,1.4586438,0.21221861,-0.106698915,-0.09071289,0.9671354,-8.496965,10.063928,1.8058075,0.79282737,0.93515176,0.36870635,0
1.9900000000000015,11.332430158278973,0.7843638297329856,1.4486526319045578,-0.17038786328408975,17.571507,-4.180648,-5.121735,0.9011667,0.861768,-0.8794797,1.4767557,0.21136074,-0.11073822,-0.08565511,0.96733046,-8.524947,10.049652,1.8165902,0.7915057,1.015218,0.34225285,0
2.0000000000000013,,,,,16.06187,-4.4299593,-4.220408,0.47304353,0.7763759,-0.7790491,1.4949754,0.21064919,-0.115119085,-0.08053584,0.9674139,-8.553588,10.036668,1.8273633,0.7903944,1.0827987,0.31709743,0
2.010000000000001,,,,,16.06187,-4.4299593,-4.220408,0.47304353,0.690701,-0.67873883,1.513276,0.2100703,-0.11982567,-0.075424016,0.9673803,-8.581504,10.025581,1.832699,0.76417816,1.1503104,0.29116178,0
2.020000000000001,,,,,16.06187,-4.4299593,-4.220408,0.47304353,0.6047432,-0.5785332,1.5316293,0.20961232,-0.12484248,-0.070375,0.96722573,-8.610186,10.015761,1.8379532,0.7420532,1.2072958,0.26649877,0
2.0300000000000007,,,,,16.06187,-4.4299593,-4.220408,0.47304353,0.5184944,-0.4784193,1.5500345,0.20926557,-0.13011919,-0.06538082,0.9669558,-8.639694,10.007213,1.8430873,0.72338104,1.2553962,0.24304599,0
2.0400000000000005,,,,,16.06187,-4.4299593,-4.220408,0.47304353,0.43194625,-0.37838453,1.5684905,0.20902146,-0.13561334,-0.060434736,0.9665754,-8.670082,9.999938,1.848064,0.7076223,1.295997,0.22074404,0
2.0500000000000003,,,,,14.725773,-4.713752,-3.9345856,0.060240485,0.3450896,-0.27841616,1.5869952,0.20887232,-0.14128901,-0.05553105,0.96608865,-8.701392,9.993939,1.8528466,0.69432205,1.3302673,0.19953646,1
2.06,,,,,14.725773,-4.713752,-3.9345856,0.060240485,0.2578555,-0.17851096,1.6057378,0.2083617,-0.14546897,-0.05316175,0.9657118,-8.745529,9.987286,1.8954082,-0.1458598,0.512203,0.19241153,1
2.07,,,,,14.725773,-4.713752,-3.9345856,0.060240485,0.17017637,-0.07866931,1.6249021,0.20711529,-0.14680535,-0.055329964,0.965656,-8.790386,9.980979,1.9374253,-0.8581337,-0.18135694,0.18592587,1
2.0799999999999996,,,,,14.725773,-4.713752,-3.9345856,0.060240485,0.0820467,0.021104889,1.6444858,0.20523717,-0.14573443,-0.061326116,0.96585697,-8.83556,9.973593,1.9792875,-1.4593475,-0.76673794,0.17975846,1
2.0899999999999994,,,,,15.585148,-6.009747,-4.3805747,-0.4946635,-0.006534422,0.120794736,1.6644875,0.20280571,-0.14261839,-0.070545994,0.96620625,-8.880616,9.963938,2.0210483,-1.966817,-1.260814,0.17389368,1
2.099999999999999,,,,,15.585148,-6.009747,-4.3805747,-0.4946635,-0.09557692,0.22036871,1.6849471,0.19986029,-0.13768417,-0.08301922,0.96654445,-8.927772,9.950224,2.070856,-2.5957713,-1.7473555,0.14108738,1
2.109999999999999,,,,,15.585148,-6.009747,-4.3805747,-0.4946635,-0.1850868,0.31978333,1.7059039,0.19643651,-0.1311183,-0.09873737,0.9666814,-8.974039,9.931884,2.12044,-3.1266646,-2.1579905,0.10989091,1
2.1199999999999988,,,,,15.585148,-6.009747,-4.3805747,-0.4946635,-0.2750535,0.41898704,1.7273544,0.19258255,-0.12314435,-0.117171146,0.96644694,-9.019085,9.907905,2.16959,-3.574783,-2.5045645,0.08022525,1
2.1299999999999986,,,,,16.760906,-5.5224285,-4.067456,0.6230438,-0.3654632,0.5179192,1.749293,0.18833649,-0.11395158,-0.1378657,0.9656805,-9.062588,9.877461,2.218004,-3.95303,-2.7970748,0.0520153,1
2.1399999999999983,,,,,16.760906,-5.5224285,-4.067456,0.6230438,-0.45631474,0.616498,1.7717654,0.1836363,-0.10380728,-0.16020562,0.9642807,-9.107387,9.837072,2.276266,-4.1977158,-2.9952748,0.08003583,1
2.149999999999998,,,,,16.760906,-5.5224285,-4.067456,0.6230438,-0.5476031,0.7146328,1.7948124,0.17841978,-0.09294374,-0.18367739,0.9621808,-9.149905,9.78859,2.332854,-4.40424,-3.1625679,0.10668138,1
2.159999999999998,,,,,16.760906,-5.5224285,-4.067456,0.6230438,-0.6393041,0.8122411,1.8184148,0.17271788,-0.08146513,-0.20805328,0.95929515,-9.189869,9.73173,2.3872528,-4.5785565,-3.3037722,0.13201943,1
2.1699999999999977,,,,,16.855192,-4.8508825,-5.3338294,2.2291095,-0.73139083,0.90923804,1.8425479,0.16655967,-0.06946296,-0.2331345,0.95555353,-9.227015,9.666318,2.4389095,-4.725689,-3.422955,0.15611413,1
2.1799999999999975,,,,,16.855192,-4.8508825,-5.3338294,2.2291095,-0.8238348,1.0055357,1.8671856,0.15967828,-0.056537636,-0.25856012,0.9510281,-9.261244,9.59187,2.4880776,-4.744937,-3.7212713,0.2578366,1
2.1899999999999973,,,,,16.855192,-4.8508825,-5.3338294,2.2291095,-0.91660327,1.1010457,1.8922962,0.15182112,-0.042398293,-0.28402552,0.94577146,-9.291834,9.508808,2.5333874,-4.7611675,-3.9730515,0.35456753,1
2.199999999999997,,,,,16.855192,-4.8508825,-5.3338294,2.2291095,-1.009657,1.1956828,1.9178383,0.14304036,-0.027268087,-0.3094435,0.9397031,-9.318239,9.417282,2.5743084,-4.7748594,-4.1855536,0.44655186,1
2.209999999999997,,,,,18.441782,-4.448528,-5.7508745,2.8899837,-1.1029519,1.2893631,1.9437655,0.13338992,-0.011339571,-0.33473495,0.93275523,-9.339977,9.3175335,2.6102917,-4.7864146,-4.3649035,0.53402245,1
2.2199999999999966,,,,,18.441782,-4.448528,-5.7508745,2.8899837,-1.1964471,1.3819561,1.9700865,0.12279246,0.005368918,-0.35969895,0.92493844,-9.358173,9.1997595,2.652893,-4.733302,-4.5813828,0.6496301,1
2.2299999999999964,,,,,18.441782,-4.448528,-5.7508745,2.8899837,-1.2900943,1.4733303,1.9968008,0.11118064,0.022819903,-0.3841684,0.9162609,-9.370263,9.073831,2.6889348,-4.6884737,-4.7640815,0.7595649,1
