time-since-start [s],throttle_mpc,roll_mpc,pitch_mpc,yaw_mpc,throttle_nw,roll_nw,pitch_nw,yaw_nw,position_x [m],position_y [m],position_z [m],rotation_w [quaternion],rotation_x [quaternion],rotation_y [quaternion],rotation_z [quaternion],velocity_x [m/s],velocity_y [m/s],velocity_z [m/s],omega_x [rad/s],omega_y [rad/s],omega_z [rad/s],network_used
0.0,10.716668545471483,5.999999751669474,-5.999999906458813,-3.1782501515781125,7.8257008,0.4720878,-2.5768917,0.023821164,16.53893,-10.474135,1.6953297,-0.1829532,0.36969206,-0.22754997,-0.8820867,-10.438031,-1.9447523,-0.1489834,1.1956745,0.0007719337,0.13728422,0
0.01,10.716668545471483,5.999999751669474,-5.999999906458813,-3.1782501515781125,16.318249,1.0492647,-4.4467683,0.6408799,16.434084,-10.493141,1.6938589,-0.18515314,0.3676423,-0.2331695,-0.88101614,-10.53047,-1.8565414,-0.14554797,1.3614501,-0.35166377,0.026773632,0
0.02,10.716668545471483,5.999999751669474,-5.999999906458813,-3.1782501515781125,16.318249,1.0492647,-4.4467683,0.6408799,16.328331,-10.511266,1.6924106,-0.18853828,0.36403528,-0.23901094,-0.8802303,-10.619603,-1.768471,-0.14444494,1.5365735,-0.6844084,-0.08146563,0
0.03,10.716668545471483,5.999999751669474,-5.999999906458813,-3.1782501515781125,16.318249,1.0492647,-4.4467683,0.6408799,16.221703,-10.52851,1.690963,-0.19309379,0.358936,-0.24512209,-0.8796561,-10.705026,-1.6804506,-0.14533256,1.7188332,-0.99977505,-0.18747711,0
0.04,10.716668545471483,5.999999751669474,-5.999999906458813,-3.1782501515781125,9.768049,1.2551126,-4.935806,-0.6139018,16.11424,-10.544874,1.689498,-0.19880016,0.35239804,-0.25153726,-0.8792173,-10.78636,-1.5923969,-0.14792255,1.9063832,-1.2997366,-0.29130426,0
0.05,10.716668545471483,5.999999751669474,-5.999999906458813,-3.1782501515781125,9.768049,1.2551126,-4.935806,-0.6139018,16.00599,-10.560358,1.6879996,-0.20563349,0.34446505,-0.25827917,-0.8788347,-10.863254,-1.504242,-0.15197621,2.0976856,-1.5859783,-0.39299008,0
0.060000000000000005,10.716668545471483,5.999999751669474,-5.999999906458813,-3.1782501515781125,9.768049,1.2551126,-4.935806,-0.6139018,15.896992,-10.57496,1.6864542,-0.2135657,0.33517253,-0.2653605,-0.8784263,-10.935373,-1.415938,-0.15730086,2.29146,-1.859941,-0.49257728,0
0.07,10.716668545471483,5.999999751669474,-5.999999906458813,-3.1782501515781125,9.768049,1.2551126,-4.935806,-0.6139018,15.787298,-10.588677,1.6848497,-0.22256476,0.32454926,-0.27278504,-0.87790716,-11.002407,-1.3274634,-0.16374665,2.4866436,-2.1228588,-0.590108,0
0.08,12.032701744625296,5.999999838183109,-5.999999934262548,-3.047363684641489,12.932202,1.3817902,-5.480375,0.25804096,15.676962,-10.60151,1.6831757,-0.23259467,0.31261864,-0.28054872,-0.8771897,-11.06406,-1.2388252,-0.17120378,2.6823559,-2.3757892,-0.6856237,0
0.09,12.032701744625296,5.999999838183109,-5.999999934262548,-3.047363684641489,12.932202,1.3817902,-5.480375,0.25804096,15.56602,-10.613429,1.6814485,-0.24369203,0.29924616,-0.28872845,-0.876186,-11.123287,-1.1449153,-0.17439902,2.9316583,-2.6734793,-0.77754974,0
0.09999999999999999,12.032701744625296,5.999999838183109,-5.999999934262548,-3.047363684641489,12.932202,1.3817902,-5.480375,0.25804096,15.454518,-10.62441,1.6796838,-0.25587815,0.2843069,-0.29737923,-0.87479234,-11.17609,-1.0510571,-0.17866449,3.175626,-2.958338,-0.8679663,0
0.10999999999999999,12.032701744625296,5.999999838183109,-5.999999934262548,-3.047363684641489,12.932202,1.3817902,-5.480375,0.25804096,15.342522,-10.634452,1.6778715,-0.2690884,0.26783323,-0.30645517,-0.872893,-11.222147,-0.95733404,-0.18397072,3.4141903,-3.2314615,-0.9568668,0
0.11999999999999998,12.032701744625296,5.999999838183109,-5.999999934262548,-3.047363684641489,12.932202,1.3817902,-5.480375,0.25804096,15.230099,-10.643558,1.6760007,-0.28325397,0.24985525,-0.3159057,-0.87036955,-11.261168,-0.86388224,-0.19033259,3.647333,-3.493815,-1.0442485,0
0.12999999999999998,15.535155347481007,5.999999881152642,-5.999999951833449,-3.050885132691917,14.506553,0.6415138,-6.097004,0.15943937,15.117322,-10.651731,1.6740608,-0.29830202,0.23040204,-0.32567608,-0.867102,-11.292897,-0.7708893,-0.19780655,3.8750737,-3.7462492,-1.1301119,0
0.13999999999999999,15.535155347481007,5.999999881152642,-5.999999951833449,-3.050885132691917,14.506553,0.6415138,-6.097004,0.15943937,15.004241,-10.658885,1.6721295,-0.31430313,0.2092305,-0.33583403,-0.86293197,-11.32191,-0.66023797,-0.18870586,4.191469,-4.083716,-1.2230375,0
0.15,15.535155347481007,5.999999881152642,-5.999999951833449,-3.050885132691917,14.506553,0.6415138,-6.097004,0.15943937,14.890916,-10.664934,1.6702862,-0.33127332,0.186167,-0.34639373,-0.85767776,-11.3417635,-0.54935557,-0.17985612,4.473015,-4.3830442,-1.3127306,0
0.16,19.304801100940132,5.9999995054394635,-5.9999999024089234,-3.998519246030031,13.83735,0.5519743,-5.777535,0.3946281,14.777439,-10.669869,1.668534,-0.34899783,0.16145585,-0.35717297,-0.8512109,-11.352021,-0.43765548,-0.17051189,4.710675,-4.635672,-1.3980224,0
0.17,19.304801100940132,5.9999995054394635,-5.9999999024089234,-3.998519246030031,13.83735,0.5519743,-5.777535,0.3946281,14.663909,-10.67355,1.6670071,-0.36736935,0.13538158,-0.36798486,-0.8433853,-11.352108,-0.29849562,-0.13486257,4.9111476,-4.8490286,-1.5256295,0
0.18000000000000002,19.304801100940132,5.9999995054394635,-5.9999999024089234,-3.998519246030031,13.83735,0.5519743,-5.777535,0.3946281,14.550444,-10.67584,1.6658359,-0.38629308,0.10820174,-0.3786709,-0.83407336,-11.338958,-0.1597533,-0.09943021,5.080378,-5.0290914,-1.6469748,0
0.19000000000000003,19.304801100940132,5.9999995054394635,-5.9999999024089234,-3.998519246030031,13.83735,0.5519743,-5.777535,0.3946281,14.437178,-10.676749,1.6650159,-0.4055888,0.08010973,-0.3891135,-0.8232076,-11.312154,-0.022295337,-0.06471772,5.223241,-5.18105,-1.7623657,0
0.20000000000000004,19.058469178561904,3.850685108726626,-5.999999319878047,-1.6908553760422937,12.732872,-0.033668794,-4.931917,-0.1713707,14.324249,-10.676294,1.6645372,-0.42509237,0.051280826,-0.39921248,-0.810738,-11.271439,0.11293743,-0.031265862,5.3438497,-5.309285,-1.8720944,0
0.21000000000000005,19.058469178561904,3.850685108726626,-5.999999319878047,-1.6908553760422937,12.732872,-0.033668794,-4.931917,-0.1713707,14.211795,-10.674511,1.6643761,-0.44439444,0.022132797,-0.4082094,-0.79711276,-11.217465,0.24324414,-0.0012503653,5.110892,-5.416688,-1.8632009,0
0.22000000000000006,19.058469178561904,3.850685108726626,-5.999999319878047,-1.6908553760422937,12.732872,-0.033668794,-4.931917,-0.1713707,14.099948,-10.671445,1.6645054,-0.463184,-0.006984195,-0.41553205,-0.78278023,-11.150114,0.36922053,0.02674716,4.9142833,-5.50739,-1.8547437,0
0.23000000000000007,19.058469178561904,3.850685108726626,-5.999999319878047,-1.6908553760422937,12.732872,-0.033668794,-4.931917,-0.1713707,13.988837,-10.667146,1.6649036,-0.48144934,-0.036016773,-0.4213514,-0.76770586,-11.069962,0.48977488,0.05253985,4.7483525,-5.583987,-1.8467016,0
0.24000000000000007,19.058469178561904,3.850685108726626,-5.999999319878047,-1.6908553760422937,11.929102,-0.8301658,-3.4808307,0.39819282,13.878591,-10.661672,1.6655478,-0.49917197,-0.06491816,-0.42581183,-0.75186247,-10.977634,0.6039062,0.075919114,4.608312,-5.648673,-1.8390542,0
0.25000000000000006,19.058469178561904,3.850685108726626,-5.999999319878047,-1.6908553760422937,11.929102,-0.8301658,-3.4808307,0.39819282,13.769325,-10.655093,1.6664128,-0.51632917,-0.093646444,-0.4290352,-0.7352301,-10.873807,0.71069795,0.09665916,4.490123,-5.7032995,-1.831782,0
0.26000000000000006,19.058469178561904,3.850685108726626,-5.999999319878047,-1.6908553760422937,11.929102,-0.8301658,-3.4808307,0.39819282,13.661153,-10.647488,1.667471,-0.532895,-0.12216327,-0.43112463,-0.71779555,-10.759197,0.8093133,0.114521585,4.3903737,-5.749431,-1.8248667,0
0.2700000000000001,19.058469178561904,3.850685108726626,-5.999999319878047,-1.6908553760422937,11.929102,-0.8301658,-3.4808307,0.39819282,13.554176,-10.63894,1.6686925,-0.5488423,-0.15043287,-0.43216753,-0.6995522,-10.634567,0.8989921,0.1292598,4.3061876,-5.7883883,-1.8182906,0
0.2800000000000001,17.01405234109634,1.8703391000905871,-4.320264994274218,-0.7796625836515563,11.848699,-1.6465145,-1.6273348,0.5011479,13.448493,-10.629541,1.6700447,-0.564143,-0.17842133,-0.43223828,-0.6804987,-10.500714,0.97904897,0.14062326,4.235137,-5.821287,-1.8120372,0
0.2900000000000001,17.01405234109634,1.8703391000905871,-4.320264994274218,-0.7796625836515563,11.848699,-1.6465145,-1.6273348,0.5011479,13.344115,-10.619432,1.6714356,-0.57856476,-0.20524539,-0.4312395,-0.661188,-10.373787,1.0414308,0.13704443,3.8668098,-5.586641,-1.7613784,0
0.3000000000000001,17.01405234109634,1.8703391000905871,-4.320264994274218,-0.7796625836515563,11.848699,-1.6465145,-1.6273348,0.5011479,13.241039,-10.608745,1.6727747,-0.5919905,-0.23022977,-0.42916042,-0.6421548,-10.240498,1.094589,0.13030005,3.5558581,-5.388681,-1.7132053,0
0.3100000000000001,17.01405234109634,1.8703391000905871,-4.320264994274218,-0.7796625836515563,11.848699,-1.6465145,-1.6273348,0.5011479,13.139323,-10.597572,1.674031,-0.60454154,-0.25362694,-0.42616698,-0.6233655,-10.1019,1.1385428,0.12050475,3.293345,-5.2216706,-1.6673962,0
0.3200000000000001,14.700907050504595,-0.01317185720234245,-2.0932710242822328,-0.21853880871355072,12.184051,-2.5308852,-0.2578535,0.3570792,13.039017,-10.586006,1.6751747,-0.61631256,-0.27565128,-0.4223912,-0.60478157,-9.958927,1.1733452,0.107768424,3.0717254,-5.080769,-1.6238348,0
0.3300000000000001,14.700907050504595,-0.01317185720234245,-2.0932710242822328,-0.21853880871355072,12.184051,-2.5308852,-0.2578535,0.3570792,12.940058,-10.574155,1.6761204,-0.62718666,-0.29551893,-0.41803047,-0.58698875,-9.8323555,1.195638,0.08100425,2.5913386,-4.6142445,-1.5548766,0
0.34000000000000014,14.700907050504595,-0.01317185720234245,-2.0932710242822328,-0.21853880871355072,12.184051,-2.5308852,-0.2578535,0.3570792,12.842377,-10.562118,1.6767876,-0.6371385,-0.3126559,-0.41329718,-0.5705139,-9.703547,1.2106582,0.052115154,2.1857464,-4.2205944,-1.489302,0
0.35000000000000014,14.700907050504595,-0.01317185720234245,-2.0932710242822328,-0.21853880871355072,12.184051,-2.5308852,-0.2578535,0.3570792,12.745993,-10.549964,1.6771567,-0.6463447,-0.32750854,-0.40829372,-0.5552231,-9.573193,1.2189959,0.021441437,1.8433069,-3.8884315,-1.4269452,0
0.36000000000000015,13.535808043422989,-2.4000382195384407,0.4609344435826218,1.735206970808516,13.835632,-3.119645,0.83408165,0.89368933,12.650916,-10.537759,1.6772114,-0.65493983,-0.34044993,-0.40309152,-0.540985,-9.441836,1.2211775,-0.0107091,1.5541904,-3.6081479,-1.3676482,1
0.37000000000000016,13.535808043422989,-2.4000382195384407,0.4609344435826218,1.735206970808516,13.835632,-3.119645,0.83408165,0.89368933,12.557118,-10.52556,1.6769195,-0.662922,-0.35040724,-0.3978045,-0.52867824,-9.317699,1.2179598,-0.04781728,0.82613915,-2.9146736,-1.2566838,1
0.38000000000000017,13.535808043422989,-2.4000382195384407,0.4609344435826218,1.735206970808516,13.835632,-3.119645,0.83408165,0.89368933,12.464562,-10.513415,1.6762536,-0.6703388,-0.35657665,-0.39255974,-0.5190335,-9.193515,1.210422,-0.08539766,0.2114373,-2.3295372,-1.1511644,1
0.3900000000000002,13.535808043422989,-2.4000382195384407,0.4609344435826218,1.735206970808516,13.835632,-3.119645,0.83408165,0.89368933,12.373247,-10.501364,1.6752123,-0.67732257,-0.35959336,-0.3873978,-0.5117125,-9.069655,1.1995533,-0.122814596,-0.30755123,-1.8358018,-1.050823,1
0.4000000000000002,14.2242949912955,-4.776114426337099,3.283493786033174,2.085898193629488,15.780026,-3.564375,2.600023,0.8423125,12.283168,-10.489434,1.6737999,-0.6839547,-0.3599784,-0.38232985,-0.50640434,-8.946386,1.1862015,-0.15952617,-0.7457211,-1.4191802,-0.9554052,0
0.4100000000000002,14.2242949912955,-4.776114426337099,3.283493786033174,2.085898193629488,15.780026,-3.564375,2.600023,0.8423125,12.19437,-10.4776535,1.672053,-0.69018465,-0.35723487,-0.37747863,-0.50352585,-8.8137665,1.1699096,-0.18985915,-1.4265616,-0.7383045,-0.8132123,0
0.4200000000000002,14.2242949912955,-4.776114426337099,3.283493786033174,2.085898193629488,15.780026,-3.564375,2.600023,0.8423125,12.106879,-10.466038,1.6700041,-0.69592804,-0.35099033,-0.37294602,-0.5033897,-8.685064,1.1532593,-0.2197322,-1.9930236,-0.15541106,-0.6750194,0
0.4300000000000002,14.2242949912955,-4.776114426337099,3.283493786033174,2.085898193629488,15.780026,-3.564375,2.600023,0.8423125,12.0206585,-10.454586,1.6676637,-0.70112896,-0.34180623,-0.36874714,-0.5055811,-8.559422,1.137199,-0.24809194,-2.4511187,0.35660455,-0.54172707,0
0.4400000000000002,14.2242949912955,-4.776114426337099,3.283493786033174,2.085898193629488,16.777493,-4.070664,3.4414887,1.4431918,11.935679,-10.443289,1.6650488,-0.7057002,-0.33015093,-0.36491394,-0.50973064,-8.436894,1.1226159,-0.27452865,-2.8181286,0.8084239,-0.41320613,0
0.45000000000000023,14.2242949912955,-4.776114426337099,3.283493786033174,2.085898193629488,16.777493,-4.070664,3.4414887,1.4431918,11.851914,-10.432127,1.6621833,-0.7095827,-0.3164058,-0.36142117,-0.5155138,-8.316408,1.1101354,-0.29807264,-3.123465,1.1942433,-0.2905744,0
0.46000000000000024,14.2242949912955,-4.776114426337099,3.283493786033174,2.085898193629488,16.777493,-4.070664,3.4414887,1.4431918,11.769344,-10.421077,1.6590987,-0.71276015,-0.30087674,-0.35817236,-0.5226458,-8.197777,1.1003917,-0.31830764,-3.3812475,1.5198536,-0.1739602,0
0.47000000000000025,14.2242949912955,-4.776114426337099,3.283493786033174,2.085898193629488,16.777493,-4.070664,3.4414887,1.4431918,11.687951,-10.410109,1.6558288,-0.7152158,-0.28382045,-0.35507688,-0.5308791,-8.081237,1.0939627,-0.33511803,-3.5988736,1.7946576,-0.06306829,0
0.48000000000000026,15.272835088798102,-5.823143753245277,4.573114190226892,2.1594972624488826,17.832691,-4.113142,4.8597445,1.3224266,11.607711,-10.399186,1.6524082,-0.7169311,-0.26545504,-0.3520571,-0.5399993,-7.9670506,1.091334,-0.34845424,-3.7825928,2.0265892,0.042382106,0
0.49000000000000027,15.272835088798102,-5.823143753245277,4.573114190226892,2.1594972624488826,17.832691,-4.113142,4.8597445,1.3224266,11.528641,-10.388268,1.648904,-0.7178037,-0.24538702,-0.3491843,-0.55010307,-7.847291,1.0930669,-0.3518077,-4.1009893,2.4234328,0.14626956,0
0.5000000000000002,15.272835088798102,-5.823143753245277,4.573114190226892,2.1594972624488826,17.832691,-4.113142,4.8597445,1.3224266,11.450752,-10.377307,1.645385,-0.71771294,-0.22330225,-0.3464938,-0.5612185,-7.730791,1.0999832,-0.3514118,-4.3697667,2.7583685,0.24505924,0
0.5100000000000002,15.272835088798102,-5.823143753245277,4.573114190226892,2.1594972624488826,17.832691,-4.113142,4.8597445,1.3224266,11.374011,-10.366248,1.6418886,-0.716615,-0.19948414,-0.34387624,-0.5730777,-7.618027,1.1126741,-0.34731516,-4.5966506,3.0410602,0.33900127,0
0.5200000000000002,16.335891936860886,-5.8979586489199285,4.897922855869169,2.1225252200480518,17.76911,-3.8817267,5.585177,1.0782311,11.298377,-10.355032,1.6384511,-0.71447057,-0.17417948,-0.34123948,-0.5854476,-7.5095077,1.1316075,-0.33965498,-4.788164,3.2796626,0.42833358,0
0.5300000000000002,16.335891936860886,-5.8979586489199285,4.897922855869169,2.1225252200480518,17.76911,-3.8817267,5.585177,1.0782311,11.223841,-10.343585,1.6351448,-0.71120834,-0.14750513,-0.338582,-0.59815305,-7.398541,1.1589241,-0.32105428,-4.9614973,3.5317123,0.51146805,0
0.5400000000000003,16.335891936860886,-5.8979586489199285,4.897922855869169,2.1225252200480518,17.76911,-3.8817267,5.585177,1.0782311,11.150385,-10.331827,1.6320412,-0.70676583,-0.119570754,-0.33589682,-0.6110304,-7.2932687,1.1936331,-0.2991912,-5.1078014,3.7444606,0.59052306,0
0.5500000000000003,16.335891936860886,-5.8979586489199285,4.897922855869169,2.1225252200480518,17.76911,-3.8817267,5.585177,1.0782311,11.077951,-10.319686,1.629171,-0.70112574,-0.09057219,-0.3331068,-0.6239064,-7.1942887,1.2359619,-0.27445492,-5.231287,3.924039,0.6656988,0
0.5600000000000003,16.637976798587648,-5.182329048618822,4.384933536483508,1.9943570906693284,17.63594,-3.2974799,5.2903323,1.1373541,11.006475,-10.307082,1.6265606,-0.69427705,-0.060685035,-0.330149,-0.63663036,-7.102197,1.286023,-0.24729504,-5.33551,4.075622,0.7371857,0
0.5700000000000003,16.637976798587648,-5.182329048618822,4.384933536483508,1.9943570906693284,17.63594,-3.2974799,5.2903323,1.1373541,10.935891,-10.293934,1.6242435,-0.6862831,-0.03039237,-0.32701802,-0.64896137,-7.0159945,1.3448728,-0.21586433,-5.31181,4.1236567,0.79887545,0
0.5800000000000003,16.637976798587648,-5.182329048618822,4.384933536483508,1.9943570906693284,17.63594,-3.2974799,5.2903323,1.1373541,10.866128,-10.280159,1.6222482,-0.67723167,-9.479467e-05,-0.32372534,-0.6607261,-6.937824,1.4113784,-0.18304956,-5.291798,4.164211,0.8575381,0
0.5900000000000003,16.637976798587648,-5.182329048618822,4.384933536483508,1.9943570906693284,17.63594,-3.2974799,5.2903323,1.1373541,10.797106,-10.265682,1.6205854,-0.6671508,0.030171081,-0.32024688,-0.6718938,-6.8680573,1.485239,-0.14943153,-5.274898,4.19845,0.9133221,0
0.6000000000000003,15.98508821080273,-3.894705347582238,3.2275803158028644,1.7512450316469348,17.044622,-2.8700376,4.89238,1.2399943,10.728737,-10.250431,1.6192603,-0.6560671,0.060368795,-0.3165633,-0.68243605,-6.8070393,1.5661067,-0.11558594,-5.2606254,4.227359,0.96636873,0
0.6100000000000003,15.98508821080273,-3.894705347582238,3.2275803158028644,1.7512450316469348,17.044622,-2.8700376,4.89238,1.2399943,10.660922,-10.234356,1.6182467,-0.64421934,0.08981914,-0.31271416,-0.6921875,-6.757081,1.6501266,-0.087240994,-5.047615,4.0714507,1.0048828,0
0.6200000000000003,15.98508821080273,-3.894705347582238,3.2275803158028644,1.7512450316469348,17.044622,-2.8700376,4.89238,1.2399943,10.593564,-10.217411,1.6175128,-0.6318584,0.11798674,-0.3087603,-0.70107114,-6.715785,1.739876,-0.059707493,-4.8678274,3.9398503,1.0415069,0
0.6300000000000003,15.98508821080273,-3.894705347582238,3.2275803158028644,1.7512450316469348,17.044622,-2.8700376,4.89238,1.2399943,10.526577,-10.199542,1.6170484,-0.6190188,0.14503355,-0.30471274,-0.7091761,-6.683056,1.8347393,-0.03341134,-4.716081,3.8287678,1.0763339,0
0.6400000000000003,15.98508821080273,-3.894705347582238,3.2275803158028644,1.7512450316469348,16.79084,-2.35924,4.2897525,1.2183766,10.459874,-10.180701,1.616839,-0.6057255,0.17109627,-0.3005779,-0.71657187,-6.658797,1.9341456,-0.00873111,-4.588003,3.7350035,1.109452,0
0.6500000000000004,15.98508821080273,-3.894705347582238,3.2275803158028644,1.7512450316469348,16.79084,-2.35924,4.2897525,1.2183766,10.393373,-10.160845,1.6168671,-0.5919973,0.19628957,-0.29635873,-0.72331226,-6.6429105,2.0375602,0.013992839,-4.479902,3.6558568,1.1409451,0
0.6600000000000004,15.98508821080273,-3.894705347582238,3.2275803158028644,1.7512450316469348,16.79084,-2.35924,4.2897525,1.2183766,10.326988,-10.139936,1.6171111,-0.5778488,0.22070917,-0.29205602,-0.72943884,-6.6353,2.1444793,0.034451373,-4.3886614,3.5890496,1.1708928,0
0.6700000000000004,15.98508821080273,-3.894705347582238,3.2275803158028644,1.7512450316469348,16.79084,-2.35924,4.2897525,1.2183766,10.260639,-10.117945,1.6175472,-0.5632914,0.2444345,-0.287669,-0.7349834,-6.6358676,2.254422,0.05236129,-4.3116517,3.5326574,1.1993709,0
0.6800000000000004,15.025959874792147,-2.31571828843787,1.740802100051547,1.4667701527915886,16.741646,-3.0449681,2.5342731,1.1790302,10.194244,-10.09484,1.6181487,-0.5483349,0.26753098,-0.28319606,-0.73996985,-6.6445117,2.3669262,0.06746135,-4.2466536,3.4850564,1.2264515,0
0.6900000000000004,15.025959874792147,-2.31571828843787,1.740802100051547,1.4667701527915886,16.741646,-3.0449681,2.5342731,1.1790302,10.1277275,-10.070633,1.6188529,-0.5333638,0.28928202,-0.27877563,-0.744394,-6.660082,2.4746537,0.0729243,-3.9453332,3.2132509,1.2382439,0
0.7000000000000004,15.025959874792147,-2.31571828843787,1.740802100051547,1.4667701527915886,16.741646,-3.0449681,2.5342731,1.1790302,10.061019,-10.045341,1.6195972,-0.5187316,0.3091482,-0.27454412,-0.7483113,-6.6826587,2.583869,0.07550162,-3.6910324,2.9838011,1.2494577,0
0.7100000000000004,15.025959874792147,-2.31571828843787,1.740802100051547,1.4667701527915886,16.741646,-3.0449681,2.5342731,1.1790302,9.994052,-10.018951,1.620353,-0.50439584,0.32741612,-0.2704908,-0.75180954,-6.7117577,2.6941335,0.07522345,-3.4764147,2.7901063,1.2601213,0
0.7200000000000004,13.96692523470185,-0.6511210393428014,0.05711435472639838,1.121494683059361,16.26926,-2.6540809,1.4610496,1.0783473,9.9267645,-9.991456,1.621092,-0.49031335,0.34432608,-0.26660126,-0.7549539,-6.746958,2.8050797,0.0721311,-3.2952878,2.6265945,1.2702616,0
0.7300000000000004,13.96692523470185,-0.6511210393428014,0.05711435472639838,1.121494683059361,16.26926,-2.6540809,1.4610496,1.0783473,9.859108,-9.962888,1.6217536,-0.47689265,0.3592624,-0.26302448,-0.7578399,-6.7849574,2.9085436,0.05980009,-2.8825898,2.2262406,1.2629616,0
0.7400000000000004,13.96692523470185,-0.6511210393428014,0.05711435472639838,1.121494683059361,16.26926,-2.6540809,1.4610496,1.0783473,9.791048,-9.933285,1.6222801,-0.46448576,0.37177235,-0.25989574,-0.7605865,-6.8276143,3.012067,0.04518033,-2.5343065,1.8882644,1.2560198,0
0.7500000000000004,13.96692523470185,-0.6511210393428014,0.05711435472639838,1.121494683059361,16.26926,-2.6540809,1.4610496,1.0783473,9.722541,-9.902647,1.6226504,-0.4529683,0.38225597,-0.2571742,-0.76325667,-6.874305,3.1154368,0.028571134,-2.2403846,1.6029476,1.2494185,0
0.7600000000000005,13.247136835584282,0.8485196668178132,-1.5125810563062674,0.771595605482577,13.739315,-0.7234224,0.18926224,0.6374245,9.653549,-9.870977,1.6228458,-0.44222492,0.39104548,-0.2548178,-0.7658901,-6.9245067,3.218502,0.010244232,-1.9923382,1.3620856,1.2431412,0
0.7700000000000005,13.247136835584282,0.8485196668178132,-1.5125810563062674,0.771595605482577,13.739315,-0.7234224,0.18926224,0.6374245,9.584054,-9.838305,1.62283,-0.43258294,0.3976855,-0.2529552,-0.7685904,-6.9749923,3.315867,-0.013563888,-1.5489312,0.91416526,1.2200023,0
0.7800000000000005,13.247136835584282,0.8485196668178132,-1.5125810563062674,0.771595605482577,13.739315,-0.7234224,0.18926224,0.6374245,9.514042,-9.804662,1.622571,-0.4243073,0.40183982,-0.25169256,-0.771452,-7.027722,3.4127803,-0.0383445,-1.1747417,0.5360297,1.1979988,0
0.7900000000000005,13.247136835584282,0.8485196668178132,-1.5125810563062674,0.771595605482577,13.739315,-0.7234224,0.18926224,0.6374245,9.443495,-9.770051,1.622061,-0.41720992,0.4039168,-0.25095594,-0.77447236,-7.082087,3.5092187,-0.06369457,-0.858963,0.21680802,1.1770749,0
0.8000000000000005,13.206171906338508,1.7943253253893494,-2.5660685137473096,0.4385594993183939,12.896714,0.3568679,-0.86476153,0.9668007,9.372397,-9.734478,1.6212962,-0.4111235,0.4042536,-0.2506759,-0.77763575,-7.137576,3.6051855,-0.08926939,-0.592476,-0.052677132,1.1571779,0
0.8100000000000005,13.206171906338508,1.7943253253893494,-2.5660685137473096,0.4385594993183939,12.896714,0.3568679,-0.86476153,0.9668007,9.300742,-9.697949,1.6202747,-0.4061919,0.40265653,-0.25089493,-0.78097814,-7.193557,3.7004044,-0.114982925,-0.2199703,-0.44435307,1.121915,0
0.8200000000000005,13.206171906338508,1.7943253253893494,-2.5660685137473096,0.4385594993183939,12.896714,0.3568679,-0.86476153,0.9668007,9.228526,-9.66047,1.618998,-0.40252072,0.39898375,-0.2516407,-0.7845159,-7.2496543,3.7952065,-0.14024164,0.094382964,-0.7750056,1.0883826,0
0.8300000000000005,13.206171906338508,1.7943253253893494,-2.5660685137473096,0.4385594993183939,12.896714,0.3568679,-0.86476153,0.9668007,9.155751,-9.622045,1.6174725,-0.39991912,0.39355865,-0.25283146,-0.7881952,-7.305348,3.889631,-0.16470478,0.35966444,-1.05414,1.0564957,0
0.8400000000000005,13.206171906338508,1.7943253253893494,-2.5660685137473096,0.4385594993183939,12.615577,0.9231999,-1.4558585,0.90610725,9.082422,-9.582678,1.6157075,-0.3982213,0.38664952,-0.25439394,-0.7919626,-7.3601885,3.983713,-0.18809745,0.5835358,-1.2897818,1.0261734,0
0.8500000000000005,13.206171906338508,1.7943253253893494,-2.5660685137473096,0.4385594993183939,12.615577,0.9231999,-1.4558585,0.90610725,9.008552,-9.542372,1.6137148,-0.3972841,0.37847993,-0.25626338,-0.79576784,-7.4137874,4.0774784,-0.21020266,0.77246296,-1.4887062,0.9973389,0
0.8600000000000005,13.206171906338508,1.7943253253893494,-2.5660685137473096,0.4385594993183939,12.615577,0.9231999,-1.4558585,0.90610725,8.934153,-9.501129,1.6115084,-0.39698443,0.36923704,-0.25838304,-0.7995653,-7.4658036,4.1709437,-0.2308538,0.9319015,-1.6566333,0.9699194,0
0.8700000000000006,13.206171906338508,1.7943253253893494,-2.5660685137473096,0.4385594993183939,12.615577,0.9231999,-1.4558585,0.90610725,8.859242,-9.458953,1.6091032,-0.397217,0.35907802,-0.26070347,-0.8033147,-7.5159397,4.264116,-0.24992776,1.066455,-1.7983922,0.9438454,0
0.8800000000000006,13.160552265677048,2.1285011297600986,-3.088185197292678,0.18538333675021837,11.563322,0.8287896,-1.3309457,0.7541883,8.783841,-9.415847,1.6065155,-0.39789185,0.34813535,-0.26318204,-0.8069809,-7.563934,4.35699,-0.2673388,1.1800088,-1.9180602,0.9190509,0
0.8900000000000006,13.160552265677048,2.1285011297600986,-3.088185197292678,0.18538333675021837,11.563322,0.8287896,-1.3309457,0.7541883,8.707972,-9.371816,1.603761,-0.39905804,0.33630666,-0.26579565,-0.81055677,-7.609384,4.4492307,-0.28330982,1.3279858,-2.100483,0.8830496,0
0.9000000000000006,13.160552265677048,2.1285011297600986,-3.088185197292678,0.18538333675021837,11.563322,0.8287896,-1.3309457,0.7541883,8.631662,-9.326863,1.6008557,-0.40074927,0.32351455,-0.2685208,-0.8140233,-7.6521726,4.541126,-0.29748386,1.452864,-2.2544749,0.8488149,0
0.9100000000000006,13.160552265677048,2.1285011297600986,-3.088185197292678,0.18538333675021837,11.563322,0.8287896,-1.3309457,0.7541883,8.554939,-9.280995,1.5978178,-0.40287334,0.3098967,-0.27132243,-0.8173373,-7.692023,4.6326284,-0.30980408,1.5582505,-2.3844664,0.81626016,0
0.9200000000000006,13.343615303112653,1.9376864691119486,-3.1128183144686914,-0.012662278891764325,11.686893,0.5526005,-1.3426099,0.29824957,8.477833,-9.234214,1.594666,-0.40535134,0.29557008,-0.27417067,-0.8204621,-7.728692,4.7236824,-0.320249,1.6471889,-2.4941967,0.78530276,0
0.9300000000000006,13.343615303112653,1.9376864691119486,-3.1128183144686914,-0.012662278891764325,11.686893,0.5526005,-1.3426099,0.29824957,8.400374,-9.186519,1.5914254,-0.4081167,0.2806642,-0.27696607,-0.82338154,-7.762431,4.8154798,-0.3275806,1.6924751,-2.5906906,0.7461464,0
0.9400000000000006,13.343615303112653,1.9376864691119486,-3.1128183144686914,-0.012662278891764325,11.686893,0.5526005,-1.3426099,0.29824957,8.3225975,-9.137908,1.5881208,-0.41111737,0.2652898,-0.27962807,-0.82608163,-7.792561,4.9066625,-0.33304307,1.7306905,-2.6721396,0.7089114,0
0.9500000000000006,13.343615303112653,1.9376864691119486,-3.1128183144686914,-0.012662278891764325,11.686893,0.5526005,-1.3426099,0.29824957,8.244536,-9.088388,1.5847708,-0.4143102,0.24951401,-0.28215873,-0.828538,-7.818939,4.997133,-0.33668068,1.7629402,-2.7408888,0.6735036,0
0.9600000000000006,13.807528268602537,1.3721470485491736,-2.7148656408716048,-0.1635993841550838,12.550918,0.52599895,-1.3768575,0.2636693,8.166231,-9.037969,1.5813934,-0.41765764,0.23339449,-0.28456008,-0.83073074,-7.8414407,5.086789,-0.33855674,1.7901559,-2.7989185,0.6398333,0
0.9700000000000006,13.807528268602537,1.3721470485491736,-2.7148656408716048,-0.1635993841550838,12.550918,0.52599895,-1.3768575,0.2636693,8.087718,-8.986642,1.5780225,-0.42104694,0.21721405,-0.28670922,-0.83266693,-7.8606167,5.178616,-0.3353487,1.7248906,-2.7858818,0.6004086,0
0.9800000000000006,13.807528268602537,1.3721470485491736,-2.7148656408716048,-0.1635993841550838,12.550918,0.52599895,-1.3768575,0.2636693,8.009033,-8.9344015,1.574692,-0.4243969,0.20120472,-0.28851232,-0.83436406,-7.8757,5.2693844,-0.33050802,1.6698083,-2.774869,0.5629185,0
0.9900000000000007,13.807528268602537,1.3721470485491736,-2.7148656408716048,-0.1635993841550838,12.550918,0.52599895,-1.3768575,0.2636693,7.9302177,-8.881258,1.5714176,-0.42771897,0.1853435,-0.29001078,-0.835821,-7.8867354,5.358989,-0.32414514,1.6233207,-2.7655666,0.52726805,0
1.0000000000000007,14.186593701446697,0.5780549770570792,-1.8829650941734157,-0.24859310633809217,13.673765,-0.5442759,-0.53032196,0.24000888,7.851312,-8.827227,1.5682139,-0.43102124,0.16961093,-0.29124,-0.8370369,-7.893764,5.44733,-0.31636944,1.5840868,-2.7577085,0.49336702,0
1.0100000000000007,14.186593701446697,0.5780549770570792,-1.8829650941734157,-0.24859310633809217,13.673765,-0.5442759,-0.53032196,0.24000888,7.772355,-8.7723055,1.5651094,-0.4341705,0.15441047,-0.2921075,-0.8380485,-7.8969316,5.536708,-0.30435112,1.4270906,-2.6213772,0.4569588,0
1.0200000000000007,14.186593701446697,0.5780549770570792,-1.8829650941734157,-0.24859310633809217,13.673765,-0.5442759,-0.53032196,0.24000888,7.693386,-8.716497,1.5621312,-0.43707436,0.14006549,-0.2925479,-0.8389053,-7.8962674,5.6246367,-0.29112872,1.2945929,-2.506291,0.42233714,0
1.0300000000000007,14.186593701446697,0.5780549770570792,-1.8829650941734157,-0.24859310633809217,13.673765,-0.5442759,-0.53032196,0.24000888,7.614442,-8.659818,1.5592906,-0.43979028,0.1264517,-0.2926251,-0.8396211,-7.8920174,5.711075,-0.27682304,1.1827706,-2.4091396,0.3894144,0
1.0400000000000007,14.186593701446697,0.5780549770570792,-1.8829650941734157,-0.24859310633809217,13.987568,-1.2369529,-0.01270172,0.32649693,7.535557,-8.602282,1.5565982,-0.44236395,0.1134629,-0.29239273,-0.8402055,-7.8843913,5.795988,-0.26153693,1.088397,-2.3271294,0.35810718,0
1.0500000000000007,14.186593701446697,0.5780549770570792,-1.8829650941734157,-0.24859310633809217,13.987568,-1.2369529,-0.01270172,0.32649693,7.4567647,-8.543904,1.554063,-0.44483164,0.101008534,-0.29189596,-0.8406648,-7.8735676,5.879346,-0.2453598,1.0087492,-2.2579005,0.3283362,0
1.0600000000000007,14.186593701446697,0.5780549770570792,-1.8829650941734157,-0.24859310633809217,13.987568,-1.2369529,-0.01270172,0.32649693,7.378096,-8.484701,1.5516936,-0.447222,0.089011416,-0.29117268,-0.84100324,-7.8596992,5.9611216,-0.22837071,0.9415293,-2.1994615,0.30002612,0
1.0700000000000007,14.186593701446697,0.5780549770570792,-1.8829650941734157,-0.24859310633809217,13.987568,-1.2369529,-0.01270172,0.32649693,7.299581,-8.424687,1.5494978,-0.44955742,0.07740585,-0.2902549,-0.8412235,-7.8429184,6.041289,-0.21064074,0.8847983,-2.1501307,0.27310523,0
1.0800000000000007,14.324480530302704,-0.12702004594936675,-1.0330980541972903,-0.28059226301901147,13.109933,-1.3801931,0.8358136,0.11323778,7.2212477,-8.36388,1.547483,-0.45185548,0.06613592,-0.2891696,-0.84132755,-7.8233366,6.119826,-0.19223496,0.8369192,-2.108489,0.24750535,0
1.0900000000000007,14.324480530302704,-0.12702004594936675,-1.0330980541972903,-0.28059226301901147,13.109933,-1.3801931,0.8358136,0.11323778,7.1431246,-8.302293,1.545661,-0.45401853,0.055569284,-0.28785676,-0.8413775,-7.8008614,6.197465,-0.17207554,0.6865336,-1.9408183,0.22159147,0
1.1000000000000008,14.324480530302704,-0.12702004594936675,-1.0330980541972903,-0.28059226301901147,13.109933,-1.3801931,0.8358136,0.11323778,7.065239,-8.239938,1.5440434,-0.45597827,0.045995925,-0.286274,-0.84143555,-7.7759447,6.2734776,-0.15134919,0.55961096,-1.7992873,0.19694917,0
1.1100000000000008,14.324480530302704,-0.12702004594936675,-1.0330980541972903,-0.28059226301901147,13.109933,-1.3801931,0.8358136,0.11323778,6.987613,-8.17683,1.5426357,-0.45778465,0.037266754,-0.28446546,-0.8414999,-7.7488627,6.347911,-0.13009779,0.45249012,-1.6798213,0.17351606,0
1.1200000000000008,14.389532639036117,-0.7344058870973055,-0.08853723577530365,-0.27047186129144335,13.205748,-1.7712787,1.3036778,0.25235918,6.9102683,-8.112985,1.5414431,-0.45947725,0.029255172,-0.28246775,-0.84156704,-7.7198467,6.420808,-0.10835302,0.36208138,-1.5789808,0.15123285,0
1.1300000000000008,14.389532639036117,-0.7344058870973055,-0.08853723577530365,-0.27047186129144335,13.205748,-1.7712787,1.3036778,0.25235918,6.8332233,-8.048417,1.5404731,-0.46097437,0.022283385,-0.28028116,-0.84169286,-7.68898,6.492541,-0.08559325,0.1910436,-1.3465666,0.13053969,0
1.1400000000000008,14.389532639036117,-0.7344058870973055,-0.08853723577530365,-0.27047186129144335,13.205748,-1.7712787,1.3036778,0.25235918,6.7564936,-7.983139,1.5397328,-0.46221718,0.016601251,-0.27790964,-0.84192884,-7.656734,6.562892,-0.06238162,0.04668873,-1.1503904,0.11086193,0
1.1500000000000008,14.389532639036117,-0.7344058870973055,-0.08853723577530365,-0.27047186129144335,13.205748,-1.7712787,1.3036778,0.25235918,6.680092,-7.9171634,1.5392269,-0.46326318,0.012011831,-0.27538514,-0.8422614,-7.623445,6.631983,-0.038727727,-0.07514659,-0.98480296,0.09214977,0
1.1600000000000008,14.120162416455852,-1.1605934608771837,0.6272140730903147,-0.23133375189868993,12.669192,-1.9439708,1.6794288,0.46296513,6.604027,-7.850503,1.5389599,-0.46415788,0.008348355,-0.2727335,-0.84267575,-7.589397,6.6999183,-0.014634333,-0.17797591,-0.8450349,0.074355826,0
1.1700000000000008,14.120162416455852,-1.1605934608771837,0.6272140730903147,-0.23133375189868993,12.669192,-1.9439708,1.6794288,0.46296513,6.528302,-7.7831755,1.5389245,-0.46485454,0.005788986,-0.26996526,-0.84320444,-7.5554943,6.765547,0.0076039885,-0.33123177,-0.61544275,0.059355546,0
1.1800000000000008,14.120162416455852,-1.1605934608771837,0.6272140730903147,-0.23133375189868993,12.669192,-1.9439708,1.6794288,0.46296513,6.4529176,-7.715195,1.5391135,-0.4653176,0.0044674478,-0.26708964,-0.84387255,-7.5214205,6.8302784,0.030278752,-0.46058196,-0.421652,0.04509134,0
1.1900000000000008,14.120162416455852,-1.1605934608771837,0.6272140730903147,-0.23133375189868993,12.669192,-1.9439708,1.6794288,0.46296513,6.377873,-7.646572,1.5395316,-0.46559384,0.0041935025,-0.26412374,-0.84465474,-7.487482,6.894251,0.053395644,-0.5697558,-0.2580802,0.03152709,0
1.2000000000000008,14.073774587260743,-1.3165820258658043,1.1355663559555726,-0.16960933906057457,12.968515,-1.7841674,2.6560454,0.7631407,6.303166,-7.5773125,1.5401831,-0.46572042,0.004806294,-0.26108107,-0.84552723,-7.4539394,6.9575796,0.07695987,-0.66190064,-0.12001532,0.01862844,0
1.2100000000000009,14.073774587260743,-1.3165820258658043,1.1355663559555726,-0.16960933906057457,12.968515,-1.7841674,2.6560454,0.7631407,6.2287917,-7.5074234,1.5410703,-0.4656672,0.0063689603,-0.2580144,-0.846487,-7.4211297,7.020163,0.10057199,-0.76399976,0.07579529,0.009391562,0
1.2200000000000009,14.073774587260743,-1.3165820258658043,1.1355663559555726,-0.16960933906057457,12.968515,-1.7841674,2.6560454,0.7631407,6.154741,-7.4369106,1.5421959,-0.4654097,0.008924242,-0.25496557,-0.8475287,-7.3891964,7.082345,0.12462219,-0.8501743,0.2410703,0.0006079322,0
1.2300000000000009,14.073774587260743,-1.3165820258658043,1.1355663559555726,-0.16960933906057457,12.968515,-1.7841674,2.6560454,0.7631407,6.081004,-7.365777,1.5435641,-0.46498197,0.012319047,-0.25192925,-0.8486282,-7.358375,7.1442537,0.1490957,-0.9229083,0.38057137,-0.0077446904,0
1.2400000000000009,14.073774587260743,-1.3165820258658043,1.1355663559555726,-0.16960933906057457,13.363957,-1.7794118,2.4016821,0.94626,6.0075693,-7.2940254,1.5451792,-0.4644114,0.016423896,-0.2489006,-0.84976405,-7.3288655,7.2059965,0.1739752,-0.9842984,0.49831778,-0.015687441,0
1.2500000000000009,14.073774587260743,-1.3165820258658043,1.1355663559555726,-0.16960933906057457,13.363957,-1.7794118,2.4016821,0.94626,5.934422,-7.2216573,1.547045,-0.46372014,0.021129249,-0.24587534,-0.8509175,-7.3008375,7.2676597,0.19924034,-1.0361141,0.59770197,-0.023240445,0
1.260000000000001,14.073774587260743,-1.3165820258658043,1.1355663559555726,-0.16960933906057457,13.363957,-1.7794118,2.4016821,0.94626,5.8615465,-7.1486726,1.5491651,-0.46292624,0.026342403,-0.24284971,-0.85207254,-7.2744355,7.3293138,0.22486793,-1.0798485,0.6815872,-0.030422812,0
1.270000000000001,14.073774587260743,-1.3165820258658043,1.1355663559555726,-0.16960933906057457,13.363957,-1.7794118,2.4016821,0.94626,5.7889276,-7.075071,1.5515434,-0.46204427,0.031984877,-0.23982048,-0.85321534,-7.2497835,7.3910165,0.25083187,-1.1167622,0.7523907,-0.037252735,0
1.280000000000001,13.950072675057918,-1.268372359203804,1.2326454262339308,-0.1010774083584611,12.447451,-1.1181089,2.0755324,0.91736937,5.716545,-7.000851,1.5541828,-0.46108624,0.037990205,-0.23678495,-0.8543344,-7.226986,7.452812,0.2771037,-1.1479189,0.8121524,-0.043747514,0
1.290000000000001,13.950072675057918,-1.268372359203804,1.2326454262339308,-0.1010774083584611,12.447451,-1.1181089,2.0755324,0.91736937,5.6443806,-6.9260163,1.5570809,-0.4600463,0.04432439,-0.23377554,-0.855418,-7.206316,7.514194,0.30255586,-1.1667001,0.87773085,-0.046560712,0
1.300000000000001,13.950072675057918,-1.268372359203804,1.2326454262339308,-0.1010774083584611,12.447451,-1.1181089,2.0755324,0.91736937,5.572412,-6.850567,1.5602347,-0.45891917,0.050957184,-0.23081796,-0.85645664,-7.187652,7.575748,0.32824168,-1.1825526,0.9330821,-0.04923585,0
1.310000000000001,13.950072675057918,-1.268372359203804,1.2326454262339308,-0.1010774083584611,12.447451,-1.1181089,2.0755324,0.91736937,5.5006204,-6.774501,1.5636463,-0.45771474,0.057841606,-0.227901,-0.85744447,-7.171062,7.637511,0.35411853,-1.195933,0.97980124,-0.051779732,0
1.320000000000001,14.003571995482371,-1.0679815836926982,1.1172156223286696,-0.027070933319491283,12.392437,-1.1415781,1.5437803,1.0124959,5.428984,-6.697816,1.5673175,-0.45644096,0.06493782,-0.2250153,-0.85837704,-7.156603,7.6995106,0.3801437,-1.2072269,1.0192345,-0.054198775,0
1.330000000000001,14.003571995482371,-1.0679815836926982,1.1172156223286696,-0.027070933319491283,12.392437,-1.1415781,1.5437803,1.0124959,5.357481,-6.6205087,1.5712519,-0.4551128,0.07213379,-0.2222015,-0.8592403,-7.144271,7.762007,0.40675014,-1.1855121,1.0345129,-0.05286761,0
1.340000000000001,14.003571995482371,-1.0679815836926982,1.1172156223286696,-0.027070933319491283,12.392437,-1.1415781,1.5437803,1.0124959,5.2860913,-6.542575,1.5754527,-0.45374236,0.07933876,-0.2194922,-0.86002594,-7.1341257,7.82478,0.43341503,-1.1671835,1.0474088,-0.05160176,0
1.350000000000001,14.003571995482371,-1.0679815836926982,1.1172156223286696,-0.027070933319491283,12.392437,-1.1415781,1.5437803,1.0124959,5.214792,-6.4640117,1.5799202,-0.45233235,0.08655024,-0.21686931,-0.86073834,-7.1261578,7.887841,0.46009272,-1.1517134,1.0582936,-0.05039803,0
1.360000000000001,13.802945658433279,-0.7737269189347341,0.6835113439905816,0.042258159763311494,15.145121,-2.1404495,-1.0806859,2.3426533,5.1435614,-6.384817,1.5846545,-0.45088488,0.09376607,-0.21431753,-0.8613809,-7.1203613,7.9511986,0.48674014,-1.138656,1.067481,-0.049253356,0
1.370000000000001,13.802945658433279,-0.7737269189347341,0.6835113439905816,0.042258159763311494,15.145121,-2.1404495,-1.0806859,2.3426533,5.0723777,-6.3049917,1.589646,-0.44944313,0.10077999,-0.21184832,-0.8619529,-7.1167684,8.01394,0.51153183,-1.0817505,1.0075961,-0.044762872,0
1.380000000000001,13.802945658433279,-0.7737269189347341,0.6835113439905816,0.042258159763311494,15.145121,-2.1404495,-1.0806859,2.3426533,5.0012193,-6.224538,1.5948849,-0.4480426,0.10742868,-0.2094715,-0.8624598,-7.115211,8.076948,0.5362297,-1.0337187,0.957051,-0.040492736,0
1.390000000000001,13.802945658433279,-0.7737269189347341,0.6835113439905816,0.042258159763311494,15.145121,-2.1404495,-1.0806859,2.3426533,4.930067,-6.1434517,1.6003702,-0.44667423,0.11376815,-0.20717287,-0.8629117,-7.1155934,8.140193,0.56081545,-0.9931768,0.914389,-0.036432125,0
1.400000000000001,13.383936908104824,-0.5022026337955393,0.09323119210029092,0.11013131984550147,14.579684,-2.4536848,-2.2707205,2.6490245,4.858901,-6.0617323,1.6061007,-0.44533017,0.119845696,-0.20494029,-0.8633167,-7.117833,8.203649,0.5852726,-0.9589569,0.8783806,-0.03257079,0
1.410000000000001,13.383936908104824,-0.5022026337955393,0.09323119210029092,0.11013131984550147,14.579684,-2.4536848,-2.2707205,2.6490245,4.7877045,-5.9793873,1.6120564,-0.44405848,0.1254473,-0.20275335,-0.8636923,-7.1217256,8.265353,0.6058744,-0.88773245,0.7559313,-0.025568357,0
1.420000000000001,13.383936908104824,-0.5022026337955393,0.09323119210029092,0.11013131984550147,14.579684,-2.4536848,-2.2707205,2.6490245,4.716461,-5.8964243,1.6182176,-0.44289738,0.13040575,-0.20059657,-0.8640576,-7.127193,8.32717,0.6263556,-0.827614,0.652579,-0.018909542,0
1.430000000000001,13.383936908104824,-0.5022026337955393,0.09323119210029092,0.11013131984550147,14.579684,-2.4536848,-2.2707205,2.6490245,4.645156,-5.8128433,1.6245831,-0.4418273,0.13482079,-0.19846681,-0.8644196,-7.134086,8.389034,0.64673805,-0.7768696,0.56534517,-0.012577485,0
1.440000000000001,13.383936908104824,-0.5022026337955393,0.09323119210029092,0.11013131984550147,15.115238,-2.4788482,-3.503916,2.9734712,4.5737753,-5.7286444,1.631152,-0.44083133,0.1387766,-0.19636105,-0.86478287,-7.142279,8.4508915,0.6670417,-0.7340378,0.4917159,-0.006556129,0
1.450000000000001,13.383936908104824,-0.5022026337955393,0.09323119210029092,0.11013131984550147,15.115238,-2.4788482,-3.503916,2.9734712,4.5023065,-5.6438255,1.6379236,-0.43989518,0.14234419,-0.19427659,-0.8651504,-7.1516647,8.512694,0.6872846,-0.6978851,0.4295696,-0.0008302487,0
1.460000000000001,13.383936908104824,-0.5022026337955393,0.09323119210029092,0.11013131984550147,15.115238,-2.4788482,-3.503916,2.9734712,4.4307384,-5.55839,1.6448973,-0.4390067,0.14558348,-0.19221093,-0.865524,-7.1621537,8.574407,0.70748264,-0.66736996,0.37711564,0.0046146684,0
1.470000000000001,13.383936908104824,-0.5022026337955393,0.09323119210029092,0.11013131984550147,15.115238,-2.4788482,-3.503916,2.9734712,4.3590603,-5.472338,1.652073,-0.43815556,0.14854507,-0.19016187,-0.86590457,-7.1736703,8.635996,0.7276496,-0.6416132,0.33284202,0.009792397,0
1.480000000000001,12.726739002494316,-0.31164714207490457,-0.5667466279266578,0.1763631015060946,16.256643,-2.2150977,-4.2632666,3.028905,4.2872615,-5.385671,1.6594503,-0.43733317,0.15127166,-0.18812743,-0.8662926,-7.1861496,8.697433,0.74779725,-0.6198729,0.29547307,0.014716058,0
1.490000000000001,12.726739002494316,-0.31164714207490457,-0.5667466279266578,0.1763631015060946,16.256643,-2.2150977,-4.2632666,3.028905,4.2153373,-5.298405,1.6669999,-0.43658644,0.15353566,-0.1860578,-0.8667179,-7.198868,8.755683,0.76213527,-0.5718048,0.16100788,0.022648126,0
1.500000000000001,12.726739002494316,-0.31164714207490457,-0.5667466279266578,0.1763631015060946,16.256643,-2.2150977,-4.2632666,3.028905,4.1432824,-5.2105584,1.6746931,-0.43595135,0.15515849,-0.18391405,-0.867206,-7.212315,8.813686,0.7765152,-0.531232,0.047512904,0.03019096,0
1.5100000000000011,12.726739002494316,-0.31164714207490457,-0.5667466279266578,0.1763631015060946,16.256643,-2.2150977,-4.2632666,3.028905,4.0710893,-5.122133,1.6825305,-0.4354062,0.15623935,-0.18170889,-0.8677505,-7.2263627,8.871367,0.79098696,-0.4969858,-0.04828223,0.037363674,0
1.5200000000000011,11.720728674504812,-0.19637744151913275,-1.204470427348792,0.2508700010807458,16.269306,-2.3873506,-4.962838,3.1428576,3.9987538,-5.0331326,1.6905133,-0.43493265,0.1568619,-0.17945288,-0.868345,-7.2409034,8.928664,0.8055931,-0.46807992,-0.12913774,0.044184424,0
1.5300000000000011,11.720728674504812,-0.19637744151913275,-1.204470427348792,0.2508700010807458,16.269306,-2.3873506,-4.962838,3.1428576,3.9262764,-4.943584,1.6985984,-0.43456003,0.15685336,-0.17708522,-0.869019,-7.2546535,8.981018,0.81145227,-0.42570138,-0.29683685,0.054326553,0
1.5400000000000011,11.720728674504812,-0.19637744151913275,-1.204470427348792,0.2508700010807458,16.269306,-2.3873506,-4.962838,3.1428576,3.85366,-4.8535137,1.7067432,-0.43430862,0.15607995,-0.17455827,-0.8697948,-7.268629,9.032863,0.8175359,-0.38993073,-0.43838283,0.063971,0
1.5500000000000012,11.720728674504812,-0.19637744151913275,-1.204470427348792,0.2508700010807458,16.269306,-2.3873506,-4.962838,3.1428576,3.7809036,-4.762929,1.7149502,-0.4341519,0.1546592,-0.17189746,-0.8706563,-7.2826962,9.084104,0.8239058,-0.35973784,-0.55785465,0.07314219,0
1.5600000000000012,10.806686183343448,-0.24232182199346194,-1.8088413065313207,0.3410323280162387,15.36243,-2.5355914,-5.255941,3.2721267,3.7080061,-4.6718345,1.7232225,-0.43406734,0.15269029,-0.16912398,-0.87158865,-7.2967434,9.134658,0.8306126,-0.33425343,-0.65869474,0.08186335,0
1.5700000000000012,10.806686183343448,-0.24232182199346194,-1.8088413065313207,0.3410323280162387,15.36243,-2.5355914,-5.255941,3.2721267,3.6349742,-4.5802574,1.7315228,-0.43406403,0.15005204,-0.16613607,-0.87262255,-7.3095818,9.180563,0.82949877,-0.31990033,-0.8380614,0.09458085,0
1.5800000000000012,10.806686183343448,-0.24232182199346194,-1.8088413065313207,0.3410323280162387,15.36243,-2.5355914,-5.255941,3.2721267,3.5618153,-4.4882255,1.739814,-0.43414477,0.14665183,-0.16285357,-0.8737784,-7.3221917,9.225647,0.8287988,-0.307785,-0.9894557,0.106674284,0
1.5900000000000012,10.806686183343448,-0.24232182199346194,-1.8088413065313207,0.3410323280162387,15.36243,-2.5355914,-5.255941,3.2721267,3.4885316,-4.3957477,1.7481004,-0.43428382,0.1426054,-0.15932167,-0.87502927,-7.3344636,9.269797,0.82856905,-0.29755887,-1.1172401,0.11817431,0
1.6000000000000012,10.119370900596412,-0.4156279131862499,-2.1954678468752937,0.4652400865058945,16.816816,-4.3569374,-5.6183167,4.5884624,3.4151273,-4.3028336,1.7563871,-0.43445963,0.13801047,-0.15557829,-0.87635136,-7.346304,9.312913,0.8288521,-0.28892776,-1.2250962,0.12911002,0
1.6100000000000012,10.119370900596412,-0.4156279131862499,-2.1954678468752937,0.4652400865058945,16.816816,-4.3569374,-5.6183167,4.5884624,3.3416107,-4.209507,1.7646478,-0.43465465,0.13284172,-0.15152925,-0.8777617,-7.3569098,9.352231,0.8233895,-0.30865905,-1.3764303,0.14560403,0
1.6200000000000012,10.119370900596412,-0.4156279131862499,-2.1954678468752937,0.4652400865058945,16.816816,-4.3569374,-5.6183167,4.5884624,3.267991,-4.115793,1.7728567,-0.43485072,0.12708259,-0.14710109,-0.87926936,-7.366959,9.390378,0.8184763,-0.32531327,-1.5041637,0.16128868,0
1.6300000000000012,10.119370900596412,-0.4156279131862499,-2.1954678468752937,0.4652400865058945,16.816816,-4.3569374,-5.6183167,4.5884624,3.1942737,-4.021704,1.7810194,-0.4350303,0.12082133,-0.14235102,-0.88084364,-7.3763833,9.427242,0.814143,-0.33937088,-1.6119771,0.17620367,0
1.6400000000000012,10.119370900596412,-0.4156279131862499,-2.1954678468752937,0.4652400865058945,16.468853,-4.578644,-5.4853964,4.704865,3.1204655,-3.9272532,1.7891417,-0.43517885,0.11413277,-0.13732728,-0.88245845,-7.385124,9.462726,0.8104067,-0.35123694,-1.7029768,0.19038676,0
1.6500000000000012,10.119370900596412,-0.4156279131862499,-2.1954678468752937,0.4652400865058945,16.468853,-4.578644,-5.4853964,4.704865,3.0465739,-3.8324547,1.7972295,-0.43528435,0.10708041,-0.13207065,-0.8840912,-7.39313,9.496743,0.80727345,-0.36125362,-1.779785,0.2038739,0
1.6600000000000013,10.119370900596412,-0.4156279131862499,-2.1954678468752937,0.4652400865058945,16.468853,-4.578644,-5.4853964,4.704865,2.972606,-3.7373238,1.8052891,-0.4353372,0.099718146,-0.12661552,-0.8857228,-7.400356,9.52922,0.80473995,-0.3697093,-1.8446149,0.21669921,0
1.6700000000000013,10.119370900596412,-0.4156279131862499,-2.1954678468752937,0.4652400865058945,16.468853,-4.578644,-5.4853964,4.704865,2.8985696,-3.6418762,1.8133264,-0.4353296,0.09209186,-0.12099104,-0.887337,-7.4067626,9.560092,0.80279475,-0.37684757,-1.8993342,0.22889519,0
1.6800000000000013,9.74280963389667,-0.6466697913575692,-2.237194039244528,0.5928686532150452,15.944192,-4.0624,-5.3205004,4.1606326,2.8244736,-3.5461278,1.8213471,-0.4352553,0.08424061,-0.115221836,-0.88892007,-7.412316,9.589303,0.80141973,-0.3828738,-1.9455199,0.24049272,0
1.6900000000000013,9.74280963389667,-0.6466697913575692,-2.237194039244528,0.5928686532150452,15.944192,-4.0624,-5.3205004,4.1606326,2.7503276,-3.450101,1.8293388,-0.4350897,0.076221235,-0.10924058,-0.89047873,-7.4168153,9.615779,0.796972,-0.42398325,-1.9910173,0.2577839,0
1.7000000000000013,9.74280963389667,-0.6466697913575692,-2.237194039244528,0.5928686532150452,15.944192,-4.0624,-5.3205004,4.1606326,2.6761405,-3.353818,1.8372885,-0.4348117,0.06808056,-0.10299483,-0.89201707,-7.420458,9.640546,0.7930276,-0.45868286,-2.0294192,0.2742266,0
1.7100000000000013,9.74280963389667,-0.6466697913575692,-2.237194039244528,0.5928686532150452,15.944192,-4.0624,-5.3205004,4.1606326,2.6019216,-3.2572963,1.845201,-0.4344217,0.059835993,-0.096524045,-0.89352065,-7.4232426,9.663545,0.7895594,-0.48797265,-2.0618317,0.28986248,0
1.7200000000000013,9.48314909121187,-0.9030096641186495,-1.8640957783113676,0.7338835703550827,15.901346,-3.9471703,-5.0981026,3.9066808,2.527679,-3.1605535,1.8530812,-0.43392017,0.051502544,-0.089861654,-0.8949772,-7.425166,9.684727,0.78653574,-0.5126961,-2.089189,0.30473107,0
1.7300000000000013,9.48314909121187,-0.9030096641186495,-1.8640957783113676,0.7338835703550827,15.901346,-3.9471703,-5.0981026,3.9066808,2.4534216,-3.0636108,1.8609204,-0.43327475,0.043269925,-0.08300984,-0.89638644,-7.4262037,9.703537,0.7813755,-0.57354397,-2.0541058,0.32578975,0
1.7400000000000013,9.48314909121187,-0.9030096641186495,-1.8640957783113676,0.7338835703550827,15.901346,-3.9471703,-5.0981026,3.9066808,2.3791578,-2.966489,1.8687099,-0.43246123,0.03528966,-0.07597185,-0.8977521,-7.4264507,9.720518,0.7765724,-0.6249037,-2.024493,0.345815,0
1.7500000000000013,9.48314909121187,-0.9030096641186495,-1.8640957783113676,0.7338835703550827,15.901346,-3.9471703,-5.0981026,3.9066808,2.304895,-2.8692067,1.8764529,-0.4314914,0.027522352,-0.068775386,-0.89906967,-7.4259577,9.735656,0.77208495,-0.66825503,-1.999497,0.36485764,0
1.7600000000000013,9.291267961918086,-1.1686678424134769,-1.4894308692730949,0.9142149485903884,15.596933,-3.6852357,-4.4280767,3.673831,2.2306406,-2.7717822,1.8841524,-0.43037528,0.019934919,-0.06144396,-0.90033495,-7.424766,9.748939,0.76787233,-0.70484656,-1.9783983,0.38296586,0
1.7700000000000014,9.291267961918086,-1.1686678424134769,-1.4894308692730949,0.9142149485903884,15.596933,-3.6852357,-4.4280767,3.673831,2.1564016,-2.6742353,1.8918016,-0.4290907,0.012679035,-0.05396665,-0.90155786,-7.422955,9.760129,0.7619893,-0.77716565,-1.9021753,0.4090344,0
1.7800000000000014,9.291267961918086,-1.1686678424134769,-1.4894308692730949,0.9142149485903884,15.596933,-3.6852357,-4.4280767,3.673831,2.0821836,-2.5765858,1.8993928,-0.42762113,0.005873716,-0.04633559,-0.9027499,-7.420576,9.769501,0.7562959,-0.83820754,-1.8378379,0.43382376,0
1.7900000000000014,9.291267961918086,-1.1686678424134769,-1.4894308692730949,0.9142149485903884,15.596933,-3.6852357,-4.4280767,3.673831,2.0079918,-2.4788518,1.9069281,-0.42598125,-0.00055061607,-0.038573395,-0.90390843,-7.417706,9.777063,0.75075436,-0.8897305,-1.783532,0.45739672,0
1.8000000000000014,9.238464481427807,-1.3506596286816872,-0.9375283810245874,1.0581864664632776,15.385342,-2.9232426,-4.674536,2.9589977,1.933831,-2.3810508,1.9144084,-0.4241833,-0.006652584,-0.030699315,-0.90503067,-7.414409,9.7828245,0.7453282,-0.9332189,-1.7376935,0.47981295,0
1.8100000000000014,9.238464481427807,-1.3506596286816872,-0.9375283810245874,1.0581864664632776,15.385342,-2.9232426,-4.674536,2.9589977,1.8597049,-2.2832017,1.9218323,-0.4222162,-0.0122512495,-0.022757191,-0.90612596,-7.410766,9.786774,0.7394551,-0.99832755,-1.6129469,0.5081939,0
1.8200000000000014,9.238464481427807,-1.3506596286816872,-0.9375283810245874,1.0581864664632776,15.385342,-2.9232426,-4.674536,2.9589977,1.7856166,-2.1853216,1.9291978,-0.42007336,-0.01720551,-0.014782116,-0.90720594,-7.4068556,9.788982,0.7336292,-1.0532818,-1.5076524,0.5351822,0
1.8300000000000014,9.238464481427807,-1.3506596286816872,-0.9375283810245874,1.0581864664632776,15.385342,-2.9232426,-4.674536,2.9589977,1.7115685,-2.087428,1.9365051,-0.41776958,-0.021614574,-0.0067775957,-0.90826994,-7.4027734,9.7894945,0.727821,-1.099665,-1.4187764,0.56084615,0
1.8400000000000014,9.238464481427807,-1.3506596286816872,-0.9375283810245874,1.0581864664632776,15.341567,-2.9972885,-4.282889,3.0975275,1.6375614,-1.9895374,1.9437542,-0.41531688,-0.025562141,0.0012531835,-0.90931606,-7.3985996,9.788346,0.722003,-1.1388134,-1.3437583,0.5852508,0
1.8500000000000014,9.238464481427807,-1.3506596286816872,-0.9375283810245874,1.0581864664632776,15.341567,-2.9972885,-4.282889,3.0975275,1.5635964,-1.8916665,1.950945,-0.4127251,-0.029118799,0.009307292,-0.9103418,-7.3944006,9.785567,0.71614915,-1.1718554,-1.2804374,0.6084579,0
1.8600000000000014,9.238464481427807,-1.3506596286816872,-0.9375283810245874,1.0581864664632776,15.341567,-2.9972885,-4.282889,3.0975275,1.4896733,-1.7938317,1.9580768,-0.4100024,-0.032344066,0.017382024,-0.91134423,-7.390231,9.781183,0.71023434,-1.1997432,-1.2269893,0.63052624,0
1.8700000000000014,9.238464481427807,-1.3506596286816872,-0.9375283810245874,1.0581864664632776,15.341567,-2.9972885,-4.282889,3.0975275,1.4157915,-1.6960485,1.9651493,-0.40715575,-0.035288114,0.02547486,-0.9123204,-7.3861356,9.775215,0.7042339,-1.2232807,-1.1818744,0.65151167,0
1.8800000000000014,9.222719605245775,-1.3712510212307931,-0.3851030067872757,1.162661372783344,15.4178505,-2.9113088,-3.9495642,3.1044672,1.3419502,-1.5983329,1.9721612,-0.40419096,-0.037993226,0.03358345,-0.91326714,-7.3821497,9.767681,0.69812346,-1.2431467,-1.1437933,0.6714673,0
1.8900000000000015,9.222719605245775,-1.3712510212307931,-0.3851030067872757,1.162661372783344,15.4178505,-2.9113088,-3.9495642,3.1044672,1.2681481,-1.5007002,1.9791105,-0.40111008,-0.040289283,0.04162459,-0.9141955,-7.3783154,9.758619,0.6917233,-1.2631599,-1.0255046,0.69557035,0
1.9000000000000015,9.222719605245775,-1.3712510212307931,-0.3851030067872757,1.162661372783344,15.4178505,-2.9113088,-3.9495642,3.1044672,1.1943833,-1.4031657,1.9859949,-0.3979165,-0.04204296,0.04953306,-0.9151173,-7.3746915,9.748073,0.68517274,-1.280048,-0.9256609,0.7184906,0
1.9100000000000015,9.222719605245775,-1.3712510212307931,-0.3851030067872757,1.162661372783344,15.4178505,-2.9113088,-3.9495642,3.1044672,1.1206534,-1.3057437,1.9928132,-0.39461657,-0.04333676,0.057330783,-0.9160302,-7.371343,9.736099,0.67845714,-1.2942984,-0.8413864,0.7402862,0
1.9200000000000015,9.233323400411278,-1.3296447996970258,0.24002031100313578,1.2483891370970923,15.341099,-2.971052,-3.6528568,3.2398937,1.0469552,-1.2084484,1.9995633,-0.3912153,-0.044240344,0.06503593,-0.91693085,-7.368325,9.722748,0.6715621,-1.306323,-0.7702528,0.7610122,0
1.9300000000000015,9.233323400411278,-1.3296447996970258,0.24002031100313578,1.2483891370970923,15.341099,-2.971052,-3.6528568,3.2398937,0.9732855,-1.1112934,2.0062442,-0.3877235,-0.04458882,0.072551295,-0.9178328,-7.3656864,9.708051,0.66457915,-1.3100283,-0.6127236,0.7849279,0
1.9400000000000015,9.233323400411278,-1.3296447996970258,0.24002031100313578,1.2483891370970923,15.341099,-2.971052,-3.6528568,3.2398937,0.8996399,-1.0142918,2.0128543,-0.38415152,-0.04425417,0.079801545,-0.9187488,-7.3635106,9.69211,0.6573989,-1.3131481,-0.4797595,0.80767006,0
1.9500000000000015,9.233323400411278,-1.3296447996970258,0.24002031100313578,1.2483891370970923,15.341099,-2.971052,-3.6528568,3.2398937,0.8260134,-0.9174553,2.0193918,-0.38050193,-0.04334039,0.08682966,-0.91967326,-7.3618784,9.675009,0.65001917,-1.3157744,-0.36753014,0.82929623,0
1.9600000000000015,9.3034625614144,-1.1711014054805746,0.605487548668287,1.2649986584420954,14.637699,-3.2124043,-3.114247,3.168059,0.75240016,-0.82079536,2.0258539,-0.37677625,-0.041935343,0.093671404,-0.9206005,-7.360858,9.656818,0.64243644,-1.3179849,-0.27280188,0.8498612,0
1.9700000000000015,9.3034625614144,-1.1711014054805746,0.605487548668287,1.2649986584420954,14.637699,-3.2124043,-3.114247,3.168059,0.6787939,-0.7243232,2.0322428,-0.37298515,-0.0400022,0.100243375,-0.9215376,-7.360504,9.637457,0.63533294,-1.2951525,-0.13583778,0.87023216,0
1.9800000000000015,9.3034625614144,-1.1711014054805746,0.605487548668287,1.2649986584420954,14.637699,-3.2124043,-3.114247,3.168059,0.60518765,-0.62804943,2.0385594,-0.36913842,-0.03751529,0.106481306,-0.9224909,-7.3608885,9.617152,0.6280233,-1.2758719,-0.020233665,0.88960356,0
1.9900000000000015,9.3034625614144,-1.1711014054805746,0.605487548668287,1.2649986584420954,14.637699,-3.2124043,-3.114247,3.168059,0.5315735,-0.53198314,2.0448022,-0.3652354,-0.034558285,0.11243816,-0.9234526,-7.36207,9.595987,0.6205102,-1.2595904,0.07734153,0.9080243,0
2.0000000000000013,,,,,14.73928,-2.616574,-2.9525163,3.0957992,0.45794326,-0.43613246,2.050969,-0.36127514,-0.031202009,0.11815817,-0.9244153,-7.364097,9.574032,0.61279386,-1.2458411,0.1596996,0.92554116,0
2.010000000000001,,,,,14.73928,-2.616574,-2.9525163,3.0957992,0.3842882,-0.34050664,2.0570638,-0.3572686,-0.027430525,0.12358364,-0.92538214,-7.3670545,9.551025,0.60615885,-1.2104338,0.2705208,0.9417537,0
2.020000000000001,,,,,14.73928,-2.616574,-2.9525163,3.0957992,0.3105989,-0.24511425,2.063091,-0.35322568,-0.023234129,0.12867087,-0.9263551,-7.370959,9.527358,0.59931976,-1.1805395,0.3640574,0.95717067,0
2.0300000000000007,,,,,14.73928,-2.616574,-2.9525163,3.0957992,0.23686564,-0.1499615,2.0690491,-0.3491436,-0.018676689,0.13347258,-0.9273258,-7.37585,9.503105,0.5922791,-1.1552998,0.44300514,0.9718311,0
2.0400000000000005,,,,,14.73928,-2.616574,-2.9525163,3.0957992,0.1630784,-0.05505395,2.0749357,-0.34501985,-0.013812374,0.13803285,-0.9282864,-7.381765,9.478328,0.5850362,-1.1339893,0.5096395,0.98577213,0
2.0500000000000003,,,,,14.676407,-2.5797749,-2.9457655,3.0601735,0.08922676,0.03960342,2.080749,-0.34085217,-0.008687135,0.1423886,-0.92922974,-7.3887315,9.453075,0.57758784,-1.1159966,0.565881,0.9990291,1
2.06,,,,,14.676407,-2.5797749,-2.9457655,3.0601735,0.015274977,0.13392378,2.0867767,-0.33626297,-0.0043914155,0.14739698,-0.9301506,-7.4018283,9.411002,0.6273507,-1.2660393,0.09600061,1.0931729,1
2.07,,,,,14.676407,-2.5797749,-2.9457655,3.0601735,-0.05881346,0.22782251,2.093283,-0.33088613,-0.0018606698,0.15388457,-0.93103623,-7.415991,9.368656,0.6732828,-1.4290531,-0.3370286,1.1859517,1
2.0799999999999996,,,,,14.676407,-2.5797749,-2.9457655,3.0601735,-0.13304704,0.321294,2.1002293,-0.3247322,-0.0009193909,0.16182996,-0.93185693,-7.430809,9.3254385,0.7154885,-1.600242,-0.7361724,1.2771903,1
2.0899999999999994,,,,,16.327393,-3.0275092,-3.6103053,3.78472,-0.20743154,0.4143239,2.107588,-0.31782135,-0.0013798958,0.17112665,-0.93257785,-7.4461617,9.280139,0.7561377,-1.7526524,-1.0809834,1.3646818,1
2.099999999999999,,,,,16.327393,-3.0275092,-3.6103053,3.78472,-0.28198242,0.5068532,2.115447,-0.310094,-0.0031284553,0.18165947,-0.93318266,-7.4639835,9.225371,0.8149628,-1.9109861,-1.4356558,1.4798237,1
2.109999999999999,,,,,16.327393,-3.0275092,-3.6103053,3.78472,-0.35670984,0.5988226,2.123872,-0.30146405,-0.0061253896,0.19345474,-0.9336248,-7.4814277,9.168032,0.8694786,-2.0777743,-1.7682198,1.5922892,1
2.1199999999999988,,,,,16.327393,-3.0275092,-3.6103053,3.78472,-0.43160945,0.6902003,2.13283,-0.2919484,-0.010228924,0.20641784,-0.9338369,-7.4984,9.106853,0.921797,-2.2254436,-2.055801,1.6998724,1
2.1299999999999986,,,,,16.109756,-2.9099474,-3.8844712,3.9302642,-0.5066753,0.7809442,2.142302,-0.28158924,-0.015257808,0.22034475,-0.93376714,-7.5146284,9.0412035,0.97230077,-2.3501046,-2.2985194,1.8021764,1
2.1399999999999983,,,,,16.109756,-2.9099474,-3.8844712,3.9302642,-0.58189726,0.8710126,2.152259,-0.27038613,-0.021163687,0.2350385,-0.9333801,-7.529575,8.971724,1.0187668,-2.436949,-2.5461152,1.9066021,1
2.149999999999998,,,,,16.109756,-2.9099474,-3.8844712,3.9302642,-0.65726185,0.9603618,2.1626697,-0.2583406,-0.027896192,0.25032976,-0.93263876,-7.5430923,8.897325,1.0629057,-2.510276,-2.7550843,2.0059037,1
2.159999999999998,,,,,16.109756,-2.9099474,-3.8844712,3.9302642,-0.73275304,1.0489417,2.1735086,-0.24549708,-0.035304148,0.26608562,-0.9314942,-7.5548205,8.817869,1.1044439,-2.5721943,-2.9314506,2.1003327,1
2.1699999999999977,,,,,15.035538,-2.223271,-3.3165736,3.8440895,-0.80835104,1.1367015,2.1847486,-0.23189895,-0.043257866,0.2821919,-0.92990184,-7.5644236,8.7332945,1.1431068,-2.6244833,-3.0802987,2.190128,1
2.1799999999999975,,,,,15.035538,-2.223271,-3.3165736,3.8440895,-0.8840306,1.2236196,2.196315,-0.2176524,-0.05150005,0.29824454,-0.9279135,-7.571111,8.649602,1.1697247,-2.561697,-3.117192,2.2712884,1
