t,px,py,pz,qx,qy,qz,qw,vx,vy,vz,wx,wy,wz,throttle_mpc,roll_mpc,pitch_mpc,yaw_mpc,throttle_nw,roll_nw,pitch_nw,yaw_nw,network_used
-2.0,20.496525,-8.416841999999999,1.8647349999999998,-0.45685852,0.26953459999999996,0.82024,-0.21409737,-10.360852000000001,-6.8645864,0.4285045,2.0541573,-0.5095244999999999,-0.037589304,8.592170186834661,5.9999996204039965,-5.999999935697329,-5.758901667564078,13.508904999999999,-2.7093952,-5.336432,-0.27322176,0
-1.99,20.392082000000002,-8.485247,1.8689486000000002,-0.45679805,0.27800804,0.81895393,-0.20823438,-10.526739,-6.815952,0.41362044,1.9340613999999998,-0.6306182,-0.21967960000000003,8.592170186834661,5.9999996204039965,-5.999999935697329,-5.758901667564078,12.955229,-5.3959410000000005,-5.8327465,0.41587695,0
-1.98,20.286003,-8.553153,1.8729947,-0.45636725,0.28570688,0.81817704,-0.20170963,-10.688272999999999,-6.765067,0.39505163,1.8332971000000002,-0.7334229,-0.39726013,8.592170186834661,5.9999996204039965,-5.999999935697329,-5.758901667564078,12.955229,-5.3959410000000005,-5.8327465,0.41587695,0
-1.97,20.178331,-8.620541000000001,1.8768381999999997,-0.45565920000000004,0.29269403,0.8178422,-0.19452246,-10.845388999999999,-6.712119599999999,0.37315008,1.7487433000000001,-0.82068443,-0.57044256,8.592170186834661,5.9999996204039965,-5.999999935697329,-5.758901667564078,12.955229,-5.3959410000000005,-5.8327465,0.41587695,0
-1.96,20.069109,-8.687389,1.8804473000000002,-0.45475042,0.29902294,0.8178873000000001,-0.18667515,-10.998051,-6.6572804,0.34821817,1.6777838,-0.89473987,-0.7393359,8.592170186834661,5.9999996204039965,-5.999999935697329,-5.758901667564078,8.309234,-4.686194,-6.09283,0.40867790000000004,0
-1.95,19.958384,-8.753680000000001,1.8837931,-0.45370337,0.30473903,0.8182555,-0.17817226,-11.146245,-6.6007104000000005,0.32051706,1.6182268,-0.9575768,-0.9040463,8.592170186834661,5.9999996204039965,-5.999999935697329,-5.758901667564078,8.309234,-4.686194,-6.09283,0.40867790000000004,0
-1.94,19.846199,-8.819399,1.8868488999999997,-0.45256886,0.30988103,0.818894,-0.16902018,-11.289975,-6.5425606,0.29027379999999997,1.5682348999999998,-1.0108851,-1.0646773999999999,8.592170186834661,5.9999996204039965,-5.999999935697329,-5.758901667564078,8.309234,-4.686194,-6.09283,0.40867790000000004,0
-1.93,19.7326,-8.884528,1.8895905,-0.45138770000000006,0.31448203,0.8197542999999999,-0.15922672,-11.429260000000001,-6.4829745,0.25768727,1.5262676000000002,-1.056102,-1.2213303,8.592170186834661,5.9999996204039965,-5.999999935697329,-5.758901667564078,8.309234,-4.686194,-6.09283,0.40867790000000004,0
-1.92,19.617628,-8.949053999999999,1.8919952000000002,-0.45019242,0.31857044,0.82079107,-0.14880091,-11.564131,-6.4220866999999995,0.22293325,1.491033,-1.0944498,-1.3741033999999999,11.386358357984754,5.999999877147008,-5.999999982974503,-5.685214284443371,11.639414,-4.105053,-7.8652396,-1.9567997,0
-1.91,19.50125,-9.012927000000001,1.8940796999999998,-0.44887686,0.32235652,0.8219883,-0.1375902,-11.710717,-6.3523526,0.19373393,1.5432421,-1.2089298000000002,-1.5274606000000002,11.386358357984754,5.999999877147008,-5.999999982974503,-5.685214284443371,11.639414,-4.105053,-7.8652396,-1.9567997,0
-1.9,19.383425,-9.076093,1.8958650000000001,-0.44728637,0.32609192,0.8233299000000001,-0.12540627,-11.853774000000001,-6.280582,0.16309723,1.614963,-1.3332661,-1.6757666000000002,11.386358357984754,5.999999877147008,-5.999999982974503,-5.685214284443371,11.639414,-4.105053,-7.8652396,-1.9567997,0
-1.89,19.264187,-9.138531,1.8973370999999999,-0.44537315,0.32985368,0.8247716999999999,-0.11220951400000001,-11.993106,-6.206722,0.13110335,1.7035569,-1.4663283999999999,-1.8193055,11.386358357984754,5.999999877147008,-5.999999982974503,-5.685214284443371,11.639414,-4.105053,-7.8652396,-1.9567997,0
-1.8800000000000001,19.143576,-9.200219,1.8984827000000002,-0.44308847,0.33370456,0.82626647,-0.097967036,-12.1285095,-6.1307087,0.09783007,1.8066959999999999,-1.6070613999999999,-1.9583384999999998,11.386358357984754,5.999999877147008,-5.999999982974503,-5.685214284443371,11.639414,-4.105053,-7.8652396,-1.9567997,0
-1.87,19.021631,-9.261137,1.8992894,-0.44038275,0.33769432,0.8277646000000001,-0.08265225,-12.259769,-6.052475,0.06335454,1.9223270000000001,-1.7544830000000002,-2.093106,15.578769169035409,5.999999965877517,-6.0,-5.079201370369784,12.102808,-0.6812414000000001,-7.7977643,-0.3799514,0
-1.8599999999999999,18.898304,-9.321204,1.8997903000000003,-0.43681499999999995,0.34232602,0.829256,-0.06587922,-12.404533,-5.9605527,0.03657165,2.2461903,-2.1057765,-2.2117633999999997,15.578769169035409,5.999999965877517,-6.0,-5.079201370369784,12.102808,-0.6812414000000001,-7.7977643,-0.3799514,0
-1.85,18.773560999999997,-9.380339999999999,1.9000156000000004,-0.43196660000000003,0.34801638,0.8306935,-0.04730663,-12.5431185,-5.8660607,0.008269547,2.5616388,-2.4444442000000004,-2.3283644,15.578769169035409,5.999999965877517,-6.0,-5.079201370369784,12.102808,-0.6812414000000001,-7.7977643,-0.3799514,0
-1.84,18.647465,-9.438516,1.8999508999999999,-0.42581686,0.3546723,0.83196133,-0.026981757999999998,-12.675066000000001,-5.76861,-0.021403847,2.8689072,-2.7713704,-2.4429133,19.60843762997089,5.99999999243045,-6.0,-4.191768900592056,12.244586,0.49807093,-7.811679400000001,0.30088934,0
-1.83,18.520006,-9.495639,1.899625,-0.4179053,0.36264697,0.8329593000000001,-0.004619288,-12.815778,-5.655021,-0.04373087,3.3562157,-3.275835,-2.5287302000000005,19.60843762997089,5.99999999243045,-6.0,-4.191768900592056,12.244586,0.49807093,-7.811679400000001,0.30088934,0
-1.82,18.391170000000002,-9.551592999999999,1.8990778999999998,-0.40792844,0.3720682,0.83352566,0.019872403,-12.95052,-5.53469,-0.06562852,3.7676165,-3.7015437999999996,-2.6103357999999997,19.60843762997089,5.99999999243045,-6.0,-4.191768900592056,12.244586,0.49807093,-7.811679400000001,0.30088934,0
-1.81,18.261023,-9.606308,1.8983145000000001,-0.39607800000000004,0.38254386,0.8334568000000001,0.046178199999999996,-13.078089,-5.407124,-0.08696279,4.114941,-4.060785,-2.6879372999999998,19.60843762997089,5.99999999243045,-6.0,-4.191768900592056,12.244586,0.49807093,-7.811679400000001,0.30088934,0
-1.8,18.129637,-9.65971,1.8973408999999999,-0.38252088,0.39373744,0.8325684999999999,0.07401657,-13.19731,-5.2721133,-0.10762294,4.408176,-4.363929,-2.7617307,20.99999980780298,5.9999999835298174,-6.0,-3.499770174085522,14.225557,2.3291454,-7.737988499999999,0.43744275,0
-1.79,17.997068,-9.711675999999999,1.8961922999999998,-0.36737233,0.40539342,0.83070576,0.10306238,-13.314835999999998,-5.119601,-0.12197317,4.655851999999999,-4.619628,-2.7979467000000002,20.99999980780298,5.9999999835298174,-6.0,-3.499770174085522,14.225557,2.3291454,-7.737988499999999,0.43744275,0
-1.7799999999999998,17.863379000000002,-9.762075,1.8949044999999998,-0.3507358,0.4172956,0.8277409,0.13301867,-13.421044,-4.9594684,-0.13544489999999998,4.8649697,-4.835386799999999,-2.8323855,20.99999980780298,5.9999999835298174,-6.0,-3.499770174085522,14.225557,2.3291454,-7.737988499999999,0.43744275,0
-1.77,17.72869,-9.810839999999999,1.8934866000000001,-0.3327387,0.42922974,0.8235625,0.16368194,-13.514853500000001,-4.7922387,-0.1480026,5.041535,-5.017441000000001,-2.8651342,20.99999980780298,5.9999999835298174,-6.0,-3.499770174085522,14.225557,2.3291454,-7.737988499999999,0.43744275,0
-1.7599999999999998,17.593128,-9.857899,1.8919479,-0.3134999,0.44101268,0.818079,0.19486548,-13.595270999999999,-4.6186323,-0.1596382,5.1906156999999995,-5.171054,-2.896276,20.99999980780298,5.9999999835298174,-6.0,-3.499770174085522,14.755962,1.7910959,-7.8707533,0.17180261,0
-1.75,17.456835,-9.903192500000001,1.8902970000000001,-0.29313117,0.45248803,0.81121707,0.22639723,-13.661411,-4.439542299999999,-0.17036884,5.316493,-5.3006673,-2.9258895000000003,20.99999980780298,5.9999999835298174,-6.0,-3.499770174085522,14.755962,1.7910959,-7.8707533,0.17180261,0
-1.7399999999999998,17.319952,-9.946672,1.8885433999999997,-0.27173838,0.46352232,0.80292,0.25811803,-13.712508999999999,-4.2560105,-0.18023455,5.4227777,-5.4100294,-2.95405,20.99999980780298,5.9999999835298174,-6.0,-3.499770174085522,14.755962,1.7910959,-7.8707533,0.17180261,0
-1.73,17.182636,-9.988301,1.8866951,-0.24942221,0.47400185,0.7931459,0.28988016,-13.747929999999998,-4.069204,-0.1892957,5.512522,-5.502303599999999,-2.9808288,20.99999980780298,5.9999999835298174,-6.0,-3.499770174085522,14.755962,1.7910959,-7.8707533,0.17180261,0
-1.72,17.045048,-10.028049000000001,1.8847599999999998,-0.22627872,0.48382986,0.78186625,0.321546,-13.767179500000001,-3.8803904,-0.19763039,5.5883,-5.580159,-3.0062933,21.0,5.9999996723382845,-5.999999886523094,-2.861874741080591,15.728339000000002,2.9113247,-7.316205,-1.2998459999999998,0
-1.71,16.907349,-10.065907000000001,1.8827447,-0.20236185,0.49294212,0.76909107,0.35292593,-13.769908,-3.6909199999999998,-0.20533219,5.652402400000001,-5.6457324,-2.9992064999999997,21.0,5.9999996723382845,-5.999999886523094,-2.861874741080591,15.728339000000002,2.9113247,-7.316205,-1.2998459999999998,0
-1.7,16.769709,-10.1018715,1.8806551999999999,-0.17772406,0.5012850000000001,0.7548446,0.3838453,-13.755920000000001,-3.5022001000000005,-0.21250966,5.7065269999999995,-5.701061,-2.9924679,21.0,5.9999996723382845,-5.999999886523094,-2.861874741080591,15.728339000000002,2.9113247,-7.316205,-1.2998459999999998,0
-1.69,16.632292,-10.135959,1.8784958999999999,-0.1524537,0.50879705,0.7391350999999999,0.41420156,-13.725171,-3.3156738,-0.2192863,5.7522273,-5.747745500000001,-2.9860597,21.0,5.9999996723382845,-5.999999886523094,-2.861874741080591,15.728339000000002,2.9113247,-7.316205,-1.2998459999999998,0
-1.68,16.495264000000002,-10.168198,1.8762704,-0.126636,0.51542634,0.72197837,0.44389918,-13.677772000000001,-3.1328017999999997,-0.22579828,5.790814,-5.787136599999999,-2.9799657,21.0,3.410640141439256,-5.485022834772277,0.7211045784037851,15.677801,1.3187871,-5.8140345,-0.39143553,0
-1.67,16.358791,-10.198633000000001,1.8739805,-0.10074623,0.52055085,0.70412815,0.47231433,-13.614071,-2.955036,-0.23214313,5.4203997,-5.738658999999999,-2.798353,21.0,3.410640141439256,-5.485022834772277,0.7211045784037851,15.677801,1.3187871,-5.8140345,-0.39143553,0
-1.66,16.223034,-10.227322000000001,1.8716286,-0.07517812,0.5237553,0.68632305,0.49898854,-13.535028,-2.7837169999999998,-0.23814967,5.107694,-5.697958,-2.625652,21.0,3.410640141439256,-5.485022834772277,0.7211045784037851,15.677801,1.3187871,-5.8140345,-0.39143553,0
-1.65,16.088139,-10.254334,1.8692194,-0.049890272,0.52527064,0.6685522,0.524061,-13.44178,-2.6200058,-0.24360138,4.843704,-5.6637793,-2.461426,21.0,3.410640141439256,-5.485022834772277,0.7211045784037851,15.677801,1.3187871,-5.8140345,-0.39143553,0
-1.64,15.954243,-10.279751,1.8667591000000001,-0.024844977999999997,0.5252861999999999,0.6507998,0.5476468000000001,-13.335431,-2.4649080000000003,-0.24834356,4.620838,-5.6350727,-2.3052582999999998,21.0,1.9311152978642825,-3.0756127958481847,1.6643227302885844,15.193825,-0.18544999,-3.7732637,0.9329271,0
-1.63,15.821476,-10.303658,1.8642589,-0.0008969391000000001,0.5240766,0.6334453,0.56928927,-13.216474,-2.3183917999999997,-0.25175697,4.190626600000001,-5.246747,-2.1115673,21.0,1.9311152978642825,-3.0756127958481847,1.6643227302885844,15.193825,-0.18544999,-3.7732637,0.9329271,0
-1.6199999999999999,15.689948000000001,-10.326153999999999,1.8617249,0.021290319,0.52202946,0.61685425,0.58866215,-13.0877285,-2.1823742000000004,-0.25494027,3.8393187999999996,-4.9072104,-1.9262834,21.0,1.9311152978642825,-3.0756127958481847,1.6643227302885844,15.193825,-0.18544999,-3.7732637,0.9329271,0
-1.6099999999999999,15.559752,-10.347338,1.8591623,0.04201283,0.51932675,0.60101235,0.6060685,-12.949972,-2.0559939999999997,-0.25744453,3.5426269,-4.620792400000001,-1.7500913,21.0,1.9311152978642825,-3.0756127958481847,1.6643227302885844,15.193825,-0.18544999,-3.7732637,0.9329271,0
-1.5999999999999999,15.430973999999999,-10.367307,1.8565779999999998,0.06152434,0.5160834,0.58589715,0.62176967,-12.804426,-1.9391580000000002,-0.25934407,3.2920672999999994,-4.379175,-1.582545,20.999999958073573,0.4523469017273486,-0.6189559737729989,2.5601976350754416,15.403746,-0.84566665,-0.96821666,1.1760865,0
-1.5899999999999999,15.303709,-10.386138,1.8539921000000001,0.07914126,0.5124555000000001,0.57199275,0.63557106,-12.647939,-1.828632,-0.25798956,2.78938,-3.8527671999999997,-1.3847276000000002,20.999999958073573,0.4523469017273486,-0.6189559737729989,2.5601976350754416,15.403746,-0.84566665,-0.96821666,1.1760865,0
-1.5799999999999998,15.178025,-10.403916,1.8514153000000002,0.09435924,0.50874686,0.5596922,0.647316,-12.488196,-1.7284061999999998,-0.25753456,2.3970408,-3.3765351999999997,-1.1937444,20.999999958073573,0.4523469017273486,-0.6189559737729989,2.5601976350754416,15.403746,-0.84566665,-0.96821666,1.1760865,0
-1.5699999999999998,15.053951000000001,-10.420738,1.8488386000000003,0.10762362,0.5052109,0.54882914,0.6572413,-12.326052,-1.6371286,-0.25782275,2.092241,-2.9482180000000002,-1.0097443000000002,20.999999958073573,0.4523469017273486,-0.6189559737729989,2.5601976350754416,15.403746,-0.84566665,-0.96821666,1.1760865,0
-1.5599999999999998,14.931516,-10.436684,1.8462599999999998,0.11930193,0.50193524,0.539277,0.66558903,-12.160585000000001,-1.5528433000000001,-0.25787792,1.8370369999999998,-2.5845914,-0.83456624,20.999999958073573,0.4523469017273486,-0.6189559737729989,2.5601976350754416,16.501883,-1.4330127000000001,0.663044,0.9104146000000001,0
-1.5499999999999998,14.81075,-10.451817,1.8436819,0.1296933,0.49890092,0.5309355,0.672596,-11.992268,-1.4747033,-0.25769362,1.6215113,-2.277757,-0.6679841999999999,20.999999958073573,0.4523469017273486,-0.6189559737729989,2.5601976350754416,16.501883,-1.4330127000000001,0.663044,0.9104146000000001,0
-1.5399999999999998,14.691679,-10.466196,1.8411066999999999,0.13904673,0.49607959999999995,0.5237071,0.6784558,-11.821599,-1.4020528,-0.2573463,1.4395034,-2.0188386,-0.5095764,20.999999958073573,0.4523469017273486,-0.6189559737729989,2.5601976350754416,16.501883,-1.4330127000000001,0.663044,0.9104146000000001,0
-1.5299999999999998,14.574326000000001,-10.479874,1.8385353,0.14756912,0.49343988,0.51749885,0.683327,-11.648976,-1.3343201,-0.25689617,1.2858074,-1.8003495999999999,-0.3589417,20.999999958073573,0.4523469017273486,-0.6189559737729989,2.5601976350754416,16.501883,-1.4330127000000001,0.663044,0.9104146000000001,0
-1.5199999999999998,14.458706,-10.492897,1.8359689,0.15543208,0.4909499,0.512224,0.6873399,-11.474713000000001,-1.2710110000000001,-0.2563914,1.1560243000000001,-1.6159728,-0.21569872,20.99999967275346,-0.9165512452253912,1.7040671069920243,2.74844264965684,18.051576999999998,-2.3013107999999995,2.1887078,0.2506542,0
-1.5099999999999998,14.344835,-10.505307,1.8334075,0.16193806,0.48893863,0.50823694,0.6902252,-11.299087,-1.2116029,-0.25587913,0.83298707,-1.0980883,-0.07024744,20.99999967275346,-0.9165512452253912,1.7040671069920243,2.74844264965684,18.051576999999998,-2.3013107999999995,2.1887078,0.2506542,0
-1.4999999999999998,14.232726999999999,-10.5171385,1.8308511000000003,0.16654621,0.48767644,0.5058259,0.6917909999999999,-11.122464,-1.1550881000000002,-0.25543803,0.5602292,-0.6610293,0.06806651,20.99999967275346,-0.9165512452253912,1.7040671069920243,2.74844264965684,18.051576999999998,-2.3013107999999995,2.1887078,0.2506542,0
-1.4899999999999998,14.122388,-10.528414999999999,1.8282983,0.16959488,0.4870477,0.5048175,0.69222975,-10.945186,-1.1004128,-0.25513703,0.32993662,-0.29217452,0.19959334,20.99999967275346,-0.9165512452253912,1.7040671069920243,2.74844264965684,18.051576999999998,-2.3013107999999995,2.1887078,0.2506542,0
-1.4799999999999998,14.013823499999999,-10.539149,1.8257477,0.17136489,0.48694637,0.5050531,0.691693,-10.767515,-1.0466812,-0.25502470000000005,0.13550710000000002,0.019124962,0.32466609999999996,20.99999943108032,-2.573079647904227,3.8354972957322953,2.7593901756972707,19.744287,-3.917536,3.8299937000000006,-0.27927843,0
-1.4699999999999998,13.907036999999999,-10.549348,1.8231971000000002,0.17120042,0.4875311,0.5068592000000001,0.6899987,-10.589696,-0.99303794,-0.25513023,-0.28706625,0.6141763000000001,0.4441387,20.99999943108032,-2.573079647904227,3.8354972957322953,2.7593901756972707,19.744287,-3.917536,3.8299937000000006,-0.27927843,0
-1.4599999999999997,13.802028,-10.559006,1.8206445,0.16858827,0.48891038,0.51047397,0.6869945,-10.412125999999999,-0.93820935,-0.25544256,-0.6437944999999999,1.11639,0.5577488,20.99999943108032,-2.573079647904227,3.8354972957322953,2.7593901756972707,19.744287,-3.917536,3.8299937000000006,-0.27927843,0
-1.4499999999999997,13.698791,-10.568103,1.8180877,0.163932,0.49092109999999994,0.5156353,0.6828201999999999,-10.235225999999999,-0.88093877,-0.25594110000000003,-0.944926,1.5402586,0.66578394,20.99999943108032,-2.573079647904227,3.8354972957322953,2.7593901756972707,19.744287,-3.917536,3.8299937000000006,-0.27927843,0
-1.4399999999999997,13.597318,-10.5766115,1.815525,0.15756805,0.493417,0.522108,0.67758083,-10.059398,-0.8201801,-0.25661415,-1.1991165000000001,1.8980103,0.7685178,20.999999767716535,-4.023112592345468,5.16378078035638,2.608367313827702,20.469398,-4.7088394000000005,5.6382084,-0.38744804,0
-1.4299999999999997,13.497597,-10.584491,1.8129548,0.1490967,0.4963234,0.53003603,0.67118967,-9.885072000000001,-0.7550064000000001,-0.25744736,-1.6399116999999999,2.4069898,0.85879964,20.999999767716535,-4.023112592345468,5.16378078035638,2.608367313827702,20.469398,-4.7088394000000005,5.6382084,-0.38744804,0
-1.4199999999999997,13.399610000000001,-10.591692,1.8103758,0.13820793,0.49954677,0.5394925,0.66355103,-9.712875,-0.6842946,-0.25836292,-2.0119681000000003,2.8365907999999997,0.9446514000000001,20.999999767716535,-4.023112592345468,5.16378078035638,2.608367313827702,20.469398,-4.7088394000000005,5.6382084,-0.38744804,0
-1.4099999999999997,13.303329999999999,-10.598153,1.8077875,0.12528214,0.5029387,0.5501796999999999,0.6547212,-9.543515,-0.6070214,-0.25929552,-2.325997,3.199199,1.0262905,20.999999767716535,-4.023112592345468,5.16378078035638,2.608367313827702,20.469398,-4.7088394000000005,5.6382084,-0.38744804,0
-1.3999999999999997,13.208727,-10.603806,1.80519,0.11064136,0.506369,0.5618337,0.6447421,-9.377716,-0.52238923,-0.2602249,-2.5910423,3.5052671,1.1039233999999998,20.999999853525885,-4.528615540366774,5.101580733254254,2.202520202114597,20.23949,-4.233761299999999,6.444349,-1.0948454,0
-1.3899999999999997,13.115761,-10.608573,1.8025830000000003,0.094418675,0.50959927,0.5742883000000001,0.6337090999999999,-9.2162285,-0.42979836,-0.26115647,-2.893516,3.7538934,1.1578318,20.999999853525885,-4.528615540366774,5.101580733254254,2.202520202114597,20.23949,-4.233761299999999,6.444349,-1.0948454,0
-1.3799999999999997,13.0243845,-10.612373,1.7999668999999998,0.076735675,0.5124283,0.5873851,0.6216978,-9.059880999999999,-0.32880923,-0.26205072,-3.1487993999999997,3.9637672999999993,1.209095,20.999999853525885,-4.528615540366774,5.101580733254254,2.202520202114597,20.23949,-4.233761299999999,6.444349,-1.0948454,0
-1.3699999999999997,12.934543,-10.61512,1.7973422,0.05783208,0.5148026,0.60091585,0.6087153000000001,-8.909529,-0.21914995,-0.2628893,-3.3642516000000002,4.140932,1.2578426999999999,20.999999853525885,-4.528615540366774,5.101580733254254,2.202520202114597,20.23949,-4.233761299999999,6.444349,-1.0948454,0
-1.3599999999999997,12.846169,-10.616727000000001,1.7947092,0.037914775,0.51667804,0.61469775,0.5947717,-8.766011,-0.10071086,-0.26370165,-3.5460854,4.2904887,1.3041983,20.999999853525885,-4.528615540366774,5.101580733254254,2.202520202114597,20.948946,-3.9663644000000002,6.305308,-0.9019535,0
-1.3499999999999996,12.759194,-10.617104,1.792068,0.01716321,0.51801866,0.62857056,0.57988054,-8.630154,0.026470672,-0.26455715,-3.6995443999999997,4.416742,1.3482791,20.999999853525885,-4.528615540366774,5.101580733254254,2.202520202114597,20.948946,-3.9663644000000002,6.305308,-0.9019535,0
-1.3399999999999996,12.673536,-10.616166999999999,1.7894174999999999,-0.004266175,0.51879615,0.64239407,0.564059,-8.502751,0.16222422,-0.26555818,-3.8290547999999993,4.523324,1.3901968999999998,20.999999853525885,-4.528615540366774,5.101580733254254,2.202520202114597,20.948946,-3.9663644000000002,6.305308,-0.9019535,0
-1.3299999999999996,12.589107,-10.613831,1.7867558999999997,-0.026236359,0.51898855,0.6560451999999999,0.5473276999999999,-8.38457,0.30625916,-0.2668337,-3.9383519000000002,4.6133013,1.4300579,20.999999853525885,-4.528615540366774,5.101580733254254,2.202520202114597,20.948946,-3.9663644000000002,6.305308,-0.9019535,0
-1.3199999999999996,12.505811,-10.610014,1.7840793999999998,-0.04862676,0.51857954,0.6694163000000001,0.52971023,-8.276333000000001,0.45817664,-0.2685335,-4.03059,4.6892629999999995,1.4679628999999998,20.99999986751128,-4.287883204622134,4.24477210391224,1.7064478179885016,22.252281,-3.9239895,4.8200650000000005,-0.43116087,0
-1.3099999999999996,12.423542999999999,-10.604641,1.7813831999999998,-0.07108145,0.51744354,0.6823545,0.5114609999999999,-8.178694,0.6174597,-0.27080908,-4.0706835,4.6198760000000005,1.4796653999999998,20.99999986751128,-4.287883204622134,4.24477210391224,1.7064478179885016,22.252281,-3.9239895,4.8200650000000005,-0.43116087,0
-1.2999999999999996,12.342197,-10.597642,1.778661,-0.09331218,0.51550364,0.6947557,0.49281216,-8.092124,0.7833981,-0.27374005,-4.1045322,4.5613165,1.4907937,20.99999986751128,-4.287883204622134,4.24477210391224,1.7064478179885016,22.252281,-3.9239895,4.8200650000000005,-0.43116087,0
-1.2899999999999996,12.261661,-10.588953,1.7759058,-0.11531173,0.512814,0.70659626,0.47375873,-8.016998,0.95521915,-0.2773907,-4.133108999999999,4.511895,1.5013758999999998,20.99999986751128,-4.287883204622134,4.24477210391224,1.7064478179885016,22.252281,-3.9239895,4.8200650000000005,-0.43116087,0
-1.2799999999999996,12.181817,-10.57852,1.7731104,-0.13707222,0.50942063,0.71785355,0.45430020000000004,-7.953639,1.1321424,-0.28183790000000003,-4.1572347,4.4701867,1.5114388,20.999999831261533,-3.5275898798643484,2.862071853643638,1.2016567642641878,22.776663,-3.9769012999999998,4.0722747,0.43677703,0
-1.2699999999999996,12.102547,-10.566295,1.7702662,-0.15808326,0.50533324,0.72841203,0.43481544,-7.9022665,1.3133581,-0.28715158,-4.058754,4.219539,1.4962378,20.999999831261533,-3.5275898798643484,2.862071853643638,1.2016567642641878,22.776663,-3.9769012999999998,4.0722747,0.43677703,0
-1.2599999999999996,12.023731,-10.55224,1.7673645,-0.17795093,0.5006,0.7382251,0.41564090000000004,-7.8627534,1.4979471000000002,-0.29330522,-3.9756756,4.0079617999999995,1.4817826,20.999999831261533,-3.5275898798643484,2.862071853643638,1.2016567642641878,22.776663,-3.9769012999999998,4.0722747,0.43677703,0
-1.2499999999999996,11.945252,-10.536325999999999,1.7643973999999998,-0.19682525,0.49530420000000003,0.7473608,0.39671886,-7.8348575,1.6850319999999999,-0.30024412,-3.90559,3.8293633000000002,1.4680367,20.999999831261533,-3.5275898798643484,2.862071853643638,1.2016567642641878,22.776663,-3.9769012999999998,4.0722747,0.43677703,0
-1.2399999999999995,11.866996,-10.518533999999999,1.7613571,-0.21483320000000003,0.4895121,0.7558718000000001,0.37799859999999996,-7.8183419999999995,1.873821,-0.30792376,-3.8464657999999994,3.6786041,1.4549652,20.999999605893475,-2.4361320683106773,1.1967743544009641,0.677351693722035,20.183119,-3.9545927000000005,2.4181874,-0.6379157,0
-1.2299999999999995,11.788848,-10.498847999999999,1.7582363999999997,-0.23144879999999998,0.48335287,0.76371825,0.35991156,-7.812904,2.0635814999999997,-0.31628972,-3.6260765,3.2918632000000003,1.4168075,20.999999605893475,-2.4361320683106773,1.1967743544009641,0.677351693722035,20.183119,-3.9545927000000005,2.4181874,-0.6379157,0
-1.2199999999999995,11.710703,-10.4772625,1.7550293000000001,-0.24628021,0.4769679,0.77092063,0.34282583,-7.817846,2.2536054,-0.325178,-3.4401336000000002,2.9653883,1.3805223,20.999999605893475,-2.4361320683106773,1.1967743544009641,0.677351693722035,20.183119,-3.9545927000000005,2.4181874,-0.6379157,0
-1.2099999999999995,11.632458999999999,-10.453777,1.7517318,-0.2596061,0.47041320000000003,0.77758783,0.32660928,-7.832408,2.4432936,-0.33439875,-3.2832515,2.6897888,1.3460174999999999,20.999999605893475,-2.4361320683106773,1.1967743544009641,0.677351693722035,20.183119,-3.9545927000000005,2.4181874,-0.6379157,0
-1.1999999999999995,11.554024,-10.428399,1.748341,-0.27166077,0.4637272,0.78380287,0.31114468,-7.855923,2.63216,-0.3437824,-3.1508868,2.4571376,1.3132058000000002,20.9999977509688,-1.249333016915214,-0.4546199366791272,0.1566057010068146,19.947641,-3.852527,0.95523036,-0.17156461,0
-1.1899999999999995,11.475311,-10.401137,1.7448561000000002,-0.28200907,0.45709404,0.78957915,0.29681832,-7.887732499999999,2.8198075,-0.3531603,-2.8538775000000003,2.0034108,1.2564511999999999,20.9999977509688,-1.249333016915214,-0.4546199366791272,0.1566057010068146,19.947641,-3.852527,0.95523036,-0.17156461,0
-1.1799999999999995,11.396244,-10.372008000000001,1.7412785,-0.29033282,0.45068246,0.7949634,0.28394672,-7.9268410000000005,3.0059457000000003,-0.36226973,-2.6032783999999998,1.6203793,1.2024815,20.9999977509688,-1.249333016915214,-0.4546199366791272,0.1566057010068146,19.947641,-3.852527,0.95523036,-0.17156461,0
-1.1699999999999995,11.316753,-10.341024,1.7376126,-0.2969679,0.44448638,0.80004734,0.27233538,-7.9722543,3.1903882,-0.37083933,-2.3918342999999997,1.2970302,1.15116,20.9999977509688,-1.249333016915214,-0.4546199366791272,0.1566057010068146,19.947641,-3.852527,0.95523036,-0.17156461,0
-1.1599999999999995,11.23678,-10.308207000000001,1.7338647,-0.30219412,0.43849063,0.8048965,0.26181433,-8.0231285,3.3730195,-0.37863266,-2.2134240000000003,1.0240657,1.1023568000000001,20.9999977509688,-1.249333016915214,-0.4546199366791272,0.1566057010068146,18.659412,-4.109851,0.10958169400000001,-0.13458672,0
-1.1499999999999995,11.156274,-10.273571,1.7300433999999998,-0.30624476,0.43267520000000004,0.80955774,0.2522362,-8.078747,3.553772,-0.38544622,-2.0628846000000003,0.79363614,1.0559484,20.9999977509688,-1.249333016915214,-0.4546199366791272,0.1566057010068146,18.659412,-4.109851,0.10958169400000001,-0.13458672,0
-1.1399999999999995,11.07519,-10.237138,1.7261598000000002,-0.30931440000000004,0.42701796,0.8140646,0.24347396,-8.138501,3.7326087999999995,-0.3911064,-1.9358606,0.5991144,1.0118173000000001,20.9999977509688,-1.249333016915214,-0.4546199366791272,0.1566057010068146,18.659412,-4.109851,0.10958169400000001,-0.13458672,0
-1.1299999999999994,10.99349,-10.198926,1.7222258999999998,-0.31156540000000005,0.42149657,0.8184414000000001,0.23541839999999997,-8.201875999999999,3.9095132000000006,-0.39546636,-1.8286767,0.43490592,0.9698519,20.9999977509688,-1.249333016915214,-0.4546199366791272,0.1566057010068146,18.659412,-4.109851,0.10958169400000001,-0.13458672,0
-1.1199999999999994,10.911141,-10.158955,1.7182554,-0.31313345,0.41608953,0.82270557,0.2279759,-8.268428,4.0844803,-0.39840278,-1.7382328999999999,0.29628712,0.9299457,20.314954638549462,-0.16628988268137787,-1.6834372355591816,-0.29612916033067505,18.471241,-4.221978,-0.12578394,-0.34908167,0
-1.1099999999999994,10.828124,-10.117272,1.7142475,-0.31365302,0.41100684,0.82683396,0.22145279999999998,-8.335465,4.2518839999999996,-0.40295696,-1.4929021999999998,-0.012242063999999999,0.86978185,20.314954638549462,-0.16628988268137787,-1.6834372355591816,-0.29612916033067505,18.471241,-4.221978,-0.12578394,-0.34908167,0
-1.0999999999999994,10.744425999999999,-10.073924,1.710202,-0.31284603,0.40641925,0.8308158999999999,0.21609291,-8.404481,4.4175544,-0.4058756,-1.2858798999999999,-0.27269834,0.8125703000000001,20.314954638549462,-0.16628988268137787,-1.6834372355591816,-0.29612916033067505,18.471241,-4.221978,-0.12578394,-0.34908167,0
-1.0899999999999994,10.660029,-10.028927000000001,1.706136,-0.31093234,0.40225170000000005,0.83467513,0.21173672,-8.474791,4.5816417000000005,-0.40701613,-1.1111813,-0.49257007,0.758166,20.314954638549462,-0.16628988268137787,-1.6834372355591816,-0.29612916033067505,18.471241,-4.221978,-0.12578394,-0.34908167,0
-1.0799999999999994,10.574927,-9.982296,1.7020681,-0.30809495,0.3984371,0.8384261999999999,0.20824783,-8.545819,4.7442836999999995,-0.40626290000000004,-0.96375674,-0.6781795,0.7064314,18.927660446539907,0.7606052916692625,-2.632842399009567,-0.6106732341454274,17.27484,-3.5038775999999996,-0.636482,-0.55520254,0
-1.0699999999999994,10.489137,-9.934101,1.6979831000000003,-0.30410606,0.39513734,0.8420389000000001,0.20580725,-8.612169,4.8946,-0.41040550000000003,-0.6947441,-0.9828545,0.64180064,18.927660446539907,0.7606052916692625,-2.632842399009567,-0.6106732341454274,17.27484,-3.5038775999999996,-0.636482,-0.55520254,0
-1.0599999999999994,10.402686,-9.884408,1.6938665000000002,-0.2987926,0.3924762,0.8454844000000001,0.20455264,-8.678027,5.0438957,-0.4125962,-0.46772483,-1.240055,0.5803414000000001,18.927660446539907,0.7606052916692625,-2.632842399009567,-0.6106732341454274,17.27484,-3.5038775999999996,-0.636482,-0.55520254,0
-1.0499999999999994,10.315581,-9.833226,1.6897380000000002,-0.2923672,0.39034548,0.84876764,0.2043172,-8.742749,5.1923666,-0.41275507,-0.27614054,-1.4571758999999997,0.5218979,18.927660446539907,0.7606052916692625,-2.632842399009567,-0.6106732341454274,17.27484,-3.5038775999999996,-0.636482,-0.55520254,0
-1.0399999999999994,10.227838499999999,-9.780562,1.6856183999999999,-0.28500724,0.38865095,0.8518882,0.20495866,-8.805786,5.340171,-0.41082820000000003,-0.11445747,-1.6404610000000002,0.46632233,18.025722938538358,1.3439141561586518,-3.2489993547501688,-0.9044331411175232,15.960151000000002,-3.0475537999999998,-1.1438327,-0.8983460999999999,0
-1.0299999999999994,10.139489999999999,-9.726459,1.6815044,-0.27661672,0.3874491,0.85481256,0.20654812,-8.86374,5.480421499999999,-0.41164973,0.11296846,-1.8912468999999998,0.39905894,18.025722938538358,1.3439141561586518,-3.2489993547501688,-0.9044331411175232,15.960151000000002,-3.0475537999999998,-1.1438327,-0.8983460999999999,0
-1.0199999999999994,10.050574000000001,-9.670956,1.6773921999999999,-0.26712529999999995,0.3867759,0.8575029000000001,0.20913514,-8.919058999999999,5.620303599999999,-0.4104291,0.30490159999999994,-2.10295,0.33509624,18.025722938538358,1.3439141561586518,-3.2489993547501688,-0.9044331411175232,15.960151000000002,-3.0475537999999998,-1.1438327,-0.8983460999999999,0
-1.0099999999999993,9.961121,-9.614054,1.6733028000000003,-0.25670406,0.38652796,0.8599476,0.2125781,-8.971214999999999,5.7599316,-0.40716240000000004,0.46688409999999997,-2.2816584,0.2742722,18.025722938538358,1.3439141561586518,-3.2489993547501688,-0.9044331411175232,15.960151000000002,-3.0475537999999998,-1.1438327,-0.8983460999999999,0
-0.9999999999999991,9.871163000000001,-9.5557575,1.669256,-0.24549703,0.38661668,0.8621344000000001,0.21675609,-9.019755,5.899376,-0.40186933,0.603592,-2.4325125,0.2164328,17.266190117389364,1.4222637006810654,-3.4007337713226007,-1.0829126081615092,15.376653,-1.8886459,-1.7013585999999998,-1.0671911,0
-0.9899999999999991,9.780749,-9.496096000000001,1.66525,-0.23357502,0.38697496,0.8640484,0.22161576,-9.062407499999999,6.0328026,-0.39902878,0.73117757,-2.5835182999999997,0.15267354,17.266190117389364,1.4222637006810654,-3.4007337713226007,-1.0829126081615092,15.376653,-1.8886459,-1.7013585999999998,-1.0671911,0
-0.9799999999999991,9.689929,-9.4351015,1.6612817,-0.22100106,0.38754383,0.8656728000000001,0.22711004,-9.100857000000001,6.166086,-0.39433086,0.838858,-2.7109847,0.09204295,17.266190117389364,1.4222637006810654,-3.4007337713226007,-1.0829126081615092,15.376653,-1.8886459,-1.7013585999999998,-1.0671911,0
-0.9699999999999993,9.598747,-9.372775,1.6573695,-0.20787728,0.38826495,0.86699367,0.23315133,-9.134789,6.2991985999999995,-0.3878368,0.92974055,-2.81858,0.03438755,17.266190117389364,1.4222637006810654,-3.4007337713226007,-1.0829126081615092,15.376653,-1.8886459,-1.7013585999999998,-1.0671911,0
-0.9599999999999993,9.507251,-9.309117,1.6535308000000002,-0.19429047,0.38908923,0.8679988999999999,0.23966424,-9.16393,6.4320827000000005,-0.37962312,1.0064474,-2.9094002,-0.020438686,17.266190117389364,1.4222637006810654,-3.4007337713226007,-1.0829126081615092,14.50915,-1.9601374,-1.7491074,-0.94837946,0
-0.9499999999999993,9.415486,-9.244133,1.6497827,-0.18031465,0.3899756,0.8686786,0.24658366,-9.188048,6.5646580000000005,-0.36977908,1.0711913,-2.9860609,-0.07257458,17.266190117389364,1.4222637006810654,-3.4007337713226007,-1.0829126081615092,14.50915,-1.9601374,-1.7491074,-0.94837946,0
-0.9399999999999993,9.323507000000001,-9.177825,1.6461406000000003,-0.16601294,0.39088979999999995,0.86902463,0.25385317,-9.206944,6.696825,-0.3584045,1.1258393999999998,-3.050768,-0.12215216,17.266190117389364,1.4222637006810654,-3.4007337713226007,-1.0829126081615092,14.50915,-1.9601374,-1.7491074,-0.94837946,0
-0.9299999999999993,9.231366,-9.110198,1.6426193999999998,-0.15143941,0.39180338,0.86903065,0.26142377,-9.220455000000001,6.828465,-0.3456079,1.1719667999999999,-3.1053843,-0.16929695,17.266190117389364,1.4222637006810654,-3.4007337713226007,-1.0829126081615092,14.50915,-1.9601374,-1.7491074,-0.94837946,0
-0.9199999999999993,9.139117,-9.041259,1.6392328999999999,-0.13664043,0.39269271,0.86869174,0.26925263,-9.228439,6.959447,-0.331505,1.2109035,-3.1514838,-0.21412833,16.72667709892377,1.0636664275164267,-2.895103433674956,-1.132233337347072,13.760488,-1.6894236,-1.7249128,-0.7862196,0
-0.9099999999999993,9.046816999999999,-8.971033,1.6359757,-0.12187338,0.39346907,0.8680346999999999,0.27720976,-9.230732000000001,7.085560000000001,-0.3197601,1.1878562,-3.1115332,-0.25918,16.72667709892377,1.0636664275164267,-2.895103433674956,-1.132233337347072,13.760488,-1.6894236,-1.7249128,-0.7862196,0
-0.8999999999999992,8.954522,-8.8995495,1.6328412,-0.10734761,0.39406765,0.86709374,0.28519493,-9.227617,7.210752,-0.30698654,1.1684086,-3.0778103,-0.302021,16.72667709892377,1.0636664275164267,-2.895103433674956,-1.132233337347072,13.760488,-1.6894236,-1.7249128,-0.7862196,0
-0.8899999999999992,8.862283999999999,-8.826821,1.6298391,-0.09303478,0.39450273,0.8658746999999999,0.2932126,-9.21917,7.334881,-0.29329896,1.1519988,-3.0493447999999996,-0.34275973,16.72667709892377,1.0636664275164267,-2.895103433674956,-1.132233337347072,13.760488,-1.6894236,-1.7249128,-0.7862196,0
-0.8799999999999992,8.770155,-8.752857,1.6269778,-0.07891081,0.39478633,0.8643824000000001,0.30126473,-9.205459,7.457808,-0.27880725,1.1381525,-3.0253167000000003,-0.3814994,16.182210909973968,0.3916219044869809,-2.1046998684133054,-1.0868480202960469,13.396982000000001,-2.1760502,-1.3092843,-0.51184237,0
-0.8699999999999992,8.678188,-8.6776905,1.6242468,-0.06530830000000001,0.39479458,0.86270845,0.3092032,-9.187195,7.575439500000001,-0.2673006,1.0217018,-2.8817413,-0.41611108,16.182210909973968,0.3916219044869809,-2.1046998684133054,-1.0868480202960469,13.396982000000001,-2.1760502,-1.3092843,-0.51184237,0
-0.8599999999999992,8.586428999999999,-8.601355,1.6216339,-0.052492045,0.39443955,0.8609446,0.31691766,-9.164191,7.691660400000001,-0.2551819,0.9234146999999999,-2.7605553,-0.44902435,16.182210909973968,0.3916219044869809,-2.1046998684133054,-1.0868480202960469,13.396982000000001,-2.1760502,-1.3092843,-0.51184237,0
-0.8499999999999992,8.49492,-8.523863,1.619145,-0.040350753999999996,0.39377767,0.85909176,0.32445762,-9.136728999999999,7.8063693,-0.24250153,0.8404574,-2.6582682,-0.48032250000000004,16.182210909973968,0.3916219044869809,-2.1046998684133054,-1.0868480202960469,13.396982000000001,-2.1760502,-1.3092843,-0.51184237,0
-0.8399999999999992,8.4037075,-8.445231,1.6167855,-0.02878938,0.3928554,0.85714835,0.33186293,-9.105053,7.9194803,-0.22930293,0.77043873,-2.5719328,-0.51008487,15.391022809020505,-0.5388093010483822,-1.2253457811042625,-0.89134527550437,12.971039,-2.7816607999999996,0.28335044,-0.28195623,0
-0.8299999999999992,8.312823,-8.365505,1.6145333,-0.01814336,0.39151216,0.85526013,0.33899823,-9.071152,8.025466999999999,-0.22108032,0.566303,-2.3618727,-0.52879345,15.391022809020505,-0.5388093010483822,-1.2253457811042625,-0.89134527550437,12.971039,-2.7816607999999996,0.28335044,-0.28195623,0
-0.8199999999999992,8.222296,-8.284727,1.6123657,-0.008674715,0.38963062,0.8535579,0.3457633,-9.033875,8.129808,-0.21235974,0.39399704,-2.1845772,-0.5465840000000001,15.391022809020505,-0.5388093010483822,-1.2253457811042625,-0.89134527550437,12.971039,-2.7816607999999996,0.28335044,-0.28195623,0
-0.8099999999999992,8.132155000000001,-8.202914999999999,1.610288,-0.00020870334,0.38730243,0.85201514,0.3522322,-8.993628,8.23247,-0.20308974,0.24855705,-2.0349369999999998,-0.56350154,15.391022809020505,-0.5388093010483822,-1.2253457811042625,-0.89134527550437,12.971039,-2.7816607999999996,0.28335044,-0.28195623,0
-0.7999999999999992,8.042431,-8.120084,1.6083059,0.0074034166000000005,0.38460259999999996,0.85060555,0.3584645,-8.950752,8.333427,-0.19322263,0.12579392,-1.9086381000000001,-0.57958895,14.758953282324136,-1.4145756511111456,-0.4673094234542387,-0.5856348588401086,13.968293,-3.6458387,0.5911194000000001,0.03587636,0
-0.7899999999999991,7.9531384,-8.036272,1.6064035,0.013918383000000001,0.3814045,0.8494565999999999,0.36436376,-8.907426,8.428593,-0.18716584,-0.11434137,-1.6837729,-0.57988566,14.758953282324136,-1.4145756511111456,-0.4673094234542387,-0.5856348588401086,13.968293,-3.6458387,0.5911194000000001,0.03587636,0
-0.7799999999999991,7.8642883,-7.951517,1.6045651,0.019150788000000002,0.37761408,0.8486744,0.36985555,-8.862316,8.522116,-0.18038216,-0.31704083,-1.4939896000000001,-0.58016783,14.758953282324136,-1.4145756511111456,-0.4673094234542387,-0.5856348588401086,13.968293,-3.6458387,0.5911194000000001,0.03587636,0
-0.7699999999999991,7.7758970000000005,-7.865835700000001,1.6027987,0.023295835,0.3733297,0.8482033999999999,0.37501162,-8.81584,8.614016000000001,-0.17276171,-0.4881406,-1.3338146,-0.58043605,14.758953282324136,-1.4145756511111456,-0.4673094234542387,-0.5856348588401086,13.968293,-3.6458387,0.5911194000000001,0.03587636,0
-0.7599999999999991,7.6879754,-7.7792425000000005,1.6011131,0.026519064,0.36863179999999995,0.84799266,0.3798897,-8.768352499999999,8.7043085,-0.16421087,-0.63256675,-1.1986288999999999,-0.58069116,14.758953282324136,-1.4145756511111456,-0.4673094234542387,-0.5856348588401086,13.824646,-4.2128787,1.2103825000000001,0.44935742,0
-0.7499999999999991,7.6005325,-7.691755000000001,1.599518,0.028960815,0.3635866,0.8479966,0.3845364,-8.720155,8.793014999999999,-0.15465157,-0.7544776,-1.0845339,-0.58093375,14.758953282324136,-1.4145756511111456,-0.4673094234542387,-0.5856348588401086,13.824646,-4.2128787,1.2103825000000001,0.44935742,0
-0.7399999999999989,7.513574,-7.603388000000001,1.5980239,0.030740034,0.35824868,0.8481749,0.38898933,-8.671502,8.880151,-0.14401999,-0.8573832,-0.9882390999999999,-0.5811644,14.758953282324136,-1.4145756511111456,-0.4673094234542387,-0.5856348588401086,13.824646,-4.2128787,1.2103825000000001,0.44935742,0
-0.7299999999999989,7.427103,-7.514157000000001,1.5966415,0.031957532999999996,0.3526631,0.8484924999999999,0.39327902,-8.622614,8.965733,-0.13226518,-0.9442464,-0.90696746,-0.5813838000000001,14.758953282324136,-1.4145756511111456,-0.4673094234542387,-0.5856348588401086,13.824646,-4.2128787,1.2103825000000001,0.44935742,0
-0.7199999999999989,7.3411217,-7.424078,1.5953826,0.032698742999999995,0.34686738,0.8489190000000001,0.39743027,-8.57368,9.049773,-0.11934766,-1.0175679,-0.8383751,-0.5815923000000001,14.545126264289946,-2.040367905636584,0.2868943598338373,-0.2209959814002909,14.077301,-4.0545497,0.6350286999999999,0.85778576,0
-0.7099999999999989,7.2556256999999995,-7.3331723,1.5942507,0.03269548,0.34079906,0.8495425,0.401329,-8.525592,9.131095,-0.106858015,-1.1769988999999998,-0.6628430999999999,-0.5638978,14.545126264289946,-2.040367905636584,0.2868943598338373,-0.2209959814002909,14.077301,-4.0545497,0.6350286999999999,0.85778576,0
-0.6999999999999991,7.170608500000001,-7.241461,1.5932498,0.031739737999999997,0.33441052,0.8504314000000001,0.40488159999999995,-8.477938,9.210967,-0.09313095,-1.3115807,-0.51469696,-0.54707146,14.545126264289946,-2.040367905636584,0.2868943598338373,-0.2209959814002909,14.077301,-4.0545497,0.6350286999999999,0.85778576,0
-0.6899999999999991,7.086064299999999,-7.1489577,1.5923926000000002,0.029979551,0.32774958,0.8515335999999999,0.40813288,-8.431014999999999,9.289444,-0.07811417400000001,-1.4251858999999998,-0.38966355,-0.5310709,14.545126264289946,-2.040367905636584,0.2868943598338373,-0.2209959814002909,14.077301,-4.0545497,0.6350286999999999,0.85778576,0
-0.679999999999999,7.001984599999999,-7.0556765,1.591692,0.027540157000000003,0.3208558,0.85280377,0.41111964,-8.385083999999999,9.366572999999999,-0.061771575,-1.5210837,-0.28413662,-0.51585543,14.073413386792982,-2.576766457464465,0.6811994750391928,0.21116889386949672,13.958244,-4.3808203,1.2003611,1.6100723,0
-0.669999999999999,6.9183517000000005,-6.9616427,1.5911429,0.02432142,0.3136421,0.85429645,0.41378155,-8.34183,9.439934,-0.047831103,-1.6856631000000002,-0.13357663,-0.48018017,14.073413386792982,-2.576766457464465,0.6811994750391928,0.21116889386949672,13.958244,-4.3808203,1.2003611,1.6100723,0
-0.659999999999999,6.8351440000000006,-6.866882,1.59074,0.020250605,0.30603969999999997,0.8560496,0.41606396,-8.300053,9.512061,-0.032537896000000004,-1.8245901000000002,-0.0065095723,-0.44625548,14.073413386792982,-2.576766457464465,0.6811994750391928,0.21116889386949672,13.958244,-4.3808203,1.2003611,1.6100723,0
-0.649999999999999,6.752345599999999,-6.7714057,1.5904969,0.015462515,0.2981031,0.8580037,0.4180021,-8.260033,9.582980000000001,-0.015858324,-1.9418623,0.10073152,-0.41399547,14.073413386792982,-2.576766457464465,0.6811994750391928,0.21116889386949672,13.958244,-4.3808203,1.2003611,1.6100723,0
-0.639999999999999,6.669936999999999,-6.675225999999999,1.5904274999999999,0.010071158,0.28987792,0.8601073,0.41962525,-8.222010000000001,9.652708,0.0022211685,-2.0408545,0.19124106,-0.38331848,13.611551701228555,-2.9998445183818663,0.7106545185210138,0.6667808315051681,15.758382999999998,-5.065199,0.9860133,3.2179039,0
-0.629999999999999,6.5878916,-6.5783668,1.5905267,0.0041079065,0.2812612,0.8623879999999999,0.42090705,-8.187374,9.718999,0.017843025,-2.1903973,0.2722073,-0.33178979999999997,13.611551701228555,-2.9998445183818663,0.7106545185210138,0.6667808315051681,15.758382999999998,-5.065199,0.9860133,3.2179039,0
-0.619999999999999,6.506181,-6.4808497,1.5907891,-0.0023957826,0.27217203,0.86486226,0.4218179,-8.155105,9.784111,0.034833115,-2.3166257999999997,0.34053624,-0.28278965,13.611551701228555,-2.9998445183818663,0.7106545185210138,0.6667808315051681,15.758382999999998,-5.065199,0.9860133,3.2179039,0
-0.6099999999999992,6.424780999999999,-6.3826885,1.5912281000000001,-0.00935076,0.26267606,0.8674746999999999,0.42237654,-8.125411,9.848002000000001,0.05319266,-2.4231749,0.39820209999999995,-0.23619393,13.611551701228555,-2.9998445183818663,0.7106545185210138,0.6667808315051681,15.758382999999998,-5.065199,0.9860133,3.2179039,0
-0.5999999999999992,6.3436637000000005,-6.283894,1.5918576,-0.016681664,0.25282916,0.87017757,0.42259967,-8.098476,9.910627,0.072902516,-2.5131116000000002,0.4468702,-0.19188468,13.159959626998234,-3.2118312025394364,0.3413880811283879,1.0848515403948085,15.266909,-5.266786,1.097048,3.356314,0
-0.5899999999999992,6.2627974,-6.1844907,1.5926709,-0.024218945,0.24254362,0.8729758,0.42249218,-8.075253,9.969896,0.08997812,-2.622096,0.43032706,-0.12923488,13.159959626998234,-3.2118312025394364,0.3413880811283879,1.0848515403948085,15.266909,-5.266786,1.097048,3.356314,0
-0.5799999999999992,6.1821485,-6.0845013,1.5936613000000002,-0.03182317,0.23175287,0.87587225,0.42204976,-8.054964,10.02778,0.10830576,-2.7140825,0.41635950000000005,-0.069659315,13.159959626998234,-3.2118312025394364,0.3413880811283879,1.0848515403948085,15.266909,-5.266786,1.097048,3.356314,0
-0.5699999999999992,6.1016874,-5.9839405999999995,1.5948411,-0.039476335,0.22053000000000003,0.87882644,0.42127487,-8.037707000000001,10.084158,0.12785359,-2.7917216000000002,0.40456843,-0.01300714,13.159959626998234,-3.2118312025394364,0.3413880811283879,1.0848515403948085,15.266909,-5.266786,1.097048,3.356314,0
-0.5599999999999992,6.0213833,-5.882823999999999,1.5962223,-0.047163486,0.20893753,0.8818031999999999,0.4201714,-8.023567,10.138924000000001,0.14857332,-2.8572514,0.3946159,0.04086511,13.159959626998234,-3.2118312025394364,0.3413880811283879,1.0848515403948085,16.786247,-5.552892,-0.071610466,3.720061,0
-0.5499999999999992,5.9412044999999996,-5.7811685,1.5978162,-0.054872199999999996,0.19702901,0.8847723,0.4187444,-8.012611,10.191972,0.17040293,-2.9125607000000002,0.38621646,0.092093825,13.159959626998234,-3.2118312025394364,0.3413880811283879,1.0848515403948085,16.786247,-5.552892,-0.071610466,3.720061,0
-0.5399999999999991,5.8611197,-5.6789913,1.5996337999999999,-0.06259217,0.18485042,0.88770723,0.41699964,-8.004899,10.243207,0.19326864,-2.9592435,0.37912872,0.14080873,13.159959626998234,-3.2118312025394364,0.3413880811283879,1.0848515403948085,16.786247,-5.552892,-0.071610466,3.720061,0
-0.5299999999999991,5.7810955,-5.5763106,1.6016848,-0.07031487,0.1724413,0.8905851,0.41494372,-8.000475,10.292539,0.21708715,-2.9986452999999997,0.37314913,0.18713318,13.159959626998234,-3.2118312025394364,0.3413880811283879,1.0848515403948085,16.786247,-5.552892,-0.071610466,3.720061,0
-0.5199999999999991,5.701099,-5.473147,1.6039785,-0.078033194,0.15983576,0.893386,0.41258362,-7.9993753,10.339878,0.24176708,-3.0319016,0.3681047,0.23118445,13.00643050425081,-3.32878879796694,0.042434621130761366,1.4365052542417212,17.393866,-5.527426,-1.0704334,3.747607,0
-0.5099999999999991,5.621097,-5.3695226,1.6065155,-0.08564667,0.14697556,0.89612675,0.40990254,-8.001597,10.384611,0.26577148,-3.0782056,0.31719106,0.29032990000000003,13.00643050425081,-3.32878879796694,0.042434621130761366,1.4365052542417212,17.393866,-5.527426,-1.0704334,3.747607,0
-0.4999999999999991,5.541056,-5.265462,1.6092962,-0.093074515,0.13381773,0.89882076,0.40688035,-8.007131,10.427169000000001,0.29044637,-3.117286,0.2742213,0.34657302,13.00643050425081,-3.32878879796694,0.042434621130761366,1.4365052542417212,17.393866,-5.527426,-1.0704334,3.747607,0
-0.4899999999999989,5.4609437000000005,-5.160987,1.6123265,-0.100338094,0.12041031,0.9014460999999999,0.40352067,-8.0159645,10.467427,0.31570217,-3.1502702,0.23795694,0.40005630000000003,13.00643050425081,-3.32878879796694,0.042434621130761366,1.4365052542417212,17.393866,-5.527426,-1.0704334,3.747607,0
-0.47999999999999887,5.3807254,-5.0561213,1.6156118999999998,-0.10745569,0.10679445,0.90398324,0.39982864,-8.028083,10.505274,0.34144166,-3.178109,0.20735282,0.45091513,13.206817591338167,-3.3547955055754386,-0.4342736187995215,1.6940976178852665,18.371037,-5.379522,-2.3042407000000003,3.8993826,0
-0.46999999999999886,5.300369,-4.950887000000001,1.6191663,-0.11427117,0.092923634,0.9064492000000001,0.39579990000000004,-8.043694,10.541141,0.36947858,-3.2056382,0.107156135,0.5119185,13.206817591338167,-3.3547955055754386,-0.4342736187995215,1.6940976178852665,18.371037,-5.379522,-2.3042407000000003,3.8993826,0
-0.45999999999999885,5.2198400000000005,-4.845308,1.6230025,-0.12066125,0.07876507,0.90885824,0.39142567,-8.062536,10.574292,0.39781609999999995,-3.228872,0.02259079,0.5699284,13.206817591338167,-3.3547955055754386,-0.4342736187995215,1.6940976178852665,18.371037,-5.379522,-2.3042407000000003,3.8993826,0
-0.44999999999999885,5.139107,-4.7394114,1.6271233999999999,-0.12668495,0.06437006,0.9111889999999999,0.38670713,-8.084526,10.60458,0.42636415,-3.2484818,-0.048780974000000005,0.6250916999999999,13.206817591338167,-3.3547955055754386,-0.4342736187995215,1.6940976178852665,18.371037,-5.379522,-2.3042407000000003,3.8993826,0
-0.43999999999999884,5.058139,-4.633227,1.6315302999999999,-0.13239242,0.049782335999999996,0.91342187,0.3816475,-8.109575,10.631867999999999,0.45502532,-3.2650332000000004,-0.1090164,0.67754805,13.453345668356421,-3.238581927287469,-0.9581240003953856,1.7935435076519914,18.352665,-5.273514,-3.7538955,4.1145945,0
-0.4299999999999988,4.9769025000000005,-4.5267824999999995,1.6362358,-0.13761646,0.035003927000000004,0.9155696,0.37625647,-8.138114999999999,10.656483,0.48606607,-3.2608414,-0.24154873,0.7323103,13.453345668356421,-3.238581927287469,-0.9581240003953856,1.7935435076519914,18.352665,-5.273514,-3.7538955,4.1145945,0
-0.4199999999999988,4.8953667,-4.4201093,1.6412514,-0.14222714,0.020040624,0.9176439000000001,0.37053958,-8.16952,10.677764,0.5170339,-3.257305,-0.35340726,0.7843854,13.453345668356421,-3.238581927287469,-0.9581240003953856,1.7935435076519914,18.352665,-5.273514,-3.7538955,4.1145945,0
-0.4099999999999988,4.813503,-4.313239599999999,1.6465759999999998,-0.14631422,0.0049319454,0.9196247,0.36449736,-8.203627000000001,10.695567,0.5478428000000001,-3.2543225,-0.44781613,0.83390504,13.453345668356421,-3.238581927287469,-0.9581240003953856,1.7935435076519914,18.352665,-5.273514,-3.7538955,4.1145945,0
-0.3999999999999988,4.7312856,-4.2062097000000005,1.6522074,-0.14995375,-0.010288563,0.9214928,0.35813278,-8.240277,10.709769,0.57840025,-3.2518084,-0.52749676,0.8809948000000001,13.43669369809072,-2.8820747826284805,-1.4283367356933827,1.7408184812932843,18.301660000000002,-5.141478,-4.2271790000000005,3.8473080000000004,0
-0.3899999999999988,4.6486897,-4.099056200000001,1.6581419999999998,-0.15298599999999998,-0.025528636,0.92325974,0.35147572,-8.279264,10.720248,0.6084535,-3.1940498,-0.6680371999999999,0.92318654,13.43669369809072,-2.8820747826284805,-1.4283367356933827,1.7408184812932843,18.301660000000002,-5.141478,-4.2271790000000005,3.8473080000000004,0
-0.3799999999999988,4.5656930000000004,-3.9918177000000004,1.664375,-0.15528928,-0.040711977,0.92493886,0.34455198,-8.3204,10.726925,0.63808817,-3.1453056,-0.7866584,0.96330804,13.43669369809072,-2.8820747826284805,-1.4283367356933827,1.7408184812932843,18.301660000000002,-5.141478,-4.2271790000000005,3.8473080000000004,0
-0.3699999999999988,4.482275,-3.8845312999999995,1.670902,-0.15697414,-0.055834044000000006,0.92651445,0.33736157,-8.363452,10.729716,0.6672349,-3.1041703,-0.8867792,1.0014607,13.43669369809072,-2.8820747826284805,-1.4283367356933827,1.7408184812932843,18.301660000000002,-5.141478,-4.2271790000000005,3.8473080000000004,0
-0.35999999999999877,4.398418,-3.7772367,1.6777176999999999,-0.15813401,-0.07089113400000001,0.9279708000000001,0.32990658,-8.408204,10.728553,0.6958193,-3.0694567999999998,-0.97128487,1.0377411,13.43669369809072,-2.8820747826284805,-1.4283367356933827,1.7408184812932843,18.904943,-5.449223,-4.580327,4.033857,0
-0.34999999999999876,4.314106,-3.6699739,1.6848161,-0.15884778,-0.08588014,0.9292928,0.32219088,-8.454458,10.723384,0.7237626,-3.0401632999999997,-1.0426104999999999,1.0722412000000001,13.43669369809072,-2.8820747826284805,-1.4283367356933827,1.7408184812932843,18.904943,-5.449223,-4.580327,4.033857,0
-0.33999999999999875,4.229324,-3.562783,1.6921905,-0.15918210000000002,-0.100798346,0.9304659,0.31421974,-8.502028999999999,10.714167,0.7509819000000001,-3.015444,-1.1028116000000001,1.1050483999999998,13.43669369809072,-2.8820747826284805,-1.4283367356933827,1.7408184812932843,18.904943,-5.449223,-4.580327,4.033857,0
-0.32999999999999874,4.144061,-3.4557045,1.6998330000000001,-0.15919325,-0.115643315,0.93147653,0.30599946,-8.550749,10.70087,0.77739173,-2.9945853,-1.1536231000000001,1.1362457000000001,13.43669369809072,-2.8820747826284805,-1.4283367356933827,1.7408184812932843,18.904943,-5.449223,-4.580327,4.033857,0
-0.31999999999999873,4.0583057,-3.3487796999999997,1.7077353,-0.15892878,-0.13041277,0.9323120999999999,0.29753718,-8.600451,10.683472,0.8029036999999999,-2.9769843,-1.1965093999999998,1.1659123,14.013746578159914,-2.5319551085199707,-1.5000431352870576,1.6207529698641645,18.204076999999998,-5.0890484,-4.1657734,3.1101587000000004,0
-0.3099999999999987,3.9720387,-3.2420537,1.7159141,-0.15835911,-0.14498481,0.9329813,0.2888732,-8.653151,10.661043,0.83269733,-2.9075282000000002,-1.2438348999999997,1.1882315,14.013746578159914,-2.5319551085199707,-1.5000431352870576,1.6207529698641645,18.204076999999998,-5.0890484,-4.1657734,3.1101587000000004,0
-0.2999999999999987,3.8852407999999996,-3.1355736000000003,1.7243855,-0.15746453,-0.15926313,0.9334963,0.28004432,-8.706519,10.634367,0.86139274,-2.848909,-1.2837847,1.2094553999999997,14.013746578159914,-2.5319551085199707,-1.5000431352870576,1.6207529698641645,18.204076999999998,-5.0890484,-4.1657734,3.1101587000000004,0
-0.2899999999999987,3.7979065999999997,-3.0293810000000003,1.733138,-0.15629512,-0.17328027,0.93385,0.27105343,-8.76037,10.603489999999999,0.88892543,-2.7994362999999995,-1.3175082,1.2296379,14.013746578159914,-2.5319551085199707,-1.5000431352870576,1.6207529698641645,18.204076999999998,-5.0890484,-4.1657734,3.1101587000000004,0
-0.2799999999999987,3.7100322,-2.923518,1.7421596999999998,-0.15489282,-0.18706362,0.9340351,0.2619043,-8.814532,10.56846,0.9152298000000001,-2.757683,-1.3459755,1.2488301000000002,14.390094291518993,-1.9415601352038216,-1.5629490399266734,1.3714427768259172,19.250212,-5.1849110000000005,-4.1053405,3.2173889,0
-0.2699999999999989,3.6216082999999997,-2.8180308,1.7514546999999998,-0.15320282,-0.20042704,0.9340877000000001,0.25266224,-8.870295,10.528289,0.94355255,-2.630376,-1.3797191,1.2548466999999999,14.390094291518993,-1.9415601352038216,-1.5629490399266734,1.3714427768259172,19.250212,-5.1849110000000005,-4.1053405,3.2173889,0
-0.2599999999999989,3.5326266000000004,-2.7129659999999998,1.7610261000000003,-0.1511857,-0.21322615,0.9340455,0.2433857,-8.926002,10.484042,0.97053266,-2.5229272999999997,-1.4082153,1.2605680000000001,14.390094291518993,-1.9415601352038216,-1.5629490399266734,1.3714427768259172,19.250212,-5.1849110000000005,-4.1053405,3.2173889,0
-0.2499999999999989,3.443089,-2.6083634,1.7708607,-0.14889409,-0.22553837,0.93390286,0.23406939,-8.981456,10.435855,0.9961623,-2.4322386000000003,-1.4322801,1.2660087,14.390094291518993,-1.9415601352038216,-1.5629490399266734,1.3714427768259172,19.250212,-5.1849110000000005,-4.1053405,3.2173889,0
-0.23999999999999888,3.3529987,-2.5042617000000003,1.7809447,-0.14637165,-0.23742904,0.9336533000000001,0.22470947,-9.036484,10.383853,1.0204304,-2.355696,-1.4526026,1.2711823999999998,14.351805868510061,-1.1427676838201497,-1.4385865768667905,1.0321652780097332,19.052675,-5.016198999999999,-4.3170023,3.2763066000000003,0
-0.22999999999999865,3.2623618,-2.4006979999999998,1.7912631,-0.14362092,-0.24865061,0.9333530999999999,0.2154016,-9.090779,10.328315,1.0430110000000001,-2.1665533,-1.4502438,1.2594538,14.351805868510061,-1.1427676838201497,-1.4385865768667905,1.0321652780097332,19.052675,-5.016198999999999,-4.3170023,3.2763066000000003,0
-0.21999999999999864,3.1711857000000006,-2.297707,1.8018006000000002,-0.14064825,-0.25901386,0.9330591,0.20622954,-9.144323,10.269321000000001,1.0642812,-2.0069065,-1.4482802,1.2483007,14.351805868510061,-1.1427676838201497,-1.4385865768667905,1.0321652780097332,19.052675,-5.016198999999999,-4.3170023,3.2763066000000003,0
-0.20999999999999863,3.0794785,-2.1953225,1.8125445,-0.13749117,-0.26864794,0.9327629999999999,0.19717416,-9.196964,10.2071,1.0843073,-1.8721558999999997,-1.4466461000000002,1.237695,14.351805868510061,-1.1427676838201497,-1.4385865768667905,1.0321652780097332,19.052675,-5.016198999999999,-4.3170023,3.2763066000000003,0
-0.19999999999999862,2.98725,-2.0935755,1.8234825000000001,-0.13418025,-0.27766156,0.93245554,0.1882191,-9.248576,10.141846000000001,1.1031466,-1.7584189,-1.445286,1.2276096,14.053871834521773,-0.3653765832906997,-1.2683541938142784,0.6245962989125722,18.91329,-4.3721084999999995,-4.4800916,3.1285877,0
-0.18999999999999884,2.8945162,-1.9924883000000002,1.8345914,-0.1307327,-0.28585103,0.93219787,0.17945832,-9.297997,10.075163,1.118454,-1.5412242,-1.41749,1.1980195,14.053871834521773,-0.3653765832906997,-1.2683541938142784,0.6245962989125722,18.91329,-4.3721084999999995,-4.4800916,3.1285877,0
-0.17999999999999883,2.8012943,-1.8920808,1.8458481,-0.1271644,-0.29306337,0.9320468000000001,0.17097302,-9.346199,10.005954,1.1327693,-1.3578953,-1.3940643,1.1698815,14.053871834521773,-0.3653765832906997,-1.2683541938142784,0.6245962989125722,18.91329,-4.3721084999999995,-4.4800916,3.1285877,0
-0.16999999999999882,2.7075967999999997,-1.792377,1.8572436999999997,-0.123495445,-0.29945087,0.9319851,0.16273232,-9.393094999999999,9.934474,1.1462122,-1.2031515,-1.3743207,1.1431241,14.053871834521773,-0.3653765832906997,-1.2683541938142784,0.6245962989125722,18.91329,-4.3721084999999995,-4.4800916,3.1285877,0
-0.1599999999999988,2.6134372000000003,-1.6933984,1.8687698,-0.11974162599999999,-0.3051415,0.93199545,0.15470941,-9.438618,9.86094,1.1588863999999999,-1.0725358999999999,-1.3576802,1.1176796999999998,14.053871834521773,-0.3653765832906997,-1.2683541938142784,0.6245962989125722,18.752958,-3.761536,-4.5930029999999995,2.6188946,0
-0.1499999999999988,2.5188292999999997,-1.5951645,1.8804189999999998,-0.11591543,-0.31024277,0.9320616,0.14688103,-9.48271,9.785538,1.1708816999999998,-0.96228623,-1.3436542999999999,1.0934839,14.053871834521773,-0.3653765832906997,-1.2683541938142784,0.6245962989125722,18.752958,-3.761536,-4.5930029999999995,2.6188946,0
-0.1399999999999988,2.423788,-1.4976934,1.8921853,-0.112026736,-0.31484506,0.9321686,0.13922697,-9.525326,9.708428999999999,1.1822752,-0.86922693,-1.331832,1.0704755,14.053871834521773,-0.3653765832906997,-1.2683541938142784,0.6245962989125722,18.752958,-3.761536,-4.5930029999999995,2.6188946,0
-0.12999999999999878,2.3283281000000002,-1.4010013000000001,1.9040629,-0.108083375,-0.31902435,0.9323028,0.13172981,-9.566424000000001,9.629753,1.193132,-0.7906774999999999,-1.3218668,1.0485961000000001,14.053871834521773,-0.3653765832906997,-1.2683541938142784,0.6245962989125722,18.752958,-3.761536,-4.5930029999999995,2.6188946,0
-0.11999999999999877,2.2324648,-1.3051032,1.9160464,-0.10409163,-0.3228446,0.9324522,0.12437437,-9.605974,9.54963,1.2035074,-0.7243755999999999,-1.3134663,1.0277903,13.746491790998235,0.39512413302083416,-0.6680034301117075,0.2391740323415596,19.033895,-3.3681412,-4.6729155,2.3127944,0
-0.10999999999999877,2.136218,-1.2100041000000001,1.9281198,-0.1002284,-0.32605198,0.9326760000000001,0.117301315,-9.6431265,9.469968,1.2110949,-0.5498883000000001,-1.2126758999999998,0.9890926999999999,13.746491790998235,0.39512413302083416,-0.6680034301117075,0.2391740323415596,19.033895,-3.3681412,-4.6729155,2.3127944,0
-0.09999999999999876,2.0396075000000002,-1.1157073,1.9402671999999999,-0.09663474,-0.3284527,0.9330283000000001,0.11062777,-9.678798,9.389224,1.2183725,-0.402596,-1.1276298,0.95229405,13.746491790998235,0.39512413302083416,-0.6680034301117075,0.2391740323415596,19.033895,-3.3681412,-4.6729155,2.3127944,0
-0.08999999999999875,1.9426471999999997,-1.0222225,1.9524863999999997,-0.09326631,-0.33017597,0.9334905000000001,0.10430913,-9.713056,9.307614,1.225452,-0.27826074,-1.055868,0.917301,13.746491790998235,0.39512413302083416,-0.6680034301117075,0.2391740323415596,19.033895,-3.3681412,-4.6729155,2.3127944,0
-0.07999999999999874,1.8453511000000002,-0.9295574000000001,1.9647758999999998,-0.09008512,-0.33132994,0.93404526,0.09830678,-9.745963,9.22532,1.2324288,-0.17330435,-0.9953142,0.8840251,13.11092579780412,0.8060783598166187,-0.5922691701648941,-0.17455982605926865,18.0294,-2.6729121,-4.5665994,1.5979048,0
-0.06999999999999873,1.7477397000000001,-0.83769876,1.9771105,-0.08705429,-0.3318533,0.93472385,0.092659906,-9.776113,9.14633,1.2345333,-0.020638086,-0.9323707,0.83208007,13.11092579780412,0.8060783598166187,-0.5922691701648941,-0.17455982605926865,18.0294,-2.6729121,-4.5665994,1.5979048,0
