time-since-start [s],throttle_mpc,roll_mpc,pitch_mpc,yaw_mpc,throttle_nw,roll_nw,pitch_nw,yaw_nw,position_x [m],position_y [m],position_z [m],rotation_w [quaternion],rotation_x [quaternion],rotation_y [quaternion],rotation_z [quaternion],velocity_x [m/s],velocity_y [m/s],velocity_z [m/s],omega_x [rad/s],omega_y [rad/s],omega_z [rad/s],network_used,gaze_2d_norm_x,gaze_2d_norm_y,gaze_2d_x,gaze_2d_y,gaze_3d_x,gaze_3d_y,gaze_3d_z,angle_rad,angle_deg,high_level_label
0.0,13.117691863960673,5.999999756034269,-5.99999993207376,-2.550553984891818,14.387026,-0.5871861,-5.7862096,-0.7676412,18.296375,-10.679857,1.8828505,0.053734723,-0.44976237,0.34603116,0.82163787,-11.884483,-3.7451344,-0.35252514,1.8506398,-0.029950237,-0.37324393,0,-0.038652856349945065,-0.3448029073079427,0.48067357182502746,0.32759854634602864,-0.9305606920402376,0.2918180882697615,-0.22113118682848915,0.6091583289969016,34.902201306764134,1
0.01,13.117691863960673,5.999999756034269,-5.99999993207376,-2.550553984891818,16.03902,1.0529174,-3.9226823,-1.2408694,18.17708,-10.716895,1.8790703,0.08802273,-0.42747992,0.36298734,0.8232577,-11.97356,-3.6613946,-0.40318552,5.9999995,-6.0,-2.550554,0,-0.038652856349945065,-0.3448029073079427,0.48067357182502746,0.32759854634602864,-0.9305606920402376,0.2918180882697615,-0.22113118682848915,0.6091583289969016,34.902201306764134,1
0.02,13.117691863960673,5.999999756034269,-5.99999993207376,-2.550553984891818,16.03902,1.0529174,-3.9226823,-1.2408694,18.056934,-10.75306,1.8747934,0.12213801,-0.40435863,0.37923124,0.8232619,-12.054268,-3.5705898,-0.4519048,5.9999995,-6.0,-2.550554,0,-0.038652856349945065,-0.3448029073079427,0.48067357182502746,0.32759854634602864,-0.9305606920402376,0.2918180882697615,-0.22113118682848915,0.6091583289969016,34.902201306764134,1
0.03,13.117691863960673,5.999999756034269,-5.99999993207376,-2.550553984891818,16.03902,1.0529174,-3.9226823,-1.2408694,17.936026,-10.788285,1.8700385,0.15601362,-0.38044384,0.39473101,0.8216507,-12.125994,-3.4734864,-0.49877992,5.9999995,-6.0,-2.550554,0,-0.038652856349945065,-0.3448029073079427,0.48067357182502746,0.32759854634602864,-0.9305606920402376,0.2918180882697615,-0.22113118682848915,0.6091583289969016,34.902201306764134,1
0.04,13.117691863960673,5.999999756034269,-5.99999993207376,-2.550553984891818,13.808521,-0.48988265,-4.7553844,-1.1028956,17.814445,-10.822512,1.8648237,0.18958308,-0.35578248,0.40945616,0.818427,-12.188197,-3.3709004,-0.54392236,5.9999995,-6.0,-2.550554,0,-0.038652856349945065,-0.3448029073079427,0.48067357182502746,0.32759854634602864,-0.9305606920402376,0.2918180882697615,-0.22113118682848915,0.6091583289969016,34.902201306764134,1
0.05,13.117691863960673,5.999999756034269,-5.99999993207376,-2.550553984891818,13.808521,-0.48988265,-4.7553844,-1.1028956,17.692295,-10.855687,1.8591655,0.22278053,-0.33042297,0.42337784,0.81359744,-12.240412,-3.263691,-0.58745706,5.9999995,-6.0,-2.550554,0,-0.038652856349945065,-0.3448029073079427,0.48067357182502746,0.32759854634602864,-0.9305606920402376,0.2918180882697615,-0.22113118682848915,0.6091583289969016,34.902201306764134,1
0.060000000000000005,13.117691863960673,5.999999756034269,-5.99999993207376,-2.550553984891818,13.808521,-0.48988265,-4.7553844,-1.1028956,17.569674,-10.887772,1.8530796,0.2555408,-0.30441505,0.43646872,0.8071713,-12.282251,-3.152753,-0.6295216,5.9999995,-6.0,-2.550554,0,-0.038652856349945065,-0.3448029073079427,0.48067357182502746,0.32759854634602864,-0.9305606920402376,0.2918180882697615,-0.22113118682848915,0.6091583289969016,34.902201306764134,1
0.07,13.117691863960673,5.999999756034269,-5.99999993207376,-2.550553984891818,13.808521,-0.48988265,-4.7553844,-1.1028956,17.446688,-10.918733,1.8465797,0.2877996,-0.2778098,0.4487031,0.79916126,-12.313407,-3.0390112,-0.6702652,5.9999995,-6.0,-2.550554,0,-0.20275375366210938,-0.29142356872558595,0.3986231231689453,0.354288215637207,-0.72881113355524,0.6824069128232828,-0.05617060563073001,0.9944971161115319,56.98048749112256,1
0.08,20.459066164296505,5.999999434041586,-5.999999864423064,-0.5869784909731257,16.37459,-0.63900685,-3.372659,-1.0398765,17.323444,-10.948546,1.8396783,0.31949365,-0.2506594,0.46005702,0.789583,-12.333657,-2.9234114,-0.70984733,5.9999995,-6.0,-2.550554,0,-0.20275375366210938,-0.29142356872558595,0.3986231231689453,0.354288215637207,-0.72881113355524,0.6824069128232828,-0.05617060563073001,0.9944971161115319,56.98048749112256,1
0.09,20.459066164296505,5.999999434041586,-5.999999864423064,-0.5869784909731257,16.37459,-0.63900685,-3.372659,-1.0398765,17.200024,-10.976872,1.8325523,0.34283647,-0.21852031,0.47300407,0.78165174,-12.348015,-2.7417002,-0.7151645,5.9999995,-6.0,-0.5869785,0,-0.20275375366210938,-0.29142356872558595,0.3986231231689453,0.354288215637207,-0.72881113355524,0.6824069128232828,-0.05617060563073001,0.9944971161115319,56.98048749112256,1
0.09999999999999999,20.459066164296505,5.999999434041586,-5.999999864423064,-0.5869784909731257,16.37459,-0.63900685,-3.372659,-1.0398765,17.076546,-11.00338,1.8253785,0.36555934,-0.18598606,0.48509577,0.7723069,-12.345052,-2.559964,-0.7194725,5.9999995,-6.0,-0.5869785,0,-0.20275375366210938,-0.29142356872558595,0.3986231231689453,0.354288215637207,-0.72881113355524,0.6824069128232828,-0.05617060563073001,0.9944971161115319,56.98048749112256,1
0.10999999999999999,20.459066164296505,5.999999434041586,-5.999999864423064,-0.5869784909731257,16.37459,-0.63900685,-3.372659,-1.0398765,16.953182,-11.028076,1.8181642,0.38762113,-0.15311548,0.49631023,0.7615655,-12.324796,-2.379557,-0.72335595,5.9999995,-6.0,-0.5869785,0,-0.20275375366210938,-0.29142356872558595,0.3986231231689453,0.354288215637207,-0.72881113355524,0.6824069128232828,-0.05617060563073001,0.9944971161115319,56.98048749112256,1
0.11999999999999998,20.459066164296505,5.999999434041586,-5.999999864423064,-0.5869784909731257,16.37459,-0.63900685,-3.372659,-1.0398765,16.830109,-11.050981,1.8109107,0.408982,-0.119968,0.5066272,0.74944687,-12.287397,-2.2018237,-0.72740227,5.9999995,-6.0,-0.5869785,0,-0.20275375366210938,-0.29142356872558595,0.3986231231689453,0.354288215637207,-0.72881113355524,0.6824069128232828,-0.05617060563073001,0.9944971161115319,56.98048749112256,1
0.12999999999999998,20.99999955579547,3.126241843540622,-5.999999190409708,0.9700835474289882,14.820563,-2.7187095,-0.89118785,-0.49221167,16.707495,-11.072126,1.8036135,0.42960328,-0.086603574,0.516028,0.73597306,-12.233134,-2.0280895,-0.7321979,5.9999995,-6.0,-0.5869785,0,-0.20275375366210938,-0.29142356872558595,0.3986231231689453,0.354288215637207,-0.72881113355524,0.6824069128232828,-0.05617060563073001,0.9944971161115319,56.98048749112256,1
0.13999999999999999,20.99999955579547,3.126241843540622,-5.999999190409708,0.9700835474289882,14.820563,-2.7187095,-0.89118785,-0.49221167,16.585508,-11.091539,1.796279,0.44261464,-0.055261742,0.514763,0.7321598,-12.162138,-1.8553599,-0.7343381,3.126242,-5.999999,0.97008353,0,-0.1925416946411133,-0.06334665298461914,0.40372915267944337,0.4683266735076904,-0.42157681360516874,0.9052132310158236,-0.05349763195139032,1.2863309786893922,73.70133613583481,1
0.15,20.99999955579547,3.126241843540622,-5.999999190409708,0.9700835474289882,14.820563,-2.7187095,-0.89118785,-0.49221167,16.464294,-11.109258,1.7889344,0.45510915,-0.023855375,0.51289684,0.7274915,-12.078893,-1.689473,-0.7342747,3.126242,-5.999999,0.97008353,0,-0.1925416946411133,-0.06334665298461914,0.40372915267944337,0.4683266735076904,-0.42157681360516874,0.9052132310158236,-0.05349763195139032,1.2863309786893922,73.70133613583481,1
0.16,20.99999933295093,0.37759608313876136,-2.9683525008860494,1.0684370540938584,15.244185,-3.249821,-0.22863156,-0.87255967,16.343971,-11.125355,1.7815989,0.46707222,0.00757885,0.51043177,0.72197366,-11.983733,-1.5311404,-0.7325772,3.126242,-5.999999,0.97008353,0,-0.1925416946411133,-0.06334665298461914,0.40372915267944337,0.4683266735076904,-0.42157681360516874,0.9052132310158236,-0.05349763195139032,1.2863309786893922,73.70133613583481,1
0.17,20.99999933295093,0.37759608313876136,-2.9683525008860494,1.0684370540938584,15.244185,-3.249821,-0.22863156,-0.87255967,16.22465,-11.139904,1.7742879,0.4707176,0.021901298,0.50475794,0.72330153,-11.879794,-1.3794456,-0.72927636,0.37759608,-2.9683526,1.0684371,0,-0.1925416946411133,-0.06334665298461914,0.40372915267944337,0.4683266735076904,-0.42157681360516874,0.9052132310158236,-0.05349763195139032,1.2863309786893922,73.70133613583481,1
0.18000000000000002,20.99999933295093,0.37759608313876136,-2.9683525008860494,1.0684370540938584,15.244185,-3.249821,-0.22863156,-0.87255967,16.106386,-11.152958,1.767021,0.47424418,0.03621822,0.4989568,0.72444683,-11.771859,-1.2320796,-0.72378814,0.37759608,-2.9683526,1.0684371,0,-0.1925416946411133,-0.06334665298461914,0.40372915267944337,0.4683266735076904,-0.42157681360516874,0.9052132310158236,-0.05349763195139032,1.2863309786893922,73.70133613583481,1
0.19000000000000003,20.99999933295093,0.37759608313876136,-2.9683525008860494,1.0684370540938584,15.244185,-3.249821,-0.22863156,-0.87255967,15.989223,-11.164559,1.7598191,0.47765106,0.050526,0.4930297,0.7254093,-11.659987,-1.0891654,-0.7162592,0.37759608,-2.9683526,1.0684371,0,-0.1925416946411133,-0.06334665298461914,0.40372915267944337,0.4683266735076904,-0.42157681360516874,0.9052132310158236,-0.05349763195139032,1.2863309786893922,73.70133613583481,1
0.20000000000000004,20.999998670504926,-0.4328365272374874,-0.6437968752333745,0.8540614601362738,15.710872,-4.490589,2.3720639,0.3764343,15.8731985,-11.174755,1.7527022,0.4809374,0.064821035,0.48697823,0.7261887,-11.544242,-0.95082104,-0.70683813,0.37759608,-2.9683526,1.0684371,0,0.13620906829833984,-0.011883125305175782,0.56810453414917,0.4940584373474121,-0.08061943644648835,0.9836141192534573,-0.16125684752064456,1.5711944539988663,90.0228110084968,1
0.21000000000000005,20.999998670504926,-0.4328365272374874,-0.6437968752333745,0.8540614601362738,15.710872,-4.490589,2.3720639,0.3764343,15.7583475,-11.183587,1.7456878,0.4795362,0.06819624,0.48357362,0.7290756,-11.426053,-0.8157956,-0.69585425,-0.43283653,-0.64379686,0.8540615,0,0.13620906829833984,-0.011883125305175782,0.56810453414917,0.4940584373474121,-0.08061943644648835,0.9836141192534573,-0.16125684752064456,1.5711944539988663,90.0228110084968,1
0.22000000000000006,20.999998670504926,-0.4328365272374874,-0.6437968752333745,0.8540614601362738,15.710872,-4.490589,2.3720639,0.3764343,15.644679,-11.191075,1.7387893,0.47811905,0.07156917,0.4801529,0.7319383,-11.307722,-0.6818688,-0.6836758,-0.43283653,-0.64379686,0.8540615,0,0.13620906829833984,-0.011883125305175782,0.56810453414917,0.4940584373474121,-0.08061943644648835,0.9836141192534573,-0.16125684752064456,1.5711944539988663,90.0228110084968,1
0.23000000000000007,20.999998670504926,-0.4328365272374874,-0.6437968752333745,0.8540614601362738,15.710872,-4.490589,2.3720639,0.3764343,15.532194,-11.19723,1.7320185,0.476686,0.07493972,0.47671622,0.73477656,-11.189246,-0.5490538,-0.6703156,-0.43283653,-0.64379686,0.8540615,0,0.13620906829833984,-0.011883125305175782,0.56810453414917,0.4940584373474121,-0.08061943644648835,0.9836141192534573,-0.16125684752064456,1.5711944539988663,90.0228110084968,1
0.24000000000000007,20.999998670504926,-0.4328365272374874,-0.6437968752333745,0.8540614601362738,14.975362,-3.3663428,4.667078,-0.4790647,15.420895,-11.202062,1.725387,0.47523707,0.07830778,0.47326365,0.7375904,-11.070621,-0.41736358,-0.6557866,-0.43283653,-0.64379686,0.8540615,0,0.13620906829833984,-0.011883125305175782,0.56810453414917,0.4940584373474121,-0.08061943644648835,0.9836141192534573,-0.16125684752064456,1.5711944539988663,90.0228110084968,1
0.25000000000000006,20.999998670504926,-0.4328365272374874,-0.6437968752333745,0.8540614601362738,14.975362,-3.3663428,4.667078,-0.4790647,15.310782,-11.205581,1.7189066,0.47377232,0.08167323,0.46979532,0.74037963,-10.95184,-0.28681102,-0.6401016,-0.43283653,-0.64379686,0.8540615,0,0.13620906829833984,-0.011883125305175782,0.56810453414917,0.4940584373474121,-0.08061943644648835,0.9836141192534573,-0.16125684752064456,1.5711944539988663,90.0228110084968,1
0.26000000000000006,20.999998670504926,-0.4328365272374874,-0.6437968752333745,0.8540614601362738,14.975362,-3.3663428,4.667078,-0.4790647,15.201858,-11.207801,1.7125889,0.4722918,0.08503596,0.4663114,0.74314433,-10.832902,-0.15740874,-0.6232741,-0.43283653,-0.64379686,0.8540615,0,0.13620906829833984,-0.011883125305175782,0.56810453414917,0.4940584373474121,-0.08061943644648835,0.9836141192534573,-0.16125684752064456,1.5711944539988663,90.0228110084968,1
0.2700000000000001,20.999998670504926,-0.4328365272374874,-0.6437968752333745,0.8540614601362738,14.975362,-3.3663428,4.667078,-0.4790647,15.094123,-11.208732,1.7064451,0.47079554,0.088395864,0.46281195,0.74588424,-10.7138,-0.029169314,-0.60531723,-0.43283653,-0.64379686,0.8540615,0,0.1236154842376709,-0.1581179428100586,0.5618077421188354,0.42094102859497073,0.012203995966752396,0.9997460783026773,0.018943109587922127,1.5857254688734592,90.85537683285281,1
0.2800000000000001,20.999830534423452,-1.0905083554984671,1.0408680987517052,0.6800982732325215,15.168001,-3.4314725,3.853723,-0.2626741,14.987581,-11.208387,1.7004863,0.46928367,0.09175283,0.45929706,0.74859935,-10.594532,0.09789491,-0.5862446,-0.43283653,-0.64379686,0.8540615,0,0.1236154842376709,-0.1581179428100586,0.5618077421188354,0.42094102859497073,0.012203995966752396,0.9997460783026773,0.018943109587922127,1.5857254688734592,90.85537683285281,1
0.2900000000000001,20.999830534423452,-1.0905083554984671,1.0408680987517052,0.6800982732325215,15.168001,-3.4314725,3.853723,-0.2626741,14.88223,-11.206776,1.694724,0.46483198,0.086856835,0.45732993,0.75315136,-10.476137,0.22473994,-0.56605935,-1.0905083,1.040868,0.6800983,0,0.1236154842376709,-0.1581179428100586,0.5618077421188354,0.42094102859497073,0.012203995966752396,0.9997460783026773,0.018943109587922127,1.5857254688734592,90.85537683285281,1
0.3000000000000001,20.999830534423452,-1.0905083554984671,1.0408680987517052,0.6800982732325215,15.168001,-3.4314725,3.853723,-0.2626741,14.778049,-11.203888,1.6891692,0.46034855,0.0819549,0.4553315,0.75765187,-10.360369,0.35295197,-0.5447537,-1.0905083,1.040868,0.6800983,0,0.1236154842376709,-0.1581179428100586,0.5618077421188354,0.42094102859497073,0.012203995966752396,0.9997460783026773,0.018943109587922127,1.5857254688734592,90.85537683285281,1
0.3100000000000001,20.999830534423452,-1.0905083554984671,1.0408680987517052,0.6800982732325215,15.168001,-3.4314725,3.853723,-0.2626741,14.675014,-11.199712,1.6838328,0.45583364,0.077047355,0.45330194,0.7621005,-10.247253,0.48248747,-0.5223386,-1.0905083,1.040868,0.6800983,0,0.1236154842376709,-0.1581179428100586,0.5618077421188354,0.42094102859497073,0.012203995966752396,0.9997460783026773,0.018943109587922127,1.5857254688734592,90.85537683285281,1
0.3200000000000001,19.745021083441475,-1.673506941776188,2.7542533272147307,0.4986593514927721,15.758723,-4.0143166,3.9116435,-0.44940606,14.573095,-11.194233,1.678726,0.45128754,0.07213455,0.45124137,0.7664971,-10.136817,0.6133025,-0.4988256,-1.0905083,1.040868,0.6800983,0,0.1236154842376709,-0.1581179428100586,0.5618077421188354,0.42094102859497073,0.012203995966752396,0.9997460783026773,0.018943109587922127,1.5857254688734592,90.85537683285281,1
0.3300000000000001,19.745021083441475,-1.673506941776188,2.7542533272147307,0.4986593514927721,15.758723,-4.0143166,3.9116435,-0.44940606,14.472233,-11.187477,1.673823,0.44370618,0.05891882,0.45080268,0.7722893,-10.03654,0.73833126,-0.4816169,-1.673507,2.7542534,0.49865934,0,0.1236154842376709,-0.1581179428100586,0.5618077421188354,0.42094102859497073,0.012203995966752396,0.9997460783026773,0.018943109587922127,1.5857254688734592,90.85537683285281,1
0.34000000000000014,19.745021083441475,-1.673506941776188,2.7542533272147307,0.4986593514927721,15.758723,-4.0143166,3.9116435,-0.44940606,14.372347,-11.179454,1.6690964,0.43600687,0.04568743,0.45024413,0.77787614,-9.941598,0.866734,-0.46360353,-1.673507,2.7542534,0.49865934,0,0.11317354202270508,-0.038382256825764974,0.5565867710113526,0.4808088715871175,-0.20052899457026696,0.9788308881753087,-0.040966018729845385,1.2817638873634536,73.43966107820772,1
0.35000000000000014,19.745021083441475,-1.673506941776188,2.7542533272147307,0.4986593514927721,15.758723,-4.0143166,3.9116435,-0.44940606,14.273383,-11.17013,1.6645533,0.42819163,0.032443892,0.4495659,0.78325623,-9.852097,0.99836,-0.44488063,-1.673507,2.7542534,0.49865934,0,0.11317354202270508,-0.038382256825764974,0.5565867710113526,0.4808088715871175,-0.20052899457026696,0.9788308881753087,-0.040966018729845385,1.2817638873634536,73.43966107820772,1
0.36000000000000015,18.666531120334415,-1.8423624191500487,2.9200867601410434,0.31979183939624567,15.615254,-3.3251042,4.455687,-0.49227688,14.175286,-11.159474,1.6602006,0.42026255,0.019191729,0.44876808,0.78842807,-9.768135,1.1330549,-0.4255442,-1.673507,2.7542534,0.49865934,0,0.11317354202270508,-0.038382256825764974,0.5565867710113526,0.4808088715871175,-0.20052899457026696,0.9788308881753087,-0.040966018729845385,1.2817638873634536,73.43966107820772,1
0.37000000000000016,18.666531120334415,-1.8423624191500487,2.9200867601410434,0.31979183939624567,15.615254,-3.3251042,4.455687,-0.49227688,14.077979,-11.147495,1.6560119,0.41256368,0.004524369,0.44754317,0.7933955,-9.69424,1.263193,-0.412091,-1.8423624,2.9200869,0.31979185,0,0.11317354202270508,-0.038382256825764974,0.5565867710113526,0.4808088715871175,-0.20052899457026696,0.9788308881753087,-0.040966018729845385,1.2817638873634536,73.43966107820772,1
0.38000000000000017,18.666531120334415,-1.8423624191500487,2.9200867601410434,0.31979183939624567,15.615254,-3.3251042,4.455687,-0.49227688,13.981381,-11.134201,1.6519605,0.4047408,-0.010144351,0.44618374,0.79812443,-9.626165,1.3960518,-0.39814186,-1.8423624,2.9200869,0.31979185,0,0.11317354202270508,-0.038382256825764974,0.5565867710113526,0.4808088715871175,-0.20052899457026696,0.9788308881753087,-0.040966018729845385,1.2817638873634536,73.43966107820772,1
0.3900000000000002,18.666531120334415,-1.8423624191500487,2.9200867601410434,0.31979183939624567,15.615254,-3.3251042,4.455687,-0.49227688,13.885435,-11.119565,1.6480504,0.3967963,-0.024810022,0.44469023,0.8026135,-9.563996,1.5314609,-0.38381392,-1.8423624,2.9200869,0.31979185,0,0.11317354202270508,-0.038382256825764974,0.5565867710113526,0.4808088715871175,-0.20052899457026696,0.9788308881753087,-0.040966018729845385,1.2817638873634536,73.43966107820772,1
0.4000000000000002,17.958611721539533,-1.6626992576505566,1.9318351467699026,0.1467729655940623,15.92773,-2.9906867,4.2619495,-0.7529923,13.790081,-11.103564,1.6442851,0.3887325,-0.039468236,0.44306302,0.8068613,-9.507812,1.6692473,-0.3692248,-1.8423624,2.9200869,0.31979185,0,-0.2274370002746582,0.11024612426757813,0.3862814998626709,0.555123062133789,-0.6562925079659667,0.7541445333908976,0.023370210618807466,0.6808696121643507,39.010955175726515,1
0.4100000000000002,17.958611721539533,-1.6626992576505566,1.9318351467699026,0.1467729655940623,15.92773,-2.9906867,4.2619495,-0.7529923,13.69525,-11.0862,1.6406456,0.3835011,-0.050164923,0.440103,0.8103829,-9.459038,1.8035774,-0.35857737,-1.6626992,1.9318352,0.14677297,0,-0.2274370002746582,0.11024612426757813,0.3862814998626709,0.555123062133789,-0.6562925079659667,0.7541445333908976,0.023370210618807466,0.6808696121643507,39.010955175726515,1
0.4200000000000002,17.958611721539533,-1.6626992576505566,1.9318351467699026,0.1467729655940623,15.92773,-2.9906867,4.2619495,-0.7529923,13.600885,-11.067488,1.6371155,0.3782072,-0.060853437,0.43707123,0.8137725,-9.414678,1.9389713,-0.3473599,-1.6626992,1.9318352,0.14677297,0,-0.2274370002746582,0.11024612426757813,0.3862814998626709,0.555123062133789,-0.6562925079659667,0.7541445333908976,0.023370210618807466,0.6808696121643507,39.010955175726515,1
0.4300000000000002,17.958611721539533,-1.6626992576505566,1.9318351467699026,0.1467729655940623,15.92773,-2.9906867,4.2619495,-0.7529923,13.506943,-11.047417,1.6337001,0.37285167,-0.07153203,0.43396825,0.8170295,-9.374763,2.0753367,-0.3356382,-1.6626992,1.9318352,0.14677297,0,-0.2274370002746582,0.11024612426757813,0.3862814998626709,0.555123062133789,-0.6562925079659667,0.7541445333908976,0.023370210618807466,0.6808696121643507,39.010955175726515,1
0.4400000000000002,17.958611721539533,-1.6626992576505566,1.9318351467699026,0.1467729655940623,16.070116,-3.296032,2.7166667,-0.9662529,13.413376,-11.025978,1.6304044,0.36743537,-0.08219897,0.43079454,0.82015324,-9.339317,2.212581,-0.32347825,-1.6626992,1.9318352,0.14677297,0,-0.2274370002746582,0.11024612426757813,0.3862814998626709,0.555123062133789,-0.6562925079659667,0.7541445333908976,0.023370210618807466,0.6808696121643507,39.010955175726515,1
0.45000000000000023,17.958611721539533,-1.6626992576505566,1.9318351467699026,0.1467729655940623,16.070116,-3.296032,2.7166667,-0.9662529,13.320141,-11.003162,1.6272321,0.36195922,-0.09285251,0.4275506,0.8231434,-9.308367,2.3506107,-0.31094646,-1.6626992,1.9318352,0.14677297,0,-0.2274370002746582,0.11024612426757813,0.3862814998626709,0.555123062133789,-0.6562925079659667,0.7541445333908976,0.023370210618807466,0.6808696121643507,39.010955175726515,1
0.46000000000000024,17.958611721539533,-1.6626992576505566,1.9318351467699026,0.1467729655940623,16.070116,-3.296032,2.7166667,-0.9662529,13.227193,-10.978964,1.6241865,0.35642406,-0.10349093,0.42423704,0.8259995,-9.28193,2.4893322,-0.29810947,-1.6626992,1.9318352,0.14677297,0,-0.2274370002746582,0.11024612426757813,0.3862814998626709,0.555123062133789,-0.6562925079659667,0.7541445333908976,0.023370210618807466,0.6808696121643507,39.010955175726515,1
0.47000000000000025,17.958611721539533,-1.6626992576505566,1.9318351467699026,0.1467729655940623,16.070116,-3.296032,2.7166667,-0.9662529,13.134487,-10.953375,1.6212707,0.35083085,-0.114112474,0.42085433,0.8287209,-9.260025,2.6286511,-0.28503406,-1.6626992,1.9318352,0.14677297,0,-0.21559392929077148,0.00027908653020858765,0.39220303535461426,0.5001395432651043,-0.7071561585550173,0.7066924674203992,0.022713958461255165,0.5084756482311343,29.13350862882268,1
0.48000000000000026,17.49519825188243,-1.440053089419456,1.2151831820915349,0.050061096615495355,16.123308,-3.6662672,1.3530575,-0.65102243,13.041978,-10.926389,1.6184864,0.34518045,-0.12471543,0.41740307,0.8313073,-9.242666,2.768473,-0.2717871,-1.6626992,1.9318352,0.14677297,0,-0.21559392929077148,0.00027908653020858765,0.39220303535461426,0.5001395432651043,-0.7071561585550173,0.7066924674203992,0.022713958461255165,0.5084756482311343,29.13350862882268,1
0.49000000000000027,17.49519825188243,-1.440053089419456,1.2151831820915349,0.050061096615495355,16.123308,-3.6662672,1.3530575,-0.65102243,12.949619,-10.898022,1.6158214,0.341523,-0.13214166,0.41352746,0.8336044,-9.2297535,2.904928,-0.26116446,-1.4400531,1.2151831,0.050061096,0,-0.21559392929077148,0.00027908653020858765,0.39220303535461426,0.5001395432651043,-0.7071561585550173,0.7066924674203992,0.022713958461255165,0.5084756482311343,29.13350862882268,1
0.5000000000000002,17.49519825188243,-1.440053089419456,1.2151831820915349,0.050061096615495355,16.123308,-3.6662672,1.3530575,-0.65102243,12.857371,-10.86829,1.6132648,0.33783522,-0.13955614,0.4096151,0.83582747,-9.220106,3.0412974,-0.25009644,-1.4400531,1.2151831,0.050061096,0,-0.21559392929077148,0.00027908653020858765,0.39220303535461426,0.5001395432651043,-0.7071561585550173,0.7066924674203992,0.022713958461255165,0.5084756482311343,29.13350862882268,1
0.5100000000000002,17.49519825188243,-1.440053089419456,1.2151831820915349,0.050061096615495355,16.123308,-3.6662672,1.3530575,-0.65102243,12.765204,-10.837195,1.6108209,0.33411744,-0.14695822,0.4056664,0.83797634,-9.213726,3.177532,-0.23862055,-1.4400531,1.2151831,0.050061096,0,-0.21559392929077148,0.00027908653020858765,0.39220303535461426,0.5001395432651043,-0.7071561585550173,0.7066924674203992,0.022713958461255165,0.5084756482311343,29.13350862882268,1
0.5200000000000002,16.904437142629472,-1.0896885405609287,0.08576037334747838,-0.025011327459451234,16.643349,-3.5416825,0.50327563,-0.46632138,12.673085,-10.804739,1.6084936,0.33036998,-0.15434726,0.40168166,0.84005076,-9.210616,3.313582,-0.22677441,-1.4400531,1.2151831,0.050061096,0,-0.21559392929077148,0.00027908653020858765,0.39220303535461426,0.5001395432651043,-0.7071561585550173,0.7066924674203992,0.022713958461255165,0.5084756482311343,29.13350862882268,1
0.5300000000000002,16.904437142629472,-1.0896885405609287,0.08576037334747838,-0.025011327459451234,16.643349,-3.5416825,0.50327563,-0.46632138,12.580982,-10.770948,1.6062685,0.32945693,-0.1565554,0.39722103,0.8421192,-9.210095,3.4446087,-0.21806857,-1.0896885,0.08576037,-0.025011327,0,-0.21559392929077148,0.00027908653020858765,0.39220303535461426,0.5001395432651043,-0.7071561585550173,0.7066924674203992,0.022713958461255165,0.5084756482311343,29.13350862882268,1
0.5400000000000003,16.904437142629472,-1.0896885405609287,0.08576037334747838,-0.025011327459451234,16.643349,-3.5416825,0.50327563,-0.46632138,12.488878,-10.73585,1.6041354,0.328534,-0.15875885,0.39274856,0.8441625,-9.210933,3.5748386,-0.20839491,-1.0896885,0.08576037,-0.025011327,0,-0.1604553985595703,-0.057722371419270835,0.4197723007202149,0.4711388142903646,-0.7183717278268299,0.6956571329216846,0.0017927839458281025,0.3991228584793136,22.86805529806191,0
0.5500000000000003,16.904437142629472,-1.0896885405609287,0.08576037334747838,-0.025011327459451234,16.643349,-3.5416825,0.50327563,-0.46632138,12.396759,-10.699453,1.602104,0.32760125,-0.16095755,0.3882644,0.8461806,-9.213128,3.704257,-0.1977666,-1.0896885,0.08576037,-0.025011327,0,-0.1604553985595703,-0.057722371419270835,0.4197723007202149,0.4711388142903646,-0.7183717278268299,0.6956571329216846,0.0017927839458281025,0.3991228584793136,22.86805529806191,0
0.5600000000000003,16.508560103735377,-0.796475397010776,-0.5091826306207136,-0.05244829344925421,16.927603,-3.0558465,3.0718427,0.29816103,12.30461,-10.661767,1.6001834,0.32665873,-0.16315144,0.3837686,0.84817344,-9.2166815,3.832848,-0.18619688,-1.0896885,0.08576037,-0.025011327,0,-0.1604553985595703,-0.057722371419270835,0.4197723007202149,0.4711388142903646,-0.7183717278268299,0.6956571329216846,0.0017927839458281025,0.3991228584793136,22.86805529806191,0
0.5700000000000003,16.508560103735377,-0.796475397010776,-0.5091826306207136,-0.05244829344925421,16.927603,-3.0558465,3.0718427,0.29816103,12.212422,-10.622814,1.5983706,0.3272048,-0.16239177,0.3795121,0.8500219,-9.221084,3.9575372,-0.17619334,-0.7964754,-0.50918263,-0.052448295,0,-0.1604553985595703,-0.057722371419270835,0.4197723007202149,0.4711388142903646,-0.7183717278268299,0.6956571329216846,0.0017927839458281025,0.3991228584793136,22.86805529806191,0
0.5800000000000003,16.508560103735377,-0.796475397010776,-0.5091826306207136,-0.05244829344925421,16.927603,-3.0558465,3.0718427,0.29816103,12.120189,-10.582621,1.5966636,0.32774353,-0.16162844,0.37524715,0.8518513,-9.225763,4.0812087,-0.16503914,-0.7964754,-0.50918263,-0.052448295,0,-0.1604553985595703,-0.057722371419270835,0.4197723007202149,0.4711388142903646,-0.7183717278268299,0.6956571329216846,0.0017927839458281025,0.3991228584793136,22.86805529806191,0
0.5900000000000003,16.508560103735377,-0.796475397010776,-0.5091826306207136,-0.05244829344925421,16.927603,-3.0558465,3.0718427,0.29816103,12.027906,-10.541194,1.5950737,0.32827494,-0.16086149,0.3709738,0.8536616,-9.2307205,4.203852,-0.15274416,-0.7964754,-0.50918263,-0.052448295,0,-0.1604553985595703,-0.057722371419270835,0.4197723007202149,0.4711388142903646,-0.7183717278268299,0.6956571329216846,0.0017927839458281025,0.3991228584793136,22.86805529806191,0
0.6000000000000003,16.003553302278025,-0.5773756645795249,-0.7149040121469663,-0.06076565872402156,16.910103,-2.6716,3.3880835,0.31443635,11.935574,-10.498547,1.5936126,0.32879898,-0.16009095,0.36669213,0.85545284,-9.235955,4.3254566,-0.1393184,-0.7964754,-0.50918263,-0.052448295,0,-0.14906911849975585,-0.04976505597432455,0.42546544075012205,0.4751174720128377,-0.726396209086549,0.6871406386791088,0.013648813148309957,0.3196435526722117,18.314226516685356,0
0.6100000000000003,16.003553302278025,-0.5773756645795249,-0.7149040121469663,-0.06076565872402156,16.910103,-2.6716,3.3880835,0.31443635,11.843188,-10.454707,1.592274,0.32990396,-0.15809205,0.36299473,0.8569748,-9.24112,4.4423366,-0.1282229,-0.57737565,-0.714904,-0.060765658,0,-0.14906911849975585,-0.04976505597432455,0.42546544075012205,0.4751174720128377,-0.726396209086549,0.6871406386791088,0.013648813148309957,0.3196435526722117,18.314226516685356,0
0.6200000000000003,16.003553302278025,-0.5773756645795249,-0.7149040121469663,-0.06076565872402156,16.910103,-2.6716,3.3880835,0.31443635,11.750752,-10.409704,1.5910517,0.33100197,-0.15608981,0.3592896,0.8584785,-9.246076,4.5582223,-0.11606372,-0.57737565,-0.714904,-0.060765658,0,-0.14906911849975585,-0.04976505597432455,0.42546544075012205,0.4751174720128377,-0.726396209086549,0.6871406386791088,0.013648813148309957,0.3196435526722117,18.314226516685356,0
0.6300000000000003,16.003553302278025,-0.5773756645795249,-0.7149040121469663,-0.06076565872402156,16.910103,-2.6716,3.3880835,0.31443635,11.658267,-10.363546,1.5899563,0.33209297,-0.15408424,0.35557687,0.85996395,-9.250822,4.6731052,-0.1028501,-0.57737565,-0.714904,-0.060765658,0,-0.14906911849975585,-0.04976505597432455,0.42546544075012205,0.4751174720128377,-0.726396209086549,0.6871406386791088,0.013648813148309957,0.3196435526722117,18.314226516685356,0
0.6400000000000003,16.003553302278025,-0.5773756645795249,-0.7149040121469663,-0.06076565872402156,15.737125,-2.1315627,3.7196934,0.37048417,11.565736,-10.316245,1.5889983,0.3331769,-0.1520754,0.35185662,0.86143124,-9.25536,4.7869744,-0.0885914,-0.57737565,-0.714904,-0.060765658,0,-0.14906911849975585,-0.04976505597432455,0.42546544075012205,0.4751174720128377,-0.726396209086549,0.6871406386791088,0.013648813148309957,0.3196435526722117,18.314226516685356,0
0.6500000000000004,16.003553302278025,-0.5773756645795249,-0.7149040121469663,-0.06076565872402156,15.737125,-2.1315627,3.7196934,0.37048417,11.47316,-10.26781,1.588188,0.3342538,-0.15006332,0.34812889,0.86288023,-9.25969,4.89982,-0.07329701,-0.57737565,-0.714904,-0.060765658,0,-0.14906911849975585,-0.04976505597432455,0.42546544075012205,0.4751174720128377,-0.726396209086549,0.6871406386791088,0.013648813148309957,0.3196435526722117,18.314226516685356,0
0.6600000000000004,16.003553302278025,-0.5773756645795249,-0.7149040121469663,-0.06076565872402156,15.737125,-2.1315627,3.7196934,0.37048417,11.380542,-10.218252,1.5875359,0.3353236,-0.14804807,0.3443938,0.8643109,-9.263813,5.0116324,-0.056976445,-0.57737565,-0.714904,-0.060765658,0,-0.14906911849975585,-0.04976505597432455,0.42546544075012205,0.4751174720128377,-0.726396209086549,0.6871406386791088,0.013648813148309957,0.3196435526722117,18.314226516685356,0
0.6700000000000004,16.003553302278025,-0.5773756645795249,-0.7149040121469663,-0.06076565872402156,15.737125,-2.1315627,3.7196934,0.37048417,11.287884,-10.167582,1.587052,0.3363863,-0.14602971,0.3406514,0.8657233,-9.267729,5.122403,-0.039639287,-0.57737565,-0.714904,-0.060765658,0,-0.14386797904968263,-0.06621953328450521,0.4280660104751587,0.4668902333577474,-0.7113232484986688,0.699109933301907,0.07255713130977634,0.27181466612922955,15.573833178962422,0
0.6800000000000004,15.638224334000862,-0.4588295267193164,-0.6091952391074805,-0.05765677972064442,14.191934,-1.870066,3.488163,0.5016644,11.195188,-10.1158085,1.5867466,0.33744183,-0.14400825,0.33690172,0.86711735,-9.271439,5.232122,-0.021295218,-0.57737565,-0.714904,-0.060765658,0,-0.14386797904968263,-0.06621953328450521,0.4280660104751587,0.4668902333577474,-0.7113232484986688,0.699109933301907,0.07255713130977634,0.27181466612922955,15.573833178962422,0
0.6900000000000004,15.638224334000862,-0.4588295267193164,-0.6091952391074805,-0.05765677972064442,14.191934,-1.870066,3.488163,0.5016644,11.102456,-10.062955,1.5866159,0.33838516,-0.14223725,0.3338406,0.8682253,-9.27486,5.3383675,-0.0046980516,-0.45882952,-0.60919523,-0.05765678,0,-0.14386797904968263,-0.06621953328450521,0.4280660104751587,0.4668902333577474,-0.7113232484986688,0.699109933301907,0.07255713130977634,0.27181466612922955,15.573833178962422,0
0.7000000000000004,15.638224334000862,-0.4588295267193164,-0.6091952391074805,-0.05765677972064442,14.191934,-1.870066,3.488163,0.5016644,11.00969,-10.009044,1.5866553,0.33932352,-0.14046417,0.33077464,0.8693205,-9.278076,5.443751,0.012697357,-0.45882952,-0.60919523,-0.05765678,0,-0.14386797904968263,-0.06621953328450521,0.4280660104751587,0.4668902333577474,-0.7113232484986688,0.699109933301907,0.07255713130977634,0.27181466612922955,15.573833178962422,0
0.7100000000000004,15.638224334000862,-0.4588295267193164,-0.6091952391074805,-0.05765677972064442,14.191934,-1.870066,3.488163,0.5016644,10.916894,-9.954083,1.5868726,0.34025693,-0.13868903,0.3277038,0.870403,-9.281086,5.548267,0.030884357,-0.45882952,-0.60919523,-0.05765678,0,-0.14386797904968263,-0.06621953328450521,0.4280660104751587,0.4668902333577474,-0.7113232484986688,0.699109933301907,0.07255713130977634,0.27181466612922955,15.573833178962422,0
0.7200000000000004,15.012766074894312,-0.26655351127044613,-0.7363889377001291,-0.06274846220848301,13.679685,-1.5392145,2.9715328,0.6013562,10.824069,-9.898081,1.5872757,0.3411854,-0.13691185,0.3246282,0.8714728,-9.28389,5.651909,0.04985626,-0.45882952,-0.60919523,-0.05765678,0,-0.14386797904968263,-0.06621953328450521,0.4280660104751587,0.4668902333577474,-0.7113232484986688,0.699109933301907,0.07255713130977634,0.27181466612922955,15.573833178962422,0
0.7300000000000004,15.012766074894312,-0.26655351127044613,-0.7363889377001291,-0.06274846220848301,13.679685,-1.5392145,2.9715328,0.6013562,10.731217,-9.841067,1.5878488,0.34246898,-0.13425866,0.32216504,0.8722958,-9.28626,5.750584,0.06487465,-0.26655352,-0.7363889,-0.06274846,0,-0.14386797904968263,-0.06621953328450521,0.4280660104751587,0.4668902333577474,-0.7113232484986688,0.699109933301907,0.07255713130977634,0.27181466612922955,15.573833178962422,0
0.7400000000000004,15.012766074894312,-0.26655351127044613,-0.7363889377001291,-0.06274846220848301,13.679685,-1.5392145,2.9715328,0.6013562,10.638345,-9.783072,1.5885755,0.3437473,-0.13160339,0.3196969,0.8731053,-9.288096,5.848472,0.08058489,-0.26655352,-0.7363889,-0.06274846,0,-0.12699254989624023,-0.036155138015747074,0.4365037250518799,0.48192243099212645,-0.7043083653936818,0.7051700735521297,0.08176119986255352,0.22405631122927128,12.837481006706877,0
0.7500000000000004,15.012766074894312,-0.26655351127044613,-0.7363889377001291,-0.06274846220848301,13.679685,-1.5392145,2.9715328,0.6013562,10.545457,-9.724102,1.5894626,0.34502026,-0.1289461,0.31722385,0.87390137,-9.289401,5.9455667,0.09698021,-0.26655352,-0.7363889,-0.06274846,0,-0.12699254989624023,-0.036155138015747074,0.4365037250518799,0.48192243099212645,-0.7043083653936818,0.7051700735521297,0.08176119986255352,0.22405631122927128,12.837481006706877,0
0.7600000000000005,14.508376122688833,-0.17271158185599236,-0.5984912650052973,-0.05480566857115398,13.105258,-1.4244266,2.4399068,0.616724,10.4525585,-9.664164,1.5905173,0.34628794,-0.1262868,0.3147459,0.8746839,-9.290174,6.0418615,0.114053786,-0.26655352,-0.7363889,-0.06274846,0,-0.12699254989624023,-0.036155138015747074,0.4365037250518799,0.48192243099212645,-0.7043083653936818,0.7051700735521297,0.08176119986255352,0.22405631122927128,12.837481006706877,0
0.7700000000000005,14.508376122688833,-0.17271158185599236,-0.5984912650052973,-0.05480566857115398,13.105258,-1.4244266,2.4399068,0.616724,10.359655,-9.603283,1.5917265,0.34735873,-0.12405403,0.3129182,0.87523454,-9.290427,6.1342106,0.12785038,-0.17271158,-0.59849125,-0.05480567,0,-0.12699254989624023,-0.036155138015747074,0.4365037250518799,0.48192243099212645,-0.7043083653936818,0.7051700735521297,0.08176119986255352,0.22405631122927128,12.837481006706877,0
0.7800000000000005,14.508376122688833,-0.17271158185599236,-0.5984912650052973,-0.05480566857115398,13.105258,-1.4244266,2.4399068,0.616724,10.266752,-9.541481,1.593076,0.34842613,-0.12182005,0.3110874,0.8757766,-9.290221,6.225959,0.14214048,-0.17271158,-0.59849125,-0.05480567,0,-0.12699254989624023,-0.036155138015747074,0.4365037250518799,0.48192243099212645,-0.7043083653936818,0.7051700735521297,0.08176119986255352,0.22405631122927128,12.837481006706877,0
0.7900000000000005,14.508376122688833,-0.17271158185599236,-0.5984912650052973,-0.05480566857115398,13.105258,-1.4244266,2.4399068,0.616724,10.173853,-9.4787655,1.594571,0.34949014,-0.11958487,0.30925357,0.87631005,-9.289554,6.3171015,0.15691988,-0.17271158,-0.59849125,-0.05480567,0,-0.12699254989624023,-0.036155138015747074,0.4365037250518799,0.48192243099212645,-0.7043083653936818,0.7051700735521297,0.08176119986255352,0.22405631122927128,12.837481006706877,0
0.8000000000000005,13.850920521522662,-0.10803056967228716,-0.9469557008017092,-0.05279122171634034,12.810038,-1.3151742,1.8981601,0.59808195,10.080963,-9.415141,1.5962161,0.3505507,-0.11734852,0.3074167,0.8768349,-9.288428,6.4076357,0.17218436,-0.17271158,-0.59849125,-0.05480567,0,-0.11805856704711915,0.06376809438069661,0.4409707164764404,0.5318840471903483,-0.7227842299620288,0.6906614000913218,0.023870218727363782,0.1587929995580466,9.098168690898817,0
0.8100000000000005,13.850920521522662,-0.10803056967228716,-0.9469557008017092,-0.05279122171634034,12.810038,-1.3151742,1.8981601,0.59808195,9.988086,-9.350636,1.5979906,0.35217032,-0.113466084,0.30524886,0.877454,-9.28676,6.4934034,0.18283102,-0.10803057,-0.9469557,-0.052791223,0,-0.11805856704711915,0.06376809438069661,0.4409707164764404,0.5318840471903483,-0.7227842299620288,0.6906614000913218,0.023870218727363782,0.1587929995580466,9.098168690898817,0
0.8200000000000005,13.850920521522662,-0.10803056967228716,-0.9469557008017092,-0.05279122171634034,12.810038,-1.3151742,1.8981601,0.59808195,9.89523,-9.285275,1.5998746,0.3537819,-0.10958105,0.303074,0.87805325,-9.284244,6.5783677,0.19409025,-0.10803057,-0.9469557,-0.052791223,0,-0.11805856704711915,0.06376809438069661,0.4409707164764404,0.5318840471903483,-0.7227842299620288,0.6906614000913218,0.023870218727363782,0.1587929995580466,9.098168690898817,0
0.8300000000000005,13.850920521522662,-0.10803056967228716,-0.9469557008017092,-0.05279122171634034,12.810038,-1.3151742,1.8981601,0.59808195,9.802404,-9.21907,1.6018742,0.35538545,-0.10569352,0.3008923,0.8786325,-9.280877,6.6625204,0.20595238,-0.10803057,-0.9469557,-0.052791223,0,-0.11805856704711915,0.06376809438069661,0.4409707164764404,0.5318840471903483,-0.7227842299620288,0.6906614000913218,0.023870218727363782,0.1587929995580466,9.098168690898817,0
0.8400000000000005,13.850920521522662,-0.10803056967228716,-0.9469557008017092,-0.05279122171634034,12.805565,-1.3333453,1.3314502,0.53910875,9.709616,-9.152027,1.6039956,0.3569809,-0.10180358,0.2987037,0.8791917,-9.276662,6.745854,0.2184077,-0.10803057,-0.9469557,-0.052791223,0,-0.11805856704711915,0.06376809438069661,0.4409707164764404,0.5318840471903483,-0.7227842299620288,0.6906614000913218,0.023870218727363782,0.1587929995580466,9.098168690898817,0
0.8500000000000005,13.850920521522662,-0.10803056967228716,-0.9469557008017092,-0.05279122171634034,12.805565,-1.3333453,1.3314502,0.53910875,9.616874,-9.084156,1.6062444,0.35856822,-0.09791132,0.2965083,0.8797309,-9.2716,6.828359,0.23144649,-0.10803057,-0.9469557,-0.052791223,0,-0.11805856704711915,0.06376809438069661,0.4409707164764404,0.5318840471903483,-0.7227842299620288,0.6906614000913218,0.023870218727363782,0.1587929995580466,9.098168690898817,0
0.8600000000000005,13.850920521522662,-0.10803056967228716,-0.9469557008017092,-0.05279122171634034,12.805565,-1.3333453,1.3314502,0.53910875,9.524187,-9.015463,1.6086266,0.36014733,-0.094016835,0.29430616,0.88025004,-9.265691,6.91003,0.24505891,-0.10803057,-0.9469557,-0.052791223,0,-0.11805856704711915,0.06376809438069661,0.4409707164764404,0.5318840471903483,-0.7227842299620288,0.6906614000913218,0.023870218727363782,0.1587929995580466,9.098168690898817,0
0.8700000000000006,13.850920521522662,-0.10803056967228716,-0.9469557008017092,-0.05279122171634034,12.805565,-1.3333453,1.3314502,0.53910875,9.431563,-8.945957,1.6111476,0.36171827,-0.09012021,0.29209733,0.88074917,-9.258938,6.9908576,0.2592351,-0.10803057,-0.9469557,-0.052791223,0,-0.25462684631347654,0.19005352020263672,0.37268657684326173,0.5950267601013184,-0.8119661656614332,0.5829324028162626,0.030012656795579587,-0.024061743480614517,-1.3786363491656355,0
0.8800000000000006,13.396403427815452,-0.14355134482306425,-0.5600966102247422,-0.03624739141845811,12.898914,-1.2163738,1.0433718,0.39586478,9.339011,-8.8756485,1.6138132,0.36328095,-0.08622153,0.28988183,0.881228,-9.25134,7.0708346,0.27396518,-0.10803057,-0.9469557,-0.052791223,0,-0.25462684631347654,0.19005352020263672,0.37268657684326173,0.5950267601013184,-0.8119661656614332,0.5829324028162626,0.030012656795579587,-0.024061743480614517,-1.3786363491656355,0
0.8900000000000006,13.396403427815452,-0.14355134482306425,-0.5600966102247422,-0.03624739141845811,12.898914,-1.2163738,1.0433718,0.39586478,9.246537,-8.804557,1.6166099,0.36418906,-0.084066585,0.2882151,0.881608,-9.243329,7.1474624,0.28545696,-0.14355135,-0.5600966,-0.03624739,0,-0.25462684631347654,0.19005352020263672,0.37268657684326173,0.5950267601013184,-0.8119661656614332,0.5829324028162626,0.030012656795579587,-0.024061743480614517,-1.3786363491656355,0
0.9000000000000006,13.396403427815452,-0.14355134482306425,-0.5600966102247422,-0.03624739141845811,12.898914,-1.2163738,1.0433718,0.39586478,9.154145,-8.732701,1.6195235,0.36509413,-0.08191094,0.286546,0.8819806,-9.23491,7.2235355,0.29730392,-0.14355135,-0.5600966,-0.03624739,0,-0.25462684631347654,0.19005352020263672,0.37268657684326173,0.5950267601013184,-0.8119661656614332,0.5829324028162626,0.030012656795579587,-0.024061743480614517,-1.3786363491656355,0
0.9100000000000006,13.396403427815452,-0.14355134482306425,-0.5600966102247422,-0.03624739141845811,12.898914,-1.2163738,1.0433718,0.39586478,9.06184,-8.660089,1.6225573,0.36599612,-0.079754606,0.2848745,0.8823458,-9.226084,7.299052,0.30950236,-0.14355135,-0.5600966,-0.03624739,0,-0.25462684631347654,0.19005352020263672,0.37268657684326173,0.5950267601013184,-0.8119661656614332,0.5829324028162626,0.030012656795579587,-0.024061743480614517,-1.3786363491656355,0
0.9200000000000006,12.628918180348792,-0.1991754302636241,-0.9903232420625625,-0.01227502453168048,12.751781,-1.1244713,0.6716088,0.21191907,8.9696245,-8.586722,1.6257148,0.36689502,-0.0775976,0.28320062,0.8827036,-9.216851,7.3740077,0.32204878,-0.14355135,-0.5600966,-0.03624739,0,-0.25462684631347654,0.19005352020263672,0.37268657684326173,0.5950267601013184,-0.8119661656614332,0.5829324028162626,0.030012656795579587,-0.024061743480614517,-1.3786363491656355,0
0.9300000000000006,12.628918180348792,-0.1991754302636241,-0.9903232420625625,-0.01227502453168048,12.751781,-1.1244713,0.6716088,0.21191907,8.8775015,-8.512631,1.628968,0.36826953,-0.07360859,0.28049645,0.88333607,-9.207636,7.444001,0.32866198,-0.19917543,-0.99032325,-0.012275024,0,-0.25462684631347654,0.19005352020263672,0.37268657684326173,0.5950267601013184,-0.8119661656614332,0.5829324028162626,0.030012656795579587,-0.024061743480614517,-1.3786363491656355,0
0.9400000000000006,12.628918180348792,-0.1991754302636241,-0.9903232420625625,-0.01227502453168048,12.751781,-1.1244713,0.6716088,0.21191907,8.785474,-8.437845,1.63229,0.36963466,-0.069617696,0.27778512,0.883946,-9.197697,7.5130897,0.33580855,-0.19917543,-0.99032325,-0.012275024,0,-0.23630407333374023,0.14796274820963543,0.38184796333312987,0.5739813741048178,-0.7773433601928013,0.6207312364395691,0.10212753043312543,-0.011084728198768712,-0.6351081428390983,0
0.9500000000000006,12.628918180348792,-0.1991754302636241,-0.9903232420625625,-0.01227502453168048,12.751781,-1.1244713,0.6716088,0.21191907,8.693549,-8.362372,1.6356862,0.37099034,-0.06562503,0.27506673,0.8845334,-9.187035,7.581266,0.34347782,-0.19917543,-0.99032325,-0.012275024,0,-0.23630407333374023,0.14796274820963543,0.38184796333312987,0.5739813741048178,-0.7773433601928013,0.6207312364395691,0.10212753043312543,-0.011084728198768712,-0.6351081428390983,0
0.9600000000000006,12.020828901816497,-0.31500068875012815,-0.8758146941301111,0.019353514902130484,12.158799,-0.7771025,0.068784855,0.058607228,8.601735,-8.286223,1.6391613,0.37233657,-0.061630677,0.27234134,0.8850983,-9.175651,7.6485233,0.35165906,-0.19917543,-0.99032325,-0.012275024,1,-0.23630407333374023,0.14796274820963543,0.38184796333312987,0.5739813741048178,-0.7773433601928013,0.6207312364395691,0.10212753043312543,-0.011084728198768712,-0.6351081428390983,0
0.9700000000000006,12.020828901816497,-0.31500068875012815,-0.8758146941301111,0.019353514902130484,12.158799,-0.7771025,0.068784855,0.058607228,8.510035,-8.209418,1.642701,0.37174124,-0.06330152,0.2690463,0.8862376,-9.164525,7.712537,0.3563312,-0.7771025,0.068784855,0.058607228,1,-0.23630407333374023,0.14796274820963543,0.38184796333312987,0.5739813741048178,-0.7773433601928013,0.6207312364395691,0.10212753043312543,-0.011084728198768712,-0.6351081428390983,0
0.9800000000000006,12.020828901816497,-0.31500068875012815,-0.8758146941301111,0.019353514902130484,12.158799,-0.7771025,0.068784855,0.058607228,8.418442,-8.131974,1.6462893,0.37114018,-0.064971395,0.2657472,0.8873634,-9.154114,7.7760563,0.36138406,-0.7771025,0.068784855,0.058607228,1,-0.23630407333374023,0.14796274820963543,0.38184796333312987,0.5739813741048178,-0.7773433601928013,0.6207312364395691,0.10212753043312543,-0.011084728198768712,-0.6351081428390983,0
0.9900000000000007,12.020828901816497,-0.31500068875012815,-0.8758146941301111,0.019353514902130484,12.158799,-0.7771025,0.068784855,0.058607228,8.326949,-8.053898,1.6499301,0.37053347,-0.06664028,0.26244396,0.88847554,-9.144418,7.839077,0.36681163,-0.7771025,0.068784855,0.058607228,1,-0.23630407333374023,0.14796274820963543,0.38184796333312987,0.5739813741048178,-0.7773433601928013,0.6207312364395691,0.10212753043312543,-0.011084728198768712,-0.6351081428390983,0
1.0000000000000007,11.340158440197078,-0.29606167927621957,-2.037985910754853,0.09622447078324231,11.317805,-0.645506,0.15858594,0.001039153,8.235549,-7.975195,1.6536269,0.3699211,-0.06830814,0.25913674,0.8895741,-9.135436,7.901595,0.37260777,-0.7771025,0.068784855,0.058607228,0,-0.1837783622741699,0.1842414983113607,0.40811081886291506,0.5921207491556804,-0.7650593434396709,0.640702214246481,0.06469059959001953,-0.015937826105838493,-0.9131701704779698,0
1.0100000000000007,11.340158440197078,-0.29606167927621957,-2.037985910754853,0.09622447078324231,11.317805,-0.645506,0.15858594,0.001039153,8.144237,-7.8958907,1.657349,0.37201288,-0.059662886,0.2540696,0.89078444,-9.126943,7.9589925,0.3719394,-0.29606166,-2.0379858,0.09622447,0,-0.1837783622741699,0.1842414983113607,0.40811081886291506,0.5921207491556804,-0.7650593434396709,0.640702214246481,0.06469059959001953,-0.015937826105838493,-0.9131701704779698,0
1.0200000000000007,11.340158440197078,-0.29606167927621957,-2.037985910754853,0.09622447078324231,11.317805,-0.645506,0.15858594,0.001039153,8.053016,-7.8160205,1.6610686,0.37406513,-0.05101129,0.24897547,0.8919002,-9.117026,8.014731,0.37209588,-0.29606166,-2.0379858,0.09622447,0,-0.1837783622741699,0.1842414983113607,0.40811081886291506,0.5921207491556804,-0.7650593434396709,0.640702214246481,0.06469059959001953,-0.015937826105838493,-0.9131701704779698,0
1.0300000000000007,11.340158440197078,-0.29606167927621957,-2.037985910754853,0.09622447078324231,11.317805,-0.645506,0.15858594,0.001039153,7.961901,-7.7356014,1.6647936,0.37607762,-0.042354275,0.24385491,0.8929211,-9.105691,8.06879,0.37303478,-0.29606166,-2.0379858,0.09622447,0,-0.1837783622741699,0.1842414983113607,0.40811081886291506,0.5921207491556804,-0.7650593434396709,0.640702214246481,0.06469059959001953,-0.015937826105838493,-0.9131701704779698,0
1.0400000000000007,11.340158440197078,-0.29606167927621957,-2.037985910754853,0.09622447078324231,10.788534,-0.47984102,-1.1786809,-0.1741432,7.870907,-7.6546507,1.6685318,0.37805018,-0.033692762,0.23870842,0.8938471,-9.092937,8.121146,0.3747132,-0.29606166,-2.0379858,0.09622447,1,-0.1837783622741699,0.1842414983113607,0.40811081886291506,0.5921207491556804,-0.7650593434396709,0.640702214246481,0.06469059959001953,-0.015937826105838493,-0.9131701704779698,0
1.0500000000000007,11.340158440197078,-0.29606167927621957,-2.037985910754853,0.09622447078324231,10.788534,-0.47984102,-1.1786809,-0.1741432,7.7800426,-7.573197,1.6722658,0.38014662,-0.02953916,0.23430166,0.8942708,-9.079759,8.169501,0.3721497,-0.47984102,-1.1786809,-0.1741432,1,-0.1837783622741699,0.1842414983113607,0.40811081886291506,0.5921207491556804,-0.7650593434396709,0.640702214246481,0.06469059959001953,-0.015937826105838493,-0.9131701704779698,0
1.0600000000000007,11.340158440197078,-0.29606167927621957,-2.037985910754853,0.09622447078324231,10.788534,-0.47984102,-1.1786809,-0.1741432,7.689314,-7.491265,1.6759765,0.38222736,-0.02538434,0.22988525,0.89465755,-9.066037,8.2167,0.3700871,-0.47984102,-1.1786809,-0.1741432,1,-0.1837783622741699,0.1842414983113607,0.40811081886291506,0.5921207491556804,-0.7650593434396709,0.640702214246481,0.06469059959001953,-0.015937826105838493,-0.9131701704779698,0
1.0700000000000007,11.340158440197078,-0.29606167927621957,-2.037985910754853,0.09622447078324231,10.788534,-0.47984102,-1.1786809,-0.1741432,7.5987244,-7.4088664,1.6796693,0.38429236,-0.021228472,0.22545935,0.89500743,-9.051776,8.2627325,0.36851043,-0.47984102,-1.1786809,-0.1741432,1,-0.13233201026916505,0.1281859588623047,0.43383399486541746,0.5640929794311523,-0.6827410508399299,0.7026280492079674,0.20044570827083016,0.05989389401187628,3.431667345484385,0
1.0800000000000007,10.908537276774016,-0.48999821675050337,-1.8176661557722733,0.17254246996872066,10.087096,-0.40201816,-1.1249275,-0.22726738,7.50828,-7.326014,1.6833484,0.38634148,-0.017071728,0.22102416,0.8953204,-9.036981,8.307591,0.36740476,-0.47984102,-1.1786809,-0.1741432,1,-0.13233201026916505,0.1281859588623047,0.43383399486541746,0.5640929794311523,-0.6827410508399299,0.7026280492079674,0.20044570827083016,0.05989389401187628,3.431667345484385,0
1.0900000000000007,10.908537276774016,-0.48999821675050337,-1.8176661557722733,0.17254246996872066,10.087096,-0.40201816,-1.1249275,-0.22726738,7.417981,-7.242733,1.686987,0.38856056,-0.013063324,0.21702798,0.8954051,-9.022645,8.34846,0.360404,-0.40201816,-1.1249275,-0.22726738,1,-0.13233201026916505,0.1281859588623047,0.43383399486541746,0.5640929794311523,-0.6827410508399299,0.7026280492079674,0.20044570827083016,0.05989389401187628,3.431667345484385,0
1.1000000000000008,10.908537276774016,-0.48999821675050337,-1.8176661557722733,0.17254246996872066,10.087096,-0.40201816,-1.1249275,-0.22726738,7.3278284,-7.1590486,1.6905576,0.3907653,-0.009054436,0.21302378,0.8954568,-9.007803,8.388303,0.35377625,-0.40201816,-1.1249275,-0.22726738,1,-0.13233201026916505,0.1281859588623047,0.43383399486541746,0.5640929794311523,-0.6827410508399299,0.7026280492079674,0.20044570827083016,0.05989389401187628,3.431667345484385,0
1.1100000000000008,10.908537276774016,-0.48999821675050337,-1.8176661557722733,0.17254246996872066,10.087096,-0.40201816,-1.1249275,-0.22726738,7.2378263,-7.0749702,1.6940637,0.3929556,-0.0050452137,0.20901172,0.8954753,-8.992457,8.42711,0.34750915,-0.40201816,-1.1249275,-0.22726738,1,-0.13233201026916505,0.1281859588623047,0.43383399486541746,0.5640929794311523,-0.6827410508399299,0.7026280492079674,0.20044570827083016,0.05989389401187628,3.431667345484385,0
1.1200000000000008,10.587133057344342,-0.7061184541752711,-2.4112666280005697,0.32972946199232905,10.127103,-0.7991522,-1.4477651,-0.50856245,7.14798,-6.9905095,1.6975088,0.39513135,-0.0010358049,0.20499192,0.8954608,-8.976613,8.464877,0.34159037,-0.40201816,-1.1249275,-0.22726738,1,-0.13233201026916505,0.1281859588623047,0.43383399486541746,0.5640929794311523,-0.6827410508399299,0.7026280492079674,0.20044570827083016,0.05989389401187628,3.431667345484385,0
1.1300000000000008,10.587133057344342,-0.7061184541752711,-2.4112666280005697,0.32972946199232905,10.127103,-0.7991522,-1.4477651,-0.50856245,7.0582957,-6.9056764,1.7008986,0.39887327,0.0033461573,0.19854335,0.8952491,-8.960234,8.501566,0.3364487,-0.7991522,-1.4477651,-0.50856245,1,-0.13233201026916505,0.1281859588623047,0.43383399486541746,0.5640929794311523,-0.6827410508399299,0.7026280492079674,0.20044570827083016,0.05989389401187628,3.431667345484385,0
1.1400000000000008,10.587133057344342,-0.7061184541752711,-2.4112666280005697,0.32972946199232905,10.127103,-0.7991522,-1.4477651,-0.50856245,6.9687767,-6.8204837,1.7042395,0.40258536,0.0077278693,0.19207993,0.8949705,-8.94343,8.53672,0.33182326,-0.7991522,-1.4477651,-0.50856245,1,-0.11199031829833984,0.1649606196085612,0.4440048408508301,0.5824803098042806,-0.6483667178607377,0.7251794362304541,0.23180893951479775,0.07912748186107077,4.533670754137332,0
1.1500000000000008,10.587133057344342,-0.7061184541752711,-2.4112666280005697,0.32972946199232905,10.127103,-0.7991522,-1.4477651,-0.50856245,6.8794284,-6.734947,1.7075368,0.40626732,0.012109002,0.18560214,0.8946248,-8.926214,8.570327,0.32769054,-0.7991522,-1.4477651,-0.50856245,1,-0.11199031829833984,0.1649606196085612,0.4440048408508301,0.5824803098042806,-0.6483667178607377,0.7251794362304541,0.23180893951479775,0.07912748186107077,4.533670754137332,0
1.1600000000000008,10.357570234520878,-0.863615711446644,-3.021075048526012,0.5312617911581613,10.186163,-0.85142833,-1.5213313,-0.49240768,6.7902536,-6.649082,1.7107949,0.4099188,0.016489228,0.17911047,0.89421225,-8.9086,8.602376,0.32402682,-0.7991522,-1.4477651,-0.50856245,0,-0.11199031829833984,0.1649606196085612,0.4440048408508301,0.5824803098042806,-0.6483667178607377,0.7251794362304541,0.23180893951479775,0.07912748186107077,4.533670754137332,0
1.1700000000000008,10.357570234520878,-0.863615711446644,-3.021075048526012,0.5312617911581613,10.186163,-0.85142833,-1.5213313,-0.49240768,6.70126,-6.562903,1.7140298,0.4102682,0.02869974,0.16899112,0.89571184,-8.889802,8.633081,0.32303932,-0.8636157,-3.021075,0.5312618,0,-0.11199031829833984,0.1649606196085612,0.4440048408508301,0.5824803098042806,-0.6483667178607377,0.7251794362304541,0.23180893951479775,0.07912748186107077,4.533670754137332,0
1.1800000000000008,10.357570234520878,-0.863615711446644,-3.021075048526012,0.5312617911581613,10.186163,-0.85142833,-1.5213313,-0.49240768,6.612462,-6.4764304,1.7172577,0.4105134,0.040902965,0.15882885,0.8969841,-8.869582,8.660918,0.32262933,-0.8636157,-3.021075,0.5312618,0,-0.11199031829833984,0.1649606196085612,0.4440048408508301,0.5824803098042806,-0.6483667178607377,0.7251794362304541,0.23180893951479775,0.07912748186107077,4.533670754137332,0
1.1900000000000008,10.357570234520878,-0.863615711446644,-3.021075048526012,0.5312617911581613,10.186163,-0.85142833,-1.5213313,-0.49240768,6.523874,-6.389694,1.7204841,0.41065443,0.053095806,0.14862627,0.8980287,-8.847944,8.685866,0.32269534,-0.8636157,-3.021075,0.5312618,0,-0.11199031829833984,0.1649606196085612,0.4440048408508301,0.5824803098042806,-0.6483667178607377,0.7251794362304541,0.23180893951479775,0.07912748186107077,4.533670754137332,0
1.2000000000000008,10.075074135458799,-0.9842116047595496,-2.820814502230454,0.6823427837514985,10.588503,-0.8437236,-1.7366983,-0.092421405,6.4355087,-6.302723,1.7237129,0.41069117,0.06527517,0.13838595,0.8988452,-8.824896,8.707906,0.32313544,-0.8636157,-3.021075,0.5312618,0,-0.06755742073059082,0.10143707275390625,0.4662212896347046,0.5507185363769531,-0.5490646107054435,0.7262701110374861,0.4135937367568294,0.14473686652911333,8.292811592066503,0
1.2100000000000009,10.075074135458799,-0.9842116047595496,-2.820814502230454,0.6823427837514985,10.588503,-0.8437236,-1.7366983,-0.092421405,6.3473773,-6.2155485,1.7269342,0.40984944,0.07639555,0.12793171,0.89990115,-8.801193,8.726528,0.32116723,-0.9842116,-2.8208146,0.68234277,0,-0.06755742073059082,0.10143707275390625,0.4662212896347046,0.5507185363769531,-0.5490646107054435,0.7262701110374861,0.4135937367568294,0.14473686652911333,8.292811592066503,0
1.2200000000000009,10.075074135458799,-0.9842116047595496,-2.820814502230454,0.6823427837514985,10.588503,-0.8437236,-1.7366983,-0.092421405,6.2594886,-6.1282015,1.730137,0.40891144,0.08749799,0.11744746,0.9007458,-8.776347,8.742374,0.31940815,-0.9842116,-2.8208146,0.68234277,0,-0.06755742073059082,0.10143707275390625,0.4662212896347046,0.5507185363769531,-0.5490646107054435,0.7262701110374861,0.4135937367568294,0.14473686652911333,8.292811592066503,0
1.2300000000000009,10.075074135458799,-0.9842116047595496,-2.820814502230454,0.6823427837514985,10.588503,-0.8437236,-1.7366983,-0.092421405,6.171854,-6.0407104,1.7333227,0.40787748,0.09857988,0.10693562,0.90137905,-8.750363,8.755437,0.3177663,-0.9842116,-2.8208146,0.68234277,0,-0.06755742073059082,0.10143707275390625,0.4662212896347046,0.5507185363769531,-0.5490646107054435,0.7262701110374861,0.4135937367568294,0.14473686652911333,8.292811592066503,0
1.2400000000000009,10.075074135458799,-0.9842116047595496,-2.820814502230454,0.6823427837514985,10.949003,-1.3922874,-1.6875541,-0.21002817,6.084485,-5.953102,1.7364923,0.40674773,0.10963863,0.096398674,0.9018006,-8.723245,8.765712,0.31614974,-0.9842116,-2.8208146,0.68234277,0,-0.06755742073059082,0.10143707275390625,0.4662212896347046,0.5507185363769531,-0.5490646107054435,0.7262701110374861,0.4135937367568294,0.14473686652911333,8.292811592066503,0
1.2500000000000009,10.075074135458799,-0.9842116047595496,-2.820814502230454,0.6823427837514985,10.949003,-1.3922874,-1.6875541,-0.21002817,5.9973927,-5.865405,1.7396454,0.4055225,0.12067165,0.0858391,0.9020104,-8.694999,8.773196,0.3144664,-0.9842116,-2.8208146,0.68234277,0,-0.06755742073059082,0.10143707275390625,0.4662212896347046,0.5507185363769531,-0.5490646107054435,0.7262701110374861,0.4135937367568294,0.14473686652911333,8.292811592066503,0
1.260000000000001,10.075074135458799,-0.9842116047595496,-2.820814502230454,0.6823427837514985,10.949003,-1.3922874,-1.6875541,-0.21002817,5.9105887,-5.777647,1.7427809,0.40420204,0.13167633,0.07525937,0.9020085,-8.665632,8.777892,0.3126243,-0.9842116,-2.8208146,0.68234277,0,-0.06755742073059082,0.10143707275390625,0.4662212896347046,0.5507185363769531,-0.5490646107054435,0.7262701110374861,0.4135937367568294,0.14473686652911333,8.292811592066503,0
1.270000000000001,10.075074135458799,-0.9842116047595496,-2.820814502230454,0.6823427837514985,10.949003,-1.3922874,-1.6875541,-0.21002817,5.824084,-5.6898565,1.7458968,0.4027867,0.1426501,0.06466198,0.90179485,-8.635153,8.779802,0.3105317,-0.9842116,-2.8208146,0.68234277,0,0.027218906879425048,-0.1487162144978841,0.5136094534397125,0.42564189275105796,-0.2855260427702838,0.6021114649981769,0.7456116030599925,0.3342904859312781,19.153433975239658,0
1.280000000000001,9.770939476662623,-1.079988279574897,-1.6473198447256794,0.7413671163154625,11.234728,-1.3719583,-2.211913,-0.43751884,5.7378893,-5.602061,1.7489902,0.4012768,0.15359038,0.054049406,0.9013695,-8.603571,8.778933,0.30809698,-0.9842116,-2.8208146,0.68234277,0,0.027218906879425048,-0.1487162144978841,0.5136094534397125,0.42564189275105796,-0.2855260427702838,0.6021114649981769,0.7456116030599925,0.3342904859312781,19.153433975239658,0
1.290000000000001,9.770939476662623,-1.079988279574897,-1.6473198447256794,0.7413671163154625,11.234728,-1.3719583,-2.211913,-0.43751884,5.65201,-5.514286,1.7520431,0.39918795,0.15903947,0.04530474,0.9018339,-8.572178,8.775696,0.30246755,-1.0799882,-1.6473198,0.7413671,0,0.027218906879425048,-0.1487162144978841,0.5136094534397125,0.42564189275105796,-0.2855260427702838,0.6021114649981769,0.7456116030599925,0.3342904859312781,19.153433975239658,0
