time-since-start [s],throttle_mpc,roll_mpc,pitch_mpc,yaw_mpc,throttle_nw,roll_nw,pitch_nw,yaw_nw,position_x [m],position_y [m],position_z [m],rotation_w [quaternion],rotation_x [quaternion],rotation_y [quaternion],rotation_z [quaternion],velocity_x [m/s],velocity_y [m/s],velocity_z [m/s],omega_x [rad/s],omega_y [rad/s],omega_z [rad/s],network_used
0.0,13.476785211490354,5.999998849899971,-5.999997621449947,1.1513550189980502,10.326294,1.2714452,-0.45443714,-0.5655896,13.77993,-11.844509,1.9453936,-0.5008747,0.32685584,-0.30504405,-0.74110585,-7.6860647,-0.702425,0.22754245,0.85017884,-0.724241,0.12999304,0
0.01,13.476785211490354,5.999998849899971,-5.999997621449947,1.1513550189980502,11.131107,1.7919434,-0.7955438,-0.34049976,13.7029505,-11.851008,1.9475838,-0.5040931,0.31919754,-0.3070935,-0.74141526,-7.7095118,-0.5974616,0.21065181,1.653409,-1.5468719,0.18011156,0
0.02,13.476785211490354,5.999998849899971,-5.999997621449947,1.1513550189980502,11.131107,1.7919434,-0.7955438,-0.34049976,13.62575,-11.85646,1.9496108,-0.5094047,0.30675426,-0.3100121,-0.7418228,-7.730429,-0.49293524,0.19500226,2.331407,-2.2411835,0.22777076,0
0.03,13.476785211490354,5.999998849899971,-5.999997621449947,1.1513550189980502,11.131107,1.7919434,-0.7955438,-0.34049976,13.548356,-11.860869,1.9514899,-0.51635617,0.29020077,-0.31360677,-0.7421661,-7.7476397,-0.38917002,0.18114689,2.9036913,-2.827199,0.2730913,0
0.04,13.476785211490354,5.999998849899971,-5.999997621449947,1.1513550189980502,10.909284,2.320198,-2.0345824,-0.5536117,13.470813,-11.864247,1.9532412,-0.52453995,0.2700994,-0.31769812,-0.7422748,-7.7601295,-0.28652972,0.16946837,3.3867393,-3.3218145,0.31618798,0
0.05,13.476785211490354,5.999998849899971,-5.999997621449947,1.1513550189980502,10.909284,2.320198,-2.0345824,-0.5536117,13.393172,-11.866606,1.9548875,-0.5335949,0.24692565,-0.32212296,-0.74198437,-7.767032,-0.1854248,0.16018844,3.7944608,-3.739291,0.35716987,0
0.060000000000000005,13.476785211490354,5.999998849899971,-5.999997621449947,1.1513550189980502,10.909284,2.320198,-2.0345824,-0.5536117,13.315494,-11.867962,1.9564534,-0.5432039,0.22108743,-0.326735,-0.74114364,-7.7676105,-0.0863111,0.15338017,4.138599,-4.0916624,0.39614075,0
0.07,13.476785211490354,5.999998849899971,-5.999997621449947,1.1513550189980502,10.909284,2.320198,-2.0345824,-0.5536117,13.2378435,-11.868339,1.9579636,-0.5530906,0.19293936,-0.33140448,-0.73961884,-7.7612495,0.010316437,0.14898154,4.4290657,-4.389085,0.43319938,0
0.08,14.81860753012328,5.9999962792544395,-5.999994380036403,0.8365944319700442,11.708561,1.6229879,-1.8948839,-0.76855236,13.160295,-11.867765,1.9594408,-0.56301576,0.16279346,-0.3360173,-0.7372948,-7.74745,0.1039328,0.14680943,4.6742287,-4.64013,0.46843946,0
0.09,14.81860753012328,5.9999962792544395,-5.999994380036403,0.8365944319700442,11.708561,1.6229879,-1.8948839,-0.76855236,13.0829315,-11.866228,1.9609549,-0.572802,0.13094042,-0.34046778,-0.73405296,-7.72367,0.2029602,0.15631759,4.8811026,-4.85208,0.4865049,0
0.09999999999999999,14.81860753012328,5.9999962792544395,-5.999994380036403,0.8365944319700442,11.708561,1.6229879,-1.8948839,-0.76855236,13.005851,-11.863723,1.962573,-0.5822996,0.09764191,-0.3446653,-0.7297936,-7.6909776,0.29746872,0.1675341,5.0557065,-5.030985,0.5036839,0
0.10999999999999999,14.81860753012328,5.9999962792544395,-5.999994380036403,0.8365944319700442,11.708561,1.6229879,-1.8948839,-0.76855236,12.929142,-11.860297,1.9643097,-0.5913549,0.063122384,-0.348538,-0.72445554,-7.6491814,0.38685066,0.17995168,5.2030725,-5.181998,0.52001995,0
0.11999999999999998,14.81860753012328,5.9999962792544395,-5.999994380036403,0.8365944319700442,11.708561,1.6229879,-1.8948839,-0.76855236,12.852899,-11.856006,1.9661742,-0.59983724,0.027586235,-0.3520244,-0.7179921,-7.5982037,0.47051048,0.19299114,5.32745,-5.309468,0.5355544,0
0.12999999999999998,15.618639604607457,3.455977682996221,-2.5588546549930498,0.07477751777849505,11.890863,0.83551705,-0.5209212,-0.92672604,12.77721,-11.850908,1.9681696,-0.6076357,-0.008779353,-0.35507205,-0.71036977,-7.538076,0.54787534,0.20601514,5.432422,-5.417066,0.5503266,0
0.13999999999999999,15.618639604607457,3.455977682996221,-2.5588546549930498,0.07477751777849505,11.890863,0.83551705,-0.5209212,-0.92672604,12.702186,-11.845053,1.970322,-0.6142808,-0.044174355,-0.35777265,-0.7019301,-7.4652843,0.6222972,0.22430404,5.123961,-4.971518,0.52699125,0
0.15,15.618639604607457,3.455977682996221,-2.5588546549930498,0.07477751777849505,11.890863,0.83551705,-0.5209212,-0.92672604,12.6279335,-11.838487,1.9726508,-0.61954486,-0.07716298,-0.36028084,-0.6931141,-7.3838463,0.6896602,0.24116072,4.863644,-4.595424,0.504801,0
0.16,15.394902579347676,0.1688195449559416,1.9435003656917902,-0.3543321501523221,10.312406,-0.5413517,1.692279,-1.0597988,12.554535,-11.831282,1.9751383,-0.62365294,-0.10808546,-0.3626321,-0.68401164,-7.294617,0.75021994,0.25600612,4.6439557,-4.2779584,0.48369962,0
0.17,15.394902579347676,0.1688195449559416,1.9435003656917902,-0.3543321501523221,10.312406,-0.5413517,1.692279,-1.0597988,12.482091,-11.823489,1.9777943,-0.6263976,-0.13557094,-0.36511105,-0.6752332,-7.1934595,0.8071446,0.27410805,4.052415,-3.414694,0.45216587,0
0.18000000000000002,15.394902579347676,0.1688195449559416,1.9435003656917902,-0.3543321501523221,10.312406,-0.5413517,1.692279,-1.0597988,12.410672,-11.8151655,1.9805971,-0.6276905,-0.15831234,-0.36799395,-0.66747415,-7.0899,0.8564842,0.28540707,3.493452,-2.6263082,0.41683793,0
0.19000000000000003,15.394902579347676,0.1688195449559416,1.9435003656917902,-0.3543321501523221,10.312406,-0.5413517,1.692279,-1.0597988,12.340298,-11.806379,1.9834821,-0.6278438,-0.17670423,-0.37128097,-0.6608613,-6.984452,0.9001527,0.29103965,2.9775722,-1.9166981,0.37926167,0
0.20000000000000004,15.029318515034058,-2.422334784280267,5.525057228714015,-0.3321807317853694,11.370381,-1.8949133,5.3259587,-1.0650136,12.270995,-11.7971735,1.9864087,-0.62712014,-0.19130641,-0.37496108,-0.65538216,-6.875439,0.94047105,0.29388064,2.5393686,-1.3148707,0.34326398,0
0.21000000000000005,15.029318515034058,-2.422334784280267,5.525057228714015,-0.3321807317853694,11.370381,-1.8949133,5.3259587,-1.0650136,12.202837,-11.787565,1.9893848,-0.6254386,-0.20163211,-0.3792366,-0.65142155,-6.756586,0.9808604,0.30034468,1.9008694,-0.38384718,0.32228452,0
0.22000000000000006,15.029318515034058,-2.422334784280267,5.525057228714015,-0.3321807317853694,11.370381,-1.8949133,5.3259587,-1.0650136,12.135857,-11.777566,1.9923949,-0.62270695,-0.2070587,-0.38425732,-0.6493909,-6.639918,1.0187782,0.30081278,1.2994411,0.46455032,0.29674038,0
0.23000000000000007,15.029318515034058,-2.422334784280267,5.525057228714015,-0.3321807317853694,11.370381,-1.8949133,5.3259587,-1.0650136,12.070029,-11.767194,1.9953831,-0.61907655,-0.20797165,-0.38991484,-0.6491978,-6.5260253,1.0557479,0.2961543,0.73487073,1.2376447,0.2673472,0
0.24000000000000007,15.029318515034058,-2.422334784280267,5.525057228714015,-0.3321807317853694,11.444974,-2.496003,5.574588,-1.1006142,12.005335,-11.756448,1.9983109,-0.61464953,-0.2048195,-0.3960948,-0.6506637,-6.4127955,1.093896,0.28922072,0.24242577,1.9061735,0.23792818,0
0.25000000000000006,15.029318515034058,-2.422334784280267,5.525057228714015,-0.3321807317853694,11.444974,-2.496003,5.574588,-1.1006142,11.941773,-11.745307,2.0011644,-0.6095033,-0.19819762,-0.40268272,-0.6535055,-6.299709,1.1346437,0.2813328,-0.17318496,2.470475,0.20995277,0
0.26000000000000006,15.029318515034058,-2.422334784280267,5.525057228714015,-0.3321807317853694,11.444974,-2.496003,5.574588,-1.1006142,11.879338,-11.733743,2.0039353,-0.6036858,-0.18862851,-0.4095682,-0.6574467,-6.187374,1.17885,0.27275053,-0.523953,2.9467962,0.18335012,0
0.2700000000000001,15.029318515034058,-2.422334784280267,5.525057228714015,-0.3321807317853694,11.444974,-2.496003,5.574588,-1.1006142,11.818022,-11.721715,2.0066178,-0.5972253,-0.17654946,-0.4166482,-0.6622356,-6.0763574,1.2272177,0.26365644,-0.8199979,3.3488524,0.15805286,0
0.2800000000000001,14.641039227638732,-4.3080392381423875,5.999997453999562,-0.19993571989097841,13.250061,-4.347297,5.523475,-0.6051382,11.757806,-11.709181,2.0092072,-0.59013927,-0.16232869,-0.42382908,-0.6676477,-5.9671955,1.2803098,0.25416014,-1.0698587,3.6882215,0.13399693,0
0.2900000000000001,14.641039227638732,-4.3080392381423875,5.999997453999562,-0.19993571989097841,13.250061,-4.347297,5.523475,-0.6051382,11.698656,-11.696097,2.0116885,-0.5824631,-0.14571345,-0.4306282,-0.6738421,-5.863199,1.3370752,0.24205826,-1.5748396,4.048714,0.11761077,0
0.3000000000000001,14.641039227638732,-4.3080392381423875,5.999997453999562,-0.19993571989097841,13.250061,-4.347297,5.523475,-0.6051382,11.640531,-11.68242,2.0140479,-0.5741916,-0.12652491,-0.43663692,-0.68091357,-5.762275,1.3992949,0.22984013,-2.00106,4.3530035,0.10202866,0
0.3100000000000001,14.641039227638732,-4.3080392381423875,5.999997453999562,-0.19993571989097841,13.250061,-4.347297,5.523475,-0.6051382,11.583397,-11.668092,2.0162852,-0.5652805,-0.10515214,-0.4418741,-0.6885839,-5.6651893,1.4672811,0.2176707,-2.3608048,4.60985,0.08721119,0
0.3200000000000001,14.951971760300614,-5.509365692993953,5.999997832605965,-0.3486234396903211,14.78244,-5.704871,5.4671955,-0.8813111,11.527211,-11.653054,2.0184016,-0.55569357,-0.081928395,-0.44635168,-0.6966075,-5.572668,1.541226,0.20561263,-2.664443,4.82665,0.0731208,0
0.3300000000000001,14.951971760300614,-5.509365692993953,5.999997832605965,-0.3486234396903211,14.78244,-5.704871,5.4671955,-0.8813111,11.471934,-11.6372385,2.0204072,-0.5454489,-0.056867197,-0.44974092,-0.704971,-5.4835715,1.6229092,0.19549103,-3.1080484,5.0096536,0.052425683,0
0.34000000000000014,14.951971760300614,-5.509365692993953,5.999997832605965,-0.3486234396903211,14.78244,-5.704871,5.4671955,-0.8813111,11.417519,-11.620575,2.022312,-0.53454083,-0.030005097,-0.4517668,-0.71363294,-5.400686,1.7107356,0.18551752,-3.482472,5.164129,0.03274609,0
0.35000000000000014,14.951971760300614,-5.509365692993953,5.999997832605965,-0.3486234396903211,14.78244,-5.704871,5.4671955,-0.8813111,11.363896,-11.603003,2.0241177,-0.5229153,-0.0016431552,-0.45250922,-0.7223515,-5.324824,1.8045719,0.17567168,-3.7985034,5.2945213,0.014032181,0
0.36000000000000015,15.323904572083327,-5.338303398883403,5.3715783635002925,-0.5952366946263605,15.095735,-5.1561007,5.8971577,-1.0594528,11.310995,-11.584463,2.0258253,-0.51053345,0.027954943,-0.4520361,-0.7309151,-5.256736,1.9041816,0.16583513,-4.06525,5.4045844,-0.0037634308,1
0.37000000000000016,15.323904572083327,-5.338303398883403,5.3715783635002925,-0.5952366946263605,15.095735,-5.1561007,5.8971577,-1.0594528,11.258736,-11.564896,2.027438,-0.49745947,0.05849459,-0.45048746,-0.7390351,-5.1965246,2.010242,0.15664867,-4.2351823,5.4815445,-0.055566423,1
0.38000000000000017,15.323904572083327,-5.338303398883403,5.3715783635002925,-0.5952366946263605,15.095735,-5.1561007,5.8971577,-1.0594528,11.207034,-11.544241,2.0289564,-0.4837713,0.08972817,-0.44798282,-0.74647504,-5.1454053,2.1213696,0.14696182,-4.3786187,5.5465045,-0.10482743,1
0.3900000000000002,15.323904572083327,-5.338303398883403,5.3715783635002925,-0.5952366946263605,15.095735,-5.1561007,5.8971577,-1.0594528,11.155795,-11.522452,2.0303743,-0.4694663,0.12149945,-0.44454998,-0.7531361,-5.1038504,2.2370698,0.13641587,-4.499692,5.6013336,-0.15167119,1
0.4000000000000002,15.680346373177967,-4.470602228787166,2.5532576563225793,-1.0374941722883502,16.18283,-5.271242,5.369619,-0.7445923,11.104922,-11.499486,2.0316808,-0.45454827,0.15366673,-0.440215,-0.7589352,-5.0722604,2.356791,0.12461591,-4.60189,5.647611,-0.1962163,0
0.4100000000000002,15.680346373177967,-4.470602228787166,2.5532576563225793,-1.0374941722883502,16.18283,-5.271242,5.369619,-0.7445923,11.054319,-11.475281,2.0328774,-0.43966913,0.18496357,-0.43462276,-0.76392543,-5.0500693,2.484656,0.11446825,-4.5813375,5.1651692,-0.23749806,0
0.4200000000000002,15.680346373177967,-4.470602228787166,2.5532576563225793,-1.0374941722883502,16.18283,-5.271242,5.369619,-0.7445923,11.003886,-11.449783,2.033964,-0.42539972,0.21439107,-0.42756918,-0.768281,-5.038316,2.6150994,0.102535926,-4.564009,4.757957,-0.2767541,0
0.4300000000000002,15.680346373177967,-4.470602228787166,2.5532576563225793,-1.0374941722883502,16.18283,-5.271242,5.369619,-0.7445923,10.953519,-11.422974,2.034922,-0.4116313,0.24219447,-0.41927183,-0.77208304,-5.0366683,2.747216,0.08882662,-4.5493965,4.414243,-0.31408387,0
0.4400000000000002,15.680346373177967,-4.470602228787166,2.5532576563225793,-1.0374941722883502,17.204332,-4.331507,4.7811966,-0.5542036,10.903118,-11.394837,2.0357342,-0.3982674,0.26858225,-0.40990803,-0.77538484,-5.044809,2.880217,0.073335655,-4.537072,4.1241264,-0.34958184,0
0.45000000000000023,15.680346373177967,-4.470602228787166,2.5532576563225793,-1.0374941722883502,17.204332,-4.331507,4.7811966,-0.5542036,10.85259,-11.365369,2.0363824,-0.38522398,0.29373056,-0.39962268,-0.7782199,-5.0624304,3.0134087,0.056042284,-4.526676,3.8792477,-0.3833379,0
0.46000000000000024,15.680346373177967,-4.470602228787166,2.5532576563225793,-1.0374941722883502,17.204332,-4.331507,4.7811966,-0.5542036,10.801838,-11.334571,2.0368485,-0.37242895,0.3177877,-0.388535,-0.78060734,-5.089239,3.1461725,0.03690813,-4.517906,3.672553,-0.41543752,0
0.47000000000000025,15.680346373177967,-4.470602228787166,2.5532576563225793,-1.0374941722883502,17.204332,-4.331507,4.7811966,-0.5542036,10.750773,-11.302449,2.037114,-0.35982096,0.3408779,-0.37674338,-0.78255683,-5.12495,3.2779527,0.015877288,-4.5105066,3.4980874,-0.44596198,0
0.48000000000000026,15.083598731455195,-2.7619273208015818,-1.2477711090075836,-1.3665852901009659,18.056585,-2.3549118,0.45416594,-0.6368864,10.699309,-11.269016,2.037159,-0.34734845,0.36310455,-0.3643297,-0.7840712,-5.1692853,3.408243,-0.0071229003,-4.504263,3.3508248,-0.47498867,0
0.49000000000000027,15.083598731455195,-2.7619273208015818,-1.2477711090075836,-1.3665852901009659,18.056585,-2.3549118,0.45416594,-0.6368864,10.647368,-11.234316,2.03695,-0.33581004,0.38314998,-0.35137033,-0.78547204,-5.21988,3.531692,-0.034888975,-4.232692,2.6337137,-0.5187396,0
0.5000000000000002,15.083598731455195,-2.7619273208015818,-1.2477711090075836,-1.3665852901009659,18.056585,-2.3549118,0.45416594,-0.6368864,10.594887,-11.198392,2.0364556,-0.3258643,0.40001786,-0.3379789,-0.7871265,-5.2776017,3.6528528,-0.064172454,-4.0034757,2.0284297,-0.5603436,0
0.5100000000000002,15.083598731455195,-2.7619273208015818,-1.2477711090075836,-1.3665852901009659,18.056585,-2.3549118,0.45416594,-0.6368864,10.541796,-11.161268,2.035663,-0.3172735,0.4142135,-0.32425392,-0.7890652,-5.3415933,3.771417,-0.09448078,-3.8100033,1.5175359,-0.5999061,0
0.5200000000000002,15.028556975135828,-0.8665485068192836,-4.191400284525769,-1.3786683501471995,17.258787,-1.1512381,-2.7185507,-0.5526863,10.488035,-11.122973,2.0345638,-0.30982888,0.42615628,-0.31026483,-0.79128534,-5.4111395,3.887159,-0.12538125,-3.6466978,1.0863137,-0.6375273,0
0.5300000000000002,15.028556975135828,-0.8665485068192836,-4.191400284525769,-1.3786683501471995,17.258787,-1.1512381,-2.7185507,-0.5526863,10.433553,-11.083531,2.0331566,-0.30400792,0.43507573,-0.29628375,-0.7940429,-5.4857597,4.0002217,-0.15626974,-3.2228372,0.27252775,-0.6730271,0
0.5400000000000003,15.028556975135828,-0.8665485068192836,-4.191400284525769,-1.3786683501471995,17.258787,-1.1512381,-2.7185507,-0.5526863,10.378307,-11.042979,2.0314395,-0.30022973,0.44031817,-0.28257212,-0.7975806,-5.563831,4.1095657,-0.18704337,-2.855689,-0.4237154,-0.7076531,0
0.5500000000000003,15.028556975135828,-0.8665485068192836,-4.191400284525769,-1.3786683501471995,17.258787,-1.1512381,-2.7185507,-0.5526863,10.322267,-11.00135,2.0294201,-0.29816836,0.4424484,-0.26910764,-0.8018204,-5.644869,4.2159266,-0.21655454,-2.5457752,-1.0113714,-0.74058,0
0.5600000000000003,14.388897207509892,1.0055048804917466,-5.99999579860546,-1.193998739328917,15.78628,1.0654056,-5.1710434,-0.6253635,10.265403,-10.958673,2.0271149,-0.29753408,0.4419396,-0.25585404,-0.80666065,-5.7280917,4.319328,-0.24418092,-2.28417,-1.5073745,-0.7718912,0
0.5700000000000003,14.388897207509892,1.0055048804917466,-5.99999579860546,-1.193998739328917,15.78628,1.0654056,-5.1710434,-0.6253635,10.207718,-10.914996,2.0245295,-0.29857314,0.4383681,-0.24317262,-0.81212956,-5.8091817,4.415523,-0.27246836,-1.7715282,-2.2082298,-0.7926041,0
0.5800000000000003,14.388897207509892,1.0055048804917466,-5.99999579860546,-1.193998739328917,15.78628,1.0654056,-5.1710434,-0.6253635,10.149218,-10.870371,2.0216756,-0.3014477,0.43140358,-0.23134592,-0.8182293,-5.890789,4.509038,-0.29778317,-1.3387921,-2.7997596,-0.8123006,0
0.5900000000000003,14.388897207509892,1.0055048804917466,-5.99999579860546,-1.193998739328917,15.78628,1.0654056,-5.1710434,-0.6253635,10.089903,-10.824824,2.0185862,-0.3058121,0.4215239,-0.22022633,-0.8248011,-5.972044,4.599985,-0.31953862,-0.97350425,-3.2990158,-0.83103067,0
0.6000000000000003,14.507991457419298,2.1821974154564376,-5.999987480544739,-1.0296635092449498,16.453993,2.2783957,-5.8227124,-0.81624955,10.02978,-10.77838,2.0152988,-0.3113709,0.40912485,-0.20968279,-0.8316838,-6.052189,4.6884093,-0.33726612,-0.6651498,-3.720391,-0.8488416,0
0.6100000000000003,14.507991457419298,2.1821974154564376,-5.999987480544739,-1.0296635092449498,16.453993,2.2783957,-5.8227124,-0.81624955,9.968861,-10.731062,2.0118594,-0.31804663,0.39438596,-0.20000227,-0.8386328,-6.1311827,4.7750273,-0.34990877,-0.22132754,-4.076137,-0.8577146,0
0.6200000000000003,14.507991457419298,2.1821974154564376,-5.999987480544739,-1.0296635092449498,16.453993,2.2783957,-5.8227124,-0.81624955,9.907165,-10.682889,2.0083165,-0.32575363,0.37746337,-0.19140919,-0.84543973,-6.207621,4.859177,-0.35789043,0.15330914,-4.3763704,-0.86615217,0
0.6300000000000003,14.507991457419298,2.1821974154564376,-5.999987480544739,-1.0296635092449498,16.453993,2.2783957,-5.8227124,-0.81624955,9.84472,-10.633886,2.004718,-0.3342489,0.35863262,-0.18371227,-0.8520036,-6.280801,4.9409003,-0.36106452,0.46954635,-4.6297536,-0.8741757,0
0.6400000000000003,14.507991457419298,2.1821974154564376,-5.999987480544739,-1.0296635092449498,16.122084,2.8132672,-5.560925,-0.8653216,9.781563,-10.584079,2.001112,-0.34332687,0.33812982,-0.17674823,-0.8582278,-6.3500943,5.020169,-0.35936767,0.7364874,-4.8435965,-0.8818056,0
0.6500000000000004,14.507991457419298,2.1821974154564376,-5.999987480544739,-1.0296635092449498,16.122084,2.8132672,-5.560925,-0.8653216,9.717734,-10.533491,1.9975473,-0.352814,0.3161593,-0.17037834,-0.86402357,-6.414938,5.0968966,-0.35281456,0.96181774,-5.024069,-0.88906103,0
0.6600000000000004,14.507991457419298,2.1821974154564376,-5.999987480544739,-1.0296635092449498,16.122084,2.8132672,-5.560925,-0.8653216,9.653281,-10.48215,1.9940721,-0.36256385,0.2928997,-0.16448526,-0.86931115,-6.4748263,5.1709495,-0.34149224,1.1520238,-5.176378,-0.8959605,0
0.6700000000000004,14.507991457419298,2.1821974154564376,-5.999987480544739,-1.0296635092449498,16.122084,2.8132672,-5.560925,-0.8653216,9.588256,-10.430082,1.9907333,-0.372453,0.26850834,-0.1589701,-0.8740198,-6.52931,5.242155,-0.32555416,1.3125813,-5.304919,-0.9025214,0
0.6800000000000004,13.97549114525606,2.5589997650636365,-5.110951768827099,-1.0541475584148854,15.485189,2.8943844,-5.4354873,-1.0259777,9.522714,-10.377316,1.9875761,-0.38237742,0.24312498,-0.15374985,-0.8780881,-6.577991,5.310312,-0.30521438,1.4481117,-5.4133997,-0.90876025,0
0.6900000000000004,13.97549114525606,2.5589997650636365,-5.110951768827099,-1.0541475584148854,15.485189,2.8943844,-5.4354873,-1.0259777,9.456723,-10.323898,1.9846208,-0.39223555,0.21713075,-0.14902514,-0.88136095,-6.618965,5.372835,-0.28525242,1.6213568,-5.366343,-0.91589445,0
0.7000000000000004,13.97549114525606,2.5589997650636365,-5.110951768827099,-1.0541475584148854,15.485189,2.8943844,-5.4354873,-1.0259777,9.390355,-10.269871,1.9818834,-0.40194923,0.19084501,-0.14495967,-0.88374305,-6.6537704,5.4321327,-0.26170114,1.767582,-5.32661,-0.92267853,0
0.7100000000000004,13.97549114525606,2.5589997650636365,-5.110951768827099,-1.0541475584148854,15.485189,2.8943844,-5.4354873,-1.0259777,9.32367,-10.215266,1.9793977,-0.41146937,0.1643011,-0.14143835,-0.8852645,-6.6822124,5.4881306,-0.23497358,1.8910011,-5.2930603,-0.9291297,0
0.7200000000000004,13.54952969982485,2.3933250098923193,-1.075902211025961,-1.181019188903183,14.914802,2.5626194,-3.2092917,-0.98176426,9.256734,-10.160119,1.9771934,-0.42075536,0.13753158,-0.13836302,-0.885949,-6.7041335,5.5407367,-0.20548564,1.9951711,-5.264732,-0.93526435,0
0.7300000000000004,13.54952969982485,2.3933250098923193,-1.075902211025961,-1.181019188903183,14.914802,2.5626194,-3.2092917,-0.98176426,9.189613,-10.10447,1.9752762,-0.4295688,0.11203214,-0.13627814,-0.88563406,-6.7190075,5.588416,-0.17764829,2.057624,-4.6115403,-0.9473236,0
0.7400000000000004,13.54952969982485,2.3933250098923193,-1.075902211025961,-1.181019188903183,14.914802,2.5626194,-3.2092917,-0.98176426,9.122375,-10.04836,1.973646,-0.43777204,0.08900321,-0.1356402,-0.8843278,-6.72783,5.6331234,-0.1481591,2.110286,-4.0602074,-0.95879114,0
0.7500000000000004,13.54952969982485,2.3933250098923193,-1.075902211025961,-1.181019188903183,14.914802,2.5626194,-3.2092917,-0.98176426,9.055077,-9.991816,1.9723169,-0.44546202,0.06806929,-0.1362464,-0.8822511,-6.731012,5.6753054,-0.117547266,2.1546903,-3.5948496,-0.969696,0
0.7600000000000005,12.923935784526181,1.6069743306653523,2.7713992013634625,-1.2746409701543668,13.128815,1.7710521,1.0318458,-0.7684797,8.987773,-9.93486,1.9712975,-0.4527144,0.04890834,-0.13791879,-0.87956583,-6.728907,5.7153516,-0.08623143,2.1921313,-3.2020595,-0.9800657,0
0.7700000000000005,12.923935784526181,1.6069743306653523,2.7713992013634625,-1.2746409701543668,13.128815,1.7710521,1.0318458,-0.7684797,8.920513,-9.877522,1.9705635,-0.45937946,0.032743737,-0.14092891,-0.8763774,-6.722212,5.7518926,-0.060553093,2.101449,-2.270464,-0.9945206,0
0.7800000000000005,12.923935784526181,1.6069743306653523,2.7713992013634625,-1.2746409701543668,13.128815,1.7710521,1.0318458,-0.7684797,8.853342,-9.819825,1.9700866,-0.46536505,0.020527223,-0.1455006,-0.8728365,-6.7115097,5.7874565,-0.034869242,2.0248313,-1.4841566,-1.0082662,0
0.7900000000000005,12.923935784526181,1.6069743306653523,2.7713992013634625,-1.2746409701543668,13.128815,1.7710521,1.0318458,-0.7684797,8.786294,-9.761775,1.9698654,-0.47078902,0.01163772,-0.15141846,-0.86907697,-6.697493,5.822756,-0.009439496,1.960095,-0.82047915,-1.0213372,0
0.8000000000000005,12.700847449979936,0.601405005333708,5.867329209954385,-1.1795384064365373,11.868732,0.7419361,4.77997,-0.7873579,8.719401,-9.703369,1.9698964,-0.47573647,0.005549748,-0.15849195,-0.865173,-6.680732,5.8584065,0.015547286,1.9053959,-0.26030663,-1.0337669,0
0.8100000000000005,12.700847449979936,0.601405005333708,5.867329209954385,-1.1795384064365373,11.868732,0.7419361,4.77997,-0.7873579,8.652686,-9.644607,1.970164,-0.48005894,0.0030802784,-0.16679832,-0.86122715,-6.6620817,5.894354,0.037824444,1.7026854,0.6954233,-1.0409198,0
0.8200000000000005,12.700847449979936,0.601405005333708,5.867329209954385,-1.1795384064365373,11.868732,0.7419361,4.77997,-0.7873579,8.586164,-9.585476,1.9706503,-0.48362052,0.0048503582,-0.1763917,-0.857306,-6.6420045,5.931967,0.05936079,1.5314944,1.5020884,-1.0477217,0
0.8300000000000005,12.700847449979936,0.601405005333708,5.867329209954385,-1.1795384064365373,11.868732,0.7419361,4.77997,-0.7873579,8.519848,-9.525958,1.9713479,-0.48648307,0.0101877265,-0.18707795,-0.85336524,-6.621234,5.9719796,0.07999597,1.3869208,2.182938,-1.05419,0
0.8400000000000005,12.700847449979936,0.601405005333708,5.867329209954385,-1.1795384064365373,11.699178,0.13226587,5.8410416,-0.67665184,8.45374,-9.466025,1.9722466,-0.48868525,0.018525243,-0.19868255,-0.84933436,-6.600377,6.01501,0.09955476,1.2648255,2.7575958,-1.0603409,0
0.8500000000000005,12.700847449979936,0.601405005333708,5.867329209954385,-1.1795384064365373,11.699178,0.13226587,5.8410416,-0.67665184,8.387838,-9.405645,1.9733348,-0.4902518,0.02938353,-0.21104936,-0.84513193,-6.579938,6.0615687,0.11783509,1.1617123,3.2426238,-1.06619,0
0.8600000000000005,12.700847449979936,0.601405005333708,5.867329209954385,-1.1795384064365373,11.699178,0.13226587,5.8410416,-0.67665184,8.322138,-9.34478,1.9745984,-0.49119917,0.042356372,-0.22403917,-0.8406758,-6.5603366,6.1120715,0.13460378,1.0746301,3.6520019,-1.071752,0
0.8700000000000006,12.700847449979936,0.601405005333708,5.867329209954385,-1.1795384064365373,11.699178,0.13226587,5.8410416,-0.67665184,8.256628,-9.283388,1.9760209,-0.49153933,0.057098527,-0.2375281,-0.83588827,-6.5419207,6.1668444,0.14959684,1.0010859,3.9975286,-1.077041,0
0.8800000000000006,12.391070431112041,-0.3142432154223945,5.999438293558023,-0.9939184574316332,12.089003,-0.46963793,5.483601,-0.52992415,8.191295,-9.221427,1.9775833,-0.4912822,0.07331571,-0.25140604,-0.83069944,-6.5249796,6.2261333,0.1625226,0.93897426,4.2891636,-1.0820707,1
0.8900000000000006,12.391070431112041,-0.3142432154223945,5.999438293558023,-0.9939184574316332,12.089003,-0.46963793,5.483601,-0.52992415,8.126119,-9.158864,1.9792371,-0.49037766,0.09081965,-0.2651517,-0.8252127,-6.5105004,6.2870145,0.16784391,0.71935457,4.475603,-1.0549767,1
0.9000000000000006,12.391070431112041,-0.3142432154223945,5.999438293558023,-0.9939184574316332,12.089003,-0.46963793,5.483601,-0.52992415,8.061077,-9.095671,1.9809316,-0.48878032,0.10944241,-0.27835247,-0.819534,-6.4979534,6.352347,0.17067076,0.5339623,4.632936,-1.0292121,1
0.9100000000000006,12.391070431112041,-0.3142432154223945,5.999438293558023,-0.9939184574316332,12.089003,-0.46963793,5.483601,-0.52992415,7.996152,-9.031801,1.9826411,-0.4865074,0.1289777,-0.29106295,-0.8136078,-6.487607,6.4220695,0.17077237,0.3774643,4.765708,-1.004712,1
0.9200000000000006,11.945506619747253,-1.0929204571481896,4.077667494632644,-0.8616672528660294,11.904758,-0.7728505,4.7149396,-0.3419857,7.9313173,-8.967214,1.984337,-0.4835772,0.14924838,-0.3033265,-0.8073853,-6.479679,6.4960947,0.16790484,0.24535841,4.8777533,-0.98141396,1
0.9300000000000006,11.945506619747253,-1.0929204571481896,4.077667494632644,-0.8616672528660294,11.904758,-0.7728505,4.7149396,-0.3419857,7.8665495,-8.901871,1.9859812,-0.48006824,0.16990669,-0.3149363,-0.80092525,-6.474426,6.573102,0.16042458,0.086453915,4.852466,-0.950037,1
0.9400000000000006,11.945506619747253,-1.0929204571481896,4.077667494632644,-0.8616672528660294,11.904758,-0.7728505,4.7149396,-0.3419857,7.8018203,-8.835739,1.9875339,-0.47605598,0.19067068,-0.32573816,-0.7942984,-6.471847,6.6540003,0.14960884,-0.047661405,4.831101,-0.9201997,1
0.9500000000000006,11.945506619747253,-1.0929204571481896,4.077667494632644,-0.8616672528660294,11.904758,-0.7728505,4.7149396,-0.3419857,7.737103,-8.768779,1.9889613,-0.47155493,0.2114876,-0.33583382,-0.7874798,-6.4720335,6.7385454,0.13530539,-0.16085413,4.8130507,-0.8918265,1
0.9600000000000006,11.402338489541618,-1.5803756255673607,0.20279961911890862,-0.819974684676043,11.960338,-0.9781151,2.3183055,-0.50334454,7.6723704,-8.700956,1.9902276,-0.4665802,0.23231138,-0.34530807,-0.7804464,-6.4750504,6.8264985,0.117360905,-0.256388,4.797801,-0.86484563,0
0.9700000000000006,11.402338489541618,-1.5803756255673607,0.20279961911890862,-0.819974684676043,11.960338,-0.9781151,2.3183055,-0.50334454,7.607594,-8.632258,1.9912794,-0.46175703,0.2518745,-0.3531353,-0.7737151,-6.4806657,6.9137235,0.09246955,-0.46327254,4.081329,-0.8626438,0
0.9800000000000006,11.402338489541618,-1.5803756255673607,0.20279961911890862,-0.819974684676043,11.960338,-0.9781151,2.3183055,-0.50334454,7.5427485,-8.562675,1.9920657,-0.45764384,0.26921123,-0.3585497,-0.7678082,-6.488858,7.003364,0.06434995,-0.6378286,3.4765716,-0.86055,0
0.9900000000000007,11.402338489541618,-1.5803756255673607,0.20279961911890862,-0.819974684676043,11.960338,-0.9781151,2.3183055,-0.50334454,7.4778085,-8.492186,1.9925566,-0.454151,0.2846858,-0.36195728,-0.7626845,-6.4994535,7.09486,0.03345421,-0.78510803,2.96611,-0.85855895,0
1.0000000000000007,11.156802900820779,-1.6838406389754488,-4.171007956146364,-0.7990058185889977,11.103988,-1.4590355,-3.2679408,-0.59980303,7.412751,-8.420773,1.9927266,-0.4511915,0.29860067,-0.36369172,-0.75828236,-6.5123096,7.1877666,0.00018892903,-0.9093734,2.5352414,-0.85666555,1
1.0100000000000007,11.156802900820779,-1.6838406389754488,-4.171007956146364,-0.7990058185889977,11.103988,-1.4590355,-3.2679408,-0.59980303,7.3475566,-8.348438,1.9925454,-0.44918835,0.31012714,-0.3634504,-0.75495344,-6.52689,7.2792387,-0.036677413,-0.9956114,1.6302782,-0.84406126,1
1.0200000000000007,11.156802900820779,-1.6838406389754488,-4.171007956146364,-0.7990058185889977,11.103988,-1.4590355,-3.2679408,-0.59980303,7.2822075,-8.275187,1.9919887,-0.4484776,0.31863114,-0.3610173,-0.75299966,-6.5432463,7.3712325,-0.07478388,-1.0683091,0.8664352,-0.8320754,1
1.0300000000000007,11.156802900820779,-1.6838406389754488,-4.171007956146364,-0.7990058185889977,11.103988,-1.4590355,-3.2679408,-0.59980303,7.2166867,-8.2010145,1.9910476,-0.44885463,0.32459646,-0.35675076,-0.7522603,-6.561093,7.46331,-0.113444775,-1.1295937,0.22170638,-0.82067776,1
1.0400000000000007,11.156802900820779,-1.6838406389754488,-4.171007956146364,-0.7990058185889977,11.348883,-1.5380831,-4.241383,-0.14883865,7.1509814,-8.125922,1.9897197,-0.45013338,0.3284205,-0.35094064,-0.7525694,-6.5802007,7.5551114,-0.15207171,-1.1812587,-0.32248303,-0.80983937,1
1.0500000000000007,11.156802900820779,-1.6838406389754488,-4.171007956146364,-0.7990058185889977,11.348883,-1.5380831,-4.241383,-0.14883865,7.0850773,-8.049905,1.9880147,-0.45223147,0.33013225,-0.34364164,-0.7539296,-6.6008267,7.648337,-0.18882707,-1.2372084,-0.93362993,-0.7774039,1
1.0600000000000007,11.156802900820779,-1.6838406389754488,-4.171007956146364,-0.7990058185889977,11.348883,-1.5380831,-4.241383,-0.14883865,7.0189624,-7.972959,1.9859469,-0.4550573,0.3297614,-0.33490354,-0.75632,-6.622359,7.740627,-0.22448988,-1.2843621,-1.449474,-0.74656,1
1.0700000000000007,11.156802900820779,-1.6838406389754488,-4.171007956146364,-0.7990058185889977,11.348883,-1.5380831,-4.241383,-0.14883865,6.9526277,-7.895097,1.9835302,-0.45844373,0.32760856,-0.3249353,-0.7595519,-6.6446314,7.831661,-0.25858963,-1.3241056,-1.8848766,-0.7172296,1
1.0800000000000007,11.275247689131577,-1.4887180194302672,-5.9999901031065415,-0.6771390847000429,11.430723,-1.4081028,-5.8193364,-0.06047024,6.886067,-7.8163314,1.9807819,-0.46224612,0.32392424,-0.31390986,-0.76345414,-6.667507,7.921144,-0.29074556,-1.3576064,-2.2523813,-0.6893385,1
1.0900000000000007,11.275247689131577,-1.4887180194302672,-5.9999901031065415,-0.6771390847000429,11.430723,-1.4081028,-5.8193364,-0.06047024,6.8192744,-7.736677,1.9777256,-0.46654227,0.3184061,-0.30172056,-0.76806295,-6.6910243,8.009415,-0.32014042,-1.3656751,-2.8086698,-0.65847975,1
1.1000000000000008,11.275247689131577,-1.4887180194302672,-5.9999901031065415,-0.6771390847000429,11.430723,-1.4081028,-5.8193364,-0.06047024,6.7522454,-7.656151,1.9743884,-0.4713649,0.31081372,-0.28828052,-0.7733721,-6.714827,8.095456,-0.34685874,-1.3724307,-3.2782052,-0.62913525,1
1.1100000000000008,11.275247689131577,-1.4887180194302672,-5.9999901031065415,-0.6771390847000429,11.430723,-1.4081028,-5.8193364,-0.06047024,6.6849775,-7.574777,1.9707989,-0.47653705,0.30142364,-0.27374956,-0.7791774,-6.738721,8.178875,-0.37056088,-1.3780897,-3.674516,-0.6012307,1
1.1200000000000008,11.455299802637123,-1.122856440377237,-5.999997048785713,-0.47080826347868016,11.995274,-1.0329922,-5.9944587,0.10690119,6.617471,-7.4925838,1.9669883,-0.48190737,0.29047003,-0.25826338,-0.7852977,-6.762537,8.259291,-0.39100572,-1.3828322,-4.0090213,-0.5746954,1
1.1300000000000008,11.455299802637123,-1.122856440377237,-5.999997048785713,-0.47080826347868016,11.995274,-1.0329922,-5.9944587,0.10690119,6.549722,-7.4095836,1.9630102,-0.48739165,0.27801964,-0.24202868,-0.79156595,-6.787281,8.340143,-0.40403512,-1.3282967,-4.318699,-0.5412493,1
1.1400000000000008,11.455299802637123,-1.122856440377237,-5.999997048785713,-0.47080826347868016,11.995274,-1.0329922,-5.9944587,0.10690119,6.481727,-7.325794,1.9589202,-0.49290988,0.26413658,-0.22521886,-0.7978397,-6.8115783,8.417093,-0.4133958,-1.2822416,-4.5800757,-0.50944436,1
1.1500000000000008,11.455299802637123,-1.122856440377237,-5.999997048785713,-0.47080826347868016,11.995274,-1.0329922,-5.9944587,0.10690119,6.4134927,-7.241256,1.9547551,-0.49835,0.24900442,-0.20789805,-0.804004,-6.835234,8.489786,-0.4190715,-1.24335,-4.800685,-0.47920007,1
1.1600000000000008,11.676342984995744,-0.6795384056254334,-5.999994874535891,-0.2715406582780272,12.080428,-0.79416424,-6.066539,0.18186876,6.3450255,-7.156014,1.9505513,-0.50361854,0.23278256,-0.19012351,-0.80995905,-6.8580785,8.55788,-0.42111385,-1.2105098,-4.9868865,-0.4504399,1
1.1700000000000008,11.676342984995744,-0.6795384056254334,-5.999994874535891,-0.2715406582780272,12.080428,-0.79416424,-6.066539,0.18186876,6.276334,-7.070113,1.9463483,-0.50865287,0.21555845,-0.17202553,-0.81560653,-6.880106,8.621506,-0.41892806,-1.1455233,-5.144923,-0.41941234,1
1.1800000000000008,11.676342984995744,-0.6795384056254334,-5.999994874535891,-0.2715406582780272,12.080428,-0.79416424,-6.066539,0.18186876,6.207427,-6.983602,1.9421843,-0.5133984,0.19741313,-0.15371424,-0.8208666,-6.9009852,8.679885,-0.4133636,-1.0906641,-5.2783074,-0.3899073,1
1.1900000000000008,11.676342984995744,-0.6795384056254334,-5.999994874535891,-0.2715406582780272,12.080428,-0.79416424,-6.066539,0.18186876,6.1383185,-6.896534,1.938092,-0.5177958,0.17846872,-0.13521154,-0.825684,-6.9205575,8.73275,-0.4046343,-1.0443553,-5.390886,-0.3618501,1
1.2000000000000008,11.664888162005154,-0.20156213138662366,-5.140542482351128,-0.13439216085171665,12.640255,-0.27494413,-5.2264395,0.2837011,6.069021,-6.8089666,1.9341016,-0.5217969,0.15883313,-0.11653883,-0.8300112,-6.9386816,8.779853,-0.39299378,-1.0052652,-5.4859037,-0.33516964,1
1.2100000000000009,11.664888162005154,-0.20156213138662366,-5.140542482351128,-0.13439216085171665,12.640255,-0.27494413,-5.2264395,0.2837011,5.9995465,-6.720948,1.930267,-0.52535313,0.1387502,-0.09805445,-0.8337492,-6.9559984,8.822895,-0.37352967,-0.89125514,-5.445483,-0.3048015,1
1.2200000000000009,11.664888162005154,-0.20156213138662366,-5.140542482351128,-0.13439216085171665,12.640255,-0.27494413,-5.2264395,0.2837011,5.929908,-6.632531,1.9266392,-0.52843934,0.11842628,-0.08005047,-0.8368506,-6.971532,8.859616,-0.35169566,-0.7950332,-5.411358,-0.27592355,1
1.2300000000000009,11.664888162005154,-0.20156213138662366,-5.140542482351128,-0.13439216085171665,12.640255,-0.27494413,-5.2264395,0.2837011,5.8601227,-6.5437784,1.9232401,-0.5310515,0.097899735,-0.062456354,-0.8393444,-6.9851604,8.889989,-0.32787088,-0.7138241,-5.3825474,-0.24846259,1
1.2400000000000009,11.664888162005154,-0.20156213138662366,-5.140542482351128,-0.13439216085171665,12.570927,0.2859241,-4.8962173,0.52527547,5.7902117,-6.454754,1.9200875,-0.5331874,0.07720537,-0.045213033,-0.84125274,-6.996782,8.913996,-0.3024291,-0.6452858,-5.358225,-0.22234918,1
1.2500000000000009,11.664888162005154,-0.20156213138662366,-5.140542482351128,-0.13439216085171665,12.570927,0.2859241,-4.8962173,0.52527547,5.720195,-6.3655214,1.9171925,-0.53483355,0.05636528,-0.028533092,-0.8425923,-7.0062494,8.931541,-0.27642527,-0.49992716,-5.2862086,-0.18566304,1
1.260000000000001,11.664888162005154,-0.20156213138662366,-5.140542482351128,-0.13439216085171665,12.570927,0.2859241,-4.8962173,0.52527547,5.6500945,-6.2761445,1.9145621,-0.5359798,0.035401765,-0.012583472,-0.8433943,-7.0135026,8.942838,-0.2495487,-0.37724772,-5.2254133,-0.1507771,1
1.270000000000001,11.664888162005154,-0.20156213138662366,-5.140542482351128,-0.13439216085171665,12.570927,0.2859241,-4.8962173,0.52527547,5.579933,-6.1866856,1.9122033,-0.536631,0.014345143,0.0027430688,-0.8436906,-7.0184216,8.947987,-0.22215472,-0.2737094,-5.1740913,-0.117603,1
1.280000000000001,11.154118108482457,0.2034788376144786,-1.6455974596118383,-0.0701849464038871,12.672932,0.7135907,-2.1739776,0.8064227,5.5097346,-6.097205,1.9101195,-0.5367929,-0.0067771086,0.017537028,-0.8435044,-7.0209093,8.947087,-0.19458638,-0.18632598,-5.130768,-0.08605676,0
1.290000000000001,11.154118108482457,0.2034788376144786,-1.6455974596118383,-0.0701849464038871,12.672932,0.7135907,-2.1739776,0.8064227,5.439524,-6.00776,1.9082402,-0.5365751,-0.026827095,0.031203773,-0.84284854,-7.0209184,8.941067,-0.18131836,-0.12550335,-4.5872607,-0.085277915,0
1.300000000000001,11.154118108482457,0.2034788376144786,-1.6455974596118383,-0.0701849464038871,12.672932,0.7135907,-2.1739776,0.8064227,5.3693237,-5.9184,1.906492,-0.5361395,-0.0449062,0.043277193,-0.84182227,-7.0188656,8.930291,-0.16842638,-0.07417142,-4.1285133,-0.08453729,0
1.310000000000001,11.154118108482457,0.2034788376144786,-1.6455974596118383,-0.0701849464038871,12.672932,0.7135907,-2.1739776,0.8064227,5.299154,-5.8291683,1.9048699,-0.53555113,-0.0613164,0.054002345,-0.84054077,-7.0149264,8.9152775,-0.15607753,-0.030849023,-3.7413065,-0.083833,0
1.320000000000001,10.73765050827192,0.40460557387178947,3.0080768399216877,-0.08429710822571403,11.958017,0.6922684,2.2170665,0.7045997,5.2290316,-5.740107,1.9033681,-0.53485495,-0.07631469,0.063587494,-0.83908445,-7.0092516,8.896463,-0.14438686,0.005713553,-3.4144838,-0.08316328,0
1.330000000000001,10.73765050827192,0.40460557387178947,3.0080768399216877,-0.08429710822571403,11.958017,0.6922684,2.2170665,0.7045997,5.1589727,-5.6512465,1.9019593,-0.5342103,-0.088602066,0.0711471,-0.83767945,-7.0022745,8.875134,-0.13748555,0.06797455,-2.4128923,-0.083218925,0
1.340000000000001,10.73765050827192,0.40460557387178947,3.0080768399216877,-0.08429710822571403,11.958017,0.6922684,2.2170665,0.7045997,5.0889897,-5.562612,1.9006164,-0.533786,-0.09716974,0.07599486,-0.8365734,-6.9941087,8.85142,-0.13118114,0.12051773,-1.5674982,-0.083271824,0
1.350000000000001,10.73765050827192,0.40460557387178947,3.0080768399216877,-0.08429710822571403,11.958017,0.6922684,2.2170665,0.7045997,5.019093,-5.474223,1.8993343,-0.53359795,-0.102606826,0.078559645,-0.8358069,-6.9850903,8.826174,-0.12530582,0.16485979,-0.8539423,-0.08332213,0
1.360000000000001,10.834322263006184,0.43146598432304095,5.999991404933217,-0.131436309842092,12.398819,0.33728653,5.711156,0.640886,4.94929,-5.386091,1.8981094,-0.53363514,-0.105407156,0.07920083,-0.8353741,-6.9755006,8.800109,-0.11968354,0.20228054,-0.25166443,-0.08336997,0
1.370000000000001,10.834322263006184,0.43146598432304095,5.999991404933217,-0.131436309842092,12.398819,0.33728653,5.711156,0.640886,4.879585,-5.2982225,1.896945,-0.533969,-0.104990505,0.077570714,-0.83536625,-6.9655075,8.773637,-0.11320063,0.23807585,0.7232754,-0.08572861,0
1.380000000000001,10.834322263006184,0.43146598432304095,5.999991404933217,-0.131436309842092,12.398819,0.33728653,5.711156,0.640886,4.809979,-5.210616,1.8958461,-0.5346331,-0.100914456,0.07340587,-0.83582,-6.9555483,8.747837,-0.106547065,0.26828298,1.5461743,-0.0879715,0
1.390000000000001,10.834322263006184,0.43146598432304095,5.999991404933217,-0.131436309842092,12.398819,0.33728653,5.711156,0.640886,4.740472,-5.123261,1.8948156,-0.5355363,-0.09374342,0.06709555,-0.83660686,-6.9459653,8.723528,-0.099503666,0.29377407,2.240743,-0.09010432,0
1.400000000000001,10.944986015313669,0.3441895720844922,5.999996784151906,-0.14486909956321434,12.211987,1.0082263,6.3553996,0.4622494,4.671057,-5.036139,1.8938581,-0.5365828,-0.083951116,0.058966722,-0.8375881,-6.9370484,8.701407,-0.09192086,0.31528518,2.8269942,-0.09213251,0
1.410000000000001,10.944986015313669,0.3441895720844922,5.999996784151906,-0.14486909956321434,12.211987,1.0082263,6.3553996,0.4622494,4.6017275,-4.949225,1.8929849,-0.5376843,-0.071918376,0.04932462,-0.838624,-6.9289656,8.681879,-0.08263518,0.31982815,3.3218215,-0.09472031,0
1.420000000000001,10.944986015313669,0.3441895720844922,5.999996784151906,-0.14486909956321434,12.211987,1.0082263,6.3553996,0.4622494,4.5324736,-4.8624897,1.8922076,-0.53875786,-0.057968963,0.03842677,-0.83958495,-6.9220324,8.665684,-0.072717816,0.32365912,3.7394807,-0.09718112,0
1.430000000000001,10.944986015313669,0.3441895720844922,5.999996784151906,-0.14486909956321434,12.211987,1.0082263,6.3553996,0.4622494,4.4632826,-4.7758985,1.8915324,-0.53972507,-0.042396426,0.02646512,-0.84035647,-6.9164414,8.653265,-0.06222524,0.32688925,4.092006,-0.09952118,0
1.440000000000001,10.944986015313669,0.3441895720844922,5.999996784151906,-0.14486909956321434,12.472929,0.78485227,6.4824905,0.4056952,4.39414,-4.6894107,1.8909646,-0.54051733,-0.02545198,0.013604403,-0.8408378,-6.9123573,8.6449995,-0.05127206,0.32961282,4.389556,-0.10174641,0
1.450000000000001,10.944986015313669,0.3441895720844922,5.999996784151906,-0.14486909956321434,12.472929,0.78485227,6.4824905,0.4056952,4.3250294,-4.602983,1.890508,-0.5410757,-0.007351574,-1.3277866e-05,-0.8409417,-6.909919,8.641207,-0.040023815,0.3319091,4.6407027,-0.103862464,0
1.460000000000001,10.944986015313669,0.3441895720844922,5.999996784151906,-0.14486909956321434,12.472929,0.78485227,6.4824905,0.4056952,4.2559347,-4.51657,1.8901645,-0.5413505,0.011718325,-0.014264775,-0.84059435,-6.90924,8.642152,-0.028689751,0.33384475,4.8526835,-0.10587468,0
1.470000000000001,10.944986015313669,0.3441895720844922,5.999996784151906,-0.14486909956321434,12.472929,0.78485227,6.4824905,0.4056952,4.1868377,-4.4301233,1.8899337,-0.5413,0.03159604,-0.029042888,-0.8397336,-6.910413,8.648053,-0.01751585,0.3354766,5.031606,-0.10778817,0
1.480000000000001,11.076275189140741,0.14733841098155695,5.999995619122264,-0.11146243547034773,10.324476,0.251296,6.484584,0.30706507,4.11772,-4.3435917,1.8898126,-0.54089004,0.0521408,-0.0442539,-0.8383084,-6.9135113,8.6590805,-0.006778215,0.33685207,5.182626,-0.10960772,1
1.490000000000001,11.076275189140741,0.14733841098155695,5.999995619122264,-0.11146243547034773,10.324476,0.251296,6.484584,0.30706507,4.048563,-4.256928,1.8897649,-0.5400437,0.073247015,-0.05978755,-0.8363092,-6.9183025,8.6744375,-0.0029056752,0.32344797,5.3101006,-0.08916146,1
1.500000000000001,11.076275189140741,0.14733841098155695,5.999995619122264,-0.11146243547034773,10.324476,0.251296,6.484584,0.30706507,3.979348,-4.170086,1.8897511,-0.5386928,0.094819024,-0.07555118,-0.83373344,-6.925009,8.694826,-2.8217968e-05,0.31213352,5.4176946,-0.06971851,1
1.5100000000000011,11.076275189140741,0.14733841098155695,5.999995619122264,-0.11146243547034773,10.324476,0.251296,6.484584,0.30706507,3.9100564,-4.083015,1.8897598,-0.5368243,0.11675465,-0.09149132,-0.83055246,-6.9336634,8.7202835,0.0015410626,0.30258378,5.5085087,-0.051229637,1
1.5200000000000011,11.158815074466988,-0.1424894891156141,4.944579331450331,-0.08855177645049542,10.00491,-0.17488927,5.560593,0.5569982,3.8406682,-3.9956632,1.8897763,-0.53442955,0.13896367,-0.107560076,-0.82674366,-6.9442844,8.750818,0.0014806689,0.29452416,5.5851603,-0.033648025,0
1.5300000000000011,11.158815074466988,-0.1424894891156141,4.944579331450331,-0.08855177645049542,10.00491,-0.17488927,5.560593,0.5569982,3.771159,-3.9079669,1.8898216,-0.5315726,0.16110823,-0.123352885,-0.82234955,-6.957893,8.789257,0.007237216,0.2263797,5.4852633,-0.03634217,0
1.5400000000000011,11.158815074466988,-0.1424894891156141,4.944579331450331,-0.08855177645049542,10.00491,-0.17488927,5.560593,0.5569982,3.7015033,-3.81986,1.8899128,-0.52833176,0.18292177,-0.1385486,-0.81744075,-6.9736166,8.832936,0.010595824,0.16886184,5.4009457,-0.03890411,0
1.5500000000000012,11.158815074466988,-0.1424894891156141,4.944579331450331,-0.08855177645049542,10.00491,-0.17488927,5.560593,0.5569982,3.6316798,-3.731291,1.8900245,-0.52472055,0.20442624,-0.15321968,-0.8120356,-6.9914303,8.881622,0.0112960925,0.12031337,5.3297763,-0.041340336,0
1.5600000000000012,10.938180394364233,-0.5149696723500554,0.9913213523121254,-0.052411059116308896,10.603196,-0.6731049,-0.22467096,0.560891,3.561668,-3.6422112,1.8901287,-0.5207506,0.22563864,-0.16742635,-0.80614775,-7.0113006,8.935086,0.009091749,0.07933571,5.269706,-0.04365702,0
1.5700000000000012,10.938180394364233,-0.5149696723500554,0.9913213523121254,-0.052411059116308896,10.603196,-0.6731049,-0.22467096,0.560891,3.491449,-3.5525794,1.8901864,-0.51667935,0.2453825,-0.18028244,-0.8002049,-7.0327334,8.991899,0.0019587823,-0.013363443,4.602497,-0.044086594,0
1.5800000000000012,10.938180394364233,-0.5149696723500554,0.9913213523121254,-0.052411059116308896,10.603196,-0.6731049,-0.22467096,0.560891,3.421007,-3.4623601,1.8901578,-0.51278156,0.2627603,-0.19111487,-0.7946615,-7.0559487,9.052518,-0.008112591,-0.091603726,4.039338,-0.04449508,0
1.5900000000000012,10.938180394364233,-0.5149696723500554,0.9913213523121254,-0.052411059116308896,10.603196,-0.6731049,-0.22467096,0.560891,3.3503244,-3.3715181,1.8900146,-0.5090743,0.2781565,-0.2002538,-0.7895382,-7.0807633,9.11633,-0.020917965,-0.1576402,3.5640035,-0.044883527,0
1.6000000000000012,10.732474616747915,-0.8845548695772663,-3.8164787788392283,0.001928917053796385,9.821913,-0.71820027,-4.4901485,0.59081227,3.2793865,-3.280024,1.8897307,-0.50555813,0.29189223,-0.207975,-0.7848287,-7.107029,9.1828375,-0.036251187,-0.21337639,3.1627967,-0.04525291,1
1.6100000000000012,10.732474616747915,-0.8845548695772663,-3.8164787788392283,0.001928917053796385,9.821913,-0.71820027,-4.4901485,0.59081227,3.2081766,-3.1878462,1.8892903,-0.50266284,0.30265352,-0.2138193,-0.7810327,-7.1350017,9.252618,-0.052619983,-0.15900412,2.1024783,-0.025978765,1
1.6200000000000012,10.732474616747915,-0.8845548695772663,-3.8164787788392283,0.001928917053796385,9.821913,-0.71820027,-4.4901485,0.59081227,3.1366868,-3.0949748,1.8886628,-0.5007355,0.30939206,-0.21727695,-0.77867264,-7.162899,9.321437,-0.07352096,-0.15404458,1.1665587,-0.0039870758,1
1.6300000000000012,10.732474616747915,-0.8845548695772663,-3.8164787788392283,0.001928917053796385,9.821913,-0.71820027,-4.4901485,0.59081227,3.06492,-3.001423,1.8878076,-0.4996307,0.31270143,-0.21849635,-0.77771854,-7.1903925,9.388682,-0.0980072,-0.18827303,0.33815503,0.020363495,1
1.6400000000000012,10.732474616747915,-0.8845548695772663,-3.8164787788392283,0.001928917053796385,10.208143,-0.8992295,-5.0300636,0.79378104,2.992881,-2.9072084,1.8866932,-0.49919775,0.31306976,-0.21760784,-0.7780974,-7.217269,9.453883,-0.12527193,-0.25326777,-0.39718997,0.046750396,0
1.6500000000000012,10.732474616747915,-0.8845548695772663,-3.8164787788392283,0.001928917053796385,10.208143,-0.8992295,-5.0300636,0.79378104,2.920563,-2.8123205,1.885331,-0.49927095,0.31116605,-0.21482165,-0.77958685,-7.246275,9.523582,-0.14708854,-0.35170156,-0.93042856,0.044551,0
1.6600000000000013,10.732474616747915,-0.8845548695772663,-3.8164787788392283,0.001928917053796385,10.208143,-0.8992295,-5.0300636,0.79378104,2.847955,-2.7167392,1.8837537,-0.49972573,0.3075706,-0.21044901,-0.7819115,-7.275328,9.592537,-0.16824959,-0.43478847,-1.3805082,0.042459533,0
1.6700000000000013,10.732474616747915,-0.8845548695772663,-3.8164787788392283,0.001928917053796385,10.208143,-0.8992295,-5.0300636,0.79378104,2.7750564,-2.6204736,1.8819695,-0.50048035,0.30253342,-0.20472875,-0.784907,-7.304354,9.660379,-0.18841898,-0.50492114,-1.7603979,0.04047067,0
1.6800000000000013,10.943418090891885,-1.283245062221761,-5.999989617838794,0.05836691323648683,11.413258,-1.6498849,-5.8058124,0.48120844,2.701868,-2.5235367,1.8799897,-0.50146085,0.29626283,-0.19786067,-0.7884265,-7.3332853,9.726788,-0.20732807,-0.564119,-2.0810435,0.038579416,1
1.6900000000000013,10.943418090891885,-1.283245062221761,-5.999989617838794,0.05836691323648683,11.413258,-1.6498849,-5.8058124,0.48120844,2.628382,-2.425923,1.8778536,-0.5026168,0.2884448,-0.18938747,-0.79265887,-7.363882,9.795544,-0.21962501,-0.7333917,-2.6619334,0.06029935,1
1.7000000000000013,10.943418090891885,-1.283245062221761,-5.999989617838794,0.05836691323648683,11.413258,-1.6498849,-5.8058124,0.48120844,2.554591,-2.3276336,1.8756039,-0.5038746,0.27882528,-0.17894877,-0.7977117,-7.394247,9.86193,-0.22999696,-0.87625706,-3.152237,0.080953464,1
1.7100000000000013,10.943418090891885,-1.283245062221761,-5.999989617838794,0.05836691323648683,11.413258,-1.6498849,-5.8058124,0.48120844,2.4804978,-2.2286942,1.8732613,-0.50513786,0.26764563,-0.16683002,-0.80334866,-7.4243126,9.925422,-0.2381526,-0.99683684,-3.5660794,0.10059408,1
1.7200000000000013,11.256626669690585,-1.6454193599905487,-5.999996740080845,0.14197679930108542,11.689986,-2.0911322,-6.0306807,0.72516084,2.4061058,-2.1291366,1.8708493,-0.50632066,0.25510958,-0.15327296,-0.8093613,-7.454003,9.985539,-0.24389954,-1.098609,-3.9153845,0.11927094,1
1.7300000000000013,11.256626669690585,-1.6454193599905487,-5.999996740080845,0.14197679930108542,11.689986,-2.0911322,-6.0306807,0.72516084,2.3314157,-2.0289896,1.8684036,-0.5072895,0.24141261,-0.13830844,-0.8156273,-7.483949,10.043205,-0.24483182,-1.2532855,-4.2405157,0.14900213,1
1.7400000000000013,11.256626669690585,-1.6454193599905487,-5.999996740080845,0.14197679930108542,11.689986,-2.0911322,-6.0306807,0.72516084,2.2564287,-1.9282874,1.8659617,-0.5079276,0.22671914,-0.12197277,-0.8220282,-7.513382,10.096505,-0.24315074,-1.3838379,-4.5149446,0.17727442,1
1.7500000000000013,11.256626669690585,-1.6454193599905487,-5.999996740080845,0.14197679930108542,11.689986,-2.0911322,-6.0306807,0.72516084,2.18115,-1.827076,1.8635494,-0.50818723,0.2111502,-0.10446596,-0.82840085,-7.542249,10.145008,-0.23889261,-1.4940305,-4.746577,0.20415936,1
1.7600000000000013,11.572703994004806,-1.7219532533510669,-5.999995778438585,0.35815276738088214,12.051347,-1.4948496,-5.9948864,0.91191334,2.1055856,-1.7254052,1.8611921,-0.50802803,0.19481207,-0.085961156,-0.83460546,-7.570484,10.188329,-0.23216389,-1.58704,-4.9420857,0.22972508,1
1.7700000000000014,11.572703994004806,-1.7219532533510669,-5.999995778438585,0.35815276738088214,12.051347,-1.4948496,-5.9948864,0.91191334,2.0297382,-1.6233225,1.8589303,-0.5074429,0.1776779,-0.066814244,-0.8405165,-7.5988474,10.22729,-0.21981992,-1.5725273,-5.106302,0.26320025,1
1.7800000000000014,11.572703994004806,-1.7219532533510669,-5.999995778438585,0.35815276738088214,12.051347,-1.4948496,-5.9948864,0.91191334,1.9536116,-1.52088,1.8568029,-0.5064205,0.1597373,-0.04732152,-0.84603953,-7.6263,10.26028,-0.20532231,-1.5602813,-5.244906,0.2950328,1
1.7900000000000014,11.572703994004806,-1.7219532533510669,-5.999995778438585,0.35815276738088214,12.051347,-1.4948496,-5.9948864,0.91191334,1.877216,-1.4181384,1.8548303,-0.50492644,0.14110185,-0.027543,-0.85110575,-7.652659,10.28707,-0.18893431,-1.549949,-5.361893,0.3253033,1
1.8000000000000014,11.801409131749281,-1.5576882548596205,-5.254265032390786,0.5944323408982535,13.951635,-1.6561676,-5.927163,1.0382298,1.8005629,-1.3151606,1.8530296,-0.50293416,0.12187034,-0.007532638,-0.85565656,-7.6777506,10.307468,-0.17095579,-1.5412328,-5.4606357,0.3540884,0
1.8100000000000014,11.801409131749281,-1.5576882548596205,-5.254265032390786,0.5944323408982535,13.951635,-1.6561676,-5.927163,1.0382298,1.7236683,-1.212013,1.8514032,-0.5004573,0.1023981,0.012538155,-0.85959285,-7.7009263,10.321043,-0.154154,-1.5437646,-5.4284644,0.3658821,0
1.8200000000000014,11.801409131749281,-1.5576882548596205,-5.254265032390786,0.5944323408982535,13.951635,-1.6561676,-5.927163,1.0382298,1.6465495,-1.1087619,1.8499496,-0.4975314,0.08297765,0.032529,-0.8628552,-7.7226124,10.328181,-0.13648422,-1.5459028,-5.40131,0.37709716,0
1.8300000000000014,11.801409131749281,-1.5576882548596205,-5.254265032390786,0.5944323408982535,13.951635,-1.6561676,-5.927163,1.0382298,1.5692215,-1.0054715,1.8486754,-0.4941671,0.06360582,0.05243587,-0.86544997,-7.742733,10.328894,-0.11831493,-1.5477091,-5.37839,0.38776186,0
1.8400000000000014,11.801409131749281,-1.5576882548596205,-5.254265032390786,0.5944323408982535,13.504703,-1.3108095,-5.736189,1.0461848,1.4917004,-0.902206,1.8475839,-0.49037388,0.04428199,0.07225327,-0.8673823,-7.761217,10.323208,-0.10001077,-1.5492349,-5.3590426,0.39790326,0
1.8500000000000014,11.801409131749281,-1.5576882548596205,-5.254265032390786,0.5944323408982535,13.504703,-1.3108095,-5.736189,1.0461848,1.4140031,-0.79902923,1.8466746,-0.4861604,0.025007695,0.09197443,-0.8686561,-7.777996,10.311166,-0.08193238,-1.5505239,-5.342713,0.407547,0
1.8600000000000014,11.801409131749281,-1.5576882548596205,-5.254265032390786,0.5944323408982535,13.504703,-1.3108095,-5.736189,1.0461848,1.3361466,-0.69600433,1.8459433,-0.4815346,0.0057863756,0.11159151,-0.8692746,-7.7930026,10.292828,-0.064436175,-1.5516129,-5.3289294,0.41671756,0
1.8700000000000014,11.801409131749281,-1.5576882548596205,-5.254265032390786,0.5944323408982535,13.504703,-1.3108095,-5.736189,1.0461848,1.2581493,-0.593194,1.8453826,-0.476504,-0.0133769335,0.13109572,-0.86924046,-7.8061757,10.2682705,-0.047874,-1.5525333,-5.3172946,0.42543805,0
1.8800000000000014,11.794924607041343,-1.2732713038567367,-2.206640647040246,0.7825849079596131,13.113803,-0.7774926,-4.546689,1.1280992,1.1800296,-0.49065992,1.8449813,-0.4710758,-0.032475825,0.15047753,-0.8685559,-7.8174567,10.237589,-0.03259254,-1.5533111,-5.3074737,0.43373063,0
1.8900000000000015,11.794924607041343,-1.2732713038567367,-2.206640647040246,0.7825849079596131,13.113803,-0.7774926,-4.546689,1.1280992,1.1018068,-0.38846263,1.8447249,-0.46543372,-0.050494473,0.16906023,-0.86731786,-7.8268185,10.200968,-0.018978048,-1.5097213,-4.823905,0.450849,0
1.9000000000000015,11.794924607041343,-1.2732713038567367,-2.206640647040246,0.7825849079596131,13.113803,-0.7774926,-4.546689,1.1280992,1.0234993,-0.28665942,1.8445956,-0.459783,-0.06663096,0.18632872,-0.8657028,-7.8344235,10.158864,-0.007173721,-1.4729197,-4.4157486,0.46712735,0
1.9100000000000015,11.794924607041343,-1.2732713038567367,-2.206640647040246,0.7825849079596131,13.113803,-0.7774926,-4.546689,1.1280992,0.9451237,-0.18530244,1.8445747,-0.4541486,-0.0811689,0.20249039,-0.86380446,-7.84047,10.111796,0.0026983437,-1.4418483,-4.0712447,0.48260695,0
1.9200000000000015,11.737885137135935,-0.8643904233701799,2.164297421425328,0.884757983581521,12.431364,-0.38710535,-0.086535394,1.2558789,0.8666947,-0.084439054,1.8446425,-0.4485424,-0.094349384,0.21771906,-0.861688,-7.8451266,10.0602045,0.010554541,-1.4156137,-3.780466,0.49732694,0
1.9300000000000015,11.737885137135935,-0.8643904233701799,2.164297421425328,0.884757983581521,12.431364,-0.38710535,-0.086535394,1.2558789,0.7882254,0.015888887,1.8447763,-0.44333893,-0.10494296,0.23124424,-0.85963,-7.8485684,10.004802,0.015871419,-1.329915,-2.8533726,0.5163383,0
1.9400000000000015,11.737885137135935,-0.8643904233701799,2.164297421425328,0.884757983581521,12.431364,-0.38710535,-0.086535394,1.2558789,0.709726,0.11564571,1.8449539,-0.43888333,-0.111996844,0.24248902,-0.8579261,-7.851249,9.94611,0.0193833,-1.2575549,-2.0708601,0.5344168,0
1.9500000000000015,11.737885137135935,-0.8643904233701799,2.164297421425328,0.884757983581521,12.431364,-0.38710535,-0.086535394,1.2558789,0.6312015,0.21480241,1.8451588,-0.43511707,-0.11606974,0.25183973,-0.8566082,-7.8536305,9.88489,0.021401573,-1.1964548,-1.4103819,0.5516081,0
1.9600000000000015,11.888435530100313,-0.39650571321659717,5.791591268950037,0.8656861742067361,11.824402,0.043927323,2.8935518,1.0960218,0.552653,0.31333694,1.8453778,-0.4319689,-0.117630236,0.259613,-0.85566753,-7.856106,9.821759,0.022225445,-1.1448603,-0.85290635,0.56795585,0
1.9700000000000015,11.888435530100313,-0.39650571321659717,5.791591268950037,0.8656861742067361,11.824402,0.043927323,2.8935518,1.0960218,0.47407752,0.41122591,1.845611,-0.4297226,-0.11592325,0.26531923,-0.8552811,-7.8591056,9.756093,0.023969695,-1.0350336,0.17683354,0.5819629,0
1.9800000000000015,11.888435530100313,-0.39650571321659717,5.791591268950037,0.8656861742067361,11.824402,0.043927323,2.8935518,1.0960218,0.3954674,0.50845754,1.8458546,-0.4285995,-0.11034682,0.26851895,-0.8555836,-7.8631163,9.6902075,0.024745181,-0.9357963,1.0524809,0.5958853,0
1.9900000000000015,11.888435530100313,-0.39650571321659717,5.791591268950037,0.8656861742067361,11.824402,0.043927323,2.8935518,1.0960218,0.3168097,0.6050307,1.846106,-0.42842257,-0.101495035,0.26959255,-0.85643005,-7.868701,9.624524,0.025577849,-0.851996,1.7915677,0.6091245,0
2.0000000000000013,,,,,12.0027685,0.71173567,4.9357657,0.7379246,0.2380863,0.700951,1.8463677,-0.42902058,-0.08986857,0.2688565,-0.85766006,-7.876329,9.55971,0.026844772,-0.7812293,2.4153907,0.621714,0
2.010000000000001,,,,,12.0027685,0.71173567,4.9357657,0.7379246,0.15927409,0.7962259,1.8466519,-0.43025044,-0.07588857,0.2663955,-0.85916156,-7.8865266,9.495545,0.030100025,-0.6590688,2.9744534,0.6302198,0
2.020000000000001,,,,,12.0027685,0.71173567,4.9357657,0.7379246,0.08034616,0.89086896,1.8469731,-0.4319826,-0.059911862,0.262284,-0.86081845,-7.899517,9.433424,0.034301803,-0.5559281,3.446324,0.6383082,0
2.0300000000000007,,,,,12.0027685,0.71173567,4.9357657,0.7379246,0.0012732316,0.9849032,1.8473415,-0.43408564,-0.042242877,0.25674647,-0.86247677,-7.9155645,9.373864,0.039586373,-0.4688453,3.8446016,0.6459997,0
2.0400000000000005,,,,,12.0027685,0.71173567,4.9357657,0.7379246,-0.07797638,1.0783567,1.8477687,-0.43644255,-0.023142198,0.24997112,-0.8640003,-7.934886,9.317334,0.04600376,-0.39531958,4.1807632,0.6533138,0
2.0500000000000003,,,,,12.49681,0.95808095,4.6886992,0.7853496,-0.15743636,1.1712619,1.8482654,-0.4389505,-0.0028341478,0.24211697,-0.8652708,-7.9576597,9.264255,0.053527515,-0.33323988,4.4644966,0.6602691,1
2.06,,,,,12.49681,0.95808095,4.6886992,0.7853496,-0.23714676,1.2636455,1.8488629,-0.4414005,0.017864801,0.23322125,-0.86628747,-7.9849925,9.213119,0.06611912,-0.13189235,4.4995465,0.66640675,1
2.07,,,,,12.49681,0.95808095,4.6886992,0.7853496,-0.3171485,1.3555387,1.849591,-0.44364965,0.03829237,0.22333087,-0.8670823,-8.015903,9.166217,0.0796402,0.038058385,4.5291185,0.67224324,1
2.0799999999999996,,,,,12.49681,0.95808095,4.6886992,0.7853496,-0.3974765,1.4469851,1.8504584,-0.44570148,0.058477372,0.21258426,-0.8676049,-8.050216,9.123762,0.093945056,0.18150802,4.5540686,0.67779344,1
2.0899999999999994,,,,,12.696767,0.926055,2.9304833,1.0424639,-0.47816393,1.53803,1.851472,-0.44755587,0.07844259,0.2010997,-0.8678129,-8.087769,9.085942,0.108867034,0.30258924,4.5751185,0.68307126,1
2.099999999999999,,,,,12.696767,0.926055,2.9304833,1.0424639,-0.55924565,1.6287178,1.8526462,-0.44904768,0.09760787,0.18930407,-0.8677515,-8.129044,9.05236,0.12603566,0.3998824,4.318686,0.7007068,1
2.109999999999999,,,,,12.696767,0.926055,2.9304833,1.0424639,-0.6407545,1.7190936,1.8539935,-0.45006746,0.11551799,0.17754973,-0.8675083,-8.173152,9.02354,0.14344466,0.48199242,4.102239,0.71747696,1
2.1199999999999988,,,,,12.696767,0.926055,2.9304833,1.0424639,-0.7227174,1.8092045,1.8555154,-0.45068452,0.13235828,0.16582814,-0.8671017,-8.219804,8.999343,0.16091649,0.55128825,3.9195426,0.7334242,1
2.1299999999999986,,,,,12.33636,0.537634,-0.63005257,1.2215099,-0.8051585,1.899096,1.8572116,-0.45095372,0.14828555,0.15413128,-0.86654216,-8.26875,8.979647,0.17829424,0.60976917,3.765333,0.7485888,1
2.1399999999999983,,,,,12.33636,0.537634,-0.63005257,1.2215099,-0.8880923,1.9888147,1.8590642,-0.45066896,0.16227362,0.14322774,-0.8660544,-8.3182955,8.964707,0.19217238,0.5988067,3.0798788,0.7717952,1
2.149999999999998,,,,,12.33636,0.537634,-0.63005257,1.2215099,-0.9715298,2.078403,1.8610542,-0.4497061,0.17352732,0.13373241,-0.8658914,-8.369418,8.95341,0.20577027,0.589521,2.5013208,0.7938628,1
2.159999999999998,,,,,12.33636,0.537634,-0.63005257,1.2215099,-1.0554847,2.1678936,1.8631787,-0.4482035,0.1824786,0.12542765,-0.86607313,-8.421711,8.945144,0.21909289,0.5816535,2.0129888,0.8148476,1
2.1699999999999977,,,,,11.886657,0.27134714,-3.9199727,1.3448002,-1.1399668,2.2573144,1.8654352,-0.44626597,0.1894903,0.118126325,-0.8665944,-8.474843,8.939391,0.23217803,0.57498604,1.6008118,0.8348026,1
