time-since-start [s],throttle_mpc,roll_mpc,pitch_mpc,yaw_mpc,throttle_nw,roll_nw,pitch_nw,yaw_nw,position_x [m],position_y [m],position_z [m],rotation_w [quaternion],rotation_x [quaternion],rotation_y [quaternion],rotation_z [quaternion],velocity_x [m/s],velocity_y [m/s],velocity_z [m/s],omega_x [rad/s],omega_y [rad/s],omega_z [rad/s],network_used
0.0,7.637484406321915,5.123862717918992,-5.999999916834043,-3.993338594793994,14.182616,-0.40325207,-4.1029387,-0.7414489,17.387476,-10.181145,1.6990523,0.009693361,0.4043979,-0.45586944,-0.79281235,-10.56877,-1.7279266,-0.4704909,0.9563451,-0.4362127,-0.27442113,0
0.01,7.637484406321915,5.123862717918992,-5.999999916834043,-3.993338594793994,15.061828,-1.1444614,-4.9640365,-0.87151676,17.281328,-10.197914,1.6940392,0.005258956,0.40310276,-0.45892742,-0.7917488,-10.660621,-1.62612,-0.5322981,0.9243153,-0.62207985,-0.39594048,0
0.02,7.637484406321915,5.123862717918992,-5.999999916834043,-3.993338594793994,15.061828,-1.1444614,-4.9640365,-0.87151676,17.174273,-10.213669,1.688403,-3.1969044e-05,0.401344,-0.4616625,-0.7910694,-10.750027,-1.5248116,-0.5950828,0.9200036,-0.8017116,-0.5135301,0
0.03,7.637484406321915,5.123862717918992,-5.999999916834043,-3.993338594793994,15.061828,-1.1444614,-4.9640365,-0.87151676,17.066336,-10.228413,1.6821347,-0.006204811,0.3991343,-0.46417576,-0.79069227,-10.836828,-1.4239776,-0.6586702,0.9393135,-0.9763092,-0.6274028,0
0.04,7.637484406321915,5.123862717918992,-5.999999916834043,-3.993338594793994,13.603358,-0.8200436,-4.838659,-0.7114034,16.957544,-10.24215,1.6752273,-0.013279831,0.39647943,-0.46655104,-0.79054284,-10.920868,-1.3235831,-0.72291774,0.97872037,-1.1468178,-0.73775506,0
0.05,7.637484406321915,5.123862717918992,-5.999999916834043,-3.993338594793994,13.603358,-0.8200436,-4.838659,-0.7114034,16.847927,-10.254886,1.6676745,-0.021272566,0.39337957,-0.46885705,-0.7905525,-11.001993,-1.2235875,-0.7877093,1.0351877,-1.3139743,-0.84476835,0
0.060000000000000005,7.637484406321915,5.123862717918992,-5.999999916834043,-3.993338594793994,13.603358,-0.8200436,-4.838659,-0.7114034,16.737514,-10.2666235,1.6594715,-0.030194174,0.3898302,-0.47114927,-0.79065746,-11.080052,-1.1239483,-0.8529502,1.1060983,-1.4783453,-0.9486103,0
0.07,7.637484406321915,5.123862717918992,-5.999999916834043,-3.993338594793994,13.603358,-0.8200436,-4.838659,-0.7114034,16.626337,-10.277368,1.6506143,-0.040051717,0.38582304,-0.4734716,-0.7907978,-11.154896,-1.0246255,-0.91856277,1.1891941,-1.6403594,-1.0494359,0
0.08,9.298989132184293,5.999995656611039,-5.999999937268851,-5.285283596475861,13.996458,-0.2472268,-5.092895,-0.9422807,16.514427,-10.28712,1.6410993,-0.050848402,0.38134655,-0.4758576,-0.79091656,-11.226377,-0.92558455,-0.9844827,1.2825253,-1.8003342,-1.1473886,0
0.09,9.298989132184293,5.999995656611039,-5.999999937268851,-5.285283596475861,13.996458,-0.2472268,-5.092895,-0.9422807,16.401731,-10.295752,1.6309658,-0.062443264,0.37679204,-0.4782456,-0.79082865,-11.31234,-0.8007008,-1.0422335,1.3524791,-1.7898753,-1.2909244,0
0.09999999999999999,9.298989132184293,5.999995656611039,-5.999999937268851,-5.285283596475861,13.996458,-0.2472268,-5.092895,-0.9422807,16.288197,-10.303133,1.6202539,-0.07473209,0.37248057,-0.4805864,-0.79038614,-11.394216,-0.67567605,-1.100195,1.4338474,-1.8034048,-1.4294132,0
0.10999999999999999,9.298989132184293,5.999995656611039,-5.999999937268851,-5.285283596475861,13.996458,-0.2472268,-5.092895,-0.9422807,16.173862,-10.309263,1.608961,-0.08776436,0.36829942,-0.4829182,-0.78958416,-11.471939,-0.5506196,-1.1584444,1.5254927,-1.8378292,-1.5631604,0
0.11999999999999998,9.298989132184293,5.999995656611039,-5.999999937268851,-5.285283596475861,13.996458,-0.2472268,-5.092895,-0.9422807,16.058773,-10.314145,1.5970839,-0.1015807,0.36414573,-0.48527014,-0.78841126,-11.545428,-0.42562482,-1.2170379,1.6263338,-1.8904152,-1.6924455,0
0.12999999999999998,12.473681464368124,5.999999166277853,-5.999999960779273,-5.667747120416275,15.061889,0.30969316,-5.5587807,-1.301809,15.942971,-10.317777,1.584619,-0.116213456,0.3599253,-0.48766312,-0.7868501,-11.614583,-0.3007756,-1.2760137,1.735351,-1.9587468,-1.8175247,0
0.13999999999999999,12.473681464368124,5.999999166277853,-5.999999960779273,-5.667747120416275,15.061889,0.30969316,-5.5587807,-1.301809,15.826434,-10.320039,1.5716006,-0.1317981,0.3555045,-0.49014345,-0.7848601,-11.692009,-0.15163715,-1.3277769,1.8838654,-2.073102,-1.9602875,0
0.15,12.473681464368124,5.999999166277853,-5.999999960779273,-5.667747120416275,15.061889,0.30969316,-5.5587807,-1.301809,15.709151,-10.320811,1.558062,-0.14846134,0.3507508,-0.49274713,-0.7823896,-11.763875,-0.0028922744,-1.3800447,2.039136,-2.1996033,-2.0987215,0
0.16,15.558791608189308,5.999999571970103,-5.99999997435033,-5.517212967309992,16.885927,0.047784533,-5.1417794,-1.0311638,15.591177,-10.320098,1.5439982,-0.1662103,0.34558225,-0.49546736,-0.7793967,-11.829958,0.14538547,-1.4328016,2.2002206,-2.3364675,-2.2330496,0
0.17,15.558791608189308,5.999999571970103,-5.99999997435033,-5.517212967309992,16.885927,0.047784533,-5.1417794,-1.0311638,15.472534,-10.317811,1.5294329,-0.18526898,0.33967197,-0.4984452,-0.7757904,-11.897565,0.3117017,-1.4803648,2.470423,-2.586614,-2.365409,0
0.18000000000000002,15.558791608189308,5.999999571970103,-5.99999997435033,-5.517212967309992,16.885927,0.047784533,-5.1417794,-1.0311638,15.353251,-10.313868,1.514389,-0.2058276,0.33271393,-0.5017804,-0.7714615,-11.957788,0.4769429,-1.5284914,2.7367072,-2.8360412,-2.4946935,0
0.19000000000000003,15.558791608189308,5.999999571970103,-5.99999997435033,-5.517212967309992,16.885927,0.047784533,-5.1417794,-1.0311638,15.233405,-10.308277,1.4988614,-0.22783066,0.32466358,-0.50539297,-0.7663319,-12.010188,0.64102584,-1.5770844,2.999078,-3.0842505,-2.6209998,0
0.20000000000000004,18.29170497759009,5.999999641086134,-5.999999978400814,-4.874640959455255,17.568596,-0.5381147,-5.1477747,-0.38657832,15.113076,-10.301052,1.482846,-0.2512149,0.31547815,-0.5091978,-0.76031715,-12.054354,0.8037865,-1.6260316,3.2575343,-3.3308153,-2.7444189,0
0.21000000000000005,18.29170497759009,5.999999641086134,-5.999999978400814,-4.874640959455255,17.568596,-0.5381147,-5.1477747,-0.38657832,14.992335,-10.292151,1.4663568,-0.27621385,0.30467087,-0.51331866,-0.75325,-12.092311,0.9760734,-1.6718407,3.6732178,-3.737038,-2.8479333,0
0.22000000000000006,18.29170497759009,5.999999641086134,-5.999999978400814,-4.874640959455255,17.568596,-0.5381147,-5.1477747,-0.38657832,14.871262,-10.281528,1.449412,-0.30292743,0.29187438,-0.5177747,-0.7449522,-12.120752,1.1488066,-1.7169765,4.0351586,-4.0908775,-2.9473846,0
0.23000000000000007,18.29170497759009,5.999999641086134,-5.999999978400814,-4.874640959455255,17.568596,-0.5381147,-5.1477747,-0.38657832,14.749954,-10.269173,1.4320215,-0.33101484,0.27730963,-0.5222985,-0.7353455,-12.138925,1.3225504,-1.7609254,4.3407326,-4.389457,-3.0419557,0
0.24000000000000007,18.29170497759009,5.999999641086134,-5.999999978400814,-4.874640959455255,17.612192,-1.0553231,-5.0864177,-0.1371861,14.628521,-10.255077,1.4141983,-0.36015633,0.2611838,-0.52665687,-0.724364,-12.146002,1.4966594,-1.8034898,4.598725,-4.6414003,-3.1318858,0
0.25000000000000006,18.29170497759009,5.999999641086134,-5.999999978400814,-4.874640959455255,17.612192,-1.0553231,-5.0864177,-0.1371861,14.507074,-10.239243,1.3959571,-0.390063,0.24368078,-0.53065366,-0.71195334,-12.141332,1.6703366,-1.8444806,4.81655,-4.8539853,-3.2174034,0
0.26000000000000006,18.29170497759009,5.999999641086134,-5.999999978400814,-4.874640959455255,17.612192,-1.0553231,-5.0864177,-0.1371861,14.385735,-10.221676,1.3773148,-0.42047274,0.22496544,-0.5341248,-0.6980718,-12.12443,1.8426611,-1.8837199,5.0004663,-5.033356,-3.2987244,0
0.2700000000000001,18.29170497759009,5.999999641086134,-5.999999978400814,-4.874640959455255,17.612192,-1.0553231,-5.0864177,-0.1371861,14.264628,-10.202397,1.3582895,-0.4511469,0.20518708,-0.53693455,-0.68269044,-12.094982,2.0126147,-1.9210433,5.1557574,-5.1846976,-3.3760552,0
0.2800000000000001,20.999998891272572,5.999997495723262,-5.999999951399214,-3.113490783652141,17.018383,-1.9830749,-5.835247,0.22973555,14.14388,-10.181436,1.3389012,-0.48186752,0.184482,-0.5389714,-0.66579294,-12.052842,2.1791067,-1.9563019,5.286882,-5.3123856,-3.4495912,0
0.2900000000000001,20.999998891272572,5.999997495723262,-5.999999951399214,-3.113490783652141,17.018383,-1.9830749,-5.835247,0.22973555,14.023655,-10.1587105,1.3192189,-0.5122923,0.16285847,-0.54018563,-0.64748245,-11.989915,2.3649702,-1.9797348,5.397909,-5.41981,-3.4330986,0
0.3000000000000001,20.999998891272572,5.999997495723262,-5.999999951399214,-3.113490783652141,17.018383,-1.9830749,-5.835247,0.22973555,13.904132,-10.134159,1.2993155,-0.5421152,0.14032443,-0.5405424,-0.62788093,-11.912644,2.544223,-2.0005221,5.491658,-5.5104437,-3.4174154,0
0.3100000000000001,20.999998891272572,5.999997495723262,-5.999999951399214,-3.113490783652141,17.018383,-1.9830749,-5.835247,0.22973555,13.78545,-10.107853,1.2792178,-0.57119775,0.1170008,-0.5399802,-0.6070138,-11.821412,2.7155356,-2.0185735,5.570818,-5.5869117,-3.4025018,0
0.3200000000000001,20.999999720150342,2.7548560465362737,-5.999999867988485,1.017434309055169,17.34819,-2.7398927,-5.224247,0.5008092,13.667749,-10.079879,1.2589537,-0.59941494,0.09300093,-0.53845096,-0.58491325,-11.716767,2.8776019,-2.0338337,5.6376576,-5.6514287,-3.3883202,0
0.3300000000000001,20.999999720150342,2.7548560465362737,-5.999999867988485,1.017434309055169,17.34819,-2.7398927,-5.224247,0.5008092,13.551192,-10.050291,1.2385757,-0.62613463,0.068955414,-0.53561336,-0.56242263,-11.593016,3.0376132,-2.0415218,5.30963,-5.5837016,-3.1829407,0
0.34000000000000014,20.999999720150342,2.7548560465362737,-5.999999867988485,1.017434309055169,17.34819,-2.7398927,-5.224247,0.5008092,13.435923,-10.019176,1.2181296,-0.6509674,0.045374684,-0.53115535,-0.54042286,-11.459343,3.1835346,-2.0474248,4.9986925,-5.5606155,-2.9846065,0
0.35000000000000014,20.999999720150342,2.7548560465362737,-5.999999867988485,1.017434309055169,17.34819,-2.7398927,-5.224247,0.5008092,13.322032,-9.986671,1.1976337,-0.6741391,0.022200562,-0.52506965,-0.5189854,-11.317653,3.3150578,-2.051435,4.7016206,-5.5757813,-2.7929192,0
0.36000000000000015,20.99999970453898,0.08949803107125541,-5.9999994703141475,3.5076732753911335,19.442873,-3.7285094,-1.4854541,2.0548036,13.20959,-9.952926,1.1771077,-0.6958439,-0.0006036125,-0.5173394,-0.49815783,-11.169729,3.4320278,-2.0534406,4.4158454,-5.6236515,-2.6075134,0
0.37000000000000016,20.99999970453898,0.08949803107125541,-5.9999994703141475,3.5076732753911335,19.442873,-3.7285094,-1.4854541,2.0548036,13.098854,-9.917941,1.1567026,-0.715766,-0.022567187,-0.50837964,-0.47824696,-10.976815,3.561684,-2.0273225,4.040769,-5.3827167,-2.3573372,0
0.38000000000000017,20.99999970453898,0.08949803107125541,-5.9999994703141475,3.5076732753911335,19.442873,-3.7285094,-1.4854541,2.0548036,12.99006,-9.881755,1.1365657,-0.73366016,-0.04336619,-0.49870962,-0.4595118,-10.781925,3.6726701,-1.9998767,3.723956,-5.179651,-2.1133573,0
0.3900000000000002,20.99999970453898,0.08949803107125541,-5.9999994703141475,3.5076732753911335,19.442873,-3.7285094,-1.4854541,2.0548036,12.883217,-9.844548,1.1167085,-0.74976736,-0.063219436,-0.48843697,-0.44190693,-10.586817,3.7661858,-1.9714078,3.4564893,-5.008366,-1.8754199,0
0.4000000000000002,20.99999928436788,-2.073445672278955,-4.9243944848668075,4.182876073991515,20.500206,-4.003421,0.98046523,2.3878543,12.778319,-9.806488,1.0971401,-0.76428604,-0.08231255,-0.47764027,-0.42538396,-10.392918,3.8433857,-1.9422165,3.2308948,-4.863672,-1.6433752,0
0.4100000000000002,20.99999928436788,-2.073445672278955,-4.9243944848668075,4.182876073991515,20.500206,-4.003421,0.98046523,2.3878543,12.675421,-9.767709,1.0779129,-0.7771238,-0.100053616,-0.4666094,-0.4102972,-10.187258,3.9100459,-1.90317,2.7896433,-4.4873824,-1.4003552,0
0.4200000000000002,20.99999928436788,-2.073445672278955,-4.9243944848668075,4.182876073991515,20.500206,-4.003421,0.98046523,2.3878543,12.57456,-9.728337,1.059077,-0.7882757,-0.115995415,-0.45562717,-0.39695153,-9.985298,3.9622223,-1.8640293,2.4199538,-4.1670513,-1.1633539,0
0.4300000000000002,20.99999928436788,-2.073445672278955,-4.9243944848668075,4.182876073991515,20.500206,-4.003421,0.98046523,2.3878543,12.475704,-9.688508,1.0406357,-0.7980218,-0.13045883,-0.4446737,-0.38523662,-9.786332,4.001969,-1.8240188,2.0891054,-3.915475,-0.93403345,0
0.4400000000000002,20.99999928436788,-2.073445672278955,-4.9243944848668075,4.182876073991515,20.179367,-4.2823167,1.8601407,2.3269703,12.378823,-9.648336,1.022601,-0.8066527,-0.14366063,-0.4335818,-0.37507352,-9.59019,4.030769,-1.782747,1.777275,-3.7356987,-0.7130665,0
0.45000000000000023,20.99999928436788,-2.073445672278955,-4.9243944848668075,4.182876073991515,20.179367,-4.2823167,1.8601407,2.3269703,12.283887,-9.607926,1.0049845,-0.8144163,-0.15576476,-0.4221685,-0.36638457,-9.397607,4.0496855,-1.7404122,1.4802338,-3.617811,-0.49992663,0
0.46000000000000024,20.99999928436788,-2.073445672278955,-4.9243944848668075,4.182876073991515,20.179367,-4.2823167,1.8601407,2.3269703,12.190856,-9.567373,0.9877961,-0.8215133,-0.16689882,-0.4102628,-0.35908997,-9.209216,4.059654,-1.6971163,1.1946483,-3.5532053,-0.29413503,0
0.47000000000000025,20.99999928436788,-2.073445672278955,-4.9243944848668075,4.182876073991515,20.179367,-4.2823167,1.8601407,2.3269703,12.099686,-9.526762,0.9710454,-0.8281049,-0.17716053,-0.39770696,-0.35310912,-9.02558,4.061498,-1.6528878,0.91791177,-3.5344086,-0.095255524,0
0.48000000000000026,20.766336879029843,-5.248274562423533,-2.139157228241249,4.373823112794191,18.37375,-3.6080492,2.2982855,2.2871532,12.010326,-9.486169,0.95474166,-0.834318,-0.18662307,-0.38435665,-0.34836152,-8.847214,4.055938,-1.6077029,0.6480037,-3.5549278,0.09711012,0
0.49000000000000027,20.766336879029843,-5.248274562423533,-2.139157228241249,4.373823112794191,18.37375,-3.6080492,2.2982855,2.2871532,11.92273,-9.445666,0.93890196,-0.8400056,-0.19395769,-0.37071964,-0.34545392,-8.672873,4.0436497,-1.5600647,-0.06415725,-3.1271937,0.28843668,0
0.5000000000000002,20.766336879029843,-5.248274562423533,-2.139157228241249,4.373823112794191,18.37375,-3.6080492,2.2982855,2.2871532,11.836847,-9.4053135,0.92354447,-0.84511447,-0.19811454,-0.35721433,-0.34486294,-8.504672,4.0263433,-1.5112293,-0.70240235,-2.8033757,0.4736867,0
0.5100000000000002,20.766336879029843,-5.248274562423533,-2.139157228241249,4.373823112794191,18.37375,-3.6080492,2.2982855,2.2871532,11.752613,-9.365151,0.90868205,-0.84982675,-0.19951119,-0.34358102,-0.3463268,-8.342959,4.0057063,-1.4610277,-1.2789502,-2.5679667,0.6532235,0
0.5200000000000002,18.64333696805709,-5.999999561007774,0.47103427975518586,5.52809513425969,18.006245,-4.418653,3.9810295,2.1288416,11.669964,-9.325207,0.89432925,-0.85425603,-0.19849017,-0.32957998,-0.34960788,-8.188061,3.9831023,-1.4092654,-1.8039274,-2.4076889,0.82737523,0
0.5300000000000002,18.64333696805709,-5.999999561007774,0.47103427975518586,5.52809513425969,18.006245,-4.418653,3.9810295,2.1288416,11.588836,-9.285494,0.8805107,-0.8581026,-0.19479284,-0.31589627,-0.3548598,-8.038867,3.959494,-1.3543582,-2.3552568,-1.8562684,1.0314407,0
0.5400000000000003,18.64333696805709,-5.999999561007774,0.47103427975518586,5.52809513425969,18.006245,-4.418653,3.9810295,2.1288416,11.509158,-9.246014,0.86724395,-0.86106914,-0.188285,-0.30320334,-0.36218324,-7.8978987,3.936732,-1.2989151,-2.823762,-1.3939879,1.2304522,0
0.5500000000000003,18.64333696805709,-5.999999561007774,0.47103427975518586,5.52809513425969,18.006245,-4.418653,3.9810295,2.1288416,11.43085,-9.206752,0.854534,-0.8631977,-0.17939088,-0.2912763,-0.37130457,-7.764931,3.9161108,-1.2430377,-3.223376,-1.0079665,1.4245349,0
0.5600000000000003,17.370863097723635,-5.999999768154658,3.138147581010718,5.999997341647313,17.449686,-3.0597837,4.0908847,2.0556238,11.353833,-9.167681,0.84238434,-0.8644977,-0.16846408,-0.2799141,-0.38198423,-7.639803,3.8986063,-1.1868489,-3.5657513,-0.68722457,1.6138108,0
0.5700000000000003,17.370863097723635,-5.999999768154658,3.138147581010718,5.999997341647313,17.449686,-3.0597837,4.0908847,2.0556238,11.278046,-9.128768,0.8308214,-0.86488795,-0.15513575,-0.26918897,-0.39425796,-7.518785,3.8845778,-1.1257185,-4.069649,-0.21550308,1.8041042,0
0.5800000000000003,17.370863097723635,-5.999999768154658,3.138147581010718,5.999997341647313,17.449686,-3.0597837,4.0908847,2.0556238,11.203428,-9.089971,0.81987005,-0.8642622,-0.13911374,-0.2591192,-0.40811238,-7.4057198,3.8755095,-1.0645607,-4.503954,0.17365232,1.9896847,0
0.5900000000000003,17.370863097723635,-5.999999768154658,3.138147581010718,5.999997341647313,17.449686,-3.0597837,4.0908847,2.0556238,11.129903,-9.051237,0.8095296,-0.862562,-0.120777376,-0.24946475,-0.42328158,-7.30067,3.872187,-1.0035653,-4.880591,0.49204165,2.170669,0
0.6000000000000003,17.945855858108516,-5.999999756657,4.718006831872155,5.999997221195753,16.928543,-2.3901289,4.7727346,2.2726119,11.057389,-9.012505,0.7998007,-0.8597107,-0.10046077,-0.24004611,-0.4395262,-7.2031364,3.8751538,-0.9419299,-5.195969,0.76332533,2.346015,0
0.6100000000000003,17.945855858108516,-5.999999756657,4.718006831872155,5.999997221195753,16.928543,-2.3901289,4.7727346,2.2726119,10.985841,-8.973708,0.79074067,-0.8554917,-0.078160554,-0.23123431,-0.45667908,-7.107705,3.8854306,-0.8699017,-5.487527,1.2136707,2.5105157,0
0.6200000000000003,17.945855858108516,-5.999999756657,4.718006831872155,5.999997221195753,16.928543,-2.3901289,4.7727346,2.2726119,10.915207,-8.93477,0.7824056,-0.8497009,-0.053906582,-0.22338599,-0.4745537,-7.020178,3.9034271,-0.7970288,-5.708432,1.6190636,2.6691964,0
0.6300000000000003,17.945855858108516,-5.999999756657,4.718006831872155,5.999997221195753,16.928543,-2.3901289,4.7727346,2.2726119,10.8454075,-8.895611,0.7748007,-0.84226304,-0.02804681,-0.21644926,-0.4929059,-6.9408264,3.9295871,-0.7239671,-5.8693824,1.9868344,2.8223705,0
0.6400000000000003,17.945855858108516,-5.999999756657,4.718006831872155,5.999997221195753,16.867365,-1.5023346,4.765698,3.2830164,10.7763605,-8.85615,0.7679245,-0.8331182,-0.0008838619,-0.2103897,-0.5115169,-6.869908,3.964151,-0.65142965,-5.9794793,2.3230958,2.970331,0
0.6500000000000004,17.945855858108516,-5.999999756657,4.718006831872155,5.999997221195753,16.867365,-1.5023346,4.765698,3.2830164,10.707979,-8.816299,0.7617678,-0.8222233,0.027318295,-0.20518658,-0.53018975,-6.807653,4.0071816,-0.580167,-6.0464735,2.6329389,3.113349,0
0.6600000000000004,17.945855858108516,-5.999999756657,4.718006831872155,5.999997221195753,16.867365,-1.5023346,4.765698,3.2830164,10.640177,-8.775978,0.75631416,-0.8095513,0.056328904,-0.20082946,-0.5487453,-6.754255,4.058588,-0.5109488,-6.076971,2.9205966,3.2516775,0
0.6700000000000004,17.945855858108516,-5.999999756657,4.718006831872155,5.999997221195753,16.867365,-1.5023346,4.765698,3.2830164,10.572863,-8.7351,0.75153923,-0.7950901,0.08594585,-0.19731519,-0.5670201,-6.7098637,4.1181464,-0.4445476,-6.0766068,3.189581,3.3855517,0
0.6800000000000004,19.48426125807045,-5.999999576144049,4.97614036367639,5.339669476366546,17.38037,-1.1812456,4.0762315,4.4313383,10.505948,-8.693585,0.7474157,-0.77884537,0.11599814,-0.19460636,-0.58486974,-6.674309,4.18607,-0.38042676,-6.06547,3.427456,3.5138433,0
0.6900000000000004,19.48426125807045,-5.999999576144049,4.97614036367639,5.339669476366546,17.38037,-1.1812456,4.0762315,4.4313383,10.439357,-8.651317,0.7439923,-0.7608709,0.14642815,-0.19262613,-0.6021042,-6.645356,4.2690487,-0.3046724,-6.056026,3.6686406,3.6034372,0
0.7000000000000004,19.48426125807045,-5.999999576144049,4.97614036367639,5.339669476366546,17.38037,-1.1812456,4.0762315,4.4313383,10.373006,-8.608173,0.7413115,-0.741226,0.17717686,-0.19127664,-0.6185512,-6.626403,4.360947,-0.23205614,-6.047981,3.8722277,3.6886349,0
0.7100000000000004,19.48426125807045,-5.999999576144049,4.97614036367639,5.339669476366546,17.38037,-1.1812456,4.0762315,4.4313383,10.306792,-8.564069,0.73933744,-0.7199445,0.2081084,-0.19040655,-0.6341263,-6.6177907,4.4613323,-0.16343227,-6.041124,4.04408,3.7696517,0
0.7200000000000004,20.655343870254868,-5.6473384327097635,3.5280492903618255,3.3024575900504862,18.36204,-0.8695558,4.008177,4.655104,10.240613,-8.51892,0.73802626,-0.6970622,0.23909369,-0.18988897,-0.6487531,-6.6198463,4.5696416,-0.09962888,-6.035277,4.1891456,3.8466928,0
0.7300000000000004,20.655343870254868,-5.6473384327097635,3.5280492903618255,3.3024575900504862,18.36204,-0.8695558,4.008177,4.655104,10.174354,-8.472617,0.7373729,-0.6729379,0.26958528,-0.18925261,-0.66231537,-6.633638,4.6920953,-0.032014012,-5.9744487,4.0863047,3.8199868,0
0.7400000000000004,20.655343870254868,-5.6473384327097635,3.5280492903618255,3.3024575900504862,18.36204,-0.8695558,4.008177,4.655104,10.107899,-8.4250555,0.73736364,-0.6479372,0.29914874,-0.18813065,-0.6747549,-6.6592355,4.8210826,0.029115394,-5.9231534,3.9994705,3.7945917,0
0.7500000000000004,20.655343870254868,-5.6473384327097635,3.5280492903618255,3.3024575900504862,18.36204,-0.8695558,4.008177,4.655104,10.041128,-8.376176,0.7379313,-0.6221044,0.32782358,-0.18656363,-0.6860843,-6.6967406,4.9554167,0.083315015,-5.879897,3.9261518,3.7704427,0
0.7600000000000005,20.129636355279334,-3.0022744726172585,0.673891351930626,2.268731630566008,19.26479,-1.0564473,3.2554913,4.1105556,9.973923,-8.3259325,0.73900473,-0.5954816,0.35563913,-0.18458486,-0.69631225,-6.746184,5.093929,0.13018939,-5.84342,3.8642447,3.7474787,0
0.7700000000000005,20.129636355279334,-3.0022744726172585,0.673891351930626,2.268731630566008,19.26479,-1.0564473,3.2554913,4.1105556,9.906172,-8.274306,0.74049133,-0.56881547,0.38123348,-0.18225583,-0.7056151,-6.805871,5.2318215,0.16598786,-5.398973,3.36805,3.674916,0
0.7800000000000005,20.129636355279334,-3.0022744726172585,0.673891351930626,2.268731630566008,19.26479,-1.0564473,3.2554913,4.1105556,9.837769,-8.221292,0.7423003,-0.542821,0.40360278,-0.17968631,-0.71425676,-6.8763347,5.3712864,0.19474527,-5.024072,2.9490201,3.605914,0
0.7900000000000005,20.129636355279334,-3.0022744726172585,0.673891351930626,2.268731630566008,19.26479,-1.0564473,3.2554913,4.1105556,9.768611,-8.16688,0.7443639,-0.5174682,0.42324474,-0.17695248,-0.7223421,-6.9567194,5.511141,0.21701592,-4.707831,2.5951586,3.540298,0
0.8000000000000005,18.93517518300416,-0.4769339870276527,-3.0676952991927005,1.5500139977314362,18.173853,-0.21128467,-0.18733989,3.1104753,9.698603,-8.111071,0.74662006,-0.4927113,0.4405752,-0.17410594,-0.7299424,-7.0462604,5.65043,0.23333867,-4.4410667,2.2963336,3.477902,0
0.8100000000000005,18.93517518300416,-0.4769339870276527,-3.0676952991927005,1.5500139977314362,18.173853,-0.21128467,-0.18733989,3.1104753,9.62766,-8.05388,0.7490089,-0.46908677,0.45472226,-0.17110164,-0.73750204,-7.1431384,5.786877,0.24316613,-3.9223273,1.5624305,3.3923988,0
0.8200000000000005,18.93517518300416,-0.4769339870276527,-3.0676952991927005,1.5500139977314362,18.173853,-0.21128467,-0.18733989,3.1104753,9.555725,-7.9953547,0.75145894,-0.44719207,0.46481118,-0.16799134,-0.7454854,-7.244231,5.9172935,0.24586095,-3.4245684,0.882764,3.3057158,0
0.8300000000000005,18.93517518300416,-0.4769339870276527,-3.0676952991927005,1.5500139977314362,18.173853,-0.21128467,-0.18733989,3.1104753,9.482762,-7.9355526,0.75390947,-0.42702356,0.47119612,-0.16492411,-0.7539396,-7.349069,6.042484,0.24387965,-2.9648728,0.26917326,3.2196872,0
0.8400000000000005,18.93517518300416,-0.4769339870276527,-3.0676952991927005,1.5500139977314362,16.22685,-0.28414333,-3.0078669,1.9792724,9.408728,-7.8745146,0.75633144,-0.4084297,0.47438332,-0.16196723,-0.7628317,-7.4585514,6.164617,0.24037847,-2.5758026,-0.2502562,3.1377559,0
0.8500000000000005,18.93517518300416,-0.4769339870276527,-3.0676952991927005,1.5500139977314362,16.22685,-0.28414333,-3.0078669,1.9792724,9.333577,-7.812271,0.7587156,-0.39120615,0.47488388,-0.15914044,-0.7720863,-7.5718355,6.283561,0.23646632,-2.2476225,-0.6888494,3.059845,0
0.8600000000000005,18.93517518300416,-0.4769339870276527,-3.0676952991927005,1.5500139977314362,16.22685,-0.28414333,-3.0078669,1.9792724,9.257278,-7.7488546,0.7610624,-0.37516728,0.47311887,-0.15644811,-0.78162134,-7.6881185,6.399192,0.23302573,-1.9707963,-1.0591824,2.985757,0
0.8700000000000006,18.93517518300416,-0.4769339870276527,-3.0676952991927005,1.5500139977314362,16.22685,-0.28414333,-3.0078669,1.9792724,9.179805,-7.6842985,0.7633803,-0.36014864,0.46943587,-0.1538849,-0.7913547,-7.8066893,6.5114517,0.23079786,-1.7372835,-1.371875,2.915305,0
0.8800000000000006,18.112526963334847,0.8888550750182113,-5.9999882414384285,1.05219612886695,15.663978,0.6617539,-5.103964,1.7213172,9.101138,-7.618637,0.76568466,-0.34600654,0.46412298,-0.15143952,-0.80120873,-7.9269114,6.620327,0.2303987,-1.540302,-1.6358961,2.8483095,0
0.8900000000000006,18.112526963334847,0.8888550750182113,-5.9999882414384285,1.05219612886695,15.663978,0.6617539,-5.103964,1.7213172,9.021285,-7.551923,0.7679791,-0.33306578,0.4563445,-0.14909124,-0.81153476,-8.043534,6.7218137,0.22860125,-1.1704565,-2.3056254,2.7611082,0
0.9000000000000006,18.112526963334847,0.8888550750182113,-5.9999882414384285,1.05219612886695,15.663978,0.6617539,-5.103964,1.7213172,8.9402685,-7.4842134,0.7702667,-0.3216146,0.44535112,-0.14686628,-0.8225915,-8.159564,6.8194866,0.22950356,-0.8484289,-2.8811336,2.6772516,0
0.9100000000000006,18.112526963334847,0.8888550750182113,-5.9999882414384285,1.05219612886695,15.663978,0.6617539,-5.103964,1.7213172,8.858096,-7.415544,0.7725834,-0.31141812,0.43158352,-0.14476483,-0.83414483,-8.274663,6.913927,0.2345387,-0.57682693,-3.3670132,2.5975094,0
0.9200000000000006,17.493267317302518,1.2867551858645934,-5.999999053179782,0.4195263413463712,15.639276,1.0009413,-5.2685504,0.7022937,8.77478,-7.3459463,0.7749741,-0.30226558,0.41542056,-0.14277343,-0.845977,-8.387908,7.0051594,0.24439791,-0.34774628,-3.7772193,2.5216804,0
0.9300000000000006,17.493267317302518,1.2867551858645934,-5.999999053179782,0.4195263413463712,15.639276,1.0009413,-5.2685504,0.7022937,8.690365,-7.275467,0.77747047,-0.29410845,0.39714473,-0.14097752,-0.8578471,-8.494644,7.0902104,0.25571245,-0.09255403,-4.123435,2.4185271,0
0.9400000000000006,17.493267317302518,1.2867551858645934,-5.999999053179782,0.4195263413463712,15.639276,1.0009413,-5.2685504,0.7022937,8.604898,-7.204152,0.78010714,-0.28690597,0.3770019,-0.1394387,-0.86954665,-8.5978985,7.172288,0.27249932,0.12272763,-4.4157524,2.3204358,0
0.9500000000000006,17.493267317302518,1.2867551858645934,-5.999999053179782,0.4195263413463712,15.639276,1.0009413,-5.2685504,0.7022937,8.518422,-7.132031,0.7829399,-0.28050217,0.35523832,-0.13810714,-0.8809374,-8.696867,7.2514825,0.29493943,0.30434746,-4.662558,2.2271576,0
0.9600000000000006,17.3129204846113,0.8875748242656342,-5.999999055189069,-0.07806130075247839,15.874139,1.285567,-5.906125,0.26801357,8.43098,-7.059132,0.7860255,-0.2747653,0.3320657,-0.13693827,-0.8918993,-8.790801,7.327866,0.32308546,0.4575745,-4.870935,2.1384568,0
0.9700000000000006,17.3129204846113,0.8875748242656342,-5.999999055189069,-0.07806130075247839,15.874139,1.285567,-5.906125,0.26801357,8.34263,-6.985487,0.7894142,-0.2695876,0.3077197,-0.13572979,-0.90233505,-8.878101,7.4007215,0.35551834,0.5245204,-5.0469556,2.0296917,0
0.9800000000000006,17.3129204846113,0.8875748242656342,-5.999999055189069,-0.07806130075247839,15.874139,1.285567,-5.906125,0.26801357,8.253439,-6.9111276,0.79315466,-0.26489204,0.28240287,-0.13431598,-0.91216224,-8.959143,7.470806,0.39338923,0.58098507,-5.195546,1.9262637,0
0.9900000000000007,17.3129204846113,0.8875748242656342,-5.999999055189069,-0.07806130075247839,15.874139,1.285567,-5.906125,0.26801357,8.16347,-6.836081,0.7973,-0.2606163,0.2562428,-0.1327111,-0.9213069,-9.033391,7.538061,0.43646675,0.62861425,-5.32098,1.8279109,0
1.0000000000000007,16.99050463952214,0.0046314400350473284,-5.999997966853351,-0.4475040427690488,16.513016,0.15371332,-5.6158037,-0.43110138,8.072797,-6.7603765,0.80190086,-0.2567065,0.22935277,-0.13092823,-0.92970794,-9.100353,7.602429,0.4844478,0.6687947,-5.4268656,1.7343842,1
1.0100000000000007,16.99050463952214,0.0046314400350473284,-5.999997966853351,-0.4475040427690488,16.513016,0.15371332,-5.6158037,-0.43110138,7.981505,-6.684057,0.80696994,-0.25307268,0.20205843,-0.1287357,-0.937312,-9.156866,7.660998,0.53000563,0.5881237,-5.4564624,1.6281232,1
1.0200000000000007,16.99050463952214,0.0046314400350473284,-5.999997966853351,-0.4475040427690488,16.513016,0.15371332,-5.6158037,-0.43110138,7.8896856,-6.6071663,0.8125145,-0.24965942,0.17463169,-0.1259508,-0.94409233,-9.205772,7.716598,0.57948047,0.5200431,-5.481418,1.5270765,1
1.0300000000000007,16.99050463952214,0.0046314400350473284,-5.999997966853351,-0.4475040427690488,16.513016,0.15371332,-5.6158037,-0.43110138,7.797416,-6.5297356,0.81857145,-0.24646701,0.14709435,-0.122652754,-0.9500386,-9.246889,7.7690735,0.63243437,0.46259043,-5.502462,1.4309881,1
1.0400000000000007,16.99050463952214,0.0046314400350473284,-5.999997966853351,-0.4475040427690488,16.729284,0.021871604,-5.8023787,-0.30188805,7.7047753,-6.4517965,0.8251735,-0.24349196,0.119468085,-0.118911095,-0.95514345,-9.280051,7.818287,0.6884113,0.4141089,-5.5202074,1.3396149,1
1.0500000000000007,16.99050463952214,0.0046314400350473284,-5.999997966853351,-0.4475040427690488,16.729284,0.021871604,-5.8023787,-0.30188805,7.611841,-6.3733788,0.83235866,-0.24071522,0.09171359,-0.114719994,-0.9594185,-9.305445,7.864712,0.7489933,0.3526859,-5.5642843,1.2590657,1
1.0600000000000007,16.99050463952214,0.0046314400350473284,-5.999997966853351,-0.4475040427690488,16.729284,0.021871604,-5.8023787,-0.30188805,7.5186944,-6.2945147,0.84016055,-0.23811585,0.06380287,-0.11007932,-0.9628667,-9.322499,7.9075603,0.8116827,0.30084634,-5.6014724,1.1824692,1
1.0700000000000007,16.99050463952214,0.0046314400350473284,-5.999997966853351,-0.4475040427690488,16.729284,0.021871604,-5.8023787,-0.30188805,7.42542,-6.2152405,0.8485979,-0.23568387,0.03577303,-0.10505402,-0.96547234,-9.331098,7.9466944,0.87598515,0.25709713,-5.6328497,1.1096314,1
1.0800000000000007,16.541650488338572,-0.933961217794174,-5.237596975572425,-0.7139373442912124,16.070051,-0.88285714,-3.322931,-0.6819686,7.332102,-6.1355944,0.8576841,-0.23340803,0.007659135,-0.09970097,-0.9672236,-9.331157,7.981999,0.941389,0.2201774,-5.659324,1.0403678,0
1.0900000000000007,16.541650488338572,-0.933961217794174,-5.237596975572425,-0.7139373442912124,16.070051,-0.88285714,-3.322931,-0.6819686,7.238826,-6.055616,0.8674184,-0.23130491,-0.02019304,-0.09375265,-0.96814275,-9.322744,8.013007,1.0055344,0.039831392,-5.593681,0.9542836,0
1.1000000000000008,16.541650488338572,-0.933961217794174,-5.237596975572425,-0.7139373442912124,16.070051,-0.88285714,-3.322931,-0.6819686,7.1456757,-5.9753475,0.87779504,-0.22940955,-0.04750542,-0.087004095,-0.9682688,-9.30602,8.039924,1.0697666,-0.11236128,-5.5382385,0.87242347,0
1.1100000000000008,16.541650488338572,-0.933961217794174,-5.237596975572425,-0.7139373442912124,16.070051,-0.88285714,-3.322931,-0.6819686,7.0527334,-5.894832,0.8888124,-0.22773069,-0.0743382,-0.07958678,-0.96761465,-9.281193,8.062555,1.133616,-0.24079488,-5.491415,0.7945803,0
1.1200000000000008,15.42188652834216,-1.7230226259838977,-2.1187219725416337,-0.7918102464297744,15.77382,-1.8051871,-1.9606525,-0.36518222,6.960079,-5.814112,0.9004645,-0.22626968,-0.1007405,-0.07161372,-0.9661907,-9.24847,8.080745,1.1966202,-0.34917736,-5.451872,0.72055686,1
1.1300000000000008,15.42188652834216,-1.7230226259838977,-2.1187219725416337,-0.7918102464297744,15.77382,-1.8051871,-1.9606525,-0.36518222,6.867781,-5.733237,0.9127033,-0.22493355,-0.1254126,-0.06313798,-0.96420425,-9.210022,8.093752,1.2509291,-0.5766681,-4.9075055,0.6672793,1
1.1400000000000008,15.42188652834216,-1.7230226259838977,-2.1187219725416337,-0.7918102464297744,15.77382,-1.8051871,-1.9606525,-0.36518222,6.7759013,-5.652252,0.925478,-0.22367908,-0.14734069,-0.054209672,-0.9619352,-9.165112,8.102458,1.3037736,-0.76860225,-4.4480033,0.61661613,1
1.1500000000000008,15.42188652834216,-1.7230226259838977,-2.1187219725416337,-0.7918102464297744,15.77382,-1.8051871,-1.9606525,-0.36518222,6.684499,-5.5712023,0.9387732,-0.22255999,-0.1669482,-0.04491304,-0.9594675,-9.114588,8.106938,1.3550218,-0.93054104,-4.0601387,0.568439,1
1.1600000000000008,14.157595143824997,-2.1796861841721467,1.3580270650318556,-0.6786814847158427,15.382639,-2.198802,1.1572344,-0.32765263,6.593626,-5.490128,0.9525726,-0.22161083,-0.18459368,-0.035318077,-0.95685214,-9.059165,8.107263,1.4045918,-1.0671749,-3.7327437,0.522626,0
1.1700000000000008,14.157595143824997,-2.1796861841721467,1.3580270650318556,-0.6786814847158427,15.382639,-2.198802,1.1572344,-0.32765263,6.503305,-5.4090695,0.9667982,-0.22085893,-0.19937292,-0.025698539,-0.9543641,-9.004758,8.103861,1.4396722,-1.2172896,-2.962602,0.46583796,0
1.1800000000000008,14.157595143824997,-2.1796861841721467,1.3580270650318556,-0.6786814847158427,15.382639,-2.198802,1.1572344,-0.32765263,6.4135375,-5.3280625,0.98135364,-0.22037885,-0.21046464,-0.016193617,-0.95229995,-8.948349,8.097103,1.4712441,-1.3676643,-2.288798,0.40967605,0
1.1900000000000008,14.157595143824997,-2.1796861841721467,1.3580270650318556,-0.6786814847158427,15.382639,-2.198802,1.1572344,-0.32765263,6.3243446,-5.2471395,0.99621934,-0.22021304,-0.21840899,-0.006767722,-0.95066166,-8.889983,8.087184,1.501744,-1.4945114,-1.7200598,0.35627005,0
1.2000000000000008,13.16941405594428,-2.139481214883019,4.010194599502856,-0.5532722541408543,13.530274,-1.7661891,2.7567258,-0.3232962,6.235742,-5.16633,1.0113858,-0.22037391,-0.22370647,0.0025807524,-0.94941235,-8.830434,8.074304,1.5314368,-1.6015174,-1.2400059,0.30548468,0
1.2100000000000009,13.16941405594428,-2.139481214883019,4.010194599502856,-0.5532722541408543,13.530274,-1.7661891,2.7567258,-0.3232962,6.147717,-5.085658,1.0268022,-0.22084932,-0.22577465,0.011607366,-0.9487446,-8.774573,8.059741,1.5517442,-1.6852175,-0.42158115,0.2633799,0
1.2200000000000009,13.16941405594428,-2.139481214883019,4.010194599502856,-0.5532722541408543,13.530274,-1.7661891,2.7567258,-0.3232962,6.060249,-5.005143,1.0424203,-0.22163185,-0.22416826,0.020121725,-0.9488007,-8.719106,8.042905,1.5718931,-1.7561722,0.2695855,0.22330654,0
1.2300000000000009,13.16941405594428,-2.139481214883019,4.010194599502856,-0.5532722541408543,13.530274,-1.7661891,2.7567258,-0.3232962,5.9733305,-4.924807,1.0582408,-0.22271788,-0.21945862,0.028195618,-0.9494416,-8.664816,8.024092,1.5922899,-1.8160136,0.8529676,0.1851996,0
1.2400000000000009,13.16941405594428,-2.139481214883019,4.010194599502856,-0.5532722541408543,12.829364,-1.3275367,4.8210826,-0.30511218,5.8869457,-4.8446674,1.0742679,-0.2240929,-0.21212271,0.03588948,-0.9505251,-8.612384,8.003558,1.6132361,-1.8664865,1.3453735,0.14896257,1
1.2500000000000009,13.16941405594428,-2.139481214883019,4.010194599502856,-0.5532722541408543,12.829364,-1.3275367,4.8210826,-0.30511218,5.8010674,-4.764738,1.0904927,-0.2256513,-0.20232327,0.042878773,-0.9520021,-8.563694,7.982113,1.6318749,-1.7824633,1.8874426,0.126681,1
1.260000000000001,13.16941405594428,-2.139481214883019,4.010194599502856,-0.5532722541408543,12.829364,-1.3275367,4.8210826,-0.30511218,5.715661,-4.685029,1.1069088,-0.22730291,-0.19020784,0.048908282,-0.95381457,-8.517933,7.95957,1.6514868,-1.7115237,2.3449717,0.105492786,1
1.270000000000001,13.16941405594428,-2.139481214883019,4.010194599502856,-0.5532722541408543,12.829364,-1.3275367,4.8210826,-0.30511218,5.6306963,-4.6055493,1.1235265,-0.22904538,-0.17612433,0.05411825,-0.9558188,-8.475584,7.9362736,1.6722225,-1.6516321,2.7311454,0.08534426,1
1.280000000000001,12.420875528805706,-1.7048708660753595,4.944237932269502,-0.5718470672174674,12.094246,-1.2761128,5.682873,0.064370885,5.5461364,-4.5263057,1.1403574,-0.23087057,-0.16036677,0.058627,-0.9578852,-8.437068,7.9125233,1.6941656,-1.6010697,3.057093,0.06618445,1
1.290000000000001,12.420875528805706,-1.7048708660753595,4.944237932269502,-0.5718470672174674,12.094246,-1.2761128,5.682873,0.064370885,5.4619308,-4.4472933,1.1573793,-0.23273966,-0.14285563,0.062441844,-0.9599612,-8.4047365,7.8899603,1.710395,-1.5504103,3.4665844,0.06609547,1
1.300000000000001,12.420875528805706,-1.7048708660753595,4.944237932269502,-0.5718470672174674,12.094246,-1.2761128,5.682873,0.064370885,5.3780265,-4.3685064,1.1745694,-0.23460925,-0.12353948,0.06557215,-0.9619755,-8.376788,7.8675013,1.727793,-1.5076485,3.8122153,0.06601085,1
1.310000000000001,12.420875528805706,-1.7048708660753595,4.944237932269502,-0.5718470672174674,12.094246,-1.2761128,5.682873,0.064370885,5.2943783,-4.289942,1.1919391,-0.23646036,-0.102688596,0.06811276,-0.9637958,-8.353605,7.8454084,1.74631,-1.471553,4.1039453,0.065930374,1
1.320000000000001,11.493725960579285,-1.1388615643192959,4.526735734670285,-0.6995389723294081,11.183313,-1.0654904,5.6502547,0.17962743,5.2109365,-4.2115955,1.2094991,-0.2382737,-0.08053525,0.070143744,-0.96530807,-8.335521,7.8239145,1.7658356,-1.4410846,4.3501797,0.06585384,0
1.330000000000001,11.493725960579285,-1.1388615643192959,4.526735734670285,-0.6995389723294081,11.183313,-1.0654904,5.6502547,0.17962743,5.127646,-4.1334553,1.2272295,-0.24008654,-0.057747114,0.0717836,-0.96637,-8.323425,7.8042464,1.7803202,-1.393847,4.3777494,0.028295793,0
1.340000000000001,11.493725960579285,-1.1388615643192959,4.526735734670285,-0.6995389723294081,11.183313,-1.0654904,5.6502547,0.17962743,5.0444503,-4.0555077,1.2451075,-0.24194606,-0.03487128,0.073134586,-0.966901,-8.316502,7.785458,1.7953901,-1.3539801,4.401016,-0.0074192667,0
1.350000000000001,11.493725960579285,-1.1388615643192959,4.526735734670285,-0.6995389723294081,11.183313,-1.0654904,5.6502547,0.17962743,4.961298,-3.977743,1.2631384,-0.24384704,-0.011930596,0.07423753,-0.9668946,-8.314765,7.7676415,1.8108152,-1.3203344,4.420651,-0.04138179,0
1.360000000000001,10.350557448547557,-0.5432208788214942,2.1785988490603,-0.8157109364229611,10.65524,-0.67656976,2.2757568,0.0351666,4.878137,-3.9001513,1.2813243,-0.24578314,0.011053727,0.07512733,-0.96634597,-8.318221,7.7508807,1.8263618,-1.2919399,4.4372215,-0.073677756,1
1.370000000000001,10.350557448547557,-0.5432208788214942,2.1785988490603,-0.8157109364229611,10.65524,-0.67656976,2.2757568,0.0351666,4.7949185,-3.8227158,1.2996238,-0.24759841,0.033153232,0.075876705,-0.965318,-8.326191,7.7363796,1.833513,-1.1960039,4.100134,-0.06833673,1
1.380000000000001,10.350557448547557,-0.5432208788214942,2.1785988490603,-0.8157109364229611,10.65524,-0.67656976,2.2757568,0.0351666,4.711598,-3.74542,1.3179935,-0.24917197,0.053633854,0.076548316,-0.96393853,-8.338637,7.7228923,1.8403658,-1.1150237,3.815616,-0.06325779,1
1.390000000000001,10.350557448547557,-0.5432208788214942,2.1785988490603,-0.8157109364229611,10.65524,-0.67656976,2.2757568,0.0351666,4.6281314,-3.6682544,1.3364296,-0.25054255,0.07274099,0.07715522,-0.962281,-8.355225,7.710371,1.8467654,-1.0466682,3.57547,-0.058428083,1
1.400000000000001,9.427484484961349,0.07892702786244502,-1.4267960715485908,-0.8647819091062907,9.630603,0.5817976,-2.1895843,0.02885411,4.5444803,-3.5912097,1.3549268,-0.25174075,0.090683036,0.07770769,-0.96039844,-8.375664,7.698773,1.852588,-0.9889694,3.3727753,-0.053835366,1
1.410000000000001,9.427484484961349,0.07892702786244502,-1.4267960715485908,-0.8647819091062907,9.630603,0.5817976,-2.1895843,0.02885411,4.460617,-3.5142713,1.3734332,-0.2527038,0.10582219,0.078197435,-0.9585552,-8.397428,7.6890197,1.8482953,-0.7488735,2.5101445,-0.04932928,1
1.420000000000001,9.427484484961349,0.07892702786244502,-1.4267960715485908,-0.8647819091062907,9.630603,0.5817976,-2.1895843,0.02885411,4.3765235,-3.4374268,1.3918899,-0.25340956,0.1168362,0.07860021,-0.9570555,-8.421588,7.679934,1.8429756,-0.5413842,1.7772164,-0.045492806,1
1.430000000000001,9.427484484961349,0.07892702786244502,-1.4267960715485908,-0.8647819091062907,9.630603,0.5817976,-2.1895843,0.02885411,4.2921786,-3.360671,1.4102912,-0.25392085,0.12437276,0.078934506,-0.95594203,-8.447528,7.671285,1.8372172,-0.36624584,1.15859,-0.041844584,1
1.440000000000001,9.427484484961349,0.07892702786244502,-1.4267960715485908,-0.8647819091062907,8.866368,1.2873384,-5.1065745,0.2358616,4.207568,-3.2840004,1.4286332,-0.25428057,0.12898104,0.079215825,-0.9552122,-8.474646,7.662917,1.8311465,-0.21841471,0.63643944,-0.038375385,0
1.450000000000001,9.427484484961349,0.07892702786244502,-1.4267960715485908,-0.8647819091062907,8.866368,1.2873384,-5.1065745,0.2358616,4.1226864,-3.2074113,1.446904,-0.2546216,0.13145573,0.079583906,-0.9547533,-8.501866,7.654868,1.8229462,-0.17204368,0.3146826,-0.07892741,0
1.460000000000001,9.427484484961349,0.07892702786244502,-1.4267960715485908,-0.8647819091062907,8.866368,1.2873384,-5.1065745,0.2358616,4.03753,-3.1309023,1.465092,-0.25506064,0.1324468,0.080150865,-0.9544517,-8.529446,7.646846,1.8146389,-0.13291733,0.043101393,-0.11748953,0
1.470000000000001,9.427484484961349,0.07892702786244502,-1.4267960715485908,-0.8647819091062907,8.866368,1.2873384,-5.1065745,0.2358616,3.952097,-3.0544744,1.4831965,-0.25560257,0.13218439,0.08088949,-0.95428073,-8.557148,7.638749,1.8062873,-0.09990206,-0.18612842,-0.1541594,0
1.480000000000001,8.831423709636866,0.31120231736538745,-5.850881219042776,-0.9367153291450084,9.323428,1.1835124,-5.695689,-0.007108569,3.8663874,-2.9781282,1.5012176,-0.25624946,0.13086222,0.08177618,-0.9542139,-8.584774,7.6304936,1.797945,-0.0720417,-0.37961093,-0.18902986,1
1.490000000000001,8.831423709636866,0.31120231736538745,-5.850881219042776,-0.9367153291450084,9.323428,1.1835124,-5.695689,-0.007108569,3.7804039,-2.901865,1.5191507,-0.25681642,0.12690806,0.082792856,-0.95450777,-8.611783,7.6220794,1.7886837,0.123666,-1.2086737,-0.18010293,1
1.500000000000001,8.831423709636866,0.31120231736538745,-5.850881219042776,-0.9367153291450084,9.323428,1.1835124,-5.695689,-0.007108569,3.6941545,-2.8256881,1.5369921,-0.25713015,0.119081244,0.083920635,-0.955333,-8.637892,7.6132183,1.7796474,0.2888769,-1.908439,-0.17161404,1
1.5100000000000011,8.831423709636866,0.31120231736538745,-5.850881219042776,-0.9367153291450084,9.323428,1.1835124,-5.695689,-0.007108569,3.6076512,-2.749603,1.5547448,-0.25720042,0.10797634,0.08513705,-0.9565254,-8.66246,7.603704,1.77098,0.4283418,-2.499072,-0.1635417,1
1.5200000000000011,7.387895372290322,0.42914280939032334,-5.999998729413925,-0.8981457223987934,9.931391,0.8213547,-6.0426173,0.23384087,3.5209122,-2.6736171,1.5724131,-0.2570296,0.094093904,0.0864205,-0.95792156,-8.684941,7.593363,1.7627678,0.54607195,-2.9975927,-0.15586548,0
1.5300000000000011,7.387895372290322,0.42914280939032334,-5.999998729413925,-0.8981457223987934,9.931391,0.8213547,-6.0426173,0.23384087,3.43398,-2.5977285,1.5899163,-0.25668016,0.07786409,0.08811298,-0.9593168,-8.701032,7.5842233,1.7376193,0.5135471,-3.4516594,-0.1910056,0
1.5400000000000011,7.387895372290322,0.42914280939032334,-5.999998729413925,-0.8981457223987934,9.931391,0.8213547,-6.0426173,0.23384087,3.3469002,-2.5219352,1.6071619,-0.25622404,0.059576914,0.090440996,-0.96053135,-8.714499,7.5743027,1.7115096,0.49992433,-3.848757,-0.22567485,0
1.5500000000000012,7.387895372290322,0.42914280939032334,-5.999998729413925,-0.8981457223987934,9.931391,0.8213547,-6.0426173,0.23384087,3.2596986,-2.4462466,1.6241474,-0.2556648,0.039512053,0.09327205,-0.96144414,-8.725368,7.56329,1.6856453,0.48874712,-4.1842504,-0.25867316,0
1.5600000000000012,6.771043687179634,0.3188786853073519,-5.999999291072026,-0.974444935418352,10.89003,1.0244006,-6.047292,-0.84019357,3.1724026,-2.3706741,1.6408753,-0.25500065,0.017944414,0.09651192,-0.96194506,-8.733414,7.5510583,1.6599535,0.4793131,-4.467423,-0.29005226,0
1.5700000000000012,6.771043687179634,0.3188786853073519,-5.999999291072026,-0.974444935418352,10.89003,1.0244006,-6.047292,-0.84019357,3.0850432,-2.2952247,1.6573163,-0.25423685,-0.0048783105,0.10012214,-0.9619332,-8.738023,7.5386395,1.6282499,0.45414555,-4.7064323,-0.32363564,0
1.5800000000000012,6.771043687179634,0.3188786853073519,-5.999999291072026,-0.974444935418352,10.89003,1.0244006,-6.047292,-0.84019357,2.997652,-2.2199059,1.6734399,-0.25337842,-0.02874251,0.10406622,-0.96132386,-8.739724,7.524937,1.5964313,0.43290606,-4.908168,-0.35557103,0
1.5900000000000012,6.771043687179634,0.3188786853073519,-5.999999291072026,-0.974444935418352,10.89003,1.0244006,-6.047292,-0.84019357,2.910259,-2.1447306,1.689244,-0.25242153,-0.05347244,0.10827141,-0.96005285,-8.738404,7.509892,1.5643291,0.41498354,-5.0784426,-0.3859394,0
1.6000000000000012,7.643723141813932,0.3232638810976134,-5.999998254771446,-0.8957182630714393,9.346982,0.35830086,-5.9004335,0.061337136,2.8228946,-2.0697126,1.704725,-0.2513618,-0.07891443,0.11267489,-0.958068,-8.733976,7.4934645,1.5317597,0.39986184,-5.2221627,-0.41481754,0
1.6100000000000012,7.643723141813932,0.3232638810976134,-5.999998254771446,-0.8957182630714393,9.346982,0.35830086,-5.9004335,0.061337136,2.735595,-1.9948775,1.719919,-0.2501852,-0.10493292,0.117221504,-0.9553302,-8.725396,7.473331,1.506888,0.38780153,-5.3434687,-0.43841547,0
1.6200000000000012,7.643723141813932,0.3232638810976134,-5.999998254771446,-0.8957182630714393,9.346982,0.35830086,-5.9004335,0.061337136,2.648399,-1.9202515,1.7348593,-0.24887833,-0.13140815,0.121864,-0.95180917,-8.71319,7.4515977,1.4810376,0.37762818,-5.4458566,-0.46085545,0
1.6300000000000012,7.643723141813932,0.3232638810976134,-5.999998254771446,-0.8957182630714393,9.346982,0.35830086,-5.9004335,0.061337136,2.5613437,-1.8458508,1.7495354,-0.24743778,-0.15823469,0.12656248,-0.94747996,-8.697338,7.4282694,1.4539711,0.36904705,-5.532277,-0.4821943,0
1.6400000000000012,7.643723141813932,0.3232638810976134,-5.999998254771446,-0.8957182630714393,8.486778,0.8805567,-5.7264752,-0.38800842,2.474465,-1.7716914,1.7639338,-0.24586023,-0.18531868,0.13128228,-0.9423241,-8.677842,7.403365,1.4254477,0.36181018,-5.6052203,-0.50248605,1
1.6500000000000012,7.643723141813932,0.3232638810976134,-5.999998254771446,-0.8957182630714393,8.486778,0.8805567,-5.7264752,-0.38800842,2.387812,-1.6978031,1.7780762,-0.24405532,-0.2125202,0.13576892,-0.93639684,-8.652179,7.3740044,1.4027145,0.4427229,-5.624155,-0.49686858,1
1.6600000000000013,7.643723141813932,0.3232638810976134,-5.999998254771446,-0.8957182630714393,8.486778,0.8805567,-5.7264752,-0.38800842,2.301435,-1.6242168,1.7919807,-0.24193847,-0.23971997,0.13982524,-0.9297575,-8.622544,7.343039,1.3778517,0.51101726,-5.6401324,-0.4915268,1
1.6700000000000013,7.643723141813932,0.3232638810976134,-5.999998254771446,-0.8957182630714393,8.486778,0.8805567,-5.7264752,-0.38800842,2.2153742,-1.5509474,1.805625,-0.23951668,-0.26686677,0.14350054,-0.9223998,-8.589001,7.3105917,1.3506235,0.5686612,-5.6536145,-0.48644713,1
1.6800000000000013,8.078582549432436,0.13148053288214268,-5.99999870812865,-0.951079599938107,12.1918955,0.92698157,-5.8204193,-1.5777856,2.129668,-1.4780096,1.8189842,-0.23679785,-0.29391378,0.14683603,-0.9143197,-8.551633,7.276784,1.3207982,0.61731535,-5.6649904,-0.4816167,0
1.6900000000000013,8.078582549432436,0.13148053288214268,-5.99999870812865,-0.951079599938107,12.1918955,0.92698157,-5.8204193,-1.5777856,2.0443444,-1.4054078,1.8320153,-0.23392835,-0.32085663,0.15014412,-0.9054199,-8.512522,7.243412,1.2849987,0.5414476,-5.7172194,-0.5046534,0
1.7000000000000013,8.078582549432436,0.13148053288214268,-5.99999870812865,-0.951079599938107,12.1918955,0.92698157,-5.8204193,-1.5777856,1.9594291,-1.3331453,1.8446741,-0.2310419,-0.34768566,0.15366367,-0.8956124,-8.470004,7.2088957,1.246275,0.47741672,-5.7613044,-0.52655965,0
1.7100000000000013,8.078582549432436,0.13148053288214268,-5.99999870812865,-0.951079599938107,12.1918955,0.92698157,-5.8204193,-1.5777856,1.8749555,-1.2612336,1.85693,-0.22812754,-0.3743518,0.15732735,-0.8849104,-8.424233,7.173272,1.2043954,0.4233767,-5.798516,-0.5473909,0
1.7200000000000013,8.99116086794467,-0.13649574333224554,-5.999996319814108,-0.8790632123992205,13.017465,0.683464,-4.0316997,-1.7439424,1.7909552,-1.1896836,1.8687505,-0.22517458,-0.4008096,0.161078,-0.873328,-8.3753805,7.136593,1.1591406,0.37776917,-5.8299255,-0.56719995,0
1.7300000000000013,8.99116086794467,-0.13649574333224554,-5.999996319814108,-0.8790632123992205,13.017465,0.683464,-4.0316997,-1.7439424,1.7074867,-1.1185265,1.8801287,-0.2222089,-0.42699128,0.1649639,-0.8608648,-8.317782,7.0946603,1.1158682,0.29750147,-5.8564215,-0.5825032,0
1.7400000000000013,8.99116086794467,-0.13649574333224554,-5.999996319814108,-0.8790632123992205,13.017465,0.683464,-4.0316997,-1.7439424,1.6246096,-1.047794,1.8910534,-0.21925183,-0.4528375,0.16901976,-0.8475251,-8.257189,7.0516763,1.0683914,0.22975564,-5.8787885,-0.5970555,0
1.7500000000000013,8.99116086794467,-0.13649574333224554,-5.999996319814108,-0.8790632123992205,13.017465,0.683464,-4.0316997,-1.7439424,1.5423523,-0.9774963,1.9014814,-0.21628675,-0.4783187,0.17318249,-0.8333299,-8.193846,7.007704,1.0165092,0.17257847,-5.8976703,-0.61089367,0
1.7600000000000013,8.62119587504759,-0.2355416773434924,-0.8653627209727681,-0.7829943799798296,15.350058,0.82612526,-1.6142166,-1.8516974,1.4607412,-0.907643,1.9113677,-0.21329823,-0.50340635,0.17739868,-0.81830025,-8.12801,6.96282,0.9600381,0.124321565,-5.91361,-0.6240528,0
1.7700000000000014,8.62119587504759,-0.2355416773434924,-0.8653627209727681,-0.7829943799798296,15.350058,0.82612526,-1.6142166,-1.8516974,1.3797863,-0.8382337,1.9206583,-0.21065511,-0.52641535,0.18122937,-0.803534,-8.062715,6.9189644,0.89740276,0.06928147,-5.127104,-0.6317785,0
1.7800000000000014,8.62119587504759,-0.2355416773434924,-0.8653627209727681,-0.7829943799798296,15.350058,0.82612526,-1.6142166,-1.8516974,1.2994925,-0.76926583,1.9293014,-0.20869163,-0.5461123,0.18436167,-0.79007566,-7.995804,6.8745236,0.83059484,0.021995958,-4.462468,-0.6391987,0
1.7900000000000014,8.62119587504759,-0.2355416773434924,-0.8653627209727681,-0.7829943799798296,15.350058,0.82612526,-1.6142166,-1.8516974,1.2198745,-0.70074487,1.9372578,-0.2073318,-0.5630747,0.1869137,-0.77783245,-7.927616,6.8295894,0.7601132,-0.017951587,-3.9014845,-0.6462548,0
1.8000000000000014,8.52412698248539,-0.34995709190550817,5.226899626392871,-0.6441645680390281,14.021038,0.21829796,3.7667527,-1.7156588,1.1409434,-0.63267535,1.9444926,-0.20650254,-0.5777759,0.18898073,-0.76669264,-7.858457,6.7842526,0.6863711,-0.051700506,-3.4279888,-0.6529646,0
1.8100000000000014,8.52412698248539,-0.34995709190550817,5.226899626392871,-0.6441645680390281,14.021038,0.21829796,3.7667527,-1.7156588,1.0627856,-0.5651118,1.9509999,-0.20648795,-0.58915997,0.19026883,-0.75766134,-7.7741017,6.729125,0.61428285,-0.08271839,-2.2733274,-0.6511919,0
1.8200000000000014,8.52412698248539,-0.34995709190550817,5.226899626392871,-0.6441645680390281,14.021038,0.21829796,3.7667527,-1.7156588,0.9854397,-0.4980785,1.9567634,-0.20757374,-0.5962291,0.19049832,-0.751754,-7.6960545,6.6781626,0.5378435,-0.108817436,-1.2115126,-0.64949524,0
1.8300000000000014,8.52412698248539,-0.34995709190550817,5.226899626392871,-0.6441645680390281,14.021038,0.21829796,3.7667527,-1.7156588,0.9088438,-0.43153515,1.961747,-0.20968394,-0.59941125,0.18975636,-0.74881965,-7.6239414,6.6310234,0.45853496,-0.13265012,-0.23715419,-0.64803183,0
1.8400000000000014,8.52412698248539,-0.34995709190550817,5.226899626392871,-0.6441645680390281,11.835383,0.028193213,5.419892,-1.6029059,0.83295304,-0.3654533,1.9659312,-0.21274674,-0.5991162,0.18816252,-0.7485941,-7.5542297,6.585334,0.37828994,-0.16617951,0.61497617,-0.64784205,0
1.8500000000000014,8.52412698248539,-0.34995709190550817,5.226899626392871,-0.6441645680390281,11.835383,0.028193213,5.419892,-1.6029059,0.75775874,-0.29982874,1.9693143,-0.21663393,-0.5958397,0.18584676,-0.7506701,-7.4846754,6.5395694,0.29846123,-0.19453636,1.3342148,-0.64766157,0
1.8600000000000014,8.52412698248539,-0.34995709190550817,5.226899626392871,-0.6441645680390281,11.835383,0.028193213,5.419892,-1.6029059,0.68325853,-0.234662,1.9719039,-0.22120075,-0.59001696,0.18290244,-0.75465006,-7.4154177,6.4937778,0.2196605,-0.2185184,1.9412868,-0.64749,0
1.8700000000000014,8.52412698248539,-0.34995709190550817,5.226899626392871,-0.6441645680390281,11.835383,0.028193213,5.419892,-1.6029059,0.6094489,-0.16995306,1.9737128,-0.22631936,-0.5819997,0.17940508,-0.76017725,-7.346587,6.4480186,0.14239956,-0.2388004,2.4536848,-0.6473268,0
1.8800000000000014,5.660742415925279,-0.24020447416379825,5.999999680184533,-0.6583076450119651,8.140314,-0.7788443,5.7826443,-0.87597036,0.53632486,-0.10570127,1.9747585,-0.23187788,-0.57207525,0.1754169,-0.7669363,-7.278313,6.4023643,0.06710337,-0.25595316,2.8861732,-0.6471716,0
1.8900000000000015,5.660742415925279,-0.24020447416379825,5.999999680184533,-0.6583076450119651,8.140314,-0.7788443,5.7826443,-0.87597036,0.46376655,-0.041828714,1.9750211,-0.23780839,-0.5602518,0.17088234,-0.77483165,-7.2334332,6.372174,-0.014308972,-0.25329134,3.3717716,-0.647718,0
1.9000000000000015,5.660742415925279,-0.24020447416379825,5.999999680184533,-0.6583076450119651,8.140314,-0.7788443,5.7826443,-0.87597036,0.39165428,0.021742918,1.9744784,-0.24404556,-0.54653573,0.16575553,-0.78375083,-7.1891146,6.342192,-0.09394113,-0.25107646,3.7816415,-0.6482377,0
1.9100000000000015,5.660742415925279,-0.24020447416379825,5.999999680184533,-0.6583076450119651,8.140314,-0.7788443,5.7826443,-0.87597036,0.31998193,0.08501617,1.9731491,-0.25050172,-0.5311438,0.1600985,-0.79341257,-7.1454697,6.312513,-0.17159095,-0.24923381,4.127592,-0.6487318,0
1.9200000000000015,4.136941095142602,-0.3974351372141882,5.999999836688974,-0.9453307781048685,6.312683,0.09039234,5.5869575,-1.2343516,0.24874215,0.14799458,1.971054,-0.25710064,-0.51426005,0.15396519,-0.8035735,-7.1026144,6.2832355,-0.24710232,-0.24770091,4.419593,-0.6492017,0
1.9300000000000015,4.136941095142602,-0.3974351372141882,5.999999836688974,-0.9453307781048685,6.312683,0.09039234,5.5869575,-1.2343516,0.1778705,0.21072103,1.9681822,-0.26383322,-0.49603683,0.14743334,-0.81400406,-7.0718813,6.2621546,-0.32700086,-0.26982555,4.66499,-0.6636324,0
1.9400000000000015,4.136941095142602,-0.3974351372141882,5.999999836688974,-0.9453307781048685,6.312683,0.09039234,5.5869575,-1.2343516,0.10730174,0.2732393,1.9645196,-0.27069685,-0.47659776,0.14057232,-0.8245101,-7.0419936,6.2415757,-0.40524244,-0.28959236,4.873195,-0.6774554,0
1.9500000000000015,4.136941095142602,-0.3974351372141882,5.999999836688974,-0.9453307781048685,6.312683,0.09039234,5.5869575,-1.2343516,0.03702765,0.33555436,1.9600834,-0.2776299,-0.45606527,0.13340986,-0.8349417,-7.0129676,6.22152,-0.48174733,-0.30628967,5.0489297,-0.69060016,0
1.9600000000000015,5.230794295147372,-0.7007753761560647,5.999999867007777,-1.1545703619763963,5.970297,-0.5565941,5.553288,-1.3658328,-0.032960914,0.39767176,1.9548907,-0.28457874,-0.4345486,0.12597121,-0.8451706,-6.984902,6.202066,-0.5565045,-0.3203949,5.1972575,-0.70309985,1
1.9700000000000015,5.230794295147372,-0.7007753761560647,5.999999867007777,-1.1545703619763963,5.970297,-0.5565941,5.553288,-1.3658328,-0.10261378,0.45955613,1.9490143,-0.29154718,-0.41228625,0.11836344,-0.8549912,-6.94592,6.174971,-0.618411,-0.3570934,5.2528048,-0.7356203,1
1.9800000000000015,5.230794295147372,-0.7007753761560647,5.999999867007777,-1.1545703619763963,5.970297,-0.5565941,5.553288,-1.3658328,-0.17188498,0.52117485,1.942531,-0.2985452,-0.38948402,0.11067653,-0.8642472,-6.908587,6.1489515,-0.6778733,-0.3880763,5.299688,-0.76654506,1
1.9900000000000015,5.230794295147372,-0.7007753761560647,5.999999867007777,-1.1545703619763963,5.970297,-0.5565941,5.553288,-1.3658328,-0.2407916,0.58253914,1.935465,-0.30553797,-0.36618915,0.10290996,-0.8729039,-6.8730187,6.1240964,-0.73497635,-0.4142344,5.3392577,-0.79595226,1
2.0000000000000013,,,,,5.2396216,-1.0669402,5.7613935,-2.0876071,-0.3093518,0.6436611,1.9278393,-0.31249493,-0.34244522,0.09506489,-0.8809316,-6.8393245,6.100494,-0.789818,-0.43632022,5.372655,-0.82391655,0
2.010000000000001,,,,,5.2396216,-1.0669402,5.7613935,-2.0876071,-0.37754756,0.7045275,1.9197285,-0.31938308,-0.3180899,0.08721586,-0.8883729,-6.80022,6.073045,-0.8319207,-0.50136733,5.470524,-0.8228711,0
2.020000000000001,,,,,5.2396216,-1.0669402,5.7613935,-2.0876071,-0.44536516,0.76512814,1.9112095,-0.3261551,-0.2929937,0.079423316,-0.89524806,-6.7637153,6.047356,-0.87149096,-0.55627847,5.5531244,-0.8218769,0
2.0300000000000007,,,,,5.2396216,-1.0669402,5.7613935,-2.0876071,-0.5128314,0.82548106,1.9023069,-0.33276787,-0.26724187,0.07167128,-0.9015044,-6.7299657,6.023534,-0.90866756,-0.6026333,5.6228395,-0.82093143,0
2.0400000000000005,,,,,5.2396216,-1.0669402,5.7613935,-2.0876071,-0.5799745,0.8856055,1.8930439,-0.33918512,-0.24091181,0.06394756,-0.90709716,-6.699113,6.0016823,-0.9436108,-0.6417645,5.681678,-0.8200324,0
2.0500000000000003,,,,,6.5862155,-0.4483522,5.6460094,-1.254184,-0.646824,0.94552183,1.8834418,-0.34537637,-0.21407422,0.056243096,-0.91198885,-6.6712837,5.9819026,-0.97649974,-0.67479837,5.731337,-0.8191775,1
2.06,,,,,6.5862155,-0.4483522,5.6460094,-1.254184,-0.71342415,1.0052606,1.8734851,-0.35132718,-0.18698342,0.048441127,-0.91611105,-6.649186,5.9661484,-1.0145979,-0.6394118,5.7180204,-0.84052336,1
2.07,,,,,6.5862155,-0.4483522,5.6460094,-1.254184,-0.7798175,1.0648519,1.8631549,-0.35704282,-0.15985283,0.040451158,-0.9194187,-6.6299367,5.9524236,-1.0512342,-0.60954684,5.7067823,-0.86082184,1
2.0799999999999996,,,,,6.5862155,-0.4483522,5.6460094,-1.254184,-0.84603274,1.1243163,1.8524648,-0.36252463,-0.13268818,0.03230346,-0.92191416,-6.6135607,5.94081,-1.0866154,-0.5843423,5.697298,-0.8801243,1
2.0899999999999994,,,,,9.3716,0.03807589,5.660939,-0.6616418,-0.9120986,1.1836756,1.8414263,-0.36777207,-0.105497405,0.024025086,-0.9235996,-6.6000767,5.9313803,-1.1209506,-0.5630712,5.689294,-0.89847946,1
2.099999999999999,,,,,9.3716,0.03807589,5.660939,-0.6616418,-0.9780208,1.2429358,1.8301852,-0.37269676,-0.0783553,0.015465617,-0.92450947,-6.5850143,5.921168,-1.1271306,-0.4693684,5.684814,-0.8868578,1
2.109999999999999,,,,,9.3716,0.03807589,5.660939,-0.6616418,-1.0438129,1.3021104,1.8188868,-0.37722412,-0.051326595,0.006506957,-0.9246754,-6.574044,5.91428,-1.1324263,-0.3902761,5.681042,-0.8758064,1
2.1199999999999988,,,,,9.3716,0.03807589,5.660939,-0.6616418,-1.1095157,1.3612332,1.8075385,-0.38136956,-0.024408132,-0.0027841611,-0.9240958,-6.5671163,5.9108267,-1.1371424,-0.32351562,5.677867,-0.86529726,1
2.1299999999999986,,,,,11.616205,0.35416046,5.627314,-0.21313976,-1.1751691,1.4203391,1.7961448,-0.38514444,0.0023998492,-0.012349907,-0.92277014,-6.564176,5.910898,-1.1415845,-0.26716405,5.6751933,-0.85530376,1
2.1399999999999983,,,,,11.616205,0.35416046,5.627314,-0.21313976,-1.2408131,1.4794674,1.7848189,-0.38850775,0.029032018,-0.022251874,-0.92071867,-6.5653925,5.9154477,-1.1236326,-0.17038947,5.667669,-0.8237926,1
2.149999999999998,,,,,11.616205,0.35416046,5.627314,-0.21313976,-1.3064932,1.5386637,1.7736707,-0.3914241,0.055432245,-0.03253642,-0.9179624,-6.571352,5.9245477,-1.1060957,-0.088700235,5.66133,-0.79382765,1
2.159999999999998,,,,,11.616205,0.35416046,5.627314,-0.21313976,-1.3722559,1.5979742,1.7626941,-0.39390793,0.08160867,-0.04313598,-0.9145026,-6.581924,5.9382696,-1.0893471,-0.019744199,5.6559896,-0.7653331,1
2.1699999999999977,,,,,13.091782,0.24750349,5.7603016,0.36690724,-1.438147,1.6574451,1.7518796,-0.3959706,0.107565306,-0.053992122,-0.9103412,-6.5969725,5.9566574,-1.073756,0.038463965,5.6514893,-0.73823684,1
2.1799999999999975,,,,,13.091782,0.24750349,5.7603016,0.36690724,-1.5042222,1.7171376,1.7412851,-0.3975476,0.13336381,-0.06504457,-0.9055046,-6.6188264,5.9826603,-1.0454383,0.070871405,5.6684456,-0.68400705,1
2.1899999999999973,,,,,13.091782,0.24750349,5.7603016,0.36690724,-1.5705398,1.7771163,1.7309635,-0.39857584,0.15904781,-0.0762452,-0.900015,-6.6454396,6.0139403,-1.0192465,0.09823255,5.6827617,-0.63243836,1
2.199999999999997,,,,,13.091782,0.24750349,5.7603016,0.36690724,-1.6371468,1.8374343,1.7208915,-0.3990669,0.18459174,-0.08756298,-0.89386994,-6.676674,6.0504675,-0.99558693,0.12133409,5.694848,-0.5834002,1
