time-since-start [s],throttle_mpc,roll_mpc,pitch_mpc,yaw_mpc,throttle_nw,roll_nw,pitch_nw,yaw_nw,position_x [m],position_y [m],position_z [m],rotation_w [quaternion],rotation_x [quaternion],rotation_y [quaternion],rotation_z [quaternion],velocity_x [m/s],velocity_y [m/s],velocity_z [m/s],omega_x [rad/s],omega_y [rad/s],omega_z [rad/s],network_used
0.0,9.009758671018895,5.583257206908764,-4.6062521915671,0.8793777462775102,15.715073,2.4043813,2.1669693,-0.41390237,14.050671,-11.717693,2.7995865,0.45034352,-0.19878946,0.27561137,0.82565844,-8.169218,-1.5358164,3.0769887,1.2222406,-0.517088,-0.112690255,0
0.01,9.009758671018895,5.583257206908764,-4.6062521915671,0.8793777462775102,7.8630934,2.5335846,2.4474783,0.705377,13.968945,-11.732765,2.8302124,0.4534164,-0.19187938,0.28009716,0.82410043,-8.175892,-1.4786199,3.0481808,1.9023274,-1.1547816,-0.0640092,0
0.02,9.009758671018895,5.583257206908764,-4.6062521915671,0.8793777462775102,7.8630934,2.5335846,2.4474783,0.705377,13.88716,-11.747265,2.8605504,0.4576581,-0.18104315,0.28584138,0.822233,-8.180671,-1.4213344,3.0194545,2.4763942,-1.6929866,-0.017716937,0
0.03,9.009758671018895,5.583257206908764,-4.6062521915671,0.8793777462775102,7.8630934,2.5335846,2.4474783,0.705377,13.805341,-11.761192,2.890602,0.46279657,-0.1668579,0.29260036,0.8199773,-8.182843,-1.3640912,2.9908915,2.9609635,-2.1472301,0.026303759,0
0.04,9.009758671018895,5.583257206908764,-4.6062521915671,0.8793777462775102,10.403461,3.3934555,1.3058103,-0.4366242,13.723515,-11.774548,2.920369,0.46858758,-0.14980976,0.30015814,0.817244,-8.181808,-1.3070403,2.9625106,3.3699841,-2.530615,0.06816435,0
0.05,9.009758671018895,5.583257206908764,-4.6062521915671,0.8793777462775102,10.403461,3.3934555,1.3058103,-0.4366242,13.641717,-11.7873335,2.9498527,0.4748152,-0.13031173,0.30832472,0.8139442,-8.177062,-1.2503536,2.9342706,3.7152307,-2.8541982,0.10797082,0
0.060000000000000005,9.009758671018895,5.583257206908764,-4.6062521915671,0.8793777462775102,10.403461,3.3934555,1.3058103,-0.4366242,13.559988,-11.799556,2.9790542,0.4812906,-0.1087175,0.3169336,0.8099956,-8.168188,-1.1942225,2.906075,4.0066442,-3.127311,0.14582397,0
0.07,9.009758671018895,5.583257206908764,-4.6062521915671,0.8793777462775102,10.403461,3.3934555,1.3058103,-0.4366242,13.478369,-11.81122,3.0079734,0.48784995,-0.08533249,0.32583925,0.80532575,-8.154848,-1.1388557,2.8777778,4.252617,-3.3578281,0.18181966,0
0.08,11.207343669560347,4.8235151252105135,-3.963897980562871,0.7823833192045662,11.851732,3.2345226,2.218861,-0.69210756,13.396907,-11.822336,3.0366087,0.49435222,-0.060422353,0.3349148,0.7998731,-8.136777,-1.0844758,2.84919,4.4602313,-3.552395,0.21604902,0
0.09,11.207343669560347,4.8235151252105135,-3.963897980562871,0.7823833192045662,11.851732,3.2345226,2.218861,-0.69210756,13.315678,-11.832849,3.0650399,0.5005875,-0.03458015,0.34393662,0.79367745,-8.108188,-1.0183432,2.8369176,4.5169597,-3.616479,0.2438392,0
0.09999999999999999,11.207343669560347,4.8235151252105135,-3.963897980562871,0.7823833192045662,11.851732,3.2345226,2.218861,-0.69210756,13.234765,-11.84271,3.093344,0.5064062,-0.00829793,0.3527345,0.7868051,-8.073443,-0.95397675,2.8237112,4.5648384,-3.6705725,0.27026573,0
0.10999999999999999,11.207343669560347,4.8235151252105135,-3.963897980562871,0.7823833192045662,11.851732,3.2345226,2.218861,-0.69210756,13.15423,-11.851935,3.12151,0.51177806,0.018344048,0.36127773,0.77924657,-8.032585,-0.8916154,2.8092694,4.6052475,-3.716234,0.2953955,0
0.11999999999999998,11.207343669560347,4.8235151252105135,-3.963897980562871,0.7823833192045662,11.851732,3.2345226,2.218861,-0.69210756,13.074134,-11.860549,3.1495242,0.51667786,0.045272894,0.3695391,0.7709963,-7.9856887,-0.83149165,2.7932842,4.6393523,-3.7547781,0.31929213,0
0.12999999999999998,12.989072913071357,2.9204595643453986,-1.9020895327287515,0.06019456265892099,13.990843,2.6091402,2.3123581,-0.12508968,12.994536,-11.868572,3.1773694,0.521085,0.07242204,0.3774947,0.762052,-7.9328656,-0.7738299,2.775445,4.668135,-3.7873151,0.3420162,0
0.13999999999999999,12.989072913071357,2.9204595643453986,-1.9020895327287515,0.06019456265892099,13.990843,2.6091402,2.3123581,-0.12508968,12.915542,-11.875989,3.205088,0.5248105,0.09867442,0.38499138,0.7527411,-7.864997,-0.71006906,2.767874,4.395489,-3.4934156,0.3281871,0
0.15,12.989072913071357,2.9204595643453986,-1.9020895327287515,0.06019456265892099,13.990843,2.6091402,2.3123581,-0.12508968,12.837256,-11.882784,3.2327173,0.5277732,0.1231472,0.3919546,0.7434125,-7.791017,-0.649376,2.757586,4.165378,-3.2453341,0.31503662,0
0.16,14.181257961246281,0.8042855844906343,0.14915514199574498,-1.0812547513092445,12.240015,2.1572094,4.242395,-1.3041897,12.75974,-11.888988,3.2602298,0.5300962,0.14610179,0.39846596,0.7340829,-7.7115026,-0.5916737,2.7444322,3.9711661,-3.0359285,0.30253142,0
0.17,14.181257961246281,0.8042855844906343,0.14915514199574498,-1.0812547513092445,12.240015,2.1572094,4.242395,-1.3041897,12.6831,-11.89459,3.2876513,0.53181684,0.1668493,0.40446216,0.7250813,-7.61604,-0.5297393,2.7389634,3.5278883,-2.5902421,0.23920493,0
0.18000000000000002,14.181257961246281,0.8042855844906343,0.14915514199574498,-1.0812547513092445,12.240015,2.1572094,4.242395,-1.3041897,12.607426,-11.899597,3.314989,0.5329962,0.18468033,0.40990686,0.716788,-7.5184073,-0.47232193,2.7278485,3.1130643,-2.1733067,0.17533807,0
0.19000000000000003,14.181257961246281,0.8042855844906343,0.14915514199574498,-1.0812547513092445,12.240015,2.1572094,4.242395,-1.3041897,12.532743,-11.904046,3.3421965,0.53376377,0.19987328,0.41490725,0.70922446,-7.417533,-0.41776508,2.7131553,2.7528963,-1.8112727,0.11367669,0
0.20000000000000004,15.041698759401026,-1.258409127464723,1.421549173826046,-1.2416105976942553,15.346317,0.5016303,5.9825416,-1.2268205,12.459086,-11.907961,3.369243,0.5342378,0.21282129,0.41956756,0.70232505,-7.3133698,-0.36529055,2.6957138,2.4489307,-1.505662,0.055041056,0
0.21000000000000005,15.041698759401026,-1.258409127464723,1.421549173826046,-1.2416105976942553,15.346317,0.5016303,5.9825416,-1.2268205,12.38653,-11.911338,3.396135,0.53450346,0.22317776,0.42368433,0.69641197,-7.1980305,-0.31054163,2.6819403,1.8971368,-1.075685,-0.0061851535,0
0.22000000000000006,15.041698759401026,-1.258409127464723,1.421549173826046,-1.2416105976942553,15.346317,0.5016303,5.9825416,-1.2268205,12.315126,-11.914181,3.4228687,0.53462756,0.23053513,0.42709285,0.6918228,-7.082427,-0.25810182,2.664528,1.4050047,-0.6862973,-0.06680782,0
0.23000000000000007,15.041698759401026,-1.258409127464723,1.421549173826046,-1.2416105976942553,15.346317,0.5016303,5.9825416,-1.2268205,12.244886,-11.916504,3.4494195,0.5346786,0.23530199,0.42993358,0.68841064,-6.965261,-0.20655662,2.6454222,0.9896467,-0.35759988,-0.124455735,0
0.24000000000000007,15.041698759401026,-1.258409127464723,1.421549173826046,-1.2416105976942553,16.671434,-1.2428539,6.2949743,-0.4451334,12.175824,-11.918314,3.4757726,0.5347065,0.23787846,0.43232062,0.68600434,-6.847062,-0.15548274,2.625076,0.63908285,-0.08013773,-0.17927484,0
0.25000000000000006,15.041698759401026,-1.258409127464723,1.421549173826046,-1.2416105976942553,16.671434,-1.2428539,6.2949743,-0.4451334,12.107946,-11.919614,3.5019178,0.53474295,0.23859859,0.43434206,0.68444717,-6.728264,-0.10451598,2.603882,0.34320217,0.15407182,-0.23140398,0
0.26000000000000006,15.041698759401026,-1.258409127464723,1.421549173826046,-1.2416105976942553,16.671434,-1.2428539,6.2949743,-0.4451334,12.041258,-11.9204035,3.5278485,0.5348072,0.23774175,0.43606624,0.68359834,-6.609222,-0.053344794,2.5821748,0.09347259,0.35176834,-0.28097513,0
0.2700000000000001,15.041698759401026,-1.258409127464723,1.421549173826046,-1.2416105976942553,16.671434,-1.2428539,6.2949743,-0.4451334,11.9757595,-11.920678,3.5535605,0.5349102,0.23554215,0.43754646,0.6833334,-6.4902353,-0.0017039124,2.560237,-0.117306314,0.518642,-0.3281138,0
0.2800000000000001,16.303419867066026,-3.2100700249611407,2.576348117293095,-1.2908438223105034,17.331774,-1.9200819,5.885402,0.08310844,11.911451,-11.920434,3.5790532,0.53505754,0.23219645,0.43882447,0.6835436,-6.3715568,0.05063167,2.5383053,-0.2952115,0.6594962,-0.37293932,0
0.2900000000000001,16.303419867066026,-3.2100700249611407,2.576348117293095,-1.2908438223105034,17.331774,-1.9200819,5.885402,0.08310844,11.848375,-11.91964,3.6043594,0.5352311,0.22713298,0.43964696,0.6845797,-6.2435327,0.10834537,2.5230234,-0.74968165,0.9585598,-0.41798115,0
0.3000000000000001,16.303419867066026,-3.2100700249611407,2.576348117293095,-1.2908438223105034,17.331774,-1.9200819,5.885402,0.08310844,11.786575,-11.9182625,3.629516,0.5354027,0.2199028,0.43980595,0.68670076,-6.1165943,0.16741201,2.5084546,-1.1332757,1.2109885,-0.46081278,0
0.3100000000000001,16.303419867066026,-3.2100700249611407,2.576348117293095,-1.2908438223105034,17.331774,-1.9200819,5.885402,0.08310844,11.726037,-11.9162855,3.6545324,0.53555554,0.21082246,0.43938816,0.68969035,-5.9912453,0.22819284,2.4950464,-1.4570494,1.424051,-0.5015426,0
0.3200000000000001,18.075049513856868,-4.561990238951402,3.337421526262244,-1.113572414780172,17.50754,-2.9633255,6.132387,0.23759353,11.666742,-11.9136915,3.6794221,0.53567,0.20015825,0.4384616,0.6933587,-5.8679376,0.2909855,2.483152,-1.730333,1.6038836,-0.5402739,0
0.3300000000000001,18.075049513856868,-4.561990238951402,3.337421526262244,-1.113572414780172,17.50754,-2.9633255,6.132387,0.23759353,11.608735,-11.910423,3.7042494,0.53568083,0.18764228,0.43686116,0.6978462,-5.7339835,0.36312023,2.4826326,-2.1717992,1.8744226,-0.56840575,0
0.34000000000000014,18.075049513856868,-4.561990238951402,3.337421526262244,-1.113572414780172,17.50754,-2.9633255,6.132387,0.23759353,11.552052,-11.906419,3.7290833,0.5355108,0.17307039,0.43444267,0.70323175,-5.603434,0.4381189,2.4845352,-2.5444272,2.1027584,-0.59515727,0
0.35000000000000014,18.075049513856868,-4.561990238951402,3.337421526262244,-1.113572414780172,17.50754,-2.9633255,6.132387,0.23759353,11.496654,-11.901649,3.7539499,0.5351229,0.15673707,0.431282,0.7092766,-5.476965,0.5162874,2.489212,-2.8589525,2.2954724,-0.6205961,0
0.36000000000000015,19.447733399732115,-5.1475280350635355,3.650534579264855,-0.9082247046340294,17.750633,-4.031272,6.0184526,0.11558884,11.442496,-11.896081,3.778878,0.53448313,0.13889359,0.42744035,0.71577346,-5.355209,0.59785175,2.4968948,-3.1244361,2.45812,-0.6447866,0
0.37000000000000016,19.447733399732115,-5.1475280350635355,3.650534579264855,-0.9082247046340294,17.750633,-4.031272,6.0184526,0.11558884,11.389576,-11.8896475,3.8039396,0.53351927,0.119550765,0.42286178,0.72267085,-5.229936,0.6894381,2.515992,-3.439836,2.644238,-0.65771353,0
0.38000000000000017,19.447733399732115,-5.1475280350635355,3.650534579264855,-0.9082247046340294,17.750633,-4.031272,6.0184526,0.11558884,11.337876,-11.882278,3.8292098,0.53215647,0.098731585,0.4174961,0.72990346,-5.111117,0.7849991,2.5385804,-3.70606,2.8013132,-0.6700062,0
0.3900000000000002,19.447733399732115,-5.1475280350635355,3.650534579264855,-0.9082247046340294,17.750633,-4.031272,6.0184526,0.11558884,11.28733,-11.873933,3.8547235,0.5303645,0.07665447,0.41139755,0.7372856,-4.999469,0.88461757,2.56468,-3.9307761,2.9338768,-0.6816957,0
0.4000000000000002,19.348484465362603,-4.775194135359858,3.326972569800892,-0.7094666783347304,16.24685,-2.6998563,6.3895655,0.25238326,11.237861,-11.864572,3.8805153,0.5281186,0.053509574,0.40461308,0.7446584,-4.895661,0.9883004,2.594204,-4.120456,3.0457532,-0.69281155,0
0.4100000000000002,19.348484465362603,-4.775194135359858,3.326972569800892,-0.7094666783347304,16.24685,-2.6998563,6.3895655,0.25238326,11.189384,-11.8541565,3.9066155,0.52542835,0.029648738,0.39722684,0.75183594,-4.8007874,1.0954291,2.6263003,-4.222541,3.0896573,-0.6936288,0
0.4200000000000002,19.348484465362603,-4.775194135359858,3.326972569800892,-0.7094666783347304,16.24685,-2.6998563,6.3895655,0.25238326,11.141813,-11.84265,3.9330513,0.5223093,0.0053672837,0.38931745,0.7586808,-4.714788,1.2063642,2.6613386,-4.3087087,3.1267073,-0.6944059,0
0.4300000000000002,19.348484465362603,-4.775194135359858,3.326972569800892,-0.7094666783347304,16.24685,-2.6998563,6.3895655,0.25238326,11.0950575,-11.830016,3.9598508,0.51875293,-0.019255696,0.3809161,0.76513267,-4.638059,1.3208854,2.6989791,-4.381441,3.1579733,-0.695145,0
0.4400000000000002,19.348484465362603,-4.775194135359858,3.326972569800892,-0.7094666783347304,15.282581,-1.9792311,6.7733006,0.39524835,11.04902,-11.816219,3.9870384,0.51475394,-0.044149257,0.37205118,0.77114046,-4.570956,1.4387438,2.7388444,-4.4428334,3.1843588,-0.69584775,0
0.45000000000000023,19.348484465362603,-4.775194135359858,3.326972569800892,-0.7094666783347304,15.282581,-1.9792311,6.7733006,0.39524835,11.003604,-11.801229,4.0146337,0.5103095,-0.06924946,0.36274856,0.77666116,-4.513793,1.5596645,2.780523,-4.494653,3.2066247,-0.696516,0
0.46000000000000024,19.348484465362603,-4.775194135359858,3.326972569800892,-0.7094666783347304,15.282581,-1.9792311,6.7733006,0.39524835,10.958708,-11.785016,4.042653,0.50541925,-0.09449835,0.35303217,0.7816586,-4.466839,1.68335,2.8235776,-4.5383935,3.2254148,-0.6971514,0
0.47000000000000025,19.348484465362603,-4.775194135359858,3.326972569800892,-0.7094666783347304,15.282581,-1.9792311,6.7733006,0.39524835,10.91423,-11.767553,4.071108,0.5000842,-0.11984317,0.34292418,0.7861023,-4.430321,1.8094835,2.867548,-4.575314,3.2412713,-0.6977557,0
0.48000000000000026,18.539232918946375,-3.7948536309868848,2.670616409950334,-0.5598751919684049,15.071318,-1.3933831,6.445278,0.38846415,10.870066,-11.748819,4.100005,0.49430722,-0.14523558,0.33244523,0.7899668,-4.4044223,1.9377314,2.911957,-4.606478,3.2546523,-0.69833034,0
0.49000000000000027,18.539232918946375,-3.7948536309868848,2.670616409950334,-0.5598751919684049,15.071318,-1.3933831,6.445278,0.38846415,10.826102,-11.728821,4.129317,0.48822862,-0.17022543,0.32180133,0.79315853,-4.3898754,2.062303,2.9503572,-4.479962,3.1634948,-0.6915363,0
0.5000000000000002,18.539232918946375,-3.7948536309868848,2.670616409950334,-0.5598751919684049,15.071318,-1.3933831,6.445278,0.38846415,10.782233,-11.707569,4.15901,0.4819841,-0.19445795,0.31117365,0.7956437,-4.3854322,2.1881964,2.988248,-4.373167,3.086564,-0.6850757,0
0.5100000000000002,18.539232918946375,-3.7948536309868848,2.670616409950334,-0.5598751919684049,15.071318,-1.3933831,6.445278,0.38846415,10.738359,-11.685053,4.1890783,0.47556868,-0.2180208,0.30054548,0.7974799,-4.39085,2.3150594,3.0252006,-4.2830205,3.02164,-0.6789321,0
0.5200000000000002,16.57343089370731,-2.3367998256139058,1.7217087081097115,-0.4797900368410724,13.511267,-0.44333333,6.033124,1.0095273,10.694384,-11.661264,4.2195096,0.468977,-0.24098703,0.2899024,0.7987133,-4.405896,2.4425642,3.0608134,-4.206927,2.9668484,-0.6730899,0
0.5300000000000002,16.57343089370731,-2.3367998256139058,1.7217087081097115,-0.4797900368410724,13.511267,-0.44333333,6.033124,1.0095273,10.650222,-11.636269,4.250219,0.46245486,-0.2628414,0.27952644,0.7993218,-4.427702,2.5568478,3.080723,-3.9153838,2.7725172,-0.6636046,0
0.5400000000000003,16.57343089370731,-2.3367998256139058,1.7217087081097115,-0.4797900368410724,13.511267,-0.44333333,6.033124,1.0095273,10.605803,-11.610128,4.2811184,0.45622537,-0.28319377,0.26965642,0.79934067,-4.457335,2.6711848,3.0988643,-3.6692908,2.6085162,-0.65458477,0
0.5500000000000003,16.57343089370731,-2.3367998256139058,1.7217087081097115,-0.4797900368410724,13.511267,-0.44333333,6.033124,1.0095273,10.56105,-11.582845,4.3121896,0.45024753,-0.30226803,0.26021942,0.7988726,-4.494234,2.7853746,3.1150572,-3.4615624,2.4701111,-0.64600754,0
0.5600000000000003,14.306265147245677,-0.6692195036842717,0.7854506907183538,-0.3940209121757068,12.836212,-0.15798365,4.3215494,1.464315,10.515895,-11.554421,4.3434124,0.44448164,-0.32025257,0.25115097,0.7979962,-4.53791,2.899252,3.1291554,-3.286218,2.3533068,-0.6378512,0
0.5700000000000003,14.306265147245677,-0.6692195036842717,0.7854506907183538,-0.3940209121757068,12.836212,-0.15798365,4.3215494,1.464315,10.4703045,-11.524939,4.37469,0.43919685,-0.33671176,0.24276666,0.7967409,-4.5810485,2.9971702,3.1260056,-2.8782165,2.1086087,-0.6258863,0
0.5800000000000003,14.306265147245677,-0.6692195036842717,0.7854506907183538,-0.3940209121757068,12.836212,-0.15798365,4.3215494,1.464315,10.424258,-11.494478,4.405926,0.43462494,-0.35132456,0.23532254,0.79517037,-4.629003,3.0946662,3.1209643,-2.533823,1.9021035,-0.61450857,0
0.5900000000000003,14.306265147245677,-0.6692195036842717,0.7854506907183538,-0.3940209121757068,12.836212,-0.15798365,4.3215494,1.464315,10.37771,-11.463046,4.437103,0.43067455,-0.36438838,0.22868295,0.7933757,-4.681162,3.191739,3.114088,-2.2431214,1.7278299,-0.60368913,0
0.6000000000000003,11.733537001711658,0.8376910697751577,-0.17924568967857493,-0.30714166714593455,11.588266,1.6275266,2.98093,1.2639529,10.330623,-11.430645,4.468202,0.4272617,-0.3761514,0.22272998,0.7914222,-4.737012,3.288404,3.1054442,-1.9977405,1.5807565,-0.59340066,0
0.6100000000000003,11.733537001711658,0.8376910697751577,-0.17924568967857493,-0.30714166714593455,11.588266,1.6275266,2.98093,1.2639529,10.283012,-11.397366,4.4991274,0.4246188,-0.38625818,0.21767919,0.7893792,-4.78546,3.3673778,3.0793366,-1.5556746,1.3060999,-0.57935387,0
0.6200000000000003,11.733537001711658,0.8376910697751577,-0.17924568967857493,-0.30714166714593455,11.588266,1.6275266,2.98093,1.2639529,10.234906,-11.363298,4.5297856,0.4229336,-0.3944454,0.21369885,0.7873202,-4.836036,3.4461157,3.0520148,-1.1825275,1.0743098,-0.56599635,0
0.6300000000000003,11.733537001711658,0.8376910697751577,-0.17924568967857493,-0.30714166714593455,11.588266,1.6275266,2.98093,1.2639529,10.186286,-11.328444,4.560165,0.42207068,-0.40102434,0.21062905,0.78528434,-4.8882504,3.5247052,3.0236628,-0.8675548,0.8786951,-0.5532943,0
0.6400000000000003,11.733537001711658,0.8376910697751577,-0.17924568967857493,-0.30714166714593455,10.920223,2.9129896,1.7908019,1.0337617,10.137136,-11.292804,4.590256,0.42190972,-0.40625337,0.20833227,0.78329325,-4.9416943,3.6032286,2.994449,-0.6016877,0.7136092,-0.5412155,0
0.6500000000000004,11.733537001711658,0.8376910697751577,-0.17924568967857493,-0.30714166714593455,10.920223,2.9129896,1.7908019,1.0337617,10.087448,-11.256379,4.6200514,0.42234495,-0.41034725,0.20669085,0.7813571,-4.9960303,3.6817605,2.964524,-0.377271,0.57428694,-0.5297294,0
0.6600000000000004,11.733537001711658,0.8376910697751577,-0.17924568967857493,-0.30714166714593455,10.920223,2.9129896,1.7908019,1.0337617,10.037212,-11.219169,4.6495447,0.42328423,-0.4134849,0.20560443,0.77947915,-5.0509753,3.7603679,2.934022,-0.18784222,0.45670712,-0.518807,0
0.6700000000000004,11.733537001711658,0.8376910697751577,-0.17924568967857493,-0.30714166714593455,10.920223,2.9129896,1.7908019,1.0337617,9.986426,-11.181171,4.6787305,0.42464784,-0.4158158,0.2049877,0.77765787,-5.106294,3.8391075,2.9030597,-0.027946796,0.35747626,-0.50842047,0
0.6800000000000004,10.209188282945378,1.7873401673241485,-0.7293580104967683,-0.20060193214839087,9.165173,4.0050263,0.8442977,1.0053005,9.935086,-11.1423855,4.707605,0.4263672,-0.41746497,0.20476821,0.77588934,-5.161788,3.9180284,2.8717391,0.10701956,0.2737307,-0.49854362,0
0.6900000000000004,10.209188282945378,1.7873401673241485,-0.7293580104967683,-0.20060193214839087,9.165173,4.0050263,0.8442977,1.0053005,9.883227,-11.10286,4.736121,0.4285772,-0.41820136,0.20509061,0.77418816,-5.210063,3.986894,2.8315167,0.3690128,0.11721792,-0.48392352,0
0.7000000000000004,10.209188282945378,1.7873401673241485,-0.7293580104967683,-0.20060193214839087,9.165173,4.0050263,0.8442977,1.0053005,9.830886,-11.062646,4.7642345,0.43137932,-0.41784516,0.20606536,0.7725637,-5.2580924,4.056016,2.7911925,0.59015876,-0.014869582,-0.47002083,0
0.7100000000000004,10.209188282945378,1.7873401673241485,-0.7293580104967683,-0.20060193214839087,9.165173,4.0050263,0.8442977,1.0053005,9.778067,-11.021739,4.791945,0.43467304,-0.4165608,0.20758934,0.7710016,-5.305641,4.12545,2.7508905,0.7768256,-0.1263441,-0.45680034,0
0.7200000000000004,8.911812674245507,2.46447089250277,-0.9865415107238128,-0.11920456933794582,9.248676,3.9126594,0.40347862,0.76939654,9.724775,-10.980136,4.819253,0.4383721,-0.4144859,0.20957509,0.7694867,-5.352512,4.19524,2.7107148,0.93438864,-0.22042309,-0.44422862,0
0.7300000000000004,8.911812674245507,2.46447089250277,-0.9865415107238128,-0.11920456933794582,9.248676,3.9126594,0.40347862,0.76939654,9.671048,-10.937877,4.8461237,0.4425284,-0.41153505,0.21211548,0.767994,-5.3926744,4.2565026,2.6633675,1.1729729,-0.33995575,-0.4282796,0
0.7400000000000004,8.911812674245507,2.46447089250277,-0.9865415107238128,-0.11920456933794582,9.248676,3.9126594,0.40347862,0.76939654,9.616924,-10.895003,4.872522,0.44717464,-0.40764263,0.21527863,0.7664971,-5.43189,4.318147,2.6162968,1.3743573,-0.44083318,-0.41311318,0
0.7500000000000004,8.911812674245507,2.46447089250277,-0.9865415107238128,-0.11920456933794582,9.248676,3.9126594,0.40347862,0.76939654,9.562414,-10.851512,4.8984513,0.45221657,-0.40294155,0.21896242,0.7649798,-5.4699697,4.380209,2.5695798,1.5443422,-0.5259674,-0.398691,0
0.7600000000000005,8.313144843452642,2.661173457628823,-0.8499515617101242,-0.023248812452141818,9.119165,3.628713,0.24386978,0.5777035,9.507529,-10.807397,4.9239154,0.45757365,-0.39754364,0.22308025,0.76342714,-5.50675,4.4427075,2.5232775,1.6878223,-0.5978159,-0.3849765,0
0.7700000000000005,8.313144843452642,2.661173457628823,-0.8499515617101242,-0.023248812452141818,9.119165,3.628713,0.24386978,0.5777035,9.452296,-10.762677,4.948901,0.46318716,-0.39154604,0.22764847,0.7617913,-5.539714,4.5014257,2.4739242,1.8396133,-0.63715315,-0.36722645,0
0.7800000000000005,8.313144843452642,2.661173457628823,-0.8499515617101242,-0.023248812452141818,9.119165,3.628713,0.24386978,0.5777035,9.396741,-10.717367,4.9733953,0.46900392,-0.38502923,0.2326764,0.7600328,-5.5712023,4.5605764,2.4250205,1.9677346,-0.6703479,-0.35034737,0
0.7900000000000005,8.313144843452642,2.661173457628823,-0.8499515617101242,-0.023248812452141818,9.119165,3.628713,0.24386978,0.5777035,9.3408785,-10.671463,4.997403,0.4749686,-0.37805822,0.23808657,0.7581503,-5.6010995,4.6201677,2.3765755,2.075877,-0.69835997,-0.33429655,0
0.8000000000000005,7.608566692414527,2.4780744652811153,-0.8420684468695793,0.014505104252572844,8.110502,3.1178958,0.8561511,-0.58178306,9.284725,-10.624962,5.020929,0.48103455,-0.3706884,0.24381308,0.75614244,-5.629303,4.6801972,2.328591,2.1671555,-0.72199893,-0.31903332,0
0.8100000000000005,7.608566692414527,2.4780744652811153,-0.8420684468695793,0.014505104252572844,8.110502,3.1178958,0.8561511,-0.58178306,9.22831,-10.577884,5.0439553,0.48713142,-0.36300388,0.24974804,0.7540274,-5.6534867,4.7355285,2.2767768,2.2156472,-0.74071014,-0.30266652,0
0.8200000000000005,7.608566692414527,2.4780744652811153,-0.8420684468695793,0.014505104252572844,8.110502,3.1178958,0.8561511,-0.58178306,9.17166,-10.53025,5.066466,0.49320307,-0.35507563,0.25580364,0.75182235,-5.675986,4.791227,2.2253702,2.256577,-0.7565021,-0.2871028,0
0.8300000000000005,7.608566692414527,2.4780744652811153,-0.8420684468695793,0.014505104252572844,8.110502,3.1178958,0.8561511,-0.58178306,9.114796,-10.482058,5.0884643,0.49923232,-0.34692955,0.2619552,0.74952435,-5.696755,4.8472633,2.1743586,2.2911243,-0.7698305,-0.27230278,0
0.8400000000000005,7.608566692414527,2.4780744652811153,-0.8420684468695793,0.014505104252572844,7.7084103,2.6698136,1.0397534,-0.5086534,9.057732,-10.433304,5.109955,0.50520486,-0.338588,0.2681816,0.7471313,-5.7157545,4.9036074,2.1237261,2.3202844,-0.7810799,-0.25822905,0
0.8500000000000005,7.608566692414527,2.4780744652811153,-0.8420684468695793,0.014505104252572844,7.7084103,2.6698136,1.0397534,-0.5086534,9.000487,-10.3839855,5.1309404,0.5111089,-0.33007038,0.2744647,0.7446413,-5.7329507,4.9602246,2.0734544,2.344897,-0.79057485,-0.24484591,0
0.8600000000000005,7.608566692414527,2.4780744652811153,-0.8420684468695793,0.014505104252572844,7.7084103,2.6698136,1.0397534,-0.5086534,8.94308,-10.334099,5.1514254,0.51693475,-0.3213935,0.2807889,0.742053,-5.7483134,5.017081,2.0235221,2.3656714,-0.79858893,-0.23211949,0
0.8700000000000006,7.608566692414527,2.4780744652811153,-0.8420684468695793,0.014505104252572844,7.7084103,2.6698136,1.0397534,-0.5086534,8.885527,-10.283643,5.1714115,0.5226744,-0.31257194,0.2871408,0.73936516,-5.761816,5.0741386,1.973907,2.383206,-0.80535334,-0.22001754,0
0.8800000000000006,7.402215185381336,1.9456026525781112,-0.301541419388976,0.08214566695486686,7.7361217,2.8207474,0.24118832,-0.29743308,8.827849,-10.232615,5.190904,0.52832115,-0.30361846,0.29350874,0.7365769,-5.7734365,5.131361,1.9245847,2.398006,-0.8110632,-0.20850945,1
0.8900000000000006,7.402215185381336,1.9456026525781112,-0.301541419388976,0.08214566695486686,7.7361217,2.8207474,0.24118832,-0.29743308,8.770064,-10.18101,5.2099085,0.5338113,-0.29480177,0.30020174,0.7334962,-5.783317,5.1896815,1.8763399,2.4639525,-0.6469811,-0.21287294,1
0.9000000000000006,7.402215185381336,1.9456026525781112,-0.301541419388976,0.08214566695486686,7.7361217,2.8207474,0.24118832,-0.29743308,8.712191,-10.12882,5.2284317,0.53909284,-0.28633508,0.30746466,0.72997046,-5.791242,5.2481685,1.8282492,2.5196123,-0.50848615,-0.21702231,1
0.9100000000000006,7.402215185381336,1.9456026525781112,-0.301541419388976,0.08214566695486686,7.7361217,2.8207474,0.24118832,-0.29743308,8.654246,-10.076046,5.2464743,0.54417706,-0.27815405,0.31520087,0.7260511,-5.7971926,5.306858,1.780195,2.5665896,-0.39158806,-0.22096808,1
0.9200000000000006,7.222462417709945,1.195678966681939,0.011503001866547253,0.12317074871046617,7.564675,2.5165596,0.20030713,-0.013037473,8.596253,-10.022683,5.264036,0.5490737,-0.27020475,0.32332766,0.7217803,-5.8011513,5.3657737,1.7320726,2.606239,-0.2929189,-0.22472024,0
0.9300000000000006,7.222462417709945,1.195678966681939,0.011503001866547253,0.12317074871046617,7.564675,2.5165596,0.20030713,-0.013037473,8.538231,-9.96875,5.281099,0.5536126,-0.26271865,0.33127096,0.717462,-5.8029943,5.4209933,1.6804862,2.3862727,-0.24538559,-0.20764911,0
0.9400000000000006,7.222462417709945,1.195678966681939,0.011503001866547253,0.12317074871046617,7.564675,2.5165596,0.20030713,-0.013037473,8.480199,-9.914263,5.297645,0.5576728,-0.2558836,0.33858296,0.7133628,-5.8031034,5.476398,1.628717,2.2006078,-0.2052753,-0.1914157,0
0.9500000000000006,7.222462417709945,1.195678966681939,0.011503001866547253,0.12317074871046617,7.564675,2.5165596,0.20030713,-0.013037473,8.422175,-9.859221,5.3136725,0.5613265,-0.24959789,0.34536695,0.7094614,-5.801618,5.5319505,1.576746,2.043896,-0.1714285,-0.17597884,0
0.9600000000000006,7.791152035283903,0.12744710989737698,0.38281266225305666,0.20094847272256433,6.54177,2.1300461,1.463796,0.24050814,8.364173,-9.803624,5.3291793,0.5646333,-0.24377464,0.3517089,0.7057367,-5.7986574,5.587623,1.5245589,1.9116217,-0.1428669,-0.16129947,0
0.9700000000000006,7.791152035283903,0.12744710989737698,0.38281266225305666,0.20094847272256433,6.54177,2.1300461,1.463796,0.24050814,8.306209,-9.747447,5.3441806,0.56748134,-0.23868354,0.35746655,0.70229125,-5.793996,5.6477857,1.4757413,1.6333901,-0.060839124,-0.14352387,0
0.9800000000000006,7.791152035283903,0.12744710989737698,0.38281266225305666,0.20094847272256433,6.54177,2.1300461,1.463796,0.24050814,8.248298,-9.690667,5.3586926,0.5697894,-0.23453636,0.36253574,0.6992144,-5.7880616,5.7080474,1.4266661,1.3985454,0.008385606,-0.12662052,0
0.9900000000000007,7.791152035283903,0.12744710989737698,0.38281266225305666,0.20094847272256433,6.54177,2.1300461,1.463796,0.24050814,8.190452,-9.633285,5.372713,0.57164264,-0.23118572,0.36703217,0.6964664,-5.781051,5.768409,1.3773258,1.2003225,0.06680638,-0.11054661,0
1.0000000000000007,8.419317080599383,-0.7773325314638,0.4256871339908339,0.2606828004120476,7.96964,1.2994088,1.9232557,0.37026784,8.13268,-9.575298,5.386239,0.5731108,-0.22850612,0.37105176,0.69400996,-5.7731285,5.8288736,1.3277165,1.0330107,0.11610989,-0.09526145,0
1.0100000000000007,8.419317080599383,-0.7773325314638,0.4256871339908339,0.2606828004120476,7.96964,1.2994088,1.9232557,0.37026784,8.074995,-9.516684,5.3992867,0.574158,-0.22660808,0.37443486,0.6919466,-5.763746,5.8943324,1.2817272,0.7506898,0.16441448,-0.07779517,0
1.0200000000000007,8.419317080599383,-0.7773325314638,0.4256871339908339,0.2606828004120476,7.96964,1.2994088,1.9232557,0.37026784,8.017407,-9.457413,5.4118733,0.57475984,-0.22557397,0.3770604,0.6903572,-5.753755,5.9599156,1.2354685,0.5123954,0.20517763,-0.061185967,0
1.0300000000000007,8.419317080599383,-0.7773325314638,0.4256871339908339,0.2606828004120476,7.96964,1.2994088,1.9232557,0.37026784,7.9599214,-9.397486,5.4239955,0.57498324,-0.22526692,0.37905216,0.6891797,-5.7433634,6.025629,1.1889652,0.311262,0.23957737,-0.045391776,0
1.0400000000000007,8.419317080599383,-0.7773325314638,0.4256871339908339,0.2606828004120476,8.2800865,0.0039968956,1.9334918,0.63030404,7.9025407,-9.3369,5.435652,0.5748828,-0.22557075,0.380513,0.68835866,-5.732745,6.0914803,1.1422396,0.14149451,0.2686076,-0.030372595,0
1.0500000000000007,8.419317080599383,-0.7773325314638,0.4256871339908339,0.2606828004120476,8.2800865,0.0039968956,1.9334918,0.63030404,7.845267,-9.275655,5.4468393,0.57450354,-0.22638698,0.38152865,0.687845,-5.7220473,6.157477,1.0953107,-0.0017984994,0.29310694,-0.016090421,0
1.0600000000000007,8.419317080599383,-0.7773325314638,0.4256871339908339,0.2606828004120476,8.2800865,0.0039968956,1.9334918,0.63030404,7.7881,-9.21375,5.4575567,0.5738828,-0.22763231,0.38217056,0.6875958,-5.711394,6.2236247,1.0481952,-0.12274509,0.31378305,-0.0025090694,0
1.0700000000000007,8.419317080599383,-0.7773325314638,0.4256871339908339,0.2606828004120476,8.2800865,0.0039968956,1.9334918,0.63030404,7.7310386,-9.151182,5.467803,0.573052,-0.22923635,0.38249847,0.6875735,-5.7008896,6.2899294,1.0009067,-0.22483039,0.3312326,0.010405837,0
1.0800000000000007,10.220642886709443,-1.7298411523126511,0.6379964652626386,0.39814028694968745,9.045372,0.033254992,1.2464427,0.844796,7.6740813,-9.087951,5.477575,0.5720372,-0.23113966,0.3825624,0.6877457,-5.690623,6.356395,0.9534564,-0.3109956,0.3459598,0.022687001,0
1.0900000000000007,10.220642886709443,-1.7298411523126511,0.6379964652626386,0.39814028694968745,9.045372,0.033254992,1.2464427,0.844796,7.617236,-9.023984,5.4869256,0.5707277,-0.23356184,0.3821943,0.6882198,-5.678556,6.437281,0.9166589,-0.53226924,0.39149332,0.041110598,0
1.1000000000000008,10.220642886709443,-1.7298411523126511,0.6379964652626386,0.39814028694968745,9.045372,0.033254992,1.2464427,0.844796,7.5605087,-8.959206,5.4959073,0.5690323,-0.23667215,0.38126203,0.6890776,-5.66708,6.518378,0.8796964,-0.7190358,0.42992225,0.05863015,0
1.1100000000000008,10.220642886709443,-1.7298411523126511,0.6379964652626386,0.39814028694968745,9.045372,0.033254992,1.2464427,0.844796,7.503892,-8.893616,5.504519,0.56699735,-0.24035637,0.37985185,0.6902576,-5.6563935,6.599693,0.842586,-0.87667656,0.46235597,0.07529002,0
1.1200000000000008,11.49650240302503,-2.3974945207229417,0.5575770424136738,0.5093835834699358,9.62977,-0.77272105,0.88018,0.8882075,7.4473777,-8.827211,5.5127587,0.5646614,-0.24451792,0.37803587,0.69170624,-5.646665,6.681229,0.80533934,-1.0097334,0.48973018,0.09113237,0
1.1300000000000008,11.49650240302503,-2.3974945207229417,0.5575770424136738,0.5093835834699358,9.62977,-0.77272105,0.88018,0.8882075,7.3909607,-8.759939,5.5206637,0.5619933,-0.24919817,0.37567452,0.693493,-5.6369724,6.77319,0.7755484,-1.2261615,0.5002817,0.11165609,0
1.1400000000000008,11.49650240302503,-2.3974945207229417,0.5575770424136738,0.5093835834699358,9.62977,-0.77272105,0.88018,0.8882075,7.3346334,-8.691747,5.52827,0.55896485,-0.25442296,0.37265846,0.6956674,-5.6287513,6.865373,0.7456498,-1.4088372,0.5091857,0.1311727,0
1.1500000000000008,11.49650240302503,-2.3974945207229417,0.5575770424136738,0.5093835834699358,9.62977,-0.77272105,0.88018,0.8882075,7.2783804,-8.622632,5.5355763,0.55560964,-0.26009616,0.3690839,0.6981584,-5.622214,6.957747,0.71567523,-1.5630248,0.5167002,0.14973162,0
1.1600000000000008,12.367668282485576,-2.8205874332370326,0.3516006661583039,0.5887327849184743,8.13,-1.1144924,-0.12044884,0.73733455,7.222183,-8.552591,5.542583,0.55195624,-0.26613647,0.36503184,0.7009049,-5.6175394,7.050274,0.68564534,-1.6931664,0.5230427,0.16737986,0
1.1700000000000008,12.367668282485576,-2.8205874332370326,0.3516006661583039,0.5887327849184743,8.13,-1.1144924,-0.12044884,0.73733455,7.166024,-8.48159,5.5493145,0.5480062,-0.27250677,0.36040846,0.7039427,-5.6146865,7.149929,0.6607318,-1.8689909,0.49626222,0.18805575,0
1.1800000000000008,12.367668282485576,-2.8205874332370326,0.3516006661583039,0.5887327849184743,8.13,-1.1144924,-0.12044884,0.73733455,7.109882,-8.409593,5.555797,0.54375756,-0.2791716,0.3551418,0.70729446,-5.614198,7.249625,0.63581604,-2.017395,0.4736583,0.20771709,0
1.1900000000000008,12.367668282485576,-2.8205874332370326,0.3516006661583039,0.5887327849184743,8.13,-1.1144924,-0.12044884,0.73733455,7.053732,-8.336598,5.562031,0.53922874,-0.2860698,0.3493241,0.71089333,-5.6162505,7.349276,0.61093414,-2.1426554,0.4545806,0.22641365,0
1.2000000000000008,12.648951878870836,-2.821146396777749,-0.1289139067246331,0.6586824627917063,8.428951,-1.2323651,-1.4297727,0.60841614,6.997548,-8.262608,5.568016,0.53443587,-0.2931499,0.34303334,0.7146816,-5.6209884,7.4487944,0.58610755,-2.2483814,0.43847945,0.24419276,0
1.2100000000000009,12.648951878870836,-2.821146396777749,-0.1289139067246331,0.6586824627917063,8.428951,-1.2323651,-1.4297727,0.60841614,6.9413013,-8.187612,5.5737615,0.52945256,-0.30022794,0.33623546,0.7186718,-5.628702,7.5503435,0.5630222,-2.3376944,0.3499497,0.26453188,0
1.2200000000000009,12.648951878870836,-2.821146396777749,-0.1289139067246331,0.6586824627917063,8.428951,-1.2323651,-1.4297727,0.60841614,6.884963,-8.111602,5.5792775,0.5243368,-0.30715516,0.328909,0.7228733,-5.6393685,7.651528,0.54006755,-2.413079,0.27522781,0.28387296,0
1.2300000000000009,12.648951878870836,-2.821146396777749,-0.1289139067246331,0.6586824627917063,8.428951,-1.2323651,-1.4297727,0.60841614,6.8285027,-8.034583,5.5845647,0.51908123,-0.31393892,0.3211315,0.7272358,-5.6530485,7.7522097,0.5172994,-2.476708,0.21216066,0.30226502,0
1.2400000000000009,12.648951878870836,-2.821146396777749,-0.1289139067246331,0.6586824627917063,8.548643,-1.2776295,-2.3902924,0.6158383,6.7718916,-7.95656,5.589625,0.5136805,-0.32058567,0.3129684,0.7317159,-5.6697903,7.8522577,0.4947565,-2.5304146,0.15893096,0.3197545,0
1.2500000000000009,12.648951878870836,-2.821146396777749,-0.1289139067246331,0.6586824627917063,8.548643,-1.2776295,-2.3902924,0.6158383,6.7150974,-7.8775406,5.594461,0.50813115,-0.32710126,0.304475,0.7362763,-5.6896296,7.951548,0.47246325,-2.5757463,0.114004284,0.33638582,0
1.260000000000001,12.648951878870836,-2.821146396777749,-0.1289139067246331,0.6586824627917063,8.548643,-1.2776295,-2.3902924,0.6158383,6.658089,-7.797532,5.599076,0.50243104,-0.33349073,0.29569817,0.7408846,-5.7125907,8.049961,0.450432,-2.614009,0.07608613,0.352201,0
1.270000000000001,12.648951878870836,-2.821146396777749,-0.1289139067246331,0.6586824627917063,8.548643,-1.2776295,-2.3902924,0.6158383,6.6008353,-7.7165446,5.6034713,0.49657932,-0.33975863,0.28667757,0.7455129,-5.73869,8.147382,0.42866495,-2.646305,0.04408329,0.36724016,0
1.280000000000001,12.78285964762453,-2.571928843594278,-0.5596820824700293,0.6354684367377956,7.7201743,-0.95765907,-2.3712642,0.98889107,6.5433044,-7.6345882,5.6076503,0.49057606,-0.3459089,0.2774469,0.75013727,-5.7679343,8.2437,0.40715584,-2.6735654,0.017073134,0.38154134,0
1.290000000000001,12.78285964762453,-2.571928843594278,-0.5596820824700293,0.6354684367377956,7.7201743,-0.95765907,-2.3712642,0.98889107,6.485464,-7.55167,5.6116195,0.48450682,-0.35176793,0.2680248,0.7547686,-5.8006573,8.339814,0.38671198,-2.6576924,-0.07288927,0.39400166,0
1.300000000000001,12.78285964762453,-2.571928843594278,-0.5596820824700293,0.6354684367377956,7.7201743,-0.95765907,-2.3712642,0.98889107,6.4272804,-7.467797,5.6153855,0.47844085,-0.35719946,0.25843018,0.75941896,-5.836489,8.434581,0.36655223,-2.6442971,-0.14882126,0.40585053,0
1.310000000000001,12.78285964762453,-2.571928843594278,-0.5596820824700293,0.6354684367377956,7.7201743,-0.95765907,-2.3712642,0.98889107,6.368723,-7.382983,5.6189523,0.47235748,-0.3622573,0.24868943,0.7640694,-5.875356,8.527877,0.3467099,-2.632993,-0.21291128,0.41711795,0
1.320000000000001,12.748288957744167,-2.1124152010998527,-1.1041772706990716,0.5830326563271493,8.084879,-0.3142375,-3.1251469,0.62691164,6.309763,-7.2972445,5.6223216,0.4662399,-0.3669869,0.2388245,0.76870304,-5.917189,8.619593,0.3272066,-2.6234534,-0.26700562,0.42783248,0
1.330000000000001,12.748288957744167,-2.1124152010998527,-1.1041772706990716,0.5830326563271493,8.084879,-0.3142375,-3.1251469,0.62691164,6.25037,-7.210598,5.625497,0.46019927,-0.37117568,0.22889227,0.7733396,-5.9617867,8.709379,0.3078501,-2.543719,-0.3975527,0.4354482,0
1.340000000000001,12.748288957744167,-2.1124152010998527,-1.1041772706990716,0.5830326563271493,8.084879,-0.3142375,-3.1251469,0.62691164,6.1905184,-7.123063,5.628481,0.45432505,-0.37465948,0.21894187,0.77800006,-6.009114,8.797376,0.28892013,-2.476424,-0.50774306,0.44269022,0
1.350000000000001,12.748288957744167,-2.1124152010998527,-1.1041772706990716,0.5830326563271493,8.084879,-0.3142375,-3.1251469,0.62691164,6.13018,-7.0346575,5.6312776,0.44857556,-0.37753886,0.20897901,0.7826703,-6.0590124,8.883482,0.270488,-2.4196277,-0.6007511,0.44957688,0
1.360000000000001,12.73357983956664,-1.5233038016581095,-1.4322998596445986,0.47137681737055154,7.8092213,0.70645857,-4.355927,-0.44431564,6.06933,-6.9454,5.6338925,0.4429159,-0.3798986,0.19900773,0.7873368,-6.111342,8.967608,0.2526092,-2.3716922,-0.67925626,0.4561256,0
1.370000000000001,12.73357983956664,-1.5233038016581095,-1.4322998596445986,0.47137681737055154,7.8092213,0.70645857,-4.355927,-0.44431564,6.0079455,-6.855313,5.6363316,0.437444,-0.381606,0.18915397,0.7919855,-6.1658998,9.049583,0.23523857,-2.2393513,-0.7966547,0.45687398,0
1.380000000000001,12.73357983956664,-1.5233038016581095,-1.4322998596445986,0.47137681737055154,7.8092213,0.70645857,-4.355927,-0.44431564,5.946005,-6.7644157,5.6386,0.4322396,-0.38256273,0.17951952,0.79661036,-6.2225447,9.129451,0.21854043,-2.127654,-0.89575094,0.45758566,0
1.390000000000001,12.73357983956664,-1.5233038016581095,-1.4322998596445986,0.47137681737055154,7.8092213,0.70645857,-4.355927,-0.44431564,5.883488,-6.6727304,5.6407046,0.42725098,-0.38288057,0.17007363,0.80120826,-6.2810717,9.207172,0.2025845,-2.0333805,-0.97939813,0.45826238,0
1.400000000000001,12.016699660130628,-0.8943364123037174,-1.9655816533291766,0.33996508860059677,10.127192,0.0075882897,-5.4354997,0.017033309,5.820378,-6.5802794,5.642654,0.42243454,-0.38265345,0.16078933,0.8057747,-6.3413057,9.282713,0.18742639,-1.9538128,-1.050005,0.4589059,0
1.410000000000001,12.016699660130628,-0.8943364123037174,-1.9655816533291766,0.33996508860059677,10.127192,0.0075882897,-5.4354997,0.017033309,5.756674,-6.487105,5.6444325,0.4178971,-0.3816851,0.15175053,0.81034,-6.3995976,9.351913,0.16840191,-1.7885498,-1.1927323,0.45306945,0
1.420000000000001,12.016699660130628,-0.8943364123037174,-1.9655816533291766,0.33996508860059677,10.127192,0.0075882897,-5.4354997,0.017033309,5.692381,-6.393249,5.6460257,0.41372213,-0.37982523,0.14302394,0.8149304,-6.4591117,9.41901,0.15027407,-1.649067,-1.3132108,0.44751936,0
1.430000000000001,12.016699660130628,-0.8943364123037174,-1.9655816533291766,0.33996508860059677,10.127192,0.0075882897,-5.4354997,0.017033309,5.6274877,-6.2987323,5.647442,0.40984416,-0.37720796,0.13456385,0.8195334,-6.519623,9.4839945,0.13313703,-1.5313425,-1.414908,0.4422416,0
1.440000000000001,12.016699660130628,-0.8943364123037174,-1.9655816533291766,0.33996508860059677,10.462954,0.6579371,-5.931205,-0.33555943,5.561985,-6.2035766,5.648692,0.40620807,-0.37394598,0.12633066,0.82413626,-6.580937,9.546855,0.117066056,-1.4319819,-1.5007519,0.43722287,0
1.450000000000001,12.016699660130628,-0.8943364123037174,-1.9655816533291766,0.33996508860059677,10.462954,0.6579371,-5.931205,-0.33555943,5.495866,-6.107803,5.6497874,0.40276742,-0.37013397,0.11829025,0.8287263,-6.642883,9.607581,0.10211978,-1.3481207,-1.5732137,0.43245038,0
1.460000000000001,12.016699660130628,-0.8943364123037174,-1.9655816533291766,0.33996508860059677,10.462954,0.6579371,-5.931205,-0.33555943,5.4291253,-6.011432,5.650739,0.3994832,-0.36585164,0.11041331,0.83329177,-6.705312,9.666164,0.08834238,-1.277341,-1.6343797,0.42791215,0
1.470000000000001,12.016699660130628,-0.8943364123037174,-1.9655816533291766,0.33996508860059677,10.462954,0.6579371,-5.931205,-0.33555943,5.3617587,-5.9144864,5.651559,0.39632288,-0.36116624,0.10267471,0.8378219,-6.768092,9.722591,0.07576545,-1.2176019,-1.6860104,0.42359656,0
1.480000000000001,11.763008016073242,-0.3534935766549819,-1.9367724848515189,0.21038079801009485,12.009632,0.2682542,-6.111583,0.13378337,5.2937627,-5.816988,5.6522584,0.39325926,-0.35613444,0.09505298,0.84230685,-6.8311067,9.776853,0.06440972,-1.1671814,-1.7295923,0.41949272,0
1.490000000000001,11.763008016073242,-0.3534935766549819,-1.9367724848515189,0.21038079801009485,12.009632,0.2682542,-6.111583,0.13378337,5.225143,-5.718963,5.6528416,0.3903592,-0.35073084,0.08771137,0.8467082,-6.8929086,9.827844,0.052430183,-1.0402904,-1.7618603,0.4092315,0
1.500000000000001,11.763008016073242,-0.3534935766549819,-1.9367724848515189,0.21038079801009485,12.009632,0.2682542,-6.111583,0.13378337,5.1559052,-5.620438,5.6533113,0.38767678,-0.3449399,0.08077881,0.8509985,-6.9546843,9.876754,0.04166854,-0.93318886,-1.7891032,0.39947388,0
1.5100000000000011,11.763008016073242,-0.3534935766549819,-1.9367724848515189,0.21038079801009485,12.009632,0.2682542,-6.111583,0.13378337,5.08605,-5.521435,5.6536794,0.38517398,-0.33881858,0.07419186,0.8551836,-7.0162926,9.923633,0.03213074,-0.84279054,-1.8121035,0.39019504,0
1.5200000000000011,11.198668377817434,0.0953721723676722,-1.828240015280254,0.08091228826006722,13.035442,0.79537916,-6.40478,-0.065899335,5.01558,-5.4219723,5.6539583,0.38281876,-0.3324148,0.06789666,0.85926753,-7.0776095,9.968522,0.023817018,-0.7664907,-1.8315217,0.38137147,0
1.5300000000000011,11.198668377817434,0.0953721723676722,-1.828240015280254,0.08091228826006722,13.035442,0.79537916,-6.40478,-0.065899335,4.9445143,-5.322081,5.6541386,0.38065466,-0.32573894,0.062013466,0.8632212,-7.1355996,10.009405,0.012356199,-0.63210136,-1.8309704,0.36662784,0
1.5400000000000011,11.198668377817434,0.0953721723676722,-1.828240015280254,0.08091228826006722,13.035442,0.79537916,-6.40478,-0.065899335,4.8728704,-5.2217903,5.6542096,0.3787169,-0.31880268,0.056635313,0.8670244,-7.1930795,10.048514,0.0020466913,-0.51866907,-1.8305128,0.35260767,0
1.5500000000000012,11.198668377817434,0.0953721723676722,-1.828240015280254,0.08091228826006722,13.035442,0.79537916,-6.40478,-0.065899335,4.800655,-5.1211166,5.654183,0.37696925,-0.3116446,0.05168316,0.8706901,-7.2499313,10.085931,-0.0071233977,-0.42292568,-1.8301327,0.3392755,0
1.5600000000000012,10.859887364506793,0.4463796897912011,-1.4056849484406946,-0.023249420775112647,12.524597,-0.8138022,-5.3624716,0.88492554,4.7278748,-5.0200768,5.6540704,0.37538105,-0.30429697,0.047090087,0.8742286,-7.3060536,10.121722,-0.015168287,-0.34211248,-1.8298172,0.32659754,0
1.5700000000000012,10.859887364506793,0.4463796897912011,-1.4056849484406946,-0.023249420775112647,12.524597,-0.8138022,-5.3624716,0.88492554,4.6545453,-4.918692,5.6538696,0.3739729,-0.2968831,0.042981956,0.8775865,-7.359684,10.1549225,-0.024865897,-0.21918143,-1.7636453,0.30943045,0
1.5800000000000012,10.859887364506793,0.4463796897912011,-1.4056849484406946,-0.023249420775112647,12.524597,-0.8138022,-5.3624716,0.88492554,4.580684,-4.816983,5.6535773,0.37276256,-0.28950417,0.03945548,0.88072664,-7.412444,10.186726,-0.033532593,-0.115416996,-1.7077994,0.29310572,0
1.5900000000000012,10.859887364506793,0.4463796897912011,-1.4056849484406946,-0.023249420775112647,12.524597,-0.8138022,-5.3624716,0.88492554,4.5062995,-4.714963,5.653203,0.3717223,-0.28215477,0.03641906,0.8836773,-7.4642696,10.217249,-0.04121182,-0.027830834,-1.6606678,0.27758208,0
1.6000000000000012,10.330293612255934,0.557104273086978,-1.4997817382403371,-0.11882790760640662,14.6819,0.929749,-5.336747,-0.01993043,4.4314017,-4.612643,5.652756,0.3708284,-0.2748299,0.03379526,0.8864612,-7.515105,10.24659,-0.04794242,0.046099268,-1.6208905,0.26282018,0
1.6100000000000012,10.330293612255934,0.557104273086978,-1.4997817382403371,-0.11882790760640662,14.6819,0.929749,-5.336747,-0.01993043,4.356013,-4.510042,5.6522245,0.37008432,-0.26747546,0.031540807,0.88910097,-7.562471,10.273455,-0.0582587,0.12576742,-1.6019917,0.24409258,0
1.6200000000000012,10.330293612255934,0.557104273086978,-1.4997817382403371,-0.11882790760640662,14.6819,0.929749,-5.336747,-0.01993043,4.280155,-4.4071774,5.6515937,0.3694923,-0.26004785,0.029617796,0.89161325,-7.6087923,10.299343,-0.06772825,0.19301316,-1.5860437,0.22628398,0
1.6300000000000012,10.330293612255934,0.557104273086978,-1.4997817382403371,-0.11882790760640662,14.6819,0.929749,-5.336747,-0.01993043,4.20384,-4.304058,5.650872,0.36903197,-0.25255698,0.027973142,0.89400715,-7.6540165,10.324315,-0.07637178,0.24977365,-1.5725855,0.20934923,0
1.6400000000000012,10.330293612255934,0.557104273086978,-1.4997817382403371,-0.11882790760640662,15.084906,0.76337695,-5.256654,0.19863087,4.1270785,-4.2006936,5.6500683,0.3686859,-0.2450111,0.026562061,0.8962899,-7.6980977,10.348419,-0.08421036,0.2976837,-1.5612283,0.19324549,0
1.6500000000000012,10.330293612255934,0.557104273086978,-1.4997817382403371,-0.11882790760640662,15.084906,0.76337695,-5.256654,0.19863087,4.0498824,-4.0970926,5.6491904,0.36843923,-0.23741718,0.0253468,0.8984676,-7.740996,10.371696,-0.09126542,0.33812356,-1.5516438,0.17793196,0
1.6600000000000013,10.330293612255934,0.557104273086978,-1.4997817382403371,-0.11882790760640662,15.084906,0.76337695,-5.256654,0.19863087,3.9722629,-3.9932628,5.6482453,0.36827922,-0.22978105,0.02429555,0.90054524,-7.782676,10.394182,-0.09755878,0.37225792,-1.5435557,0.16336988,0
1.6700000000000013,10.330293612255934,0.557104273086978,-1.4997817382403371,-0.11882790760640662,15.084906,0.76337695,-5.256654,0.19863087,3.8942327,-3.8892117,5.6472416,0.3681949,-0.22210768,0.023381518,0.9025269,-7.8231072,10.415904,-0.10311267,0.40107006,-1.5367297,0.14952236,0
1.6800000000000013,10.384758219103876,0.5060117057041001,-1.292706312588706,-0.1542790419364604,14.985882,0.9966332,-4.8852825,0.16414267,3.815805,-3.784947,5.6461854,0.36817688,-0.21440129,0.02258216,0.9044163,-7.8622613,10.436886,-0.10794967,0.4253899,-1.5309691,0.13635434,0
1.6900000000000013,10.384758219103876,0.5060117057041001,-1.292706312588706,-0.1542790419364604,14.985882,0.9966332,-4.8852825,0.16414267,3.736991,-3.6804755,5.645087,0.36821485,-0.20674822,0.021889595,0.906198,-7.900317,10.457255,-0.11159899,0.43794546,-1.4938152,0.12209289,0
1.7000000000000013,10.384758219103876,0.5060117057041001,-1.292706312588706,-0.1542790419364604,14.985882,0.9966332,-4.8852825,0.16414267,3.6578028,-3.5758042,5.6439557,0.36830157,-0.19921765,0.021296578,0.90786225,-7.937067,10.476931,-0.114586085,0.4485449,-1.4624556,0.108531244,0
1.7100000000000013,10.384758219103876,0.5060117057041001,-1.292706312588706,-0.1542790419364604,14.985882,0.9966332,-4.8852825,0.16414267,3.578254,-3.4709394,5.6427975,0.3684333,-0.19178976,0.020786516,0.9094189,-7.972514,10.495939,-0.11694533,0.45749277,-1.4359866,0.095635064,0
1.7200000000000013,10.253532202439208,0.26082989116927163,-1.2548245125388633,-0.11449662107508594,15.022261,0.6257471,-4.7890244,0.19278634,3.498357,-3.3658876,5.641619,0.36860657,-0.18444778,0.020345494,0.9108762,-8.006662,10.514303,-0.118708394,0.46504664,-1.4136454,0.0833717,0
1.7300000000000013,10.253532202439208,0.26082989116927163,-1.2548245125388633,-0.11449662107508594,15.022261,0.6257471,-4.7890244,0.19278634,3.4181273,-3.2606566,5.6404195,0.3687956,-0.17722748,0.019878907,0.9122424,-8.039102,10.531814,-0.12112988,0.4331889,-1.3888819,0.073662244,0
1.7400000000000013,10.253532202439208,0.26082989116927163,-1.2548245125388633,-0.11449662107508594,15.022261,0.6257471,-4.7890244,0.19278634,3.3375793,-3.1552536,5.6391983,0.36897996,-0.17015667,0.01931121,0.91352546,-8.070288,10.5487,-0.123023875,0.4063003,-1.3679795,0.06442924,0
1.7500000000000013,10.253532202439208,0.26082989116927163,-1.2548245125388633,-0.11449662107508594,15.022261,0.6257471,-4.7890244,0.19278634,3.2567255,-3.0496848,5.6379604,0.3691637,-0.16321151,0.018657358,0.91473126,-8.100246,10.564955,-0.124420434,0.3836058,-1.3503362,0.05564929,0
1.7600000000000013,9.939995234224362,-0.10359803307240142,-1.376223455160384,0.06018108467599259,14.775032,-0.2503055,-4.30595,0.5985494,3.175578,-2.9439566,5.636711,0.36934978,-0.15637186,0.017930072,0.91586477,-8.129003,10.580568,-0.12534708,0.36445117,-1.335444,0.047300193,0
1.7700000000000014,9.939995234224362,-0.10359803307240142,-1.376223455160384,0.06018108467599259,14.775032,-0.2503055,-4.30595,0.5985494,3.0941536,-2.8380778,5.63544,0.369499,-0.14962967,0.016991943,0.9169482,-8.155731,10.595073,-0.12881416,0.2914599,-1.3418056,0.04793226,0
1.7800000000000014,9.939995234224362,-0.10359803307240142,-1.376223455160384,0.06018108467599259,14.775032,-0.2503055,-4.30595,0.5985494,3.0124674,-2.732057,5.634136,0.36957812,-0.14297758,0.01573481,0.91799945,-8.181348,10.608898,-0.13187276,0.22985154,-1.347175,0.048533306,0
1.7900000000000014,9.939995234224362,-0.10359803307240142,-1.376223455160384,0.06018108467599259,14.775032,-0.2503055,-4.30595,0.5985494,2.9305305,-2.625902,5.632804,0.36959714,-0.13640083,0.014208094,0.91901696,-8.205885,10.621994,-0.13454404,0.1778508,-1.3517067,0.049104873,0
1.8000000000000014,9.557729673099066,-0.5205185661754391,-1.652495363136095,0.24726970510354146,14.382753,-1.2835587,-3.8259013,1.0995231,2.8483536,-2.51962,5.631447,0.369564,-0.12988694,0.01245358,0.91999894,-8.229372,10.6343155,-0.13684857,0.13395968,-1.3555315,0.04964839,0
1.8100000000000014,9.557729673099066,-0.5205185661754391,-1.652495363136095,0.24726970510354146,14.382753,-1.2835587,-3.8259013,1.0995231,2.7659512,-2.413221,5.6300497,0.3694437,-0.123384945,0.010315157,0.9209682,-8.250968,10.645375,-0.1425032,0.031904526,-1.4018459,0.059345737,0
1.8200000000000014,9.557729673099066,-0.5205185661754391,-1.652495363136095,0.24726970510354146,14.382753,-1.2835587,-3.8259013,1.0995231,2.6833377,-2.3067153,5.6285973,0.36920586,-0.11685365,0.007671039,0.9219407,-8.271606,10.655561,-0.14783923,-0.05423545,-1.4409382,0.068567224,0
1.8300000000000014,9.557729673099066,-0.5205185661754391,-1.652495363136095,0.24726970510354146,14.382753,-1.2835587,-3.8259013,1.0995231,2.6005225,-2.2001128,5.627094,0.36886236,-0.11029643,0.004600105,0.92290586,-8.291314,10.664786,-0.15287249,-0.12694217,-1.4739344,0.07733621,0
1.8400000000000014,9.557729673099066,-0.5205185661754391,-1.652495363136095,0.24726970510354146,14.022642,-2.0148013,-3.8852649,1.4947689,2.5175145,-2.0934231,5.625541,0.36842296,-0.10371626,0.0011690106,0.9238546,-8.310108,10.672975,-0.15762079,-0.1883107,-1.501785,0.085674904,0
1.8500000000000014,9.557729673099066,-0.5205185661754391,-1.652495363136095,0.24726970510354146,14.022642,-2.0148013,-3.8852649,1.4947689,2.4343233,-1.9866571,5.623943,0.3678956,-0.09711575,-0.0025659078,0.9247789,-8.328009,10.680064,-0.16210371,-0.24010904,-1.5252924,0.093604416,0
1.8600000000000014,9.557729673099066,-0.5205185661754391,-1.652495363136095,0.24726970510354146,14.022642,-2.0148013,-3.8852649,1.4947689,2.3509576,-1.8798258,5.6223006,0.3672871,-0.090497196,-0.0065570283,0.92567205,-8.345029,10.686,-0.1663424,-0.28383,-1.5451338,0.10114481,0
1.8700000000000014,9.557729673099066,-0.5205185661754391,-1.652495363136095,0.24726970510354146,14.022642,-2.0148013,-3.8852649,1.4947689,2.2674258,-1.7729411,5.620617,0.36660293,-0.08386266,-0.010764088,0.92652833,-8.3611765,10.690737,-0.17035927,-0.32073292,-1.561881,0.1083152,0
1.8800000000000014,8.997061257007081,-0.8606351637471363,-1.8414671575830355,0.49232533783430893,13.42675,-2.045918,-4.926641,1.5689337,2.183737,-1.6660154,5.6188936,0.3658479,-0.07721402,-0.0151530355,0.9273429,-8.37646,10.694238,-0.17417799,-0.3518813,-1.5760161,0.11513374,0
1.8900000000000015,8.997061257007081,-0.8606351637471363,-1.8414671575830355,0.49232533783430893,13.42675,-2.045918,-4.926641,1.5689337,2.0999038,-1.5590615,5.6171064,0.36498618,-0.070532985,-0.019846668,0.92812574,-8.390041,10.696335,-0.18336402,-0.43119863,-1.6174242,0.13364264,0
1.9000000000000015,8.997061257007081,-0.8606351637471363,-1.8414671575830355,0.49232533783430893,13.42675,-2.045918,-4.926641,1.5689337,2.0159388,-1.452093,5.6152277,0.36398545,-0.06380517,-0.02494066,0.9288824,-8.402829,10.697166,-0.19241174,-0.49814698,-1.6523751,0.1512433,0
1.9100000000000015,8.997061257007081,-0.8606351637471363,-1.8414671575830355,0.49232533783430893,13.42675,-2.045918,-4.926641,1.5689337,1.93185,-1.3451228,5.613259,0.362854,-0.057037484,-0.030371858,0.9296034,-8.414836,10.696668,-0.20134842,-0.5546555,-1.6818756,0.16798028,0
1.9200000000000015,8.56349809754203,-1.2096084433507819,-2.0071663225935823,0.7200431011904503,13.207453,-2.6483533,-4.827844,1.8541576,1.8476448,-1.2381644,5.6112013,0.36159903,-0.05023595,-0.036086857,0.93028027,-8.426072,10.694783,-0.2102032,-0.6023524,-1.7067752,0.18389599,0
1.9300000000000015,8.56349809754203,-1.2096084433507819,-2.0071663225935823,0.7200431011904503,13.207453,-2.6483533,-4.827844,1.8541576,1.7633337,-1.1312313,5.6090336,0.36019108,-0.043395594,-0.042192973,0.93091357,-8.436041,10.691622,-0.22331034,-0.697018,-1.7536441,0.21020488,0
1.9400000000000015,8.56349809754203,-1.2096084433507819,-2.0071663225935823,0.7200431011904503,13.207453,-2.6483533,-4.827844,1.8541576,1.6789263,-1.0243368,5.6067348,0.3586032,-0.03651291,-0.048772715,0.9315003,-8.445299,10.687017,-0.23640303,-0.77692163,-1.7932043,0.23522279,0
1.9500000000000015,8.56349809754203,-1.2096084433507819,-2.0071663225935823,0.7200431011904503,13.207453,-2.6483533,-4.827844,1.8541576,1.5944299,-0.91749597,5.6043053,0.3568447,-0.029594967,-0.055750884,0.93202955,-8.453861,10.680902,-0.24951823,-0.84436554,-1.826595,0.25901306,0
1.9600000000000015,8.38759088501638,-1.4556036422255394,-1.9300476523454435,0.9332302173868787,12.979988,-3.6303902,-4.954365,2.5324848,1.5098512,-0.8107242,5.601744,0.35492355,-0.022648018,-0.06306382,0.9324915,-8.461738,10.673212,-0.26269493,-0.9012929,-1.8547778,0.28163594,0
1.9700000000000015,8.38759088501638,-1.4556036422255394,-1.9300476523454435,0.9332302173868787,12.979988,-3.6303902,-4.954365,2.5324848,1.4251981,-0.7040365,5.5990424,0.35282236,-0.015742991,-0.070737936,0.93288034,-8.46879,10.664092,-0.2777166,-0.98769635,-1.8665524,0.31360984,0
1.9800000000000015,8.38759088501638,-1.4556036422255394,-1.9300476523454435,0.9332302173868787,12.979988,-3.6303902,-4.954365,2.5324848,1.3404776,-0.59744805,5.596189,0.3505254,-0.008936923,-0.07879139,0.93319076,-8.475205,10.653331,-0.29288328,-1.060627,-1.8764902,0.3440148,0
1.9900000000000015,8.38759088501638,-1.4556036422255394,-1.9300476523454435,0.9332302173868787,12.979988,-3.6303902,-4.954365,2.5324848,1.255696,-0.49097565,5.593183,0.34804168,-0.0022164253,-0.087163195,0.9334161,-8.481013,10.6408825,-0.30824125,-1.1221858,-1.8848772,0.37292778,0
2.0000000000000013,,,,,13.241638,-3.7645657,-5.47421,2.5118146,1.1708595,-0.3846363,5.5900226,0.3453793,0.0044294987,-0.09580161,0.93355054,-8.486232,10.626714,-0.32383734,-1.1741464,-1.891955,0.40042198,0
2.010000000000001,,,,,13.241638,-3.7645657,-5.47421,2.5118146,1.0859735,-0.27844733,5.5867047,0.34253418,0.010895564,-0.10465657,0.93359506,-8.490875,10.610812,-0.33980063,-1.230843,-1.8559475,0.43604657,0
2.020000000000001,,,,,13.241638,-3.7645657,-5.47421,2.5118146,1.0010438,-0.17242613,5.5832257,0.33950284,0.017098079,-0.11368667,0.9335534,-8.494985,10.593153,-0.35609508,-1.2786998,-1.8255538,0.46992305,0
2.0300000000000007,,,,,13.241638,-3.7645657,-5.47421,2.5118146,0.9160756,-0.066590324,5.5795817,0.3362928,0.023074333,-0.12286287,0.9334241,-8.498596,10.573733,-0.3727658,-1.3190949,-1.7998981,0.5021372,0
2.0400000000000005,,,,,13.241638,-3.7645657,-5.47421,2.5118146,0.83107364,0.039042488,5.575769,0.33291093,0.028855624,-0.13216035,0.93320554,-8.5017395,10.552554,-0.38985696,-1.3531921,-1.7782418,0.53277063,0
2.0500000000000003,,,,,12.893179,-3.4848857,-4.9616055,2.4133797,0.74604243,0.14445472,5.5717835,0.32936335,0.03446818,-0.1415579,0.93289566,-8.504436,10.529618,-0.407412,-1.3819731,-1.7599605,0.56190085,1
2.06,,,,,12.893179,-3.4848857,-4.9616055,2.4133797,0.6609787,0.24954648,5.567889,0.325399,0.040708963,-0.15182023,0.9324216,-8.5081835,10.4883995,-0.37207788,-1.5978216,-2.1475725,0.64272714,1
2.07,,,,,12.893179,-3.4848857,-4.9616055,2.4133797,0.57588226,0.3542147,5.5643277,0.32075828,0.048273575,-0.16368613,0.9316608,-8.510926,10.444848,-0.340902,-1.8139627,-2.5087397,0.7226257,1
2.0799999999999996,,,,,12.893179,-3.4848857,-4.9616055,2.4133797,0.49076423,0.45843428,5.561056,0.31543297,0.05704156,-0.17709486,0.93053037,-8.512478,10.398626,-0.31399587,-2.0292244,-2.8464549,0.801541,1
2.0899999999999994,,,,,12.843374,-3.5758567,-4.401646,3.0037246,0.40563732,0.5621771,5.5580325,0.30941305,0.06690527,-0.19198225,0.92894083,-8.512681,10.3494625,-0.29149854,-2.2426815,-3.1633093,0.87942606,1
2.099999999999999,,,,,12.843374,-3.5758567,-4.401646,3.0037246,0.32051593,0.6654011,5.555237,0.302703,0.07743329,-0.20804435,0.92687297,-8.5113535,10.294773,-0.2682605,-2.4019217,-3.3083053,0.9793212,1
2.109999999999999,,,,,12.843374,-3.5758567,-4.401646,3.0037246,0.23541571,0.7680603,5.552652,0.2953118,0.08826168,-0.22501336,0.9243218,-8.508442,10.2365265,-0.24943441,-2.5616965,-3.4560883,1.0765834,1
2.1199999999999988,,,,,12.843374,-3.5758567,-4.401646,3.0037246,0.15035263,0.87011904,5.5502334,0.28723577,0.099387914,-0.24286738,0.9212134,-8.503913,10.174559,-0.23489854,-2.7174423,-3.6017346,1.1709542,1
2.1299999999999986,,,,,11.814922,-2.6606164,-3.2843356,2.3829126,0.06534345,0.9715354,5.5479445,0.27848646,0.11076541,-0.26149905,0.9174942,-8.497645,10.107977,-0.22336179,-2.8509982,-3.7267492,1.2608888,1
2.1399999999999983,,,,,11.814922,-2.6606164,-3.2843356,2.3829126,-0.019597124,1.0722905,5.5457125,0.26923928,0.12203167,-0.2802843,0.913269,-8.490204,10.0423765,-0.22349213,-2.8212333,-3.6578317,1.3159469,1
2.149999999999998,,,,,11.814922,-2.6606164,-3.2843356,2.3829126,-0.10445479,1.1723685,5.543464,0.25966358,0.13289969,-0.2987301,0.908666,-8.481063,9.972592,-0.22670549,-2.796112,-3.5996592,1.3683032,1
2.159999999999998,,,,,11.814922,-2.6606164,-3.2843356,2.3829126,-0.18921252,1.2717288,5.5411677,0.24977328,0.14340311,-0.3168661,0.9036846,-8.470214,9.898844,-0.23315248,-2.77491,-3.5505557,1.4180903,1
2.1699999999999977,,,,,11.946342,-1.2401575,-1.4939895,1.3593906,-0.27385315,1.3703325,5.5387893,0.23958167,0.15356988,-0.3347155,0.8983227,-8.457646,9.821343,-0.24297562,-2.757016,-3.5091078,1.4654344,1
2.1799999999999975,,,,,11.946342,-1.2401575,-1.4939895,1.3593906,-0.3583587,1.468139,5.5363007,0.22937348,0.16295959,-0.35160273,0.89286554,-8.4432,9.739434,-0.2553335,-2.5207736,-3.194617,1.4602308,1
2.1899999999999973,,,,,11.946342,-1.2401575,-1.4939895,1.3593906,-0.44271147,1.5651106,5.5336714,0.21941127,0.17123975,-0.36701843,0.8876004,-8.427105,9.654388,-0.27110574,-2.3213239,-2.9292078,1.4552826,1
2.199999999999997,,,,,11.946342,-1.2401575,-1.4939895,1.3593906,-0.5268955,1.6612176,5.5308676,0.20967242,0.17857765,-0.38119936,0.8825168,-8.409468,9.566609,-0.29012504,-2.1529372,-2.70522,1.4505771,1
2.209999999999997,,,,,12.525578,0.21851306,0.045204595,1.2613276,-0.6108959,1.7564346,5.527858,0.20013398,0.18511473,-0.39434195,0.87759596,-8.390379,9.476433,-0.31223717,-2.0107753,-2.5161889,1.4461025,1
