time-since-start [s],throttle_mpc,roll_mpc,pitch_mpc,yaw_mpc,throttle_nw,roll_nw,pitch_nw,yaw_nw,position_x [m],position_y [m],position_z [m],rotation_w [quaternion],rotation_x [quaternion],rotation_y [quaternion],rotation_z [quaternion],velocity_x [m],velocity_y [m],velocity_z [m],omega_x [rad/s],omega_y [rad/s],omega_z [rad/s],network_used
0.0,6.489957196208946,-5.999999799539269,-5.999999933174533,4.018773310890997,173.09079,11.217972,-60.85221,18.219002,-0.3565825,1.8399144,2.322772,-0.2727708,0.4163314,-0.05168207,-0.86579055,-7.9229074,9.085356,0.40607595,0.0,0.0,0.0,0
0.01,6.489957196208946,-5.999999799539269,-5.999999933174533,4.018773310890997,173.09079,11.217972,-60.85221,18.219002,-0.43631727,1.930999,2.3268154,-0.27242047,0.41617742,-0.05154459,-0.8659831,-8.023792,9.131448,0.40235576,-0.09471594,-0.094730295,0.12201035,0
0.02,6.489957196208946,-5.999999799539269,-5.999999933174533,4.018773310890997,173.09079,11.217972,-60.85221,18.219002,-0.5170528,2.0225403,2.3308141,-0.2713684,0.4156965,-0.051090322,-0.8665712,-8.123069,9.176653,0.3972023,-0.1988644,-0.19892265,0.24019834,0
0.03,6.489957196208946,-5.999999799539269,-5.999999933174533,4.018773310890997,173.09079,11.217972,-60.85221,18.219002,-0.59877306,2.1145287,2.3347547,-0.26961377,0.41486174,-0.05026137,-0.8675668,-8.220723,9.220785,0.39069045,-0.31115627,-0.31128603,0.35476798,0
0.04,6.489957196208946,-5.999999799539269,-5.999999933174533,4.018773310890997,173.09079,11.217972,-60.85221,18.219002,-0.6814617,2.2069519,2.3386235,-0.26715615,0.4136484,-0.049007136,-0.868977,-8.316749,9.263655,0.38290164,-0.43043438,-0.4306607,0.46590698,0
0.05,7.519485017599641,-5.999999915621368,-5.999999977484499,3.982383472397621,173.09079,11.217972,-60.85221,18.219002,-0.76510245,2.2997966,2.3424084,-0.2639958,0.41203344,-0.04728359,-0.87080365,-8.411135,9.305073,0.37392193,-0.5556613,-0.5560057,0.5737884,0
0.060000000000000005,7.519485017599641,-5.999999915621368,-5.999999977484499,3.982383472397621,173.09079,11.217972,-60.85221,18.219002,-0.8497036,2.3930583,2.3461215,-0.2601003,0.40994418,-0.04495938,-0.87308204,-8.50882,9.346966,0.36853817,-0.71877646,-0.7192873,0.6797235,0
0.07,7.519485017599641,-5.999999915621368,-5.999999977484499,3.982383472397621,173.09079,11.217972,-60.85221,18.219002,-0.9352725,2.486729,2.349775,-0.2554393,0.40731245,-0.041918255,-0.87583685,-8.604662,9.386849,0.36202514,-0.8836024,-0.88429755,0.7828892,0
0.08,7.519485017599641,-5.999999915621368,-5.999999977484499,3.982383472397621,173.09079,11.217972,-60.85221,18.219002,-1.0217905,2.5807877,2.3533587,-0.25001618,0.40412295,-0.038146093,-0.87904567,-8.698652,9.424489,0.35450774,-1.049617,-1.0505099,0.88339853,0
0.09,7.519485017599641,-5.999999915621368,-5.999999977484499,3.982383472397621,173.09079,11.217972,-60.85221,18.219002,-1.1092391,2.6752102,2.3568625,-0.24383374,0.40035996,-0.0336319,-0.8826811,-8.790769,9.459663,0.3461026,-1.2163556,-1.2174559,0.98135686,0
0.09999999999999999,7.519485017599641,-5.999999915621368,-5.999999977484499,3.982383472397621,173.09079,11.217972,-60.85221,18.219002,-1.1975994,2.7699716,2.3602781,-0.23689438,0.39600712,-0.028367585,-0.88671005,-8.8809805,9.4921665,0.33691677,-1.3834053,-1.3847194,1.0768625,0
0.10999999999999999,8.854280517739241,-5.999999965611478,-5.999999999694958,3.625527967336059,173.09079,11.217972,-60.85221,18.219002,-1.286852,2.8650439,2.3635986,-0.22920024,0.39104766,-0.02234778,-0.89109457,-8.969244,9.521806,0.32704666,-1.5503999,-1.5519311,1.1700071,0
0.11999999999999998,8.854280517739241,-5.999999965611478,-5.999999999694958,3.625527967336059,11.589777,-0.062582776,-1.149637,-2.8723168,-1.3769951,2.960403,2.366835,-0.22069459,0.38531852,-0.015316017,-0.8958733,-9.059008,9.549468,0.32014602,-1.8028225,-1.8046894,1.2510368,1
0.12999999999999998,8.854280517739241,-5.999999965611478,-5.999999999694958,3.625527967336059,8.057998,1.4007343,-1.3457359,-4.0427985,-1.4681507,3.0560572,2.3701298,-0.21227704,0.37939075,-0.008061728,-0.90051997,-9.171585,9.580678,0.3385728,-1.6049047,-1.6290474,1.0944303,1
0.13999999999999999,8.854280517739241,-5.999999965611478,-5.999999999694958,3.625527967336059,13.305756,0.21251948,-0.12800838,-3.8951225,-1.5604595,3.1520135,2.3736484,-0.20498222,0.37412125,-0.00177252,-0.9044404,-9.289612,9.609947,0.36488292,-1.3400787,-1.3809552,0.92931706,1
0.15,8.854280517739241,-5.999999965611478,-5.999999999694958,3.625527967336059,10.797445,-0.37084746,-0.33312428,-4.313442,-1.6540056,3.24826,2.3775015,-0.19890352,0.36959982,0.0035016024,-0.9076459,-9.419005,9.6388,0.4053906,-1.1154876,-1.1680225,0.74728006,1
0.16,10.240143414927852,-5.999999995133401,-6.0,3.150333608657308,12.185737,0.3809027,-0.15683343,-4.5573893,-1.7488211,3.3447762,2.3817432,-0.19394656,0.36561915,0.00815019,-0.9102971,-9.543507,9.66393,0.44254574,-0.98836714,-1.0488181,0.571183,1
0.17,10.240143414927852,-5.999999995133401,-6.0,3.150333608657308,13.605693,-1.3450822,1.6715503,-3.6437929,-1.8449074,3.4415367,2.386393,-0.19008525,0.3621308,0.012285695,-0.91245705,-9.67314,9.687704,0.4870631,-0.8095661,-0.87498343,0.3868791,1
0.18000000000000002,10.240143414927852,-5.999999995133401,-6.0,3.150333608657308,12.557683,0.018196419,1.7768533,-2.9760659,-1.9422147,3.5385118,2.3914127,-0.18732473,0.35920763,0.015812349,-0.9141276,-9.787802,9.706949,0.516493,-0.65145934,-0.71947926,0.223091,1
0.19000000000000003,10.240143414927852,-5.999999995133401,-6.0,3.150333608657308,17.017872,-0.012528822,1.9884255,-1.5937086,-2.040577,3.6356573,2.39663,-0.18563193,0.35699716,0.018488623,-0.91528785,-9.884207,9.72193,0.52658564,-0.4041024,-0.47310814,0.084823534,1
0.20000000000000004,10.396932828288323,-6.0,-6.0,3.0060501917340967,17.965576,-0.97301024,2.2243564,-0.19194652,-2.1399808,3.7329597,2.402039,-0.18474276,0.35608262,0.020373676,-0.9157838,-9.996514,9.738416,0.5552761,-0.3430641,-0.08921142,0.0024574734,1
0.21000000000000005,10.396932828288323,-6.0,-6.0,3.0060501917340967,24.016468,-1.1125194,1.1198416,0.26995584,-2.2405386,3.830428,2.4077706,-0.18406288,0.35688454,0.022091106,-0.91556877,-10.115128,9.755119,0.59107214,-0.44130275,0.27159077,-0.0070819976,1
0.22000000000000006,10.396932828288323,-6.0,-6.0,3.0060501917340967,17.79605,-1.041128,1.5151184,0.7602726,-2.342409,3.928077,2.413998,-0.1832174,0.35889262,0.024045167,-0.914904,-10.259048,9.774588,0.65430963,-0.5459816,0.4038707,0.0065123527,1
0.23000000000000007,10.396932828288323,-6.0,-6.0,3.0060501917340967,21.952225,-1.4319667,-0.050483003,-0.40291026,-2.4455924,4.0259,2.4207094,-0.18210965,0.36168388,0.026227351,-0.91396546,-10.37781,9.789915,0.68785536,-0.62321377,0.57715386,0.043499593,1
0.24000000000000007,10.396932828288323,-6.0,-6.0,3.0060501917340967,17.879898,-1.8396493,-0.110862985,-0.1446941,-2.5500998,4.1238885,2.4278963,-0.18078409,0.364719,0.028832223,-0.9129435,-10.523867,9.807757,0.7493512,-0.7493288,0.47928128,0.021594144,1
0.25000000000000006,9.674437249671264,-6.0,-6.0,2.795386753488837,19.272148,-1.6701629,1.3706431,1.1688637,-2.6559443,4.222036,2.435553,-0.17923838,0.36744586,0.03222808,-0.9120408,-10.645166,9.8215275,0.7818866,-0.91936034,0.38725096,0.013434334,1
0.26000000000000006,9.674437249671264,-6.0,-6.0,2.795386753488837,15.431881,-1.3096333,0.2427461,0.80923676,-2.7630544,4.320319,2.4435818,-0.17732018,0.37044993,0.03619942,-0.91105103,-10.776981,9.835049,0.82372683,-1.0364685,0.54057115,0.070131585,1
0.2700000000000001,9.674437249671264,-6.0,-6.0,2.795386753488837,19.772938,-1.4205245,0.79619145,0.89190733,-2.8713562,4.418719,2.4518852,-0.17504737,0.3737517,0.04039766,-0.9099649,-10.883508,9.844683,0.8368627,-1.079078,0.49409813,0.10639968,1
0.2800000000000001,9.674437249671264,-6.0,-6.0,2.795386753488837,18.099995,-0.91456527,2.0743392,0.93816483,-2.980879,4.517221,2.4604712,-0.17250878,0.3770965,0.044742085,-0.9088658,-11.02128,9.855389,0.8801857,-1.1323434,0.5411775,0.14494476,1
0.2900000000000001,9.674437249671264,-6.0,-6.0,2.795386753488837,21.626747,-2.0075579,-0.83242154,-0.1403401,-3.0917277,4.6158175,2.4694254,-0.16980472,0.3811039,0.048925288,-0.90748686,-11.148626,9.863647,0.9104415,-1.0984231,0.78024864,0.1838683,1
0.3000000000000001,8.302964396517837,-6.0,-6.0,2.4907018370357825,16.69717,-1.1342403,1.5854425,1.0385641,-3.2039819,4.7144966,2.4787998,-0.16692914,0.38508707,0.053349596,-0.90608853,-11.302429,9.871761,0.9641622,-1.2401667,0.5287494,0.1679593,1
0.3100000000000001,8.302964396517837,-6.0,-6.0,2.4907018370357825,21.613983,-1.2410898,1.2731407,0.7018676,-3.3176048,4.8132396,2.488532,-0.16385952,0.3889351,0.05805202,-0.9047152,-11.4223585,9.876484,0.9821393,-1.2236844,0.6935079,0.21068014,1
0.3200000000000001,8.302964396517837,-6.0,-6.0,2.4907018370357825,18.142727,-1.8084072,-0.3925979,0.40024945,-3.4326112,4.9120264,2.4986076,-0.16068006,0.3933403,0.062552884,-0.90307945,-11.579201,9.880597,1.0326973,-1.2264234,0.7838818,0.23478286,1
0.3300000000000001,8.302964396517837,-6.0,-6.0,2.4907018370357825,21.301758,-1.4788028,1.5873241,0.99316025,-3.5490673,5.0108423,2.5090618,-0.15730822,0.3975414,0.06727466,-0.90149266,-11.712258,9.882398,1.0579165,-1.3171586,0.6003897,0.24290237,1
0.34000000000000014,8.302964396517837,-6.0,-6.0,2.4907018370357825,19.329872,-0.9812278,2.1265912,1.3729721,-3.6669776,5.109668,2.5198674,-0.15371057,0.4017264,0.072214425,-0.8998744,-11.870017,9.8823805,1.1029522,-1.3424091,0.7542654,0.27971774,1
0.35000000000000014,7.294245155080112,-6.0,-6.0,2.1309696629723147,22.79858,-2.3767588,-1.0168631,-0.5022707,-3.7863996,5.208483,2.5310493,-0.15000032,0.40672183,0.07684246,-0.89787096,-12.014645,9.880423,1.1330814,-1.2861557,0.9682441,0.33336404,1
0.36000000000000015,7.294245155080112,-6.0,-6.0,2.1309696629723147,19.328472,-1.1931576,2.2780197,1.1477964,-3.9073658,5.307268,2.5426009,-0.14610755,0.41149175,0.08176152,-0.8959028,-12.178859,9.876163,1.1768861,-1.4561492,0.6586696,0.29235917,1
0.37000000000000016,7.294245155080112,-6.0,-6.0,2.1309696629723147,23.094994,-1.1032358,0.20006631,0.5246426,-4.0298915,5.4060016,2.5545034,-0.14206909,0.4161852,0.08696722,-0.8938918,-12.326517,9.870275,1.203368,-1.4152082,0.91117513,0.3343357,1
0.38000000000000017,7.294245155080112,-6.0,-6.0,2.1309696629723147,16.07173,-1.8748186,-0.45308542,0.77236533,-4.153993,5.504661,2.5667372,-0.13802703,0.42112386,0.091864996,-0.89171946,-12.494037,9.86135,1.243032,-1.3665373,0.8002805,0.34367412,1
0.3900000000000002,7.294245155080112,-6.0,-6.0,2.1309696629723147,22.807076,-1.4915657,2.3665211,1.3082948,-4.2795587,5.603235,2.5791802,-0.1338004,0.4253649,0.09690619,-0.8898151,-12.619228,9.853055,1.2453707,-1.4457682,0.60478115,0.36471012,1
0.4000000000000002,7.057441006930501,-6.0,-6.0,1.785968686275744,20.944618,-1.1628631,1.8041797,1.4082865,-4.406602,5.701699,2.5918133,-0.12934925,0.42982575,0.10202827,-0.88775474,-12.789699,9.839393,1.2809665,-1.4530016,0.87947804,0.41101208,1
0.4100000000000002,7.057441006930501,-6.0,-6.0,1.785968686275744,22.275423,-2.6441205,-1.2662995,-0.2655709,-4.5353274,5.800017,2.6047688,-0.12482486,0.43518826,0.106818296,-0.8852228,-12.955655,9.823901,1.3096936,-1.4078255,1.0236518,0.4599486,1
0.4200000000000002,7.057441006930501,-6.0,-6.0,1.785968686275744,21.64863,-0.97888964,2.9300394,1.8949063,-4.6657505,5.898166,2.618022,-0.120031476,0.44006664,0.11199495,-0.882831,-13.129282,9.805536,1.3405801,-1.600502,0.66651446,0.42434713,1
0.4300000000000002,7.057441006930501,-6.0,-6.0,1.785968686275744,24.049074,-1.1996143,0.3999412,1.1804987,-4.797915,5.996119,2.6315708,-0.115057446,0.44497898,0.11731474,-0.88033646,-13.303819,9.784585,1.3688251,-1.5037062,1.0194657,0.49650785,1
0.4400000000000002,7.057441006930501,-6.0,-6.0,1.785968686275744,17.757912,-2.2968268,-0.46770978,1.5780679,-4.9318347,6.0938497,2.6453915,-0.11007003,0.4503816,0.1221206,-0.87756884,-13.480327,9.761074,1.394874,-1.4562724,0.92283463,0.5300715,1
0.45000000000000023,7.15934883214685,-6.0,-6.0,1.4436848908514908,24.543247,-1.4909041,2.6947927,1.3611661,-5.0673647,6.191356,2.6593487,-0.10468936,0.45510182,0.12710045,-0.87508136,-13.625875,9.739848,1.3962647,-1.5873053,0.7058819,0.5814971,1
0.46000000000000024,7.15934883214685,-6.0,-6.0,1.4436848908514908,21.022789,-1.6514874,0.7005656,1.8889915,-5.204518,6.288614,2.673419,-0.09901289,0.4600749,0.13218789,-0.8723837,-13.805001,9.711221,1.4173932,-1.5724138,1.0160178,0.6197556,1
0.47000000000000025,7.15934883214685,-6.0,-6.0,1.4436848908514908,22.464527,-2.9874878,-1.2405035,0.17668019,-5.3434405,6.3855767,2.6876688,-0.09319094,0.4655862,0.13707887,-0.86934096,-13.979754,9.6809435,1.4321612,-1.5847648,0.966754,0.68203735,1
0.48000000000000026,7.15934883214685,-6.0,-6.0,1.4436848908514908,24.499895,-1.0862709,2.8266826,2.0604262,-5.4841456,6.4822183,2.702071,-0.0868648,0.4702465,0.14251925,-0.86660856,-14.1614485,9.646975,1.4478786,-1.8033555,0.6224654,0.6572394,1
0.49000000000000027,7.15934883214685,-6.0,-6.0,1.4436848908514908,25.735151,-2.2614007,-0.5621679,0.47697672,-5.6266723,6.578505,2.716618,-0.080328345,0.4749353,0.14810549,-0.8637407,-14.344086,9.609895,1.4610877,-1.6917162,0.9661834,0.7260942,1
0.5000000000000002,8.009254850383641,-6.0,-6.0,1.0134717814544192,20.468956,-3.2489147,-0.37246108,1.9398111,-5.771031,6.6744056,2.7312834,-0.07371299,0.4797851,0.15355016,-0.8606941,-14.527729,9.569802,1.4715651,-1.7804396,0.7278102,0.71386987,1
0.5100000000000002,8.009254850383641,-6.0,-6.0,1.0134717814544192,25.769428,-1.5414808,3.166362,1.7101089,-5.9171777,6.7699018,2.7460098,-0.06644301,0.4837813,0.15968652,-0.85792804,-14.701652,9.528982,1.4733715,-2.0093899,0.5560389,0.77402717,1
0.5200000000000002,8.009254850383641,-6.0,-6.0,1.0134717814544192,25.367039,-2.7747202,-0.23631741,1.853565,-6.065119,6.8649597,2.760772,-0.058862485,0.4883234,0.16595587,-0.85471255,-14.886667,9.482086,1.4786686,-1.9366529,0.96309596,0.8199609,1
0.5300000000000002,8.009254850383641,-6.0,-6.0,1.0134717814544192,23.30423,-3.5293484,-1.5757511,0.44805166,-6.214914,6.959531,2.775573,-0.0510711,0.4932867,0.17218596,-0.85112363,-15.072385,9.431667,1.4810071,-2.067275,0.7759101,0.87068015,1
0.5400000000000003,8.009254850383641,-6.0,-6.0,1.0134717814544192,25.78443,-0.9519226,3.3837419,2.0791376,-6.366569,7.0535803,2.7903821,-0.042522646,0.49704936,0.17919359,-0.8479521,-15.258598,9.377491,1.4804246,-2.2950711,0.40907162,0.8499416,1
0.5500000000000003,10.390143989004608,-6.0,-6.0,0.5287502133492219,27.536978,-2.6446128,-0.56838346,0.7925106,-6.5200863,7.1470666,2.8051722,-0.033933662,0.5010102,0.18613353,-0.8445064,-15.44491,9.319118,1.4771974,-2.085898,0.8730031,0.91025865,1
0.5600000000000003,10.390143989004608,-6.0,-6.0,0.5287502133492219,23.72902,-3.7825162,-1.1108959,1.115625,-6.6754675,7.239949,2.8199155,-0.025466425,0.50537795,0.19271256,-0.8407175,-15.631434,9.256818,1.4710084,-2.1728938,0.648176,0.9044807,1
0.5700000000000003,10.390143989004608,-6.0,-6.0,0.5287502133492219,26.7591,-1.5194715,3.539261,2.1433344,-6.8327146,7.3321886,2.8345823,-0.01631114,0.5086395,0.2000064,-0.83726734,-15.817961,9.190484,1.4619477,-2.4237545,0.37368572,0.9148416,1
0.5800000000000003,10.390143989004608,-6.0,-6.0,0.5287502133492219,29.00563,-2.8830142,-0.22886635,1.4519708,-6.9918256,7.423743,2.8491454,-0.0070033516,0.5123581,0.20738254,-0.83332586,-16.004118,9.119702,1.4501919,-2.283059,0.8673493,0.97512406,1
0.5900000000000003,10.390143989004608,-6.0,-6.0,0.5287502133492219,24.908401,-3.9017875,-1.5526612,0.83387315,-7.1527967,7.5145674,2.8635752,0.0022736497,0.5166665,0.21451947,-0.8288736,-16.190037,9.044662,1.4352964,-2.3765237,0.6962996,0.99852306,1
0.6000000000000003,13.654408009908417,-6.0,-6.0,-0.019449743611094625,27.156158,-1.5182725,4.104969,2.4067986,-7.3156247,7.604621,2.8778403,0.01229817,0.5197956,0.22228731,-0.8247722,-16.375507,8.965254,1.4172826,-2.614158,0.34543473,0.99044365,1
0.6100000000000003,13.654408009908417,-6.0,-6.0,-0.019449743611094625,30.452623,-2.928214,-1.2507308,0.9843012,-7.4803033,7.6938567,2.891911,0.022369243,0.5233939,0.23006469,-0.82013905,-16.5601,8.881097,1.3963969,-2.443674,0.93173087,1.0599446,1
0.6200000000000003,13.654408009908417,-6.0,-6.0,-0.019449743611094625,24.584406,-4.4890957,-1.5059178,1.2601447,-7.6468244,7.7822285,2.9057565,0.032333337,0.52738684,0.23753372,-0.8151042,-16.743958,8.792442,1.3721644,-2.5190017,0.59133124,1.0562327,1
0.6300000000000003,13.654408009908417,-6.0,-6.0,-0.019449743611094625,27.927322,-1.8572328,3.293853,2.8677456,-7.8151793,7.8696904,2.9193435,0.04321287,0.5298841,0.24568324,-0.8105521,-16.92677,8.6991825,1.3447899,-2.8260138,0.26403683,1.0662388,1
0.6400000000000003,13.654408009908417,-6.0,-6.0,-0.019449743611094625,30.958618,-3.1561162,-1.2336185,1.2129017,-7.9853544,7.956195,2.9326427,0.054365415,0.53264743,0.253966,-0.80550104,-17.108007,8.600873,1.3145702,-2.6753016,0.7364849,1.1546392,1
0.6500000000000004,18.566782344371227,-6.0,-6.0,-0.5914358999953232,24.609215,-4.4636874,-1.6278245,1.3157645,-8.157334,8.041692,2.9456239,0.06550943,0.5356493,0.2619416,-0.800109,-17.287703,8.497688,1.2811351,-2.7500544,0.42918694,1.1574981,1
0.6600000000000004,18.566782344371227,-6.0,-6.0,-0.5914358999953232,28.663595,-2.230335,2.6972692,3.476164,-8.331102,8.126131,2.9582553,0.077536054,0.5372175,0.2704318,-0.79514253,-17.465527,8.389549,1.2447121,-3.0170534,0.10818068,1.1652642,1
0.6700000000000004,18.566782344371227,-6.0,-6.0,-0.5914358999953232,31.116777,-3.6721284,-1.9768164,1.4271358,-8.506637,8.209463,2.9705093,0.08989082,0.5389095,0.27898493,-0.78972346,-17.64093,8.276108,1.2056315,-2.8947074,0.511826,1.2786608,1
0.6800000000000004,18.566782344371227,-6.0,-6.0,-0.5914358999953232,38.461792,-4.2622414,-1.6612408,1.9239887,-8.683913,8.291635,2.9823577,0.10247601,0.540534,0.287304,-0.7840775,-17.813864,8.157507,1.1636218,-3.0156236,0.12360855,1.2859465,1
0.6900000000000004,18.566782344371227,-6.0,-6.0,-0.5914358999953232,27.477093,-1.8933676,0.5942681,2.2034326,-8.862904,8.372594,2.9937727,0.116013624,0.54065555,0.29594454,-0.7788766,-17.983894,8.033636,1.1190363,-3.209797,-0.1549655,1.3172554,1
0.7000000000000004,20.999999995967894,-6.0,-6.0,-1.106452109767097,56.25275,-3.2569904,-3.926654,0.97054017,-9.043578,8.452288,3.0047312,0.12974311,0.5403901,0.3043181,-0.77365065,-18.150469,7.904286,1.0723139,-3.0045996,-0.03803245,1.3607403,1
0.7100000000000004,20.999999995967894,-6.0,-6.0,-1.106452109767097,23.437634,-3.524613,-0.39249206,1.9070433,-9.225901,8.530663,3.0152123,0.14365861,0.5390602,0.31209123,-0.76900905,-18.313446,7.769703,1.0236602,-3.0434303,-0.6444573,1.3415931,1
0.7200000000000004,20.999999995967894,-6.0,-6.0,-1.106452109767097,33.64656,-2.936903,2.3407094,2.9505618,-9.409833,8.607665,3.0252006,0.15812981,0.53648186,0.31979382,-0.76479644,-18.472347,7.629934,0.97385716,-3.1184938,-0.6052852,1.3693401,1
0.7300000000000004,20.999999995967894,-6.0,-6.0,-1.106452109767097,29.63642,-3.8773804,-0.296139,1.6489846,-9.595332,8.683244,3.034686,0.17240587,0.5347863,0.32755196,-0.759598,-18.626884,7.485009,0.9230239,-3.0905757,-0.14599061,1.4469311,1
0.7400000000000004,20.999999995967894,-6.0,-6.0,-1.106452109767097,38.173504,-4.135105,-0.053814188,2.9816387,-9.782355,8.757348,3.0436554,0.18658507,0.53376436,0.33546028,-0.7534903,-18.777107,7.3351154,0.870577,-3.2132542,-0.16954246,1.4568459,1
0.7500000000000004,21.0,-6.0,-6.0,-1.5714266820116847,25.369434,-2.4456851,4.724172,2.3508928,-9.970859,8.829928,3.0520911,0.20122585,0.5325131,0.34365082,-0.74688804,-18.922781,7.180275,0.81632227,-3.3570259,-0.15179433,1.5316678,1
0.7600000000000005,21.0,-6.0,-6.0,-1.5714266820116847,47.4417,-3.8887773,-3.3378098,2.2636871,-10.160795,8.900936,3.059975,0.21531679,0.5326741,0.35197642,-0.73892444,-19.063637,7.0204997,0.7600527,-3.2156758,0.60866666,1.5718675,1
0.7700000000000005,21.0,-6.0,-6.0,-1.5714266820116847,24.71125,-4.784504,-1.0550501,1.4650692,-10.352116,8.970323,3.0672824,0.22934714,0.5329475,0.36007157,-0.73055804,-19.199883,6.8560824,0.700972,-3.3200164,-0.0069643557,1.6058152,1
0.7800000000000005,21.0,-6.0,-6.0,-1.5714266820116847,36.21911,-3.243902,0.050375685,3.2846477,-10.544775,9.038042,3.0739868,0.24448249,0.5314626,0.36818504,-0.7226446,-19.331049,6.687075,0.6396205,-3.5482323,-0.17063552,1.5989087,1
0.7900000000000005,21.0,-6.0,-6.0,-1.5714266820116847,30.599869,-3.6001663,-0.5871465,2.2203412,-10.738717,9.104048,3.0800686,0.26000807,0.5295227,0.3763017,-0.7144216,-19.456507,6.5134163,0.57646406,-3.5008004,-0.13630839,1.6816282,1
0.8000000000000005,21.0,-6.0,-6.0,-2.1564610942938542,33.467506,-4.7396703,-0.71506333,2.2024834,-10.933885,9.168295,3.0855103,0.27562672,0.5274345,0.3840506,-0.7059374,-19.576014,6.335286,0.511612,-3.5162158,-0.20669374,1.708063,1
0.8100000000000005,21.0,-6.0,-6.0,-2.1564610942938542,25.694572,-3.037105,2.1430876,3.2467687,-11.130217,9.230739,3.0902953,0.2916494,0.52477753,0.3918505,-0.6971384,-19.689322,6.152879,0.44523525,-3.7069201,-0.28624403,1.7323245,1
0.8200000000000005,21.0,-6.0,-6.0,-2.1564610942938542,43.281994,-4.617346,-2.1334374,2.0355144,-11.327648,9.291338,3.0944097,0.30752015,0.5224874,0.3997321,-0.687497,-19.796032,5.9662957,0.37741184,-3.6028936,0.09255157,1.8066387,1
0.8300000000000005,21.0,-6.0,-6.0,-2.1564610942938542,24.858568,-3.672103,0.056817755,1.9386075,-11.5261135,9.350051,3.0978372,0.3234819,0.52004284,0.40743944,-0.67742723,-19.896095,5.7757945,0.30783924,-3.7606866,-0.25480336,1.8178697,1
0.8400000000000005,21.0,-6.0,-6.0,-2.1564610942938542,38.874485,-3.5030248,-1.5614474,1.6739913,-11.725546,9.406841,3.1005616,0.3398057,0.516789,0.4149583,-0.6672859,-19.98912,5.5815597,0.23687069,-3.746929,-0.20620437,1.8237942,1
0.8500000000000005,21.0,-6.0,-6.0,-2.817626401900863,26.473969,-4.2708197,-0.7845366,2.484357,-11.925872,9.461671,3.1025705,0.35608888,0.51307327,0.42206353,-0.6571291,-20.074867,5.383849,0.16475067,-3.7086434,-0.4174906,1.8164433,1
0.8600000000000005,21.0,-6.0,-6.0,-2.817626401900863,33.66145,-4.3255286,-1.2324793,1.9168392,-12.127019,9.514507,3.1038542,0.3726045,0.50867724,0.42880425,-0.6469467,-20.153162,5.1829753,0.09188181,-3.7962368,-0.47491574,1.849218,1
0.8700000000000006,21.0,-6.0,-6.0,-2.817626401900863,24.276447,-3.4812768,1.006077,2.727364,-12.328909,9.56532,3.1044068,0.38941652,0.50364554,0.43541443,-0.6364825,-20.223713,4.9791985,0.018563883,-3.8786361,-0.593165,1.8525362,1
0.8800000000000006,21.0,-6.0,-6.0,-2.817626401900863,32.610485,-4.455033,-1.1719897,2.0200477,-12.531466,9.614081,3.104225,0.40598774,0.49863702,0.44193414,-0.6254831,-20.286245,4.7727923,-0.05497902,-3.8169587,-0.34379655,1.8954642,1
0.8900000000000006,21.0,-6.0,-6.0,-2.817626401900863,23.335068,-4.1844873,0.20956443,2.0157177,-12.734607,9.660767,3.103306,0.42237973,0.49358222,0.44835895,-0.61395925,-20.340723,4.5640736,-0.12888588,-3.9163048,-0.47309104,1.9015775,1
0.9000000000000006,21.0,-6.0,-6.0,-3.5362084073121363,42.848404,-3.554408,-1.7899783,0.92195404,-12.9382515,9.705356,3.1016464,0.43877837,0.4881305,0.4547562,-0.6019956,-20.38693,4.353344,-0.20301548,-3.9582582,-0.36669764,1.9071784,1
0.9100000000000006,21.0,-6.0,-6.0,-3.5362084073121363,24.918,-4.650652,-0.6386888,2.0629635,-13.142317,9.7478285,3.0992448,0.4550147,0.48223817,0.46081063,-0.5899672,-20.424704,4.140925,-0.27728897,-3.895021,-0.5884562,1.8588332,1
0.9200000000000006,21.0,-6.0,-6.0,-3.5362084073121363,44.777863,-2.50698,-1.3944628,0.9814104,-13.346717,9.788169,3.0961015,0.47130376,0.4756683,0.4665235,-0.57789963,-20.453987,3.927198,-0.351314,-4.0128474,-0.59645903,1.86885,1
0.9300000000000006,21.0,-6.0,-6.0,-3.5362084073121363,23.866106,-4.711952,-0.10380532,1.7717767,-13.551367,9.826368,3.0922203,0.4873247,0.46878675,0.47170937,-0.56590074,-20.474644,3.7125235,-0.42482737,-3.7778776,-0.720514,1.825303,1
0.9400000000000006,21.0,-6.0,-6.0,-3.5362084073121363,38.665195,-3.9225574,-1.5037234,0.9020785,-13.756181,9.862419,3.0876079,0.5029844,0.46169138,0.47659037,-0.55381334,-20.486876,3.4972975,-0.49753377,-3.9236615,-0.62450516,1.8226763,1
0.9500000000000006,21.0,-6.0,-6.0,-4.320680707630849,21.247429,-4.266487,0.6872642,1.8096938,-13.961075,9.896315,3.0822723,0.51856107,0.4540807,0.481436,-0.54140955,-20.490591,3.2818615,-0.56936646,-3.923349,-0.7615027,1.7775023,1
0.9600000000000006,21.0,-6.0,-6.0,-4.320680707630849,31.877348,-4.920775,-1.5137522,1.2381117,-14.165963,9.92808,3.0762212,0.53377247,0.44625852,0.4863067,-0.52862644,-20.485813,3.0711467,-0.6407064,-3.9771218,-0.5356345,1.779082,1
0.9700000000000006,21.0,-6.0,-6.0,-4.320680707630849,20.60702,-4.8185625,0.22316574,2.0193355,-14.370761,9.957716,3.0694644,0.5488421,0.43800378,0.4913158,-0.5152996,-20.472258,2.8563645,-0.7105068,-4.1241193,-0.6882705,1.7525363,1
0.9800000000000006,21.0,-6.0,-6.0,-4.320680707630849,36.727905,-5.0450125,-2.1610339,1.1348797,-14.575383,9.985264,3.062008,0.56389433,0.42915335,0.49641606,-0.5014195,-20.450943,2.6533272,-0.78066903,-4.2325745,-0.54629225,1.7656282,1
0.9900000000000007,21.0,-6.0,-6.0,-4.320680707630849,20.096308,-5.385556,0.242388,2.2744145,-14.779743,10.010734,3.0538626,0.5790256,0.41957211,0.50138986,-0.487131,-20.419401,2.4407613,-0.84817374,-4.359,-0.7981678,1.7346772,1
1.0000000000000007,21.0,-5.999999963668907,-5.929862341137067,-5.110358249746072,38.22069,-5.3221073,-2.2754433,1.5471202,-14.983756,10.034164,3.0450377,0.59422195,0.40923086,0.5063253,-0.47229752,-20.381617,2.24565,-0.91654706,-4.5192633,-0.63615245,1.7611624,1
1.0100000000000007,21.0,-5.999999963668907,-5.929862341137067,-5.110358249746072,17.856781,-5.848669,0.28602672,2.3916156,-15.187328,10.055576,3.0355487,0.60950655,0.39812383,0.5111159,-0.45690212,-20.331326,2.037202,-0.9809643,-4.6441793,-0.8919107,1.7506593,1
1.0200000000000007,21.0,-5.999999963668907,-5.929862341137067,-5.110358249746072,34.83657,-5.198887,-2.1877878,1.6668751,-15.390401,10.075101,3.0253937,0.6248153,0.38623574,0.5158321,-0.44084558,-20.282045,1.8681016,-1.0497828,-4.8322134,-0.7085248,1.7821112,1
1.0300000000000007,21.0,-5.999999963668907,-5.929862341137067,-5.110358249746072,15.881581,-5.5536833,1.1520696,2.426334,-15.592881,10.092768,3.0145917,0.6400435,0.37368637,0.5203478,-0.42419434,-20.212368,1.6659893,-1.1103481,-4.889132,-0.939263,1.7764566,1
1.0400000000000007,21.0,-5.999999963668907,-5.929862341137067,-5.110358249746072,26.454449,-5.7867565,-1.9015138,2.3322444,-15.794719,10.108701,3.0031419,0.6548589,0.3607599,0.5248304,-0.40689674,-20.15427,1.5210849,-1.1793823,-4.993132,-0.61334467,1.8083464,1
1.0500000000000007,21.0,-5.999999916037894,-3.443327868072507,-3.100493675823674,15.231966,-5.900182,0.9606507,2.8256667,-15.995823,10.12294,2.9910643,0.6693245,0.34739676,0.5292907,-0.38880774,-20.065145,1.3276181,-1.2357619,-5.1166472,-0.8144652,1.8340542,1
1.0600000000000007,21.0,-5.999999916037894,-3.443327868072507,-3.100493675823674,31.17675,-6.143819,-2.2411067,2.4413638,-16.196135,10.135553,2.978369,0.6834535,0.33353758,0.53368,-0.36990467,-19.995836,1.1955384,-1.3030798,-5.2391515,-0.537949,1.882713,1
1.0700000000000007,21.0,-5.999999916037894,-3.443327868072507,-3.100493675823674,13.571472,-5.638668,1.3376873,2.9465528,-16.39556,10.146592,2.9650757,0.69732434,0.31911197,0.53779715,-0.3502576,-19.887465,1.013161,-1.3552915,-5.3574653,-0.8037964,1.9101261,1
1.0800000000000007,21.0,-5.999999916037894,-3.443327868072507,-3.100493675823674,28.29863,-6.220511,-1.8339756,2.8656702,-16.59407,10.156171,2.951182,0.71070707,0.30431515,0.54170644,-0.32991183,-19.813828,0.9032273,-1.4232818,-5.4017177,-0.47006702,1.9609839,1
1.0900000000000007,21.0,-5.999999916037894,-3.443327868072507,-3.100493675823674,14.386548,-5.809477,0.61950564,3.4250674,-16.79158,10.164354,2.9367082,0.7235371,0.28924325,0.54538673,-0.30884585,-19.68687,0.7344966,-1.4711484,-5.494728,-0.6830454,2.0053773,1
1.1000000000000008,21.0,-5.233002104078965,-1.2615521437002655,-0.5429959149850009,26.840551,-6.0107064,-1.936135,3.353443,-16.988005,10.171162,2.9216788,0.73593026,0.27381593,0.54862946,-0.28711876,-19.596874,0.6278045,-1.5344673,-5.5440555,-0.48022917,2.0750418,1
1.1100000000000008,21.0,-5.233002104078965,-1.2615521437002655,-0.5429959149850009,14.942188,-5.4255,0.9254823,3.1153264,-17.183258,10.17667,2.9061153,0.7479001,0.25808772,0.55131185,-0.26474777,-19.4526,0.4751429,-1.5778811,-5.6148243,-0.7076023,2.1377733,1
1.1200000000000008,21.0,-5.233002104078965,-1.2615521437002655,-0.5429959149850009,18.51727,-5.7582183,-1.9418883,4.2108393,-17.377264,10.180922,2.8900416,0.75923526,0.24222334,0.55352944,-0.24185726,-19.347794,0.37619722,-1.6366569,-5.585639,-0.45305753,2.1857421,1
1.1300000000000008,21.0,-5.233002104078965,-1.2615521437002655,-0.5429959149850009,15.382553,-5.207311,0.7075329,3.2243197,-17.570066,10.184104,2.8734367,0.76995456,0.22635955,0.5551655,-0.21845531,-19.211535,0.2615597,-1.6840416,-5.612179,-0.6856412,2.285114,1
1.1400000000000008,21.0,-5.233002104078965,-1.2615521437002655,-0.5429959149850009,13.600631,-4.4073687,-1.7055297,4.7370486,-17.761597,10.186273,2.856324,0.78002787,0.21055278,0.5561847,-0.19463502,-19.093496,0.1732777,-1.7382123,-5.549349,-0.46844944,2.331201,1
1.1500000000000008,21.0,-3.485353404459785,-1.0338335424934095,-2.067453856060521,15.348824,-5.204635,0.60244846,3.3577614,-17.951994,10.187642,2.838652,0.7893259,0.19527552,0.5565188,-0.17064342,-18.98525,0.10154123,-1.7959361,-5.3709145,-0.6615151,2.4492567,1
1.1600000000000008,21.0,-3.485353404459785,-1.0338335424934095,-2.067453856060521,10.1365,-4.455509,-1.3885082,4.5080843,-18.14122,10.188283,2.8204377,0.7978764,0.18044266,0.5562229,-0.14645776,-18.85929,0.027785258,-1.8466302,-5.345283,-0.46451518,2.493837,1
1.1700000000000008,21.0,-3.485353404459785,-1.0338335424934095,-2.067453856060521,16.595568,-5.1979203,-0.3489735,3.8107097,-18.329378,10.188332,2.801646,0.8056913,0.1659484,0.5553624,-0.12204667,-18.772072,-0.01703998,-1.9115528,-5.2286606,-0.63119876,2.5906608,1
1.1800000000000008,21.0,-3.485353404459785,-1.0338335424934095,-2.067453856060521,9.341879,-5.429207,-0.9695946,4.550804,-18.516386,10.187835,2.7823148,0.8129675,0.15173039,0.55368656,-0.097432606,-18.62923,-0.08091557,-1.9544135,-5.223918,-0.58738166,2.6505291,1
1.1900000000000008,21.0,-3.485353404459785,-1.0338335424934095,-2.067453856060521,17.571075,-4.9617596,-1.027111,3.6955495,-18.702257,10.18686,2.7624454,0.81958747,0.137558,0.55146307,-0.07240736,-18.545265,-0.11315324,-2.0193794,-5.244505,-0.6360282,2.7415097,1
1.2000000000000008,21.0,-1.6864762667120545,-0.8542405670930979,-5.877247435530575,9.60397,-5.5908284,-0.9975569,4.6805954,-18.88693,10.18547,2.7420747,0.8256562,0.123484634,0.5484746,-0.047107615,-18.389223,-0.16352773,-2.054383,-5.200281,-0.6970974,2.7883246,1
1.2100000000000009,21.0,-1.6864762667120545,-0.8542405670930979,-5.877247435530575,16.58553,-5.213686,-1.190247,3.360014,-19.070385,10.183715,2.7212214,0.8311323,0.10947471,0.5447679,-0.02150526,-18.30189,-0.18659662,-2.1161335,-5.2473154,-0.7305864,2.8799348,1
1.2200000000000009,21.0,-1.6864762667120545,-0.8542405670930979,-5.877247435530575,7.2063503,-5.2006044,-0.060126558,4.6827497,-19.252655,10.181688,2.6998894,0.8360244,0.09542819,0.54031247,0.0043841857,-18.152224,-0.21751857,-2.149848,-5.2419243,-0.80234075,2.9034925,1
1.2300000000000009,21.0,-1.6864762667120545,-0.8542405670930979,-5.877247435530575,16.678251,-5.4264607,-1.5237141,3.253601,-19.433804,10.179455,2.6780658,0.8402339,0.08124759,0.53522927,0.030586068,-18.077896,-0.22868052,-2.2147648,-5.332633,-0.78419304,2.9813967,1
1.2400000000000009,21.0,-1.6864762667120545,-0.8542405670930979,-5.877247435530575,6.61473,-4.9429145,-0.7180083,4.955294,-19.613829,10.177091,2.6557758,0.8438018,0.0669049,0.52940094,0.057070356,-17.927216,-0.24277836,-2.2428143,-5.347034,-0.8995956,2.9947538,1
1.2500000000000009,21.0,-0.029488533765954065,0.24537644901395353,-5.999996339912313,16.721836,-5.14313,-1.4908669,3.1079857,-19.79272,10.174646,2.6330402,0.84677184,0.05257352,0.5226911,0.083711684,-17.851791,-0.24558504,-2.3042376,-5.366784,-0.9545229,3.0744064,1
1.260000000000001,21.0,-0.029488533765954065,0.24537644901395353,-5.999996339912313,5.3053718,-5.754146,-0.24353029,4.6971784,-19.970491,10.172199,2.6098852,0.84908307,0.038360473,0.51516736,0.11040442,-17.702923,-0.24268,-2.3262813,-5.331737,-1.0381013,3.076054,1
1.270000000000001,21.0,-0.029488533765954065,0.24537644901395353,-5.999996339912313,17.201902,-5.27307,-1.7312663,2.925871,-20.147219,10.169792,2.586294,0.850577,0.023984725,0.50705475,0.13725558,-17.642687,-0.23807517,-2.3919318,-5.464338,-0.98133963,3.1411448,1
1.280000000000001,21.0,-0.029488533765954065,0.24537644901395353,-5.999996339912313,7.2952642,-5.7129183,0.19638418,3.790575,-20.3229,10.167504,2.5623043,0.851286,0.009468914,0.498255,0.1642088,-17.494267,-0.2179576,-2.4054713,-5.434278,-1.0981915,3.1305811,1
1.290000000000001,21.0,-0.029488533765954065,0.24537644901395353,-5.999996339912313,16.283176,-5.734757,-1.9294753,3.2105975,-20.497534,10.165382,2.537944,0.85100657,-0.0051080845,0.48914,0.19105989,-17.432709,-0.20587862,-2.466348,-5.478124,-0.89650786,3.1629672,1
1.300000000000001,21.0,1.8486537894793478,1.206980887058391,-5.999995214417785,5.2160807,-6.391432,-0.4754753,4.267156,-20.671188,10.163491,2.513218,0.8497998,-0.019821618,0.47955117,0.21789508,-17.298887,-0.17113198,-2.478467,-5.5178123,-1.0576891,3.1653044,1
1.310000000000001,21.0,1.8486537894793478,1.206980887058391,-5.999995214417785,17.754948,-6.005916,-2.0082223,3.0258734,-20.843954,10.16185,2.488094,0.8477922,-0.034726396,0.46916348,0.24480255,-17.254583,-0.15666941,-2.5461802,-5.6293297,-1.0035511,3.2161298,1
1.320000000000001,21.0,1.8486537894793478,1.206980887058391,-5.999995214417785,4.3591714,-6.1183205,-1.0946021,5.065114,-21.015814,10.160548,2.46264,0.84496075,-0.04982846,0.45794618,0.2717424,-17.118414,-0.10243747,-2.544119,-5.6868143,-1.1603149,3.206794,1
1.330000000000001,21.0,1.8486537894793478,1.206980887058391,-5.999995214417785,17.45684,-5.518889,-1.8621383,2.816565,-21.186739,10.159644,2.436912,0.84133095,-0.06497069,0.4458013,0.29866785,-17.066982,-0.077970915,-2.601392,-5.7571354,-1.1720189,3.2733114,1
1.340000000000001,21.0,1.8486537894793478,1.206980887058391,-5.999995214417785,3.7606678,-6.4756846,-1.6238878,4.906656,-21.356794,10.1592,2.4109297,0.8368571,-0.079962686,0.4328818,0.325407,-16.945309,-0.009739833,-2.594584,-5.7197704,-1.2794794,3.2508986,1
1.350000000000001,21.0,4.083208548539965,1.383801935357848,-4.564926149251587,16.497044,-5.2747693,-2.405938,2.6986704,-21.526043,10.159234,2.3846846,0.83157045,-0.09470157,0.4191674,0.35188237,-16.904678,0.016821457,-2.6543915,-5.7549567,-1.3251162,3.3095856,1
1.360000000000001,21.0,4.083208548539965,1.383801935357848,-4.564926149251587,4.282785,-5.9861693,-1.9957259,4.3285356,-21.694576,10.159782,2.3581736,0.82555205,-0.10902084,0.40456694,0.37802666,-16.803411,0.09359134,-2.6473281,-5.6797376,-1.4933969,3.2796078,1
1.370000000000001,21.0,4.083208548539965,1.383801935357848,-4.564926149251587,16.141867,-4.8144684,-2.6894093,2.641314,-21.862473,10.160839,2.3313692,0.8188128,-0.1228915,0.3891079,0.40378052,-16.775816,0.117747046,-2.7135718,-5.702533,-1.5471238,3.32572,1
1.380000000000001,21.0,4.083208548539965,1.383801935357848,-4.564926149251587,3.1732755,-4.81341,-1.3307433,4.0453553,-22.029806,10.162437,2.3042846,0.811395,-0.13612539,0.3728496,0.42905888,-16.691969,0.20255545,-2.702925,-5.5636916,-1.7248403,3.292136,1
1.390000000000001,21.0,4.083208548539965,1.383801935357848,-4.564926149251587,15.307459,-4.94506,-2.9917877,2.8206115,-22.19663,10.164571,2.276901,0.8033075,-0.14865644,0.3559629,0.4537499,-16.67348,0.22419041,-2.7737734,-5.5265274,-1.7433242,3.3219492,1
1.400000000000001,21.0,5.999999945093039,0.4096946462828073,-2.570662974102677,3.5350876,-3.6385577,-0.41141963,3.5260317,-22.363039,10.167246,2.2492132,0.7945601,-0.16050582,0.338396,0.4779126,-16.609592,0.3112145,-2.7633781,-5.4354587,-1.9377375,3.2973483,1
1.410000000000001,21.0,5.999999945093039,0.4096946462828073,-2.570662974102677,13.978292,-5.0354567,-2.6132517,3.028473,-22.529053,10.170483,2.2212446,0.785114,-0.1715901,0.32074675,0.501273,-16.593966,0.33621976,-2.8303802,-5.2336283,-1.7773452,3.3015802,1
1.420000000000001,21.0,5.999999945093039,0.4096946462828073,-2.570662974102677,3.2394614,-4.222739,-0.75566864,3.4521596,-22.694769,10.174259,2.1929662,0.7749305,-0.18207286,0.30309504,0.5238949,-16.55036,0.41933775,-2.8249211,-5.2024603,-1.9075919,3.2881787,1
1.430000000000001,21.0,5.999999945093039,0.4096946462828073,-2.570662974102677,13.587517,-4.4520397,-2.4615247,3.22628,-22.860224,10.178558,2.1643603,0.76401544,-0.19211544,0.28537413,0.5458333,-16.541183,0.4406361,-2.896304,-5.080968,-1.7586892,3.2934463,1
1.440000000000001,21.0,5.999999945093039,0.4096946462828073,-2.570662974102677,6.11824,-3.3380442,0.31100678,3.3999782,-23.02549,10.183376,2.135427,0.7524125,-0.20158486,0.26773882,0.56705844,-16.513084,0.52299505,-2.8900707,-4.9826565,-1.8680745,3.2901506,1
1.450000000000001,21.0,5.9999999467781615,-5.096958098550294,4.621250041183042,13.72418,-2.8162475,-1.187401,3.6324763,-23.19057,10.188796,2.1062787,0.740109,-0.21054474,0.25076425,0.5873901,-16.503443,0.5606723,-2.9397764,-4.736056,-1.5369036,3.294701,1
1.460000000000001,21.0,5.9999999467781615,-5.096958098550294,4.621250041183042,3.314424,-2.7701607,0.39945006,3.6163106,-23.355528,10.1948185,2.0769308,0.7271594,-0.21884191,0.23509827,0.60669315,-16.488922,0.6437651,-2.9296334,-4.436764,-1.481805,3.3112757,1
1.470000000000001,21.0,5.9999999467781615,-5.096958098550294,4.621250041183042,14.175066,-2.5003893,-0.9447379,3.9275606,-23.520403,10.2013855,2.0473151,0.7136784,-0.22650294,0.22038434,0.62513244,-16.486374,0.6695566,-2.9936113,-4.2782364,-1.2890663,3.3172066,1
1.480000000000001,21.0,5.9999999467781615,-5.096958098550294,4.621250041183042,5.4996357,-2.3138642,0.5774236,3.8947258,-23.68525,10.208505,2.0174565,0.6997029,-0.23356558,0.20665215,0.6427738,-16.484217,0.7541292,-2.9779873,-4.001075,-1.2348483,3.3471568,1
1.490000000000001,21.0,5.9999999467781615,-5.096958098550294,4.621250041183042,15.284679,-1.9782332,-1.3656213,4.2465363,-23.850098,10.216229,1.9874374,0.6852774,-0.24005465,0.19400159,0.65964556,-16.485834,0.7907218,-3.026007,-3.811656,-1.0251197,3.3674624,1
1.500000000000001,21.0,6.0,-5.999999997279387,3.4277082757076798,6.215068,-3.2803688,-0.23165824,3.1166592,-24.015001,10.224583,1.9573059,0.6704973,-0.24577773,0.18231934,0.6758598,-16.495756,0.87964547,-3.0001976,-3.525589,-1.0776932,3.410599,1
1.5100000000000011,21.0,6.0,-5.999999997279387,3.4277082757076798,14.756324,-2.440514,-1.7048664,3.3923402,-24.179987,10.233558,1.9270662,0.65540206,-0.25094137,0.17121069,0.6914937,-16.502028,0.9152088,-3.0477188,-3.487649,-0.94563717,3.3961754,1
1.5200000000000011,21.0,6.0,-5.999999997279387,3.4277082757076798,9.963553,-2.8648195,0.62060285,3.594152,-24.345104,10.243125,1.8967006,0.64005315,-0.25563306,0.16035883,0.7065895,-16.521996,0.9980592,-3.0253615,-3.3240879,-1.0636768,3.395987,1
1.5300000000000011,21.0,6.0,-5.999999997279387,3.4277082757076798,15.711584,-3.006266,-2.3486667,3.0972085,-24.510405,10.253379,1.8663641,0.62439746,-0.2600751,0.15007001,0.72108793,-16.53873,1.0527643,-3.0418918,-3.253041,-0.8008775,3.4057112,1
1.5400000000000011,21.0,6.0,-5.999999997279387,3.4277082757076798,9.747363,-3.2736888,0.12158798,2.0324755,-24.675943,10.264329,1.8360988,0.6084571,-0.26420775,0.13990706,0.7351192,-16.57003,1.1370133,-3.011129,-3.214032,-1.0421367,3.390573,1
1.5500000000000012,21.0,6.0,-6.0,1.4653048976680052,16.125238,-3.429703,-1.952575,2.6604648,-24.841753,10.275953,1.8058975,0.59236103,-0.26809087,0.12958163,0.7486283,-16.592388,1.1878327,-3.0291173,-3.2237737,-0.8605357,3.323931,1
1.5600000000000012,21.0,6.0,-6.0,1.4653048976680052,13.434692,-3.3883543,-0.65159583,2.1806347,-25.007883,10.288241,1.7757792,0.57608676,-0.2719185,0.119046204,0.7615855,-16.634132,1.2693417,-2.9945006,-3.255541,-1.0308387,3.2913742,1
1.5700000000000012,21.0,6.0,-6.0,1.4653048976680052,17.097454,-3.6507955,-2.2987006,2.5377216,-25.174416,10.301265,1.7458973,0.5596542,-0.27549776,0.10813093,0.7740775,-16.672789,1.3348529,-2.981869,-3.2764146,-0.97162426,3.2368698,1
1.5800000000000012,21.0,6.0,-6.0,1.4653048976680052,14.675978,-3.9771638,-0.54736733,1.9215977,-25.34141,10.315016,1.7162933,0.5430651,-0.27875638,0.0967265,0.786142,-16.726809,1.4148984,-2.9388871,-3.3343892,-1.1786289,3.2025623,1
1.5900000000000012,21.0,6.0,-6.0,1.4653048976680052,17.833199,-3.8579895,-2.3956845,2.5666835,-25.508926,10.329494,1.6870202,0.5262759,-0.2819017,0.08474462,0.7977365,-16.777216,1.4804006,-2.9157236,-3.434879,-1.0802529,3.1397052,1
1.6000000000000012,21.0,6.0,-6.0,-0.2841925828124618,17.665476,-4.46761,-1.2032778,2.2011213,-25.677027,10.344679,1.6581097,0.50927025,-0.28489074,0.07217439,0.80887073,-16.843327,1.5557991,-2.8663666,-3.5004668,-1.285464,3.111587,1
1.6100000000000012,21.0,6.0,-6.0,-0.2841925828124618,17.768734,-3.8243995,-2.0139587,2.4199026,-25.845808,10.360592,1.6296864,0.491992,-0.28762618,0.058825716,0.8196063,-16.913494,1.6258909,-2.818292,-3.651355,-1.2728467,3.06691,1
1.6200000000000012,21.0,6.0,-6.0,-0.2841925828124618,25.227255,-5.144405,-3.0278451,2.0545,-26.015316,10.377182,1.6017481,0.4744604,-0.29019564,0.044901356,0.82985395,-16.9887,1.6913756,-2.769339,-3.678139,-1.3884002,3.035161,1
1.6300000000000012,21.0,6.0,-6.0,-0.2841925828124618,16.631968,-3.7433493,-1.8693466,2.5946984,-26.185684,10.394468,1.5744624,0.45664972,-0.2921187,0.029906213,0.8397876,-17.085995,1.7647282,-2.6878018,-3.906348,-1.6443999,2.9870396,1
1.6400000000000012,21.0,6.0,-6.0,-0.2841925828124618,26.670742,-4.507783,-3.492561,0.7965872,-26.356936,10.412373,1.5477821,0.4385588,-0.29348448,0.014104126,0.84931386,-17.164505,1.8152477,-2.648271,-3.8808815,-1.6793821,2.9677873,1
1.6500000000000012,21.0,6.0,-6.0,-1.9249731977970468,15.74409,-4.133238,-1.8583121,2.4025583,-26.529114,10.430822,1.5217068,0.42039487,-0.29404625,-0.0023124786,0.8583703,-17.271753,1.8732877,-2.566804,-3.9782352,-1.9620588,2.8612459,1
1.6600000000000013,21.0,6.0,-6.0,-1.9249731977970468,25.425144,-3.6042385,-2.2752411,1.3090583,-26.702234,10.449739,1.4961993,0.40212977,-0.29397932,-0.019354193,0.866887,-17.35265,1.9092141,-2.5347164,-4.002467,-1.9458658,2.838738,1
1.6700000000000013,21.0,6.0,-6.0,-1.9249731977970468,14.307305,-4.4338465,-1.3435392,2.1650982,-26.876335,10.469041,1.4712582,0.3838252,-0.29358408,-0.036402732,0.87473494,-17.468042,1.9499129,-2.453532,-3.9403663,-1.9969237,2.7636762,1
1.6800000000000013,21.0,6.0,-6.0,-1.9249731977970468,22.432129,-3.7347412,-2.1076014,1.888319,-27.051405,10.488649,1.4468222,0.36547968,-0.29311657,-0.053494453,0.88184214,-17.546316,1.9708098,-2.4337184,-4.017544,-1.8950906,2.7343037,1
1.6900000000000013,21.0,6.0,-6.0,-1.9249731977970468,13.860644,-4.7255683,-0.09434177,2.5642712,-27.227476,10.508477,1.4228864,0.34702775,-0.29261297,-0.07060537,0.8882366,-17.668106,1.9934075,-2.3535726,-3.9734344,-1.9280454,2.692791,1
1.7000000000000013,21.0,6.0,-6.0,-3.443698747323683,29.90292,-4.297333,-4.3225417,-0.2229035,-27.404554,10.528459,1.3994269,0.32844234,-0.29255226,-0.08765592,0.893787,-17.747555,2.0019739,-2.3384318,-4.091237,-1.6422698,2.6864843,1
1.7100000000000013,21.0,6.0,-6.0,-3.443698747323683,13.392019,-4.0957756,0.43257022,2.2537198,-27.582663,10.548508,1.3764336,0.30982202,-0.2920433,-0.10519856,0.8986959,-17.874432,2.006181,-2.2604656,-4.122837,-2.0599287,2.5437198,1
1.7200000000000013,21.0,6.0,-6.0,-3.443698747323683,27.663113,-3.3217895,-3.9293249,-0.09948625,-27.7618,10.568558,1.3538781,0.29133075,-0.291304,-0.12286249,0.90286946,-17.953829,2.0028605,-2.2507858,-4.1192765,-1.6711804,2.5294895,1
1.7300000000000013,21.0,6.0,-6.0,-3.443698747323683,12.922203,-4.48903,0.16485141,2.6137092,-27.94199,10.588519,1.3317463,0.27306366,-0.29027036,-0.14022928,0.90637475,-18.08406,1.9880192,-2.1758697,-3.9944975,-2.022795,2.4004848,1
1.7400000000000013,21.0,6.0,-6.0,-3.443698747323683,29.43779,-3.27961,-3.5163171,-0.21875156,-28.12322,10.608331,1.3100079,0.25492987,-0.28899866,-0.15750223,0.9092215,-18.162092,1.97354,-2.1720045,-4.072141,-1.6817815,2.4109476,1
1.7500000000000013,21.0,6.0,-6.0,-4.778400598705548,12.810793,-4.392797,1.4541535,3.3302023,-28.305498,10.627905,1.2886451,0.23695108,-0.28755292,-0.1746106,0.9114158,-18.293768,1.9398631,-2.1008632,-3.9482622,-1.967349,2.2819073,1
1.7600000000000013,21.0,6.0,-6.0,-4.778400598705548,23.299425,-3.7751343,-1.6205494,1.8797762,-28.488825,10.6471815,1.2676402,0.21916464,-0.28648362,-0.19140874,0.91282904,-18.371496,1.9145105,-2.1003492,-4.01833,-1.434006,2.3333473,1
1.7700000000000014,21.0,6.0,-6.0,-4.778400598705548,12.539175,-4.676317,2.1672664,4.661914,-28.673199,10.666074,1.2469708,0.2013883,-0.28639108,-0.20786317,0.9133543,-18.503279,1.8626103,-2.0339637,-3.9803813,-1.462982,2.3110905,1
1.7800000000000014,21.0,6.0,-6.0,-4.778400598705548,28.66206,-5.4547105,-3.2904227,-0.16088511,-28.858643,10.684514,1.2266492,0.18339787,-0.28726342,-0.22435936,0.9129666,-18.585758,1.8246351,-2.0308988,-4.1992426,-1.0071787,2.4166212,1
1.7900000000000014,21.0,6.0,-6.0,-4.778400598705548,11.179251,-4.751866,1.8511927,3.8259585,-29.045158,10.702421,1.2066427,0.16508599,-0.28831896,-0.24161981,0.911723,-18.717453,1.755282,-1.9710059,-4.3945827,-1.3631954,2.2901423,1
1.8000000000000014,21.0,6.0,-6.0,-5.956455084665013,29.610315,-5.035004,-2.7971132,1.9204345,-29.232681,10.71977,1.1868526,0.14667416,-0.2895757,-0.2593655,0.90959466,-18.78684,1.7138344,-1.9875872,-4.482033,-0.8933291,2.3627083,1
1.8100000000000014,21.0,6.0,-6.0,-5.956455084665013,10.507975,-5.6419816,1.2396452,4.2971835,-29.421204,10.736479,1.1672386,0.1280172,-0.2910903,-0.27721784,0.9066579,-18.917454,1.626512,-1.9359246,-4.567828,-1.1902909,2.3410058,1
1.8200000000000014,21.0,6.0,-6.0,-5.956455084665013,26.883965,-4.7168245,-0.49856877,3.5356076,-29.610708,10.752502,1.1477597,0.108924374,-0.29264647,-0.2955285,0.9028602,-18.983143,1.5776443,-1.9604018,-4.7880735,-0.86424965,2.43231,1
1.8300000000000014,21.0,6.0,-6.0,-5.956455084665013,10.372705,-6.656155,1.4460771,4.4627843,-29.801184,10.767759,1.1283691,0.08955254,-0.29500794,-0.3138627,0.8980206,-19.111311,1.4722859,-1.9185519,-4.777024,-0.80737305,2.486449,1
1.8400000000000014,21.0,6.0,-6.0,-5.956455084665013,16.365437,-6.1558714,-1.2744408,2.8574152,-29.992615,10.7822,1.1090316,0.06989637,-0.29812616,-0.33230865,0.8920799,-19.174562,1.415239,-1.9495256,-5.0173407,-0.5057768,2.5790255,1
1.8500000000000014,21.0,6.0,-6.0,-6.0,11.086931,-6.9908195,2.0402634,4.4916234,-30.184834,10.795894,1.0895326,0.049795166,-0.3015487,-0.35124075,0.88499665,-19.26867,1.3225521,-1.9510317,-5.170379,-0.6259526,2.5926862,1
1.8600000000000014,21.0,6.0,-6.0,-6.0,19.184704,-6.0317154,0.09663604,2.9493585,-30.37785,10.80877,1.0698596,0.029399712,-0.30540442,-0.37052357,0.8766849,-19.33409,1.2522292,-1.9842781,-5.352619,-0.26303744,2.6811817,1
1.8700000000000014,21.0,6.0,-6.0,-6.0,12.713977,-7.474292,2.7224598,4.5342274,-30.571722,10.820679,1.050036,0.008921338,-0.31000987,-0.38997287,0.867027,-19.440123,1.1282178,-1.9815059,-5.453674,-0.20716953,2.694341,1
1.8800000000000014,21.0,6.0,-6.0,-6.0,23.736912,-7.5477133,3.180708,2.442237,-30.766474,10.83152,1.0300521,-0.011463251,-0.31550047,-0.40944216,0.8559705,-19.509956,1.0395436,-2.0161982,-5.5637035,0.22513333,2.7824557,1
1.8900000000000015,21.0,6.0,-6.0,-6.0,16.630192,-10.453269,3.8399072,3.1780891,-30.962147,10.841139,1.0098953,-0.031207327,-0.32267302,-0.42885935,0.8432011,-19.624071,0.8829087,-2.0165527,-5.632571,0.6859905,2.7657611,1
1.9000000000000015,20.999462106911327,5.999764048881726,-5.999995456905953,-5.999743788843932,22.84856,-7.7845597,6.1556063,2.5655103,-31.158817,10.849344,0.9895837,-0.050007496,-0.33152735,-0.4481871,0.82868415,-19.70931,0.75721663,-2.0469398,-5.6907725,1.1776631,2.7859943,1
1.9100000000000015,20.999462106911327,5.999764048881726,-5.999995456905953,-5.999743788843932,18.29436,-13.930177,5.1266475,2.6244292,-31.356455,10.856068,0.969023,-0.06745864,-0.34261927,-0.46742302,0.81214374,-19.817904,0.58631223,-2.0668817,-5.740347,1.9296551,2.7751749,1
1.9200000000000015,20.999462106911327,5.999764048881726,-5.999995456905953,-5.999743788843932,28.096449,-11.624177,8.769754,2.1113017,-31.555084,10.861189,0.94815314,-0.08342636,-0.35582355,-0.48654675,0.7935378,-19.907494,0.43712184,-2.1086407,-5.7817287,2.4281778,2.7677777,1
1.9300000000000015,20.999462106911327,5.999764048881726,-5.999995456905953,-5.999743788843932,21.649479,-17.057268,8.15398,1.731373,-31.754683,10.864652,0.92685914,-0.09799823,-0.37063986,-0.5055054,0.7729728,-20.01167,0.25470865,-2.1521485,-5.8167095,2.9852612,2.7355642,1
1.9400000000000015,20.999462106911327,5.999764048881726,-5.999995456905953,-5.999743788843932,28.416847,-16.42763,9.3333845,0.96204793,-31.95531,10.866269,0.9050643,-0.11105506,-0.38685352,-0.52427906,0.7504284,-20.113487,0.06821092,-2.208949,-5.8460207,3.455544,2.686288,1
1.9500000000000015,20.99989965559012,-5.9999376325595435,-5.999959772977674,4.64393116253285,25.291569,-17.925047,8.735391,1.7336525,-32.156948,10.866,0.8826325,-0.122631766,-0.40398505,-0.5428245,0.72601604,-20.213398,-0.12250458,-2.2796557,-5.870517,3.8526316,2.601679,1
1.9600000000000015,20.99989965559012,-5.9999376325595435,-5.999959772977674,4.64393116253285,32.537773,-16.657862,9.456636,0.5593475,-32.35957,10.863809,0.8594206,-0.13286057,-0.42169142,-0.56104124,0.6998266,-20.310865,-0.31600735,-2.3650742,-5.891161,4.1876416,2.5590847,1
1.9700000000000015,20.99989965559012,-5.9999376325595435,-5.999959772977674,4.64393116253285,27.966782,-15.35625,8.911135,1.8465277,-32.563152,10.8596735,0.8352786,-0.14182445,-0.43964702,-0.5788542,0.67195547,-20.405489,-0.51130867,-2.4657516,-5.9083204,4.4706273,2.460957,1
1.9800000000000015,20.99989965559012,-5.9999376325595435,-5.999959772977674,4.64393116253285,34.41136,-13.45874,8.314354,2.5198994,-32.76767,10.8535795,0.8100518,-0.14963837,-0.45761234,-0.59616137,0.6424881,-20.496763,-0.7073653,-2.5820832,-5.922908,4.7092257,2.4308069,1
1.9900000000000015,20.99989965559012,-5.9999376325595435,-5.999959772977674,4.64393116253285,30.874317,-12.866707,7.7694263,3.1347535,-32.97308,10.845527,0.7835823,-0.15655138,-0.475513,-0.61276275,0.6114744,-20.584106,-0.90308845,-2.7143064,-5.935263,4.9104853,2.4351788,1
2.0000000000000013,21.0,6.0,-6.0,-6.0,36.818386,-10.95122,7.9586253,3.7880414,-33.17934,10.835524,0.7557107,-0.16272813,-0.49325535,-0.62849694,0.5789735,-20.666874,-1.0973582,-2.8624985,-5.9457417,5.0802455,2.4695072,1
2.010000000000001,21.0,6.0,-6.0,-6.0,32.99945,-10.960583,7.951668,4.058525,-33.386402,10.823588,0.72627765,-0.1683077,-0.5107692,-0.64320636,0.5450439,-20.74437,-1.2890377,-3.0265753,-5.9546533,5.2234154,2.534208,1
2.020000000000001,21.0,6.0,-6.0,-6.0,34.88996,-11.36301,8.667507,3.619076,-33.594208,10.809755,0.6951254,-0.17338392,-0.527977,-0.6567585,0.5097514,-20.815872,-1.4769884,-3.20629,-5.962185,5.3442206,2.609007,1
2.0300000000000007,21.0,6.0,-6.0,-6.0,43.680138,-9.254368,8.591852,4.612714,-33.802692,10.794067,0.6620995,-0.17796521,-0.54473066,-0.6690973,0.47318655,-20.88064,-1.6600852,-3.4012368,-5.9684315,5.4462857,2.6585715,1
2.0400000000000005,21.0,6.0,-6.0,-6.0,39.260456,-9.134666,8.182739,3.5956767,-34.011787,10.776575,0.6270502,-0.18209772,-0.56096023,-0.6801235,0.43542615,-20.937933,-1.8372282,-3.6108544,-5.9738483,5.5322547,2.7544618,1
2.0500000000000003,21.0,6.0,-6.0,-6.0,44.873325,-7.6058116,8.731525,4.890231,-34.22142,10.757346,0.5898344,-0.18578933,-0.5765549,-0.6897864,0.39656198,-20.987019,-2.0073564,-3.8344324,-5.978208,5.605031,2.7957406,1
2.06,14.967317162251685,5.902211277063058,5.477226289177104,-5.999863683199696,40.777027,-8.067301,7.989966,4.6134415,-34.4315,10.736456,0.5503165,-0.18905523,-0.591447,-0.6980168,0.35668042,-21.027197,-2.169459,-4.071118,-5.9820976,5.6662188,2.8985178,1
2.07,14.967317162251685,5.902211277063058,5.477226289177104,-5.999863683199696,46.895973,-7.2511387,8.899628,5.3512306,-34.641933,10.713988,0.50837034,-0.19194183,-0.6056345,-0.7047002,0.31585217,-21.057802,-2.322588,-4.3199224,-5.9853015,5.7179375,2.9826698,1
2.0799999999999996,14.967317162251685,5.902211277063058,5.477226289177104,-5.999863683199696,40.910492,-6.5143247,8.5679655,5.563122,-34.85262,10.690039,0.4638802,-0.19445586,-0.61907554,-0.7097656,0.27416205,-21.07821,-2.4658682,-4.5797353,-5.9881144,5.7614665,3.098896,1
2.0899999999999994,14.967317162251685,5.902211277063058,5.477226289177104,-5.999863683199696,45.555706,-5.581263,9.578616,6.434922,-35.06346,10.664707,0.41674203,-0.1966159,-0.6317727,-0.713111,0.23168482,-21.087856,-2.5985105,-4.8493285,-5.990499,5.7981896,3.2198162,1
2.099999999999999,14.967317162251685,5.902211277063058,5.477226289177104,-5.999863683199696,41.015434,-5.394491,9.194882,6.849084,-35.27434,10.638106,0.3668646,-0.19831245,-0.64373946,-0.7146274,0.18862426,-21.086248,-2.719821,-5.1273675,-5.9272623,5.8292675,3.3562407,1
2.109999999999999,0.50014145663724,5.999796936342019,-5.999971719878839,-5.999942134060755,43.4039,-4.3466434,10.570974,7.0725126,-35.48515,10.610352,0.3141705,-0.19939873,-0.6549885,-0.7142411,0.14522235,-21.073055,-2.8292227,-5.412428,-5.84473,5.855579,3.4859707,1
2.1199999999999988,0.50014145663724,5.999796936342019,-5.999971719878839,-5.999942134060755,42.676758,-6.506902,10.356987,6.3837895,-35.695763,10.581564,0.25859696,-0.19956528,-0.6655521,-0.7119209,0.10189333,-21.048113,-2.926263,-5.7030334,-5.611628,5.878178,3.609335,1
2.1299999999999986,0.50014145663724,5.999796936342019,-5.999971719878839,-5.999942134060755,43.03365,-3.9087813,10.5806465,7.91393,-35.906067,10.551869,0.20009586,-0.19905262,-0.6753121,-0.707752,0.058466513,-21.011482,-3.0106266,-5.997701,-5.672689,5.8966002,3.7266457,1
2.1399999999999983,0.50014145663724,5.999796936342019,-5.999971719878839,-5.999942134060755,44.9335,-7.9961567,10.492792,6.09704,-36.115948,10.521396,0.13863422,-0.1977352,-0.6842388,-0.7017752,0.015142105,-20.963028,-3.0820918,-6.294907,-5.398078,5.9129977,3.8381996,1
2.149999999999998,0.50014145663724,5.999796936342019,-5.999971719878839,-5.999942134060755,42.59875,-2.9859357,9.593031,8.538517,-36.325287,10.4902725,0.07419405,-0.19569291,-0.6922737,-0.6940268,-0.028068842,-20.902933,-3.140571,-6.593174,-5.49239,5.925951,3.94428,1
2.159999999999998,0.5000169061756118,3.9481395152878003,-5.539951092786329,-5.994355337764919,44.26022,-6.1312284,8.496371,7.1150064,-36.533962,10.45863,0.006772358,-0.19266416,-0.6994326,-0.6845849,-0.070835926,-20.831205,-3.1860774,-6.890981,-5.1019316,5.938164,4.045155,1
2.1699999999999977,0.5000169061756118,3.9481395152878003,-5.539951092786329,-5.994355337764919,39.796364,-3.695129,6.984236,8.973735,-36.741867,10.426596,-0.063619345,-0.18877676,-0.70566654,-0.6734882,-0.1131875,-20.748285,-3.2187421,-7.186962,-5.242381,5.9471107,4.14108,1
2.1799999999999975,0.5000169061756118,3.9481395152878003,-5.539951092786329,-5.994355337764919,41.88338,-4.768642,6.709026,7.1477404,-36.948887,10.394299,-0.13695548,-0.18423606,-0.71086204,-0.66077906,-0.15525135,-20.65428,-3.2387989,-7.479638,-5.001465,5.9557104,4.2322974,1
2.1899999999999973,0.5000169061756118,3.9481395152878003,-5.539951092786329,-5.994355337764919,39.582714,-5.068793,5.8411317,7.3463583,-37.154915,10.361862,-0.21319617,-0.17875722,-0.7150726,-0.6465588,-0.19666839,-20.549566,-3.2465734,-7.7676716,-4.9655123,5.9624357,4.319039,1
2.199999999999997,0.5000169061756118,3.9481395152878003,-5.539951092786329,-5.994355337764919,37.39905,-5.0497,5.5825872,6.667157,-37.359844,10.329408,-0.29228836,-0.17283152,-0.71816224,-0.6307626,-0.23771942,-20.434483,-3.2425022,-8.0497265,-4.981885,5.9432044,4.4015245,1
2.209999999999997,20.999918249091586,-5.999981074284387,-5.99993405001073,-5.9998987147340355,35.61455,-3.8500986,5.4139504,7.6493654,-37.56357,10.297051,-0.37416548,-0.16663606,-0.720115,-0.61337656,-0.2782727,-20.309286,-3.2271807,-8.324437,-4.9926,5.8866806,4.479962,1
2.2199999999999966,20.999918249091586,-5.999981074284387,-5.99993405001073,-5.9998987147340355,37.607937,-6.779945,4.6062293,6.1518717,-37.76599,10.264901,-0.45874748,-0.15989332,-0.7210373,-0.5945716,-0.3178422,-20.174332,-3.201365,-8.59053,-4.814496,5.8132434,4.5545506,1
2.2299999999999964,20.999918249091586,-5.999981074284387,-5.99993405001073,-5.9998987147340355,32.884304,-1.4526051,3.437741,8.215962,-37.967022,10.233057,-0.54594284,-0.15314482,-0.7209792,-0.5742142,-0.35638946,-20.030184,-3.165925,-8.846955,-4.9990764,5.6242323,4.625479,1
2.239999999999996,20.999918249091586,-5.999981074284387,-5.99993405001073,-5.9998987147340355,35.39402,-4.7255507,3.388539,6.3785152,-38.16657,10.201611,-0.6356497,-0.14604175,-0.72036505,-0.55267584,-0.39280427,-19.877285,-3.12205,-9.092703,-4.4452157,5.28472,4.6929274,1
2.249999999999996,20.999918249091586,-5.999981074284387,-5.99993405001073,-5.9998987147340355,30.656746,2.0223713,1.8302329,8.616741,-38.364544,10.170641,-0.72775924,-0.13853683,-0.7194663,-0.5301609,-0.42673746,-19.716627,-3.070969,-9.327496,-4.488239,4.988692,4.757066,1
2.259999999999996,20.999900156839505,-1.1157547420604301,-3.871367244211736,-5.999800865244602,31.37476,-1.1067783,1.6333745,6.3773994,-38.56088,10.140212,-0.822161,-0.12991449,-0.718739,-0.5073729,-0.45728415,-19.549006,-3.0139945,-9.551151,-3.471573,4.4991384,4.8180566,1
2.2699999999999956,20.999900156839505,-1.1157547420604301,-3.871367244211736,-5.999800865244602,29.638039,2.6965315,-0.40664172,7.903602,-38.755505,10.110378,-0.91874695,-0.119697675,-0.71866614,-0.4849017,-0.48379892,-19.37582,-2.9521005,-9.764519,-3.1015396,4.053265,4.8760552,1
2.2799999999999954,20.999900156839505,-1.1157547420604301,-3.871367244211736,-5.999800865244602,29.22739,3.6275573,-0.8998096,7.834219,-38.94838,10.081183,-1.017419,-0.10826233,-0.719621,-0.46286342,-0.5061442,-19.198162,-2.8862715,-9.9685335,-2.195254,3.3605387,4.9312077,1
2.289999999999995,20.999900156839505,-1.1157547420604301,-3.871367244211736,-5.999800865244602,21.970024,4.2115793,0.8872442,7.2985225,-39.139458,10.052664,-1.1180909,-0.09487948,-0.7221722,-0.44209194,-0.5234688,-19.01726,-2.817291,-10.164785,-1.2851566,2.699013,4.983654,1
2.299999999999995,20.999900156839505,-1.1157547420604301,-3.871367244211736,-5.999800865244602,18.722115,1.9501892,2.238105,4.439312,-39.328712,10.024847,-1.2206945,-0.07912721,-0.7258501,-0.4228419,-0.53673536,-18.834345,-2.7455215,-10.355139,-0.4271121,2.4192357,5.0335264,1
2.3099999999999947,20.99993895815579,-5.999780701861132,5.999681103864415,1.9061672286864704,13.015827,0.8498576,4.2198873,3.695767,-39.51626,9.997712,-1.3251176,-0.061402325,-0.72962445,-0.4047853,-0.54774666,-18.675707,-2.6810238,-10.528896,-0.056237653,2.392205,5.0043683,1
2.3199999999999945,20.99993895815579,-5.999780701861132,5.999681103864415,1.9061672286864704,11.635679,-0.43750083,3.838605,2.2477672,-39.70246,9.971134,-1.4311498,-0.04257215,-0.7324522,-0.3873119,-0.55829245,-18.565107,-2.6341922,-10.677147,0.08424935,2.6776862,4.940155,1
2.3299999999999943,20.99993895815579,-5.999780701861132,5.999681103864415,1.9061672286864704,9.388819,-0.8410166,4.9684787,2.8033142,-39.887566,9.945032,-1.5386484,-0.023335747,-0.73403484,-0.37012517,-0.5689071,-18.456215,-2.5860522,-10.821945,0.095946975,2.765632,4.8187733,1
2.339999999999994,20.99993895815579,-5.999780701861132,5.999681103864415,1.9061672286864704,12.124663,-0.549166,4.5887637,2.3059201,-40.07167,9.919379,-1.6475428,-0.0041075572,-0.7344203,-0.3530421,-0.57962996,-18.365623,-2.54432,-10.956469,0.07718699,2.9812343,4.731322,1
2.349999999999994,20.99993895815579,-5.999780701861132,5.999681103864415,1.9061672286864704,13.564814,-1.5673939,5.04265,3.0438342,-40.254776,9.894198,-1.757806,0.015103415,-0.7334934,-0.3359963,-0.5906484,-18.255686,-2.4917047,-11.0955105,0.055287547,3.155767,4.6191273,1
2.3599999999999937,20.999964432867106,-5.964445650696407,5.994843746627835,-0.3017360835053653,16.304087,-3.3398519,5.558656,2.4087942,-40.43675,9.869568,-1.869452,0.033896636,-0.7311408,-0.31858957,-0.6023161,-18.139399,-2.4341078,-11.233087,-0.19847898,3.4492724,4.5418277,1
