time-since-start [s],throttle_mpc,roll_mpc,pitch_mpc,yaw_mpc,throttle_nw,roll_nw,pitch_nw,yaw_nw,position_x [m],position_y [m],position_z [m],rotation_w [quaternion],rotation_x [quaternion],rotation_y [quaternion],rotation_z [quaternion],velocity_x [m/s],velocity_y [m/s],velocity_z [m/s],omega_x [rad/s],omega_y [rad/s],omega_z [rad/s],network_used
0.0,11.416078204629608,5.999999605279399,-5.999999669511932,1.8234845589769002,13.833109,0.8962982,-2.3706017,-0.35942358,15.056472,-10.687195,1.7904111,0.3523572,-0.34175876,0.22520927,0.84162116,-10.28423,-0.9734771,0.08314597,1.1027918,0.061616834,-0.24553898,0
0.01,11.416078204629608,5.999999605279399,-5.999999669511932,1.8234845589769002,13.178195,2.5229354,-3.9218252,-0.2129456,14.953401,-10.696575,1.791136,0.3613582,-0.30357623,0.24278554,0.8475357,-10.328495,-0.902205,0.062416524,5.9999995,-5.9999995,1.8234845,0
0.02,11.416078204629608,5.999999605279399,-5.999999669511932,1.8234845589769002,13.178195,2.5229354,-3.9218252,-0.2129456,14.849932,-10.7052355,1.7916716,0.3696788,-0.26482213,0.25990468,0.8518546,-10.363801,-0.82981837,0.045180727,5.9999995,-5.9999995,1.8234845,0
0.03,11.416078204629608,5.999999605279399,-5.999999669511932,1.8234845589769002,13.178195,2.5229354,-3.9218252,-0.2129456,14.746157,-10.713169,1.7920493,0.3773034,-0.22556938,0.27653447,0.8545696,-10.38987,-0.7567026,0.030746195,5.9999995,-5.9999995,1.8234845,0
0.04,11.416078204629608,5.999999605279399,-5.999999669511932,1.8234845589769002,12.708881,-0.82553905,-1.1282455,-0.11169493,14.642168,-10.720368,1.7922938,0.3842176,-0.18589194,0.29264358,0.85567564,-10.40649,-0.6832487,0.018399475,5.9999995,-5.9999995,1.8234845,0
0.05,11.416078204629608,5.999999605279399,-5.999999669511932,1.8234845589769002,12.708881,-0.82553905,-1.1282455,-0.11169493,14.538061,-10.726834,1.792422,0.39040834,-0.1458645,0.30820167,0.85517055,-10.413527,-0.60985005,0.007411386,5.9999995,-5.9999995,1.8234845,0
0.060000000000000005,11.416078204629608,5.999999605279399,-5.999999669511932,1.8234845589769002,12.708881,-0.82553905,-1.1282455,-0.11169493,14.43393,-10.732568,1.7924441,0.395864,-0.105562426,0.32317948,0.8530553,-10.410912,-0.5368996,-0.0029574782,5.9999995,-5.9999995,1.8234845,0
0.07,11.416078204629608,5.999999605279399,-5.999999669511932,1.8234845589769002,12.708881,-0.82553905,-1.1282455,-0.11169493,14.329875,-10.737576,1.7923626,0.40057433,-0.0650616,0.3375488,0.84933394,-10.398653,-0.4647871,-0.013451191,5.9999995,-5.9999995,1.8234845,0
0.08,16.34113567079069,5.999998549931164,-5.999999485382857,0.2270119845741718,13.390477,-2.041196,3.832045,-0.16737387,14.22599,-10.741868,1.7921722,0.4045304,-0.024438258,0.35128257,0.8440134,-10.376829,-0.39389586,-0.02481287,5.9999995,-5.9999995,1.8234845,0
0.09,16.34113567079069,5.999998549931164,-5.999999485382857,0.2270119845741718,13.390477,-2.041196,3.832045,-0.16737387,14.122436,-10.745309,1.7920452,0.41447663,0.013427421,0.36417452,0.8339099,-10.332118,-0.2947235,-0.0010358565,5.9999986,-5.9999995,0.22701198,0
0.09999999999999999,16.34113567079069,5.999998549931164,-5.999999485382857,0.2270119845741718,13.390477,-2.041196,3.832045,-0.16737387,14.019393,-10.747772,1.7921405,0.4236764,0.051268913,0.37641057,0.8223046,-10.274254,-0.19850293,0.019529738,5.9999986,-5.9999995,0.22701198,0
0.10999999999999999,16.34113567079069,5.999998549931164,-5.999999485382857,0.2270119845741718,13.390477,-2.041196,3.832045,-0.16737387,13.916993,-10.749291,1.7924216,0.4321131,0.08901807,0.3879687,0.8092184,-10.203651,-0.10590212,0.03601006,5.9999986,-5.9999995,0.22701198,0
0.11999999999999998,16.34113567079069,5.999998549931164,-5.999999485382857,0.2270119845741718,13.390477,-2.041196,3.832045,-0.16737387,13.815361,-10.749905,1.7928436,0.4397716,0.1266069,0.39882803,0.79467463,-10.120819,-0.017563134,0.0475607,5.9999986,-5.9999995,0.22701198,0
0.12999999999999998,18.57414611674333,2.4202200215388667,-5.72503214495684,0.14864466246084548,14.663843,-3.6307447,3.9032373,0.119517386,13.714615,-10.74966,1.7933531,0.44663802,0.16396771,0.4089691,0.77869976,-10.026352,0.06590271,0.05337272,5.9999986,-5.9999995,0.22701198,0
0.13999999999999999,18.57414611674333,2.4202200215388667,-5.72503214495684,0.14864466246084548,14.663843,-3.6307447,3.9032373,0.119517386,13.614937,-10.748553,1.7939618,0.45556462,0.19188315,0.40528822,0.7690144,-9.907985,0.1541054,0.0679627,2.4202201,-5.7250323,0.14864466,0
0.15,18.57414611674333,2.4202200215388667,-5.72503214495684,0.14864466246084548,14.663843,-3.6307447,3.9032373,0.119517386,13.516483,-10.746605,1.7947029,0.464051,0.21961318,0.4012157,0.75858593,-9.781674,0.23439771,0.07980929,2.4202201,-5.7250323,0.14864466,0
0.16,17.22840808086206,-0.501997262981737,-0.529324125959398,-0.2105806720269343,15.490731,-3.0972214,2.8653262,-0.36787066,13.41933,-10.743894,1.795547,0.47208896,0.24713098,0.3967555,0.74742436,-9.647903,0.30647936,0.08847476,2.4202201,-5.7250323,0.14864466,0
0.17,17.22840808086206,-0.501997262981737,-0.529324125959398,-0.2105806720269343,15.490731,-3.0972214,2.8653262,-0.36787066,13.323493,-10.74052,1.7964271,0.47454286,0.24750467,0.39388737,0.74726367,-9.519737,0.36807296,0.08764402,-0.5019973,-0.5293241,-0.21058068,0
0.18000000000000002,17.22840808086206,-0.501997262981737,-0.529324125959398,-0.2105806720269343,15.490731,-3.0972214,2.8653262,-0.36787066,13.228936,-10.736535,1.7973024,0.47698992,0.24787478,0.3910136,0.74709225,-9.391625,0.4286352,0.08752959,-0.5019973,-0.5293241,-0.21058068,0
0.19000000000000003,17.22840808086206,-0.501997262981737,-0.529324125959398,-0.2105806720269343,15.490731,-3.0972214,2.8653262,-0.36787066,13.135659,-10.731952,1.7981801,0.47943014,0.24824132,0.38813418,0.74691004,-9.263576,0.48816416,0.08812784,-0.5019973,-0.5293241,-0.21058068,0
0.20000000000000004,15.79811260644354,-1.0680157673382336,1.3778218939000653,-0.3800672610637097,14.827245,-2.31065,4.0441246,-0.28806943,13.043664,-10.726777,1.7990674,0.48186344,0.24860428,0.38524917,0.7467171,-9.135598,0.5466578,0.08943508,-0.5019973,-0.5293241,-0.21058068,0
0.21000000000000005,15.79811260644354,-1.0680157673382336,1.3778218939000653,-0.3800672610637097,14.827245,-2.31065,4.0441246,-0.28806943,12.952892,-10.721045,1.7999305,0.4819368,0.240145,0.38503835,0.7495415,-9.018964,0.6002929,0.083406135,-1.0680158,1.3778219,-0.38006726,0
0.22000000000000006,15.79811260644354,-1.0680157673382336,1.3778218939000653,-0.3800672610637097,14.827245,-2.31065,4.0441246,-0.28806943,12.863278,-10.7147665,1.8007401,0.48197183,0.2316666,0.3847969,0.7523063,-8.904146,0.655501,0.07872175,-1.0680158,1.3778219,-0.38006726,0
0.23000000000000007,15.79811260644354,-1.0680157673382336,1.3778218939000653,-0.3800672610637097,14.827245,-2.31065,4.0441246,-0.28806943,12.774804,-10.707929,1.8015095,0.4819685,0.22316974,0.3845248,0.75501126,-8.791179,0.7122731,0.07534676,-1.0680158,1.3778219,-0.38006726,0
0.24000000000000007,15.79811260644354,-1.0680157673382336,1.3778218939000653,-0.3800672610637097,15.401539,-1.9945282,3.5744689,-0.0054530427,12.6874485,-10.700516,1.8022515,0.4819268,0.21465515,0.38422212,0.75765616,-8.680095,0.7705997,0.0732456,-1.0680158,1.3778219,-0.38006726,0
0.25000000000000006,15.79811260644354,-1.0680157673382336,1.3778218939000653,-0.3800672610637097,15.401539,-1.9945282,3.5744689,-0.0054530427,12.601195,-10.692512,1.8029786,0.48184675,0.20612347,0.38388884,0.7602407,-8.570925,0.83047086,0.07238228,-1.0680158,1.3778219,-0.38006726,0
0.26000000000000006,15.79811260644354,-1.0680157673382336,1.3778218939000653,-0.3800672610637097,15.401539,-1.9945282,3.5744689,-0.0054530427,12.516024,-10.683901,1.8037033,0.48172835,0.19757538,0.383525,0.7627647,-8.463702,0.89187604,0.07272043,-1.0680158,1.3778219,-0.38006726,0
0.2700000000000001,15.79811260644354,-1.0680157673382336,1.3778218939000653,-0.3800672610637097,15.401539,-1.9945282,3.5744689,-0.0054530427,12.431915,-10.674669,1.8044372,0.4815716,0.18901156,0.38313067,0.76522803,-8.358456,0.95480424,0.074223295,-1.0680158,1.3778219,-0.38006726,0
0.2800000000000001,14.710977351121096,-1.450878520689474,2.31235871961178,-0.4422945656422363,17.872469,-2.25992,3.8120456,-0.72845155,12.348849,-10.6648,1.8051918,0.48137656,0.18043272,0.3827058,0.7676305,-8.255216,1.0192442,0.076853745,-1.0680158,1.3778219,-0.38006726,0
0.2900000000000001,14.710977351121096,-1.450878520689474,2.31235871961178,-0.4422945656422363,17.872469,-2.25992,3.8120456,-0.72845155,12.266769,-10.654301,1.8059434,0.47991234,0.16720226,0.3830651,0.77135485,-8.161351,1.0810444,0.07367603,-1.4508785,2.3123586,-0.44229457,0
0.3000000000000001,14.710977351121096,-1.450878520689474,2.31235871961178,-0.4422945656422363,17.872469,-2.25992,3.8120456,-0.72845155,12.185613,-10.643171,1.8066695,0.4783564,0.15393986,0.38335118,0.7749317,-8.070432,1.1452783,0.07173927,-1.4508785,2.3123586,-0.44229457,0
0.3100000000000001,14.710977351121096,-1.450878520689474,2.31235871961178,-0.4422945656422363,17.872469,-2.25992,3.8120456,-0.72845155,12.1053505,-10.631387,1.8073821,0.47670898,0.14064799,0.38356397,0.7783605,-7.9825177,1.21191,0.07095948,-1.4508785,2.3123586,-0.44229457,0
0.3200000000000001,13.760237265264983,-1.8440919555000055,3.7222488046776516,-0.5879115092535414,17.051418,-2.4794369,4.562968,-0.63917714,12.025951,-10.618925,1.8080924,0.4749704,0.12732926,0.3837034,0.78164035,-7.8976693,1.2809017,0.071251765,-1.4508785,2.3123586,-0.44229457,0
0.3300000000000001,13.760237265264983,-1.8440919555000055,3.7222488046776516,-0.5879115092535414,17.051418,-2.4794369,4.562968,-0.63917714,11.947357,-10.6057825,1.8087785,0.47119668,0.10724805,0.38562584,0.7859795,-7.8217425,1.3481582,0.06612234,-1.844092,3.7222488,-0.5879115,0
0.34000000000000014,13.760237265264983,-1.8440919555000055,3.7222488046776516,-0.5879115092535414,17.051418,-2.4794369,4.562968,-0.63917714,11.8695,-10.591949,1.8094177,0.46721563,0.08711965,0.3873786,0.78997284,-7.7502,1.418988,0.061812796,-1.844092,3.7222488,-0.5879115,0
0.35000000000000014,13.760237265264983,-1.8440919555000055,3.7222488046776516,-0.5879115092535414,17.051418,-2.4794369,4.562968,-0.63917714,11.792337,-10.57739,1.810017,0.463029,0.066952914,0.3889609,0.79361856,-7.683153,1.4932891,0.058137108,-1.844092,3.7222488,-0.5879115,0
0.36000000000000015,13.41012316918122,-1.85664934093985,3.3218304761783926,-0.6226531995085202,16.014797,-2.6695669,4.26169,-0.5960468,11.715822,-10.562071,1.8105819,0.4586386,0.046756722,0.39037207,0.79691505,-7.6207056,1.5709531,0.05490813,-1.844092,3.7222488,-0.5879115,0
0.37000000000000016,13.41012316918122,-1.85664934093985,3.3218304761783926,-0.6226531995085202,16.014797,-2.6695669,4.26169,-0.5960468,11.6399,-10.54597,1.811104,0.4549849,0.028040119,0.3906647,0.7997394,-7.5643096,1.6496531,0.049581647,-1.8566494,3.3218305,-0.6226532,0
0.38000000000000017,13.41012316918122,-1.85664934093985,3.3218304761783926,-0.6226531995085202,16.014797,-2.6695669,4.26169,-0.5960468,11.564521,-10.529068,1.8115745,0.45116207,0.009313092,0.3908121,0.80226654,-7.512265,1.7310053,0.04451032,-1.8566494,3.3218305,-0.6226532,0
0.3900000000000002,13.41012316918122,-1.85664934093985,3.3218304761783926,-0.6226531995085202,16.014797,-2.6695669,4.26169,-0.5960468,11.489639,-10.511341,1.8119946,0.44717154,-0.009417398,0.39081424,0.8044954,-7.4646378,1.8149114,0.039536584,-1.8566494,3.3218305,-0.6226532,0
0.4000000000000002,13.277763446189672,-1.5616348933405522,2.344400354920988,-0.679649080237608,15.235475,-2.4402921,2.7028909,-0.33789593,11.415213,-10.492763,1.8123648,0.44301477,-0.028144386,0.3906711,0.80642515,-7.421485,1.901269,0.03450273,-1.8566494,3.3218305,-0.6226532,0
0.4100000000000002,13.277763446189672,-1.5616348933405522,2.344400354920988,-0.679649080237608,15.235475,-2.4402921,2.7028909,-0.33789593,11.341193,-10.473312,1.8126795,0.44090956,-0.042380583,0.3894308,0.80755556,-7.382834,1.9888101,0.028443433,-1.5616349,2.3444004,-0.67964906,0
0.4200000000000002,13.277763446189672,-1.5616348933405522,2.344400354920988,-0.679649080237608,15.235475,-2.4402921,2.7028909,-0.33789593,11.267544,-10.452979,1.8129337,0.43871182,-0.056607883,0.38810873,0.8085164,-7.347616,2.0778334,0.02234021,-1.5616349,2.3444004,-0.67964906,0
0.4300000000000002,13.277763446189672,-1.5616348933405522,2.344400354920988,-0.679649080237608,15.235475,-2.4402921,2.7028909,-0.33789593,11.194229,-10.43175,1.813126,0.436422,-0.070823304,0.38670522,0.80930746,-7.315853,2.1682842,0.016101742,-1.5616349,2.3444004,-0.67964906,0
0.4400000000000002,13.277763446189672,-1.5616348933405522,2.344400354920988,-0.679649080237608,14.060307,-2.3590527,1.9561516,-0.34125745,11.121215,-10.40961,1.8132548,0.43404055,-0.08502385,0.38522053,0.8099287,-7.287562,2.260107,0.009636825,-1.5616349,2.3444004,-0.67964906,1
0.45000000000000023,13.277763446189672,-1.5616348933405522,2.344400354920988,-0.679649080237608,14.060307,-2.3590527,1.9561516,-0.34125745,11.048472,-10.386518,1.8133456,0.43060043,-0.09871183,0.37972182,0.8128039,-7.2614956,2.3584638,0.008563779,-2.3590527,1.9561516,-0.34125745,1
0.46000000000000024,13.277763446189672,-1.5616348933405522,2.344400354920988,-0.679649080237608,14.060307,-2.3590527,1.9561516,-0.34125745,10.975969,-10.362438,1.8134278,0.42705798,-0.11237636,0.37413284,0.81548595,-7.2396736,2.4574194,0.007928137,-2.3590527,1.9561516,-0.34125745,1
0.47000000000000025,13.277763446189672,-1.5616348933405522,2.344400354920988,-0.679649080237608,14.060307,-2.3590527,1.9561516,-0.34125745,10.903664,-10.337366,1.8135053,0.423414,-0.12601417,0.3684549,0.8179741,-7.2221155,2.5568917,0.0076278537,-2.3590527,1.9561516,-0.34125745,1
0.48000000000000026,13.226699791896243,-1.2441558269761945,1.4600773987924522,-0.6279864379560994,15.457526,-2.6457076,2.0206192,-0.17123324,10.831513,-10.311298,1.8135812,0.4196694,-0.13962203,0.3626894,0.82026786,-7.208838,2.656797,0.0075605726,-2.3590527,1.9561516,-0.34125745,0
0.49000000000000027,13.226699791896243,-1.2441558269761945,1.4600773987924522,-0.6279864379560994,15.457526,-2.6457076,2.0206192,-0.17123324,10.759473,-10.284259,1.8136276,0.4187073,-0.14935252,0.3601936,0.82014525,-7.199798,2.751182,0.0016764686,-1.2441559,1.4600774,-0.62798643,0
0.5000000000000002,13.226699791896243,-1.2441558269761945,1.4600773987924522,-0.6279864379560994,15.457526,-2.6457076,2.0206192,-0.17123324,10.6875105,-10.256273,1.8136137,0.4177026,-0.15906781,0.35766113,0.81993914,-7.1932335,2.8460472,-0.004491144,-1.2441559,1.4600774,-0.62798643,0
0.5100000000000002,13.226699791896243,-1.2441558269761945,1.4600773987924522,-0.6279864379560994,15.457526,-2.6457076,2.0206192,-0.17123324,10.615601,-10.227337,1.8135365,0.41665527,-0.16876689,0.3550922,0.8196495,-7.1891427,2.941368,-0.0109874,-1.2441559,1.4600774,-0.62798643,0
0.5200000000000002,12.881612569201398,-0.44253551449002276,0.3551813563205915,-0.5886303714017578,15.197979,-2.0545542,1.0518699,-0.16543862,10.543718,-10.197445,1.8133925,0.41556552,-0.17844878,0.35248715,0.8192764,-7.1875243,3.0371203,-0.017857276,-1.2441559,1.4600774,-0.62798643,0
0.5300000000000002,12.881612569201398,-0.44253551449002276,0.3551813563205915,-0.5886303714017578,15.197979,-2.0545542,1.0518699,-0.16543862,10.471842,-10.166606,1.8131665,0.41695246,-0.18185918,0.3508842,0.8185095,-7.1877255,3.130634,-0.027364597,-0.44253552,0.35518137,-0.5886304,0
0.5400000000000003,12.881612569201398,-0.44253551449002276,0.3551813563205915,-0.5886303714017578,15.197979,-2.0545542,1.0518699,-0.16543862,10.3999605,-10.134832,1.8128451,0.41833243,-0.18526654,0.3492754,0.817729,-7.188657,3.2241704,-0.036900263,-0.44253552,0.35518137,-0.5886304,0
0.5500000000000003,12.881612569201398,-0.44253551449002276,0.3551813563205915,-0.5886303714017578,15.197979,-2.0545542,1.0518699,-0.16543862,10.328067,-10.102122,1.8124284,0.4197054,-0.1886708,0.34766078,0.81693476,-7.1903176,3.317729,-0.04647024,-0.44253552,0.35518137,-0.5886304,0
0.5600000000000003,12.830132192327602,-0.23825301373915947,-0.11281257164901849,-0.4827310745935458,14.521262,-1.4013655,0.68558526,-0.11946933,10.256152,-10.068477,1.8119156,0.42107135,-0.1920719,0.34604037,0.8161269,-7.192708,3.4113102,-0.056080505,-0.44253552,0.35518137,-0.5886304,0
0.5700000000000003,12.830132192327602,-0.23825301373915947,-0.11281257164901849,-0.4827310745935458,14.521262,-1.4013655,0.68558526,-0.11946933,10.184211,-10.033898,1.811305,0.423006,-0.19294767,0.34436572,0.815628,-7.1956058,3.5044544,-0.065993376,-0.23825301,-0.11281257,-0.48273107,0
0.5800000000000003,12.830132192327602,-0.23825301373915947,-0.11281257164901849,-0.4827310745935458,14.521262,-1.4013655,0.68558526,-0.11946933,10.112239,-9.998389,1.8105963,0.42493743,-0.19382195,0.34268847,0.815123,-7.198673,3.5973942,-0.07569655,-0.23825301,-0.11281257,-0.48273107,0
0.5900000000000003,12.830132192327602,-0.23825301373915947,-0.11281257164901849,-0.4827310745935458,14.521262,-1.4013655,0.68558526,-0.11946933,10.040236,-9.961951,1.8097917,0.42686564,-0.19469479,0.34100863,0.81461185,-7.2019105,3.6901295,-0.08519126,-0.23825301,-0.11281257,-0.48273107,0
0.6000000000000003,12.42763066939203,-0.01661763795690823,-0.9778529648489807,-0.39400632498980315,14.568155,-1.4354447,0.622469,-0.02276414,9.968201,-9.924587,1.8088932,0.42879063,-0.19556615,0.33932623,0.8140945,-7.2053204,3.7826602,-0.094478734,-0.23825301,-0.11281257,-0.48273107,0
0.6100000000000003,12.42763066939203,-0.01661763795690823,-0.9778529648489807,-0.39400632498980315,14.568155,-1.4354447,0.622469,-0.02276414,9.896131,-9.886314,1.8078895,0.43203127,-0.19228724,0.33677214,0.8142228,-7.2084813,3.8719025,-0.10614753,-0.016617637,-0.97785294,-0.3940063,0
0.6200000000000003,12.42763066939203,-0.01661763795690823,-0.9778529648489807,-0.39400632498980315,14.568155,-1.4354447,0.622469,-0.02276414,9.824033,-9.847153,1.8067728,0.43525988,-0.18900298,0.3342087,0.8143285,-7.2109876,3.9604402,-0.11707347,-0.016617637,-0.97785294,-0.3940063,0
0.6300000000000003,12.42763066939203,-0.01661763795690823,-0.9778529648489807,-0.39400632498980315,14.568155,-1.4354447,0.622469,-0.02276414,9.751913,-9.807108,1.8055506,0.43847638,-0.18571346,0.33163595,0.8144116,-7.2128425,4.0482626,-0.12726311,-0.016617637,-0.97785294,-0.3940063,0
0.6400000000000003,12.42763066939203,-0.01661763795690823,-0.9778529648489807,-0.39400632498980315,14.079281,-1.5390934,0.8360694,-0.045191005,9.679778,-9.76619,1.8042301,0.4416807,-0.18241878,0.329054,0.814472,-7.21405,4.13536,-0.1367231,-0.016617637,-0.97785294,-0.3940063,0
0.6500000000000004,12.42763066939203,-0.01661763795690823,-0.9778529648489807,-0.39400632498980315,14.079281,-1.5390934,0.8360694,-0.045191005,9.607635,-9.724403,1.8028187,0.44487277,-0.17911904,0.32646292,0.8145098,-7.2146144,4.2217216,-0.14546016,-0.016617637,-0.97785294,-0.3940063,0
0.6600000000000004,12.42763066939203,-0.01661763795690823,-0.9778529648489807,-0.39400632498980315,14.079281,-1.5390934,0.8360694,-0.045191005,9.535487,-9.681759,1.8013235,0.44805244,-0.17581432,0.3238628,0.81452495,-7.214539,4.307338,-0.15348111,-0.016617637,-0.97785294,-0.3940063,0
0.6700000000000004,12.42763066939203,-0.01661763795690823,-0.9778529648489807,-0.39400632498980315,14.079281,-1.5390934,0.8360694,-0.045191005,9.463346,-9.638261,1.7997515,0.45121968,-0.17250471,0.3212536,0.81451744,-7.2138286,4.3921995,-0.16079281,-0.016617637,-0.97785294,-0.3940063,0
0.6800000000000004,12.457766923973457,-0.11051310676888959,-0.1797486771760539,-0.31544190301105,13.649943,-1.4076602,1.0410364,-0.047165185,9.391213,-9.593917,1.79811,0.45437437,-0.1691903,0.3186355,0.81448734,-7.2124867,4.4762955,-0.16740225,-0.016617637,-0.97785294,-0.3940063,0
0.6900000000000004,12.457766923973457,-0.11051310676888959,-0.1797486771760539,-0.31544190301105,13.649943,-1.4076602,1.0410364,-0.047165185,9.3190975,-9.548735,1.7964065,0.45585105,-0.16921161,0.31750965,0.8140974,-7.2107477,4.5600386,-0.17328687,-0.110513106,-0.17974868,-0.3154419,0
0.7000000000000004,12.457766923973457,-0.11051310676888959,-0.1797486771760539,-0.31544190301105,13.649943,-1.4076602,1.0410364,-0.047165185,9.246998,-9.502716,1.7946451,0.45732608,-0.16923231,0.31638268,0.8137045,-7.209008,4.643587,-0.17899498,-0.110513106,-0.17974868,-0.3154419,0
0.7100000000000004,12.457766923973457,-0.11051310676888959,-0.1797486771760539,-0.31544190301105,13.649943,-1.4076602,1.0410364,-0.047165185,9.174917,-9.455863,1.7928274,0.45879948,-0.1692524,0.31525454,0.8133086,-7.2072687,4.72694,-0.184527,-0.110513106,-0.17974868,-0.3154419,0
0.7200000000000004,11.952839899846492,0.016836248180048075,-0.7720381165983331,-0.2428061155943556,13.168136,-1.214711,0.8604326,-0.016112559,9.102853,-9.408177,1.7909553,0.46027124,-0.16927189,0.31412527,0.81290984,-7.205529,4.8100977,-0.1898833,-0.110513106,-0.17974868,-0.3154419,0
0.7300000000000004,11.952839899846492,0.016836248180048075,-0.7720381165983331,-0.2428061155943556,13.168136,-1.214711,0.8604326,-0.016112559,9.030807,-9.359678,1.789012,0.4624812,-0.16647513,0.3122089,0.81297135,-7.2036743,4.8895473,-0.19870132,0.016836248,-0.7720381,-0.24280612,0
0.7400000000000004,11.952839899846492,0.016836248180048075,-0.7720381165983331,-0.2428061155943556,13.168136,-1.214711,0.8604326,-0.016112559,8.958781,-9.310388,1.786983,0.4646836,-0.16367567,0.3102874,0.8130195,-7.201326,4.9684076,-0.20700963,0.016836248,-0.7720381,-0.24280612,0
0.7500000000000004,11.952839899846492,0.016836248180048075,-0.7720381165983331,-0.2428061155943556,13.168136,-1.214711,0.8604326,-0.016112559,8.886783,-9.260312,1.7848735,0.46687835,-0.1608735,0.30836082,0.8130543,-7.198485,5.046673,-0.21481274,0.016836248,-0.7720381,-0.24280612,0
0.7600000000000005,12.010687819009519,-0.07355123332921473,-0.14389900543795886,-0.18245902065192413,12.90028,-1.037092,0.7566815,0.027376235,8.814815,-9.209456,1.7826884,0.4690655,-0.15806872,0.3064292,0.8130759,-7.195153,5.1243367,-0.22211523,0.016836248,-0.7720381,-0.24280612,1
0.7700000000000005,12.010687819009519,-0.07355123332921473,-0.14389900543795886,-0.18245902065192413,12.90028,-1.037092,0.7566815,0.027376235,8.742881,-9.157796,1.7804685,0.46696556,-0.163532,0.30400303,0.81411433,-7.191846,5.2078047,-0.22191079,-1.037092,0.7566815,0.027376235,1
0.7800000000000005,12.010687819009519,-0.07355123332921473,-0.14389900543795886,-0.18245902065192413,12.90028,-1.037092,0.7566815,0.027376235,8.670972,-9.1053,1.7782501,0.46484634,-0.16898854,0.30156434,0.81511915,-7.1901865,5.291412,-0.2217835,-1.037092,0.7566815,0.027376235,1
0.7900000000000005,12.010687819009519,-0.07355123332921473,-0.14389900543795886,-0.18245902065192413,12.90028,-1.037092,0.7566815,0.027376235,8.599072,-9.051968,1.7760326,0.46270797,-0.17443812,0.29911315,0.81609035,-7.190177,5.375145,-0.22174929,-1.037092,0.7566815,0.027376235,1
0.8000000000000005,11.375930481062191,0.41938431518232977,-1.7789899236827516,-0.12243179830391039,12.558118,-0.64390147,0.6166892,0.0066890046,8.5271635,-8.997797,1.7738147,0.46055052,-0.1798805,0.2966497,0.8170279,-7.1918154,5.4589896,-0.221824,-1.037092,0.7566815,0.027376235,0
0.8100000000000005,11.375930481062191,0.41938431518232977,-1.7789899236827516,-0.12243179830391039,12.558118,-0.64390147,0.6166892,0.0066890046,8.4552355,-8.942839,1.7715389,0.4640472,-0.1718215,0.2941438,0.8176897,-7.193628,5.532561,-0.23317808,0.4193843,-1.7789899,-0.1224318,0
0.8200000000000005,11.375930481062191,0.41938431518232977,-1.7789899236827516,-0.12243179830391039,12.558118,-0.64390147,0.6166892,0.0066890046,8.383296,-8.88715,1.7691544,0.46750495,-0.1637481,0.29161328,0.8182829,-7.193997,5.6049924,-0.24356094,0.4193843,-1.7789899,-0.1224318,0
0.8300000000000005,11.375930481062191,0.41938431518232977,-1.7789899236827516,-0.12243179830391039,12.558118,-0.64390147,0.6166892,0.0066890046,8.311361,-8.830742,1.7666708,0.47092345,-0.15566096,0.28905833,0.8188074,-7.1929245,5.67626,-0.2530008,0.4193843,-1.7789899,-0.1224318,0
0.8400000000000005,11.375930481062191,0.41938431518232977,-1.7789899236827516,-0.12243179830391039,12.605697,-0.4053941,0.3986182,0.17217092,8.239444,-8.773628,1.7640975,0.47430247,-0.14756073,0.2864791,0.8192633,-7.190413,5.746338,-0.26152614,0.4193843,-1.7789899,-0.1224318,0
0.8500000000000005,11.375930481062191,0.41938431518232977,-1.7789899236827516,-0.12243179830391039,12.605697,-0.4053941,0.3986182,0.17217092,8.167559,-8.715819,1.7614433,0.4776417,-0.13944814,0.2838758,0.8196504,-7.186465,5.8152013,-0.26916578,0.4193843,-1.7789899,-0.1224318,0
0.8600000000000005,11.375930481062191,0.41938431518232977,-1.7789899236827516,-0.12243179830391039,12.605697,-0.4053941,0.3986182,0.17217092,8.09572,-8.657329,1.7587171,0.48094085,-0.13132386,0.2812487,0.8199687,-7.181083,5.8828254,-0.27594876,0.4193843,-1.7789899,-0.1224318,0
0.8700000000000006,11.375930481062191,0.41938431518232977,-1.7789899236827516,-0.12243179830391039,12.605697,-0.4053941,0.3986182,0.17217092,8.023943,-8.598167,1.7559272,0.4841996,-0.12318856,0.278598,0.82021827,-7.174272,5.9491878,-0.28190455,0.4193843,-1.7789899,-0.1224318,0
0.8800000000000006,11.6259133446758,0.10130521125312364,-0.2614384238504942,-0.10434846652762766,11.920839,-0.29302132,0.10334156,0.24099118,7.952241,-8.538349,1.7530819,0.4874178,-0.115042925,0.27592397,0.820399,-7.1660357,6.0142636,-0.28706276,0.4193843,-1.7789899,-0.1224318,1
0.8900000000000006,11.6259133446758,0.10130521125312364,-0.2614384238504942,-0.10434846652762766,11.920839,-0.29302132,0.10334156,0.24099118,7.880628,-8.477871,1.7502103,0.4861172,-0.11584825,0.27511194,0.82132953,-7.156609,6.081588,-0.28723797,-0.29302132,0.10334156,0.24099118,1
0.9000000000000006,11.6259133446758,0.10130521125312364,-0.2614384238504942,-0.10434846652762766,11.920839,-0.29302132,0.10334156,0.24099118,7.809108,-8.416718,1.7473373,0.48481473,-0.11665313,0.27429885,0.8222569,-7.1475453,6.1488714,-0.287351,-0.29302132,0.10334156,0.24099118,1
0.9100000000000006,11.6259133446758,0.10130521125312364,-0.2614384238504942,-0.10434846652762766,11.920839,-0.29302132,0.10334156,0.24099118,7.737676,-8.354893,1.7444636,0.48351035,-0.117457554,0.27348468,0.8231811,-7.1388445,6.2161126,-0.28740233,-0.29302132,0.10334156,0.24099118,1
0.9200000000000006,11.322720167511076,0.01386142343772832,-0.8124340062102177,-0.04940687029960235,12.23093,-0.38939923,0.02056227,0.10054375,7.666329,-8.292397,1.7415897,0.48220414,-0.11826153,0.27266946,0.8241021,-7.1305065,6.2833104,-0.28739244,-0.29302132,0.10334156,0.24099118,1
0.9300000000000006,11.322720167511076,0.01386142343772832,-0.8124340062102177,-0.04940687029960235,12.23093,-0.38939923,0.02056227,0.10054375,7.595065,-8.229219,1.7387289,0.4815306,-0.11914779,0.27117342,0.8248616,-7.122342,6.3521657,-0.28473592,-0.38939923,0.02056227,0.10054375,1
0.9400000000000006,11.322720167511076,0.01386142343772832,-0.8124340062102177,-0.04940687029960235,12.23093,-0.38939923,0.02056227,0.10054375,7.523881,-8.165356,1.7358954,0.48085508,-0.12003358,0.26967627,0.82561773,-7.1145997,6.420853,-0.28193235,-0.38939923,0.02056227,0.10054375,1
0.9500000000000006,11.322720167511076,0.01386142343772832,-0.8124340062102177,-0.04940687029960235,12.23093,-0.38939923,0.02056227,0.10054375,7.452772,-8.100805,1.7330906,0.4801776,-0.12091886,0.26817802,0.82637054,-7.1072793,6.4893727,-0.27898303,-0.38939923,0.02056227,0.10054375,1
0.9600000000000006,11.29504662347376,-0.10305768598008076,-0.31863771286671777,-0.05573769960552663,12.290734,-0.699268,0.22822845,0.10252808,7.381734,-8.035569,1.7303162,0.47949824,-0.12180366,0.2666787,0.82712,-7.1003804,6.557723,-0.27588925,-0.38939923,0.02056227,0.10054375,1
0.9700000000000006,11.29504662347376,-0.10305768598008076,-0.31863771286671777,-0.05573769960552663,12.290734,-0.699268,0.22822845,0.10252808,7.310763,-7.9696493,1.7275759,0.47834072,-0.12428646,0.26439458,0.82815355,-7.094043,6.626248,-0.2721547,-0.699268,0.22822845,0.10252808,1
0.9800000000000006,11.29504662347376,-0.10305768598008076,-0.31863771286671777,-0.05573769960552663,12.290734,-0.699268,0.22822845,0.10252808,7.2398505,-7.903045,1.7248738,0.47717664,-0.12676755,0.26210684,0.82917565,-7.088586,6.694631,-0.26827404,-0.699268,0.22822845,0.10252808,1
0.9900000000000007,11.29504662347376,-0.10305768598008076,-0.31863771286671777,-0.05573769960552663,12.290734,-0.699268,0.22822845,0.10252808,7.1689887,-7.8357577,1.722211,0.47600597,-0.12924688,0.25981545,0.8301863,-7.08401,6.7628684,-0.26425228,-0.699268,0.22822845,0.10252808,1
1.0000000000000007,10.733815740588193,0.03838750462560954,-2.182506728181066,0.050218884594569385,12.037815,-0.76059645,-0.42878744,0.095835,7.098168,-7.7677884,1.7195891,0.47482872,-0.13172443,0.2575205,0.8311855,-7.0803156,6.830955,-0.26009443,-0.699268,0.22822845,0.10252808,0
1.0100000000000007,10.733815740588193,0.03838750462560954,-2.182506728181066,0.050218884594569385,12.037815,-0.76059645,-0.42878744,0.095835,7.02738,-7.699184,1.7169459,0.47742718,-0.12249062,0.25251627,0.8326432,-7.0771046,6.889703,-0.26842,0.038387503,-2.1825068,0.050218884,0
1.0200000000000007,10.733815740588193,0.03838750462560954,-2.182506728181066,0.050218884594569385,12.037815,-0.76059645,-0.42878744,0.095835,6.95663,-7.63,1.7142245,0.4799687,-0.11324222,0.24748194,0.8340017,-7.072654,6.9467535,-0.27571002,0.038387503,-2.1825068,0.050218884,0
1.0300000000000007,10.733815740588193,0.03838750462560954,-2.182506728181066,0.050218884594569385,12.037815,-0.76059645,-0.42878744,0.095835,6.885931,-7.5602546,1.711435,0.48245302,-0.10398031,0.24241813,0.83526075,-7.0669646,7.0020804,-0.28200805,0.038387503,-2.1825068,0.050218884,0
1.0400000000000007,10.733815740588193,0.03838750462560954,-2.182506728181066,0.050218884594569385,11.861484,-0.49151057,-0.8419494,0.16129379,6.815295,-7.4899645,1.7085875,0.48487982,-0.094706014,0.23732542,0.8364203,-7.060039,7.055658,-0.2873582,0.038387503,-2.1825068,0.050218884,0
1.0500000000000007,10.733815740588193,0.03838750462560954,-2.182506728181066,0.050218884594569385,11.861484,-0.49151057,-0.8419494,0.16129379,6.7447343,-7.4191475,1.705691,0.48724887,-0.08542043,0.23220441,0.8374801,-7.051878,7.107461,-0.2918051,0.038387503,-2.1825068,0.050218884,0
1.0600000000000007,10.733815740588193,0.03838750462560954,-2.182506728181066,0.050218884594569385,11.861484,-0.49151057,-0.8419494,0.16129379,6.674262,-7.3478217,1.7027543,0.48955986,-0.07612466,0.22705574,0.8384401,-7.042485,7.157465,-0.29539368,0.038387503,-2.1825068,0.050218884,0
1.0700000000000007,10.733815740588193,0.03838750462560954,-2.182506728181066,0.050218884594569385,11.861484,-0.49151057,-0.8419494,0.16129379,6.6038895,-7.2760043,1.6997858,0.49181247,-0.06681983,0.22188002,0.8393002,-7.0318646,7.205647,-0.2981693,0.038387503,-2.1825068,0.050218884,0
1.0800000000000007,10.975453884917727,-0.3540185291459538,-0.24839496981356043,0.04278973027190748,11.890366,-0.64243835,-0.7557534,0.09071843,6.533629,-7.203715,1.6967934,0.49400645,-0.057507034,0.21667786,0.8400602,-7.02002,7.2519846,-0.30017784,0.038387503,-2.1825068,0.050218884,1
1.0900000000000007,10.975453884917727,-0.3540185291459538,-0.24839496981356043,0.04278973027190748,11.890366,-0.64243835,-0.7557534,0.09071843,6.4634986,-7.130946,1.6938365,0.49425334,-0.055820495,0.21213612,0.8411872,-7.0061283,7.3016353,-0.29113394,-0.64243835,-0.7557534,0.09071843,1
1.1000000000000008,10.975453884917727,-0.3540185291459538,-0.24839496981356043,0.04278973027190748,11.890366,-0.64243835,-0.7557534,0.09071843,6.3935065,-7.057686,1.6909723,0.49448797,-0.054132573,0.20758912,0.84229326,-6.9924355,7.3502383,-0.28158545,-0.64243835,-0.7557534,0.09071843,1
1.1100000000000008,10.975453884917727,-0.3540185291459538,-0.24839496981356043,0.04278973027190748,11.890366,-0.64243835,-0.7557534,0.09071843,6.3236494,-6.9839444,1.6882064,0.49471033,-0.052443307,0.20303695,0.84337854,-6.9789424,7.3977895,-0.27154297,-0.64243835,-0.7557534,0.09071843,1
1.1200000000000008,10.725154859038483,-0.5661323119810215,-0.47664680149333627,0.1592751687196162,11.9753,-0.73193645,-0.6538727,0.06337887,6.2539263,-6.9097333,1.6855432,0.4949204,-0.05075274,0.19847974,0.84444284,-6.965649,7.4442835,-0.2610171,-0.64243835,-0.7557534,0.09071843,0
1.1300000000000008,10.725154859038483,-0.5661323119810215,-0.47664680149333627,0.1592751687196162,11.9753,-0.73193645,-0.6538727,0.06337887,6.184329,-6.835084,1.682934,0.4945737,-0.04998276,0.1949489,0.84551376,-6.9538693,7.4853687,-0.26074985,-0.5661323,-0.4766468,0.15927517,0
1.1400000000000008,10.725154859038483,-0.5661323119810215,-0.47664680149333627,0.1592751687196162,11.9753,-0.73193645,-0.6538727,0.06337887,6.114848,-6.7600274,1.6803293,0.49421996,-0.049212065,0.19141527,0.8465725,-6.942351,7.525772,-0.26017,-0.5661323,-0.4766468,0.15927517,0
1.1500000000000008,10.725154859038483,-0.5661323119810215,-0.47664680149333627,0.1592751687196162,11.9753,-0.73193645,-0.6538727,0.06337887,6.045481,-6.684571,1.6777319,0.4938591,-0.048440665,0.18787889,0.8476192,-6.9310927,7.565492,-0.25928295,-0.5661323,-0.4766468,0.15927517,0
1.1600000000000008,10.772805536079625,-0.8246158950494673,0.8336751857977558,0.14401914211228575,11.765936,-1.0177354,-0.37537348,0.07566498,5.9762254,-6.6087203,1.6751447,0.49349117,-0.04766857,0.18433984,0.8486537,-6.920095,7.6045256,-0.258094,-0.5661323,-0.4766468,0.15927517,0
1.1700000000000008,10.772805536079625,-0.8246158950494673,0.8336751857977558,0.14401914211228575,11.765936,-1.0177354,-0.37537348,0.07566498,5.907078,-6.5324807,1.6725729,0.49190652,-0.053107172,0.18292896,0.8495555,-6.9096675,7.6434274,-0.2562784,-0.8246159,0.8336752,0.14401914,0
1.1800000000000008,10.772805536079625,-0.8246158950494673,0.8336751857977558,0.14401914211228575,11.765936,-1.0177354,-0.37537348,0.07566498,5.838028,-6.4558506,1.6700191,0.4903047,-0.058543924,0.18151169,0.85042775,-6.900458,7.682664,-0.2544741,-0.8246159,0.8336752,0.14401914,0
1.1900000000000008,10.772805536079625,-0.8246158950494673,0.8336751857977558,0.14401914211228575,11.765936,-1.0177354,-0.37537348,0.07566498,5.7690644,-6.378826,1.6674833,0.4886858,-0.063978635,0.18008809,0.8512703,-6.892468,7.7222285,-0.2526942,-0.8246159,0.8336752,0.14401914,0
1.2000000000000008,10.688655862431638,-0.8970677162596902,-0.6980264185437621,0.23555016772817056,11.829707,-1.0241247,-0.42525154,0.11610739,5.700175,-6.3014045,1.6649652,0.48704982,-0.069411114,0.17865819,0.8520832,-6.885699,7.7621145,-0.25095174,-0.8246159,0.8336752,0.14401914,0
1.2100000000000009,10.688655862431638,-0.8970677162596902,-0.6980264185437621,0.23555016772817056,11.829707,-1.0241247,-0.42525154,0.11610739,5.631347,-6.2235856,1.6624609,0.48635027,-0.06841023,0.1732152,0.8536861,-6.8799033,7.8014927,-0.2498529,-0.8970677,-0.6980264,0.23555017,0
1.2200000000000009,10.688655862431638,-0.8970677162596902,-0.6980264185437621,0.23555016772817056,11.829707,-1.0241247,-0.42525154,0.11610739,5.562575,-6.1453786,1.6599697,0.48563436,-0.06740705,0.16776638,0.8552602,-6.8745413,7.8398223,-0.24831988,-0.8970677,-0.6980264,0.23555017,0
1.2300000000000009,10.688655862431638,-0.8970677162596902,-0.6980264185437621,0.23555016772817056,11.829707,-1.0241247,-0.42525154,0.11610739,5.4938545,-6.066793,1.657496,0.48490208,-0.06640159,0.1623119,0.8568055,-6.86961,7.8770967,-0.24636531,-0.8970677,-0.6980264,0.23555017,0
1.2400000000000009,10.688655862431638,-0.8970677162596902,-0.6980264185437621,0.23555016772817056,11.903596,-1.1393454,-0.6965351,0.22138461,5.4251814,-5.98784,1.6550437,0.48415348,-0.0653939,0.15685196,0.85832196,-6.8651075,7.91331,-0.24400185,-0.8970677,-0.6980264,0.23555017,0
1.2500000000000009,10.688655862431638,-0.8970677162596902,-0.6980264185437621,0.23555016772817056,11.903596,-1.1393454,-0.6965351,0.22138461,5.356551,-5.9085307,1.6526172,0.48338854,-0.064384006,0.15138675,0.8598095,-6.861032,7.948458,-0.24124229,-0.8970677,-0.6980264,0.23555017,0
1.260000000000001,10.688655862431638,-0.8970677162596902,-0.6980264185437621,0.23555016772817056,11.903596,-1.1393454,-0.6965351,0.22138461,5.2879596,-5.8288755,1.6502203,0.48260736,-0.06337195,0.14591645,0.86126804,-6.8573813,7.982534,-0.2380994,-0.8970677,-0.6980264,0.23555017,0
1.270000000000001,10.688655862431638,-0.8970677162596902,-0.6980264185437621,0.23555016772817056,11.903596,-1.1393454,-0.6965351,0.22138461,5.219402,-5.7488847,1.6478566,0.48180988,-0.06235775,0.14044122,0.8626976,-6.854153,8.0155325,-0.23458602,-0.8970677,-0.6980264,0.23555017,0
1.280000000000001,10.958160343373166,-1.0440915218741813,0.5456709681661166,0.21338728931094716,12.316315,-0.9771263,-0.62032443,0.02976317,5.150874,-5.6685686,1.6455297,0.48099616,-0.061341453,0.13496126,0.8640981,-6.8513446,8.047448,-0.23071505,-0.8970677,-0.6980264,0.23555017,0
1.290000000000001,10.958160343373166,-1.0440915218741813,0.5456709681661166,0.21338728931094716,12.316315,-0.9771263,-0.62032443,0.02976317,5.082372,-5.5879335,1.643256,0.47937718,-0.06606492,0.13182564,0.8651329,-6.8492165,8.079441,-0.2240297,-1.0440915,0.545671,0.2133873,0
1.300000000000001,10.958160343373166,-1.0440915218741813,0.5456709681661166,0.21338728931094716,12.316315,-0.9771263,-0.62032443,0.02976317,5.0138855,-5.50698,1.6410493,0.47774103,-0.070786014,0.12868531,0.8661368,-6.8483753,8.111341,-0.21729806,-1.0440915,0.545671,0.2133873,0
1.310000000000001,10.958160343373166,-1.0440915218741813,0.5456709681661166,0.21338728931094716,12.316315,-0.9771263,-0.62032443,0.02976317,4.9454007,-5.4257073,1.6389102,0.47608772,-0.07550457,0.12554036,0.86710966,-6.848821,8.143142,-0.2105339,-1.0440915,0.545671,0.2133873,0
1.320000000000001,10.957830418253879,-1.0412807273616405,-0.25518828071908783,0.28385623687717687,12.566645,-0.9788613,-0.2985611,0.03313492,4.8769054,-5.3441176,1.6368388,0.47441736,-0.08022043,0.12239091,0.8680514,-6.850553,8.174836,-0.20375095,-1.0440915,0.545671,0.2133873,0
1.330000000000001,10.957830418253879,-1.0412807273616405,-0.25518828071908783,0.28385623687717687,12.566645,-0.9788613,-0.2985611,0.03313492,4.808387,-5.262212,1.6348356,0.47291657,-0.08140791,0.11737815,0.8694509,-6.853393,8.206153,-0.19688196,-1.0412807,-0.2551883,0.28385624,0
1.340000000000001,10.957830418253879,-1.0412807273616405,-0.25518828071908783,0.28385623687717687,12.566645,-0.9788613,-0.2985611,0.03313492,4.7398353,-5.1799974,1.6329019,0.47140124,-0.08259289,0.11236178,0.87082374,-6.8570433,8.236648,-0.18979591,-1.0412807,-0.2551883,0.28385624,0
1.350000000000001,10.957830418253879,-1.0412807273616405,-0.25518828071908783,0.28385623687717687,12.566645,-0.9788613,-0.2985611,0.03313492,4.671243,-5.097482,1.6310403,0.4698714,-0.08377533,0.10734195,0.87216985,-6.8615,8.266313,-0.18250415,-1.0412807,-0.2551883,0.28385624,0
1.360000000000001,11.197494892682768,-1.0758970152840737,0.3388736901216193,0.25053559538154413,12.840725,-1.1723477,-0.23680082,-0.026751595,4.6026025,-5.0146747,1.6292526,0.46832713,-0.084955186,0.10231883,0.873489,-6.8667603,8.295142,-0.17501807,-1.0412807,-0.2551883,0.28385624,0
1.370000000000001,11.197494892682768,-1.0758970152840737,0.3388736901216193,0.25053559538154413,12.840725,-1.1723477,-0.23680082,-0.026751595,4.5339046,-4.931579,1.6275522,0.46659476,-0.08882495,0.09851817,0.87446755,-6.873103,8.323937,-0.16509539,-1.075897,0.33887368,0.2505356,0
1.380000000000001,11.197494892682768,-1.0758970152840737,0.3388736901216193,0.25053559538154413,12.840725,-1.1723477,-0.23680082,-0.026751595,4.4651365,-4.848197,1.6259509,0.4648468,-0.09269175,0.09471422,0.87541693,-6.8806586,8.35238,-0.15515721,-1.075897,0.33887368,0.2505356,0
1.390000000000001,11.197494892682768,-1.0758970152840737,0.3388736901216193,0.25053559538154413,12.840725,-1.1723477,-0.23680082,-0.026751595,4.396287,-4.7645326,1.624449,0.46308333,-0.09655545,0.0909071,0.87633705,-6.889425,8.380463,-0.14521645,-1.075897,0.33887368,0.2505356,0
1.400000000000001,11.151375445659884,-0.9747008865386558,-0.8578854915769979,0.2912092147586106,12.551405,-1.1955172,-0.5792882,-0.11173667,4.327344,-4.680589,1.6230466,0.4613044,-0.10041592,0.087096944,0.87722796,-6.8993998,8.408179,-0.13528603,-1.075897,0.33887368,0.2505356,0
1.410000000000001,11.151375445659884,-0.9747008865386558,-0.8578854915769979,0.2912092147586106,12.551405,-1.1955172,-0.5792882,-0.11173667,4.258296,-4.5963717,1.6217415,0.45990112,-0.09877225,0.08098737,0.8787354,-6.910222,8.435038,-0.12569837,-0.97470087,-0.8578855,0.29120922,0
1.420000000000001,11.151375445659884,-0.9747008865386558,-0.8578854915769979,0.2912092147586106,12.551405,-1.1955172,-0.5792882,-0.11173667,4.189138,-4.511893,1.6205338,0.4584775,-0.09712422,0.0748742,0.88020396,-6.9214077,8.460527,-0.11581524,-0.97470087,-0.8578855,0.29120922,0
1.430000000000001,11.151375445659884,-0.9747008865386558,-0.8578854915769979,0.2912092147586106,12.551405,-1.1955172,-0.5792882,-0.11173667,4.119866,-4.427166,1.6194263,0.45703357,-0.09547188,0.06875771,0.8816336,-6.932951,8.484641,-0.10565418,-0.97470087,-0.8578855,0.29120922,0
1.440000000000001,11.151375445659884,-0.9747008865386558,-0.8578854915769979,0.2912092147586106,12.938606,-1.052234,-0.46437892,-0.079042524,4.0504775,-4.342205,1.6184216,0.45556942,-0.09381531,0.06263819,0.88302416,-6.944846,8.507374,-0.09523283,-0.97470087,-0.8578855,0.29120922,0
1.450000000000001,11.151375445659884,-0.9747008865386558,-0.8578854915769979,0.2912092147586106,12.938606,-1.052234,-0.46437892,-0.079042524,3.980968,-4.257024,1.6175224,0.45408508,-0.09215459,0.0565159,0.88437563,-6.9570866,8.528723,-0.08456884,-0.97470087,-0.8578855,0.29120922,0
1.460000000000001,11.151375445659884,-0.9747008865386558,-0.8578854915769979,0.2912092147586106,12.938606,-1.052234,-0.46437892,-0.079042524,3.9113345,-4.171636,1.616731,0.45258066,-0.090489805,0.0503911,0.885688,-6.9696655,8.548681,-0.073679924,-0.97470087,-0.8578855,0.29120922,0
1.470000000000001,11.151375445659884,-0.9747008865386558,-0.8578854915769979,0.2912092147586106,12.938606,-1.052234,-0.46437892,-0.079042524,3.8415735,-4.0860558,1.6160496,0.4510562,-0.088821,0.04426407,0.88696104,-6.9825773,8.5672455,-0.06258382,-0.97470087,-0.8578855,0.29120922,0
1.480000000000001,11.305994973774531,-0.9209653203451373,0.031142766461847483,0.27453065849834285,13.4565,-0.93228877,-0.0662745,-0.19778967,3.7716818,-4.000296,1.6154801,0.44951177,-0.087148264,0.03813508,0.88819486,-6.995816,8.584412,-0.051298298,-0.97470087,-0.8578855,0.29120922,0
1.490000000000001,11.305994973774531,-0.9209653203451373,0.031142766461847483,0.27453065849834285,13.4565,-0.93228877,-0.0662745,-0.19778967,3.7016547,-3.9143698,1.6150316,0.44788015,-0.089303136,0.034234293,0.88896364,-7.0097647,8.600707,-0.038392145,-0.9209653,0.031142766,0.27453065,0
1.500000000000001,11.305994973774531,-0.9209653203451373,0.031142766461847483,0.27453065849834285,13.4565,-0.93228877,-0.0662745,-0.19778967,3.6314836,-3.8282838,1.6147121,0.4462382,-0.09145594,0.03033271,0.8897119,-7.0245695,8.61641,-0.025511468,-0.9209653,0.031142766,0.27453065,0
1.5100000000000011,11.305994973774531,-0.9209653203451373,0.031142766461847483,0.27453065849834285,13.4565,-0.93228877,-0.0662745,-0.19778967,3.56116,-3.7420435,1.6145213,0.4445859,-0.09360662,0.026430428,0.89043957,-7.040228,8.631516,-0.012665151,-0.9209653,0.031142766,0.27453065,0
1.5200000000000011,11.236303097058975,-0.7566842585213772,-0.5172981232098822,0.29696529955596723,13.771653,-0.6146032,-0.21706319,-0.26106024,3.4906762,-3.6556554,1.6144586,0.44292334,-0.095755145,0.022527536,0.89114666,-7.0567365,8.646024,0.00013792748,-0.9209653,0.031142766,0.27453065,0
1.5300000000000011,11.236303097058975,-0.7566842585213772,-0.5172981232098822,0.29696529955596723,13.771653,-0.6146032,-0.21706319,-0.26106024,3.4200237,-3.569126,1.6145205,0.441291,-0.09509141,0.018152272,0.89212686,-7.0737944,8.659701,0.0122527415,-0.75668424,-0.5172981,0.2969653,0
1.5400000000000011,11.236303097058975,-0.7566842585213772,-0.5172981232098822,0.29696529955596723,13.771653,-0.6146032,-0.21706319,-0.26106024,3.349199,-3.4824643,1.6147039,0.43964842,-0.09442546,0.0137765845,0.8930864,-7.091181,8.672404,0.024432756,-0.75668424,-0.5172981,0.2969653,0
1.5500000000000012,11.236303097058975,-0.7566842585213772,-0.5172981232098822,0.29696529955596723,13.771653,-0.6146032,-0.21706319,-0.26106024,3.278199,-3.3956807,1.6150094,0.4379956,-0.09375733,0.009400579,0.89402515,-7.108892,8.684131,0.036669265,-0.75668424,-0.5172981,0.2969653,0
1.5600000000000012,11.210593345781207,-0.6160170320747491,-0.41929453643764764,0.27049959085519487,13.549669,-0.14471583,0.19411005,-0.14587216,3.20702,-3.308785,1.6154375,0.43633264,-0.09308702,0.005024355,0.8949432,-7.126923,8.6948805,0.04895355,-0.75668424,-0.5172981,0.2969653,0
1.5700000000000012,11.210593345781207,-0.6160170320747491,-0.41929453643764764,0.27049959085519487,13.549669,-0.14471583,0.19411005,-0.14587216,3.1356595,-3.2217863,1.6159873,0.43484262,-0.09254721,0.0014789639,0.89573693,-7.145206,8.704698,0.06102179,-0.61601704,-0.41929454,0.2704996,0
1.5800000000000012,11.210593345781207,-0.6160170320747491,-0.41929453643764764,0.27049959085519487,13.549669,-0.14471583,0.19411005,-0.14587216,3.0641148,-3.1346934,1.616658,0.43334576,-0.092005946,-0.0020664504,0.8965166,-7.1637435,8.713719,0.07311552,-0.61601704,-0.41929454,0.2704996,0
1.5900000000000012,11.210593345781207,-0.6160170320747491,-0.41929453643764764,0.27049959085519487,13.549669,-0.14471583,0.19411005,-0.14587216,2.9923835,-3.0475144,1.6174498,0.43184212,-0.091463245,-0.0056118323,0.8972822,-7.182532,8.721945,0.08522905,-0.61601704,-0.41929454,0.2704996,0
1.6000000000000012,11.06960944579471,-0.4687662307543,-0.9289939371271687,0.2646256138728724,12.902622,0.07390526,-0.9532961,-0.017506365,2.920463,-2.9602573,1.6183627,0.43033168,-0.090919115,-0.009157126,0.8980337,-7.2015686,8.729373,0.09735665,-0.61601704,-0.41929454,0.2704996,0
1.6100000000000012,11.06960944579471,-0.4687662307543,-0.9289939371271687,0.2646256138728724,12.902622,0.07390526,-0.9532961,-0.017506365,2.848353,-2.8729305,1.6193901,0.42888162,-0.08776723,-0.013140394,0.898991,-7.2204304,8.735793,0.10814436,-0.46876624,-0.92899394,0.2646256,0
1.6200000000000012,11.06960944579471,-0.4687662307543,-0.9289939371271687,0.2646256138728724,12.902622,0.07390526,-0.9532961,-0.017506365,2.7760553,-2.785545,1.6205258,0.42741922,-0.0846128,-0.017123284,0.8999224,-7.239058,8.74109,0.119032845,-0.46876624,-0.92899394,0.2646256,0
1.6300000000000012,11.06960944579471,-0.4687662307543,-0.9289939371271687,0.2646256138728724,12.902622,0.07390526,-0.9532961,-0.017506365,2.7035725,-2.6981122,1.621771,0.42594448,-0.08145594,-0.021105679,0.9008278,-7.257446,8.745264,0.13001077,-0.46876624,-0.92899394,0.2646256,0
1.6400000000000012,11.06960944579471,-0.4687662307543,-0.9289939371271687,0.2646256138728724,12.638651,0.22429621,-1.1004779,-0.0017126985,2.6309073,-2.6106436,1.6231261,0.4244575,-0.078296736,-0.025087468,0.9017073,-7.275589,8.748315,0.1410668,-0.46876624,-0.92899394,0.2646256,0
1.6500000000000012,11.06960944579471,-0.4687662307543,-0.9289939371271687,0.2646256138728724,12.638651,0.22429621,-1.1004779,-0.0017126985,2.5580616,-2.5231497,1.6245923,0.42295825,-0.07513527,-0.029068533,0.9025608,-7.293483,8.750243,0.1521896,-0.46876624,-0.92899394,0.2646256,0
1.6600000000000013,11.06960944579471,-0.4687662307543,-0.9289939371271687,0.2646256138728724,12.638651,0.22429621,-1.1004779,-0.0017126985,2.4850383,-2.4356422,1.62617,0.42144686,-0.07197164,-0.033048764,0.90338826,-7.3111224,8.75105,0.1633678,-0.46876624,-0.92899394,0.2646256,0
1.6700000000000013,11.06960944579471,-0.4687662307543,-0.9289939371271687,0.2646256138728724,12.638651,0.22429621,-1.1004779,-0.0017126985,2.41184,-2.3481324,1.6278597,0.4199233,-0.06880593,-0.037028037,0.9041897,-7.3285027,8.750735,0.17459,-0.46876624,-0.92899394,0.2646256,0
1.6800000000000013,10.946823185347364,-0.3548671651572163,-0.7168268504237524,0.24018972182815992,12.805797,-0.0016294499,-1.4604069,0.09992996,2.3384693,-2.2606313,1.6296619,0.41838765,-0.06563825,-0.041006245,0.9049651,-7.3456182,8.7493,0.1858449,-0.46876624,-0.92899394,0.2646256,0
1.6900000000000013,10.946823185347364,-0.3548671651572163,-0.7168268504237524,0.24018972182815992,12.805797,-0.0016294499,-1.4604069,0.09992996,2.2649295,-2.17315,1.6315707,0.41703376,-0.06318578,-0.04403232,0.9056222,-7.3623,8.746869,0.19590704,-0.35486716,-0.71682686,0.24018972,0
1.7000000000000013,10.946823185347364,-0.3548671651572163,-0.7168268504237524,0.24018972182815992,12.805797,-0.0016294499,-1.4604069,0.09992996,2.191224,-2.085697,1.6335801,0.4156726,-0.0607322,-0.04705763,0.9062635,-7.3787675,8.743589,0.20597956,-0.35486716,-0.71682686,0.24018972,0
1.7100000000000013,10.946823185347364,-0.3548671651572163,-0.7168268504237524,0.24018972182815992,12.805797,-0.0016294499,-1.4604069,0.09992996,2.117355,-1.9982811,1.6356903,0.41430417,-0.058277562,-0.050082114,0.90688896,-7.395018,8.739462,0.21605581,-0.35486716,-0.71682686,0.24018972,0
1.7200000000000013,10.816633560584956,-0.20148610423996502,-0.5409355135703237,0.22780802889053317,12.514642,-0.017280469,-1.7140877,0.3811148,2.0433245,-1.9109106,1.6379012,0.41292855,-0.05582191,-0.05310573,0.9074986,-7.4110484,8.734486,0.22612923,-0.35486716,-0.71682686,0.24018972,0
1.7300000000000013,10.816633560584956,-0.20148610423996502,-0.5409355135703237,0.22780802889053317,12.514642,-0.017280469,-1.7140877,0.3811148,1.9691358,-1.8235936,1.6402062,0.411693,-0.05384364,-0.05507297,0.9080621,-7.4266686,8.728827,0.23491193,-0.20148611,-0.5409355,0.22780803,0
1.7400000000000013,10.816633560584956,-0.20148610423996502,-0.5409355135703237,0.22780802889053317,12.514642,-0.017280469,-1.7140877,0.3811148,1.894792,-1.7363361,1.6425993,0.4104535,-0.05186485,-0.057039678,0.9086168,-7.4420676,8.722586,0.24369428,-0.20148611,-0.5409355,0.22780803,0
1.7500000000000013,10.816633560584956,-0.20148610423996502,-0.5409355135703237,0.22780802889053317,12.514642,-0.017280469,-1.7140877,0.3811148,1.8202953,-1.6491438,1.6450803,0.40921006,-0.049885564,-0.059005838,0.90916276,-7.457243,8.715761,0.2524729,-0.20148611,-0.5409355,0.22780803,0
1.7600000000000013,10.674415508606067,-0.07386578758935115,-0.5598864478657631,0.19750014272477726,11.863289,0.40851557,-1.1851748,0.20202473,1.745648,-1.5620228,1.647649,0.40796268,-0.047905795,-0.060971428,0.9097,-7.4721937,8.708353,0.2612445,-0.20148611,-0.5409355,0.22780803,0
1.7700000000000014,10.674415508606067,-0.07386578758935115,-0.5598864478657631,0.19750014272477726,11.863289,0.40851557,-1.1851748,0.20202473,1.6708534,-1.4749781,1.6502984,0.40687415,-0.045569822,-0.062401887,0.9102104,-7.486681,8.700498,0.2686087,-0.073865786,-0.55988646,0.19750014,0
1.7800000000000014,10.674415508606067,-0.07386578758935115,-0.5598864478657631,0.19750014272477726,11.863289,0.40851557,-1.1851748,0.20202473,1.5959156,-1.3880146,1.6530212,0.40578198,-0.04323344,-0.063831784,0.9107126,-7.5008287,8.692143,0.2759806,-0.073865786,-0.55988646,0.19750014,0
1.7900000000000014,10.674415508606067,-0.07386578758935115,-0.5598864478657631,0.19750014272477726,11.863289,0.40851557,-1.1851748,0.20202473,1.520838,-1.301137,1.6558179,0.40468618,-0.040896673,-0.06526112,0.9112067,-7.5146365,8.683291,0.28335705,-0.073865786,-0.55988646,0.19750014,0
1.8000000000000014,10.594674321972018,0.02159729283759559,-0.14799019470579955,0.18920586086437177,12.172094,0.042848144,-1.7098342,0.6394193,1.445624,-1.2143505,1.6586883,0.40358678,-0.038559545,-0.06668986,0.9116926,-7.5281014,8.6739435,0.29073492,-0.073865786,-0.55988646,0.19750014,0
1.8100000000000014,10.594674321972018,0.02159729283759559,-0.14799019470579955,0.18920586086437177,12.172094,0.042848144,-1.7098342,0.6394193,1.3702774,-1.1276591,1.6616286,0.40267882,-0.037904423,-0.066853516,0.9121095,-7.5412087,8.66432,0.29732648,0.021597292,-0.1479902,0.18920586,0
1.8200000000000014,10.594674321972018,0.02159729283759559,-0.14799019470579955,0.18920586086437177,12.172094,0.042848144,-1.7098342,0.6394193,1.2948003,-1.0410643,1.6646348,0.40177026,-0.03724924,-0.06701708,0.91252506,-7.5541925,8.654596,0.30392393,0.021597292,-0.1479902,0.18920586,0
1.8300000000000014,10.594674321972018,0.02159729283759559,-0.14799019470579955,0.18920586086437177,12.172094,0.042848144,-1.7098342,0.6394193,1.2191939,-0.9545674,1.6677071,0.4008611,-0.036594,-0.06718054,0.91293925,-7.567054,8.644772,0.31052712,0.021597292,-0.1479902,0.18920586,0
1.8400000000000014,10.594674321972018,0.02159729283759559,-0.14799019470579955,0.18920586086437177,12.023648,0.114260174,-1.48417,0.5486604,1.1434596,-0.86816925,1.6708454,0.3999514,-0.035938714,-0.0673439,0.9133522,-7.579793,8.634846,0.31713584,0.021597292,-0.1479902,0.18920586,0
1.8500000000000014,10.594674321972018,0.02159729283759559,-0.14799019470579955,0.18920586086437177,12.023648,0.114260174,-1.48417,0.5486604,1.0675986,-0.7818709,1.6740499,0.3990411,-0.035283368,-0.06750717,0.91376376,-7.5924096,8.624821,0.32374987,0.021597292,-0.1479902,0.18920586,0
1.8600000000000014,10.594674321972018,0.02159729283759559,-0.14799019470579955,0.18920586086437177,12.023648,0.114260174,-1.48417,0.5486604,0.991612,-0.6956733,1.6773205,0.3981302,-0.034627978,-0.06767034,0.914174,-7.6049027,8.6146965,0.33036909,0.021597292,-0.1479902,0.18920586,0
1.8700000000000014,10.594674321972018,0.02159729283759559,-0.14799019470579955,0.18920586086437177,12.023648,0.114260174,-1.48417,0.5486604,0.915501,-0.60957736,1.6806573,0.39721876,-0.033972535,-0.0678334,0.9145829,-7.617273,8.604473,0.33699325,0.021597292,-0.1479902,0.18920586,0
1.8800000000000014,10.489031214382065,0.08703473636415067,-0.7346025544678717,0.16054248702207818,10.964758,0.53645855,-0.56149024,0.18570657,0.83926696,-0.5235841,1.6840603,0.39630672,-0.03331704,-0.067996375,0.9149905,-7.62952,8.594151,0.3436222,0.021597292,-0.1479902,0.18920586,1
1.8900000000000015,10.489031214382065,0.08703473636415067,-0.7346025544678717,0.16054248702207818,10.964758,0.53645855,-0.56149024,0.18570657,0.76290977,-0.43769646,1.687548,0.39535242,-0.029748123,-0.06662325,0.91562706,-7.6417975,8.583384,0.35394663,0.53645855,-0.56149024,0.18570657,1
1.9000000000000015,10.489031214382065,0.08703473636415067,-0.7346025544678717,0.16054248702207818,10.964758,0.53645855,-0.56149024,0.18570657,0.686434,-0.35191664,1.6911395,0.39439183,-0.026178729,-0.06524905,0.9162491,-7.653229,8.572567,0.36435857,0.53645855,-0.56149024,0.18570657,1
1.9100000000000015,10.489031214382065,0.08703473636415067,-0.7346025544678717,0.16054248702207818,10.964758,0.53645855,-0.56149024,0.18570657,0.6098481,-0.26624525,1.6948355,0.393425,-0.022608917,-0.06387381,0.9168565,-7.6638155,8.561705,0.37485164,0.53645855,-0.56149024,0.18570657,1
1.9200000000000015,10.350020099488919,0.08078659088125464,0.0474468941173758,0.16614404218908796,10.958622,0.3998211,-0.5100124,0.079179734,0.53316057,-0.1806827,1.6986369,0.39245182,-0.019038744,-0.062497556,0.9174493,-7.6735544,8.5507965,0.38541946,0.53645855,-0.56149024,0.18570657,1
1.9300000000000015,10.350020099488919,0.08078659088125464,0.0474468941173758,0.16614404218908796,10.958622,0.3998211,-0.5100124,0.079179734,0.4563798,-0.095229514,1.7025439,0.3919652,-0.015939284,-0.061656386,0.91777325,-7.682496,8.539828,0.39598802,0.3998211,-0.5100124,0.079179734,1
1.9400000000000015,10.350020099488919,0.08078659088125464,0.0474468941173758,0.16614404218908796,10.958622,0.3998211,-0.5100124,0.079179734,0.37951308,-0.009886505,1.7065567,0.39147443,-0.012839657,-0.060814556,0.9180874,-7.690736,8.528757,0.40660152,0.3998211,-0.5100124,0.079179734,1
1.9500000000000015,10.350020099488919,0.08078659088125464,0.0474468941173758,0.16614404218908796,10.958622,0.3998211,-0.5100124,0.079179734,0.30256748,0.07534528,1.7106761,0.39097947,-0.009739892,-0.05997208,0.9183918,-7.6982737,8.517584,0.4172555,0.3998211,-0.5100124,0.079179734,1
1.9600000000000015,10.08338403165838,-0.043727815255601835,-0.3667178272864002,0.15735663653286255,11.031812,0.027536403,-0.5027931,0.39500406,0.22555004,0.16046482,1.714902,0.39048034,-0.0066400226,-0.05912897,0.91868645,-7.7051096,8.5063095,0.42794538,0.3998211,-0.5100124,0.079179734,1
1.9700000000000015,10.08338403165838,-0.043727815255601835,-0.3667178272864002,0.15735663653286255,11.031812,0.027536403,-0.5027931,0.39500406,0.14846718,0.24547045,1.7192388,0.3885162,-0.004393465,-0.059970718,0.91947776,-7.7113967,8.494755,0.43937632,0.027536403,-0.5027931,0.39500406,1
1.9800000000000015,10.08338403165838,-0.043727815255601835,-0.3667178272864002,0.15735663653286255,11.031812,0.027536403,-0.5027931,0.39500406,0.07132351,0.33035865,1.7236896,0.38654807,-0.002146863,-0.06081185,0.9202597,-7.7172756,8.482824,0.45078966,0.027536403,-0.5027931,0.39500406,1
1.9900000000000015,10.08338403165838,-0.043727815255601835,-0.3667178272864002,0.15735663653286255,11.031812,0.027536403,-0.5027931,0.39500406,-0.0058769174,0.41512564,1.7282544,0.38457596,9.976147e-05,-0.061652366,0.9210322,-7.722744,8.47052,0.46218288,0.027536403,-0.5027931,0.39500406,1
2.0000000000000013,,,,,10.107639,0.03371421,0.6854274,0.042620424,-0.083129965,0.49976772,1.7329332,0.38259995,0.0023463848,-0.062492244,0.92179525,-7.7278004,8.457844,0.47355348,0.027536403,-0.5027931,0.39500406,1
2.010000000000001,,,,,10.107639,0.03371421,0.6854274,0.042620424,-0.16043046,0.5842876,1.7376796,0.38261503,-0.00076156354,-0.061025765,0.9218899,-7.7323713,8.44621,0.47575378,0.03371421,0.6854274,0.042620424,1
2.020000000000001,,,,,10.107639,0.03371421,0.6854274,0.042620424,-0.23777899,0.66869366,1.7424483,0.38262558,-0.0038695028,-0.059558567,0.92197365,-7.7374077,8.435088,0.47798988,0.03371421,0.6854274,0.042620424,1
2.0300000000000007,,,,,10.107639,0.03371421,0.6854274,0.042620424,-0.31518024,0.75299114,1.7472396,0.3826316,-0.0069773966,-0.058090664,0.9220465,-7.7429104,8.4244795,0.4802571,0.03371421,0.6854274,0.042620424,1
2.0400000000000005,,,,,10.107639,0.03371421,0.6854274,0.042620424,-0.39263883,0.837185,1.7520537,0.3826331,-0.010085207,-0.056622077,0.9221085,-7.7488794,8.414384,0.4825506,0.03371421,0.6854274,0.042620424,1
2.0500000000000003,,,,,9.69218,0.09155326,0.946553,0.09390199,-0.47015944,0.92128056,1.7568908,0.38263008,-0.0131928995,-0.055152815,0.9221595,-7.755314,8.404802,0.4848656,0.03371421,0.6854274,0.042620424,1
2.06,,,,,9.69218,0.09155326,0.946553,0.09390199,-0.5477455,1.0052849,1.7617304,0.38245982,-0.017407836,-0.05291297,0.92229134,-7.761983,8.396189,0.4830729,0.09155326,0.946553,0.09390199,1
2.07,,,,,9.69218,0.09155326,0.946553,0.09390199,-0.6254012,1.0892067,1.7665522,0.38228083,-0.021622377,-0.050671913,0.9224022,-7.7692375,8.388286,0.48129883,0.09155326,0.946553,0.09390199,1
2.0799999999999996,,,,,9.69218,0.09155326,0.946553,0.09390199,-0.7031323,1.173053,1.7713563,0.3820931,-0.025836423,-0.048429698,0.9224921,-7.777078,8.381095,0.47953457,0.09155326,0.946553,0.09390199,1
2.0899999999999994,,,,,9.657346,-0.008831111,0.23533997,0.32567775,-0.7809447,1.2568312,1.7761428,0.38189667,-0.03004988,-0.046186376,0.9225608,-7.785505,8.374615,0.47777134,0.09155326,0.946553,0.09390199,1
2.099999999999999,,,,,9.657346,-0.008831111,0.23533997,0.32567775,-0.85884374,1.3405474,1.78091,0.38044664,-0.031227466,-0.04572871,0.9231435,-7.794328,8.36866,0.4756562,-0.008831111,0.23533997,0.32567775,1
2.109999999999999,,,,,9.657346,-0.008831111,0.23533997,0.32567775,-0.93683183,1.424205,1.785656,0.37899506,-0.032404926,-0.04527086,0.9237224,-7.8033195,8.362858,0.47353503,-0.008831111,0.23533997,0.32567775,1
2.1199999999999988,,,,,9.657346,-0.008831111,0.23533997,0.32567775,-1.0149107,1.5078051,1.7903807,0.37754196,-0.033582255,-0.04481282,0.9242975,-7.8124785,8.357212,0.47140723,-0.008831111,0.23533997,0.32567775,1
2.1299999999999986,,,,,9.529168,-0.013277612,0.012104755,0.3020785,-1.093082,1.5913496,1.7950841,0.3760873,-0.03475945,-0.044354603,0.924869,-7.8218055,8.351719,0.46927217,-0.008831111,0.23533997,0.32567775,1
2.1399999999999983,,,,,9.529168,-0.013277612,0.012104755,0.3020785,-1.1713465,1.6748401,1.7997599,0.37469032,-0.03490735,-0.04434069,0.92543095,-7.8311176,8.346393,0.46585798,-0.013277612,0.012104755,0.3020785,1
2.149999999999998,,,,,9.529168,-0.013277612,0.012104755,0.3020785,-1.2497045,1.7582775,1.8044014,0.37329248,-0.035055168,-0.044326674,0.92599076,-7.840447,8.3410635,0.46244207,-0.013277612,0.012104755,0.3020785,1
