time-since-start [s],throttle_mpc,roll_mpc,pitch_mpc,yaw_mpc,throttle_nw,roll_nw,pitch_nw,yaw_nw,position_x [m],position_y [m],position_z [m],rotation_w [quaternion],rotation_x [quaternion],rotation_y [quaternion],rotation_z [quaternion],velocity_x [m/s],velocity_y [m/s],velocity_z [m/s],omega_x [rad/s],omega_y [rad/s],omega_z [rad/s],network_used
0.0,11.416078204629606,5.999999605279399,-5.999999669511932,1.8234845589768984,13.841964,0.8945616,-2.3718014,-0.35993853,15.056472,-10.687195,1.7904111,0.3523572,-0.34175876,0.22520927,0.84162116,-10.28423,-0.9734771,0.08314597,1.1027918,0.061616834,-0.24553898,0
0.01,11.416078204629606,5.999999605279399,-5.999999669511932,1.8234845589768984,13.199203,2.5244443,-3.9298275,-0.2161566,14.953401,-10.696575,1.791136,0.3613582,-0.30357623,0.24278554,0.8475357,-10.328495,-0.902205,0.062416524,5.9999995,-5.9999995,1.8234845,0
0.02,11.416078204629606,5.999999605279399,-5.999999669511932,1.8234845589768984,13.199203,2.5244443,-3.9298275,-0.2161566,14.849932,-10.7052355,1.7916716,0.3696788,-0.26482213,0.25990468,0.8518546,-10.363801,-0.82981837,0.045180727,5.9999995,-5.9999995,1.8234845,0
0.03,11.416078204629606,5.999999605279399,-5.999999669511932,1.8234845589768984,13.199203,2.5244443,-3.9298275,-0.2161566,14.746157,-10.713169,1.7920493,0.3773034,-0.22556938,0.27653447,0.8545696,-10.38987,-0.7567026,0.030746195,5.9999995,-5.9999995,1.8234845,0
0.04,11.416078204629606,5.999999605279399,-5.999999669511932,1.8234845589768984,12.730863,-0.82762533,-1.1280793,-0.11441994,14.642168,-10.720368,1.7922938,0.3842176,-0.18589194,0.29264358,0.85567564,-10.40649,-0.6832487,0.018399475,5.9999995,-5.9999995,1.8234845,0
0.05,11.416078204629606,5.999999605279399,-5.999999669511932,1.8234845589768984,12.730863,-0.82762533,-1.1280793,-0.11441994,14.538061,-10.726834,1.792422,0.39040834,-0.1458645,0.30820167,0.85517055,-10.413527,-0.60985005,0.007411386,5.9999995,-5.9999995,1.8234845,0
0.060000000000000005,11.416078204629606,5.999999605279399,-5.999999669511932,1.8234845589768984,12.730863,-0.82762533,-1.1280793,-0.11441994,14.43393,-10.732568,1.7924441,0.395864,-0.105562426,0.32317948,0.8530553,-10.410912,-0.5368996,-0.0029574782,5.9999995,-5.9999995,1.8234845,0
0.07,11.416078204629606,5.999999605279399,-5.999999669511932,1.8234845589768984,12.730863,-0.82762533,-1.1280793,-0.11441994,14.329875,-10.737576,1.7923626,0.40057433,-0.0650616,0.3375488,0.84933394,-10.398653,-0.4647871,-0.013451191,5.9999995,-5.9999995,1.8234845,0
0.08,16.34113567079069,5.999998549931164,-5.999999485382857,0.22701198457417318,13.387744,-2.0405145,3.8268178,-0.1675043,14.22599,-10.741868,1.7921722,0.4045304,-0.024438258,0.35128257,0.8440134,-10.376829,-0.39389586,-0.02481287,5.9999995,-5.9999995,1.8234845,0
0.09,16.34113567079069,5.999998549931164,-5.999999485382857,0.22701198457417318,13.387744,-2.0405145,3.8268178,-0.1675043,14.122436,-10.745309,1.7920452,0.41447663,0.013427421,0.36417452,0.8339099,-10.332118,-0.2947235,-0.0010358565,5.9999986,-5.9999995,0.22701198,0
0.09999999999999999,16.34113567079069,5.999998549931164,-5.999999485382857,0.22701198457417318,13.387744,-2.0405145,3.8268178,-0.1675043,14.019393,-10.747772,1.7921405,0.4236764,0.051268913,0.37641057,0.8223046,-10.274254,-0.19850293,0.019529738,5.9999986,-5.9999995,0.22701198,0
0.10999999999999999,16.34113567079069,5.999998549931164,-5.999999485382857,0.22701198457417318,13.387744,-2.0405145,3.8268178,-0.1675043,13.916993,-10.749291,1.7924216,0.4321131,0.08901807,0.3879687,0.8092184,-10.203651,-0.10590212,0.03601006,5.9999986,-5.9999995,0.22701198,0
0.11999999999999998,16.34113567079069,5.999998549931164,-5.999999485382857,0.22701198457417318,13.387744,-2.0405145,3.8268178,-0.1675043,13.815361,-10.749905,1.7928436,0.4397716,0.1266069,0.39882803,0.79467463,-10.120819,-0.017563134,0.0475607,5.9999986,-5.9999995,0.22701198,0
0.12999999999999998,18.574146116743336,2.420220021538872,-5.7250321449568435,0.1486446624608409,14.665454,-3.6274889,3.8931093,0.122944966,13.714615,-10.74966,1.7933531,0.44663802,0.16396771,0.4089691,0.77869976,-10.026352,0.06590271,0.05337272,5.9999986,-5.9999995,0.22701198,0
0.13999999999999999,18.574146116743336,2.420220021538872,-5.7250321449568435,0.1486446624608409,14.665454,-3.6274889,3.8931093,0.122944966,13.614937,-10.748553,1.7939618,0.45556462,0.19188315,0.40528822,0.7690144,-9.907985,0.1541054,0.0679627,2.4202201,-5.7250323,0.14864466,0
0.15,18.574146116743336,2.420220021538872,-5.7250321449568435,0.1486446624608409,14.665454,-3.6274889,3.8931093,0.122944966,13.516483,-10.746605,1.7947029,0.464051,0.21961318,0.4012157,0.75858593,-9.781674,0.23439771,0.07980929,2.4202201,-5.7250323,0.14864466,0
0.16,17.228408080862067,-0.501997262981734,-0.5293241259593995,-0.2105806720269363,15.487936,-3.100434,2.8544602,-0.36175963,13.41933,-10.743894,1.795547,0.47208896,0.24713098,0.3967555,0.74742436,-9.647903,0.30647936,0.08847476,2.4202201,-5.7250323,0.14864466,0
0.17,17.228408080862067,-0.501997262981734,-0.5293241259593995,-0.2105806720269363,15.487936,-3.100434,2.8544602,-0.36175963,13.323493,-10.74052,1.7964271,0.47454286,0.24750467,0.39388737,0.74726367,-9.519737,0.36807296,0.08764402,-0.5019973,-0.5293241,-0.21058068,0
0.18000000000000002,17.228408080862067,-0.501997262981734,-0.5293241259593995,-0.2105806720269363,15.487936,-3.100434,2.8544602,-0.36175963,13.228936,-10.736535,1.7973024,0.47698992,0.24787478,0.3910136,0.74709225,-9.391625,0.4286352,0.08752959,-0.5019973,-0.5293241,-0.21058068,0
0.19000000000000003,17.228408080862067,-0.501997262981734,-0.5293241259593995,-0.2105806720269363,15.487936,-3.100434,2.8544602,-0.36175963,13.135659,-10.731952,1.7981801,0.47943014,0.24824132,0.38813418,0.74691004,-9.263576,0.48816416,0.08812784,-0.5019973,-0.5293241,-0.21058068,0
0.20000000000000004,15.798112606443537,-1.0680157673382342,1.3778218939000746,-0.3800672610637109,14.792503,-2.315819,4.053114,-0.28425506,13.043664,-10.726777,1.7990674,0.48186344,0.24860428,0.38524917,0.7467171,-9.135598,0.5466578,0.08943508,-0.5019973,-0.5293241,-0.21058068,0
0.21000000000000005,15.798112606443537,-1.0680157673382342,1.3778218939000746,-0.3800672610637109,14.792503,-2.315819,4.053114,-0.28425506,12.952892,-10.721045,1.7999305,0.4819368,0.240145,0.38503835,0.7495415,-9.018964,0.6002929,0.083406135,-1.0680158,1.3778219,-0.38006726,0
0.22000000000000006,15.798112606443537,-1.0680157673382342,1.3778218939000746,-0.3800672610637109,14.792503,-2.315819,4.053114,-0.28425506,12.863278,-10.7147665,1.8007401,0.48197183,0.2316666,0.3847969,0.7523063,-8.904146,0.655501,0.07872175,-1.0680158,1.3778219,-0.38006726,0
0.23000000000000007,15.798112606443537,-1.0680157673382342,1.3778218939000746,-0.3800672610637109,14.792503,-2.315819,4.053114,-0.28425506,12.774804,-10.707929,1.8015095,0.4819685,0.22316974,0.3845248,0.75501126,-8.791179,0.7122731,0.07534676,-1.0680158,1.3778219,-0.38006726,0
0.24000000000000007,15.798112606443537,-1.0680157673382342,1.3778218939000746,-0.3800672610637109,15.379762,-1.9959397,3.585559,-0.0006997641,12.6874485,-10.700516,1.8022515,0.4819268,0.21465515,0.38422212,0.75765616,-8.680095,0.7705997,0.0732456,-1.0680158,1.3778219,-0.38006726,0
0.25000000000000006,15.798112606443537,-1.0680157673382342,1.3778218939000746,-0.3800672610637109,15.379762,-1.9959397,3.585559,-0.0006997641,12.601195,-10.692512,1.8029786,0.48184675,0.20612347,0.38388884,0.7602407,-8.570925,0.83047086,0.07238228,-1.0680158,1.3778219,-0.38006726,0
0.26000000000000006,15.798112606443537,-1.0680157673382342,1.3778218939000746,-0.3800672610637109,15.379762,-1.9959397,3.585559,-0.0006997641,12.516024,-10.683901,1.8037033,0.48172835,0.19757538,0.383525,0.7627647,-8.463702,0.89187604,0.07272043,-1.0680158,1.3778219,-0.38006726,0
0.2700000000000001,15.798112606443537,-1.0680157673382342,1.3778218939000746,-0.3800672610637109,15.379762,-1.9959397,3.585559,-0.0006997641,12.431915,-10.674669,1.8044372,0.4815716,0.18901156,0.38313067,0.76522803,-8.358456,0.95480424,0.074223295,-1.0680158,1.3778219,-0.38006726,0
0.2800000000000001,14.710977351121095,-1.4508785206894739,2.3123587196117805,-0.4422945656422411,17.835247,-2.2817688,3.8170843,-0.7122152,12.348849,-10.6648,1.8051918,0.48137656,0.18043272,0.3827058,0.7676305,-8.255216,1.0192442,0.076853745,-1.0680158,1.3778219,-0.38006726,0
0.2900000000000001,14.710977351121095,-1.4508785206894739,2.3123587196117805,-0.4422945656422411,17.835247,-2.2817688,3.8170843,-0.7122152,12.266769,-10.654301,1.8059434,0.47991234,0.16720226,0.3830651,0.77135485,-8.161351,1.0810444,0.07367603,-1.4508785,2.3123586,-0.44229457,0
0.3000000000000001,14.710977351121095,-1.4508785206894739,2.3123587196117805,-0.4422945656422411,17.835247,-2.2817688,3.8170843,-0.7122152,12.185613,-10.643171,1.8066695,0.4783564,0.15393986,0.38335118,0.7749317,-8.070432,1.1452783,0.07173927,-1.4508785,2.3123586,-0.44229457,0
0.3100000000000001,14.710977351121095,-1.4508785206894739,2.3123587196117805,-0.4422945656422411,17.835247,-2.2817688,3.8170843,-0.7122152,12.1053505,-10.631387,1.8073821,0.47670898,0.14064799,0.38356397,0.7783605,-7.9825177,1.21191,0.07095948,-1.4508785,2.3123586,-0.44229457,0
0.3200000000000001,13.760237265264989,-1.844091955500006,3.7222488046776587,-0.5879115092535403,17.025707,-2.4919293,4.558386,-0.62252074,12.025951,-10.618925,1.8080924,0.4749704,0.12732926,0.3837034,0.78164035,-7.8976693,1.2809017,0.071251765,-1.4508785,2.3123586,-0.44229457,0
0.3300000000000001,13.760237265264989,-1.844091955500006,3.7222488046776587,-0.5879115092535403,17.025707,-2.4919293,4.558386,-0.62252074,11.947357,-10.6057825,1.8087785,0.47119668,0.10724805,0.38562584,0.7859795,-7.8217425,1.3481582,0.06612234,-1.844092,3.7222488,-0.5879115,0
0.34000000000000014,13.760237265264989,-1.844091955500006,3.7222488046776587,-0.5879115092535403,17.025707,-2.4919293,4.558386,-0.62252074,11.8695,-10.591949,1.8094177,0.46721563,0.08711965,0.3873786,0.78997284,-7.7502,1.418988,0.061812796,-1.844092,3.7222488,-0.5879115,0
0.35000000000000014,13.760237265264989,-1.844091955500006,3.7222488046776587,-0.5879115092535403,17.025707,-2.4919293,4.558386,-0.62252074,11.792337,-10.57739,1.810017,0.463029,0.066952914,0.3889609,0.79361856,-7.683153,1.4932891,0.058137108,-1.844092,3.7222488,-0.5879115,0
0.36000000000000015,13.410123169181224,-1.8566493409398497,3.321830476178388,-0.6226531995085235,16.017107,-2.658312,4.240292,-0.59775734,11.715822,-10.562071,1.8105819,0.4586386,0.046756722,0.39037207,0.79691505,-7.6207056,1.5709531,0.05490813,-1.844092,3.7222488,-0.5879115,0
0.37000000000000016,13.410123169181224,-1.8566493409398497,3.321830476178388,-0.6226531995085235,16.017107,-2.658312,4.240292,-0.59775734,11.6399,-10.54597,1.811104,0.4549849,0.028040119,0.3906647,0.7997394,-7.5643096,1.6496531,0.049581647,-1.8566494,3.3218305,-0.6226532,0
0.38000000000000017,13.410123169181224,-1.8566493409398497,3.321830476178388,-0.6226531995085235,16.017107,-2.658312,4.240292,-0.59775734,11.564521,-10.529068,1.8115745,0.45116207,0.009313092,0.3908121,0.80226654,-7.512265,1.7310053,0.04451032,-1.8566494,3.3218305,-0.6226532,0
0.3900000000000002,13.410123169181224,-1.8566493409398497,3.321830476178388,-0.6226531995085235,16.017107,-2.658312,4.240292,-0.59775734,11.489639,-10.511341,1.8119946,0.44717154,-0.009417398,0.39081424,0.8044954,-7.4646378,1.8149114,0.039536584,-1.8566494,3.3218305,-0.6226532,0
0.4000000000000002,13.277763446189669,-1.561634893340554,2.3444003549209893,-0.6796490802376108,15.216684,-2.4454136,2.702786,-0.33041665,11.415213,-10.492763,1.8123648,0.44301477,-0.028144386,0.3906711,0.80642515,-7.421485,1.901269,0.03450273,-1.8566494,3.3218305,-0.6226532,0
0.4100000000000002,13.277763446189669,-1.561634893340554,2.3444003549209893,-0.6796490802376108,15.216684,-2.4454136,2.702786,-0.33041665,11.341193,-10.473312,1.8126795,0.44090956,-0.042380583,0.3894308,0.80755556,-7.382834,1.9888101,0.028443433,-1.5616349,2.3444004,-0.67964906,0
0.4200000000000002,13.277763446189669,-1.561634893340554,2.3444003549209893,-0.6796490802376108,15.216684,-2.4454136,2.702786,-0.33041665,11.267544,-10.452979,1.8129337,0.43871182,-0.056607883,0.38810873,0.8085164,-7.347616,2.0778334,0.02234021,-1.5616349,2.3444004,-0.67964906,0
0.4300000000000002,13.277763446189669,-1.561634893340554,2.3444003549209893,-0.6796490802376108,15.216684,-2.4454136,2.702786,-0.33041665,11.194229,-10.43175,1.813126,0.436422,-0.070823304,0.38670522,0.80930746,-7.315853,2.1682842,0.016101742,-1.5616349,2.3444004,-0.67964906,0
0.4400000000000002,13.277763446189669,-1.561634893340554,2.3444003549209893,-0.6796490802376108,14.061145,-2.365407,1.9560151,-0.33919996,11.121215,-10.40961,1.8132548,0.43404055,-0.08502385,0.38522053,0.8099287,-7.287562,2.260107,0.009636825,-1.5616349,2.3444004,-0.67964906,1
0.45000000000000023,13.277763446189669,-1.561634893340554,2.3444003549209893,-0.6796490802376108,14.061145,-2.365407,1.9560151,-0.33919996,11.048472,-10.386518,1.8133456,0.43058953,-0.09872108,0.37969652,0.8128204,-7.2614965,2.3584685,0.008571419,-2.365407,1.9560151,-0.33919996,1
0.46000000000000024,13.277763446189669,-1.561634893340554,2.3444003549209893,-0.6796490802376108,14.061145,-2.365407,1.9560151,-0.33919996,10.975969,-10.362438,1.8134279,0.42703584,-0.11239477,0.374082,0.81551826,-7.2396817,2.4574254,0.007948238,-2.365407,1.9560151,-0.33919996,1
0.47000000000000025,13.277763446189669,-1.561634893340554,2.3444003549209893,-0.6796490802376108,14.061145,-2.365407,1.9560151,-0.33919996,10.903664,-10.337366,1.8135058,0.42338037,-0.12604167,0.3683783,0.8180218,-7.222139,2.5568953,0.0076649827,-2.365407,1.9560151,-0.33919996,1
0.48000000000000026,13.22663461735694,-1.2434847993782663,1.4601942056242578,-0.6280544552414757,15.503905,-2.6557817,2.0166347,-0.16879152,10.831512,-10.311298,1.8135821,0.41962394,-0.13965851,0.36258677,0.82033026,-7.208884,2.6567943,0.0076190443,-2.365407,1.9560151,-0.33919996,0
0.49000000000000027,13.22663461735694,-1.2434847993782663,1.4601942056242578,-0.6280544552414757,15.503905,-2.6557817,2.0166347,-0.16879152,10.759471,-10.28426,1.813629,0.4186631,-0.14938805,0.3600931,0.82020545,-7.1998696,2.7511652,0.0017512436,-1.2434849,1.4601942,-0.62805444,0
0.5000000000000002,13.22663461735694,-1.2434847993782663,1.4601942056242578,-0.6280544552414757,15.503905,-2.6557817,2.0166347,-0.16879152,10.687506,-10.256274,1.813616,0.41765964,-0.15910238,0.35756275,0.8199972,-7.1933303,2.8460157,-0.004400716,-1.2434849,1.4601942,-0.62805444,0
0.5100000000000002,13.22663461735694,-1.2434847993782663,1.4601942056242578,-0.6280544552414757,15.503905,-2.6557817,2.0166347,-0.16879152,10.615595,-10.227338,1.81354,0.41661364,-0.1688005,0.35499606,0.81970537,-7.189264,2.9413223,-0.010881956,-1.2434849,1.4601942,-0.62805444,0
0.5200000000000002,12.88124101318059,-0.4395323676108294,0.3557953862198251,-0.5888101508280105,15.243637,-2.0608344,1.0395044,-0.16270004,10.543713,-10.197447,1.8133972,0.4155252,-0.17848144,0.35239318,0.8193301,-7.1876693,3.0370605,-0.017737456,-1.2434849,1.4601942,-0.62805444,0
0.5300000000000002,12.88124101318059,-0.4395323676108294,0.3557953862198251,-0.5888101508280105,15.243637,-2.0608344,1.0395044,-0.16270004,10.471836,-10.166609,1.8131723,0.41691476,-0.18188816,0.35080338,0.81855685,-7.1878924,3.1305592,-0.027234085,-0.43953237,0.35579538,-0.58881015,0
0.5400000000000003,12.88124101318059,-0.4395323676108294,0.3557953862198251,-0.5888101508280105,15.243637,-2.0608344,1.0395044,-0.16270004,10.399953,-10.134835,1.8128524,0.41829735,-0.18529186,0.34920776,0.81777,-7.188843,3.224082,-0.03676121,-0.43953237,0.35579538,-0.58881015,0
0.5500000000000003,12.88124101318059,-0.4395323676108294,0.3557953862198251,-0.5888101508280105,15.243637,-2.0608344,1.0395044,-0.16270004,10.328055,-10.102127,1.812437,0.419673,-0.18869245,0.3476063,0.8169695,-7.1905203,3.3176293,-0.046324775,-0.43953237,0.35579538,-0.58881015,0
0.5600000000000003,12.82973327113301,-0.2356996553157005,-0.11224231477580418,-0.4828570841203041,14.552079,-1.3797543,0.6867921,-0.12560722,10.256139,-10.068482,1.8119258,0.42104164,-0.19208992,0.34599903,0.81615543,-7.1929245,3.4112008,-0.055930726,-0.43953237,0.35579538,-0.58881015,0
0.5700000000000003,12.82973327113301,-0.2356996553157005,-0.11224231477580418,-0.4828570841203041,14.552079,-1.3797543,0.6867921,-0.12560722,10.184195,-10.033904,1.8113168,0.42297828,-0.1929627,0.34433582,0.8156514,-7.1958337,3.504337,-0.06584145,-0.23569965,-0.11224231,-0.48285708,0
0.5800000000000003,12.82973327113301,-0.2356996553157005,-0.11224231477580418,-0.4828570841203041,14.552079,-1.3797543,0.6867921,-0.12560722,10.112223,-9.998395,1.8106098,0.42491174,-0.19383402,0.34267005,0.81514126,-7.19891,3.5972707,-0.075544246,-0.23569965,-0.11224231,-0.48285708,0
0.5900000000000003,12.82973327113301,-0.2356996553157005,-0.11224231477580418,-0.4828570841203041,14.552079,-1.3797543,0.6867921,-0.12560722,10.040216,-9.961959,1.8098068,0.426842,-0.19470389,0.3410017,0.81462497,-7.2021546,3.6900017,-0.08504033,-0.23569965,-0.11224231,-0.48285708,0
0.6000000000000003,12.427288461454772,-0.015073759352882195,-0.9777037708053752,-0.39409860052169887,14.569402,-1.440209,0.6438998,-0.019597184,9.968178,-9.924597,1.8089098,0.42876905,-0.19557229,0.33933073,0.8141025,-7.2055693,3.7825296,-0.09433092,-0.23569965,-0.11224231,-0.48285708,0
0.6100000000000003,12.427288461454772,-0.015073759352882195,-0.9777037708053752,-0.39409860052169887,14.569402,-1.440209,0.6438998,-0.019597184,9.896107,-9.886325,1.8079075,0.43201137,-0.1922908,0.33678326,0.81422794,-7.2087326,3.8717706,-0.10600377,-0.0150737595,-0.97770375,-0.3940986,0
0.6200000000000003,12.427288461454772,-0.015073759352882195,-0.9777037708053752,-0.39409860052169887,14.569402,-1.440209,0.6438998,-0.019597184,9.824006,-9.847163,1.8067923,0.43524167,-0.18900396,0.3342264,0.81433076,-7.2112393,3.9603083,-0.11693462,-0.0150737595,-0.97770375,-0.3940986,0
0.6300000000000003,12.427288461454772,-0.015073759352882195,-0.9777037708053752,-0.39409860052169887,14.569402,-1.440209,0.6438998,-0.019597184,9.7518835,-9.80712,1.8055713,0.43845984,-0.18571188,0.33166027,0.8144109,-7.2130933,4.048132,-0.12713003,-0.0150737595,-0.97770375,-0.3940986,0
0.6400000000000003,12.427288461454772,-0.015073759352882195,-0.9777037708053752,-0.39409860052169887,14.052678,-1.5540342,0.8534681,-0.041966002,9.679746,-9.766202,1.804252,0.44166586,-0.18241464,0.32908493,0.8144685,-7.2142982,4.1352315,-0.13659663,-0.0150737595,-0.97770375,-0.3940986,0
0.6500000000000004,12.427288461454772,-0.015073759352882195,-0.9777037708053752,-0.39409860052169887,14.052678,-1.5540342,0.8534681,-0.041966002,9.607599,-9.724418,1.8028418,0.4448596,-0.17911233,0.32650042,0.81450343,-7.2148585,4.2215967,-0.14534114,-0.0150737595,-0.97770375,-0.3940986,0
0.6600000000000004,12.427288461454772,-0.015073759352882195,-0.9777037708053752,-0.39409860052169887,14.052678,-1.5540342,0.8534681,-0.041966002,9.535452,-9.681773,1.8013476,0.44804093,-0.17580503,0.32390684,0.8145157,-7.214778,4.307217,-0.15337035,-0.0150737595,-0.97770375,-0.3940986,0
0.6700000000000004,12.427288461454772,-0.015073759352882195,-0.9777037708053752,-0.39409860052169887,14.052678,-1.5540342,0.8534681,-0.041966002,9.463306,-9.638276,1.7997768,0.45120987,-0.17249285,0.3213043,0.8145054,-7.2140603,4.392083,-0.16069113,-0.0150737595,-0.97770375,-0.3940986,0
0.6800000000000004,12.457494814146456,-0.10968327801412803,-0.1798281189564712,-0.3155685894001323,13.654751,-1.4029039,1.032633,-0.050264534,9.391172,-9.593934,1.7981362,0.45436627,-0.16917586,0.3186928,0.81447244,-7.2127104,4.476185,-0.16731045,-0.0150737595,-0.97770375,-0.3940986,0
0.6900000000000004,12.457494814146456,-0.10968327801412803,-0.1798281189564712,-0.3155685894001323,13.654751,-1.4029039,1.032633,-0.050264534,9.319054,-9.548754,1.7964336,0.45584434,-0.16919526,0.3175701,0.8140809,-7.210962,4.5599346,-0.17320506,-0.109683275,-0.17982812,-0.3155686,0
0.7000000000000004,12.457494814146456,-0.10968327801412803,-0.1798281189564712,-0.3155685894001323,13.654751,-1.4029039,1.032633,-0.050264534,9.246953,-9.502736,1.7946727,0.45732075,-0.16921405,0.31644624,0.81368643,-7.209211,4.64349,-0.17892349,-0.109683275,-0.17982812,-0.3155686,0
0.7100000000000004,12.457494814146456,-0.10968327801412803,-0.1798281189564712,-0.3155685894001323,13.654751,-1.4029039,1.032633,-0.050264534,9.17487,-9.455884,1.7928557,0.45879552,-0.16923223,0.31532124,0.8132891,-7.207459,4.7268505,-0.18446611,-0.109683275,-0.17982812,-0.3155686,0
0.7200000000000004,11.952696622046572,0.01692011245725881,-0.7723419598733745,-0.2428987501490736,13.163385,-1.2136662,0.8599258,-0.018032186,9.102804,-9.4082,1.7909842,0.46026865,-0.16924982,0.31419513,0.8128889,-7.205706,4.8100157,-0.18983334,-0.109683275,-0.17982812,-0.3155686,0
0.7300000000000004,11.952696622046572,0.01692011245725881,-0.7723419598733745,-0.2428987501490736,13.163385,-1.2136662,0.8599258,-0.018032186,9.030756,-9.359703,1.7890412,0.46247974,-0.16645195,0.31227836,0.8129502,-7.20384,4.889474,-0.19866106,0.016920112,-0.77234197,-0.24289875,0
0.7400000000000004,11.952696622046572,0.01692011245725881,-0.7723419598733745,-0.2428987501490736,13.163385,-1.2136662,0.8599258,-0.018032186,8.958729,-9.310414,1.7870126,0.46468332,-0.16365135,0.31035647,0.8129981,-7.201478,4.9683423,-0.20697889,0.016920112,-0.77234197,-0.24289875,0
0.7500000000000004,11.952696622046572,0.01692011245725881,-0.7723419598733745,-0.2428987501490736,13.163385,-1.2136662,0.8599258,-0.018032186,8.886727,-9.260339,1.7849033,0.46687928,-0.16084805,0.30842948,0.81303287,-7.1986237,5.046615,-0.21479136,0.016920112,-0.77234197,-0.24289875,0
0.7600000000000005,12.0106491558389,-0.0739029678599727,-0.1442420975508685,-0.18255404765504657,12.916069,-1.0447488,0.7587168,0.028247345,8.814757,-9.209483,1.7827185,0.46906754,-0.15804213,0.30649745,0.8130543,-7.1952786,5.124287,-0.22210304,0.016920112,-0.77234197,-0.24289875,1
0.7700000000000005,12.0106491558389,-0.0739029678599727,-0.1442420975508685,-0.18255404765504657,12.916069,-1.0447488,0.7587168,0.028247345,8.742823,-9.157823,1.7804991,0.46695462,-0.16353017,0.30404565,0.81410515,-7.191956,5.207865,-0.2217861,-1.0447488,0.7587168,0.028247345,1
0.7800000000000005,12.0106491558389,-0.0739029678599727,-0.1442420975508685,-0.18255404765504657,12.916069,-1.0447488,0.7587168,0.028247345,8.670913,-9.105326,1.7782825,0.46482226,-0.1690114,0.30158117,0.815122,-7.190294,5.291581,-0.22154438,-1.0447488,0.7587168,0.028247345,1
0.7900000000000005,12.0106491558389,-0.0739029678599727,-0.1442420975508685,-0.18255404765504657,12.916069,-1.0447488,0.7587168,0.028247345,8.599011,-9.0519905,1.7760679,0.46267053,-0.1744856,0.29910412,0.8161049,-7.1902924,5.375421,-0.221394,-1.0447488,0.7587168,0.028247345,1
0.8000000000000005,11.372097831367943,0.4219617476768022,-1.7805393389164947,-0.1224550445508357,12.549723,-0.6489639,0.6173978,0.006563399,8.5271015,-8.997816,1.7738543,0.4604995,-0.1799525,0.2966146,0.81705374,-7.1919513,5.4593697,-0.22135104,-1.0447488,0.7587168,0.028247345,0
0.8100000000000005,11.372097831367943,0.4219617476768022,-1.7805393389164947,-0.1224550445508357,12.549723,-0.6489639,0.6173978,0.006563399,8.455172,-8.942854,1.771583,0.46400067,-0.17188111,0.29411608,0.8177137,-7.1937833,5.5329165,-0.23273541,0.42196175,-1.7805394,-0.122455046,0
0.8200000000000005,11.372097831367943,0.4219617476768022,-1.7805393389164947,-0.1224550445508357,12.549723,-0.6489639,0.6173978,0.006563399,8.383231,-8.887162,1.7692028,0.46746287,-0.16379526,0.29159287,0.8183049,-7.194169,5.605325,-0.24314873,0.42196175,-1.7805394,-0.122455046,0
0.8300000000000005,11.372097831367943,0.4219617476768022,-1.7805393389164947,-0.1224550445508357,12.549723,-0.6489639,0.6173978,0.006563399,8.311294,-8.830751,1.7667233,0.47088575,-0.15569565,0.28904513,0.8188273,-7.1931105,5.67657,-0.25261924,0.42196175,-1.7805394,-0.122455046,0
0.8400000000000005,11.372097831367943,0.4219617476768022,-1.7805393389164947,-0.1224550445508357,12.593362,-0.41209778,0.3999231,0.17292388,8.239373,-8.773634,1.7641536,0.47426903,-0.14758295,0.2864731,0.8192808,-7.1906095,5.7466254,-0.26117548,0.42196175,-1.7805394,-0.122455046,0
0.8500000000000005,11.372097831367943,0.4219617476768022,-1.7805393389164947,-0.1224550445508357,12.593362,-0.41209778,0.3999231,0.17292388,8.167485,-8.715823,1.7615027,0.4776124,-0.13945782,0.283877,0.81966543,-7.186669,5.815467,-0.26884633,0.42196175,-1.7805394,-0.122455046,0
0.8600000000000005,11.372097831367943,0.4219617476768022,-1.7805393389164947,-0.1224550445508357,12.593362,-0.41209778,0.3999231,0.17292388,8.095644,-8.65733,1.7587795,0.48091564,-0.13132097,0.281257,0.81998116,-7.181292,5.88307,-0.27566093,0.42196175,-1.7805394,-0.122455046,0
0.8700000000000006,11.372097831367943,0.4219617476768022,-1.7805393389164947,-0.1224550445508357,12.593362,-0.41209778,0.3999231,0.17292388,8.023864,-8.598166,1.7559923,0.48417845,-0.12317307,0.2786134,0.820228,-7.174483,5.9494114,-0.28164873,0.42196175,-1.7805394,-0.122455046,0
0.8800000000000006,11.622895484647529,0.10293631783145314,-0.26224517447101653,-0.1045022907735864,11.907431,-0.2887268,0.09223233,0.23512411,7.9521585,-8.538346,1.7531493,0.48740053,-0.115014836,0.27594632,0.8204058,-7.166244,6.0144663,-0.28683946,0.42196175,-1.7805394,-0.122455046,1
0.8900000000000006,11.622895484647529,0.10293631783145314,-0.26224517447101653,-0.1045022907735864,11.907431,-0.2887268,0.09223233,0.23512411,7.8805437,-8.477864,1.7502794,0.48614186,-0.11577219,0.27512142,0.8213226,-7.1568174,6.0817127,-0.2871246,-0.2887268,0.09223233,0.23512411,1
0.9000000000000006,11.622895484647529,0.10293631783145314,-0.26224517447101653,-0.1045022907735864,11.907431,-0.2887268,0.09223233,0.23512411,7.8090215,-8.416711,1.7474071,0.4848814,-0.11652911,0.27429554,0.82223636,-7.1477423,6.1489105,-0.2873433,-0.2887268,0.09223233,0.23512411,1
0.9100000000000006,11.622895484647529,0.10293631783145314,-0.26224517447101653,-0.1045022907735864,11.907431,-0.2887268,0.09223233,0.23512411,7.737588,-8.354886,1.744533,0.48361915,-0.117285594,0.2734686,0.8231471,-7.139018,6.2160587,-0.287496,-0.2887268,0.09223233,0.23512411,1
0.9200000000000006,11.321804771993913,0.013935871609391321,-0.8099161697360784,-0.04924291129446331,12.215831,-0.38562316,0.011143172,0.099369064,7.66624,-8.29239,1.7416574,0.48235512,-0.11804166,0.2726407,0.8240549,-7.130645,6.283156,-0.28758308,-0.2887268,0.09223233,0.23512411,1
0.9300000000000006,11.321804771993913,0.013935871609391321,-0.8099161697360784,-0.04924291129446331,12.215831,-0.38562316,0.011143172,0.099369064,7.594975,-8.229214,1.7387942,0.48170197,-0.1188819,0.27113682,0.824812,-7.122434,6.351893,-0.28503305,-0.38562316,0.011143172,0.099369064,1
0.9400000000000006,11.321804771993913,0.013935871609391321,-0.8099161697360784,-0.04924291129446331,12.215831,-0.38562316,0.011143172,0.099369064,7.5237904,-8.165352,1.7359571,0.48104692,-0.11972167,0.26963186,0.8255659,-7.114635,6.420457,-0.28233233,-0.38562316,0.011143172,0.099369064,1
0.9500000000000006,11.321804771993913,0.013935871609391321,-0.8099161697360784,-0.04924291129446331,12.215831,-0.38562316,0.011143172,0.099369064,7.4526815,-8.100805,1.7331479,0.48038995,-0.12056098,0.26812583,0.8263164,-7.107248,6.488846,-0.27948222,-0.38562316,0.011143172,0.099369064,1
0.9600000000000006,11.298343779742645,-0.10532703160098679,-0.3072517579658826,-0.05531286527108808,12.25876,-0.7056668,0.20042974,0.097825855,7.3816447,-8.035576,1.730368,0.47973108,-0.1213998,0.26661873,0.82706374,-7.1002727,6.5570593,-0.27648395,-0.38562316,0.011143172,0.099369064,1
0.9700000000000006,11.298343779742645,-0.10532703160098679,-0.3072517579658826,-0.05531286527108808,12.25876,-0.7056668,0.20042974,0.097825855,7.310675,-7.969664,1.7276206,0.47862774,-0.12379003,0.2642389,0.8281118,-7.093856,6.62534,-0.27297547,-0.7056668,0.20042974,0.097825855,1
0.9800000000000006,11.298343779742645,-0.10532703160098679,-0.3072517579658826,-0.05531286527108808,12.25876,-0.7056668,0.20042974,0.097825855,7.2397647,-7.90307,1.7249092,0.47751784,-0.12617858,0.26185542,0.8291485,-7.088307,6.6934514,-0.26930282,-0.7056668,0.20042974,0.097825855,1
0.9900000000000007,11.298343779742645,-0.10532703160098679,-0.3072517579658826,-0.05531286527108808,12.25876,-0.7056668,0.20042974,0.097825855,7.168906,-7.835795,1.7222351,0.4764014,-0.1285654,0.25946838,0.8301739,-7.0836263,6.76139,-0.26547098,-0.7056668,0.20042974,0.097825855,1
1.0000000000000007,10.744949608777496,0.038382020506189586,-2.146107631741531,0.0506804483609537,12.013907,-0.7574299,-0.44198388,0.093182296,7.098089,-7.7678423,1.7196003,0.4752784,-0.13095045,0.25707778,0.8311879,-7.0798135,6.8291516,-0.26148504,-0.7056668,0.20042974,0.097825855,0
1.0100000000000007,10.744949608777496,0.038382020506189586,-2.146107631741531,0.0506804483609537,12.013907,-0.7574299,-0.44198388,0.093182296,7.0273066,-7.699256,1.716944,0.47782406,-0.12186764,0.25215578,0.83261627,-7.076489,6.8878245,-0.2696328,0.03838202,-2.1461077,0.050680447,0
1.0200000000000007,10.744949608777496,0.038382020506189586,-2.146107631741531,0.0506804483609537,12.013907,-0.7574299,-0.44198388,0.093182296,6.956563,-7.630091,1.7142113,0.48031467,-0.11277077,0.2472047,0.8339486,-7.0719447,6.944825,-0.27676418,0.03838202,-2.1461077,0.050680447,0
1.0300000000000007,10.744949608777496,0.038382020506189586,-2.146107631741531,0.0506804483609537,12.013907,-0.7574299,-0.44198388,0.093182296,6.8858714,-7.5603647,1.7114122,0.4827499,-0.10366091,0.24222516,0.83518493,-7.0661817,7.000127,-0.2829215,0.03838202,-2.1461077,0.050680447,0
1.0400000000000007,10.744949608777496,0.038382020506189586,-2.146107631741531,0.0506804483609537,11.833202,-0.49172089,-0.849105,0.15733604,6.8152437,-7.4900947,1.7085562,0.4851295,-0.094539106,0.23721768,0.83632493,-7.0592017,7.053705,-0.28814745,0.03838202,-2.1461077,0.050680447,0
1.0500000000000007,10.744949608777496,0.038382020506189586,-2.146107631741531,0.0506804483609537,11.833202,-0.49172089,-0.849105,0.15733604,6.7446923,-7.4192967,1.7056524,0.4874532,-0.08540641,0.23218286,0.8373686,-7.051007,7.105536,-0.2924852,0.03838202,-2.1461077,0.050680447,0
1.0600000000000007,10.744949608777496,0.038382020506189586,-2.146107631741531,0.0506804483609537,11.833202,-0.49172089,-0.849105,0.15733604,6.674228,-7.347989,1.7027093,0.48972067,-0.07626386,0.2271213,0.8383157,-7.0415998,7.155596,-0.2959783,0.03838202,-2.1461077,0.050680447,0
1.0700000000000007,10.744949608777496,0.038382020506189586,-2.146107631741531,0.0506804483609537,11.833202,-0.49172089,-0.849105,0.15733604,6.603864,-7.2761903,1.6997355,0.49193177,-0.06711252,0.22203355,0.8391662,-7.030984,7.203862,-0.2986707,0.03838202,-2.1461077,0.050680447,0
1.0800000000000007,10.984452323675772,-0.35418928849239856,-0.2325188403348869,0.04320575844233168,11.891943,-0.65415484,-0.75286037,0.08158648,6.5336123,-7.203918,1.6967386,0.49408615,-0.05795345,0.21692021,0.8399201,-7.019163,7.250314,-0.30060676,0.03838202,-2.1461077,0.050680447,1
1.0900000000000007,10.984452323675772,-0.35418928849239856,-0.2325188403348869,0.04320575844233168,11.891943,-0.65415484,-0.75286037,0.08158648,6.46349,-7.1311655,1.6937773,0.49436435,-0.05631857,0.21233408,0.84103876,-7.005329,7.3000655,-0.2915844,-0.65415484,-0.75286037,0.08158648,1
1.1000000000000008,10.984452323675772,-0.35418928849239856,-0.2325188403348869,0.04320575844233168,11.891943,-0.65415484,-0.75286037,0.08158648,6.393505,-7.05792,1.6909088,0.4946302,-0.054682285,0.20774262,0.84213644,-6.9917088,7.348766,-0.2820534,-0.65415484,-0.75286037,0.08158648,1
1.1100000000000008,10.984452323675772,-0.35418928849239856,-0.2325188403348869,0.04320575844233168,11.891943,-0.65415484,-0.75286037,0.08158648,6.323655,-6.9841933,1.688138,0.49488363,-0.05304463,0.20314597,0.84321296,-6.978302,7.396412,-0.2720245,-0.65415484,-0.75286037,0.08158648,1
1.1200000000000008,10.731775280750854,-0.5638548516691214,-0.4769130480564239,0.15999711555317953,11.96353,-0.73437953,-0.6621007,0.051878322,6.253938,-6.9099956,1.68547,0.49512467,-0.05140565,0.19854422,0.84426844,-6.9651093,7.4429975,-0.26150855,-0.65415484,-0.75286037,0.08158648,0
1.1300000000000008,10.731775280750854,-0.5638548516691214,-0.4769130480564239,0.15999711555317953,11.96353,-0.73437953,-0.6621007,0.051878322,6.1843452,-6.835359,1.6828561,0.49477425,-0.05062913,0.19502304,0.84534085,-6.953423,7.484184,-0.26120052,-0.5638549,-0.47691303,0.15999712,0
1.1400000000000008,10.731775280750854,-0.5638548516691214,-0.4769130480564239,0.15999711555317953,11.96353,-0.73437953,-0.6621007,0.051878322,6.114869,-6.760314,1.680247,0.49441677,-0.049851887,0.1914991,0.84640115,-6.941996,7.52469,-0.26058006,-0.5638549,-0.47691303,0.15999712,0
1.1500000000000008,10.731775280750854,-0.5638548516691214,-0.4769130480564239,0.15999711555317953,11.96353,-0.73437953,-0.6621007,0.051878322,6.045505,-6.6848674,1.6776456,0.49405223,-0.049073935,0.18797241,0.8474494,-6.930828,7.564513,-0.2596525,-0.5638549,-0.47691303,0.15999712,0
1.1600000000000008,10.77893527365335,-0.82002693305417,0.8274941402744199,0.14518234959330178,11.767087,-1.0057745,-0.41883725,0.07105787,5.9762516,-6.609026,1.675055,0.49368063,-0.04829528,0.18444304,0.8484856,-6.919918,7.60365,-0.25842318,-0.5638549,-0.47691303,0.15999712,0
1.1700000000000008,10.77893527365335,-0.82002693305417,0.8274941402744199,0.14518234959330178,11.767087,-1.0057745,-0.41883725,0.07105787,5.907105,-6.5327945,1.67248,0.49209505,-0.05369527,0.1830386,0.8493858,-6.909576,7.6426535,-0.25657225,-0.82002693,0.82749414,0.14518236,0
1.1800000000000008,10.77893527365335,-0.82002693305417,0.8274941402744199,0.14518234959330178,11.767087,-1.0057745,-0.41883725,0.07105787,5.838056,-6.4561715,1.6699234,0.49049252,-0.059093412,0.18162787,0.8502567,-6.9004445,7.6819897,-0.25473365,-0.82002693,0.82749414,0.14518236,0
1.1900000000000008,10.77893527365335,-0.82002693305417,0.8274941402744199,0.14518234959330178,11.767087,-1.0057745,-0.41883725,0.07105787,5.7690916,-6.379153,1.6673852,0.4888731,-0.06448951,0.18021089,0.8510983,-6.892526,7.721651,-0.25292024,-0.82002693,0.82749414,0.14518236,0
1.2000000000000008,10.692898495265723,-0.8934044718212572,-0.7043847476340241,0.23668670295535676,11.829949,-1.0170648,-0.43149087,0.10986331,5.7002006,-6.3017364,1.664865,0.48723683,-0.0698834,0.17878771,0.8519106,-6.8858213,7.761631,-0.25114483,-0.82002693,0.82749414,0.14518236,0
1.2100000000000009,10.692898495265723,-0.8934044718212572,-0.7043847476340241,0.23668670295535676,11.829949,-1.0170648,-0.43149087,0.10986331,5.6313715,-6.2239223,1.6623589,0.48653793,-0.06884677,0.1733459,0.8535176,-6.880084,7.801092,-0.25003007,-0.8934045,-0.70438474,0.2366867,0
1.2200000000000009,10.692898495265723,-0.8934044718212572,-0.7043847476340241,0.23668670295535676,11.829949,-1.0170648,-0.43149087,0.10986331,5.5625973,-6.145718,1.6598661,0.48582262,-0.06780782,0.16789824,0.8550958,-6.874774,7.8395014,-0.24847947,-0.8934045,-0.70438474,0.2366867,0
1.2300000000000009,10.692898495265723,-0.8934044718212572,-0.7043847476340241,0.23668670295535676,11.829949,-1.0170648,-0.43149087,0.10986331,5.4938745,-6.0671353,1.657391,0.48509088,-0.06676658,0.16244492,0.8566451,-6.869889,7.876852,-0.24650571,-0.8934045,-0.70438474,0.2366867,0
1.2400000000000009,10.692898495265723,-0.8934044718212572,-0.7043847476340241,0.23668670295535676,11.905233,-1.1369392,-0.70191646,0.21658878,5.4251986,-5.988185,1.6549375,0.48434278,-0.06572309,0.15698612,0.8581655,-6.8654265,7.913139,-0.24412148,-0.8934045,-0.70438474,0.2366867,0
1.2500000000000009,10.692898495265723,-0.8934044718212572,-0.7043847476340241,0.23668670295535676,11.905233,-1.1369392,-0.70191646,0.21658878,5.356565,-5.908877,1.6525098,0.48357832,-0.06467739,0.15152201,0.85965693,-6.861386,7.948355,-0.24133958,-0.8934045,-0.70438474,0.2366867,0
1.260000000000001,10.692898495265723,-0.8934044718212572,-0.7043847476340241,0.23668670295535676,11.905233,-1.1369392,-0.70191646,0.21658878,5.2879696,-5.8292217,1.6501119,0.48279756,-0.06362949,0.14605278,0.86111933,-6.8577633,7.9824967,-0.23817284,-0.8934045,-0.70438474,0.2366867,0
1.270000000000001,10.692898495265723,-0.8934044718212572,-0.7043847476340241,0.23668670295535676,11.905233,-1.1369392,-0.70191646,0.21658878,5.219408,-5.749231,1.6477476,0.4820005,-0.062579446,0.14057864,0.8625527,-6.854557,8.015557,-0.23463413,-0.8934045,-0.70438474,0.2366867,0
1.280000000000001,10.961452183256638,-1.041954688506406,0.5397437564006548,0.21441705890981863,12.319857,-0.9755157,-0.6033961,0.029358178,5.1508765,-5.6689143,1.6454206,0.48118713,-0.061527297,0.13509975,0.8639569,-6.8517647,8.047532,-0.23073637,-0.8934045,-0.70438474,0.2366867,0
1.290000000000001,10.961452183256638,-1.041954688506406,0.5397437564006548,0.21441705890981863,12.319857,-0.9755157,-0.6033961,0.029358178,5.0823708,-5.5882792,1.6431468,0.4795672,-0.06621979,0.13196091,0.86499524,-6.8496475,8.079576,-0.22403243,-1.0419546,0.5397438,0.21441706,0
1.300000000000001,10.961452183256638,-1.041954688506406,0.5397437564006548,0.21441705890981863,12.319857,-0.9755157,-0.6033961,0.029358178,5.01388,-5.5073237,1.6409402,0.47793022,-0.070909925,0.12881736,0.86600274,-6.848812,8.111525,-0.21728125,-1.0419546,0.5397438,0.21441706,0
1.310000000000001,10.961452183256638,-1.041954688506406,0.5397437564006548,0.21441705890981863,12.319857,-0.9755157,-0.6033961,0.029358178,4.9453907,-5.426049,1.6388013,0.47627625,-0.07559753,0.12566926,0.8669794,-6.8492584,8.143372,-0.21049647,-1.0419546,0.5397438,0.21441706,0
1.320000000000001,10.959850194256944,-1.0404413580272491,-0.2588806428396205,0.28490589113465736,12.570625,-0.98146665,-0.28289232,0.035237815,4.87689,-5.3444567,1.6367303,0.4746053,-0.080282465,0.12251666,0.8679253,-6.8509865,8.175108,-0.20369172,-1.0419546,0.5397438,0.21441706,0
1.330000000000001,10.959850194256944,-1.0404413580272491,-0.2588806428396205,0.28490589113465736,12.570625,-0.98146665,-0.28289232,0.035237815,4.8083663,-5.2625484,1.6347276,0.47310254,-0.08145225,0.11749971,0.86932933,-6.853817,8.206461,-0.19681191,-1.0404414,-0.25888065,0.28490588,0
1.340000000000001,10.959850194256944,-1.0404413580272491,-0.2588806428396205,0.28490589113465736,12.570625,-0.98146665,-0.28289232,0.035237815,4.739811,-5.1803303,1.6327949,0.47158524,-0.082619525,0.112479135,0.8707067,-6.8574553,8.236988,-0.1897139,-1.0404414,-0.25888065,0.28490588,0
1.350000000000001,10.959850194256944,-1.0404413580272491,-0.2588806428396205,0.28490589113465736,12.570625,-0.98146665,-0.28289232,0.035237815,4.6712146,-5.0978117,1.630934,0.47005343,-0.08378426,0.107455105,0.8720571,-6.861898,8.266683,-0.18240902,-1.0404414,-0.25888065,0.28490588,0
1.360000000000001,11.198648354040591,-1.076175174503316,0.33686212677151695,0.25150410942429313,12.843093,-1.1792976,-0.20818283,-0.022702595,4.60257,-5.0150003,1.6291472,0.46850717,-0.08494642,0.102427766,0.8733807,-6.867142,8.295542,-0.17490871,-1.0404414,-0.25888065,0.28490588,0
1.370000000000001,11.198648354040591,-1.076175174503316,0.33686212677151695,0.25150410942429313,12.843093,-1.1792976,-0.20818283,-0.022702595,4.5338683,-4.9319005,1.6274477,0.46677145,-0.088808194,0.098622456,0.87436336,-6.873466,8.32436,-0.1649793,-1.0761752,0.33686212,0.25150412,0
1.380000000000001,11.198648354040591,-1.076175174503316,0.33686212677151695,0.25150410942429313,12.843093,-1.1792976,-0.20818283,-0.022702595,4.465097,-4.8485146,1.6258476,0.46502015,-0.092667006,0.09481385,0.8753168,-6.8810015,8.352823,-0.15503363,-1.0761752,0.33686212,0.25150412,0
1.390000000000001,11.198648354040591,-1.076175174503316,0.33686212677151695,0.25150410942429313,12.843093,-1.1792976,-0.20818283,-0.022702595,4.396244,-4.764846,1.624347,0.46325335,-0.096522726,0.09100209,0.8762411,-6.8897467,8.380926,-0.14508466,-1.0761752,0.33686212,0.25150412,0
1.400000000000001,11.151976040661362,-0.9753066186643131,-0.8589451440497449,0.29217207192709693,12.605284,-1.2019415,-0.5307562,-0.11338037,4.327298,-4.6808977,1.6229459,0.46147108,-0.10037523,0.08718729,0.8771361,-6.8997006,8.408662,-0.13514528,-1.0761752,0.33686212,0.25150412,0
1.410000000000001,11.151976040661362,-0.9753066186643131,-0.8589451440497449,0.29217207192709693,12.605284,-1.2019415,-0.5307562,-0.11338037,4.258248,-4.596676,1.6216424,0.46006447,-0.09872896,0.08107276,0.8786471,-6.910502,8.435537,-0.12555331,-0.97530663,-0.85894513,0.29217207,0
1.420000000000001,11.151976040661362,-0.9753066186643131,-0.8589451440497449,0.29217207192709693,12.605284,-1.2019415,-0.5307562,-0.11338037,4.1890874,-4.512192,1.6204361,0.45863742,-0.097078316,0.074954644,0.88011897,-6.921666,8.461042,-0.11566536,-0.97530663,-0.85894513,0.29217207,0
1.430000000000001,11.151976040661362,-0.9753066186643131,-0.8589451440497449,0.29217207192709693,12.605284,-1.2019415,-0.5307562,-0.11338037,4.1198134,-4.42746,1.6193302,0.45719004,-0.09542336,0.068833195,0.881552,-6.9331884,8.485169,-0.10549901,-0.97530663,-0.85894513,0.29217207,0
1.440000000000001,11.151976040661362,-0.9753066186643131,-0.8589451440497449,0.29217207192709693,12.997491,-1.0552431,-0.41704994,-0.08144535,4.050422,-4.342494,1.6183273,0.4557224,-0.09376418,0.06270869,0.8829459,-6.9450626,8.5079155,-0.09507191,-0.97530663,-0.85894513,0.29217207,0
1.450000000000001,11.151976040661362,-0.9753066186643131,-0.8589451440497449,0.29217207192709693,12.997491,-1.0552431,-0.41704994,-0.08144535,3.9809108,-4.257307,1.6174299,0.4542345,-0.09210084,0.056581404,0.8843005,-6.957282,8.529276,-0.084401764,-0.97530663,-0.85894513,0.29217207,0
1.460000000000001,11.151976040661362,-0.9753066186643131,-0.8589451440497449,0.29217207192709693,12.997491,-1.0552431,-0.41704994,-0.08144535,3.9112756,-4.1719136,1.6166401,0.45272648,-0.090433404,0.05045161,0.88561594,-6.9698415,8.549245,-0.073506296,-0.97530663,-0.85894513,0.29217207,0
1.470000000000001,11.151976040661362,-0.9753066186643131,-0.8589451440497449,0.29217207192709693,12.997491,-1.0552431,-0.41704994,-0.08144535,3.8415132,-4.0863276,1.6159604,0.45119834,-0.08876196,0.044319578,0.8868921,-6.9827337,8.567819,-0.06240328,-0.97530663,-0.85894513,0.29217207,0
1.480000000000001,11.306195502003401,-0.9218363747190634,0.03039016504005831,0.2753736675431927,13.412212,-0.93299913,0.050509542,-0.21100317,3.77162,-4.000562,1.6153927,0.44965017,-0.08708659,0.038185578,0.8881289,-6.9959536,8.584992,-0.051110525,-0.97530663,-0.85894513,0.29217207,0
1.490000000000001,11.306195502003401,-0.9218363747190634,0.03039016504005831,0.2753736675431927,13.412212,-0.93299913,0.050509542,-0.21100317,3.7015915,-3.9146302,1.6149461,0.44801494,-0.08924047,0.034279834,0.8889005,-7.009882,8.6012945,-0.038200743,-0.9218364,0.030390166,0.27537367,0
1.500000000000001,11.306195502003401,-0.9218363747190634,0.03039016504005831,0.2753736675431927,13.412212,-0.93299913,0.050509542,-0.21100317,3.6314194,-3.828538,1.6146286,0.44636932,-0.09139228,0.030373298,0.88965154,-7.0246677,8.617002,-0.025316179,-0.9218364,0.030390166,0.27537367,0
1.5100000000000011,11.306195502003401,-0.9218363747190634,0.03039016504005831,0.2753736675431927,13.412212,-0.93299913,0.050509542,-0.21100317,3.561095,-3.7422917,1.6144397,0.44471335,-0.09354198,0.026466057,0.89038193,-7.0403075,8.632112,-0.012465732,-0.9218364,0.030390166,0.27537367,0
1.5200000000000011,11.236217131145265,-0.7575934777149844,-0.517681044193326,0.29776382910816773,13.575959,-0.6394245,-0.08064728,-0.23463106,3.4906101,-3.6558974,1.6143792,0.4430471,-0.095689505,0.022558205,0.8910917,-7.0567985,8.646621,0.00034170202,-0.9218364,0.030390166,0.27537367,0
1.5300000000000011,11.236217131145265,-0.7575934777149844,-0.517681044193326,0.29776382910816773,13.575959,-0.6394245,-0.08064728,-0.23463106,3.4199572,-3.5693622,1.6144431,0.4414112,-0.09502655,0.018178213,0.8920741,-7.0738387,8.6603,0.012458206,-0.75759345,-0.51768106,0.29776382,0
1.5400000000000011,11.236217131145265,-0.7575934777149844,-0.517681044193326,0.29776382910816773,13.575959,-0.6394245,-0.08064728,-0.23463106,3.349132,-3.4826949,1.6146286,0.43976504,-0.094361395,0.013797797,0.8930357,-7.091208,8.673003,0.02463995,-0.75759345,-0.51768106,0.29776382,0
1.5500000000000012,11.236217131145265,-0.7575934777149844,-0.517681044193326,0.29776382910816773,13.575959,-0.6394245,-0.08064728,-0.23463106,3.2781317,-3.3959055,1.6149361,0.43810862,-0.09369404,0.009417061,0.89397657,-7.108903,8.68473,0.036878206,-0.75759345,-0.51768106,0.29776382,0
1.5600000000000012,11.210312792160657,-0.6169042286068124,-0.4193742342983706,0.27119607558555664,13.583521,-0.14695573,0.09379264,-0.14451164,3.2069528,-3.3090036,1.6153663,0.43644205,-0.0930245,0.005036105,0.8948966,-7.1269183,8.695478,0.049164243,-0.75759345,-0.51768106,0.29776382,0
1.5700000000000012,11.210312792160657,-0.6169042286068124,-0.4193742342983706,0.27119607558555664,13.583521,-0.14695573,0.09379264,-0.14451164,3.1355922,-3.2219992,1.6159183,0.43494877,-0.09248667,0.0014867238,0.895692,-7.1451864,8.705294,0.061232284,-0.6169042,-0.41937423,0.27119607,0
1.5800000000000012,11.210312792160657,-0.6169042286068124,-0.4193742342983706,0.27119607558555664,13.583521,-0.14695573,0.09379264,-0.14451164,3.0640478,-3.1349003,1.6165911,0.43344867,-0.09194739,-0.0020626807,0.8964732,-7.1637096,8.714313,0.073325746,-0.6169042,-0.41937423,0.27119607,0
1.5900000000000012,11.210312792160657,-0.6169042286068124,-0.4193742342983706,0.27119607558555664,13.583521,-0.14695573,0.09379264,-0.14451164,2.9923172,-3.0477157,1.6173848,0.43194172,-0.09140666,-0.005612053,0.89724034,-7.1824846,8.722534,0.08543889,-0.6169042,-0.41937423,0.27119607,0
1.6000000000000012,11.069270181768161,-0.4695181727195783,-0.9290275133147223,0.2652618095060632,12.910803,0.07142537,-0.9327665,-0.02276653,2.9203975,-2.9604523,1.6182998,0.43042797,-0.090864494,-0.009161336,0.8979934,-7.201509,8.729959,0.097566016,-0.6169042,-0.41937423,0.27119607,0
1.6100000000000012,11.069270181768161,-0.4695181727195783,-0.9290275133147223,0.2652618095060632,12.910803,0.07142537,-0.9327665,-0.02276653,2.848288,-2.8731196,1.6193293,0.42897493,-0.087714516,-0.013148189,0.8989519,-7.2203593,8.736374,0.1083525,-0.46951818,-0.9290275,0.2652618,0
1.6200000000000012,11.069270181768161,-0.4695181727195783,-0.9290275133147223,0.2652618095060632,12.910803,0.07142537,-0.9327665,-0.02276653,2.7759914,-2.7857285,1.6204673,0.4275095,-0.08456201,-0.017134663,0.89988446,-7.238976,8.741666,0.11923957,-0.46951818,-0.9290275,0.2652618,0
1.6300000000000012,11.069270181768161,-0.4695181727195783,-0.9290275133147223,0.2652618095060632,12.910803,0.07142537,-0.9327665,-0.02276653,2.7035096,-2.6982899,1.6217145,0.42603168,-0.081407055,-0.021120641,0.90079105,-7.2573543,8.745834,0.1302159,-0.46951818,-0.9290275,0.2652618,0
1.6400000000000012,11.069270181768161,-0.4695181727195783,-0.9290275133147223,0.2652618095060632,12.655115,0.21805386,-1.0845877,-0.004126642,2.6308453,-2.6108155,1.623072,0.4245416,-0.07824976,-0.025106011,0.90167165,-7.275489,8.748879,0.14127015,-0.46951818,-0.9290275,0.2652618,0
1.6500000000000012,11.069270181768161,-0.4695181727195783,-0.9290275133147223,0.2652618095060632,12.655115,0.21805386,-1.0845877,-0.004126642,2.5580006,-2.5233161,1.6245403,0.42303926,-0.07509021,-0.029090656,0.90252626,-7.293375,8.750801,0.15239093,-0.46951818,-0.9290275,0.2652618,0
1.6600000000000013,11.069270181768161,-0.4695181727195783,-0.9290275133147223,0.2652618095060632,12.655115,0.21805386,-1.0845877,-0.004126642,2.4849787,-2.4358034,1.6261201,0.4215247,-0.071928486,-0.03307446,0.9033548,-7.3110075,8.7516,0.1635669,-0.46951818,-0.9290275,0.2652618,0
1.6700000000000013,11.069270181768161,-0.4695181727195783,-0.9290275133147223,0.2652618095060632,12.655115,0.21805386,-1.0845877,-0.004126642,2.4117815,-2.3482883,1.6278118,0.419998,-0.06876469,-0.03705731,0.90415734,-7.3283815,8.751278,0.1747867,-0.46951818,-0.9290275,0.2652618,0
1.6800000000000013,10.94645339160735,-0.3554778299540458,-0.7168053338410927,0.24074899468222422,12.785039,0.0002814792,-1.3745995,0.09570773,2.338412,-2.260782,1.6296159,0.41845918,-0.06559891,-0.041039094,0.9049338,-7.3454924,8.749834,0.18603893,-0.46951818,-0.9290275,0.2652618,0
1.6900000000000013,10.94645339160735,-0.3554778299540458,-0.7168053338410927,0.24074899468222422,12.785039,0.0002814792,-1.3745995,0.09570773,2.2648735,-2.173295,1.6315266,0.41710255,-0.06314821,-0.044067953,0.90559185,-7.3621693,8.747395,0.1960979,-0.35547784,-0.71680534,0.240749,0
1.7000000000000013,10.94645339160735,-0.3554778299540458,-0.7168053338410927,0.24074899468222422,12.785039,0.0002814792,-1.3745995,0.09570773,2.1911693,-2.0858371,1.6335379,0.41573864,-0.060696404,-0.047096036,0.906234,-7.378633,8.744105,0.20616703,-0.35547784,-0.71680534,0.240749,0
1.7100000000000013,10.94645339160735,-0.3554778299540458,-0.7168053338410927,0.24074899468222422,12.785039,0.0002814792,-1.3745995,0.09570773,2.1173015,-1.9984162,1.6356499,0.41436747,-0.058243535,-0.050123304,0.90686035,-7.3948803,8.739968,0.21623974,-0.35547784,-0.71680534,0.240749,0
1.7200000000000013,10.816261488930042,-0.20190068472305242,-0.5408623891850624,0.2282998957957623,12.459992,-0.0062051746,-1.645101,0.36683148,2.0432725,-1.9110408,1.6378627,0.41298908,-0.055789653,-0.053149693,0.9074709,-7.4109087,8.7349825,0.22630939,-0.35547784,-0.71680534,0.240749,0
1.7300000000000013,10.816261488930042,-0.20190068472305242,-0.5408623891850624,0.2282998957957623,12.459992,-0.0062051746,-1.645101,0.36683148,1.969085,-1.8237188,1.6401696,0.41175115,-0.053812888,-0.055118695,0.9080351,-7.426527,8.729314,0.23508812,-0.20190069,-0.5408624,0.2282999,0
1.7400000000000013,10.816261488930042,-0.20190068472305242,-0.5408623891850624,0.2282998957957623,12.459992,-0.0062051746,-1.645101,0.36683148,1.8947426,-1.7364565,1.6425643,0.41050926,-0.051835604,-0.057087164,0.9085906,-7.441924,8.723062,0.24386637,-0.20190069,-0.5408624,0.2282999,0
1.7500000000000013,10.816261488930042,-0.20190068472305242,-0.5408623891850624,0.2282998957957623,12.459992,-0.0062051746,-1.645101,0.36683148,1.8202474,-1.6492596,1.6450467,0.40926343,-0.04985782,-0.059055086,0.9091374,-7.4570985,8.716226,0.25264078,-0.20190069,-0.5408624,0.2282999,0
1.7600000000000013,10.67407765695003,-0.07408514303180651,-0.559770526249295,0.1979120935495401,11.857102,0.4056198,-1.1878628,0.21835645,1.7456015,-1.5621338,1.6476169,0.40801364,-0.047879558,-0.061022438,0.9096754,-7.472048,8.708807,0.261408,-0.20190069,-0.5408624,0.2282999,0
1.7700000000000014,10.67407765695003,-0.07408514303180651,-0.559770526249295,0.1979120935495401,11.857102,0.4056198,-1.1878628,0.21835645,1.6708083,-1.4750847,1.6502677,0.4069231,-0.04554482,-0.06245372,0.91018647,-7.4865346,8.70094,0.26876798,-0.074085146,-0.5597705,0.1979121,0
1.7800000000000014,10.67407765695003,-0.07408514303180651,-0.559770526249295,0.1979120935495401,11.857102,0.4056198,-1.1878628,0.21835645,1.595872,-1.3881167,1.6529922,0.40582892,-0.04320968,-0.063884445,0.9106894,-7.5006824,8.6925745,0.2761356,-0.074085146,-0.5597705,0.1979121,0
1.7900000000000014,10.67407765695003,-0.07408514303180651,-0.559770526249295,0.1979120935495401,11.857102,0.4056198,-1.1878628,0.21835645,1.5207961,-1.301235,1.6557904,0.40473112,-0.04087415,-0.0653146,0.9111842,-7.51449,8.683711,0.28350773,-0.074085146,-0.5597705,0.1979121,0
1.8000000000000014,10.594352349540054,0.021483992830646406,-0.14782741843487934,0.18956045965285662,12.174672,0.046921425,-1.7388953,0.6401255,1.4455835,-1.2144443,1.6586624,0.4036297,-0.03853826,-0.06674417,0.9116708,-7.527956,8.674352,0.29088116,-0.074085146,-0.5597705,0.1979121,0
1.8100000000000014,10.594352349540054,0.021483992830646406,-0.14782741843487934,0.18956045965285662,12.174672,0.046921425,-1.7388953,0.6401255,1.3702383,-1.1277488,1.6616042,0.40272012,-0.037884284,-0.066908,0.91208833,-7.5410633,8.664717,0.2974683,0.021483993,-0.14782742,0.18956046,0
1.8200000000000014,10.594352349540054,0.021483992830646406,-0.14782741843487934,0.18956045965285662,12.174672,0.046921425,-1.7388953,0.6401255,1.2947626,-1.0411502,1.6646118,0.40180996,-0.03723025,-0.067071736,0.91250455,-7.5540485,8.654982,0.30406135,0.021483993,-0.14782742,0.18956046,0
1.8300000000000014,10.594352349540054,0.021483992830646406,-0.14782741843487934,0.18956045965285662,12.174672,0.046921425,-1.7388953,0.6401255,1.2191577,-0.95464957,1.6676855,0.40089923,-0.036576167,-0.067235366,0.9129194,-7.5669117,8.645145,0.3106601,0.021483993,-0.14782742,0.18956046,0
1.8400000000000014,10.594352349540054,0.021483992830646406,-0.14782741843487934,0.18956045965285662,12.0288925,0.12229586,-1.5182827,0.5480034,1.1434247,-0.8682477,1.6708251,0.3999879,-0.035922028,-0.067398906,0.913333,-7.579653,8.635209,0.31726432,0.021483993,-0.14782742,0.18956046,0
1.8500000000000014,10.594352349540054,0.021483992830646406,-0.14782741843487934,0.18956045965285662,12.0288925,0.12229586,-1.5182827,0.5480034,1.0675652,-0.7819457,1.6740308,0.399076,-0.035267837,-0.06756235,0.9137452,-7.5922704,8.625173,0.32387385,0.021483993,-0.14782742,0.18956046,0
1.8600000000000014,10.594352349540054,0.021483992830646406,-0.14782741843487934,0.18956045965285662,12.0288925,0.12229586,-1.5182827,0.5480034,0.9915799,-0.6957446,1.6773026,0.39816353,-0.034613594,-0.06772569,0.91415614,-7.6047654,8.615037,0.33048853,0.021483993,-0.14782742,0.18956046,0
1.8700000000000014,10.594352349540054,0.021483992830646406,-0.14782741843487934,0.18956045965285662,12.0288925,0.12229586,-1.5182827,0.5480034,0.9154703,-0.60964537,1.6806406,0.39725044,-0.033959303,-0.06788893,0.91456574,-7.6171374,8.604802,0.3371081,0.021483993,-0.14782742,0.18956046,0
1.8800000000000014,10.488753333880473,0.08703146701121324,-0.7344466559337589,0.1608297453558387,10.946154,0.543122,-0.5557943,0.18554614,0.8392376,-0.52364886,1.6840447,0.3963368,-0.03330496,-0.068052076,0.914974,-7.6293864,8.594468,0.34373245,0.021483993,-0.14782742,0.18956046,1
1.8900000000000015,10.488753333880473,0.08703146701121324,-0.7344466559337589,0.1608297453558387,10.946154,0.543122,-0.5557943,0.18554614,0.76288176,-0.4377579,1.6875327,0.3953861,-0.029748857,-0.066637345,0.91561174,-7.6416454,8.583711,0.35387185,0.543122,-0.5557943,0.18554614,1
1.9000000000000015,10.488753333880473,0.08703146701121324,-0.7344466559337589,0.1608297453558387,10.946154,0.543122,-0.5557943,0.18554614,0.6864076,-0.35197476,1.6911224,0.39442912,-0.026192278,-0.06522154,0.9162349,-7.65306,8.572913,0.36409965,0.543122,-0.5557943,0.18554614,1
1.9100000000000015,10.488753333880473,0.08703146701121324,-0.7344466559337589,0.1608297453558387,10.946154,0.543122,-0.5557943,0.18554614,0.60982347,-0.26629975,1.694815,0.39346585,-0.02263528,-0.0638047,0.9168434,-7.6636276,8.562078,0.37440953,0.543122,-0.5557943,0.18554614,1
1.9200000000000015,10.351942248772826,0.07959450508290035,0.045874937986426625,0.16642829754575833,10.940521,0.40539405,-0.5059967,0.08124548,0.5331379,-0.1807333,1.6986109,0.39249626,-0.019077921,-0.062386837,0.9174373,-7.6733503,8.5512085,0.384795,0.543122,-0.5557943,0.18554614,1
1.9300000000000015,10.351942248772826,0.07959450508290035,0.045874937986426625,0.16642829754575833,10.940521,0.40539405,-0.5059967,0.08124548,0.45635924,-0.09527576,1.7025107,0.3920023,-0.01598649,-0.061512146,0.9177666,-7.682275,8.540287,0.39518708,0.40539405,-0.5059967,0.08124548,1
1.9400000000000015,10.351942248772826,0.07959450508290035,0.045874937986426625,0.16642829754575833,10.940521,0.40539405,-0.5059967,0.08124548,0.37949485,-0.009927902,1.7065147,0.3915042,-0.012894887,-0.0606368,0.91808605,-7.690498,8.52927,0.4056249,0.40539405,-0.5059967,0.08124548,1
1.9500000000000015,10.351942248772826,0.07959450508290035,0.045874937986426625,0.16642829754575833,10.940521,0.40539405,-0.5059967,0.08124548,0.3025517,0.07530931,1.7106234,0.39100188,-0.009803146,-0.059760805,0.9183957,-7.69802,8.518158,0.41610396,0.40539405,-0.5059967,0.08124548,1
1.9600000000000015,10.091225450559559,-0.04821554886202015,-0.37234336382775224,0.15755870674544764,11.006612,0.024716396,-0.49635544,0.3890186,0.22553682,0.16043495,1.714837,0.3904954,-0.006711301,-0.058884174,0.91869557,-7.7048388,8.506953,0.42661974,0.40539405,-0.5059967,0.08124548,1
1.9700000000000015,10.091225450559559,-0.04821554886202015,-0.37234336382775224,0.15755870674544764,11.006612,0.024716396,-0.49635544,0.3890186,0.14845678,0.24544741,1.7191591,0.38856122,-0.0044975504,-0.059726417,0.9194745,-7.7111077,8.495482,0.43780664,0.024716396,-0.49635544,0.3890186,1
1.9800000000000015,10.091225450559559,-0.04821554886202015,-0.37234336382775224,0.15755870674544764,11.006612,0.024716396,-0.49635544,0.3890186,0.07131605,0.33034334,1.723593,0.3866231,-0.0022837552,-0.060568064,0.9202442,-7.7169766,8.483639,0.4489761,0.024716396,-0.49635544,0.3890186,1
1.9900000000000015,10.091225450559559,-0.04821554886202015,-0.37234336382775224,0.15755870674544764,11.006612,0.024716396,-0.49635544,0.3890186,-0.0058813654,0.41511893,1.7281384,0.3846812,-6.9937145e-05,-0.061409105,0.92100483,-7.722443,8.471425,0.46012565,0.024716396,-0.49635544,0.3890186,1
2.0000000000000013,,,,,10.133312,0.030256879,0.6851048,0.053292412,-0.083131425,0.49977055,1.7327954,0.38273546,0.0021438815,-0.062249534,0.9217562,-7.727506,8.458844,0.47125286,0.024716396,-0.49635544,0.3890186,1
2.010000000000001,,,,,10.133312,0.030256879,0.6851048,0.053292412,-0.16042915,0.5843006,1.7375201,0.38270047,-0.00097230816,-0.060799222,0.92186946,-7.7321105,8.447241,0.47371396,0.030256879,0.6851048,0.053292412,1
2.020000000000001,,,,,10.133312,0.030256879,0.6851048,0.053292412,-0.23777527,0.66871715,1.7422696,0.38266096,-0.004088486,-0.059348192,0.92197186,-7.737184,8.43615,0.47621012,0.030256879,0.6851048,0.053292412,1
2.0300000000000007,,,,,10.133312,0.030256879,0.6851048,0.053292412,-0.31517443,0.7530253,1.7470443,0.38261697,-0.007204616,-0.05789646,0.92206335,-7.742727,8.42557,0.47873667,0.030256879,0.6851048,0.053292412,1
2.0400000000000005,,,,,10.133312,0.030256879,0.6851048,0.053292412,-0.3926314,0.8372302,1.7518445,0.38256845,-0.010320661,-0.056444045,0.92214394,-7.748739,8.415501,0.48128876,0.030256879,0.6851048,0.053292412,1
2.0500000000000003,,,,,9.709613,0.0986668,0.94881225,0.10225147,-0.47015083,0.92133707,1.7566704,0.3825154,-0.013436584,-0.054990966,0.9222136,-7.75522,8.405944,0.48386168,0.030256879,0.6851048,0.053292412,1
2.06,,,,,9.709613,0.0986668,0.94881225,0.10225147,-0.54773617,1.0053531,1.761501,0.38230702,-0.017650858,-0.052713837,0.92236197,-7.76193,8.397363,0.48224452,0.0986668,0.94881225,0.10225147,1
2.07,,,,,9.709613,0.0986668,0.94881225,0.10225147,-0.6253914,1.0892868,1.7663153,0.38208985,-0.021864725,-0.050435495,0.9224891,-7.7692237,8.389501,0.48064622,0.0986668,0.94881225,0.10225147,1
2.0799999999999996,,,,,9.709613,0.0986668,0.94881225,0.10225147,-0.7031226,1.1731455,1.7711139,0.3818639,-0.02607809,-0.048155997,0.922595,-7.777102,8.382358,0.47905788,0.0986668,0.94881225,0.10225147,1
2.0899999999999994,,,,,9.6843,-0.005381825,0.26510167,0.32978413,-0.78093547,1.2569364,1.7758964,0.38162914,-0.030290855,-0.04587539,0.92267966,-7.785564,8.375933,0.4774706,0.0986668,0.94881225,0.10225147,1
2.099999999999999,,,,,9.6843,-0.005381825,0.26510167,0.32978413,-0.85883534,1.340666,1.7806618,0.38016686,-0.03159972,-0.045344315,0.9232655,-7.794438,8.37004,0.47562596,-0.005381825,0.26510167,0.32978413,1
2.109999999999999,,,,,9.6843,-0.005381825,0.26510167,0.32978413,-0.9368249,1.4243376,1.7854089,0.37870288,-0.032908443,-0.04481304,0.9238472,-7.803497,8.364325,0.47377473,-0.005381825,0.26510167,0.32978413,1
2.1199999999999988,,,,,9.6843,-0.005381825,0.26510167,0.32978413,-1.0149059,1.5079532,1.7901373,0.3772372,-0.03421702,-0.04428156,0.92442477,-7.812742,8.358786,0.4719161,-0.005381825,0.26510167,0.32978413,1
2.1299999999999986,,,,,9.547314,-0.008929878,0.032644153,0.30487865,-1.0930804,1.5915141,1.7948471,0.37576982,-0.03552544,-0.043749887,0.9249982,-7.822174,8.353424,0.47004938,-0.005381825,0.26510167,0.32978413,1
2.1399999999999983,,,,,9.547314,-0.008929878,0.032644153,0.30487865,-1.1713493,1.6750224,1.7995313,0.37436488,-0.035759848,-0.043675646,0.9255622,-7.8315988,8.348253,0.46681535,-0.008929878,0.032644153,0.30487865,1
