time-since-start [s],throttle_mpc,roll_mpc,pitch_mpc,yaw_mpc,throttle_nw,roll_nw,pitch_nw,yaw_nw,position_x [m],position_y [m],position_z [m],rotation_w [quaternion],rotation_x [quaternion],rotation_y [quaternion],rotation_z [quaternion],velocity_x [m/s],velocity_y [m/s],velocity_z [m/s],omega_x [rad/s],omega_y [rad/s],omega_z [rad/s],network_used
0.0,11.416078204629612,5.999999605279399,-5.999999669511932,1.8234845589768993,13.840853,0.9006074,-2.300847,-0.37743494,15.056472,-10.687195,1.7904111,0.3523572,-0.34175876,0.22520927,0.84162116,-10.28423,-0.9734771,0.08314597,1.1027918,0.061616834,-0.24553898,0
0.01,11.416078204629612,5.999999605279399,-5.999999669511932,1.8234845589768993,13.111226,2.485946,-3.846374,-0.22991177,14.953401,-10.696575,1.791136,0.3613582,-0.30357623,0.24278554,0.8475357,-10.328495,-0.902205,0.062416524,5.9999995,-5.9999995,1.8234845,0
0.02,11.416078204629612,5.999999605279399,-5.999999669511932,1.8234845589768993,13.111226,2.485946,-3.846374,-0.22991177,14.849932,-10.7052355,1.7916716,0.3696788,-0.26482213,0.25990468,0.8518546,-10.363801,-0.82981837,0.045180727,5.9999995,-5.9999995,1.8234845,0
0.03,11.416078204629612,5.999999605279399,-5.999999669511932,1.8234845589768993,13.111226,2.485946,-3.846374,-0.22991177,14.746157,-10.713169,1.7920493,0.3773034,-0.22556938,0.27653447,0.8545696,-10.38987,-0.7567026,0.030746195,5.9999995,-5.9999995,1.8234845,0
0.04,11.416078204629612,5.999999605279399,-5.999999669511932,1.8234845589768993,12.757848,-0.872586,-0.9720556,-0.11677721,14.642168,-10.720368,1.7922938,0.3842176,-0.18589194,0.29264358,0.85567564,-10.40649,-0.6832487,0.018399475,5.9999995,-5.9999995,1.8234845,0
0.05,11.416078204629612,5.999999605279399,-5.999999669511932,1.8234845589768993,12.757848,-0.872586,-0.9720556,-0.11677721,14.538061,-10.726834,1.792422,0.39040834,-0.1458645,0.30820167,0.85517055,-10.413527,-0.60985005,0.007411386,5.9999995,-5.9999995,1.8234845,0
0.060000000000000005,11.416078204629612,5.999999605279399,-5.999999669511932,1.8234845589768993,12.757848,-0.872586,-0.9720556,-0.11677721,14.43393,-10.732568,1.7924441,0.395864,-0.105562426,0.32317948,0.8530553,-10.410912,-0.5368996,-0.0029574782,5.9999995,-5.9999995,1.8234845,0
0.07,11.416078204629612,5.999999605279399,-5.999999669511932,1.8234845589768993,12.757848,-0.872586,-0.9720556,-0.11677721,14.329875,-10.737576,1.7923626,0.40057433,-0.0650616,0.3375488,0.84933394,-10.398653,-0.4647871,-0.013451191,5.9999995,-5.9999995,1.8234845,0
0.08,16.34113567079069,5.999998549931164,-5.999999485382857,0.22701198457416735,13.390215,-2.0282393,3.8428414,-0.17693806,14.22599,-10.741868,1.7921722,0.4045304,-0.024438258,0.35128257,0.8440134,-10.376829,-0.39389586,-0.02481287,5.9999995,-5.9999995,1.8234845,0
0.09,16.34113567079069,5.999998549931164,-5.999999485382857,0.22701198457416735,13.390215,-2.0282393,3.8428414,-0.17693806,14.122436,-10.745309,1.7920452,0.41447663,0.013427421,0.36417452,0.8339099,-10.332118,-0.2947235,-0.0010358565,5.9999986,-5.9999995,0.22701198,0
0.09999999999999999,16.34113567079069,5.999998549931164,-5.999999485382857,0.22701198457416735,13.390215,-2.0282393,3.8428414,-0.17693806,14.019393,-10.747772,1.7921405,0.4236764,0.051268913,0.37641057,0.8223046,-10.274254,-0.19850293,0.019529738,5.9999986,-5.9999995,0.22701198,0
0.10999999999999999,16.34113567079069,5.999998549931164,-5.999999485382857,0.22701198457416735,13.390215,-2.0282393,3.8428414,-0.17693806,13.916993,-10.749291,1.7924216,0.4321131,0.08901807,0.3879687,0.8092184,-10.203651,-0.10590212,0.03601006,5.9999986,-5.9999995,0.22701198,0
0.11999999999999998,16.34113567079069,5.999998549931164,-5.999999485382857,0.22701198457416735,13.390215,-2.0282393,3.8428414,-0.17693806,13.815361,-10.749905,1.7928436,0.4397716,0.1266069,0.39882803,0.79467463,-10.120819,-0.017563134,0.0475607,5.9999986,-5.9999995,0.22701198,0
0.12999999999999998,18.574146116743325,2.420220021538867,-5.7250321449568435,0.14864466246084243,14.682601,-3.6356463,3.9594212,0.11278345,13.714615,-10.74966,1.7933531,0.44663802,0.16396771,0.4089691,0.77869976,-10.026352,0.06590271,0.05337272,5.9999986,-5.9999995,0.22701198,0
0.13999999999999999,18.574146116743325,2.420220021538867,-5.7250321449568435,0.14864466246084243,14.682601,-3.6356463,3.9594212,0.11278345,13.614937,-10.748553,1.7939618,0.45556462,0.19188315,0.40528822,0.7690144,-9.907985,0.1541054,0.0679627,2.4202201,-5.7250323,0.14864466,0
0.15,18.574146116743325,2.420220021538867,-5.7250321449568435,0.14864466246084243,14.682601,-3.6356463,3.9594212,0.11278345,13.516483,-10.746605,1.7947029,0.464051,0.21961318,0.4012157,0.75858593,-9.781674,0.23439771,0.07980929,2.4202201,-5.7250323,0.14864466,0
0.16,17.22840808086206,-0.5019972629817389,-0.5293241259594021,-0.2105806720269316,15.388624,-3.1525347,2.768414,-0.29561964,13.41933,-10.743894,1.795547,0.47208896,0.24713098,0.3967555,0.74742436,-9.647903,0.30647936,0.08847476,2.4202201,-5.7250323,0.14864466,0
0.17,17.22840808086206,-0.5019972629817389,-0.5293241259594021,-0.2105806720269316,15.388624,-3.1525347,2.768414,-0.29561964,13.323493,-10.74052,1.7964271,0.47454286,0.24750467,0.39388737,0.74726367,-9.519737,0.36807296,0.08764402,-0.5019973,-0.5293241,-0.21058068,0
0.18000000000000002,17.22840808086206,-0.5019972629817389,-0.5293241259594021,-0.2105806720269316,15.388624,-3.1525347,2.768414,-0.29561964,13.228936,-10.736535,1.7973024,0.47698992,0.24787478,0.3910136,0.74709225,-9.391625,0.4286352,0.08752959,-0.5019973,-0.5293241,-0.21058068,0
0.19000000000000003,17.22840808086206,-0.5019972629817389,-0.5293241259594021,-0.2105806720269316,15.388624,-3.1525347,2.768414,-0.29561964,13.135659,-10.731952,1.7981801,0.47943014,0.24824132,0.38813418,0.74691004,-9.263576,0.48816416,0.08812784,-0.5019973,-0.5293241,-0.21058068,0
0.20000000000000004,15.798112606443535,-1.068015767338237,1.3778218939000682,-0.3800672610637117,14.721047,-2.3305216,4.0570216,-0.2801126,13.043664,-10.726777,1.7990674,0.48186344,0.24860428,0.38524917,0.7467171,-9.135598,0.5466578,0.08943508,-0.5019973,-0.5293241,-0.21058068,0
0.21000000000000005,15.798112606443535,-1.068015767338237,1.3778218939000682,-0.3800672610637117,14.721047,-2.3305216,4.0570216,-0.2801126,12.952892,-10.721045,1.7999305,0.4819368,0.240145,0.38503835,0.7495415,-9.018964,0.6002929,0.083406135,-1.0680158,1.3778219,-0.38006726,0
0.22000000000000006,15.798112606443535,-1.068015767338237,1.3778218939000682,-0.3800672610637117,14.721047,-2.3305216,4.0570216,-0.2801126,12.863278,-10.7147665,1.8007401,0.48197183,0.2316666,0.3847969,0.7523063,-8.904146,0.655501,0.07872175,-1.0680158,1.3778219,-0.38006726,0
0.23000000000000007,15.798112606443535,-1.068015767338237,1.3778218939000682,-0.3800672610637117,14.721047,-2.3305216,4.0570216,-0.2801126,12.774804,-10.707929,1.8015095,0.4819685,0.22316974,0.3845248,0.75501126,-8.791179,0.7122731,0.07534676,-1.0680158,1.3778219,-0.38006726,0
0.24000000000000007,15.798112606443535,-1.068015767338237,1.3778218939000682,-0.3800672610637117,15.398991,-2.0108097,3.6128552,0.0143470615,12.6874485,-10.700516,1.8022515,0.4819268,0.21465515,0.38422212,0.75765616,-8.680095,0.7705997,0.0732456,-1.0680158,1.3778219,-0.38006726,0
0.25000000000000006,15.798112606443535,-1.068015767338237,1.3778218939000682,-0.3800672610637117,15.398991,-2.0108097,3.6128552,0.0143470615,12.601195,-10.692512,1.8029786,0.48184675,0.20612347,0.38388884,0.7602407,-8.570925,0.83047086,0.07238228,-1.0680158,1.3778219,-0.38006726,0
0.26000000000000006,15.798112606443535,-1.068015767338237,1.3778218939000682,-0.3800672610637117,15.398991,-2.0108097,3.6128552,0.0143470615,12.516024,-10.683901,1.8037033,0.48172835,0.19757538,0.383525,0.7627647,-8.463702,0.89187604,0.07272043,-1.0680158,1.3778219,-0.38006726,0
0.2700000000000001,15.798112606443535,-1.068015767338237,1.3778218939000682,-0.3800672610637117,15.398991,-2.0108097,3.6128552,0.0143470615,12.431915,-10.674669,1.8044372,0.4815716,0.18901156,0.38313067,0.76522803,-8.358456,0.95480424,0.074223295,-1.0680158,1.3778219,-0.38006726,0
0.2800000000000001,14.710977351121102,-1.4508785206894705,2.3123587196117827,-0.4422945656422356,17.623844,-2.3667085,3.7997048,-0.5933773,12.348849,-10.6648,1.8051918,0.48137656,0.18043272,0.3827058,0.7676305,-8.255216,1.0192442,0.076853745,-1.0680158,1.3778219,-0.38006726,0
0.2900000000000001,14.710977351121102,-1.4508785206894705,2.3123587196117827,-0.4422945656422356,17.623844,-2.3667085,3.7997048,-0.5933773,12.266769,-10.654301,1.8059434,0.47991234,0.16720226,0.3830651,0.77135485,-8.161351,1.0810444,0.07367603,-1.4508785,2.3123586,-0.44229457,0
0.3000000000000001,14.710977351121102,-1.4508785206894705,2.3123587196117827,-0.4422945656422356,17.623844,-2.3667085,3.7997048,-0.5933773,12.185613,-10.643171,1.8066695,0.4783564,0.15393986,0.38335118,0.7749317,-8.070432,1.1452783,0.07173927,-1.4508785,2.3123586,-0.44229457,0
0.3100000000000001,14.710977351121102,-1.4508785206894705,2.3123587196117827,-0.4422945656422356,17.623844,-2.3667085,3.7997048,-0.5933773,12.1053505,-10.631387,1.8073821,0.47670898,0.14064799,0.38356397,0.7783605,-7.9825177,1.21191,0.07095948,-1.4508785,2.3123586,-0.44229457,0
0.3200000000000001,13.760237265264987,-1.8440919555000026,3.7222488046776507,-0.5879115092535396,16.717756,-2.5838103,4.5925465,-0.43810993,12.025951,-10.618925,1.8080924,0.4749704,0.12732926,0.3837034,0.78164035,-7.8976693,1.2809017,0.071251765,-1.4508785,2.3123586,-0.44229457,0
0.3300000000000001,13.760237265264987,-1.8440919555000026,3.7222488046776507,-0.5879115092535396,16.717756,-2.5838103,4.5925465,-0.43810993,11.947357,-10.6057825,1.8087785,0.47119668,0.10724805,0.38562584,0.7859795,-7.8217425,1.3481582,0.06612234,-1.844092,3.7222488,-0.5879115,0
0.34000000000000014,13.760237265264987,-1.8440919555000026,3.7222488046776507,-0.5879115092535396,16.717756,-2.5838103,4.5925465,-0.43810993,11.8695,-10.591949,1.8094177,0.46721563,0.08711965,0.3873786,0.78997284,-7.7502,1.418988,0.061812796,-1.844092,3.7222488,-0.5879115,0
0.35000000000000014,13.760237265264987,-1.8440919555000026,3.7222488046776507,-0.5879115092535396,16.717756,-2.5838103,4.5925465,-0.43810993,11.792337,-10.57739,1.810017,0.463029,0.066952914,0.3889609,0.79361856,-7.683153,1.4932891,0.058137108,-1.844092,3.7222488,-0.5879115,0
0.36000000000000015,13.410123169181224,-1.8566493409398517,3.3218304761783926,-0.6226531995085227,16.150852,-2.6908886,4.086511,-0.6678447,11.715822,-10.562071,1.8105819,0.4586386,0.046756722,0.39037207,0.79691505,-7.6207056,1.5709531,0.05490813,-1.844092,3.7222488,-0.5879115,0
0.37000000000000016,13.410123169181224,-1.8566493409398517,3.3218304761783926,-0.6226531995085227,16.150852,-2.6908886,4.086511,-0.6678447,11.6399,-10.54597,1.811104,0.4549849,0.028040119,0.3906647,0.7997394,-7.5643096,1.6496531,0.049581647,-1.8566494,3.3218305,-0.6226532,0
0.38000000000000017,13.410123169181224,-1.8566493409398517,3.3218304761783926,-0.6226531995085227,16.150852,-2.6908886,4.086511,-0.6678447,11.564521,-10.529068,1.8115745,0.45116207,0.009313092,0.3908121,0.80226654,-7.512265,1.7310053,0.04451032,-1.8566494,3.3218305,-0.6226532,0
0.3900000000000002,13.410123169181224,-1.8566493409398517,3.3218304761783926,-0.6226531995085227,16.150852,-2.6908886,4.086511,-0.6678447,11.489639,-10.511341,1.8119946,0.44717154,-0.009417398,0.39081424,0.8044954,-7.4646378,1.8149114,0.039536584,-1.8566494,3.3218305,-0.6226532,0
0.4000000000000002,13.27776344618967,-1.5616348933405555,2.344400354920993,-0.6796490802376102,15.239821,-2.4615335,2.7593856,-0.31509748,11.415213,-10.492763,1.8123648,0.44301477,-0.028144386,0.3906711,0.80642515,-7.421485,1.901269,0.03450273,-1.8566494,3.3218305,-0.6226532,0
0.4100000000000002,13.27776344618967,-1.5616348933405555,2.344400354920993,-0.6796490802376102,15.239821,-2.4615335,2.7593856,-0.31509748,11.341193,-10.473312,1.8126795,0.44090956,-0.042380583,0.3894308,0.80755556,-7.382834,1.9888101,0.028443433,-1.5616349,2.3444004,-0.67964906,0
0.4200000000000002,13.27776344618967,-1.5616348933405555,2.344400354920993,-0.6796490802376102,15.239821,-2.4615335,2.7593856,-0.31509748,11.267544,-10.452979,1.8129337,0.43871182,-0.056607883,0.38810873,0.8085164,-7.347616,2.0778334,0.02234021,-1.5616349,2.3444004,-0.67964906,0
0.4300000000000002,13.27776344618967,-1.5616348933405555,2.344400354920993,-0.6796490802376102,15.239821,-2.4615335,2.7593856,-0.31509748,11.194229,-10.43175,1.813126,0.436422,-0.070823304,0.38670522,0.80930746,-7.315853,2.1682842,0.016101742,-1.5616349,2.3444004,-0.67964906,0
0.4400000000000002,13.27776344618967,-1.5616348933405555,2.344400354920993,-0.6796490802376102,14.33317,-2.377324,2.0251255,-0.304987,11.121215,-10.40961,1.8132548,0.43404055,-0.08502385,0.38522053,0.8099287,-7.287562,2.260107,0.009636825,-1.5616349,2.3444004,-0.67964906,0
0.45000000000000023,13.27776344618967,-1.5616348933405555,2.344400354920993,-0.6796490802376102,14.33317,-2.377324,2.0251255,-0.304987,11.048466,-10.386544,1.8133177,0.431568,-0.09920656,0.38365495,0.8103799,-7.2627573,2.3532445,0.0028544604,-1.5616349,2.3444004,-0.67964906,0
0.46000000000000024,13.27776344618967,-1.5616348933405555,2.344400354920993,-0.6796490802376102,14.33317,-2.377324,2.0251255,-0.304987,10.975947,-10.362541,1.8133105,0.42900485,-0.11336844,0.38200888,0.810661,-7.2414517,2.4476392,-0.0043360936,-1.5616349,2.3444004,-0.67964906,0
0.47000000000000025,13.27776344618967,-1.5616348933405555,2.344400354920993,-0.6796490802376102,14.33317,-2.377324,2.0251255,-0.304987,10.903624,-10.337587,1.8132292,0.42635164,-0.12750651,0.3802826,0.810772,-7.2236533,2.5432317,-0.012025243,-1.5616349,2.3444004,-0.67964906,0
0.48000000000000026,13.271406917495348,-1.3270568925606738,1.3799391313149705,-0.619331861849224,15.013795,-2.5339422,1.6691545,-0.28030258,10.831462,-10.311672,1.8130682,0.42360893,-0.14161782,0.37847653,0.81071275,-7.2093687,2.6399617,-0.020302959,-1.5616349,2.3444004,-0.67964906,0
0.49000000000000027,13.271406917495348,-1.3270568925606738,1.3799391313149705,-0.619331861849224,15.013795,-2.5339422,1.6691545,-0.28030258,10.759426,-10.284786,1.8128211,0.42254695,-0.15118694,0.37556234,0.8108942,-7.198225,2.7374887,-0.029090036,-1.3270569,1.3799391,-0.61933184,0
0.5000000000000002,13.271406917495348,-1.3270568925606738,1.3799391313149705,-0.619331861849224,15.013795,-2.5339422,1.6691545,-0.28030258,10.687488,-10.256922,1.8124857,0.4214422,-0.16074076,0.37261012,0.8109935,-7.189582,2.8354309,-0.038054164,-1.3270569,1.3799391,-0.61933184,0
0.5100000000000002,13.271406917495348,-1.3270568925606738,1.3799391313149705,-0.619331861849224,15.013795,-2.5339422,1.6691545,-0.28030258,10.615624,-10.228077,1.8120594,0.42029482,-0.17027831,0.3696202,0.81101066,-7.1834397,2.933762,-0.04723962,-1.3270569,1.3799391,-0.61933184,0
0.5200000000000002,13.085822465188249,-0.8066646945278291,-0.021838716319058267,-0.5641584264828781,15.266873,-2.176347,0.9556861,-0.22273032,10.543811,-10.198246,1.81154,0.41910487,-0.17979862,0.36659288,0.8109458,-7.179798,3.0324566,-0.05669057,-1.3270569,1.3799391,-0.61933184,0
0.5300000000000002,13.085822465188249,-0.8066646945278291,-0.021838716319058267,-0.5641584264828781,15.266873,-2.176347,0.9556861,-0.22273032,10.472023,-10.167435,1.8109193,0.42070216,-0.18243234,0.36276472,0.811252,-7.1780634,3.1298265,-0.06738405,-0.8066647,-0.021838717,-0.56415844,0
0.5400000000000003,13.085822465188249,-0.8066646945278291,-0.021838716319058267,-0.5641584264828781,15.266873,-2.176347,0.9556861,-0.22273032,10.400248,-10.135652,1.810194,0.42228922,-0.18506163,0.35892776,0.8115385,-7.1771717,3.2267768,-0.07759992,-0.8066647,-0.021838717,-0.56415844,0
0.5500000000000003,13.085822465188249,-0.8066646945278291,-0.021838716319058267,-0.5641584264828781,15.266873,-2.176347,0.9556861,-0.22273032,10.328478,-10.102901,1.809369,0.42386606,-0.18768647,0.35508206,0.81180537,-7.177127,3.3233044,-0.087347426,-0.8066647,-0.021838717,-0.56415844,0
0.5600000000000003,13.028175158090843,-0.5456861748229386,-0.39237195388706714,-0.46359432810731266,14.764439,-1.4929546,0.46790278,-0.11135852,10.256703,-10.069189,1.8084486,0.42543265,-0.19030675,0.3512278,0.81205255,-7.1779323,3.4194067,-0.09663585,-0.8066647,-0.021838717,-0.56415844,0
0.5700000000000003,13.028175158090843,-0.5456861748229386,-0.39237195388706714,-0.46359432810731266,14.764439,-1.4929546,0.46790278,-0.11135852,10.1849165,-10.034518,1.8074359,0.4274812,-0.19068693,0.34773347,0.81239134,-7.179377,3.514608,-0.10580931,-0.5456862,-0.39237195,-0.46359432,0
0.5800000000000003,13.028175158090843,-0.5456861748229386,-0.39237195388706714,-0.46359432810731266,14.764439,-1.4929546,0.46790278,-0.11135852,10.113114,-9.9988985,1.8063344,0.4295227,-0.19106393,0.34423336,0.81271654,-7.1811223,3.6092432,-0.11438602,-0.5456862,-0.39237195,-0.46359432,0
0.5900000000000003,13.028175158090843,-0.5456861748229386,-0.39237195388706714,-0.46359432810731266,14.764439,-1.4929546,0.46790278,-0.11135852,10.041292,-9.962336,1.8051502,0.43155697,-0.19143775,0.34072754,0.8130282,-7.1831713,3.7033088,-0.12237108,-0.5456862,-0.39237195,-0.46359432,0
0.6000000000000003,12.594558185468236,-0.20119372141378422,-1.0384423223202297,-0.3767177022468957,14.798204,-1.3800352,0.58526397,-0.050631635,9.969449,-9.924834,1.8038889,0.43358406,-0.19180837,0.337216,0.8133263,-7.1855283,3.7968018,-0.12976962,-0.5456862,-0.39237195,-0.46359432,0
0.6100000000000003,12.594558185468236,-0.20119372141378422,-1.0384423223202297,-0.3767177022468957,14.798204,-1.3800352,0.58526397,-0.050631635,9.897582,-9.886416,1.8025419,0.4366671,-0.18865377,0.33377996,0.81383187,-7.1878047,3.8865142,-0.13950312,-0.20119372,-1.0384424,-0.37671772,0
0.6200000000000003,12.594558185468236,-0.20119372141378422,-1.0384423223202297,-0.3767177022468957,14.798204,-1.3800352,0.58526397,-0.050631635,9.825695,-9.847107,1.8011018,0.43973646,-0.1854932,0.33033338,0.8143119,-7.1895766,3.9753628,-0.14835678,-0.20119372,-1.0384424,-0.37671772,0
0.6300000000000003,12.594558185468236,-0.20119372141378422,-1.0384423223202297,-0.3767177022468957,14.798204,-1.3800352,0.58526397,-0.050631635,9.753793,-9.806912,1.7995776,0.4427919,-0.1823268,0.32687643,0.8147662,-7.1908484,4.0633364,-0.1563393,-0.20119372,-1.0384424,-0.37671772,0
0.6400000000000003,12.594558185468236,-0.20119372141378422,-1.0384423223202297,-0.3767177022468957,14.324887,-1.5236421,0.8938522,-0.03625506,9.68188,-9.765842,1.7979779,0.4458334,-0.17915463,0.32340917,0.8151948,-7.191624,4.150424,-0.16345948,-0.20119372,-1.0384424,-0.37671772,0
0.6500000000000004,12.594558185468236,-0.20119372141378422,-1.0384423223202297,-0.3767177022468957,14.324887,-1.5236421,0.8938522,-0.03625506,9.6099615,-9.7239065,1.7963114,0.44886085,-0.17597683,0.31993172,0.8155977,-7.191909,4.236614,-0.16972627,-0.20119372,-1.0384424,-0.37671772,0
0.6600000000000004,12.594558185468236,-0.20119372141378422,-1.0384423223202297,-0.3767177022468957,14.324887,-1.5236421,0.8938522,-0.03625506,9.538043,-9.681113,1.7945864,0.45187414,-0.1727935,0.3164442,0.815975,-7.1917076,4.3218956,-0.17514864,-0.20119372,-1.0384424,-0.37671772,0
0.6700000000000004,12.594558185468236,-0.20119372141378422,-1.0384423223202297,-0.3767177022468957,14.324887,-1.5236421,0.8938522,-0.03625506,9.466129,-9.637472,1.7928114,0.4548732,-0.16960469,0.31294668,0.81632656,-7.1910243,4.406258,-0.17973574,-0.20119372,-1.0384424,-0.37671772,0
0.6800000000000004,12.585013328359924,-0.2111528446488474,-0.15352528593546222,-0.29477499697108467,13.868038,-1.4141521,1.1819892,-0.072194085,9.394224,-9.592992,1.7909945,0.4578579,-0.16641054,0.3094393,0.81665236,-7.1898646,4.4896903,-0.1834968,-0.20119372,-1.0384424,-0.37671772,0
0.6900000000000004,12.585013328359924,-0.2111528446488474,-0.15352528593546222,-0.29477499697108467,13.868038,-1.4141521,1.1819892,-0.072194085,9.322333,-9.547681,1.7891432,0.4591225,-0.16672279,0.30797976,0.8164304,-7.1884565,4.572388,-0.18674254,-0.21115285,-0.1535253,-0.294775,0
0.7000000000000004,12.585013328359924,-0.2111528446488474,-0.15352528593546222,-0.29477499697108467,13.868038,-1.4141521,1.1819892,-0.072194085,9.250455,-9.501546,1.7872604,0.46038532,-0.1670344,0.30651903,0.81620526,-7.187174,4.654858,-0.18978797,-0.21115285,-0.1535253,-0.294775,0
0.7100000000000004,12.585013328359924,-0.2111528446488474,-0.15352528593546222,-0.29477499697108467,13.868038,-1.4141521,1.1819892,-0.072194085,9.178589,-9.454587,1.785348,0.46164635,-0.16734536,0.3050571,0.8159769,-7.1860175,4.737099,-0.19263397,-0.21115285,-0.1535253,-0.294775,0
0.7200000000000004,12.039825331480248,0.0042580683999754575,-0.6540735592068436,-0.2272341744073774,13.216987,-1.083349,0.90141726,-0.06906448,9.106734,-9.406806,1.7834083,0.4629056,-0.16765568,0.303594,0.8157455,-7.1849885,4.8191113,-0.19528145,-0.21115285,-0.1535253,-0.294775,0
0.7300000000000004,12.039825331480248,0.0042580683999754575,-0.6540735592068436,-0.2272341744073774,13.216987,-1.083349,0.90141726,-0.06906448,9.034889,-9.358224,1.7814226,0.46482608,-0.16532196,0.30190518,0.8157565,-7.183927,4.897241,-0.2017829,0.0042580683,-0.65407354,-0.22723417,0
0.7400000000000004,12.039825331480248,0.0042580683999754575,-0.6540735592068436,-0.2272341744073774,13.216987,-1.083349,0.90141726,-0.06906448,8.963057,-9.308864,1.7793742,0.466741,-0.16298626,0.30021277,0.81575775,-7.1824565,4.974855,-0.20785223,0.0042580683,-0.65407354,-0.22723417,0
0.7500000000000004,12.039825331480248,0.0042580683999754575,-0.6540735592068436,-0.2272341744073774,13.216987,-1.083349,0.90141726,-0.06906448,8.891241,-9.258729,1.7772672,0.4686503,-0.16064863,0.29851672,0.8157492,-7.180579,5.051949,-0.2134928,0.0042580683,-0.65407354,-0.22723417,0
0.7600000000000005,12.06143659071743,-0.03204871484728299,-0.011228882851952032,-0.16748488464697486,12.879647,-0.91866875,0.85911715,-0.006112911,8.819447,-9.207826,1.775106,0.470554,-0.15830909,0.2968171,0.81573087,-7.1782956,5.1285186,-0.21870792,0.0042580683,-0.65407354,-0.22723417,1
0.7700000000000005,12.06143659071743,-0.03204871484728299,-0.011228882851952032,-0.16748488464697486,12.879647,-0.91866875,0.85911715,-0.006112911,8.747675,-9.156133,1.7729263,0.46856743,-0.16398044,0.29508075,0.81638366,-7.1761756,5.2101855,-0.21723726,-0.91866875,0.85911715,-0.006112911,1
0.7800000000000005,12.06143659071743,-0.03204871484728299,-0.011228882851952032,-0.16748488464697486,12.879647,-0.91866875,0.85911715,-0.006112911,8.675917,-9.1036215,1.7707605,0.46656236,-0.16964531,0.29333276,0.81700426,-7.175637,5.292136,-0.21597864,-0.91866875,0.85911715,-0.006112911,1
0.7900000000000005,12.06143659071743,-0.03204871484728299,-0.011228882851952032,-0.16748488464697486,12.879647,-0.91866875,0.85911715,-0.006112911,8.604156,-9.050288,1.7686062,0.46453884,-0.17530347,0.29157317,0.81759244,-7.1766787,5.3743567,-0.21494782,-0.91866875,0.85911715,-0.006112911,1
0.8000000000000005,11.4166509650301,0.4498997260465234,-1.6650618486322308,-0.10983203846807942,12.6427965,-0.5807297,0.67102695,0.0045349747,8.532377,-8.996131,1.7664609,0.46249697,-0.18095471,0.28980207,0.8181484,-7.1793013,5.4568353,-0.21416055,-0.91866875,0.85911715,-0.006112911,0
0.8100000000000005,11.4166509650301,0.4498997260465234,-1.6650618486322308,-0.10983203846807942,12.6427965,-0.5807297,0.67102695,0.0045349747,8.46057,-8.941197,1.7642673,0.46574867,-0.17325547,0.2876819,0.81871843,-7.1819744,5.5296936,-0.22440702,0.44989973,-1.6650618,-0.10983204,0
0.8200000000000005,11.4166509650301,0.4498997260465234,-1.6650618486322308,-0.10983203846807942,12.6427965,-0.5807297,0.67102695,0.0045349747,8.388742,-8.88554,1.7619756,0.46896562,-0.16554329,0.28554025,0.8192274,-7.183243,5.6015,-0.2337607,0.44989973,-1.6650618,-0.10983204,0
0.8300000000000005,11.4166509650301,0.4498997260465234,-1.6650618486322308,-0.10983203846807942,12.6427965,-0.5807297,0.67102695,0.0045349747,8.316909,-8.829171,1.7595949,0.47214755,-0.15781875,0.28337726,0.81967515,-7.1831074,5.672232,-0.24224705,0.44989973,-1.6650618,-0.10983204,0
0.8400000000000005,11.4166509650301,0.4498997260465234,-1.6650618486322308,-0.10983203846807942,12.653453,-0.37703982,0.5096492,0.1820552,8.245084,-8.7721,1.7571337,0.4752942,-0.15008244,0.2811931,0.8200617,-7.181569,5.741868,-0.24989174,0.44989973,-1.6650618,-0.10983204,0
0.8500000000000005,11.4166509650301,0.4498997260465234,-1.6650618486322308,-0.10983203846807942,12.653453,-0.37703982,0.5096492,0.1820552,8.173282,-8.714337,1.7546,0.4784054,-0.14233492,0.27898797,0.820387,-7.17863,5.8103857,-0.25672078,0.44989973,-1.6650618,-0.10983204,0
0.8600000000000005,11.4166509650301,0.4498997260465234,-1.6650618486322308,-0.10983203846807942,12.653453,-0.37703982,0.5096492,0.1820552,8.101516,-8.655896,1.7520021,0.48148087,-0.13457677,0.276762,0.82065105,-7.1742935,5.8777633,-0.26276028,0.44989973,-1.6650618,-0.10983204,0
0.8700000000000006,11.4166509650301,0.4498997260465234,-1.6650618486322308,-0.10983203846807942,12.653453,-0.37703982,0.5096492,0.1820552,8.0298,-8.5967865,1.7493476,0.4845204,-0.12680855,0.27451536,0.8208538,-7.1685615,5.94398,-0.26803678,0.44989973,-1.6650618,-0.10983204,0
0.8800000000000006,11.648840051939757,0.1435923179396752,-0.19788247430142203,-0.09245787005355104,11.886557,-0.2793287,0.1870791,0.22857535,7.958149,-8.537021,1.7466439,0.48752376,-0.11903088,0.2722482,0.82099533,-7.1614375,6.0090146,-0.27257687,0.44989973,-1.6650618,-0.10983204,1
0.8900000000000006,11.648840051939757,0.1435923179396752,-0.19788247430142203,-0.09245787005355104,11.886557,-0.2793287,0.1870791,0.22857535,7.8865757,-8.476596,1.7439171,0.48616356,-0.12016834,0.27169308,0.82181966,-7.153265,6.0759616,-0.27279726,-0.2793287,0.1870791,0.22857535,1
0.9000000000000006,11.648840051939757,0.1435923179396752,-0.19788247430142203,-0.09245787005355104,11.886557,-0.2793287,0.1870791,0.22857535,7.815082,-8.415501,1.7411879,0.48480135,-0.1213053,0.27113682,0.82264066,-7.1454906,6.142945,-0.2730108,-0.2793287,0.1870791,0.22857535,1
0.9100000000000006,11.648840051939757,0.1435923179396752,-0.19788247430142203,-0.09245787005355104,11.886557,-0.2793287,0.1870791,0.22857535,7.7436643,-8.353737,1.7384568,0.48343712,-0.12244176,0.27057946,0.82345825,-7.138114,6.2099643,-0.273218,-0.2793287,0.1870791,0.22857535,1
0.9200000000000006,11.329579072017415,0.07042350959788124,-0.8112392018142586,-0.04158022201914589,12.23329,-0.36998126,0.07777326,0.08408263,7.6723185,-8.291302,1.7357237,0.4820709,-0.123577714,0.27002096,0.82427245,-7.1311355,6.277018,-0.27341956,-0.2793287,0.1870791,0.22857535,1
0.9300000000000006,11.329579072017415,0.07042350959788124,-0.8112392018142586,-0.04158022201914589,12.23329,-0.36998126,0.07777326,0.08408263,7.6010413,-8.228187,1.7330029,0.48138985,-0.12467629,0.26873505,0.82492507,-7.124374,6.346009,-0.27072334,-0.36998126,0.07777326,0.08408263,1
0.9400000000000006,11.329579072017415,0.07042350959788124,-0.8112392018142586,-0.04158022201914589,12.23329,-0.36998126,0.07777326,0.08408263,7.5298295,-8.164382,1.7303096,0.480707,-0.12577438,0.26744813,0.8255746,-7.11805,6.4148912,-0.2679248,-0.36998126,0.07777326,0.08408263,1
0.9500000000000006,11.329579072017415,0.07042350959788124,-0.8112392018142586,-0.04158022201914589,12.23329,-0.36998126,0.07777326,0.08408263,7.4586787,-8.099889,1.7276448,0.48002234,-0.126872,0.2661602,0.826221,-7.112164,6.4836645,-0.2650252,-0.36998126,0.07777326,0.08408263,1
0.9600000000000006,11.300579427554508,-0.028977328365299964,-0.38380626989840566,-0.043650627317174444,12.378775,-0.6095253,0.26013592,0.07749437,7.3875847,-8.034709,1.7250094,0.47933587,-0.12796915,0.2648713,0.8268643,-7.106716,6.552327,-0.26202574,-0.36998126,0.07777326,0.08408263,0
0.9700000000000006,11.300579427554508,-0.028977328365299964,-0.38380626989840566,-0.043650627317174444,12.378775,-0.6095253,0.26013592,0.07749437,7.3165417,-7.9688697,1.7223662,0.4800052,-0.12650937,0.26380318,0.8270421,-7.1018643,6.6155677,-0.26659796,-0.028977329,-0.38380626,-0.043650627,0
0.9800000000000006,11.300579427554508,-0.028977328365299964,-0.38380626989840566,-0.043650627317174444,12.378775,-0.6095253,0.26013592,0.07749437,7.2455482,-7.902399,1.7196782,0.48067272,-0.12504911,0.26273412,0.8272168,-7.0968204,6.6784787,-0.27095908,-0.028977329,-0.38380626,-0.043650627,0
0.9900000000000007,11.300579427554508,-0.028977328365299964,-0.38380626989840566,-0.043650627317174444,12.378775,-0.6095253,0.26013592,0.07749437,7.174606,-7.8353004,1.7169476,0.48133844,-0.12358841,0.2616641,0.8273884,-7.0915856,6.741061,-0.27511045,-0.028977329,-0.38380626,-0.043650627,0
1.0000000000000007,10.976507097309947,-0.12290406807682391,-1.8886069509697117,0.06637319068180535,11.812521,-0.5685959,-0.7291817,0.08916259,7.103717,-7.7675786,1.7141765,0.48200235,-0.12212724,0.26059303,0.8275569,-7.0861583,6.8033133,-0.27905345,-0.028977329,-0.38380626,-0.043650627,0
1.0100000000000007,10.976507097309947,-0.12290406807682391,-1.8886069509697117,0.06637319068180535,11.812521,-0.5685959,-0.7291817,0.08916259,7.032883,-7.6992464,1.7113545,0.4840918,-0.11451695,0.25556183,0.82899314,-7.0804214,6.862986,-0.28520605,-0.12290407,-1.8886069,0.06637319,0
1.0200000000000007,10.976507097309947,-0.12290406807682391,-1.8886069509697117,0.06637319068180535,11.812521,-0.5685959,-0.7291817,0.08916259,6.962112,-7.630325,1.7084756,0.48613784,-0.106896386,0.25050774,0.830355,-7.0737534,6.9210644,-0.29040575,-0.12290407,-1.8886069,0.06637319,0
1.0300000000000007,10.976507097309947,-0.12290406807682391,-1.8886069509697117,0.06637319068180535,11.812521,-0.5685959,-0.7291817,0.08916259,6.8914123,-7.5608306,1.7055495,0.4881403,-0.09926624,0.24543117,0.83164245,-7.0661564,6.9775286,-0.2946862,-0.12290407,-1.8886069,0.06637319,0
1.0400000000000007,10.976507097309947,-0.12290406807682391,-1.8886069509697117,0.06637319068180535,11.79246,-0.5593351,-0.8213694,0.09584299,6.820792,-7.49078,1.7025849,0.49009904,-0.091627195,0.24033259,0.83285534,-7.057631,7.0323586,-0.29808143,-0.12290407,-1.8886069,0.06637319,0
1.0500000000000007,10.976507097309947,-0.12290406807682391,-1.8886069509697117,0.06637319068180535,11.79246,-0.5593351,-0.8213694,0.09584299,6.7502627,-7.4201894,1.6995907,0.4920138,-0.083979934,0.23521248,0.8339936,-7.0481787,7.0855355,-0.30062574,-0.12290407,-1.8886069,0.06637319,0
1.0600000000000007,10.976507097309947,-0.12290406807682391,-1.8886069509697117,0.06637319068180535,11.79246,-0.5593351,-0.8213694,0.09584299,6.6798325,-7.3490753,1.6965752,0.49388447,-0.07632514,0.23007126,0.8350571,-7.0378017,7.137041,-0.30235377,-0.12290407,-1.8886069,0.06637319,0
1.0700000000000007,10.976507097309947,-0.12290406807682391,-1.8886069509697117,0.06637319068180535,11.79246,-0.5593351,-0.8213694,0.09584299,6.60951,-7.277454,1.6935463,0.49571082,-0.06866351,0.22490942,0.8360457,-7.0265036,7.1868567,-0.30330038,-0.12290407,-1.8886069,0.06637319,0
1.0800000000000007,11.162158847215439,-0.46665245980639053,-0.12108247452555297,0.06415973678037237,11.742589,-0.6417894,-0.749568,0.09181519,6.539305,-7.2053437,1.6905117,0.49749276,-0.060995724,0.21972741,0.8369593,-7.014286,7.2349653,-0.3035008,-0.12290407,-1.8886069,0.06637319,1
1.0900000000000007,11.162158847215439,-0.46665245980639053,-0.12108247452555297,0.06415973678037237,11.742589,-0.6417894,-0.749568,0.09181519,6.4692307,-7.132744,1.6875129,0.4977302,-0.059353746,0.21520245,0.8381111,-7.000682,7.2848997,-0.2961958,-0.6417894,-0.749568,0.09181519,1
1.1000000000000008,11.162158847215439,-0.46665245980639053,-0.12108247452555297,0.06415973678037237,11.742589,-0.6417894,-0.749568,0.09181519,6.399291,-7.0596495,1.6845896,0.4979554,-0.057710312,0.2106722,0.8392423,-6.9872875,7.3338127,-0.28838608,-0.6417894,-0.749568,0.09181519,1
1.1100000000000008,11.162158847215439,-0.46665245980639053,-0.12108247452555297,0.06415973678037237,11.742589,-0.6417894,-0.749568,0.09181519,6.3294845,-6.986071,1.6817468,0.49816838,-0.056065463,0.2061368,0.8403529,-6.974104,7.381699,-0.28008196,-0.6417894,-0.749568,0.09181519,1
1.1200000000000008,10.887639502185865,-0.635631496920312,-0.45531082111793514,0.178978055105415,11.651156,-0.74775076,-0.68055207,0.12477136,6.259808,-6.9120193,1.6789895,0.49836916,-0.054419238,0.20159632,0.8414429,-6.961131,7.428554,-0.27129382,-0.6417894,-0.749568,0.09181519,1
1.1300000000000008,10.887639502185865,-0.635631496920312,-0.45531082111793514,0.178978055105415,11.651156,-0.74775076,-0.68055207,0.12477136,6.1902604,-6.8375053,1.6763184,0.49832028,-0.053292822,0.1967859,0.8426818,-6.948523,7.474021,-0.26286373,-0.74775076,-0.68055207,0.12477136,1
1.1400000000000008,10.887639502185865,-0.635631496920312,-0.45531082111793514,0.178978055105415,11.651156,-0.74775076,-0.68055207,0.12477136,6.1208367,-6.762542,1.6737338,0.49825847,-0.05216502,0.19197036,0.84389883,-6.93627,7.518468,-0.25396293,-0.74775076,-0.68055207,0.12477136,1
1.1500000000000008,10.887639502185865,-0.635631496920312,-0.45531082111793514,0.178978055105415,11.651156,-0.74775076,-0.68055207,0.12477136,6.051534,-6.6871395,1.6712407,0.49818373,-0.05103587,0.18714985,0.8450939,-6.9243727,7.56189,-0.24460225,-0.74775076,-0.68055207,0.12477136,1
1.1600000000000008,10.801284850290669,-0.85183305109578,0.9288493749812411,0.1694141828435812,11.699358,-0.85808426,-0.5844684,0.09410907,5.982348,-6.6113076,1.6688434,0.49809605,-0.049905393,0.1823245,0.84626704,-6.9128304,7.604283,-0.23479268,-0.74775076,-0.68055207,0.12477136,0
1.1700000000000008,10.801284850290669,-0.85183305109578,0.9288493749812411,0.1694141828435812,11.699358,-0.85808426,-0.5844684,0.09410907,5.9132705,-6.5350704,1.6665064,0.49630982,-0.05580165,0.181072,0.84721667,-6.9028206,7.643143,-0.23261148,-0.85183305,0.9288494,0.16941418,0
1.1800000000000008,10.801284850290669,-0.85183305109578,0.9288493749812411,0.1694141828435812,11.699358,-0.85808426,-0.5844684,0.09410907,5.844287,-6.4584427,1.664191,0.49450356,-0.061695646,0.17981216,0.84813195,-6.894106,7.682421,-0.23047224,-0.85183305,0.9288494,0.16941418,0
1.1900000000000008,10.801284850290669,-0.85183305109578,0.9288493749812411,0.1694141828435812,11.699358,-0.85808426,-0.5844684,0.09410907,5.7753835,-6.38142,1.6618967,0.49267727,-0.067587145,0.17854506,0.8490129,-6.886688,7.722109,-0.22839004,-0.85183305,0.9288494,0.16941418,0
1.2000000000000008,10.633220743287993,-0.8881981653036856,-0.6196347550651506,0.2557851085185813,11.686497,-0.9940307,-0.25886625,0.16455118,5.706548,-6.303999,1.6596229,0.49083108,-0.07347592,0.17727074,0.84985954,-6.8805685,7.7621975,-0.22637993,-0.85183305,0.9288494,0.16941418,0
1.2100000000000009,10.633220743287993,-0.8881981653036856,-0.6196347550651506,0.2557851085185813,11.686497,-0.9940307,-0.25886625,0.16455118,5.637768,-6.2261796,1.6573616,0.48995948,-0.07279483,0.17206709,0.851489,-6.8755236,7.801544,-0.22582501,-0.88819814,-0.61963475,0.2557851,0
1.2200000000000009,10.633220743287993,-0.8881981653036856,-0.6196347550651506,0.2557851085185813,11.686497,-0.9940307,-0.25886625,0.16455118,5.5690365,-6.147971,1.6551079,0.4890727,-0.072111495,0.16685812,0.8530921,-6.870955,7.839924,-0.22486654,-0.88819814,-0.61963475,0.2557851,0
1.2300000000000009,10.633220743287993,-0.8881981653036856,-0.6196347550651506,0.2557851085185813,11.686497,-0.9940307,-0.25886625,0.16455118,5.5003476,-6.0693836,1.6528656,0.4881708,-0.07142592,0.16164398,0.8546688,-6.86686,7.8773303,-0.22351581,-0.88819814,-0.61963475,0.2557851,0
1.2400000000000009,10.633220743287993,-0.8881981653036856,-0.6196347550651506,0.2557851085185813,11.757813,-1.1507742,-0.7455526,0.24648592,5.4316974,-5.9904275,1.6506388,0.4872538,-0.070738144,0.15642484,0.85621905,-6.8632374,7.9137573,-0.22178411,-0.88819814,-0.61963475,0.2557851,0
1.2500000000000009,10.633220743287993,-0.8881981653036856,-0.6196347550651506,0.2557851085185813,11.757813,-1.1507742,-0.7455526,0.24648592,5.3630805,-5.911112,1.6484313,0.4863217,-0.07004817,0.15120085,0.8577428,-6.8600845,7.9492,-0.21968287,-0.88819814,-0.61963475,0.2557851,0
1.260000000000001,10.633220743287993,-0.8881981653036856,-0.6196347550651506,0.2557851085185813,11.757813,-1.1507742,-0.7455526,0.24648592,5.294493,-5.8314466,1.6462464,0.48537454,-0.06935603,0.14597219,0.85924,-6.8573995,7.983654,-0.21722353,-0.88819814,-0.61963475,0.2557851,0
1.270000000000001,10.633220743287993,-0.8881981653036856,-0.6196347550651506,0.2557851085185813,11.757813,-1.1507742,-0.7455526,0.24648592,5.2259307,-5.7514415,1.644088,0.48441234,-0.06866174,0.14073901,0.86071056,-6.8551793,8.017113,-0.21441752,-0.88819814,-0.61963475,0.2557851,0
1.280000000000001,10.908181646672373,-1.0322184881357905,0.5416076286876745,0.23048958547306095,12.204672,-1.0010433,-0.6778702,0.07017776,5.1573877,-5.6711073,1.6419593,0.48343518,-0.06796533,0.13550149,0.8621544,-6.8534217,8.049571,-0.21127638,-0.88819814,-0.61963475,0.2557851,0
1.290000000000001,10.908181646672373,-1.0322184881357905,0.5416076286876745,0.23048958547306095,12.204672,-1.0010433,-0.6778702,0.07017776,5.088859,-5.5904484,1.6398765,0.48171535,-0.072637744,0.13243693,0.8632116,-6.85239,8.082196,-0.20529349,-1.0322185,0.5416076,0.23048958,0
1.300000000000001,10.908181646672373,-1.0322184881357905,0.5416076286876745,0.23048958547306095,12.204672,-1.0010433,-0.6778702,0.07017776,5.020335,-5.509464,1.6378535,0.47997853,-0.07730759,0.12936771,0.8642382,-6.8526263,8.114738,-0.19927977,-1.0322185,0.5416076,0.23048958,0
1.310000000000001,10.908181646672373,-1.0322184881357905,0.5416076286876745,0.23048958547306095,12.204672,-1.0010433,-0.6778702,0.07017776,4.9518023,-5.4281545,1.6358908,0.47822475,-0.081974715,0.12629393,0.8652343,-6.854131,8.14719,-0.1932485,-1.0322185,0.5416076,0.23048958,0
1.320000000000001,10.90477740999668,-1.0225328400737355,-0.34505172186854655,0.2971383328563089,12.475739,-0.99428636,-0.37138033,0.081327304,4.883248,-5.346521,1.6339885,0.4764541,-0.08663894,0.12321568,0.8661999,-6.856904,8.179544,-0.18721293,-1.0322185,0.5416076,0.23048958,0
1.330000000000001,10.90477740999668,-1.0225328400737355,-0.34505172186854655,0.2971383328563089,12.475739,-0.99428636,-0.37138033,0.081327304,4.8146605,-5.2645645,1.6321466,0.47492936,-0.087396055,0.118091896,0.86767364,-6.8607464,8.211494,-0.18112217,-1.0225328,-0.34505174,0.29713833,0
1.340000000000001,10.90477740999668,-1.0225328400737355,-0.34505172186854655,0.2971383328563089,12.475739,-0.99428636,-0.37138033,0.081327304,4.7460303,-5.182294,1.6303668,0.47338974,-0.08815043,0.112964414,0.8691202,-6.8653307,8.242561,-0.17479476,-1.0225328,-0.34505174,0.29713833,0
1.350000000000001,10.90477740999668,-1.0225328400737355,-0.34505172186854655,0.2971383328563089,12.475739,-0.99428636,-0.37138033,0.081327304,4.6773515,-5.0997167,1.6286514,0.47183532,-0.08890204,0.10783339,0.8705395,-6.870653,8.272741,-0.16824214,-1.0225328,-0.34505174,0.29713833,0
1.360000000000001,11.150902110207245,-1.0581291320237243,0.23640502223916204,0.263361536006443,12.636647,-1.1808544,-0.48413706,-0.0065515377,4.608615,-5.0168424,1.6270026,0.4702661,-0.08965087,0.102699,0.87193155,-6.876711,8.302028,-0.16147576,-1.0225328,-0.34505174,0.29713833,0
1.370000000000001,11.150902110207245,-1.0581291320237243,0.23640502223916204,0.263361536006443,12.636647,-1.1808544,-0.48413706,-0.0065515377,4.5398135,-4.9336753,1.6254342,0.46851492,-0.09303288,0.09875825,0.87297463,-6.8837976,8.331242,-0.15219577,-1.0581292,0.23640501,0.26336154,0
1.380000000000001,11.150902110207245,-1.0581291320237243,0.23640502223916204,0.263361536006443,12.636647,-1.1808544,-0.48413706,-0.0065515377,4.470936,-4.8502183,1.6239587,0.46674916,-0.096411996,0.09481444,0.87399054,-6.8920145,8.360028,-0.14288092,-1.0581292,0.23640501,0.26336154,0
1.390000000000001,11.150902110207245,-1.0581291320237243,0.23640502223916204,0.263361536006443,12.636647,-1.1808544,-0.48413706,-0.0065515377,4.4019694,-4.7664757,1.6225766,0.46496886,-0.09978811,0.090867676,0.87497926,-6.90136,8.388381,-0.13354298,-1.0581292,0.23640501,0.26336154,0
1.400000000000001,11.108938034492452,-0.9565736409206087,-0.9358797571876358,0.3038263730022265,12.593589,-1.0955698,-0.5267822,-0.08144703,4.332904,-4.682452,1.621288,0.4631741,-0.10316111,0.086918086,0.8759407,-6.9118314,8.416295,-0.12419374,-1.0581292,0.23640501,0.26336154,0
1.410000000000001,11.108938034492452,-0.9565736409206087,-0.9358797571876358,0.3038263730022265,12.593589,-1.0955698,-0.5267822,-0.08144703,4.2637296,-4.5981526,1.6200912,0.4617459,-0.101143084,0.08071592,0.8775221,-6.9230785,8.4432955,-0.115124926,-0.95657367,-0.93587977,0.30382636,0
1.420000000000001,11.108938034492452,-0.9565736409206087,-0.9358797571876358,0.3038263730022265,12.593589,-1.0955698,-0.5267822,-0.08144703,4.1944413,-4.513591,1.6189867,0.4602959,-0.0991203,0.074509956,0.87906224,-6.9346304,8.468875,-0.10574046,-0.95657367,-0.93587977,0.30382636,0
1.430000000000001,11.108938034492452,-0.9565736409206087,-0.9358797571876358,0.3038263730022265,12.593589,-1.0955698,-0.5267822,-0.08144703,4.125036,-4.4287806,1.6179776,0.45882425,-0.09709284,0.06830048,0.88056093,-6.94648,8.493029,-0.09605894,-0.95657367,-0.93587977,0.30382636,0
1.440000000000001,11.108938034492452,-0.9565736409206087,-0.9358797571876358,0.3038263730022265,13.048762,-0.97729254,-0.40507904,-0.053338487,4.055511,-4.3437357,1.6170665,0.457331,-0.09506081,0.062087793,0.88201827,-6.958621,8.515753,-0.08609901,-0.95657367,-0.93587977,0.30382636,0
1.450000000000001,11.108938034492452,-0.9565736409206087,-0.9358797571876358,0.3038263730022265,13.048762,-0.97729254,-0.40507904,-0.053338487,3.9858632,-4.2584705,1.6162565,0.4558162,-0.09302431,0.05587218,0.883434,-6.9710464,8.53704,-0.07587938,-0.95657367,-0.93587977,0.30382636,0
1.460000000000001,11.108938034492452,-0.9565736409206087,-0.9358797571876358,0.3038263730022265,13.048762,-0.97729254,-0.40507904,-0.053338487,3.9160895,-4.1729994,1.6155497,0.45427996,-0.09098343,0.049653936,0.8848081,-6.9837503,8.556886,-0.06541877,-0.95657367,-0.93587977,0.30382636,0
1.470000000000001,11.108938034492452,-0.9565736409206087,-0.9358797571876358,0.3038263730022265,13.048762,-0.97729254,-0.40507904,-0.053338487,3.846187,-4.0873375,1.6149489,0.4527223,-0.08893826,0.043433357,0.88614064,-6.996725,8.575288,-0.054735996,-0.95657367,-0.93587977,0.30382636,0
1.480000000000001,11.267772443262587,-0.9060249219122963,-0.014141217755405524,0.28656505971890545,13.370054,-0.89931357,0.20528668,-0.16307688,3.776154,-4.0014987,1.6144557,0.45114338,-0.0868889,0.03721073,0.88743144,-7.009965,8.592242,-0.04384988,-0.95657367,-0.93587977,0.30382636,0
1.490000000000001,11.267772443262587,-0.9060249219122963,-0.014141217755405524,0.28656505971890545,13.370054,-0.89931357,0.20528668,-0.16307688,3.7059853,-3.9154954,1.61408,0.44947577,-0.08881559,0.03328275,0.88824254,-7.023864,8.608287,-0.0312901,-0.90602493,-0.014141218,0.28656507,0
1.500000000000001,11.267772443262587,-0.9060249219122963,-0.014141217755405524,0.28656505971890545,13.370054,-0.89931357,0.20528668,-0.16307688,3.635674,-3.829335,1.6138297,0.447798,-0.09074027,0.029354015,0.8890335,-7.0385747,8.6237135,-0.018747402,-0.90602493,-0.014141218,0.28656507,0
1.5100000000000011,11.267772443262587,-0.9060249219122963,-0.014141217755405524,0.28656505971890545,13.370054,-0.89931357,0.20528668,-0.16307688,3.565211,-3.7430234,1.6137049,0.44611016,-0.0926629,0.02542462,0.8898044,-7.054095,8.638517,-0.006230331,-0.90602493,-0.014141218,0.28656507,0
1.5200000000000011,11.203936797891506,-0.743571833125707,-0.5310884080659463,0.3078078995163877,13.54436,-0.65657246,0.06058351,-0.17098884,3.4945889,-3.6565669,1.613705,0.4444122,-0.09458344,0.02149465,0.8905553,-7.0704217,8.652696,0.006252584,-0.90602493,-0.014141218,0.28656507,0
1.5300000000000011,11.203936797891506,-0.743571833125707,-0.5310884080659463,0.3078078995163877,13.54436,-0.65657246,0.06058351,-0.17098884,3.4238005,-3.5699723,1.6138268,0.44274187,-0.0938367,0.017148912,0.89156,-7.087272,8.666039,0.018110411,-0.7435718,-0.5310884,0.3078079,0
1.5400000000000011,11.203936797891506,-0.743571833125707,-0.5310884080659463,0.3078078995163877,13.54436,-0.65657246,0.06058351,-0.17098884,3.3528419,-3.4832492,1.6140674,0.44106126,-0.093087785,0.012802778,0.892544,-7.104433,8.678411,0.030034166,-0.7435718,-0.5310884,0.3078079,0
1.5500000000000012,11.203936797891506,-0.743571833125707,-0.5310884080659463,0.3078078995163877,13.54436,-0.65657246,0.06058351,-0.17098884,3.2817104,-3.3964071,1.6144277,0.4393704,-0.09233671,0.008456346,0.8935072,-7.121899,8.689805,0.04201522,-0.7435718,-0.5310884,0.3078079,0
1.5600000000000012,11.182273439261923,-0.6058329939695826,-0.41384870944334773,0.28006743159621283,13.558937,-0.14358947,0.016589599,-0.11035177,3.2104027,-3.3094563,1.6149081,0.4376693,-0.09158348,0.0041097174,0.89444965,-7.139666,8.700223,0.054044954,-0.7435718,-0.5310884,0.3078079,0
1.5700000000000012,11.182273439261923,-0.6058329939695826,-0.41384870944334773,0.28006743159621283,13.558937,-0.14358947,0.016589599,-0.11035177,3.1389163,-3.222406,1.6155078,0.4361445,-0.09105196,0.0006228624,0.8952576,-7.157678,8.709716,0.06589803,-0.605833,-0.4138487,0.28006744,0
1.5800000000000012,11.182273439261923,-0.6058329939695826,-0.41384870944334773,0.28006743159621283,13.558937,-0.14358947,0.016589599,-0.11035177,3.0672483,-3.1352646,1.6162262,0.43461296,-0.09051903,-0.0028640023,0.89605176,-7.1759415,8.718429,0.07777445,-0.605833,-0.4138487,0.28006744,0
1.5900000000000012,11.182273439261923,-0.6058329939695826,-0.41384870944334773,0.28006743159621283,13.558937,-0.14358947,0.016589599,-0.11035177,2.9953966,-3.0480402,1.6170634,0.43307468,-0.089984715,-0.0063508227,0.8968321,-7.194452,8.726359,0.08966868,-0.605833,-0.4138487,0.28006744,0
1.6000000000000012,11.045764707858876,-0.4605751730985135,-0.9242116780903462,0.2725133092527466,12.775726,0.05600552,-0.86969143,0.04977155,2.9233584,-2.9607403,1.6180197,0.43152973,-0.089449,-0.009837545,0.8975986,-7.2132063,8.733507,0.10157524,-0.605833,-0.4138487,0.28006744,0
1.6100000000000012,11.045764707858876,-0.4605751730985135,-0.9242116780903462,0.2725133092527466,12.775726,0.05600552,-0.86969143,0.04977155,2.8511333,-2.8733735,1.6190884,0.4300491,-0.08630705,-0.013776689,0.8985645,-7.231794,8.739666,0.11218285,-0.46057516,-0.9242117,0.2725133,0
1.6200000000000012,11.045764707858876,-0.4605751730985135,-0.9242116780903462,0.2725133092527466,12.775726,0.05600552,-0.86969143,0.04977155,2.7787237,-2.785951,1.6202638,0.4285562,-0.083162636,-0.01771544,0.8995047,-7.2501464,8.744715,0.12288772,-0.46057516,-0.9242117,0.2725133,0
1.6300000000000012,11.045764707858876,-0.4605751730985135,-0.9242116780903462,0.2725133092527466,12.775726,0.05600552,-0.86969143,0.04977155,2.7061315,-2.698483,1.6215465,0.4270511,-0.08001585,-0.021653684,0.9004194,-7.2682586,8.748651,0.13367873,-0.46057516,-0.9242117,0.2725133,0
1.6400000000000012,11.045764707858876,-0.4605751730985135,-0.9242116780903462,0.2725133092527466,12.448667,0.24611163,-1.0331149,0.061318833,2.6333592,-2.6109815,1.6229377,0.4255338,-0.07686678,-0.025591312,0.90130836,-7.286125,8.751475,0.14454477,-0.46057516,-0.9242117,0.2725133,0
1.6500000000000012,11.045764707858876,-0.4605751730985135,-0.9242116780903462,0.2725133092527466,12.448667,0.24611163,-1.0331149,0.061318833,2.5604098,-2.5234573,1.6244377,0.42400438,-0.073715515,-0.029528212,0.90217155,-7.303742,8.753189,0.15547466,-0.46057516,-0.9242117,0.2725133,0
1.6600000000000013,11.045764707858876,-0.4605751730985135,-0.9242116780903462,0.2725133092527466,12.448667,0.24611163,-1.0331149,0.061318833,2.4872854,-2.4359217,1.6260473,0.42246285,-0.070562154,-0.033464268,0.903009,-7.321103,8.753793,0.16645725,-0.46057516,-0.9242117,0.2725133,0
1.6700000000000013,11.045764707858876,-0.4605751730985135,-0.9242116780903462,0.2725133092527466,12.448667,0.24611163,-1.0331149,0.061318833,2.4139886,-2.3483856,1.6277668,0.4209093,-0.06740678,-0.03739937,0.9038207,-7.338204,8.753286,0.1774814,-0.46057516,-0.9242117,0.2725133,0
1.6800000000000013,10.926488907373638,-0.34845543318215777,-0.7127521626626636,0.2467909462633491,12.881466,-0.061307825,-1.7825134,0.25966176,2.3405223,-2.2608597,1.629597,0.41934374,-0.06424949,-0.041333403,0.90460664,-7.355041,8.751672,0.18853591,-0.46057516,-0.9242117,0.2725133,0
1.6900000000000013,10.926488907373638,-0.34845543318215777,-0.7127521626626636,0.2467909462633491,12.881466,-0.061307825,-1.7825134,0.25966176,2.2668896,-2.1733553,1.6315318,0.41796467,-0.06180676,-0.04432427,0.9052732,-7.37145,8.749072,0.1984301,-0.34845543,-0.71275216,0.24679095,0
1.7000000000000013,10.926488907373638,-0.34845543318215777,-0.7127521626626636,0.2467909462633491,12.881466,-0.061307825,-1.7825134,0.25966176,2.1930938,-2.085881,1.6335655,0.41657832,-0.059362963,-0.047314376,0.9059242,-7.387645,8.745633,0.20833316,-0.34845543,-0.71275216,0.24679095,0
1.7100000000000013,10.926488907373638,-0.34845543318215777,-0.7127521626626636,0.2467909462633491,12.881466,-0.061307825,-1.7825134,0.25966176,2.1191373,-1.9984453,1.6356984,0.41518483,-0.056918137,-0.050303664,0.9065595,-7.403622,8.741355,0.21823864,-0.34845543,-0.71275216,0.24679095,0
1.7200000000000013,10.800301939558926,-0.19751188435271036,-0.5375770722506127,0.2331358134624723,12.841124,-0.06155707,-2.1197312,0.51031667,2.0450222,-1.9110568,1.6379304,0.41378418,-0.054472335,-0.053292084,0.90717924,-7.4193797,8.7362385,0.22814003,-0.34845543,-0.71275216,0.24679095,0
1.7300000000000013,10.800301939558926,-0.19751188435271036,-0.5375770722506127,0.2331358134624723,12.841124,-0.06155707,-2.1197312,0.51031667,1.9707516,-1.8237227,1.640255,0.41252768,-0.052504443,-0.05523643,0.9077511,-7.434735,8.730448,0.23678884,-0.19751188,-0.5375771,0.23313582,0
1.7400000000000013,10.800301939558926,-0.19751188435271036,-0.5375770722506127,0.2331358134624723,12.841124,-0.06155707,-2.1197312,0.51031667,1.8963283,-1.7364496,1.6426661,0.41126725,-0.050536048,-0.05718025,0.90831417,-7.4498687,8.724079,0.24543633,-0.19751188,-0.5375771,0.23313582,0
1.7500000000000013,10.800301939558926,-0.19751188435271036,-0.5375770722506127,0.2331358134624723,12.841124,-0.06155707,-2.1197312,0.51031667,1.8217549,-1.6492431,1.6451637,0.4100029,-0.048567172,-0.059123512,0.9088686,-7.46478,8.7171335,0.2540792,-0.19751188,-0.5375771,0.23313582,0
1.7600000000000013,10.66179751780067,-0.07151615851550878,-0.5557444882632327,0.2020012174409495,11.597423,0.42591095,-0.9674166,0.19913925,1.7470336,-1.562109,1.6477476,0.40873462,-0.046597827,-0.061066214,0.90941435,-7.4794664,8.709612,0.26271412,-0.19751188,-0.5375771,0.23313582,1
1.7700000000000014,10.66179751780067,-0.07151615851550878,-0.5557444882632327,0.2020012174409495,11.597423,0.42591095,-0.9674166,0.19913925,1.6721619,-1.4750557,1.6504574,0.40762708,-0.041388646,-0.061059367,0.9101636,-7.49467,8.700955,0.27926064,0.42591095,-0.9674166,0.19913925,1
1.7800000000000014,10.66179751780067,-0.07151615851550878,-0.5557444882632327,0.2020012174409495,11.597423,0.42591095,-0.9674166,0.19913925,1.5971439,-1.3880916,1.6533332,0.40650773,-0.036178272,-0.061050758,0.9108865,-7.5087643,8.691787,0.29590902,0.42591095,-0.9674166,0.19913925,1
1.7900000000000014,10.66179751780067,-0.07151615851550878,-0.5557444882632327,0.2020012174409495,11.597423,0.42591095,-0.9674166,0.19913925,1.5219904,-1.3012217,1.6563759,0.40537664,-0.030966848,-0.06104038,0.9115831,-7.5217476,8.682109,0.31264666,0.42591095,-0.9674166,0.19913925,1
1.8000000000000014,10.34766720831598,-0.1757107006362731,0.13354426938661762,0.19793846462996023,12.219627,0.016068324,-1.7386318,0.62071145,1.4467127,-1.2144511,1.6595864,0.4042338,-0.025754528,-0.06102824,0.9122534,-7.5336165,8.671926,0.32946107,0.42591095,-0.9674166,0.19913925,0
1.8100000000000014,10.34766720831598,-0.1757107006362731,0.13354426938661762,0.19793846462996023,12.219627,0.016068324,-1.7386318,0.62071145,1.3713263,-1.1277786,1.6629033,0.40334865,-0.02677917,-0.06153423,0.9125817,-7.543669,8.662551,0.33392072,-0.17571071,0.13354427,0.19793847,0
1.8200000000000014,10.34766720831598,-0.1757107006362731,0.13354426938661762,0.19793846462996023,12.219627,0.016068324,-1.7386318,0.62071145,1.2958384,-1.0412,1.6662647,0.40246257,-0.02780375,-0.062040087,0.9129079,-7.5539484,8.653157,0.33835617,-0.17571071,0.13354427,0.19793847,0
1.8300000000000014,10.34766720831598,-0.1757107006362731,0.13354426938661762,0.19793846462996023,12.219627,0.016068324,-1.7386318,0.62071145,1.2202466,-0.95471555,1.6696703,0.40157565,-0.028828273,-0.062545806,0.91323215,-7.5644536,8.643744,0.34276697,-0.17571071,0.13354427,0.19793847,0
1.8400000000000014,10.34766720831598,-0.1757107006362731,0.13354426938661762,0.19793846462996023,12.00593,0.058224346,-1.5924276,0.5885475,1.1445485,-0.8683252,1.67312,0.4006878,-0.029852733,-0.06305139,0.9135544,-7.575185,8.634312,0.3471525,-0.17571071,0.13354427,0.19793847,0
1.8500000000000014,10.34766720831598,-0.1757107006362731,0.13354426938661762,0.19793846462996023,12.00593,0.058224346,-1.5924276,0.5885475,1.068742,-0.7820293,1.6766135,0.3997991,-0.030877126,-0.06355683,0.91387457,-7.586142,8.624859,0.35151225,-0.17571071,0.13354427,0.19793847,0
1.8600000000000014,10.34766720831598,-0.1757107006362731,0.13354426938661762,0.19793846462996023,12.00593,0.058224346,-1.5924276,0.5885475,0.9928249,-0.695828,1.6801503,0.39890954,-0.031901453,-0.06406213,0.91419286,-7.5973253,8.615386,0.3558457,-0.17571071,0.13354427,0.19793847,0
1.8700000000000014,10.34766720831598,-0.1757107006362731,0.13354426938661762,0.19793846462996023,12.00593,0.058224346,-1.5924276,0.5885475,0.91679484,-0.6097216,1.6837304,0.39801908,-0.032925706,-0.0645673,0.914509,-7.608734,8.605891,0.36015227,-0.17571071,0.13354427,0.19793847,0
1.8800000000000014,10.28651919229773,-0.05512520514174802,-0.6099335781150751,0.16889416641030738,10.714973,0.5640804,-0.29366848,0.21899563,0.84064955,-0.52371025,1.6873533,0.39712775,-0.03394989,-0.06507232,0.91482323,-7.620369,8.596375,0.3644314,-0.17571071,0.13354427,0.19793847,1
1.8900000000000015,10.28651919229773,-0.05512520514174802,-0.6099335781150751,0.16889416641030738,10.714973,0.5640804,-0.29366848,0.21899563,0.76438564,-0.43779567,1.691037,0.396124,-0.03155762,-0.06303773,0.9154863,-7.6323185,8.586575,0.3723606,0.5640804,-0.29366848,0.21899563,1
1.9000000000000015,10.28651919229773,-0.05512520514174802,-0.6099335781150751,0.16889416641030738,10.714973,0.5640804,-0.29366848,0.21899563,0.68800545,-0.35197818,1.6948007,0.39511576,-0.029164994,-0.061002426,0.91613895,-7.6436167,8.576954,0.38037762,0.5640804,-0.29366848,0.21899563,1
1.9100000000000015,10.28651919229773,-0.05512520514174802,-0.6099335781150751,0.16889416641030738,10.714973,0.5640804,-0.29366848,0.21899563,0.61151546,-0.26625597,1.698645,0.39410308,-0.026772039,-0.058966435,0.9167813,-7.6542635,8.567516,0.3884783,0.5640804,-0.29366848,0.21899563,1
1.9200000000000015,10.203367127304308,-0.03236578252723421,-0.012567188686968765,0.17386246380532255,10.841456,0.42246613,-0.36137378,0.10765435,0.53492236,-0.18062723,1.7025706,0.3930859,-0.02437878,-0.056929782,0.91741323,-7.6642594,8.558262,0.39665845,0.5640804,-0.29366848,0.21899563,1
1.9300000000000015,10.203367127304308,-0.03236578252723421,-0.012567188686968765,0.17386246380532255,10.841456,0.42246613,-0.36137378,0.10765435,0.45823193,-0.09509082,1.7065846,0.39253914,-0.021921357,-0.055688806,0.91778547,-7.6737366,8.5490265,0.4061623,0.42246613,-0.36137378,0.10765435,1
1.9400000000000015,10.203367127304308,-0.03236578252723421,-0.012567188686968765,0.17386246380532255,10.841456,0.42246613,-0.36137378,0.10765435,0.38144967,-0.0096466,1.710694,0.39198923,-0.019463757,-0.054447386,0.9181503,-7.682614,8.539822,0.41571987,0.42246613,-0.36137378,0.10765435,1
1.9500000000000015,10.203367127304308,-0.03236578252723421,-0.012567188686968765,0.17386246380532255,10.841456,0.42246613,-0.36137378,0.10765435,0.3045817,0.07570572,1.7148992,0.3914362,-0.017006,-0.05320553,0.9185078,-7.6908917,8.530647,0.42532793,0.42246613,-0.36137378,0.10765435,1
1.9600000000000015,9.974975462820984,-0.1867865415016761,-0.643720151463216,0.16065324631337155,10.719848,-0.11420816,-0.23434417,0.4809878,0.22763391,0.16096647,1.7192007,0.39088,-0.014548108,-0.051963244,0.91885793,-7.6985693,8.521507,0.43498316,0.42246613,-0.36137378,0.10765435,1
1.9700000000000015,9.974975462820984,-0.1867865415016761,-0.643720151463216,0.16065324631337155,10.719848,-0.11420816,-0.23434417,0.4809878,0.1506122,0.24613617,1.7235929,0.38859951,-0.013819586,-0.052910767,0.9197819,-7.705757,8.51239,0.44345108,-0.11420816,-0.23434417,0.4809878,1
1.9800000000000015,9.974975462820984,-0.1867865415016761,-0.643720151463216,0.16065324631337155,10.719848,-0.11420816,-0.23434417,0.4809878,0.07351906,0.33121336,1.7280697,0.38631618,-0.013090961,-0.053857896,0.920699,-7.7128572,8.503009,0.45190188,-0.11420816,-0.23434417,0.4809878,1
1.9900000000000015,9.974975462820984,-0.1867865415016761,-0.643720151463216,0.16065324631337155,10.719848,-0.11420816,-0.23434417,0.4809878,-0.0036446434,0.41619542,1.7326308,0.38402995,-0.012362238,-0.05480462,0.9216092,-7.7198687,8.493362,0.46033496,-0.11420816,-0.23434417,0.4809878,1
2.0000000000000013,9.771643730232427,-0.12836993427520513,0.5888259093797424,0.16201592147053523,10.070154,0.040133134,0.76554,0.09808138,-0.08087801,0.50107974,1.7372762,0.38174078,-0.011633422,-0.05575094,0.92251253,-7.72679,8.483453,0.46874976,-0.11420816,-0.23434417,0.4809878,1
2.010000000000001,9.771643730232427,-0.12836993427520513,0.5888259093797424,0.16201592147053523,10.070154,0.040133134,0.76554,0.09808138,-0.15817872,0.5858676,1.7419735,0.3815013,-0.015115166,-0.054098517,0.9226595,-7.733432,8.474204,0.47070515,0.040133134,0.76554,0.09808138,1
2.020000000000001,9.771643730232427,-0.12836993427520513,0.5888259093797424,0.16201592147053523,10.070154,0.040133134,0.76554,0.09808138,-0.23554845,0.6705658,1.7466905,0.38125607,-0.018596685,-0.05244529,0.9227927,-7.740592,8.465528,0.47267616,0.040133134,0.76554,0.09808138,1
2.0300000000000007,9.771643730232427,-0.12836993427520513,0.5888259093797424,0.16201592147053523,10.070154,0.040133134,0.76554,0.09808138,-0.31299236,0.75518006,1.7514272,0.38100514,-0.022077926,-0.05079127,0.9229121,-7.748269,8.457423,0.47465676,0.040133134,0.76554,0.09808138,1
2.0400000000000005,9.771643730232427,-0.12836993427520513,0.5888259093797424,0.16201592147053523,10.070154,0.040133134,0.76554,0.09808138,-0.39051563,0.8397162,1.7561836,0.3807485,-0.025558837,-0.049136497,0.92301774,-7.756465,8.449891,0.47664097,0.040133134,0.76554,0.09808138,1
2.0500000000000003,9.771643730232427,-0.12836993427520513,0.5888259093797424,0.16201592147053523,9.762158,0.052639935,0.8661107,0.15299495,-0.46812347,0.92417985,1.7609599,0.38048625,-0.029039366,-0.047480993,0.92310965,-7.765178,8.442931,0.47862282,0.040133134,0.76554,0.09808138,1
2.06,9.771643730232427,-0.12836993427520513,0.5888259093797424,0.16201592147053523,9.762158,0.052639935,0.8661107,0.15299495,-0.54581964,1.0085778,1.7657408,0.37998968,-0.032972828,-0.045567647,0.9232785,-7.7741504,8.436769,0.47753534,0.052639935,0.8661107,0.15299495,1
2.07,9.771643730232427,-0.12836993427520513,0.5888259093797424,0.16201592147053523,9.762158,0.052639935,0.8661107,0.15299495,-0.62360835,1.0929174,1.7705106,0.37948573,-0.036905646,-0.043653414,0.9234294,-7.783686,8.431237,0.4764322,0.052639935,0.8661107,0.15299495,1
2.0799999999999996,9.771643730232427,-0.12836993427520513,0.5888259093797424,0.16201592147053523,9.762158,0.052639935,0.8661107,0.15299495,-0.7014953,1.1772047,1.7752694,0.3789744,-0.04083775,-0.04173833,0.9235624,-7.7937856,8.426338,0.47530597,0.052639935,0.8661107,0.15299495,1
2.0899999999999994,9.705477436279745,-0.07191811210778778,-1.0561206211224443,0.16664439271737233,9.7010765,-0.055013496,-0.37485844,0.34726098,-0.779486,1.2614462,1.7800168,0.37845573,-0.04476906,-0.03982244,0.92367744,-7.8044496,8.4220705,0.47414917,0.052639935,0.8661107,0.15299495,1
2.099999999999999,9.705477436279745,-0.07191811210778778,-1.0561206211224443,0.16664439271737233,9.7010765,-0.055013496,-0.37485844,0.34726098,-0.85758495,1.3456473,1.7847494,0.37676373,-0.043210916,-0.040707987,0.9244045,-7.815315,8.418111,0.47236824,-0.055013496,-0.37485844,0.34726098,1
