time-since-start [s],throttle_mpc,roll_mpc,pitch_mpc,yaw_mpc,throttle_nw,roll_nw,pitch_nw,yaw_nw,position_x [m],position_y [m],position_z [m],rotation_w [quaternion],rotation_x [quaternion],rotation_y [quaternion],rotation_z [quaternion],velocity_x [m/s],velocity_y [m/s],velocity_z [m/s],omega_x [rad/s],omega_y [rad/s],omega_z [rad/s],network_used
0.0,11.21235951446764,4.914360220554082,-5.999999797230947,-0.8912971009028376,11.697166,1.1312047,-5.081798,0.23426332,16.431948,-10.32544,2.2111633,0.22895765,-0.3313849,0.37167704,0.8364321,-9.0667515,0.028760467,-0.25358528,0.6673183,-0.1480343,-0.055026308,0
0.01,11.21235951446764,4.914360220554082,-5.999999797230947,-0.8912971009028376,13.702646,0.82594097,-5.303361,-0.25216648,16.34103,-10.324642,2.2084692,0.23167808,-0.32833454,0.37474802,0.83551526,-9.116746,0.13038023,-0.28566113,1.1325947,-0.8636694,-0.07841107,0
0.02,11.21235951446764,4.914360220554082,-5.999999797230947,-0.8912971009028376,13.702646,0.82594097,-5.303361,-0.25216648,16.249628,-10.322843,2.2054427,0.236514,-0.321934,0.37885836,0.8347971,-9.163462,0.22911474,-0.32000068,1.573341,-1.5157678,-0.1049459,0
0.03,11.21235951446764,4.914360220554082,-5.999999797230947,-0.8912971009028376,13.702646,0.82594097,-5.303361,-0.25216648,16.157778,-10.320068,2.202063,0.2433084,-0.3124383,0.38393044,0.8341348,-9.206204,0.32531622,-0.35616165,1.9904704,-2.1113274,-0.13421579,0
0.04,11.21235951446764,4.914360220554082,-5.999999797230947,-0.8912971009028376,13.003379,1.4148519,-5.496284,-0.019428205,16.065521,-10.316343,2.1983144,0.25190565,-0.30006433,0.38987216,0.83336955,-9.244396,0.41925338,-0.39380464,2.3849978,-2.6564972,-0.16584782,0
0.05,11.21235951446764,4.914360220554082,-5.999999797230947,-0.8912971009028376,13.003379,1.4148519,-5.496284,-0.019428205,15.972907,-10.31169,2.1941829,0.26215163,-0.2849987,0.39658073,0.83233184,-9.27756,0.51110995,-0.43268263,2.7580004,-3.156688,-0.19950712,0
0.060000000000000005,11.21235951446764,4.914360220554082,-5.999999797230947,-0.8912971009028376,13.003379,1.4148519,-5.496284,-0.019428205,15.879987,-10.306124,2.1896596,0.2738736,-0.26743287,0.4039316,0.8308504,-9.305669,0.6022334,-0.4718233,3.094147,-3.6002123,-0.23345345,0
0.07,11.21235951446764,4.914360220554082,-5.999999797230947,-0.8912971009028376,13.003379,1.4148519,-5.496284,-0.019428205,15.786811,-10.299642,2.1847494,0.28681606,-0.24766544,0.41173664,0.8287771,-9.328681,0.69421875,-0.510103,3.377868,-3.9745717,-0.26573405,0
0.08,12.895121484296059,4.296356346858758,-5.999999816563885,-0.762335840659624,13.985437,1.0571764,-5.6274886,0.19906974,15.693433,-10.292236,2.1794605,0.30072576,-0.22599356,0.41981035,0.8259845,-9.346017,0.78689533,-0.5475449,3.6173427,-4.2905498,-0.2964306,0
0.09,12.895121484296059,4.296356346858758,-5.999999816563885,-0.762335840659624,13.985437,1.0571764,-5.6274886,0.19906974,15.599903,-10.283833,2.1738472,0.3153147,-0.20274487,0.42779317,0.82247454,-9.358868,0.89398736,-0.57500255,3.7231157,-4.557214,-0.3192927,0
0.09999999999999999,12.895121484296059,4.296356346858758,-5.999999816563885,-0.762335840659624,13.985437,1.0571764,-5.6274886,0.19906974,15.506282,-10.274357,2.1679633,0.33034495,-0.17820624,0.43539613,0.8182574,-9.36422,1.001191,-0.6016708,3.8123977,-4.782288,-0.34103295,0
0.10999999999999999,12.895121484296059,4.296356346858758,-5.999999816563885,-0.762335840659624,13.985437,1.0571764,-5.6274886,0.19906974,15.412645,-10.263809,2.1618161,0.34567603,-0.15256438,0.44256654,0.8132449,-9.361761,1.1080538,-0.6276753,3.8877616,-4.9722586,-0.36170638,0
0.11999999999999998,12.895121484296059,4.296356346858758,-5.999999816563885,-0.762335840659624,13.985437,1.0571764,-5.6274886,0.19906974,15.319075,-10.252197,2.1554117,0.3611835,-0.12598471,0.4492599,0.80736613,-9.351256,1.2140895,-0.65318584,3.9513786,-5.1326,-0.3813654,0
0.12999999999999998,16.309269762829633,1.8733336309645445,-5.999999685472066,0.4017292416149297,14.701898,-0.115134686,-4.965653,0.07889388,15.225649,-10.2395315,2.1487534,0.3767565,-0.09861478,0.45543885,0.8005657,-9.332542,1.3187875,-0.67840904,4.00508,-5.2679324,-0.40005973,0
0.13999999999999999,16.309269762829633,1.8733336309645445,-5.999999685472066,0.4017292416149297,14.701898,-0.115134686,-4.965653,0.07889388,15.132485,-10.225691,2.14194,0.39209953,-0.07089266,0.46031767,0.7933097,-9.298426,1.4488264,-0.68422586,3.6727436,-5.381917,-0.3607157,0
0.15,16.309269762829633,1.8733336309645445,-5.999999685472066,0.4017292416149297,14.701898,-0.115134686,-4.965653,0.07889388,15.039714,-10.210566,2.1350694,0.40700433,-0.043189175,0.46330148,0.7860244,-9.254151,1.5756937,-0.68994135,3.3922374,-5.478158,-0.3233023,0
0.16,17.7601405880671,-0.45838965021141664,-5.999999335028119,1.1773611098552241,14.967208,-1.9978429,-2.9960828,0.38435784,14.947435,-10.194191,2.1281419,0.42149037,-0.015532593,0.46461657,0.7786119,-9.200123,1.698623,-0.69552076,3.1554773,-5.5594153,-0.2877248,0
0.17,17.7601405880671,-0.45838965021141664,-5.999999335028119,1.1773611098552241,14.967208,-1.9978429,-2.9960828,0.38435784,14.855771,-10.176557,2.1212008,0.43548882,0.011700004,0.46373418,0.7714686,-9.131163,1.8274243,-0.6926898,2.5921476,-5.627896,-0.2158326,0
0.18000000000000002,17.7601405880671,-0.45838965021141664,-5.999999335028119,1.1773611098552241,14.967208,-1.9978429,-2.9960828,0.38435784,14.764845,-10.157662,2.11429,0.4489719,0.038200013,0.46026468,0.76493263,-9.052845,1.9503815,-0.68939507,2.1166632,-5.6857634,-0.14746818,0
0.19000000000000003,17.7601405880671,-0.45838965021141664,-5.999999335028119,1.1773611098552241,14.967208,-1.9978429,-2.9960828,0.38435784,14.674745,-10.13757,2.1074157,0.46199042,0.06404106,0.45456535,0.7588375,-8.965979,2.0667875,-0.6853324,1.7153234,-5.7346563,-0.08245844,0
0.20000000000000004,17.68401820959426,-1.9414574934020654,-5.8280014641309625,1.4003327858181285,14.35964,-4.3092146,-0.82684124,0.7272382,14.585551,-10.116351,2.1005867,0.47457322,0.08928751,0.44693318,0.75303334,-8.871307,2.1760242,-0.68029124,1.3765646,-5.7759624,-0.02063873,0
0.21000000000000005,17.68401820959426,-1.9414574934020654,-5.8280014641309625,1.4003327858181285,14.35964,-4.3092146,-0.82684124,0.7272382,14.49734,-10.09408,2.0938118,0.4867416,0.11367119,0.43720236,0.7476738,-8.76999,2.2771084,-0.67455983,0.85938364,-5.784031,0.049088754,0
0.22000000000000006,17.68401820959426,-1.9414574934020654,-5.8280014641309625,1.4003327858181285,14.35964,-4.3092146,-0.82684124,0.7272382,14.410173,-10.070838,2.0871005,0.49852395,0.13697709,0.42526156,0.7428757,-8.662482,2.3700128,-0.6674211,0.4228445,-5.790883,0.115394704,0
0.23000000000000007,17.68401820959426,-1.9414574934020654,-5.8280014641309625,1.4003327858181285,14.35964,-4.3092146,-0.82684124,0.7272382,14.324108,-10.04671,2.0804687,0.50993246,0.15932812,0.41141,0.73846173,-8.549636,2.4542997,-0.65863067,0.054371588,-5.7966967,0.178447,0
0.24000000000000007,17.68401820959426,-1.9414574934020654,-5.8280014641309625,1.4003327858181285,13.734909,-5.0811806,1.3290753,1.1218823,14.239196,-10.021783,2.0739338,0.52096474,0.18082772,0.39589798,0.7342768,-8.432232,2.5295844,-0.6480444,-0.25664952,-5.8016243,0.23840529,0
0.25000000000000006,17.68401820959426,-1.9414574934020654,-5.8280014641309625,1.4003327858181285,13.734909,-5.0811806,1.3290753,1.1218823,14.155478,-9.996149,2.0675142,0.531609,0.20156217,0.37893632,0.7301866,-8.310999,2.5955286,-0.6356088,-0.519178,-5.8057976,0.29542142,0
0.26000000000000006,17.68401820959426,-1.9414574934020654,-5.8280014641309625,1.4003327858181285,13.734909,-5.0811806,1.3290753,1.1218823,14.072988,-9.969905,2.061228,0.5418474,0.2216028,0.36070392,0.72607636,-8.186622,2.6518357,-0.6213513,-0.7407756,-5.809329,0.34963974,0
0.2700000000000001,17.68401820959426,-1.9414574934020654,-5.8280014641309625,1.4003327858181285,13.734909,-5.0811806,1.3290753,1.1218823,13.991755,-9.943147,2.055093,0.5516587,0.24100794,0.34135365,0.72184914,-8.059752,2.6982496,-0.6053715,-0.92782515,-5.8123145,0.40119758,0
0.2800000000000001,16.195215041316867,-3.430687306833921,-0.8468463041037316,1.796410465586061,13.477033,-4.9727855,3.2176976,1.1998044,13.911799,-9.915975,2.0491257,0.56101996,0.25982475,0.3210172,0.71742326,-7.9310145,2.7345538,-0.5878322,-1.0857142,-5.8148365,0.45022547,0
0.2900000000000001,16.195215041316867,-3.430687306833921,-0.8468463041037316,1.796410465586061,13.477033,-4.9727855,3.2176976,1.1998044,13.833083,-9.888502,2.0432916,0.56942487,0.27635232,0.30050346,0.71350044,-7.812008,2.758515,-0.57876253,-1.4514196,-5.04025,0.51628315,0
0.3000000000000001,16.195215041316867,-3.430687306833921,-0.8468463041037316,1.796410465586061,13.477033,-4.9727855,3.2176976,1.1998044,13.75556,-9.860833,2.0375547,0.57659286,0.28928387,0.2805172,0.71075046,-7.6927695,2.7739496,-0.5683856,-1.7601237,-4.386466,0.5790993,0
0.3100000000000001,16.195215041316867,-3.430687306833921,-0.8468463041037316,1.796410465586061,13.477033,-4.9727855,3.2176976,1.1998044,13.679227,-9.833048,2.031929,0.582779,0.2991805,0.2610057,0.709039,-7.5741115,2.7817848,-0.55656266,-2.0207047,-3.8346407,0.63883305,0
0.3200000000000001,15.161139270090331,-4.155578552596315,5.696464938953512,2.2692246523262356,13.137192,-5.444665,5.469441,1.2663814,13.6040745,-9.805221,2.0264292,0.58817166,0.30651084,0.2419097,0.70822704,-7.456684,2.7828135,-0.54315144,-2.2406583,-3.36887,0.6956357,0
0.3300000000000001,15.161139270090331,-4.155578552596315,5.696464938953512,2.2692246523262356,13.137192,-5.444665,5.469441,1.2663814,13.530082,-9.777413,2.0210657,0.59248894,0.30968204,0.22420481,0.70907456,-7.3428493,2.7779574,-0.5297231,-2.6208446,-2.0364747,0.76556975,0
0.34000000000000014,15.161139270090331,-4.155578552596315,5.696464938953512,2.2692246523262356,13.137192,-5.444665,5.469441,1.2663814,13.457198,-9.749676,2.015832,0.5954833,0.30744436,0.20886317,0.7122179,-7.2344613,2.7690847,-0.51710284,-2.8975654,-0.86763704,0.8360256,0
0.35000000000000014,15.161139270090331,-4.155578552596315,5.696464938953512,2.2692246523262356,13.137192,-5.444665,5.469441,1.2663814,13.385372,-9.722038,2.0107238,0.5972908,0.30060422,0.19578654,0.71732074,-7.131355,2.758004,-0.5042401,-3.0969572,0.15313594,0.9061058,0
0.36000000000000015,13.943748568306418,-4.991534294676993,5.999999607741586,1.140150120789323,13.236064,-5.922104,6.0756993,1.3915734,13.314559,-9.694519,2.0057576,0.5980424,0.2898349,0.1847175,0.7240311,-7.031871,2.745998,-0.48857307,-3.2626007,1.0173756,0.97299445,1
0.37000000000000016,13.943748568306418,-4.991534294676993,5.999999607741586,1.140150120789323,13.236064,-5.922104,6.0756993,1.3915734,13.244659,-9.667111,2.00089,0.5981066,0.27516767,0.17490944,0.7320919,-6.948438,2.735755,-0.4844402,-3.677864,1.7941014,0.9935342,1
0.38000000000000017,13.943748568306418,-4.991534294676993,5.999999607741586,1.140150120789323,13.236064,-5.922104,6.0756993,1.3915734,13.175575,-9.639802,1.99608,0.59773165,0.25663885,0.1657352,0.74120563,-6.8690305,2.726623,-0.47705165,-4.028307,2.449731,1.013066,1
0.3900000000000002,13.943748568306418,-4.991534294676993,5.999999607741586,1.140150120789323,13.236064,-5.922104,6.0756993,1.3915734,13.107262,-9.612574,1.9913613,0.5968522,0.23477921,0.15704861,0.75098765,-6.794309,2.71932,-0.46615893,-4.324044,3.0031464,1.0316395,1
0.4000000000000002,14.23384776397446,-4.54847775638081,5.999999722725998,0.6125416115204939,13.324999,-5.719219,6.2849836,1.666027,13.03967,-9.585406,1.9867693,0.5953952,0.21004276,0.14872622,0.76109636,-6.72492,2.714435,-0.45166877,-4.573614,3.4702837,1.0493015,0
0.4100000000000002,14.23384776397446,-4.54847775638081,5.999999722725998,0.6125416115204939,13.324999,-5.719219,6.2849836,1.666027,12.972767,-9.558275,1.9823836,0.5932558,0.18313722,0.14110683,0.7711016,-6.6566796,2.7123048,-0.42489457,-4.56991,3.864858,1.0278695,0
0.4200000000000002,14.23384776397446,-4.54847775638081,5.999999722725998,0.6125416115204939,13.324999,-5.719219,6.2849836,1.666027,12.906513,-9.531149,1.9782835,0.59039074,0.15465984,0.13446654,0.78066534,-6.5952663,2.713763,-0.39461747,-4.5667353,4.197895,1.0074893,0
0.4300000000000002,14.23384776397446,-4.54847775638081,5.999999722725998,0.6125416115204939,13.324999,-5.719219,6.2849836,1.666027,12.8408375,-9.503987,1.974502,0.5868121,0.12483015,0.12862489,0.78963614,-6.5410514,2.719195,-0.36124408,-4.564016,4.4789915,0.9881092,0
0.4400000000000002,14.23384776397446,-4.54847775638081,5.999999722725998,0.6125416115204939,13.231362,-4.5471354,6.3737583,1.0240687,12.775666,-9.47675,1.9710677,0.5825261,0.09384489,0.12342922,0.79788613,-6.494389,2.7288942,-0.3252463,-4.561689,4.716248,0.96968,0
0.45000000000000023,14.23384776397446,-4.54847775638081,5.999999722725998,0.6125416115204939,13.231362,-4.5471354,6.3737583,1.0240687,12.710922,-9.449393,1.9680041,0.57753557,0.06188155,0.11875071,0.8053087,-6.4556093,2.7430737,-0.28715384,-4.559699,4.9165015,0.9521551,0
0.46000000000000024,14.23384776397446,-4.54847775638081,5.999999722725998,0.6125416115204939,13.231362,-4.5471354,6.3737583,1.0240687,12.646525,-9.421873,1.9653298,0.571842,0.029101219,0.11448085,0.8118156,-6.4250097,2.7618701,-0.2475463,-4.5579987,5.085523,0.93549013,0
0.47000000000000025,14.23384776397446,-4.54847775638081,5.999999722725998,0.6125416115204939,13.231362,-4.5471354,6.3737583,1.0240687,12.582393,-9.394141,1.9630563,0.56544614,-0.0043491563,0.11052851,0.8173346,-6.4028497,2.7853518,-0.20704502,-4.556546,5.228183,0.9196429,0
0.48000000000000026,15.539658383112954,-3.0752013548119046,5.999999655858647,1.0037818020360425,13.757481,-3.5562763,6.453488,0.6336815,12.518438,-9.366151,1.9611897,0.5583493,-0.038334902,0.106817275,0.82180727,-6.389346,2.8135235,-0.16630504,-4.5553074,5.3485923,0.9045733,0
0.49000000000000027,15.539658383112954,-3.0752013548119046,5.999999655858647,1.0037818020360425,13.757481,-3.5562763,6.453488,0.6336815,12.454579,-9.33784,1.9597924,0.55054796,-0.072399996,0.103771806,0.82515895,-6.384201,2.8493574,-0.11331458,-4.324563,5.4503007,0.9094416,0
0.5000000000000002,15.539658383112954,-3.0752013548119046,5.999999655858647,1.0037818020360425,13.757481,-3.5562763,6.453488,0.6336815,12.390723,-9.309146,1.958919,0.54207635,-0.106175,0.10173342,0.827364,-6.3885345,2.8902543,-0.061589144,-4.1297927,5.536129,0.9140709,0
0.5100000000000002,15.539658383112954,-3.0752013548119046,5.999999655858647,1.0037818020360425,13.757481,-3.5562763,6.453488,0.6336815,12.326777,-9.280019,1.9585536,0.5329821,-0.13965963,0.10052903,0.8284443,-6.4021425,2.9361734,-0.011887307,-3.965389,5.6085553,0.918473,0
0.5200000000000002,16.608932136447184,-1.2780333724227733,5.999999358534633,1.1883991815293729,15.213528,-2.067641,6.7051606,0.44063136,12.26265,-9.250406,1.9586718,0.52330136,-0.1728472,0.10001089,0.828419,-6.424815,2.9870193,0.035063975,-3.8266168,5.669673,0.92265916,0
0.5300000000000002,16.608932136447184,-1.2780333724227733,5.999999358534633,1.1883991815293729,15.213528,-2.067641,6.7051606,0.44063136,12.19824,-9.220243,1.9592918,0.51317966,-0.2053513,0.10065376,0.82725275,-6.4584556,3.046498,0.0883125,-3.4292462,5.7213964,0.9356991,0
0.5400000000000003,16.608932136447184,-1.2780333724227733,5.999999358534633,1.1883991815293729,15.213528,-2.067641,6.7051606,0.44063136,12.13345,-9.189459,1.960423,0.50277215,-0.23687442,0.10282937,0.82494706,-6.5009484,3.11107,0.13718568,-3.0938392,5.765023,0.94809914,0
0.5500000000000003,16.608932136447184,-1.2780333724227733,5.999999358534633,1.1883991815293729,15.213528,-2.067641,6.7051606,0.44063136,12.068193,-9.158004,1.9620183,0.49210823,-0.26752192,0.10628037,0.8215637,-6.5516896,3.1806905,0.18105347,-2.8107328,5.8018208,0.9598908,0
0.5600000000000003,17.039490205754362,0.12350944575461045,5.999997606002857,1.039624220905486,18.085423,0.1709818,4.7102222,0.9820039,12.002391,-9.125828,1.9640247,0.48120326,-0.297377,0.110786945,0.81715214,-6.61013,3.2552645,0.21933618,-2.5717711,5.8328567,0.9711038,0
0.5700000000000003,17.039490205754362,0.12350944575461045,5.999997606002857,1.039624220905486,18.085423,0.1709818,4.7102222,0.9820039,11.935959,-9.092871,1.9664007,0.47025245,-0.32624015,0.11661391,0.8116848,-6.6774273,3.336728,0.25487772,-2.151473,5.859183,0.97446615,0
0.5800000000000003,17.039490205754362,0.12350944575461045,5.999997606002857,1.039624220905486,18.085423,0.1709818,4.7102222,0.9820039,11.86882,-9.059074,1.9690989,0.4594335,-0.35396427,0.12395597,0.80514973,-6.751347,3.423107,0.2836646,-1.796717,5.8813643,0.9776635,0
0.5900000000000003,17.039490205754362,0.12350944575461045,5.999997606002857,1.039624220905486,18.085423,0.1709818,4.7102222,0.9820039,11.800912,-9.02439,1.9720495,0.4487198,-0.38067508,0.13254413,0.7976027,-6.8311706,3.5143507,0.305267,-1.4972824,5.9000525,0.98070395,0
0.6000000000000003,15.917108651896056,1.2325890694213244,3.1089851431212665,0.9310902798054791,17.919554,1.4764962,3.386817,0.69763714,11.732179,-8.98877,1.9751784,0.43807936,-0.40647215,0.1421492,0.789089,-6.91625,3.6103542,0.3192864,-1.244542,5.9157977,0.9835952,0
0.6100000000000003,15.917108651896056,1.2325890694213244,3.1089851431212665,0.9310902798054791,17.919554,1.4764962,3.386817,0.69763714,11.6626005,-8.952199,1.9783733,0.42785162,-0.43034303,0.15242064,0.7800749,-7.0000367,3.7043066,0.31855893,-0.8579454,5.478326,0.9810188,0
0.6200000000000003,15.917108651896056,1.2325890694213244,3.1089851431212665,0.9310902798054791,17.919554,1.4764962,3.386817,0.69763714,11.592167,-8.914669,1.9815247,0.4183628,-0.4515423,0.16309144,0.7710281,-7.0873284,3.8021863,0.31062233,-0.5316836,5.109038,0.97856873,0
0.6300000000000003,15.917108651896056,1.2325890694213244,3.1089851431212665,0.9310902798054791,17.919554,1.4764962,3.386817,0.69763714,11.520845,-8.8761425,1.9845619,0.40954915,-0.47049573,0.17409134,0.76196885,-7.1773577,3.9036517,0.29576916,-0.25634032,4.7973065,0.97623897,0
0.6400000000000003,15.917108651896056,1.2325890694213244,3.1089851431212665,0.9310902798054791,18.689827,2.4623451,1.9076468,0.69131535,11.448613,-8.836585,1.9874173,0.4013415,-0.48755598,0.18535875,0.7528993,-7.269482,4.0084214,0.27426863,-0.02396889,4.5341616,0.9740235,0
0.6500000000000004,15.917108651896056,1.2325890694213244,3.1089851431212665,0.9310902798054791,18.689827,2.4623451,1.9076468,0.69131535,11.375451,-8.795963,1.9900254,0.39367005,-0.50301474,0.19683991,0.74381125,-7.363166,4.1162543,0.24636082,0.17213742,4.3120303,0.9719168,0
0.6600000000000004,15.917108651896056,1.2325890694213244,3.1089851431212665,0.9310902798054791,18.689827,2.4623451,1.9076468,0.69131535,11.301347,-8.75425,1.9923233,0.38646725,-0.51711357,0.20848817,0.7346907,-7.457955,4.226942,0.212255,0.3376384,4.1245203,0.9699134,0
0.6700000000000004,15.917108651896056,1.2325890694213244,3.1089851431212665,0.9310902798054791,18.689827,2.4623451,1.9076468,0.69131535,11.22629,-8.711415,1.9942498,0.37966955,-0.5300523,0.22026302,0.7255211,-7.553464,4.340296,0.17213017,0.47731036,3.9662359,0.9680084,0
0.6800000000000004,14.882790348195133,1.546278610966745,-1.685715555393546,1.0014379212181537,18.243147,1.9657106,-0.47511137,0.51451856,11.150276,-8.667436,1.9957457,0.3732184,-0.5419965,0.2321295,0.7162854,-7.649364,4.4561415,0.12613755,0.5951843,3.8326218,0.9661968,0
0.6900000000000004,14.882790348195133,1.546278610966745,-1.685715555393546,1.0014379212181537,18.243147,1.9657106,-0.47511137,0.51451856,11.073334,-8.622323,1.9967377,0.3675843,-0.55167776,0.24344558,0.70800334,-7.7391114,4.5666084,0.07151284,0.74404466,2.9721346,0.9679261,0
0.7000000000000004,14.882790348195133,1.546278610966745,-1.685715555393546,1.0014379212181537,18.243147,1.9657106,-0.47511137,0.51451856,10.995495,-8.576097,1.9971611,0.36318696,-0.55815685,0.2537316,0.7015537,-7.828573,4.6789155,0.01255653,0.86960775,2.2458253,0.9695705,0
0.7100000000000004,14.882790348195133,1.546278610966745,-1.685715555393546,1.0014379212181537,18.243147,1.9657106,-0.47511137,0.51451856,10.916764,-8.528738,1.9969777,0.35989022,-0.56198364,0.26316997,0.69670373,-7.917427,4.792797,-0.049700305,0.9755194,1.6327715,0.9711343,0
0.7200000000000004,13.965867891592032,1.2712616398173409,-5.9999971088754,0.9844705745238552,16.493706,1.9023825,-4.361995,0.53908914,10.837149,-8.480234,1.996159,0.35756123,-0.56360257,0.27190623,0.69323164,-8.005422,4.9080753,-0.11437709,1.0648549,1.1153127,0.9726213,0
0.7300000000000004,13.965867891592032,1.2712616398173409,-5.9999971088754,0.9844705745238552,16.493706,1.9023825,-4.361995,0.53908914,10.756685,-8.430608,1.9946749,0.35649043,-0.56222075,0.27936512,0.6919382,-8.086988,5.017424,-0.1825783,1.0977464,0.005705118,0.97320276,0
0.7400000000000004,13.965867891592032,1.2712616398173409,-5.9999971088754,0.9844705745238552,16.493706,1.9023825,-4.361995,0.53908914,10.675412,-8.379883,1.9925069,0.35690603,-0.55721873,0.28509375,0.693432,-8.167346,5.127714,-0.25095943,1.1253995,-0.9308631,0.97375566,0
0.7500000000000004,13.965867891592032,1.2712616398173409,-5.9999971088754,0.9844705745238552,16.493706,1.9023825,-4.361995,0.53908914,10.593344,-8.328051,1.9896595,0.35858914,-0.54913867,0.28935134,0.6972355,-8.24629,5.238717,-0.3182312,1.1486483,-1.7213768,0.97428143,0
0.7600000000000005,13.122438183752553,0.7670603365271292,-5.999999707068798,0.4768880980700095,14.1504545,1.6667291,-5.6834784,0.01883817,10.510492,-8.275106,1.9861497,0.3613331,-0.53841174,0.29234254,0.70291394,-8.323611,5.3502297,-0.38331544,1.1681936,-2.3886125,0.97478145,0
0.7700000000000005,13.122438183752553,0.7670603365271292,-5.999999707068798,0.4768880980700095,14.1504545,1.6667291,-5.6834784,0.01883817,10.4269,-8.221079,1.981993,0.3648845,-0.5254785,0.2940548,0.71011585,-8.394539,5.4552903,-0.44749865,1.1059481,-2.9518633,0.9503496,0
0.7800000000000005,13.122438183752553,0.7670603365271292,-5.999999707068798,0.4768880980700095,14.1504545,1.6667291,-5.6834784,0.01883817,10.342608,-8.166,1.977212,0.3690324,-0.5107031,0.2944762,0.718528,-8.463581,5.5603867,-0.50809705,1.0533413,-3.427267,0.92711675,0
0.7900000000000005,13.122438183752553,0.7670603365271292,-5.999999707068798,0.4768880980700095,14.1504545,1.6667291,-5.6834784,0.01883817,10.257636,-8.109872,1.9718451,0.37365526,-0.4943047,0.29375815,0.7278406,-8.530569,5.6652503,-0.56455225,1.0088832,-3.8285246,0.90502393,0
0.8000000000000005,13.126627984433032,-0.015796749623332787,-5.999999808384129,0.472378476381724,14.05188,0.1426528,-5.947491,0.26248524,10.172005,-8.052697,1.9659367,0.37864342,-0.47646806,0.29202753,0.7377862,-8.59531,5.7696013,-0.61642295,0.9713138,-4.1672006,0.8840152,1
0.8100000000000005,13.126627984433032,-0.015796749623332787,-5.999999808384129,0.472378476381724,14.05188,0.1426528,-5.947491,0.26248524,10.085717,-7.994446,1.9595516,0.38379547,-0.4574697,0.28920236,0.7481883,-8.662018,5.880473,-0.6597492,0.8421563,-4.444927,0.8535166,1
0.8200000000000005,13.126627984433032,-0.015796749623332787,-5.999999808384129,0.472378476381724,14.05188,0.1426528,-5.947491,0.26248524,9.998775,-7.9350915,1.9527607,0.3889529,-0.4375449,0.2852216,0.75889397,-8.725956,5.990097,-0.6975434,0.7331112,-4.679326,0.8245145,1
0.8300000000000005,13.126627984433032,-0.015796749623332787,-5.999999808384129,0.472378476381724,14.05188,0.1426528,-5.947491,0.26248524,9.911208,-7.874649,1.9456204,0.39408085,-0.41678512,0.28021464,0.7697217,-8.786979,6.09808,-0.7296301,0.6410483,-4.8771563,0.79693556,1
0.8400000000000005,13.126627984433032,-0.015796749623332787,-5.999999808384129,0.472378476381724,14.634783,-0.83997047,-5.9595714,0.16598676,9.823047,-7.813137,1.9381882,0.3991461,-0.3952714,0.2742935,0.78051734,-8.844922,6.2040353,-0.7559117,0.5633244,-5.0441246,0.77070993,0
0.8500000000000005,13.126627984433032,-0.015796749623332787,-5.999999808384129,0.472378476381724,14.634783,-0.83997047,-5.9595714,0.16598676,9.734339,-7.7506113,1.930497,0.40407822,-0.37307778,0.2675078,0.7911856,-8.896009,6.300759,-0.7814725,0.47303608,-5.1932425,0.75607073,0
0.8600000000000005,13.126627984433032,-0.015796749623332787,-5.999999808384129,0.472378476381724,14.634783,-0.83997047,-5.9595714,0.16598676,9.645137,-7.687131,1.9225775,0.40881482,-0.35026994,0.25990444,0.8016436,-8.943902,6.3948603,-0.80160856,0.39681664,-5.3190966,0.7421499,0
0.8700000000000006,13.126627984433032,-0.015796749623332787,-5.999999808384129,0.472378476381724,14.634783,-0.83997047,-5.9595714,0.16598676,9.555472,-7.6227245,1.9144833,0.4133371,-0.32690543,0.2515715,0.8117872,-8.988442,6.4859786,-0.8163984,0.33247444,-5.425318,0.7289121,0
0.8800000000000006,14.21540838187447,-0.780156012028214,-5.999999763304991,0.5175683375326293,15.319392,-1.1887088,-6.0422654,0.10222422,9.46538,-7.5574226,1.9062675,0.41762722,-0.30303746,0.2425864,0.8215285,-9.029471,6.5737643,-0.82597184,0.27815917,-5.514967,0.716324,0
0.8900000000000006,14.21540838187447,-0.780156012028214,-5.999999763304991,0.5175683375326293,15.319392,-1.1887088,-6.0422654,0.10222422,9.374879,-7.4912267,1.8980197,0.42157358,-0.27884212,0.2327669,0.83086926,-9.069948,6.6648517,-0.8227417,0.11311533,-5.5906854,0.706571,0
0.9000000000000006,14.21540838187447,-0.780156012028214,-5.999999763304991,0.5175683375326293,15.319392,-1.1887088,-6.0422654,0.10222422,9.283995,-7.424141,1.8898306,0.4250937,-0.2544672,0.22197206,0.83980453,-9.106407,6.751544,-0.81426775,-0.026194543,-5.654582,0.69729656,0
0.9100000000000006,14.21540838187447,-0.780156012028214,-5.999999763304991,0.5175683375326293,15.319392,-1.1887088,-6.0422654,0.10222422,9.192765,-7.3562126,1.8817514,0.4282087,-0.22992153,0.21032283,0.8482566,-9.138809,6.8334365,-0.80080414,-0.14378276,-5.7085023,0.6884772,0
0.9200000000000006,15.552586768674074,-1.1556366946407106,-5.999999536153052,0.2746034698210154,15.020645,-1.3091432,-5.949945,0.19765356,9.101233,-7.287491,1.8738307,0.4309336,-0.20521611,0.19792506,0.8561599,-9.167105,6.9101543,-0.78264445,-0.24303591,-5.754004,0.68009067,1
0.9300000000000006,15.552586768674074,-1.1556366946407106,-5.999999536153052,0.2746034698210154,15.020645,-1.3091432,-5.949945,0.19765356,9.009431,-7.2180085,1.8661474,0.4332672,-0.1804802,0.18469065,0.8634798,-9.192617,6.9853806,-0.75328374,-0.40937057,-5.7846284,0.6564173,1
0.9400000000000006,15.552586768674074,-1.1556366946407106,-5.999999536153052,0.2746034698210154,15.020645,-1.3091432,-5.949945,0.19765356,8.917396,-7.1478047,1.8587794,0.43521902,-0.15582184,0.17055675,0.8701815,-9.213764,7.054392,-0.71967864,-0.54976386,-5.8104615,0.6339056,1
0.9500000000000006,15.552586768674074,-1.1556366946407106,-5.999999536153052,0.2746034698210154,15.020645,-1.3091432,-5.949945,0.19765356,8.825171,-7.0769434,1.8517671,0.43681064,-0.13122568,0.15564539,0.8762147,-9.230577,7.116836,-0.6822282,-0.6682612,-5.832253,0.6124985,1
0.9600000000000006,16.037844986770814,-1.2741947763765453,-5.999998975855096,0.0804629619003505,15.383936,-1.3366017,-5.8623443,0.51435363,8.7328,-7.0054917,1.8451467,0.43805707,-0.106681764,0.14006358,0.8815376,-9.243082,7.1724005,-0.64136004,-0.7682766,-5.850637,0.592142,1
0.9700000000000006,16.037844986770814,-1.2741947763765453,-5.999998975855096,0.0804629619003505,15.383936,-1.3366017,-5.8623443,0.51435363,8.640324,-6.933514,1.8389672,0.43892822,-0.08221547,0.12391532,0.8861315,-9.251495,7.2219815,-0.59409475,-0.8569203,-5.8524947,0.5883249,1
0.9800000000000006,16.037844986770814,-1.2741947763765453,-5.999998975855096,0.0804629619003505,15.383936,-1.3366017,-5.8623443,0.51435363,8.547786,-6.8610783,1.8332735,0.43939546,-0.057850268,0.10729113,0.889986,-9.255545,7.264001,-0.54428256,-0.9317397,-5.8540573,0.5846951,1
0.9900000000000007,16.037844986770814,-1.2741947763765453,-5.999998975855096,0.0804629619003505,15.383936,-1.3366017,-5.8623443,0.51435363,8.455228,-6.788261,1.8280885,0.43946937,-0.03358047,0.0902614,0.89308083,-9.25526,7.2982664,-0.49242988,-0.9948904,-5.855371,0.58124346,1
1.0000000000000007,15.817172444576805,-1.0812478420655285,-5.999993498464615,-0.049220598976757964,15.414209,-1.0652492,-5.8374085,0.5513642,8.362695,-6.7151403,1.8234302,0.4391577,-0.009404568,0.07288875,0.8953998,-9.250674,7.324621,-0.4390558,-1.048192,-5.8564773,0.57796115,1
1.0100000000000007,15.817172444576805,-1.0812478420655285,-5.999993498464615,-0.049220598976757964,15.414209,-1.0652492,-5.8374085,0.5513642,8.270228,-6.641796,1.8193125,0.43846166,0.014714449,0.05533086,0.8969253,-9.241799,7.3429866,-0.38439068,-1.0508584,-5.853503,0.57665604,1
1.0200000000000007,15.817172444576805,-1.0812478420655285,-5.999993498464615,-0.049220598976757964,15.414209,-1.0652492,-5.8374085,0.5513642,8.177873,-6.5683084,1.815744,0.43737942,0.03880234,0.03771869,0.89764833,-9.228647,7.3532586,-0.329276,-1.0531082,-5.850993,0.57541496,1
1.0300000000000007,15.817172444576805,-1.0812478420655285,-5.999993498464615,-0.049220598976757964,15.414209,-1.0652492,-5.8374085,0.5513642,8.08567,-6.4947586,1.8127267,0.43591255,0.062840514,0.020068873,0.89756906,-9.211224,7.355426,-0.27425858,-1.0550067,-5.848875,0.5742348,1
1.0400000000000007,15.817172444576805,-1.0812478420655285,-5.999993498464615,-0.049220598976757964,15.215272,-1.0823387,-4.3492,0.35427558,7.9936633,-6.4212275,1.8102567,0.43406263,0.086810015,0.00239794,0.8966881,-9.1895485,7.349507,-0.21988444,-1.0566089,-5.847087,0.57311255,0
1.0500000000000007,15.817172444576805,-1.0812478420655285,-5.999993498464615,-0.049220598976757964,15.215272,-1.0823387,-4.3492,0.35427558,7.9018974,-6.347798,1.8083447,0.43189803,0.11074713,-0.015304783,0.8949674,-9.162975,7.3351793,-0.16274275,-1.0605592,-5.870913,0.5425745,0
1.0600000000000007,15.817172444576805,-1.0812478420655285,-5.999993498464615,-0.049220598976757964,15.215272,-1.0823387,-4.3492,0.35427558,7.8104186,-6.2745523,1.8069956,0.42947966,0.13467737,-0.03304089,0.89236724,-9.132109,7.312649,-0.10737979,-1.0638901,-5.8910236,0.513535,0
1.0700000000000007,15.817172444576805,-1.0812478420655285,-5.999993498464615,-0.049220598976757964,15.215272,-1.0823387,-4.3492,0.35427558,7.7192693,-6.2015724,1.8061891,0.42679915,0.15856668,-0.050781522,0.8888882,-9.096996,7.281991,-0.054355398,-1.0666976,-5.907999,0.4859204,0
1.0800000000000007,14.721613300732335,-0.7143138844411953,-3.0863418200206305,-0.11393557832601106,14.564746,-0.90804785,-2.3737924,0.04899604,7.6284924,-6.12894,1.8058987,0.4238494,0.18238291,-0.06849957,0.8845326,-9.0577135,7.243316,-0.004224701,-1.0690634,-5.922328,0.4596609,1
1.0900000000000007,14.721613300732335,-0.7143138844411953,-3.0863418200206305,-0.11393557832601106,14.564746,-0.90804785,-2.3737924,0.04899604,7.538112,-6.056715,1.8060353,0.42072028,0.20484804,-0.085499525,0.8796155,-9.017833,7.2005224,0.031039165,-1.0441897,-5.3689146,0.43950942,1
1.1000000000000008,14.721613300732335,-0.7143138844411953,-3.0863418200206305,-0.11393557832601106,14.564746,-0.90804785,-2.3737924,0.04899604,7.4481473,-5.9849515,1.806508,0.41755235,0.22497608,-0.10124327,0.87452126,-8.974668,7.151156,0.06297131,-1.0231534,-4.9018083,0.42034683,1
1.1100000000000008,14.721613300732335,-0.7143138844411953,-3.0863418200206305,-0.11393557832601106,14.564746,-0.90804785,-2.3737924,0.04899604,7.3586283,-5.913712,1.8072832,0.4143962,0.24313259,-0.11592015,0.8693254,-8.928674,7.095877,0.09151337,-1.0053645,-4.507549,0.40212452,1
1.1200000000000008,13.373814361692691,-0.09667349134346244,1.5015523875773384,-0.20634240124516123,12.581979,-0.4907544,3.347454,-0.0073416284,7.269582,-5.8430524,1.8083266,0.41128337,0.2596258,-0.12969032,0.8640733,-8.880235,7.0352464,0.116650745,-0.9903226,-4.1747756,0.3847964,0
1.1300000000000008,13.373814361692691,-0.09667349134346244,1.5015523875773384,-0.20634240124516123,12.581979,-0.4907544,3.347454,-0.0073416284,7.18101,-5.7729974,1.8095553,0.40838975,0.27352035,-0.14176738,0.8592487,-8.833841,6.9751644,0.12864853,-0.8512434,-3.2895043,0.35578904,0
1.1400000000000008,13.373814361692691,-0.09667349134346244,1.5015523875773384,-0.20634240124516123,12.581979,-0.4907544,3.347454,-0.0073416284,7.0929093,-5.7035613,1.8108904,0.40589705,0.28411582,-0.15155068,0.8553129,-8.785993,6.911497,0.13798042,-0.7337883,-2.5423012,0.32820505,0
1.1500000000000008,13.373814361692691,-0.09667349134346244,1.5015523875773384,-0.20634240124516123,12.581979,-0.4907544,3.347454,-0.0073416284,7.0052934,-5.6347766,1.8123075,0.40381202,0.2919595,-0.15941082,0.85222393,-8.737125,6.845048,0.14514919,-0.63459873,-1.9116323,0.30197468,0
1.1600000000000008,12.549172878369982,0.5904671347011422,5.999979835057859,-0.37096043930246964,12.142692,0.78694576,6.327579,-0.038121607,6.918169,-5.5666676,1.8137875,0.40212163,0.2975043,-0.16565616,0.8499114,-8.687589,6.7764664,0.15062603,-0.55083716,-1.3793224,0.27703142,1
1.1700000000000008,12.549172878369982,0.5904671347011422,5.999979835057859,-0.37096043930246964,12.142692,0.78694576,6.327579,-0.038121607,6.8315196,-5.4992204,1.8152685,0.40098166,0.2997366,-0.16952728,0.8489017,-8.6423,6.7128096,0.14548393,-0.34242114,-0.22847998,0.2615668,1
1.1800000000000008,12.549172878369982,0.5904671347011422,5.999979835057859,-0.37096043930246964,12.142692,0.78694576,6.327579,-0.038121607,6.7453227,-5.4324136,1.816696,0.40051,0.29786834,-0.17043683,0.8495996,-8.597134,6.648608,0.14002636,-0.16645582,0.7428796,0.246861,1
1.1900000000000008,12.549172878369982,0.5904671347011422,5.999979835057859,-0.37096043930246964,12.142692,0.78694576,6.327579,-0.038121607,6.659575,-5.3662477,1.8180708,0.40061134,0.29253453,-0.16884425,0.8517204,-8.552524,6.5846977,0.13503797,-0.017891273,1.5627487,0.23287682,1
1.2000000000000008,12.376546022824161,1.1133509530769348,5.999997974817482,-0.6125060472951471,11.783306,1.0893776,6.705404,0.15706798,6.5742693,-5.3007164,1.8194007,0.40118155,0.2842553,-0.16512795,0.8549777,-8.508846,6.521792,0.13116781,0.10753678,2.2547536,0.21957886,1
1.2100000000000009,12.376546022824161,1.1133509530769348,5.999997974817482,-0.6125060472951471,11.783306,1.0893776,6.705404,0.15706798,6.4893875,-5.235797,1.8206856,0.40206215,0.27350488,-0.1595048,0.8591282,-8.4676895,6.462328,0.12609535,0.2605765,2.838844,0.21651143,1
1.2200000000000009,12.376546022824161,1.1133509530769348,5.999997974817482,-0.6125060472951471,11.783306,1.0893776,6.705404,0.15706798,6.40491,-5.171462,1.8219293,0.40310937,0.26067612,-0.15216011,0.86394435,-8.428024,6.4050035,0.12299153,0.38976443,3.3318417,0.21359451,1
1.2300000000000009,12.376546022824161,1.1133509530769348,5.999997974817482,-0.6125060472951471,11.783306,1.0893776,6.705404,0.15706798,6.320821,-5.1076875,1.8231531,0.40424532,0.24605682,-0.14334148,0.86919314,-8.390089,6.3503265,0.12212708,0.49881738,3.7479537,0.21082072,1
1.2400000000000009,12.376546022824161,1.1133509530769348,5.999997974817482,-0.6125060472951471,13.474138,1.5928022,6.4434814,0.22688346,6.2371016,-5.0444446,1.8243803,0.40539938,0.22989097,-0.1332587,0.87466866,-8.35411,6.298756,0.12367103,0.5908738,4.0991707,0.20818305,0
1.2500000000000009,12.376546022824161,1.1133509530769348,5.999997974817482,-0.6125060472951471,13.474138,1.5928022,6.4434814,0.22688346,6.15374,-4.9817123,1.8256608,0.40658996,0.2124036,-0.1220608,0.8801546,-8.318598,6.2482867,0.13284326,0.67242855,4.3955975,0.1679116,0
1.260000000000001,12.376546022824161,1.1133509530769348,5.999997974817482,-0.6125060472951471,13.474138,1.5928022,6.4434814,0.22688346,6.070721,-4.9194646,1.8270462,0.4078392,0.19378808,-0.10987648,0.88546157,-8.285571,6.2019105,0.14462435,0.7412784,4.645792,0.12961626,0
1.270000000000001,12.376546022824161,1.1133509530769348,5.999997974817482,-0.6125060472951471,13.474138,1.5928022,6.4434814,0.22688346,5.9880195,-4.857659,1.828562,0.40909344,0.17419645,-0.09684564,0.8904609,-8.255222,6.1599874,0.15893674,0.7994002,4.8569655,0.093200095,0
1.280000000000001,12.203811335272102,1.4890280041585837,5.999998377728094,-0.6995029962118368,13.609944,1.9262471,6.0691156,-0.32766742,5.9056077,-4.7962484,1.8302331,0.4103058,0.15376137,-0.08309001,0.8950442,-8.227733,6.1228395,0.17563741,0.8484633,5.035205,0.05857088,0
1.290000000000001,12.203811335272102,1.4890280041585837,5.999998377728094,-0.6995029962118368,13.609944,1.9262471,6.0691156,-0.32766742,5.8234534,-4.7351823,1.8320742,0.41142294,0.1326618,-0.06857966,0.89912754,-8.203598,6.091208,0.192894,0.94847894,5.185645,0.021371957,0
1.300000000000001,12.203811335272102,1.4890280041585837,5.999998377728094,-0.6995029962118368,13.609944,1.9262471,6.0691156,-0.32766742,5.741525,-4.674406,1.8340975,0.41240394,0.111049935,-0.053299505,0.90263593,-8.182537,6.0648603,0.21206401,1.0328977,5.3126206,-0.014001583,0
1.310000000000001,12.203811335272102,1.4890280041585837,5.999998377728094,-0.6995029962118368,13.609944,1.9262471,6.0691156,-0.32766742,5.6597915,-4.6138663,1.8363209,0.41322684,0.08899917,-0.037370007,0.9054987,-8.164631,6.0440545,0.23286036,1.1041508,5.419792,-0.047639344,0
1.320000000000001,11.952787429698763,1.7928390377324182,5.999997575384115,-0.6732935626563515,14.108396,2.4768405,6.398612,-0.27279404,5.5782213,-4.5535054,1.8387592,0.41387162,0.06657575,-0.020897008,0.907658,-8.14995,6.0290112,0.2549594,1.1642897,5.510249,-0.079626486,0
1.330000000000001,11.952787429698763,1.7928390377324182,5.999997575384115,-0.6732935626563515,14.108396,2.4768405,6.398612,-0.27279404,5.4967804,-4.4932647,1.841411,0.4143098,0.043890066,-0.0038636848,0.90906984,-8.138781,6.0201015,0.27551514,1.2624216,5.586596,-0.108757906,0
1.340000000000001,11.952787429698763,1.7928390377324182,5.999997575384115,-0.6732935626563515,14.108396,2.4768405,6.398612,-0.27279404,5.415435,-4.433083,1.8442714,0.41451877,0.021036843,0.013734736,0.9096949,-8.130833,6.017188,0.29662737,1.3452464,5.6510353,-0.13645983,0
1.350000000000001,11.952787429698763,1.7928390377324182,5.999997575384115,-0.6732935626563515,14.108396,2.4768405,6.398612,-0.27279404,5.3341527,-4.3729,1.8473442,0.4144887,-0.0019475846,0.031793732,0.90949786,-8.1261015,6.020409,0.31790218,1.4151511,5.7054253,-0.1628024,0
1.360000000000001,11.731617824292755,1.8957410288314887,5.999992179949734,-0.48969463063697666,13.988784,2.3525038,6.2401757,0.051966783,5.2529025,-4.3126535,1.8506286,0.4142098,-0.025028575,0.050221056,0.9084512,-8.124573,6.029865,0.3389293,1.4741502,5.751333,-0.18785235,0
1.370000000000001,11.731617824292755,1.8957410288314887,5.999992179949734,-0.48969463063697666,13.988784,2.3525038,6.2401757,0.051966783,5.171651,-4.2522826,1.8541094,0.41365334,-0.04815468,0.06897301,0.90654105,-8.126191,6.0453277,0.35709435,1.5399576,5.7900887,-0.20266381,0
1.380000000000001,11.731617824292755,1.8957410288314887,5.999992179949734,-0.48969463063697666,13.988784,2.3525038,6.2401757,0.051966783,5.0903683,-4.1917257,1.8577669,0.412793,-0.07127884,0.08800763,0.90375763,-8.130885,6.0670056,0.37417787,1.5954998,5.8228006,-0.21674849,0
1.390000000000001,11.731617824292755,1.8957410288314887,5.999992179949734,-0.48969463063697666,13.988784,2.3525038,6.2401757,0.051966783,5.0090227,-4.1309214,1.8615879,0.4116231,-0.0943745,0.107250035,0.9000885,-8.1386,6.0948987,0.38975105,1.6423773,5.8504124,-0.23014204,0
1.400000000000001,11.25562257095676,1.7215306166314632,3.8052491516194324,-0.25982347703413744,13.587696,1.9188282,6.4798527,-0.08917841,4.9275856,-4.0698066,1.8655552,0.41013816,-0.11741545,0.12663348,0.89552575,-8.149271,6.1289725,0.40338376,1.6819414,5.873719,-0.24287836,0
1.410000000000001,11.25562257095676,1.7215306166314632,3.8052491516194324,-0.25982347703413744,13.587696,1.9188282,6.4798527,-0.08917841,4.8460293,-4.008329,1.8696252,0.40842307,-0.13961801,0.14568192,0.89021134,-8.16225,6.167495,0.41022635,1.6880673,5.5511403,-0.24370985,0
1.420000000000001,11.25562257095676,1.7215306166314632,3.8052491516194324,-0.25982347703413744,13.587696,1.9188282,6.4798527,-0.08917841,4.7643313,-3.946438,1.8737512,0.40658578,-0.16037104,0.16402607,0.88434535,-8.177727,6.2115397,0.41452798,1.6932454,5.2788677,-0.24450058,0
1.430000000000001,11.25562257095676,1.7215306166314632,3.8052491516194324,-0.25982347703413744,13.587696,1.9188282,6.4798527,-0.08917841,4.682467,-3.8840802,1.8779063,0.4046469,-0.17988391,0.18175519,0.87799186,-8.195439,6.2607627,0.41607413,1.6976224,5.049056,-0.24525249,0
1.440000000000001,11.25562257095676,1.7215306166314632,3.8052491516194324,-0.25982347703413744,12.3705845,1.6054535,4.9068274,-0.0428858,4.6004157,-3.8212059,1.8820624,0.40261838,-0.19833322,0.19894435,0.8711977,-8.215153,6.31485,0.41468048,1.7013222,4.8550835,-0.24596749,0
1.450000000000001,11.25562257095676,1.7215306166314632,3.8052491516194324,-0.25982347703413744,12.3705845,1.6054535,4.9068274,-0.0428858,4.518158,-3.7577674,1.8861892,0.400506,-0.21586739,0.21565641,0.8639968,-8.236661,6.3735175,0.41018513,1.7044497,4.6913614,-0.2466474,0
1.460000000000001,11.25562257095676,1.7215306166314632,3.8052491516194324,-0.25982347703413744,12.3705845,1.6054535,4.9068274,-0.0428858,4.4356766,-3.6937206,1.8902549,0.39831123,-0.23261096,0.2319439,0.8564136,-8.25978,6.436506,0.4024428,1.7070932,4.5531716,-0.24729395,0
1.470000000000001,11.25562257095676,1.7215306166314632,3.8052491516194324,-0.25982347703413744,12.3705845,1.6054535,4.9068274,-0.0428858,4.352957,-3.629023,1.8942263,0.39603287,-0.24866803,0.24785037,0.84846586,-8.284346,6.5035725,0.39132094,1.7093277,4.4365325,-0.24790877,0
1.480000000000001,10.838077775950891,1.2783601428810545,-0.02618383703395038,-0.06362261374547584,10.892316,1.0585958,3.3728824,0.23663527,4.269985,-3.5636358,1.8980693,0.39366776,-0.26412553,0.26341185,0.84016645,-8.310209,6.574492,0.37669665,1.7112166,4.3380833,-0.24849343,0
1.490000000000001,10.838077775950891,1.2783601428810545,-0.02618383703395038,-0.06362261374547584,10.892316,1.0585958,3.3728824,0.23663527,4.186754,-3.4975348,1.901733,0.39156368,-0.27784115,0.27791935,0.8320127,-8.336201,6.6462426,0.35554433,1.6435809,3.6574988,-0.23942177,0
1.500000000000001,10.838077775950891,1.2783601428810545,-0.02618383703395038,-0.06362261374547584,10.892316,1.0585958,3.3728824,0.23663527,4.103259,-3.4307005,1.9051692,0.39004558,-0.2889481,0.29084137,0.8244919,-8.362945,6.7209954,0.3312135,1.5865178,3.0830486,-0.23079526,0
1.5100000000000011,10.838077775950891,1.2783601428810545,-0.02618383703395038,-0.06362261374547584,10.892316,1.0585958,3.3728824,0.23663527,4.019494,-3.3631058,1.9083476,0.38906568,-0.29787815,0.3024399,0.8175749,-8.390102,6.798298,0.3040511,1.5383738,2.598181,-0.22259206,0
1.5200000000000011,10.519564944947996,0.7238458715336458,-4.822704676146682,0.10798656841137665,11.017659,0.9086139,-2.606381,-0.027408358,3.9354568,-3.2947268,1.9112415,0.38857093,-0.30498967,0.31293172,0.81121504,-8.417398,6.8777876,0.2743758,1.4977545,2.1889262,-0.21479139,0
1.5300000000000011,10.519564944947996,0.7238458715336458,-4.822704676146682,0.10798656841137665,11.017659,0.9086139,-2.606381,-0.027408358,3.851143,-3.2255325,1.9138367,0.3890432,-0.30918294,0.3217724,0.80592555,-8.445137,6.960844,0.24393953,1.4333047,1.15188,-0.20403099,0
1.5400000000000011,10.519564944947996,0.7238458715336458,-4.822704676146682,0.10798656841137665,11.017659,0.9086139,-2.606381,-0.027408358,3.7665596,-3.155516,1.9161066,0.39087328,-0.30955133,0.32837388,0.80222744,-8.471271,7.0421495,0.20953043,1.3360065,0.23363847,-0.1899566,0
1.5500000000000012,10.519564944947996,0.7238458715336458,-4.822704676146682,0.10798656841137665,11.017659,0.9086139,-2.606381,-0.027408358,3.6817217,-3.0846894,1.9180226,0.39387324,-0.3066448,0.33291027,0.8000036,-8.496083,7.123273,0.1736338,1.240448,-0.5548718,-0.17533645,0
1.5600000000000012,10.687749494875582,0.07574303133859425,-5.999996362502061,0.21024063493515296,11.49876,0.517354,-5.707915,0.07302259,3.5966425,-3.0130491,1.9195791,0.39786875,-0.3009705,0.335672,0.79902667,-8.519558,7.2048125,0.13771288,1.1598189,-1.2204182,-0.16143371,1
1.5700000000000012,10.687749494875582,0.07574303133859425,-5.999996362502061,0.21024063493515296,11.49876,0.517354,-5.707915,0.07302259,3.511326,-2.9405549,1.920808,0.4027938,-0.29270366,0.3367062,0.79919505,-8.543429,7.2939844,0.10817162,1.0595673,-1.9202222,-0.14992888,1
1.5800000000000012,10.687749494875582,0.07574303133859425,-5.999996362502061,0.21024063493515296,11.49876,0.517354,-5.707915,0.07302259,3.425781,-2.8671703,1.9217467,0.4085733,-0.28199533,0.336051,0.8003863,-8.565204,7.3827734,0.0798141,0.9749694,-2.5108957,-0.13898858,1
1.5900000000000012,10.687749494875582,0.07574303133859425,-5.999996362502061,0.21024063493515296,11.49876,0.517354,-5.707915,0.07302259,3.34003,-2.7929018,1.9224101,0.41503865,-0.2692021,0.33392844,0.8023509,-8.584605,7.4707665,0.05314382,0.9035796,-3.0094566,-0.12858513,1
1.6000000000000012,10.788765221238616,-0.46109411883204904,-5.9999981108268985,0.2736936775078789,11.322955,0.0508577,-5.7997313,0.21254973,3.2540982,-2.717759,1.9228169,0.4220379,-0.25462186,0.33052215,0.8048657,-8.601391,7.557575,0.028553015,0.84333456,-3.430269,-0.11869218,1
1.6100000000000012,10.788765221238616,-0.46109411883204904,-5.9999981108268985,0.2736936775078789,11.322955,0.0508577,-5.7997313,0.21254973,3.168013,-2.641762,1.9229835,0.42938733,-0.23854944,0.3258238,0.8078128,-8.615146,7.6415186,0.0051784595,0.7197597,-3.7997682,-0.10243804,1
1.6200000000000012,10.788765221238616,-0.46109411883204904,-5.9999981108268985,0.2736936775078789,11.322955,0.0508577,-5.7997313,0.21254973,3.0818052,-2.564935,1.9229292,0.4369302,-0.22123331,0.3198341,0.81108326,-8.625997,7.723538,-0.015626801,0.6154653,-4.111648,-0.086981505,1
1.6300000000000012,10.788765221238616,-0.46109411883204904,-5.9999981108268985,0.2736936775078789,11.322955,0.0508577,-5.7997313,0.21254973,2.9955037,-2.4872992,1.9226804,0.44457585,-0.20284379,0.3127075,0.8145077,-8.633844,7.803252,-0.033707067,0.5274419,-4.3748937,-0.07228344,1
1.6400000000000012,10.788765221238616,-0.46109411883204904,-5.9999981108268985,0.2736936775078789,10.950663,-0.3066781,-5.827368,0.25312817,2.909139,-2.4088795,1.9222647,0.4522439,-0.1835274,0.30457604,0.8179418,-8.638608,7.8802977,-0.04898047,0.4531502,-4.597089,-0.05830659,1
1.6500000000000012,10.788765221238616,-0.46109411883204904,-5.9999981108268985,0.2736936775078789,10.950663,-0.3066781,-5.827368,0.25312817,2.8227427,-2.3297162,1.9216964,0.4598375,-0.16346568,0.29543206,0.8213102,-8.64017,7.951889,-0.06424369,0.33469564,-4.7889423,-0.043024387,1
1.6600000000000013,10.788765221238616,-0.46109411883204904,-5.9999981108268985,0.2736936775078789,10.950663,-0.3066781,-5.827368,0.25312817,2.7363462,-2.2498531,1.9209892,0.4672767,-0.14281371,0.28527722,0.8245458,-8.638674,8.020218,-0.076795176,0.23471607,-4.9508796,-0.028492087,1
1.6700000000000013,10.788765221238616,-0.46109411883204904,-5.9999981108268985,0.2736936775078789,10.950663,-0.3066781,-5.827368,0.25312817,2.6499796,-2.1693242,1.9201697,0.4745173,-0.1216547,0.27423045,0.82754654,-8.634125,8.084954,-0.08670292,0.15032916,-5.0875645,-0.014672903,1
1.6800000000000013,11.115617047930703,-0.8610240205687572,-5.999997826911067,0.39614468203277575,11.732999,-0.82935435,-5.7996254,0.6148763,2.563674,-2.0881672,1.9192638,0.48152015,-0.10006245,0.26239517,0.830227,-8.626537,8.145792,-0.094080746,0.07910274,-5.202935,-0.0015318259,1
1.6900000000000013,11.115617047930703,-0.8610240205687572,-5.999997826911067,0.39614468203277575,11.732999,-0.82935435,-5.7996254,0.6148763,2.477463,-2.006402,1.9183294,0.48819104,-0.07820177,0.24969737,0.8325909,-8.615184,8.206488,-0.092428036,-0.06246637,-5.2959895,0.028715499,1
1.7000000000000013,11.115617047930703,-0.8610240205687572,-5.999997826911067,0.39614468203277575,11.732999,-0.82935435,-5.7996254,0.6148763,2.3913815,-1.9240538,1.9174234,0.49445254,-0.056210935,0.23608518,0.83463955,-8.600702,8.262384,-0.08840527,-0.18195994,-5.374537,0.057478584,1
1.7100000000000013,11.115617047930703,-0.8610240205687572,-5.999997826911067,0.39614468203277575,11.732999,-0.82935435,-5.7996254,0.6148763,2.3054595,-1.8411719,1.9165686,0.50029373,-0.034116562,0.22167304,0.8363048,-8.583205,8.313195,-0.08222056,-0.28282133,-5.440838,0.08483023,1
1.7200000000000013,11.380036843678369,-1.0540280050042208,-5.999996083430125,0.5811549725678182,12.410771,-1.2245927,-5.5485826,0.9772547,2.2197273,-1.7578083,1.9157856,0.50570387,-0.011944363,0.2065606,0.8375298,-8.562805,8.35866,-0.07411411,-0.36795664,-5.496801,0.11083975,0
1.7300000000000013,11.380036843678369,-1.0540280050042208,-5.999996083430125,0.5811549725678182,12.410771,-1.2245927,-5.5485826,0.9772547,2.1342099,-1.6740239,1.9150759,0.51069075,0.010301387,0.19071856,0.83828264,-8.540309,8.397344,-0.0675962,-0.47485954,-5.5752883,0.13391827,0
1.7400000000000013,11.380036843678369,-1.0540280050042208,-5.999996083430125,0.5811549725678182,12.410771,-1.2245927,-5.5485826,0.9772547,2.0489302,-1.5898808,1.9144382,0.51525724,0.032612037,0.17412968,0.83852714,-8.515224,8.430382,-0.05974077,-0.56509393,-5.641537,0.1558643,0
1.7500000000000013,11.380036843678369,-1.0540280050042208,-5.999996083430125,0.5811549725678182,12.410771,-1.2245927,-5.5485826,0.9772547,1.9639137,-1.5054364,1.9138848,0.5193862,0.05495674,0.15689242,0.83821535,-8.487675,8.457563,-0.0508388,-0.6412598,-5.6974545,0.17673343,0
1.7600000000000013,11.50571746501283,-1.0008148895301985,-5.522540872421882,0.7890153715759072,11.973491,-1.1714762,-4.681219,0.99976444,1.8791846,-1.4207504,1.9134241,0.52306217,0.07730584,0.13909343,0.83730835,-8.457786,8.478709,-0.0412047,-0.70555115,-5.7446523,0.19657853,1
1.7700000000000014,11.50571746501283,-1.0008148895301985,-5.522540872421882,0.7890153715759072,11.973491,-1.1714762,-4.681219,0.99976444,1.7947739,-1.3358794,1.9130903,0.52616733,0.099172264,0.12104361,0.835861,-8.424025,8.494481,-0.025531778,-0.7780895,-5.5788393,0.23599109,1
1.7800000000000014,11.50571746501283,-1.0008148895301985,-5.522540872421882,0.7890153715759072,11.973491,-1.1714762,-4.681219,0.99976444,1.7107114,-1.250883,1.9129139,0.5286336,0.12017026,0.10300067,0.8339658,-8.388179,8.503816,-0.009785922,-0.83932626,-5.4388857,0.27346966,1
1.7900000000000014,11.50571746501283,-1.0008148895301985,-5.522540872421882,0.7890153715759072,11.973491,-1.1714762,-4.681219,0.99976444,1.6270167,-1.1658249,1.9128939,0.530513,0.1404102,0.08496278,0.83163977,-8.350481,8.506812,0.0057051387,-0.8910221,-5.320758,0.30910915,1
1.8000000000000014,10.996291594692998,-0.8500455177548636,-1.8111458311425448,0.9438822942573935,12.442929,-1.0986096,-2.5162592,0.8201172,1.5437074,-1.0807682,1.9130261,0.5318471,0.15998447,0.066928826,0.8288948,-8.311138,8.5035715,0.020631166,-0.93466324,-5.221051,0.34299982,0
1.8100000000000014,10.996291594692998,-0.8500455177548636,-1.8111458311425448,0.9438822942573935,12.442929,-1.0986096,-2.5162592,0.8201172,1.4607824,-0.99577105,1.9132576,0.5325943,0.17809027,0.049618367,0.82593435,-8.273685,8.495014,0.025552692,-0.92149526,-4.689293,0.37248528,0
1.8200000000000014,10.996291594692998,-0.8500455177548636,-1.8111458311425448,0.9438822942573935,12.442929,-1.0986096,-2.5162592,0.8201172,1.3782374,-0.9108855,1.9135337,0.53278196,0.1941127,0.033605926,0.82300466,-8.235165,8.481324,0.029524108,-0.9103836,-4.2404613,0.4005239,0
1.8300000000000014,10.996291594692998,-0.8500455177548636,-1.8111458311425448,0.9438822942573935,12.442929,-1.0986096,-2.5162592,0.8201172,1.2960819,-0.82616055,1.9138445,0.5325229,0.20837553,0.01869265,0.8201536,-8.195814,8.462992,0.032447122,-0.9010051,-3.8616242,0.42718664,0
1.8400000000000014,10.996291594692998,-0.8500455177548636,-1.8111458311425448,0.9438822942573935,11.864202,-1.2461761,1.8926077,0.9521028,1.2143234,-0.74164027,1.9141788,0.53190225,0.22115146,0.004707978,0.81740576,-8.155828,8.440434,0.03426092,-0.8930879,-3.541866,0.45254105,0
1.8500000000000014,10.996291594692998,-0.8500455177548636,-1.8111458311425448,0.9438822942573935,11.864202,-1.2461761,1.8926077,0.9521028,1.1329671,-0.65736514,1.9145256,0.53098416,0.23266995,-0.008493645,0.81477034,-8.115364,8.414012,0.03492909,-0.8864034,-3.2719731,0.47665134,0
1.8600000000000014,10.996291594692998,-0.8500455177548636,-1.8111458311425448,0.9438822942573935,11.864202,-1.2461761,1.8926077,0.9521028,1.0520173,-0.5733723,1.9148734,0.52981716,0.24312395,-0.021035945,0.8122465,-8.074552,8.384027,0.03443047,-0.8807584,-3.0441694,0.49957848,0
1.8700000000000014,10.996291594692998,-0.8500455177548636,-1.8111458311425448,0.9438822942573935,11.864202,-1.2461761,1.8926077,0.9521028,0.971477,-0.48969597,1.9152102,0.528438,0.2526755,-0.03302377,0.80982727,-8.033497,8.350738,0.032752912,-0.8759905,-2.851891,0.5213806,0
1.8800000000000014,10.698740550267505,-0.6143287676522038,2.0255583946494924,1.0119119190078143,11.332417,-0.7953187,4.127688,1.1375536,0.891348,-0.4063681,1.9155244,0.5268746,0.26146087,-0.044545747,0.80750203,-7.992287,8.314366,0.029889006,-0.871963,-2.6895978,0.5421129,0
1.8900000000000015,10.698740550267505,-0.6143287676522038,2.0255583946494924,1.0119119190078143,11.332417,-0.7953187,4.127688,1.1375536,0.81162596,-0.32341316,1.9157913,0.5251974,0.26840797,-0.05479563,0.80568284,-7.952131,8.276224,0.023322938,-0.8320146,-1.9542705,0.565166,0
1.9000000000000015,10.698740550267505,-0.6143287676522038,2.0255583946494924,1.0119119190078143,11.332417,-0.7953187,4.127688,1.1375536,0.732305,-0.2408511,1.9159877,0.5234992,0.27268684,-0.06314433,0.80473953,-7.91209,8.235891,0.015865136,-0.79827535,-1.3336173,0.5870879,0
1.9100000000000015,10.698740550267505,-0.6143287676522038,2.0255583946494924,1.0119119190078143,11.332417,-0.7953187,4.127688,1.1375536,0.65338314,-0.15870082,1.9161063,0.5218149,0.2747233,-0.069898136,0.8045826,-7.8723426,8.193952,0.0078066597,-0.76977795,-0.80975527,0.6079342,0
1.9200000000000015,10.543744008452194,-0.39627414717018333,5.999834279240356,0.9740957500201038,11.031123,-0.5130195,5.61002,0.8216862,0.5748567,-0.07697591,1.9161426,0.5201587,0.27487075,-0.075313926,0.8051157,-7.833037,8.15089,-0.0005881917,-0.7457056,-0.36758968,0.6277575,1
1.9300000000000015,10.543744008452194,-0.39627414717018333,5.999834279240356,0.9740957500201038,11.031123,-0.5130195,5.61002,0.8216862,0.49672654,0.004307851,1.9161083,0.5186504,0.27229044,-0.07882285,0.8066283,-7.7931123,8.105804,-0.0062660202,-0.7098024,0.5646254,0.6372736,1
1.9400000000000015,10.543744008452194,-0.39627414717018333,5.999834279240356,0.9740957500201038,11.031123,-0.5130195,5.61002,0.8216862,0.4189916,0.08514032,1.9160187,0.5173792,0.26632413,-0.07998422,0.80931777,-7.754035,8.060754,-0.011565894,-0.6794483,1.3514606,0.6463228,1
1.9500000000000015,10.543744008452194,-0.39627414717018333,5.999834279240356,0.9740957500201038,11.031123,-0.5130195,5.61002,0.8216862,0.34164202,0.16552554,1.9158798,0.51628834,0.25747916,-0.07916601,0.8129491,-7.716066,8.0164585,-0.0160467,-0.6537842,2.0155878,0.65492797,1
1.9600000000000015,10.583834259994234,-0.14651444622419987,5.999996786896147,0.8760338996740711,10.493374,-0.15340355,6.5515146,0.65017486,0.2646656,0.24547422,1.9157017,0.5153105,0.24617688,-0.07667551,0.8172977,-7.6794443,7.973534,-0.019360619,-0.6320846,2.5761437,0.6631109,1
1.9700000000000015,10.583834259994234,-0.14651444622419987,5.999996786896147,0.8760338996740711,10.493374,-0.15340355,6.5515146,0.65017486,0.18803912,0.32501286,1.915474,0.51437056,0.2327176,-0.072566696,0.82219344,-7.6461015,7.934519,-0.025937583,-0.55766374,3.1101246,0.6624761,1
1.9800000000000015,10.583834259994234,-0.14651444622419987,5.999996786896147,0.8760338996740711,10.493374,-0.15340355,6.5515146,0.65017486,0.11173782,0.40417257,1.9151882,0.51339763,0.2173551,-0.06689341,0.8274705,-7.6144347,7.897819,-0.030976003,-0.49481258,3.5608265,0.6618725,1
1.9900000000000015,10.583834259994234,-0.14651444622419987,5.999996786896147,0.8760338996740711,10.493374,-0.15340355,6.5515146,0.65017486,0.035744064,0.48297882,1.9148601,0.51233166,0.20035379,-0.059893645,0.83294046,-7.5846167,7.8638864,-0.03436933,-0.44173244,3.9412374,0.6612986,1
2.0000000000000013,,,,,10.732264,0.47393316,6.0247917,0.50135773,-0.03996146,0.56146115,1.9145066,0.5111172,0.18193994,-0.05176937,0.8384387,-7.556816,7.8331175,-0.036084294,-0.39690432,4.2623196,0.6607527,1
2.010000000000001,,,,,10.732264,0.47393316,6.0247917,0.50135773,-0.11539678,0.63965,1.9141551,0.5096762,0.1624377,-0.042478446,0.8438259,-7.530606,7.805243,-0.033922546,-0.26119113,4.5333695,0.6529311,1
2.020000000000001,,,,,10.732264,0.47393316,6.0247917,0.50135773,-0.19058155,0.7175795,1.9138335,0.50795096,0.14211828,-0.031996977,0.84897983,-7.506712,7.7813067,-0.030177629,-0.14662313,4.7621393,0.6454933,1
2.0300000000000007,,,,,10.732264,0.47393316,6.0247917,0.50135773,-0.26553926,0.79529065,1.9135566,0.50592196,0.12109269,-0.020510131,0.8537922,-7.485213,7.761617,-0.025000524,-0.049906015,4.955224,0.6384206,1
2.0400000000000005,,,,,10.732264,0.47393316,6.0247917,0.50135773,-0.34029433,0.87282735,1.9133377,0.50357133,0.09945946,-0.008177297,0.85817194,-7.46619,7.746436,-0.018584767,0.031741057,5.1181903,0.63169485,1
2.0500000000000003,,,,,11.387174,0.56960505,6.177499,0.6740023,-0.4148719,0.9502357,1.9131885,0.500883,0.07730657,0.0048638834,0.8620432,-7.449725,7.735983,-0.011160434,0.10066606,5.255736,0.62529916,1
2.06,,,,,11.387174,0.56960505,6.177499,0.6740023,-0.48929358,1.027562,1.9131497,0.49782223,0.05473237,0.018525667,0.8653533,-7.4350543,7.7300982,0.0034962574,0.17374143,5.3718333,0.62768906,1
2.07,,,,,11.387174,0.56960505,6.177499,0.6740023,-0.56358284,1.1048561,1.9132602,0.49435884,0.031823795,0.032729875,0.8680596,-7.423254,7.7295756,0.018640572,0.23542795,5.4698215,0.62996167,1
2.0799999999999996,,,,,11.387174,0.56960505,6.177499,0.6740023,-0.6377688,1.1821723,1.9135232,0.4904869,0.008640651,0.047377937,0.870118,-7.4143877,7.7345333,0.033944722,0.28750092,5.552524,0.63212276,1
2.0899999999999994,,,,,11.1986265,-0.3140189,6.236566,0.6671839,-0.7118809,1.2595658,1.9139386,0.4862019,-0.014762111,0.062383767,0.87149304,-7.4085145,7.745051,0.049063466,0.3314587,5.6223264,0.6341778,1
2.099999999999999,,,,,11.1986265,-0.3140189,6.236566,0.6671839,-0.7859498,1.3370914,1.9144933,0.48149386,-0.038505096,0.077363625,0.87218,-7.405748,7.7608967,0.06177437,0.23076652,5.681183,0.63579744,1
2.109999999999999,,,,,11.1986265,-0.3140189,6.236566,0.6671839,-0.8600067,1.4148027,1.9151711,0.47634664,-0.06267505,0.09200694,0.87218255,-7.4061337,7.782192,0.073602,0.14578123,5.730867,0.6373376,1
2.1199999999999988,,,,,11.1986265,-0.3140189,6.236566,0.6671839,-0.93408376,1.4927537,1.9159613,0.4707516,-0.0871777,0.106342174,0.8714851,-7.409818,7.8088446,0.08419317,0.074052624,5.772809,0.6388022,1
2.1299999999999986,,,,,11.575549,-0.82171553,5.434779,0.74394244,-1.0082147,1.5709977,1.9168496,0.46470445,-0.1119295,0.12039167,0.87007433,-7.416919,7.8407397,0.09319091,0.013513258,5.8082137,0.6401949,1
2.1399999999999983,,,,,11.575549,-0.82171553,5.434779,0.74394244,-1.0824358,1.6495923,1.9178362,0.45820194,-0.13675265,0.13389301,0.86800015,-7.4278874,7.878975,0.10378132,-0.11673509,5.7499223,0.6452858,1
2.149999999999998,,,,,11.575549,-0.82171553,5.434779,0.74394244,-1.1567852,1.7285945,1.9189172,0.45124838,-0.16149989,0.14664274,0.86532676,-7.4425693,7.922223,0.11202955,-0.2266739,5.700729,0.65012693,1
2.159999999999998,,,,,11.575549,-0.82171553,5.434779,0.74394244,-1.2313002,1.808053,1.9200677,0.44385412,-0.18614304,0.15873568,0.8620609,-7.4610276,7.9702034,0.11762704,-0.31946984,5.659214,0.65473056,1
2.1699999999999977,,,,,11.964063,-1.5007484,2.389416,0.38069016,-1.3060188,1.8880138,1.9212596,0.43603024,-0.21065605,0.17025085,0.8582062,-7.483301,8.022639,0.120276384,-0.39779595,5.624179,0.65910816,1
2.1799999999999975,,,,,11.964063,-1.5007484,2.389416,0.38069016,-1.3809836,1.9685293,1.9224788,0.4279891,-0.23410054,0.18048742,0.85407734,-7.510261,8.081104,0.12300063,-0.5695385,5.119651,0.6454461,1
2.1899999999999973,,,,,11.964063,-1.5007484,2.389416,0.38069016,-1.4562371,2.0496485,1.9237083,0.41994876,-0.2557552,0.18891795,0.8500259,-7.5410123,8.143235,0.12239557,-0.71454114,4.693817,0.6324545,1
2.199999999999997,,,,,11.964063,-1.5007484,2.389416,0.38069016,-1.5318164,2.1314046,1.9249156,0.41191968,-0.27589002,0.19583361,0.84608376,-7.5753784,8.208417,0.11853847,-0.8369667,4.3344035,0.6201003,1
2.209999999999997,,,,,11.043199,-1.8728982,-1.3517199,0.36469725,-1.6077566,2.2138257,1.9260683,0.40390447,-0.29473263,0.20147726,0.8422603,-7.613207,8.2761345,0.1115166,-0.94032985,4.0310493,0.60835236,1
