time-since-start [s],throttle_mpc,roll_mpc,pitch_mpc,yaw_mpc,throttle_nw,roll_nw,pitch_nw,yaw_nw,position_x [m],position_y [m],position_z [m],rotation_w [quaternion],rotation_x [quaternion],rotation_y [quaternion],rotation_z [quaternion],velocity_x [m/s],velocity_y [m/s],velocity_z [m/s],omega_x [rad/s],omega_y [rad/s],omega_z [rad/s],network_used,gaze_2d_norm_x,gaze_2d_norm_y,gaze_2d_x,gaze_2d_y,gaze_3d_x,gaze_3d_y,gaze_3d_z,angle_rad,angle_deg,high_level_label
0.0,12.833108635872861,5.999999878752774,-5.999999841989975,2.550864044264733,12.905146,1.2019807,-6.4372377,-0.8624368,20.259108,-9.321837,2.0695574,-0.11373563,0.4853313,-0.15674663,-0.8526126,-10.404446,-6.276682,0.25989562,2.7818003,-0.19832158,-0.7166527,0,-0.0916227626800537,-0.33037790934244793,0.4541886186599732,0.33481104532877604,-0.9523954515880957,0.22839787259819494,-0.2019339386703634,0.7781891017786302,44.586951194991975,1
0.01,12.833108635872861,5.999999878752774,-5.999999841989975,2.550864044264733,14.115442,1.0239528,-6.08249,-0.917891,20.154564,-9.384355,2.0719795,-0.12200913,0.45387563,-0.18493994,-0.8630805,-10.50355,-6.225682,0.22533298,6.0,-6.0,2.550864,0,-0.0916227626800537,-0.33037790934244793,0.4541886186599732,0.33481104532877604,-0.9523954515880957,0.22839787259819494,-0.2019339386703634,0.7781891017786302,44.586951194991975,1
0.02,12.833108635872861,5.999999878752774,-5.999999841989975,2.550864044264733,14.115442,1.0239528,-6.08249,-0.917891,20.049063,-9.446328,2.074081,-0.13004322,0.42152926,-0.21277033,-0.8718547,-10.595527,-6.1680446,0.19562717,6.0,-6.0,2.550864,0,-0.0916227626800537,-0.33037790934244793,0.4541886186599732,0.33481104532877604,-0.9523954515880957,0.22839787259819494,-0.2019339386703634,0.7781891017786302,44.586951194991975,1
0.03,12.833108635872861,5.999999878752774,-5.999999841989975,2.550864044264733,14.115442,1.0239528,-6.08249,-0.917891,19.94268,-9.507693,2.0759065,-0.13782212,0.3883557,-0.24018317,-0.8789181,-10.679752,-6.1040015,0.17008145,6.0,-6.0,2.550864,0,-0.0916227626800537,-0.33037790934244793,0.4541886186599732,0.33481104532877604,-0.9523954515880957,0.22839787259819494,-0.2019339386703634,0.7781891017786302,44.586951194991975,1
0.04,12.833108635872861,5.999999878752774,-5.999999841989975,2.550864044264733,14.581686,-0.5588505,-2.037328,-1.6244364,19.835495,-9.568387,2.0774944,-0.14533053,0.35442004,-0.2671247,-0.88425666,-10.755662,-6.033834,0.14796636,6.0,-6.0,2.550864,0,-0.0916227626800537,-0.33037790934244793,0.4541886186599732,0.33481104532877604,-0.9523954515880957,0.22839787259819494,-0.2019339386703634,0.7781891017786302,44.586951194991975,1
0.05,12.833108635872861,5.999999878752774,-5.999999841989975,2.550864044264733,14.581686,-0.5588505,-2.037328,-1.6244364,19.727596,-9.628349,2.078875,-0.15255378,0.31978887,-0.29354203,-0.8878601,-10.822759,-5.9578705,0.12852554,6.0,-6.0,2.550864,0,-0.0916227626800537,-0.33037790934244793,0.4541886186599732,0.33481104532877604,-0.9523954515880957,0.22839787259819494,-0.2019339386703634,0.7781891017786302,44.586951194991975,1
0.060000000000000005,12.833108635872861,5.999999878752774,-5.999999841989975,2.550864044264733,14.581686,-0.5588505,-2.037328,-1.6244364,19.619072,-9.687525,2.0800714,-0.15947765,0.28453022,-0.31938335,-0.8897212,-10.88061,-5.8764863,0.1109817,6.0,-6.0,2.550864,0,-0.0916227626800537,-0.33037790934244793,0.4541886186599732,0.33481104532877604,-0.9523954515880957,0.22839787259819494,-0.2019339386703634,0.7781891017786302,44.586951194991975,1
0.07,12.833108635872861,5.999999878752774,-5.999999841989975,2.550864044264733,14.581686,-0.5588505,-2.037328,-1.6244364,19.510017,-9.745861,2.0810986,-0.1660886,0.2487132,-0.34459794,-0.8898364,-10.928864,-5.7900987,0.09454261,6.0,-6.0,2.550864,0,-0.012364064455032348,-0.10000834782918294,0.4938179677724838,0.44999582608540856,-0.8639460656896235,0.49827222017809525,-0.07295197172258595,1.010342288276643,57.8883489818416,1
0.08,19.29010028733497,5.999999797342264,-5.9999997401100895,0.962338941921005,15.323594,-0.9560467,-0.5668821,-2.0641806,19.400528,-9.80331,2.0819633,-0.1723736,0.21240808,-0.3691363,-0.88820535,-10.967234,-5.699164,0.07840738,6.0,-6.0,2.550864,0,-0.012364064455032348,-0.10000834782918294,0.4938179677724838,0.44999582608540856,-0.8639460656896235,0.49827222017809525,-0.07295197172258595,1.010342288276643,57.8883489818416,1
0.09,19.29010028733497,5.999999797342264,-5.9999997401100895,0.962338941921005,15.323594,-0.9560467,-0.5668821,-2.0641806,19.29063,-9.859592,2.08287,-0.18538503,0.17863116,-0.39128998,-0.88352454,-11.00974,-5.556397,0.102783985,6.0,-5.9999995,0.9623389,0,-0.012364064455032348,-0.10000834782918294,0.4938179677724838,0.44999582608540856,-0.8639460656896235,0.49827222017809525,-0.07295197172258595,1.010342288276643,57.8883489818416,1
0.09999999999999999,19.29010028733497,5.999999797342264,-5.9999997401100895,0.962338941921005,15.323594,-0.9560467,-0.5668821,-2.0641806,19.180386,-9.914421,2.0840125,-0.19805856,0.1445286,-0.4127304,-0.8772332,-11.036831,-5.408452,0.12538266,6.0,-5.9999995,0.9623389,0,-0.012364064455032348,-0.10000834782918294,0.4938179677724838,0.44999582608540856,-0.8639460656896235,0.49827222017809525,-0.07295197172258595,1.010342288276643,57.8883489818416,1
0.10999999999999999,19.29010028733497,5.999999797342264,-5.9999997401100895,0.962338941921005,15.323594,-0.9560467,-0.5668821,-2.0641806,19.069948,-9.967748,2.0853677,-0.21037103,0.110162586,-0.43341848,-0.86934274,-11.048356,-5.2563033,0.14521411,6.0,-5.9999995,0.9623389,0,-0.012364064455032348,-0.10000834782918294,0.4938179677724838,0.44999582608540856,-0.8639460656896235,0.49827222017809525,-0.07295197172258595,1.010342288276643,57.8883489818416,1
0.11999999999999998,19.29010028733497,5.999999797342264,-5.9999997401100895,0.962338941921005,15.323594,-0.9560467,-0.5668821,-2.0641806,18.95947,-10.019536,2.0869036,-0.22230002,0.07559576,-0.45331648,-0.8598676,-11.04428,-5.1009564,0.16130918,6.0,-5.9999995,0.9623389,0,-0.012364064455032348,-0.10000834782918294,0.4938179677724838,0.44999582608540856,-0.8639460656896235,0.49827222017809525,-0.07295197172258595,1.010342288276643,57.8883489818416,1
0.12999999999999998,20.999999429039146,4.495878299188644,-5.656840782926705,-0.6391942632876895,14.827693,-2.1177435,1.115571,-2.4550292,18.849113,-10.069758,2.0885777,-0.23382379,0.040891137,-0.47238818,-0.848825,-11.02468,-4.9434385,0.17272599,6.0,-5.9999995,0.9623389,0,-0.012364064455032348,-0.10000834782918294,0.4938179677724838,0.44999582608540856,-0.8639460656896235,0.49827222017809525,-0.07295197172258595,1.010342288276643,57.8883489818416,1
0.13999999999999999,20.999999429039146,4.495878299188644,-5.656840782926705,-0.6391942632876895,14.827693,-2.1177435,1.115571,-2.4550292,18.739042,-10.118331,2.0903878,-0.25065944,0.013115514,-0.48441163,-0.8380592,-10.98739,-4.771141,0.18866512,4.495878,-5.656841,-0.63919425,0,-0.11445453643798828,0.05999455769856771,0.44277273178100585,0.5299972788492838,-0.7276546363023106,0.6797811733574463,0.09174032165043615,1.1610656772005292,66.52416304108912,1
0.15,20.999999429039146,4.495878299188644,-5.656840782926705,-0.6391942632876895,14.827693,-2.1177435,1.115571,-2.4550292,18.629416,-10.165184,2.092336,-0.26716536,-0.0146773625,-0.49579793,-0.82619107,-10.93561,-4.59974,0.2002117,4.495878,-5.656841,-0.63919425,0,-0.11445453643798828,0.05999455769856771,0.44277273178100585,0.5299972788492838,-0.7276546363023106,0.6797811733574463,0.09174032165043615,1.1610656772005292,66.52416304108912,1
0.16,20.99999908398929,1.3381616175668407,-1.1780739941156948,-1.3793428735189766,14.4615345,-1.5224863,1.0115786,-2.242937,18.520378,-10.210332,2.0943754,-0.28331986,-0.04245093,-0.506532,-0.8132362,-10.86959,-4.4301853,0.20687065,4.495878,-5.656841,-0.63919425,0,-0.11445453643798828,0.05999455769856771,0.44277273178100585,0.5299972788492838,-0.7276546363023106,0.6797811733574463,0.09174032165043615,1.1610656772005292,66.52416304108912,1
0.17,20.99999908398929,1.3381616175668407,-1.1780739941156948,-1.3793428735189766,14.4615345,-1.5224863,1.0115786,-2.242937,18.41206,-10.253793,2.0964592,-0.29160997,-0.04564066,-0.51056486,-0.8075915,-10.793601,-4.262359,0.20956166,1.3381616,-1.178074,-1.3793429,0,-0.11445453643798828,0.05999455769856771,0.44277273178100585,0.5299972788492838,-0.7276546363023106,0.6797811733574463,0.09174032165043615,1.1610656772005292,66.52416304108912,1
0.18000000000000002,20.99999908398929,1.3381616175668407,-1.1780739941156948,-1.3793428735189766,14.4615345,-1.5224863,1.0115786,-2.242937,18.304516,-10.295579,2.0985603,-0.29986304,-0.04882459,-0.51453286,-0.8018443,-10.7143755,-4.094936,0.21041411,1.3381616,-1.178074,-1.3793429,0,-0.11445453643798828,0.05999455769856771,0.44277273178100585,0.5299972788492838,-0.7276546363023106,0.6797811733574463,0.09174032165043615,1.1610656772005292,66.52416304108912,1
0.19000000000000003,20.99999908398929,1.3381616175668407,-1.1780739941156948,-1.3793428735189766,14.4615345,-1.5224863,1.0115786,-2.242937,18.197784,-10.335693,2.100661,-0.30807802,-0.052002322,-0.51843554,-0.79599524,-10.631922,-3.9279985,0.2094344,1.3381616,-1.178074,-1.3793429,0,-0.11445453643798828,0.05999455769856771,0.44277273178100585,0.5299972788492838,-0.7276546363023106,0.6797811733574463,0.09174032165043615,1.1610656772005292,66.52416304108912,1
0.20000000000000004,20.999997887607385,0.2847394781869372,0.43555724562084625,-1.4090035548332513,15.5887785,-2.5939085,3.374368,-1.4233893,18.09189,-10.37414,2.1027427,-0.31625387,-0.05517345,-0.52227235,-0.7900451,-10.546249,-3.7616317,0.20662987,1.3381616,-1.178074,-1.3793429,0,0.14258749008178712,-0.17117331186930337,0.5712937450408936,0.4144133440653483,-0.27904460208811377,0.9600431685479461,-0.021242047215522076,1.6305445910082454,93.42332337265742,1
0.21000000000000005,20.999997887607385,0.2847394781869372,0.43555724562084625,-1.4090035548332513,15.5887785,-2.5939085,3.374368,-1.4233893,17.986866,-10.410927,2.1047885,-0.32059485,-0.05022222,-0.5244597,-0.7871714,-10.458742,-3.5954127,0.20241106,0.28473946,0.43555725,-1.4090035,0,0.14258749008178712,-0.17117331186930337,0.5712937450408936,0.4144133440653483,-0.27904460208811377,0.9600431685479461,-0.021242047215522076,1.6305445910082454,93.42332337265742,1
0.22000000000000006,20.999997887607385,0.2847394781869372,0.43555724562084625,-1.4090035548332513,15.5887785,-2.5939085,3.374368,-1.4233893,17.882713,-10.446047,2.1067884,-0.32491773,-0.045268167,-0.5266175,-0.7842533,-10.371688,-3.4285374,0.19744551,0.28473946,0.43555725,-1.4090035,0,0.14258749008178712,-0.17117331186930337,0.5712937450408936,0.4144133440653483,-0.27904460208811377,0.9600431685479461,-0.021242047215522076,1.6305445910082454,93.42332337265742,1
0.23000000000000007,20.999997887607385,0.2847394781869372,0.43555724562084625,-1.4090035548332513,15.5887785,-2.5939085,3.374368,-1.4233893,17.77943,-10.479495,2.1087348,-0.3292223,-0.040311556,-0.5287457,-0.781291,-10.285076,-3.2610114,0.19172183,0.28473946,0.43555725,-1.4090035,0,0.14258749008178712,-0.17117331186930337,0.5712937450408936,0.4144133440653483,-0.27904460208811377,0.9600431685479461,-0.021242047215522076,1.6305445910082454,93.42332337265742,1
0.24000000000000007,20.999997887607385,0.2847394781869372,0.43555724562084625,-1.4090035548332513,14.921295,-2.3823748,4.041666,-1.441616,17.677011,-10.511265,2.1106203,-0.33350828,-0.03535267,-0.5308441,-0.7782846,-10.198898,-3.092841,0.18522881,0.28473946,0.43555725,-1.4090035,0,0.14258749008178712,-0.17117331186930337,0.5712937450408936,0.4144133440653483,-0.27904460208811377,0.9600431685479461,-0.021242047215522076,1.6305445910082454,93.42332337265742,1
0.25000000000000006,20.999997887607385,0.2847394781869372,0.43555724562084625,-1.4090035548332513,14.921295,-2.3823748,4.041666,-1.441616,17.575449,-10.541349,2.1124368,-0.33777547,-0.03039179,-0.5329125,-0.7752343,-10.113141,-2.9240324,0.17795545,0.28473946,0.43555725,-1.4090035,0,0.14258749008178712,-0.17117331186930337,0.5712937450408936,0.4144133440653483,-0.27904460208811377,0.9600431685479461,-0.021242047215522076,1.6305445910082454,93.42332337265742,1
0.26000000000000006,20.999997887607385,0.2847394781869372,0.43555724562084625,-1.4090035548332513,14.921295,-2.3823748,4.041666,-1.441616,17.474745,-10.569744,2.1141765,-0.3420236,-0.025429197,-0.53495085,-0.7721403,-10.027796,-2.754593,0.16989094,0.28473946,0.43555725,-1.4090035,0,0.14258749008178712,-0.17117331186930337,0.5712937450408936,0.4144133440653483,-0.27904460208811377,0.9600431685479461,-0.021242047215522076,1.6305445910082454,93.42332337265742,1
0.2700000000000001,20.999997887607385,0.2847394781869372,0.43555724562084625,-1.4090035548332513,14.921295,-2.3823748,4.041666,-1.441616,17.374891,-10.59644,2.1158314,-0.34625247,-0.020465171,-0.53695905,-0.7690028,-9.942853,-2.5845287,0.16102459,0.28473946,0.43555725,-1.4090035,0,0.044405646324157715,-0.20159762064615885,0.5222028231620789,0.3992011896769206,-0.28043704543676895,0.9597913168515182,-0.012477645736454587,1.5408344675220356,88.28331191730015,1
0.2800000000000001,20.520088906651665,-0.7909665545289924,1.6298822874238983,-1.385131190586749,16.528845,-2.2557132,4.268203,-1.4267287,17.275887,-10.621433,2.1173937,-0.35046178,-0.015499989,-0.538937,-0.7658219,-9.8583,-2.4138467,0.15134592,0.28473946,0.43555725,-1.4090035,0,0.044405646324157715,-0.20159762064615885,0.5222028231620789,0.3992011896769206,-0.28043704543676895,0.9597913168515182,-0.012477645736454587,1.5408344675220356,88.28331191730015,1
0.2900000000000001,20.520088906651665,-0.7909665545289924,1.6298822874238983,-1.385131190586749,16.528845,-2.2557132,4.268203,-1.4267287,17.177711,-10.644733,2.1188462,-0.3514121,-0.0041397205,-0.5388366,-0.76560265,-9.777178,-2.2461061,0.1392026,-0.7909666,1.6298823,-1.3851312,0,0.044405646324157715,-0.20159762064615885,0.5222028231620789,0.3992011896769206,-0.28043704543676895,0.9597913168515182,-0.012477645736454587,1.5408344675220356,88.28331191730015,1
0.3000000000000001,20.520088906651665,-0.7909665545289924,1.6298822874238983,-1.385131190586749,16.528845,-2.2557132,4.268203,-1.4267287,17.080332,-10.666349,2.120178,-0.35231665,0.007221087,-0.53866625,-0.7652838,-9.699437,-2.0768266,0.1271671,-0.7909666,1.6298823,-1.3851312,0,0.044405646324157715,-0.20159762064615885,0.5222028231620789,0.3992011896769206,-0.28043704543676895,0.9597913168515182,-0.012477645736454587,1.5408344675220356,88.28331191730015,1
0.3100000000000001,20.520088906651665,-0.7909665545289924,1.6298822874238983,-1.385131190586749,16.528845,-2.2557132,4.268203,-1.4267287,16.983711,-10.686265,2.1213896,-0.35317543,0.018580955,-0.5384258,-0.7648655,-9.625095,-1.9060432,0.11516446,-0.7909666,1.6298823,-1.3851312,0,0.044405646324157715,-0.20159762064615885,0.5222028231620789,0.3992011896769206,-0.28043704543676895,0.9597913168515182,-0.012477645736454587,1.5408344675220356,88.28331191730015,1
0.3200000000000001,19.21576734494052,-1.8220563641757097,2.2658325681321765,-1.284760516805746,16.330734,-2.826818,5.2463803,-1.4094819,16.88782,-10.704466,2.122481,-0.35398832,0.029938405,-0.5381154,-0.7643478,-9.55417,-1.7337924,0.103119686,-0.7909666,1.6298823,-1.3851312,0,0.044405646324157715,-0.20159762064615885,0.5222028231620789,0.3992011896769206,-0.28043704543676895,0.9597913168515182,-0.012477645736454587,1.5408344675220356,88.28331191730015,1
0.3300000000000001,19.21576734494052,-1.8220563641757097,2.2658325681321765,-1.284760516805746,16.330734,-2.826818,5.2463803,-1.4094819,16.792595,-10.720992,2.1234252,-0.35248455,0.04527508,-0.5349022,-0.7665404,-9.491736,-1.5710518,0.08588841,-1.8220564,2.2658327,-1.2847605,0,0.044405646324157715,-0.20159762064615885,0.5222028231620789,0.3992011896769206,-0.28043704543676895,0.9597913168515182,-0.012477645736454587,1.5408344675220356,88.28331191730015,1
0.34000000000000014,19.21576734494052,-1.8220563641757097,2.2658325681321765,-1.284760516805746,16.330734,-2.826818,5.2463803,-1.4094819,16.69797,-10.735883,2.1242015,-0.35089174,0.06060032,-0.53155386,-0.76853937,-9.434612,-1.406784,0.06948905,-1.8220564,2.2658327,-1.2847605,0,-0.16946613311767578,0.01136353333791097,0.4152669334411621,0.5056817666689555,-0.607081746844935,0.7920071012649305,-0.06462587866810858,1.064830247827544,61.01027909838777,1
0.35000000000000014,19.21576734494052,-1.8220563641757097,2.2658325681321765,-1.284760516805746,16.330734,-2.826818,5.2463803,-1.4094819,16.603888,-10.749124,2.1248174,-0.3492103,0.07591025,-0.52807134,-0.7703442,-9.382846,-1.2410954,0.053788338,-1.8220564,2.2658327,-1.2847605,0,-0.16946613311767578,0.01136353333791097,0.4152669334411621,0.5056817666689555,-0.607081746844935,0.7920071012649305,-0.06462587866810858,1.064830247827544,61.01027909838777,1
0.36000000000000015,18.224416483971524,-2.267610320857803,2.122690437248821,-1.2291217506281402,15.890435,-2.7189891,4.3965607,-1.2457546,16.510294,-10.760701,2.1252792,-0.34744063,0.091201,-0.5244554,-0.7719544,-9.336481,-1.0740945,0.038652264,-1.8220564,2.2658327,-1.2847605,0,-0.16946613311767578,0.01136353333791097,0.4152669334411621,0.5056817666689555,-0.607081746844935,0.7920071012649305,-0.06462587866810858,1.064830247827544,61.01027909838777,1
0.37000000000000016,18.224416483971524,-2.267610320857803,2.122690437248821,-1.2291217506281402,15.890435,-2.7189891,4.3965607,-1.2457546,16.417126,-10.770646,2.125571,-0.34553608,0.106543064,-0.51875716,-0.77468973,-9.297787,-0.9146767,0.019919572,-2.2676103,2.1226904,-1.2291218,0,-0.16946613311767578,0.01136353333791097,0.4152669334411621,0.5056817666689555,-0.607081746844935,0.7920071012649305,-0.06462587866810858,1.064830247827544,61.01027909838777,1
0.38000000000000017,18.224416483971524,-2.267610320857803,2.122690437248821,-1.2291217506281402,15.890435,-2.7189891,4.3965607,-1.2457546,16.324318,-10.778993,2.125681,-0.34353513,0.12185541,-0.5129142,-0.777209,-9.264613,-0.75452185,0.0021959613,-2.2676103,2.1226904,-1.2291218,0,-0.16946613311767578,0.01136353333791097,0.4152669334411621,0.5056817666689555,-0.607081746844935,0.7920071012649305,-0.06462587866810858,1.064830247827544,61.01027909838777,1
0.3900000000000002,18.224416483971524,-2.267610320857803,2.122690437248821,-1.2291217506281402,15.890435,-2.7189891,4.3965607,-1.2457546,16.231815,-10.785734,2.1256182,-0.34143832,0.13713376,-0.50692815,-0.77951133,-9.236998,-0.5937522,-0.014657497,-2.2676103,2.1226904,-1.2291218,0,-0.16946613311767578,0.01136353333791097,0.4152669334411621,0.5056817666689555,-0.607081746844935,0.7920071012649305,-0.06462587866810858,1.064830247827544,61.01027909838777,1
0.4000000000000002,17.510836281633235,-2.0530255363650918,1.140072457865562,-1.1655262914646334,15.867592,-2.914922,3.8470497,-0.987398,16.13956,-10.790866,2.1253905,-0.33924627,0.15237385,-0.5008007,-0.78159624,-9.214974,-0.43249092,-0.030780664,-2.2676103,2.1226904,-1.2291218,0,-0.3694960784912109,0.014697818756103516,0.31525196075439454,0.5073489093780518,-0.7828123865490305,0.6214637630117078,-0.03142544715257875,0.7179007272619451,41.13268178148186,1
0.4100000000000002,17.510836281633235,-2.0530255363650918,1.140072457865562,-1.1655262914646334,15.867592,-2.914922,3.8470497,-0.987398,16.047497,-10.794415,2.1249893,-0.33935308,0.16321672,-0.49378058,-0.78382415,-9.198648,-0.27738997,-0.04926427,-2.0530255,1.1400725,-1.1655263,0,-0.3694960784912109,0.014697818756103516,0.31525196075439454,0.5073489093780518,-0.7828123865490305,0.6214637630117078,-0.03142544715257875,0.7179007272619451,41.13268178148186,1
0.4200000000000002,17.510836281633235,-2.0530255363650918,1.140072457865562,-1.1655262914646334,15.867592,-2.914922,3.8470497,-0.987398,15.955575,-10.796414,2.1244092,-0.3394016,0.17403154,-0.48667556,-0.78591746,-9.186241,-0.12255482,-0.066532664,-2.0530255,1.1400725,-1.1655263,0,-0.3694960784912109,0.014697818756103516,0.31525196075439454,0.5073489093780518,-0.7828123865490305,0.6214637630117078,-0.03142544715257875,0.7179007272619451,41.13268178148186,1
0.4300000000000002,17.510836281633235,-2.0530255363650918,1.140072457865562,-1.1655262914646334,15.867592,-2.914922,3.8470497,-0.987398,15.863758,-10.796867,2.1236625,-0.3393918,0.18481646,-0.47948694,-0.7878757,-9.177774,0.031951316,-0.08267067,-2.0530255,1.1400725,-1.1655263,0,-0.3694960784912109,0.014697818756103516,0.31525196075439454,0.5073489093780518,-0.7828123865490305,0.6214637630117078,-0.03142544715257875,0.7179007272619451,41.13268178148186,1
0.4400000000000002,17.510836281633235,-2.0530255363650918,1.140072457865562,-1.1655262914646334,15.882247,-2.5850182,2.7463858,-0.8620503,15.772007,-10.795778,2.1227596,-0.33932367,0.19556965,-0.47221592,-0.7896986,-9.173265,0.18606539,-0.09776388,-2.0530255,1.1400725,-1.1655263,0,-0.3694960784912109,0.014697818756103516,0.31525196075439454,0.5073489093780518,-0.7828123865490305,0.6214637630117078,-0.03142544715257875,0.7179007272619451,41.13268178148186,1
0.45000000000000023,17.510836281633235,-2.0530255363650918,1.140072457865562,-1.1655262914646334,15.882247,-2.5850182,2.7463858,-0.8620503,15.680282,-10.793149,2.1217105,-0.33919725,0.20628922,-0.46486378,-0.79138577,-9.1727295,0.33972466,-0.11189865,-2.0530255,1.1400725,-1.1655263,0,-0.3694960784912109,0.014697818756103516,0.31525196075439454,0.5073489093780518,-0.7828123865490305,0.6214637630117078,-0.03142544715257875,0.7179007272619451,41.13268178148186,1
0.46000000000000024,17.510836281633235,-2.0530255363650918,1.140072457865562,-1.1655262914646334,15.882247,-2.5850182,2.7463858,-0.8620503,15.588541,-10.788985,2.120525,-0.33901253,0.21697333,-0.45743173,-0.792937,-9.176178,0.49286658,-0.12516193,-2.0530255,1.1400725,-1.1655263,0,-0.3694960784912109,0.014697818756103516,0.31525196075439454,0.5073489093780518,-0.7828123865490305,0.6214637630117078,-0.03142544715257875,0.7179007272619451,41.13268178148186,1
0.47000000000000025,17.510836281633235,-2.0530255363650918,1.140072457865562,-1.1655262914646334,15.882247,-2.5850182,2.7463858,-0.8620503,15.496745,-10.783294,2.1192105,-0.33876958,0.22762017,-0.4499211,-0.7943519,-9.18362,0.64542913,-0.13764134,-2.0530255,1.1400725,-1.1655263,0,-0.2839809226989746,-0.21599255879720053,0.35800953865051266,0.39200372060139976,-0.7115736173604815,0.702568016623935,-0.007821067294748907,0.7088649343420004,40.61496898261483,1
0.48000000000000026,17.17051278828256,-1.756673265315468,0.7333687472356188,-1.0647586915448661,16.200874,-2.7219512,2.5058208,-0.7865268,15.404855,-10.776079,2.1177747,-0.33846846,0.23822789,-0.44233316,-0.79563034,-9.195065,0.7973505,-0.14942497,-2.0530255,1.1400725,-1.1655263,0,-0.2839809226989746,-0.21599255879720053,0.35800953865051266,0.39200372060139976,-0.7115736173604815,0.702568016623935,-0.007821067294748907,0.7088649343420004,40.61496898261483,1
0.49000000000000027,17.17051278828256,-1.756673265315468,0.7333687472356188,-1.0647586915448661,16.200874,-2.7219512,2.5058208,-0.7865268,15.312832,-10.7673645,2.1162157,-0.33896968,0.24645881,-0.4352915,-0.7967927,-9.2099,0.9456196,-0.16221365,-1.7566732,0.73336875,-1.0647587,0,-0.2839809226989746,-0.21599255879720053,0.35800953865051266,0.39200372060139976,-0.7115736173604815,0.702568016623935,-0.007821067294748907,0.7088649343420004,40.61496898261483,1
0.5000000000000002,17.17051278828256,-1.756673265315468,0.7333687472356188,-1.0647586915448661,16.200874,-2.7219512,2.5058208,-0.7865268,15.220645,-10.757171,2.1145327,-0.33943057,0.2546604,-0.4281981,-0.7978603,-9.227827,1.0931233,-0.17427264,-1.7566732,0.73336875,-1.0647587,0,-0.2839809226989746,-0.21599255879720053,0.35800953865051266,0.39200372060139976,-0.7115736173604815,0.702568016623935,-0.007821067294748907,0.7088649343420004,40.61496898261483,1
0.5100000000000002,17.17051278828256,-1.756673265315468,0.7333687472356188,-1.0647586915448661,16.200874,-2.7219512,2.5058208,-0.7865268,15.128263,-10.745505,2.1127324,-0.3398511,0.2628317,-0.42105377,-0.798833,-9.248852,1.239824,-0.1856623,-1.7566732,0.73336875,-1.0647587,0,-0.2839809226989746,-0.21599255879720053,0.35800953865051266,0.39200372060139976,-0.7115736173604815,0.702568016623935,-0.007821067294748907,0.7088649343420004,40.61496898261483,1
0.5200000000000002,16.612837902497997,-1.2637862027916384,-0.09854959970217642,-0.947116378844102,16.628492,-2.780324,2.025428,-0.8896985,15.035657,-10.732377,2.1108215,-0.3402312,0.27097175,-0.41385937,-0.7997107,-9.272976,1.3856844,-0.19644332,-1.7566732,0.73336875,-1.0647587,0,-0.2839809226989746,-0.21599255879720053,0.35800953865051266,0.39200372060139976,-0.7115736173604815,0.702568016623935,-0.007821067294748907,0.7088649343420004,40.61496898261483,1
0.5300000000000002,16.612837902497997,-1.2637862027916384,-0.09854959970217642,-0.947116378844102,16.628492,-2.780324,2.025428,-0.8896985,14.9428,-10.717817,2.108792,-0.34249932,0.27467892,-0.4073423,-0.80082315,-9.2987585,1.5259255,-0.209303,-1.2637862,-0.0985496,-0.9471164,0,-0.2839809226989746,-0.21599255879720053,0.35800953865051266,0.39200372060139976,-0.7115736173604815,0.702568016623935,-0.007821067294748907,0.7088649343420004,40.61496898261483,1
0.5400000000000003,16.612837902497997,-1.2637862027916384,-0.09854959970217642,-0.947116378844102,16.628492,-2.780324,2.025428,-0.8896985,14.849676,-10.70186,2.1066394,-0.344746,0.2783689,-0.40079975,-0.8018855,-9.326061,1.6652055,-0.22106686,-1.2637862,-0.0985496,-0.9471164,0,-0.268167667388916,-0.19002460479736327,0.365916166305542,0.40498769760131836,-0.7499310892131452,0.6561741046264815,-0.0838981874012813,0.5421262975192462,31.0615488109064,1
0.5500000000000003,16.612837902497997,-1.2637862027916384,-0.09854959970217642,-0.947116378844102,16.628492,-2.780324,2.025428,-0.8896985,14.756271,-10.684516,2.1043744,-0.34697106,0.28204143,-0.3942321,-0.8028976,-9.354893,1.8035076,-0.23176238,-1.2637862,-0.0985496,-0.9471164,0,-0.268167667388916,-0.19002460479736327,0.365916166305542,0.40498769760131836,-0.7499310892131452,0.6561741046264815,-0.0838981874012813,0.5421262975192462,31.0615488109064,1
0.5600000000000003,16.250328986892935,-0.8582096913216039,-0.5494912287028211,-0.8254472857439735,17.19176,-3.0404544,1.7347629,-0.85812163,14.662571,-10.665793,2.1020079,-0.34917444,0.28569633,-0.3876398,-0.8038594,-9.3852625,1.9408154,-0.24141729,-1.2637862,-0.0985496,-0.9471164,0,-0.268167667388916,-0.19002460479736327,0.365916166305542,0.40498769760131836,-0.7499310892131452,0.6561741046264815,-0.0838981874012813,0.5421262975192462,31.0615488109064,1
0.5700000000000003,16.250328986892935,-0.8582096913216039,-0.5494912287028211,-0.8254472857439735,17.19176,-3.0404544,1.7347629,-0.85812163,14.568564,-10.645718,2.0995402,-0.3523237,0.28657982,-0.38204363,-0.8048493,-9.416125,2.0741584,-0.25191435,-0.85820967,-0.5494912,-0.82544726,0,-0.268167667388916,-0.19002460479736327,0.365916166305542,0.40498769760131836,-0.7499310892131452,0.6561741046264815,-0.0838981874012813,0.5421262975192462,31.0615488109064,1
0.5800000000000003,16.250328986892935,-0.8582096913216039,-0.5494912287028211,-0.8254472857439735,17.19176,-3.0404544,1.7347629,-0.85812163,14.474246,-10.624313,2.096974,-0.35545784,0.287451,-0.37643102,-0.8058046,-9.447557,2.206551,-0.26118127,-0.85820967,-0.5494912,-0.82544726,0,-0.268167667388916,-0.19002460479736327,0.365916166305542,0.40498769760131836,-0.7499310892131452,0.6561741046264815,-0.0838981874012813,0.5421262975192462,31.0615488109064,1
0.5900000000000003,16.250328986892935,-0.8582096913216039,-0.5494912287028211,-0.8254472857439735,17.19176,-3.0404544,1.7347629,-0.85812163,14.37961,-10.601589,2.0943208,-0.3585767,0.28830978,-0.37080222,-0.80672526,-9.479569,2.3379798,-0.26923263,-0.85820967,-0.5494912,-0.82544726,0,-0.268167667388916,-0.19002460479736327,0.365916166305542,0.40498769760131836,-0.7499310892131452,0.6561741046264815,-0.0838981874012813,0.5421262975192462,31.0615488109064,1
0.6000000000000003,15.783880165233043,-0.5278052633323678,-0.7227936052880042,-0.7221200602196087,17.515465,-3.052449,1.4460613,-0.8396927,14.284652,-10.577557,2.0915933,-0.36168012,0.28915617,-0.36515749,-0.8076112,-9.512172,2.468432,-0.27608332,-0.85820967,-0.5494912,-0.82544726,0,-0.3597734451293945,-0.3428083292643229,0.3201132774353027,0.32859583536783854,-0.7563401418896303,0.650228364062425,0.0717820613738332,0.4561985052201498,26.13824896929144,1
0.6100000000000003,15.783880165233043,-0.5278052633323678,-0.7227936052880042,-0.7221200602196087,17.515465,-3.052449,1.4460613,-0.8396927,14.18937,-10.552242,2.08879,-0.36514667,0.28850564,-0.36066905,-0.80830073,-9.544204,2.5942328,-0.28440034,-0.52780527,-0.7227936,-0.72212005,0,-0.3597734451293945,-0.3428083292643229,0.3201132774353027,0.32859583536783854,-0.7563401418896303,0.650228364062425,0.0717820613738332,0.4561985052201498,26.13824896929144,1
0.6200000000000003,15.783880165233043,-0.5278052633323678,-0.7227936052880042,-0.7221200602196087,17.515465,-3.052449,1.4460613,-0.8396927,14.093768,-10.525674,2.0859091,-0.3686011,0.28784558,-0.3561687,-0.80896354,-9.576254,2.7192051,-0.29157355,-0.52780527,-0.7227936,-0.72212005,0,-0.3597734451293945,-0.3428083292643229,0.3201132774353027,0.32859583536783854,-0.7563401418896303,0.650228364062425,0.0717820613738332,0.4561985052201498,26.13824896929144,1
0.6300000000000003,15.783880165233043,-0.5278052633323678,-0.7227936052880042,-0.7221200602196087,17.515465,-3.052449,1.4460613,-0.8396927,13.997846,-10.49786,2.0829625,-0.37204337,0.28717598,-0.35165656,-0.8095994,-9.608328,2.843337,-0.29761153,-0.52780527,-0.7227936,-0.72212005,0,-0.3597734451293945,-0.3428083292643229,0.3201132774353027,0.32859583536783854,-0.7563401418896303,0.650228364062425,0.0717820613738332,0.4561985052201498,26.13824896929144,1
0.6400000000000003,15.783880165233043,-0.5278052633323678,-0.7227936052880042,-0.7221200602196087,17.439085,-2.8540323,1.1041269,-0.7418654,13.901603,-10.468809,2.079961,-0.37547338,0.28649688,-0.3471328,-0.81020856,-9.640434,2.966617,-0.30252308,-0.52780527,-0.7227936,-0.72212005,0,-0.3597734451293945,-0.3428083292643229,0.3201132774353027,0.32859583536783854,-0.7563401418896303,0.650228364062425,0.0717820613738332,0.4561985052201498,26.13824896929144,1
0.6500000000000004,15.783880165233043,-0.5278052633323678,-0.7227936052880042,-0.7221200602196087,17.439085,-2.8540323,1.1041269,-0.7418654,13.805038,-10.43853,2.076916,-0.37889096,0.28580832,-0.34259754,-0.810791,-9.672581,3.089034,-0.3063171,-0.52780527,-0.7227936,-0.72212005,0,-0.3597734451293945,-0.3428083292643229,0.3201132774353027,0.32859583536783854,-0.7563401418896303,0.650228364062425,0.0717820613738332,0.4561985052201498,26.13824896929144,1
0.6600000000000004,15.783880165233043,-0.5278052633323678,-0.7227936052880042,-0.7221200602196087,17.439085,-2.8540323,1.1041269,-0.7418654,13.708151,-10.407031,2.0738385,-0.382296,0.28511032,-0.33805096,-0.8113466,-9.704774,3.2105765,-0.30900264,-0.52780527,-0.7227936,-0.72212005,0,-0.3597734451293945,-0.3428083292643229,0.3201132774353027,0.32859583536783854,-0.7563401418896303,0.650228364062425,0.0717820613738332,0.4561985052201498,26.13824896929144,1
0.6700000000000004,15.783880165233043,-0.5278052633323678,-0.7227936052880042,-0.7221200602196087,17.439085,-2.8540323,1.1041269,-0.7418654,13.610943,-10.374322,2.0707395,-0.3856884,0.28440288,-0.3334932,-0.8118754,-9.737023,3.3312333,-0.31058902,-0.52780527,-0.7227936,-0.72212005,0,-0.3807662582397461,-0.285859375,0.30961687088012696,0.3570703125,-0.7715973567314363,0.6335581605689472,0.05693484224578588,0.3578367834860927,20.502537448289747,0
0.6800000000000004,15.407629124448071,-0.37651690587920905,-0.6835556914586491,-0.6340040901973658,16.616179,-1.8060188,3.3239384,0.28373623,13.513411,-10.34041,2.0676303,-0.38906804,0.28368604,-0.32892445,-0.8123773,-9.769334,3.4509935,-0.31108552,-0.52780527,-0.7227936,-0.72212005,0,-0.3807662582397461,-0.285859375,0.30961687088012696,0.3570703125,-0.7715973567314363,0.6335581605689472,0.05693484224578588,0.3578367834860927,20.502537448289747,0
0.6900000000000004,15.407629124448071,-0.37651690587920905,-0.6835556914586491,-0.6340040901973658,16.616179,-1.8060188,3.3239384,0.28373623,13.41556,-10.305319,2.0645096,-0.39222848,0.28268105,-0.32516187,-0.81272244,-9.800882,3.5670652,-0.31289744,-0.3765169,-0.68355566,-0.6340041,0,-0.3807662582397461,-0.285859375,0.30961687088012696,0.3570703125,-0.7715973567314363,0.6335581605689472,0.05693484224578588,0.3578367834860927,20.502537448289747,0
0.7000000000000004,15.407629124448071,-0.37651690587920905,-0.6835556914586491,-0.6340040901973658,16.616179,-1.8060188,3.3239384,0.28373623,13.317393,-10.269072,2.0613754,-0.395379,0.2816689,-0.3213911,-0.81304705,-9.832346,3.6823814,-0.313778,-0.3765169,-0.68355566,-0.6340041,0,-0.3807662582397461,-0.285859375,0.30961687088012696,0.3570703125,-0.7715973567314363,0.6335581605689472,0.05693484224578588,0.3578367834860927,20.502537448289747,0
0.7100000000000004,15.407629124448071,-0.37651690587920905,-0.6835556914586491,-0.6340040901973658,16.616179,-1.8060188,3.3239384,0.28373623,13.218913,-10.231674,2.058237,-0.39851952,0.28064972,-0.31761223,-0.81335115,-9.863731,3.7969332,-0.31373373,-0.3765169,-0.68355566,-0.6340041,0,-0.3807662582397461,-0.285859375,0.30961687088012696,0.3570703125,-0.7715973567314363,0.6335581605689472,0.05693484224578588,0.3578367834860927,20.502537448289747,0
0.7200000000000004,14.882570031266704,-0.08533461209463175,-0.8798147648826196,-0.5639013637726566,16.313124,-1.6075362,3.0410757,0.3499453,13.12012,-10.193134,2.055104,-0.40164998,0.2796234,-0.3138253,-0.8136347,-9.895041,3.9107122,-0.31277126,-0.3765169,-0.68355566,-0.6340041,0,-0.3807662582397461,-0.285859375,0.30961687088012696,0.3570703125,-0.7715973567314363,0.6335581605689472,0.05693484224578588,0.3578367834860927,20.502537448289747,0
0.7300000000000004,14.882570031266704,-0.08533461209463175,-0.8798147648826196,-0.5639013637726566,16.313124,-1.6075362,3.0410757,0.3499453,13.021019,-10.153481,2.0519679,-0.40519974,0.2770965,-0.3109185,-0.813855,-9.925026,4.019885,-0.3142731,-0.085334614,-0.87981474,-0.56390136,0,-0.3807662582397461,-0.285859375,0.30961687088012696,0.3570703125,-0.7715973567314363,0.6335581605689472,0.05693484224578588,0.3578367834860927,20.502537448289747,0
0.7400000000000004,14.882570031266704,-0.08533461209463175,-0.8798147648826196,-0.5639013637726566,16.313124,-1.6075362,3.0410757,0.3499453,12.921621,-10.112738,2.0488214,-0.40873834,0.274562,-0.30800325,-0.814053,-9.954437,4.1283603,-0.31481794,-0.085334614,-0.87981474,-0.56390136,0,-0.2541926383972168,-0.14476089477539061,0.3729036808013916,0.42761955261230467,-0.7131584502700513,0.697611541418779,-0.06887061846487277,0.3812422755498548,21.843573360970254,0
0.7500000000000004,14.882570031266704,-0.08533461209463175,-0.8798147648826196,-0.5639013637726566,16.313124,-1.6075362,3.0410757,0.3499453,12.821934,-10.070914,2.0456743,-0.41226572,0.27201998,-0.3050795,-0.8142286,-9.983279,4.236127,-0.31441185,-0.085334614,-0.87981474,-0.56390136,0,-0.2541926383972168,-0.14476089477539061,0.3729036808013916,0.42761955261230467,-0.7131584502700513,0.697611541418779,-0.06887061846487277,0.3812422755498548,21.843573360970254,0
0.7600000000000005,14.406292715129036,0.0839294609292774,-0.8145484982179025,-0.5035485516861519,15.785856,-1.3743564,2.240748,0.37878937,12.721959,-10.028018,2.042536,-0.41578177,0.26947048,-0.30214736,-0.8143818,-10.011557,4.3431726,-0.31306097,-0.085334614,-0.87981474,-0.56390136,0,-0.2541926383972168,-0.14476089477539061,0.3729036808013916,0.42761955261230467,-0.7131584502700513,0.697611541418779,-0.06887061846487277,0.3812422755498548,21.843573360970254,0
0.7700000000000005,14.406292715129036,0.0839294609292774,-0.8145484982179025,-0.5035485516861519,15.785856,-1.3743564,2.240748,0.37878937,12.621709,-9.984071,2.0394,-0.419171,0.26673684,-0.3001138,-0.81429625,-10.038328,4.446146,-0.31403294,0.083929464,-0.8145485,-0.50354856,0,-0.2541926383972168,-0.14476089477539061,0.3729036808013916,0.42761955261230467,-0.7131584502700513,0.697611541418779,-0.06887061846487277,0.3812422755498548,21.843573360970254,0
0.7800000000000005,14.406292715129036,0.0839294609292774,-0.8145484982179025,-0.5035485516861519,15.785856,-1.3743564,2.240748,0.37878937,12.5211935,-9.939097,2.036258,-0.42255056,0.26399705,-0.2980733,-0.8141919,-10.064404,4.5485635,-0.3142314,0.083929464,-0.8145485,-0.50354856,0,-0.2541926383972168,-0.14476089477539061,0.3729036808013916,0.42761955261230467,-0.7131584502700513,0.697611541418779,-0.06887061846487277,0.3812422755498548,21.843573360970254,0
0.7900000000000005,14.406292715129036,0.0839294609292774,-0.8145484982179025,-0.5035485516861519,15.785856,-1.3743564,2.240748,0.37878937,12.420422,-9.893103,2.0331178,-0.42592037,0.26125115,-0.29602593,-0.81406873,-10.089786,4.6504164,-0.31366092,0.083929464,-0.8145485,-0.50354856,0,-0.2541926383972168,-0.14476089477539061,0.3729036808013916,0.42761955261230467,-0.7131584502700513,0.697611541418779,-0.06887061846487277,0.3812422755498548,21.843573360970254,0
0.8000000000000005,13.873173746150387,0.1886190084049116,-1.043575609025572,-0.4611320308918874,15.099907,-1.2395833,1.5461609,0.36890674,12.319401,-9.846091,2.029987,-0.4292803,0.25849923,-0.29397172,-0.81392676,-10.114476,4.7516937,-0.3123262,0.083929464,-0.8145485,-0.50354856,0,-0.328724365234375,-0.19328638712565105,0.3356378173828125,0.4033568064371745,-0.724191763801078,0.6890565542648207,0.02733778095193548,0.32135190821492676,18.412108079190713,0
0.8100000000000005,13.873173746150387,0.1886190084049116,-1.043575609025572,-0.4611320308918874,15.099907,-1.2395833,1.5461609,0.36890674,12.218142,-9.798089,2.0268555,-0.43292746,0.25452086,-0.2918985,-0.81399494,-10.137486,4.848619,-0.3138739,0.188619,-1.0435756,-0.46113202,0,-0.328724365234375,-0.19328638712565105,0.3356378173828125,0.4033568064371745,-0.724191763801078,0.6890565542648207,0.02733778095193548,0.32135190821492676,18.412108079190713,0
0.8200000000000005,13.873173746150387,0.1886190084049116,-1.043575609025572,-0.4611320308918874,15.099907,-1.2395833,1.5461609,0.36890674,12.116655,-9.749122,2.0237129,-0.43656012,0.25053406,-0.2898155,-0.81403595,-10.159555,4.9448605,-0.31452143,0.188619,-1.0435756,-0.46113202,0,-0.328724365234375,-0.19328638712565105,0.3356378173828125,0.4033568064371745,-0.724191763801078,0.6890565542648207,0.02733778095193548,0.32135190821492676,18.412108079190713,0
0.8300000000000005,13.873173746150387,0.1886190084049116,-1.043575609025572,-0.4611320308918874,15.099907,-1.2395833,1.5461609,0.36890674,12.014953,-9.699195,2.0205684,-0.4401782,0.24653885,-0.2877228,-0.8140497,-10.180685,5.040402,-0.31427726,0.188619,-1.0435756,-0.46113202,0,-0.328724365234375,-0.19328638712565105,0.3356378173828125,0.4033568064371745,-0.724191763801078,0.6890565542648207,0.02733778095193548,0.32135190821492676,18.412108079190713,0
0.8400000000000005,13.873173746150387,0.1886190084049116,-1.043575609025572,-0.4611320308918874,14.568896,-1.0645128,0.6018073,0.41731775,11.913045,-9.648315,2.0174305,-0.44378158,0.2425354,-0.2856205,-0.81403625,-10.200879,5.1352305,-0.31315,0.188619,-1.0435756,-0.46113202,0,-0.328724365234375,-0.19328638712565105,0.3356378173828125,0.4033568064371745,-0.724191763801078,0.6890565542648207,0.02733778095193548,0.32135190821492676,18.412108079190713,0
0.8500000000000005,13.873173746150387,0.1886190084049116,-1.043575609025572,-0.4611320308918874,14.568896,-1.0645128,0.6018073,0.41731775,11.81094,-9.596492,2.0143085,-0.4473701,0.23852384,-0.28350866,-0.8139956,-10.220141,5.229331,-0.3111483,0.188619,-1.0435756,-0.46113202,0,-0.328724365234375,-0.19328638712565105,0.3356378173828125,0.4033568064371745,-0.724191763801078,0.6890565542648207,0.02733778095193548,0.32135190821492676,18.412108079190713,0
0.8600000000000005,13.873173746150387,0.1886190084049116,-1.043575609025572,-0.4611320308918874,14.568896,-1.0645128,0.6018073,0.41731775,11.708645,-9.543731,2.0112107,-0.45094368,0.23450431,-0.28138733,-0.81392777,-10.238473,5.3226895,-0.30828094,0.188619,-1.0435756,-0.46113202,0,-0.328724365234375,-0.19328638712565105,0.3356378173828125,0.4033568064371745,-0.724191763801078,0.6890565542648207,0.02733778095193548,0.32135190821492676,18.412108079190713,0
0.8700000000000006,13.873173746150387,0.1886190084049116,-1.043575609025572,-0.4611320308918874,14.568896,-1.0645128,0.6018073,0.41731775,11.606173,-9.49004,2.0081458,-0.45450217,0.23047695,-0.2792566,-0.81383264,-10.255878,5.4152923,-0.30455694,0.188619,-1.0435756,-0.46113202,0,-0.31076833724975583,-0.17391151428222656,0.3446158313751221,0.41304424285888675,-0.6813366273491059,0.7293134396465811,0.06230816145111423,0.333585294506328,19.113029482841203,0
0.8800000000000006,13.57250184863686,0.22508390086159255,-0.8248013217495237,-0.42481960766384624,14.041155,-1.0846455,0.2794734,0.4044053,11.5035305,-9.435427,2.0051222,-0.45804542,0.22644189,-0.27711654,-0.81371033,-10.27236,5.507125,-0.29998532,0.188619,-1.0435756,-0.46113202,0,-0.31076833724975583,-0.17391151428222656,0.3446158313751221,0.41304424285888675,-0.6813366273491059,0.7293134396465811,0.06230816145111423,0.333585294506328,19.113029482841203,0
0.8900000000000006,13.57250184863686,0.22508390086159255,-0.8248013217495237,-0.42481960766384624,14.041155,-1.0846455,0.2794734,0.4044053,11.40073,-9.3799095,2.0021374,-0.4611663,0.2231567,-0.27565917,-0.8133501,-10.287621,5.5962777,-0.29689196,0.2250839,-0.8248013,-0.42481962,0,-0.31076833724975583,-0.17391151428222656,0.3446158313751221,0.41304424285888675,-0.6813366273491059,0.7293134396465811,0.06230816145111423,0.333585294506328,19.113029482841203,0
0.9000000000000006,13.57250184863686,0.22508390086159255,-0.8248013217495237,-0.42481960766384624,14.041155,-1.0846455,0.2794734,0.4044053,11.297781,-9.323503,1.9991865,-0.4642766,0.21986644,-0.27419555,-0.81297135,-10.302083,5.6848583,-0.29318106,0.2250839,-0.8248013,-0.42481962,0,-0.31076833724975583,-0.17391151428222656,0.3446158313751221,0.41304424285888675,-0.6813366273491059,0.7293134396465811,0.06230816145111423,0.333585294506328,19.113029482841203,0
0.9100000000000006,13.57250184863686,0.22508390086159255,-0.8248013217495237,-0.42481960766384624,14.041155,-1.0846455,0.2794734,0.4044053,11.194691,-9.266214,1.9962758,-0.46737638,0.21657117,-0.27272564,-0.8125741,-10.315748,5.772858,-0.2888581,0.2250839,-0.8248013,-0.42481962,0,-0.31076833724975583,-0.17391151428222656,0.3446158313751221,0.41304424285888675,-0.6813366273491059,0.7293134396465811,0.06230816145111423,0.333585294506328,19.113029482841203,0
0.9200000000000006,13.213271716065822,0.23801928238510225,-0.7261208901201757,-0.37990551886482715,13.882586,-0.97678775,0.13186994,0.37319064,11.091469,-9.208048,1.9934114,-0.4704655,0.21327095,-0.27124953,-0.8121583,-10.328619,5.860268,-0.2839286,0.2250839,-0.8248013,-0.42481962,0,-0.31076833724975583,-0.17391151428222656,0.3446158313751221,0.41304424285888675,-0.6813366273491059,0.7293134396465811,0.06230816145111423,0.333585294506328,19.113029482841203,0
0.9300000000000006,13.213271716065822,0.23801928238510225,-0.7261208901201757,-0.37990551886482715,13.882586,-0.97678775,0.13186994,0.37319064,10.988123,-9.149022,1.9905856,-0.47324255,0.21027574,-0.2701004,-0.81170875,-10.340397,5.944814,-0.28117183,0.23801929,-0.7261209,-0.37990552,0,-0.31076833724975583,-0.17391151428222656,0.3446158313751221,0.41304424285888675,-0.6813366273491059,0.7293134396465811,0.06230816145111423,0.333585294506328,19.113029482841203,0
0.9400000000000006,13.213271716065822,0.23801928238510225,-0.7261208901201757,-0.37990551886482715,13.882586,-0.97678775,0.13186994,0.37319064,10.884664,-9.089152,1.9877898,-0.47601095,0.20727669,-0.26894638,-0.8112444,-10.351453,6.0288615,-0.27791706,0.23801929,-0.7261209,-0.37990552,0,-0.46834163665771483,0.007546890576680502,0.26582918167114256,0.5037734452883402,-0.7737488671347532,0.6331318713333647,-0.02137110454790428,0.15838914005020444,9.075029245583229,0
0.9500000000000006,13.213271716065822,0.23801928238510225,-0.7261208901201757,-0.37990551886482715,13.882586,-0.97678775,0.13186994,0.37319064,10.781096,-9.028445,1.985029,-0.4787707,0.20427388,-0.26778746,-0.8107653,-10.361789,6.1124024,-0.27416858,0.23801929,-0.7261209,-0.37990552,0,-0.46834163665771483,0.007546890576680502,0.26582918167114256,0.5037734452883402,-0.7737488671347532,0.6331318713333647,-0.02137110454790428,0.15838914005020444,9.075029245583229,0
0.9600000000000006,12.992682651176615,0.24566409202172348,-0.7075329472336277,-0.338795769570845,13.824115,-0.97473925,0.11253401,0.31761694,10.67743,-8.966906,1.9823081,-0.48152176,0.20126735,-0.26662365,-0.81027144,-10.3714075,6.1954293,-0.26993078,0.23801929,-0.7261209,-0.37990552,0,-0.46834163665771483,0.007546890576680502,0.26582918167114256,0.5037734452883402,-0.7737488671347532,0.6331318713333647,-0.02137110454790428,0.15838914005020444,9.075029245583229,0
0.9700000000000006,12.992682651176615,0.24566409202172348,-0.7075329472336277,-0.338795769570845,13.824115,-0.97473925,0.11253401,0.31761694,10.573671,-8.904545,1.9796236,-0.48408073,0.19825938,-0.26557228,-0.8098334,-10.38016,6.276565,-0.26693082,0.24566409,-0.70753294,-0.33879578,0,-0.46834163665771483,0.007546890576680502,0.26582918167114256,0.5037734452883402,-0.7737488671347532,0.6331318713333647,-0.02137110454790428,0.15838914005020444,9.075029245583229,0
0.9800000000000006,12.992682651176615,0.24566409202172348,-0.7075329472336277,-0.338795769570845,13.824115,-0.97473925,0.11253401,0.31761694,10.469829,-8.841375,1.9769711,-0.4866315,0.19524805,-0.2645164,-0.8093817,-10.388213,6.357203,-0.26347482,0.24566409,-0.70753294,-0.33879578,0,-0.46834163665771483,0.007546890576680502,0.26582918167114256,0.5037734452883402,-0.7737488671347532,0.6331318713333647,-0.02137110454790428,0.15838914005020444,9.075029245583229,0
0.9900000000000007,12.992682651176615,0.24566409202172348,-0.7075329472336277,-0.338795769570845,13.824115,-0.97473925,0.11253401,0.31761694,10.365909,-8.777403,1.9743556,-0.48917407,0.19223344,-0.26345608,-0.8089164,-10.395567,6.4373355,-0.25956708,0.24566409,-0.70753294,-0.33879578,0,-0.46834163665771483,0.007546890576680502,0.26582918167114256,0.5037734452883402,-0.7737488671347532,0.6331318713333647,-0.02137110454790428,0.15838914005020444,9.075029245583229,0
1.0000000000000007,12.79382468445206,0.21840965785282682,-0.6676162379420426,-0.29212259605116997,14.002139,-0.9860169,0.22242531,0.24742782,10.261919,-8.71263,1.9717814,-0.49170837,0.18921557,-0.2623913,-0.80843735,-10.402225,6.5169563,-0.25521192,0.24566409,-0.70753294,-0.33879578,0,-0.4144150161743164,-0.004969315926233927,0.2927924919128418,0.497515342036883,-0.7195657152326345,0.6943574157151766,0.0096416130958112,0.2078967786984962,11.911607993789108,0
1.0100000000000007,12.79382468445206,0.21840965785282682,-0.6676162379420426,-0.29212259605116997,14.002139,-0.9860169,0.22242531,0.24742782,10.1578665,-8.64707,1.969245,-0.49396816,0.18636186,-0.26135454,-0.8080584,-10.408116,6.5948577,-0.2519963,0.21840966,-0.66761625,-0.2921226,0,-0.4144150161743164,-0.004969315926233927,0.2927924919128418,0.497515342036883,-0.7195657152326345,0.6943574157151766,0.0096416130958112,0.2078967786984962,11.911607993789108,0
1.0200000000000007,12.79382468445206,0.21840965785282682,-0.6676162379420426,-0.29212259605116997,14.002139,-0.9860169,0.22242531,0.24742782,10.053759,-8.580734,1.9667428,-0.4962208,0.18350546,-0.26031396,-0.80766773,-10.41338,6.6722655,-0.24836902,0.21840966,-0.66761625,-0.2921226,0,-0.4144150161743164,-0.004969315926233927,0.2927924919128418,0.497515342036883,-0.7195657152326345,0.6943574157151766,0.0096416130958112,0.2078967786984962,11.911607993789108,0
1.0300000000000007,12.79382468445206,0.21840965785282682,-0.6676162379420426,-0.29212259605116997,14.002139,-0.9860169,0.22242531,0.24742782,9.9496,-8.513627,1.9642789,-0.49846625,0.18064639,-0.25926965,-0.8072654,-10.418016,6.749175,-0.244334,0.21840966,-0.66761625,-0.2921226,0,-0.4144150161743164,-0.004969315926233927,0.2927924919128418,0.497515342036883,-0.7195657152326345,0.6943574157151766,0.0096416130958112,0.2078967786984962,11.911607993789108,0
1.0400000000000007,12.79382468445206,0.21840965785282682,-0.6676162379420426,-0.29212259605116997,13.84756,-1.0556804,0.20964369,0.20450974,9.8454,-8.445752,1.9618574,-0.50070447,0.17778471,-0.25822157,-0.8068514,-10.422028,6.825581,-0.23989522,0.21840966,-0.66761625,-0.2921226,0,-0.4144150161743164,-0.004969315926233927,0.2927924919128418,0.497515342036883,-0.7195657152326345,0.6943574157151766,0.0096416130958112,0.2078967786984962,11.911607993789108,0
1.0500000000000007,12.79382468445206,0.21840965785282682,-0.6676162379420426,-0.29212259605116997,13.84756,-1.0556804,0.20964369,0.20450974,9.741162,-8.377116,1.9594823,-0.50293547,0.17492047,-0.25716975,-0.8064257,-10.425416,6.9014773,-0.23505674,0.21840966,-0.66761625,-0.2921226,0,-0.4144150161743164,-0.004969315926233927,0.2927924919128418,0.497515342036883,-0.7195657152326345,0.6943574157151766,0.0096416130958112,0.2078967786984962,11.911607993789108,0
1.0600000000000007,12.79382468445206,0.21840965785282682,-0.6676162379420426,-0.29212259605116997,13.84756,-1.0556804,0.20964369,0.20450974,9.636894,-8.307724,1.9571576,-0.50515914,0.1720537,-0.2561142,-0.8059883,-10.428182,6.9768596,-0.22982256,0.21840966,-0.66761625,-0.2921226,0,-0.4144150161743164,-0.004969315926233927,0.2927924919128418,0.497515342036883,-0.7195657152326345,0.6943574157151766,0.0096416130958112,0.2078967786984962,11.911607993789108,0
1.0700000000000007,12.79382468445206,0.21840965785282682,-0.6676162379420426,-0.29212259605116997,13.84756,-1.0556804,0.20964369,0.20450974,9.5326,-8.237581,1.9548873,-0.50737554,0.16918442,-0.25505498,-0.8055393,-10.430327,7.0517225,-0.22419678,0.21840966,-0.66761625,-0.2921226,0,-0.3597590637207031,0.02629892349243164,0.32012046813964845,0.5131494617462158,-0.6658817418227333,0.7460306885080025,0.006302198933604078,0.2476133348135825,14.187199035978054,0
1.0800000000000007,12.570443867353452,0.21072313759925068,-0.7018253201140089,-0.25208319373083976,13.792835,-0.9795231,0.17953047,0.071852215,9.428289,-8.166692,1.9526751,-0.5095846,0.16631271,-0.25399205,-0.8050786,-10.431855,7.1260605,-0.21818343,0.21840966,-0.66761625,-0.2921226,0,-0.3597590637207031,0.02629892349243164,0.32012046813964845,0.5131494617462158,-0.6658817418227333,0.7460306885080025,0.006302198933604078,0.2476133348135825,14.187199035978054,0
1.0900000000000007,12.570443867353452,0.21072313759925068,-0.7018253201140089,-0.25208319373083976,13.792835,-0.9795231,0.17953047,0.071852215,9.323965,-8.095069,1.9505157,-0.51166195,0.16326956,-0.2528406,-0.80474627,-10.432747,7.1985674,-0.21360189,0.21072313,-0.7018253,-0.25208318,0,-0.3597590637207031,0.02629892349243164,0.32012046813964845,0.5131494617462158,-0.6658817418227333,0.7460306885080025,0.006302198933604078,0.2476133348135825,14.187199035978054,0
1.1000000000000008,12.570443867353452,0.21072313759925068,-0.7018253201140089,-0.25208319373083976,13.792835,-0.9795231,0.17953047,0.071852215,9.219636,-8.022722,1.9484043,-0.51373166,0.16022398,-0.25168535,-0.8044018,-10.433025,7.2705135,-0.2086232,0.21072313,-0.7018253,-0.25208318,0,-0.3597590637207031,0.02629892349243164,0.32012046813964845,0.5131494617462158,-0.6658817418227333,0.7460306885080025,0.006302198933604078,0.2476133348135825,14.187199035978054,0
1.1100000000000008,12.570443867353452,0.21072313759925068,-0.7018253201140089,-0.25208319373083976,13.792835,-0.9795231,0.17953047,0.071852215,9.115307,-7.9496593,1.9463446,-0.51579374,0.15717597,-0.25052628,-0.8040453,-10.4326935,7.3418937,-0.20325205,0.21072313,-0.7018253,-0.25208318,0,-0.3597590637207031,0.02629892349243164,0.32012046813964845,0.5131494617462158,-0.6658817418227333,0.7460306885080025,0.006302198933604078,0.2476133348135825,14.187199035978054,0
1.1200000000000008,12.335780648400064,0.17440576496793445,-0.7914204231644002,-0.21338715484286144,13.602197,-0.9993232,0.18855074,0.01790834,9.010984,-7.875886,1.9443406,-0.517848,0.15412562,-0.24936345,-0.8036767,-10.431751,7.412703,-0.19749308,0.21072313,-0.7018253,-0.25208318,0,-0.3597590637207031,0.02629892349243164,0.32012046813964845,0.5131494617462158,-0.6658817418227333,0.7460306885080025,0.006302198933604078,0.2476133348135825,14.187199035978054,0
1.1300000000000008,12.335780648400064,0.17440576496793445,-0.7914204231644002,-0.21338715484286144,13.602197,-0.9993232,0.18855074,0.01790834,8.906673,-7.801414,1.9423864,-0.5198221,0.15075852,-0.24784847,-0.8035096,-10.430226,7.481588,-0.19327208,0.17440577,-0.7914204,-0.21338716,0,-0.3597590637207031,0.02629892349243164,0.32012046813964845,0.5131494617462158,-0.6658817418227333,0.7460306885080025,0.006302198933604078,0.2476133348135825,14.187199035978054,0
1.1400000000000008,12.335780648400064,0.17440576496793445,-0.7914204231644002,-0.21338715484286144,13.602197,-0.9993232,0.18855074,0.01790834,8.8023815,-7.7262564,1.9404767,-0.52178705,0.1473888,-0.24632914,-0.80332834,-10.428102,7.5498037,-0.18861423,0.17440577,-0.7914204,-0.21338716,0,-0.3364162063598633,0.05470895131429036,0.3317918968200684,0.5273544756571452,-0.629808450272983,0.7765591155870935,0.017241112589836897,0.262725867988844,15.05308340467198,0
1.1500000000000008,12.335780648400064,0.17440576496793445,-0.7914204231644002,-0.21338715484286144,13.602197,-0.9993232,0.18855074,0.01790834,8.698114,-7.65042,1.9386156,-0.52374285,0.14401647,-0.24480549,-0.803133,-10.425379,7.617344,-0.18352555,0.17440577,-0.7914204,-0.21338716,0,-0.3364162063598633,0.05470895131429036,0.3317918968200684,0.5273544756571452,-0.629808450272983,0.7765591155870935,0.017241112589836897,0.262725867988844,15.05308340467198,0
1.1600000000000008,12.094149501946859,0.17970208408849714,-0.8389403731047965,-0.18379430845224345,13.474771,-0.81565636,0.2909753,-0.03899371,8.593878,-7.5739117,1.9368075,-0.5256894,0.14064161,-0.24327752,-0.80292356,-10.422058,7.684204,-0.17801204,0.17440577,-0.7914204,-0.21338716,0,-0.3364162063598633,0.05470895131429036,0.3317918968200684,0.5273544756571452,-0.629808450272983,0.7765591155870935,0.017241112589836897,0.262725867988844,15.05308340467198,0
1.1700000000000008,12.094149501946859,0.17970208408849714,-0.8389403731047965,-0.18379430845224345,13.474771,-0.81565636,0.2909753,-0.03899371,8.4896755,-7.496745,1.9350467,-0.52756906,0.13702348,-0.24166226,-0.8028041,-10.418209,7.749066,-0.17410788,0.17970209,-0.8389404,-0.1837943,0,-0.3364162063598633,0.05470895131429036,0.3317918968200684,0.5273544756571452,-0.629808450272983,0.7765591155870935,0.017241112589836897,0.262725867988844,15.05308340467198,0
1.1800000000000008,12.094149501946859,0.17970208408849714,-0.8389403731047965,-0.18379430845224345,13.474771,-0.81565636,0.2909753,-0.03899371,8.385514,-7.418933,1.9333271,-0.52943856,0.1334027,-0.24004236,-0.80266917,-10.41375,7.813207,-0.16977385,0.17970209,-0.8389404,-0.1837943,0,-0.3364162063598633,0.05470895131429036,0.3317918968200684,0.5273544756571452,-0.629808450272983,0.7765591155870935,0.017241112589836897,0.262725867988844,15.05308340467198,0
1.1900000000000008,12.094149501946859,0.17970208408849714,-0.8389403731047965,-0.18379430845224345,13.474771,-0.81565636,0.2909753,-0.03899371,8.281403,-7.340483,1.9316528,-0.53129786,0.12977935,-0.23841783,-0.8025188,-10.408682,7.876622,-0.1650168,0.17970209,-0.8389404,-0.1837943,0,-0.3364162063598633,0.05470895131429036,0.3317918968200684,0.5273544756571452,-0.629808450272983,0.7765591155870935,0.017241112589836897,0.262725867988844,15.05308340467198,0
1.2000000000000008,11.882096315219833,0.12706096920742085,-0.8017247819461479,-0.15677640414817082,13.071512,-0.76286054,0.3248531,0.0056370553,8.177343,-7.261403,1.9300282,-0.5331469,0.12615351,-0.23678872,-0.80235296,-10.4030075,7.939306,-0.1598437,0.17970209,-0.8389404,-0.1837943,0,-0.3692020034790039,0.2762183125813802,0.31539899826049805,0.6381091562906901,-0.6594772857551778,0.7404324987488574,-0.12980533259272087,0.19128348448316723,10.959736351441652,0
1.2100000000000009,11.882096315219833,0.12706096920742085,-0.8017247819461479,-0.15677640414817082,13.071512,-0.76286054,0.3248531,0.0056370553,8.073343,-7.181705,1.9284482,-0.53480065,0.12278302,-0.23506036,-0.80228347,-10.396866,8.000172,-0.15608111,0.12706096,-0.8017248,-0.1567764,0,-0.3692020034790039,0.2762183125813802,0.31539899826049805,0.6381091562906901,-0.6594772857551778,0.7404324987488574,-0.12980533259272087,0.19128348448316723,10.959736351441652,0
1.2200000000000009,11.882096315219833,0.12706096920742085,-0.8017247819461479,-0.15677640414817082,13.071512,-0.76286054,0.3248531,0.0056370553,7.9694076,-7.101402,1.9269079,-0.53644526,0.11941043,-0.23332798,-0.80220026,-10.390207,8.060324,-0.1519277,0.12706096,-0.8017248,-0.1567764,0,-0.3692020034790039,0.2762183125813802,0.31539899826049805,0.6381091562906901,-0.6594772857551778,0.7404324987488574,-0.12980533259272087,0.19128348448316723,10.959736351441652,0
1.2300000000000009,11.882096315219833,0.12706096920742085,-0.8017247819461479,-0.15677640414817082,13.071512,-0.76286054,0.3248531,0.0056370553,7.865541,-7.020501,1.925411,-0.5380807,0.1160358,-0.23159163,-0.80210334,-10.383033,8.119757,-0.1473897,0.12706096,-0.8017248,-0.1567764,0,-0.3692020034790039,0.2762183125813802,0.31539899826049805,0.6381091562906901,-0.6594772857551778,0.7404324987488574,-0.12980533259272087,0.19128348448316723,10.959736351441652,0
1.2400000000000009,11.882096315219833,0.12706096920742085,-0.8017247819461479,-0.15677640414817082,12.763848,-0.59469974,0.30301222,0.019623762,7.761749,-6.939009,1.9239615,-0.5397069,0.11265918,-0.22985132,-0.8019927,-10.375344,8.178467,-0.1424734,0.12706096,-0.8017248,-0.1567764,0,-0.3692020034790039,0.2762183125813802,0.31539899826049805,0.6381091562906901,-0.6594772857551778,0.7404324987488574,-0.12980533259272087,0.19128348448316723,10.959736351441652,0
1.2500000000000009,11.882096315219833,0.12706096920742085,-0.8017247819461479,-0.15677640414817082,12.763848,-0.59469974,0.30301222,0.019623762,7.658036,-6.856934,1.9225631,-0.5413239,0.10928064,-0.22810708,-0.8018684,-10.367145,8.236449,-0.13718513,0.12706096,-0.8017248,-0.1567764,0,-0.3692020034790039,0.2762183125813802,0.31539899826049805,0.6381091562906901,-0.6594772857551778,0.7404324987488574,-0.12980533259272087,0.19128348448316723,10.959736351441652,0
1.260000000000001,11.882096315219833,0.12706096920742085,-0.8017247819461479,-0.15677640414817082,12.763848,-0.59469974,0.30301222,0.019623762,7.554408,-6.7742825,1.9212191,-0.5429317,0.10590023,-0.22635895,-0.80173033,-10.358434,8.2937,-0.13153122,0.12706096,-0.8017248,-0.1567764,0,-0.3692020034790039,0.2762183125813802,0.31539899826049805,0.6381091562906901,-0.6594772857551778,0.7404324987488574,-0.12980533259272087,0.19128348448316723,10.959736351441652,0
1.270000000000001,11.882096315219833,0.12706096920742085,-0.8017247819461479,-0.15677640414817082,12.763848,-0.59469974,0.30301222,0.019623762,7.4508696,-6.691063,1.9199337,-0.54453015,0.10251801,-0.22460693,-0.8015786,-10.349215,8.350214,-0.12551804,0.12706096,-0.8017248,-0.1567764,0,-0.31082895278930667,0.11128283182779948,0.34458552360534667,0.5556414159138997,-0.578283493229999,0.8141801028598612,0.05195153091888466,0.27431351457817676,15.71700664872991,0
1.280000000000001,11.689958006229302,0.12213403451460472,-1.1094070406690422,-0.14161641928508545,12.464542,-0.5441626,0.1665608,0.06927896,7.347426,-6.6072817,1.91871,-0.54611933,0.09913404,-0.2228511,-0.8014132,-10.339489,8.405986,-0.11915198,0.12706096,-0.8017248,-0.1567764,0,-0.31082895278930667,0.11128283182779948,0.34458552360534667,0.5556414159138997,-0.578283493229999,0.8141801028598612,0.05195153091888466,0.27431351457817676,15.71700664872991,0
1.290000000000001,11.689958006229302,0.12213403451460472,-1.1094070406690422,-0.14161641928508545,12.464542,-0.5441626,0.1665608,0.06927896,7.2440815,-6.522951,1.9175435,-0.5479749,0.09451132,-0.22023743,-0.8014276,-10.329374,8.46001,-0.11408018,0.12213404,-1.1094071,-0.14161642,0,-0.31082895278930667,0.11128283182779948,0.34458552360534667,0.5556414159138997,-0.578283493229999,0.8141801028598612,0.05195153091888466,0.27431351457817676,15.71700664872991,0
