time-since-start [s],throttle_mpc,roll_mpc,pitch_mpc,yaw_mpc,throttle_nw,roll_nw,pitch_nw,yaw_nw,position_x [m],position_y [m],position_z [m],rotation_w [quaternion],rotation_x [quaternion],rotation_y [quaternion],rotation_z [quaternion],velocity_x [m/s],velocity_y [m/s],velocity_z [m/s],omega_x [rad/s],omega_y [rad/s],omega_z [rad/s],network_used
0.0,10.67505814481085,5.99999542812355,-5.999999931005521,-5.3536486053119,15.456394,1.3946129,-5.2267747,-1.6421878,19.554647,-9.299075,1.789057,0.07675055,0.32953456,-0.36982304,-0.86530185,-10.835564,-3.6137974,0.35017052,1.9890265,-0.3840217,-0.13778538,0
0.01,10.67505814481085,5.99999542812355,-5.999999931005521,-5.3536486053119,16.926609,0.95930266,-5.853308,-1.8432224,19.445698,-9.334651,1.7925489,0.07175882,0.32873866,-0.37793022,-0.8625256,-10.953681,-3.501312,0.34751588,1.8646611,-0.5102349,-0.31714937,0
0.02,10.67505814481085,5.99999542812355,-5.999999931005521,-5.3536486053119,16.926609,0.95930266,-5.853308,-1.8432224,19.335588,-9.369102,1.7959925,0.0659639,0.32770258,-0.38525966,-0.8601365,-11.067744,-3.3888278,0.3405445,1.7603067,-0.61737514,-0.49207115,0
0.03,10.67505814481085,5.99999542812355,-5.999999931005521,-5.3536486053119,16.926609,0.95930266,-5.853308,-1.8432224,19.22436,-9.402429,1.7993463,0.059386197,0.32651153,-0.39189145,-0.8580703,-11.177743,-3.276472,0.3296559,1.673461,-0.7090364,-0.6625984,0
0.04,10.67505814481085,5.99999542812355,-5.999999931005521,-5.3536486053119,15.33554,-0.72977924,-6.0945783,-1.8304372,19.112043,-9.4346285,1.802576,0.05202227,0.3252041,-0.39792758,-0.85626495,-11.28454,-3.1634476,0.31586522,1.6175331,-0.8037874,-0.82747054,0
0.05,10.67505814481085,5.99999542812355,-5.999999931005521,-5.3536486053119,15.33554,-0.72977924,-6.0945783,-1.8304372,18.998678,-9.465694,1.8056554,0.043825082,0.3237494,-0.40352005,-0.8546562,-11.388359,-3.0495172,0.2996383,1.5948216,-0.90828335,-0.9864432,0
0.060000000000000005,10.67505814481085,5.99999542812355,-5.999999931005521,-5.3536486053119,15.33554,-0.72977924,-6.0945783,-1.8304372,18.884287,-9.495617,1.8085607,0.034748655,0.32210654,-0.4088054,-0.8531811,-11.489017,-2.9348032,0.28109673,1.6009153,-1.0217825,-1.1398749,0
0.07,10.67505814481085,5.99999542812355,-5.999999931005521,-5.3536486053119,15.33554,-0.72977924,-6.0945783,-1.8304372,18.768908,-9.524389,1.8112696,0.024753788,0.32023337,-0.41389832,-0.85177815,-11.586321,-2.8193896,0.2603415,1.6319578,-1.1435226,-1.2880945,0
0.08,11.458316349834348,5.999999265557688,-5.99999995597422,-5.999960160527362,13.905865,0.25145718,-6.0987897,-2.8040285,18.652573,-9.552004,1.8137604,0.013807617,0.31808698,-0.4188941,-0.85038686,-11.680074,-2.703332,0.23745719,1.6845735,-1.2727379,-1.431404,0
0.09,11.458316349834348,5.999999265557688,-5.99999995597422,-5.999960160527362,13.905865,0.25145718,-6.0987897,-2.8040285,18.535278,-9.578403,1.816044,0.0019586592,0.31579995,-0.42369917,-0.8489674,-11.777994,-2.576426,0.21894753,1.6867877,-1.3395662,-1.5956235,0
0.09999999999999999,11.458316349834348,5.999999265557688,-5.99999995597422,-5.999960160527362,13.905865,0.25145718,-6.0987897,-2.8040285,18.417027,-9.60353,1.8181326,-0.010756895,0.3134814,-0.42823762,-0.84748226,-11.871916,-2.4487007,0.19845897,1.7141231,-1.4214885,-1.7540628,0
0.10999999999999999,11.458316349834348,5.999999265557688,-5.99999995597422,-5.999960160527362,13.905865,0.25145718,-6.0987897,-2.8040285,18.297855,-9.627376,1.8200067,-0.024380438,0.31105462,-0.4326041,-0.84587485,-11.961682,-2.320286,0.17604923,1.7633734,-1.5168678,-1.9070693,0
0.11999999999999998,11.458316349834348,5.999999265557688,-5.99999995597422,-5.999960160527362,13.905865,0.25145718,-6.0987897,-2.8040285,18.177807,-9.649934,1.8216472,-0.038945794,0.3084462,-0.43687555,-0.8440876,-12.047119,-2.1912887,0.15177149,1.8317008,-1.6241891,-2.0549617,0
0.12999999999999998,13.853185732607626,5.999999724024556,-5.999999975560895,-5.999893337532216,16.683495,-0.37245902,-5.97986,-1.543028,18.056929,-9.671199,1.8230358,-0.054479588,0.30558583,-0.4411129,-0.8420622,-12.128036,-2.0617995,0.12567663,1.9165925,-1.7420549,-2.1980326,0
0.13999999999999999,13.853185732607626,5.999999724024556,-5.999999975560895,-5.999893337532216,16.683495,-0.37245902,-5.97986,-1.543028,17.93522,-9.691098,1.8241923,-0.07113562,0.30226442,-0.44548467,-0.8397139,-12.212356,-1.9180205,0.105315425,2.080406,-1.9339739,-2.3423247,0
0.15,13.853185732607626,5.999999724024556,-5.999999975560895,-5.999893337532216,16.683495,-0.37245902,-5.97986,-1.543028,17.8127,-9.7095585,1.8251351,-0.08904998,0.29828367,-0.45012623,-0.83694893,-12.290976,-1.7740215,0.08293271,2.2522209,-2.129585,-2.4825382,0
0.16,16.695535491207377,5.999999841093523,-5.999999984455288,-5.211079262249844,15.941923,0.61182725,-5.935325,-2.0713665,17.689423,-9.726578,1.8258442,-0.10821256,0.29359317,-0.45502925,-0.83369166,-12.363546,-1.629825,0.05859076,2.4306676,-2.3281891,-2.6188626,0
0.17,16.695535491207377,5.999999841093523,-5.999999984455288,-5.211079262249844,15.941923,0.61182725,-5.935325,-2.0713665,17.56543,-9.74211,1.8263224,-0.12891467,0.28766608,-0.46052772,-0.82978535,-12.433659,-1.4767716,0.03668472,2.801124,-2.7163172,-2.7294607,0
0.18000000000000002,16.695535491207377,5.999999841093523,-5.999999984455288,-5.211079262249844,15.941923,0.61182725,-5.935325,-2.0713665,17.440775,-9.756114,1.8265699,-0.15139638,0.2800186,-0.46687022,-0.8250462,-12.495938,-1.3242599,0.012462229,3.1579547,-3.0881119,-2.8385808,0
0.19000000000000003,16.695535491207377,5.999999841093523,-5.999999984455288,-5.211079262249844,15.941923,0.61182725,-5.935325,-2.0713665,17.31554,-9.768597,1.826564,-0.17556046,0.2706639,-0.4739084,-0.81934774,-12.549731,-1.1722772,-0.01397766,3.5019484,-3.4447794,-2.9461763,0
0.20000000000000004,19.918558901099843,5.999999864596913,-5.99999998491516,-3.977407941051626,16.404732,2.0280824,-5.9861064,-2.4154892,17.189814,-9.779562,1.826283,-0.20130275,0.2596119,-0.48149022,-0.81255543,-12.594439,-1.0209516,-0.042534243,3.8338406,-3.7874072,-3.0522082,0
0.21000000000000005,19.918558901099843,5.999999864596913,-5.99999998491516,-3.977407941051626,16.404732,2.0280824,-5.9861064,-2.4154892,17.063654,-9.788884,1.8257663,-0.22843501,0.24674001,-0.48953342,-0.80454594,-12.635865,-0.8432342,-0.060849518,4.170843,-4.1332526,-3.097608,0
0.22000000000000006,19.918558901099843,5.999999864596913,-5.99999998491516,-3.977407941051626,16.404732,2.0280824,-5.9861064,-2.4154892,16.937136,-9.796417,1.8250641,-0.2566544,0.23207235,-0.49786827,-0.79523486,-12.666004,-0.6630411,-0.07966678,4.455387,-4.42507,-3.1407802,0
0.23000000000000007,19.918558901099843,5.999999864596913,-5.99999998491516,-3.977407941051626,16.404732,2.0280824,-5.9861064,-2.4154892,16.810377,-9.802139,1.8241714,-0.28569663,0.21582174,-0.5062389,-0.78455144,-12.683889,-0.48102298,-0.09895256,4.6956415,-4.671296,-3.1818337,0
0.24000000000000007,19.918558901099843,5.999999864596913,-5.99999998491516,-3.977407941051626,17.041037,1.931506,-6.0451913,-0.2917844,16.683504,-9.806034,1.8230836,-0.3153219,0.19817828,-0.5144282,-0.7724387,-12.688722,-0.29800764,-0.11867602,4.898502,-4.879051,-3.2208729,0
0.25000000000000006,19.918558901099843,5.999999864596913,-5.99999998491516,-3.977407941051626,17.041037,1.931506,-6.0451913,-0.2917844,16.55665,-9.808098,1.8217965,-0.34531212,0.17931333,-0.5222527,-0.7588537,-12.67987,-0.11497056,-0.1388096,5.0697904,-5.054344,-3.257996,0
0.26000000000000006,19.918558901099843,5.999999864596913,-5.99999998491516,-3.977407941051626,17.041037,1.931506,-6.0451913,-0.2917844,16.429955,-9.808337,1.8203062,-0.37546805,0.15938273,-0.52955794,-0.7437673,-12.656875,0.06699408,-0.15932895,5.214423,-5.2022457,-3.2932978,0
0.2700000000000001,19.918558901099843,5.999999864596913,-5.99999998491516,-3.977407941051626,17.041037,1.931506,-6.0451913,-0.2917844,16.303562,-9.8067665,1.8186088,-0.40560728,0.138529,-0.5362147,-0.7271635,-12.619449,0.24670133,-0.18021232,5.3365498,-5.3270335,-3.3268673,0
0.2800000000000001,20.99999965927624,5.9999996171447565,-5.9999999409669,-1.4236390687553133,17.621248,1.6117281,-5.819269,-0.1378759,16.177616,-9.803415,1.8167007,-0.43556258,0.11688333,-0.54211515,-0.7090382,-12.567478,0.42290196,-0.20143983,5.439674,-5.4323187,-3.3587897,0
0.2900000000000001,20.99999965927624,5.9999996171447565,-5.9999999409669,-1.4236390687553133,17.621248,1.6117281,-5.819269,-0.1378759,16.05228,-9.798278,1.8145995,-0.46495935,0.09439595,-0.54720783,-0.6895406,-12.497409,0.6036139,-0.21883722,5.5272045,-5.5206976,-3.2638314,0
0.3000000000000001,20.99999965927624,5.9999996171447565,-5.9999999409669,-1.4236390687553133,17.621248,1.6117281,-5.819269,-0.1378759,15.927719,-9.791365,1.8123227,-0.49346438,0.07101903,-0.55145323,-0.66884154,-12.412296,0.77789927,-0.23656783,5.6011076,-5.5952716,-3.1735327,0
0.3100000000000001,20.99999965927624,5.9999996171447565,-5.9999999409669,-1.4236390687553133,17.621248,1.6117281,-5.819269,-0.1378759,15.804084,-9.782747,1.809867,-0.520991,0.04687336,-0.55478597,-0.6469809,-12.31254,0.94439965,-0.25463873,5.663501,-5.6582007,-3.0876648,0
0.3200000000000001,20.999999874771223,4.929373184479385,-5.9999998010000954,0.5853829307693814,17.166212,1.4644674,-5.3263483,0.33034545,15.681517,-9.77251,1.8072288,-0.5474622,0.022072654,-0.557153,-0.6240024,-12.198701,1.1017902,-0.27307418,5.7161746,-5.711305,-3.0060108,0
0.3300000000000001,20.999999874771223,4.929373184479385,-5.9999998010000954,0.5853829307693814,17.166212,1.4644674,-5.3263483,0.33034545,15.560156,-9.760748,1.8044041,-0.57265556,-0.00317551,-0.5582585,-0.6003362,-12.071511,1.2488078,-0.2918877,5.5940475,-5.7554445,-2.82978,0
0.34000000000000014,20.999999874771223,4.929373184479385,-5.9999998010000954,0.5853829307693814,17.166212,1.4644674,-5.3263483,0.33034545,15.440129,-9.747573,1.80139,-0.5964108,-0.028698605,-0.5578966,-0.5763874,-11.931992,1.384332,-0.31095967,5.490956,-5.792792,-2.6621969,0
0.35000000000000014,20.999999874771223,4.929373184479385,-5.9999998010000954,0.5853829307693814,17.166212,1.4644674,-5.3263483,0.33034545,15.321554,-9.733104,1.7981844,-0.61874866,-0.05444361,-0.5561479,-0.552165,-11.7812805,1.5073767,-0.33016545,5.403927,-5.824393,-2.5028372,0
0.36000000000000015,20.999999832079247,2.3613442523318455,-5.999993200164199,3.33823862364955,17.726343,-0.21187228,-2.1963286,0.5656003,15.204538,-9.717471,1.7947863,-0.63968635,-0.080359384,-0.55308086,-0.5276797,-11.620562,1.6170717,-0.34943253,5.3304543,-5.8511314,-2.3512971,0
0.37000000000000016,20.999999832079247,2.3613442523318455,-5.999993200164199,3.33823862364955,17.726343,-0.21187228,-2.1963286,0.5656003,15.089348,-9.70071,1.791277,-0.6589322,-0.105922125,-0.5487338,-0.5034685,-11.4168215,1.7321025,-0.3527787,5.042572,-5.69909,-2.111663,0
0.38000000000000017,20.999999832079247,2.3613442523318455,-5.999993200164199,3.33823862364955,17.726343,-0.21187228,-2.1963286,0.5656003,14.976213,-9.682898,1.7877227,-0.6763115,-0.13074462,-0.5431939,-0.4800515,-11.209567,1.8275169,-0.35842738,4.7984724,-5.571934,-1.8779639,0
0.3900000000000002,20.999999832079247,2.3613442523318455,-5.999993200164199,3.33823862364955,17.726343,-0.21187228,-2.1963286,0.5656003,14.865162,-9.664225,1.7841009,-0.69199157,-0.15496565,-0.53657335,-0.4574088,-11.000711,1.9041672,-0.36626878,4.5917873,-5.4653115,-1.6500527,0
0.4000000000000002,20.999999421856437,-0.43117641777857213,-2.0222128104975785,3.7384987157023497,17.333961,-0.85956496,-0.043337665,0.82138795,14.7562,-9.644876,1.78039,-0.7061113,-0.17870058,-0.5289606,-0.4355158,-10.791901,1.9629475,-0.3762418,4.417171,-5.375522,-1.4277861,0
0.4100000000000002,20.999999421856437,-0.43117641777857213,-2.0222128104975785,3.7384987157023497,17.333961,-0.85956496,-0.043337665,0.82138795,14.649366,-9.625013,1.7765886,-0.71834224,-0.20052353,-0.5208293,-0.4153455,-10.5751095,2.0068827,-0.3843747,3.744279,-4.7694592,-1.2011112,0
0.4200000000000002,20.999999421856437,-0.43117641777857213,-2.0222128104975785,3.7384987157023497,17.333961,-0.85956496,-0.043337665,0.82138795,14.544686,-9.604791,1.7726953,-0.72857535,-0.21935919,-0.512698,-0.39774445,-10.361357,2.0355291,-0.3945736,3.1803823,-4.25388,-0.9800504,0
0.4300000000000002,20.999999421856437,-0.43117641777857213,-2.0222128104975785,3.7384987157023497,17.333961,-0.85956496,-0.043337665,0.82138795,14.442125,-9.584348,1.7686905,-0.73718333,-0.23576371,-0.5046546,-0.38249215,-10.151721,2.05124,-0.40668622,2.7079084,-3.81524,-0.7644644,0
0.4400000000000002,20.999999421856437,-0.43117641777857213,-2.0222128104975785,3.7384987157023497,16.67351,-2.8695924,3.5841095,1.0523102,14.341637,-9.563804,1.7645555,-0.74445367,-0.25020126,-0.496738,-0.3693774,-9.9469,2.056029,-0.4205776,2.3121455,-3.4419866,-0.5542177,0
0.45000000000000023,20.999999421856437,-0.43117641777857213,-2.0222128104975785,3.7384987157023497,16.67351,-2.8695924,3.5841095,1.0523102,14.243175,-9.543259,1.7602752,-0.75063306,-0.26304433,-0.48892117,-0.3582095,-9.74588,2.0515625,-0.43553615,1.9636184,-3.14142,-0.35063654,0
0.46000000000000024,20.999999421856437,-0.43117641777857213,-2.0222128104975785,3.7384987157023497,16.67351,-2.8695924,3.5841095,1.0523102,14.146708,-9.5227995,1.7558429,-0.75599253,-0.27455667,-0.4810531,-0.34882966,-9.547946,2.0391068,-0.45101345,1.6408217,-2.916349,-0.15449695,0
0.47000000000000025,20.999999421856437,-0.43117641777857213,-2.0222128104975785,3.7384987157023497,16.67351,-2.8695924,3.5841095,1.0523102,14.052203,-9.502501,1.7512535,-0.7607689,-0.28493994,-0.47296494,-0.3410929,-9.353502,2.0197086,-0.4669069,1.3385446,-2.7562184,0.03467652,0
0.48000000000000026,20.859341653230786,-3.816545074383122,2.0814382762304726,4.232614964193177,18.273146,-3.1483185,5.042308,1.2834578,13.959627,-9.482427,1.7465048,-0.7651444,-0.29435918,-0.46451625,-0.3348607,-9.161977,1.9941304,-0.48267257,1.0632945,-2.6412034,0.21638429,0
0.49000000000000027,20.859341653230786,-3.816545074383122,2.0814382762304726,4.232614964193177,18.273146,-3.1483185,5.042308,1.2834578,13.8689575,-9.462637,1.7416028,-0.7688142,-0.3014397,-0.45651248,-0.33114263,-8.972532,1.9630996,-0.49764013,0.3081898,-1.8990121,0.41290355,0
0.5000000000000002,20.859341653230786,-3.816545074383122,2.0814382762304726,4.232614964193177,18.273146,-3.1483185,5.042308,1.2834578,13.780171,-9.443177,1.7365564,-0.7715912,-0.30511642,-0.44961962,-0.33074695,-8.784939,1.9283811,-0.5113973,-0.33506683,-1.278472,0.6003379,0
0.5100000000000002,20.859341653230786,-3.816545074383122,2.0814382762304726,4.232614964193177,18.273146,-3.1483185,5.042308,1.2834578,13.693255,-9.424077,1.7313812,-0.7736404,-0.30595967,-0.44364545,-0.3332391,-8.598532,1.8917501,-0.5233506,-0.878115,-0.7548062,0.7785748,0
0.5200000000000002,18.338191399597395,-5.9999986567781285,5.9999947800470235,5.279796430098388,16.482649,-4.6736765,5.6160283,1.8526542,13.608197,-9.405345,1.7260969,-0.77505535,-0.30443785,-0.4384134,-0.338232,-8.413194,1.8547647,-0.53317666,-1.3365484,-0.31287223,0.9480656,0
0.5300000000000002,18.338191399597395,-5.9999986567781285,5.9999947800470235,5.279796430098388,16.482649,-4.6736765,5.6160283,1.8526542,13.52497,-9.386975,1.7207175,-0.77568513,-0.29960796,-0.4342716,-0.34634703,-8.232994,1.8196955,-0.54261345,-2.1979148,0.53729594,1.141558,0
0.5400000000000003,18.338191399597395,-5.9999986567781285,5.9999947800470235,5.279796430098388,16.482649,-4.6736765,5.6160283,1.8526542,13.44352,-9.368938,1.7152466,-0.7753567,-0.29070902,-0.4314133,-0.35804087,-8.058056,1.7885745,-0.55145365,-2.9319313,1.2478925,1.3302332,0
0.5500000000000003,18.338191399597395,-5.9999986567781285,5.9999947800470235,5.279796430098388,16.482649,-4.6736765,5.6160283,1.8526542,13.363799,-9.351185,1.7096949,-0.7740219,-0.27834347,-0.42950174,-0.37275147,-7.886662,1.7629553,-0.55849576,-3.5399847,1.8591942,1.5125043,0
0.5600000000000003,15.198329054180025,-5.999999745264227,5.999999639097195,4.523179197162492,15.301823,-5.5893517,5.5030174,2.9702823,13.285778,-9.333654,1.7040851,-0.77153164,-0.26304495,-0.42834428,-0.38995883,-7.7181373,1.744228,-0.5630592,-4.031273,2.397159,1.687797,0
0.5700000000000003,15.198329054180025,-5.999999745264227,5.999999639097195,4.523179197162492,15.301823,-5.5893517,5.5030174,2.9702823,13.209281,-9.316261,1.698359,-0.7677205,-0.2452488,-0.42787844,-0.4091194,-7.581689,1.7354832,-0.58184373,-4.402392,2.8949318,1.8212551,0
0.5800000000000003,15.198329054180025,-5.999999745264227,5.999999639097195,4.523179197162492,15.301823,-5.5893517,5.5030174,2.9702823,13.134132,-9.298919,1.6924549,-0.7624506,-0.22531512,-0.4280411,-0.42974806,-7.448388,1.7342577,-0.5986667,-4.6954694,3.3352947,1.949967,0
0.5900000000000003,15.198329054180025,-5.999999745264227,5.999999639097195,4.523179197162492,15.301823,-5.5893517,5.5030174,2.9702823,13.060299,-9.2815485,1.6863917,-0.7556086,-0.20356417,-0.42869458,-0.45148477,-7.3186874,1.741141,-0.61370695,-4.922445,3.7274327,2.074186,0
0.6000000000000003,15.997084415337582,-5.999999776746776,5.99999968046799,4.337837362217015,15.33232,-5.80747,6.176969,2.4525118,12.987743,-9.264067,1.680186,-0.7470983,-0.18027268,-0.42972466,-0.47400728,-7.1930003,1.756552,-0.62714356,-5.0948915,4.077596,2.1940243,0
0.6100000000000003,15.997084415337582,-5.999999776746776,5.99999968046799,4.337837362217015,15.33232,-5.80747,6.176969,2.4525118,12.916461,-9.246381,1.6738791,-0.73687947,-0.15565914,-0.43099123,-0.49701694,-7.064272,1.7822661,-0.6338675,-5.236769,4.3768334,2.299222,0
0.6200000000000003,15.997084415337582,-5.999999776746776,5.99999968046799,4.337837362217015,15.33232,-5.80747,6.176969,2.4525118,12.846445,-9.228388,1.6675162,-0.72496015,-0.12990138,-0.4323101,-0.5202565,-6.9395223,1.8178375,-0.6384082,-5.356474,4.6294374,2.3992574,0
0.6300000000000003,15.997084415337582,-5.999999776746776,5.99999968046799,4.337837362217015,15.33232,-5.80747,6.176969,2.4525118,12.777654,-9.20999,1.6611176,-0.7113451,-0.10317067,-0.43351865,-0.54351276,-6.8195457,1.863444,-0.64108217,-5.4574637,4.84268,2.4943838,0
0.6400000000000003,15.997084415337582,-5.999999776746776,5.99999968046799,4.337837362217015,16.903152,-6.392556,6.6918263,3.7676485,12.710034,-9.191085,1.6546998,-0.6960446,-0.07562527,-0.4344812,-0.5665945,-6.7051764,1.9191151,-0.6422275,-5.5426607,5.022699,2.5848427,1
0.6500000000000004,15.997084415337582,-5.999999776746776,5.99999968046799,4.337837362217015,16.903152,-6.392556,6.6918263,3.7676485,12.6435585,-9.1715555,1.6483046,-0.6791165,-0.047381524,-0.43509066,-0.5892813,-6.5911565,1.9884536,-0.6366428,-5.6144342,5.174776,2.6428833,1
0.6600000000000004,15.997084415337582,-5.999999776746776,5.99999968046799,4.337837362217015,16.903152,-6.392556,6.6918263,3.7676485,12.578185,-9.151281,1.6419698,-0.6606257,-0.018547948,-0.435258,-0.6113761,-6.4848666,2.0680418,-0.6302125,-5.674975,5.3031616,2.6980758,1
0.6700000000000004,15.997084415337582,-5.999999776746776,5.99999968046799,4.337837362217015,16.903152,-6.392556,6.6918263,3.7676485,12.513831,-9.130162,1.6357018,-0.640603,0.01074421,-0.43490535,-0.63274825,-6.3871922,2.1574795,-0.62334275,-5.7260375,5.4115477,2.7505598,1
0.6800000000000004,18.78062544318978,-5.999999722184687,5.999999548514484,4.017640715295627,17.715843,-6.594442,5.68841,4.3654637,12.450408,-9.108101,1.6295029,-0.6190847,0.04037178,-0.4339698,-0.65328026,-6.2989845,2.2562385,-0.6164486,-5.769105,5.5030518,2.8004687,0
0.6900000000000004,18.78062544318978,-5.999999722184687,5.999999548514484,4.017640715295627,17.715843,-6.594442,5.68841,4.3654637,12.38786,-9.084949,1.6234294,-0.5960919,0.07020545,-0.4324025,-0.67288506,-6.21239,2.3756049,-0.5983307,-5.805471,5.580259,2.8601956,0
0.7000000000000004,18.78062544318978,-5.999999722184687,5.999999548514484,4.017640715295627,17.715843,-6.594442,5.68841,4.3654637,12.326118,-9.060559,1.617533,-0.5716505,0.100123405,-0.43016598,-0.6914831,-6.1380286,2.5037684,-0.5811151,-5.8361382,5.6454444,2.9169917,0
0.7100000000000004,18.78062544318978,-5.999999722184687,5.999999548514484,4.017640715295627,17.715843,-6.594442,5.68841,4.3654637,12.265056,-9.034847,1.6118023,-0.54581136,0.13002366,-0.42723107,-0.7089838,-6.0766425,2.6397784,-0.5652588,-5.8619976,5.7004824,2.971001,0
0.7200000000000004,20.86632256831508,-5.99999941201636,5.999998719203974,2.322152998643855,17.836397,-6.3730764,4.5650144,3.783531,12.204539,-9.00774,1.6062217,-0.5186298,0.15980962,-0.42357635,-0.7253052,-6.028883,2.7825847,-0.55120665,-5.883802,5.746953,3.0223598,0
0.7300000000000004,20.86632256831508,-5.99999941201636,5.999998719203974,2.322152998643855,17.836397,-6.3730764,4.5650144,3.783531,12.144449,-8.979094,1.6008319,-0.49031907,0.18947873,-0.41915342,-0.7402675,-5.9915686,2.9475389,-0.5271799,-5.901871,5.7865124,2.9880004,0
0.7400000000000004,20.86632256831508,-5.99999941201636,5.999998719203974,2.322152998643855,17.836397,-6.3730764,4.5650144,3.783531,12.084652,-8.948771,1.595668,-0.46109378,0.2190276,-0.41391748,-0.75371903,-5.970489,3.1174414,-0.50609165,-5.9171147,5.819902,2.955327,0
0.7500000000000004,20.86632256831508,-5.99999941201636,5.999998719203974,2.322152998643855,17.836397,-6.3730764,4.5650144,3.783531,12.024982,-8.916731,1.5906984,-0.4310152,0.24836549,-0.40786186,-0.7656303,-5.9659996,3.290892,-0.48838297,-5.9299765,5.8480835,2.9242568,0
0.7600000000000005,20.99999735831216,-5.090958001589743,4.380559492265856,0.7449699392214462,19.746582,-5.0742216,3.5314183,1.8811953,11.965274,-8.882946,1.5858871,-0.4001457,0.2774062,-0.40098506,-0.7759773,-5.9783177,3.4664452,-0.47447395,-5.940829,5.871868,2.8947113,0
0.7700000000000005,20.99999735831216,-5.090958001589743,4.380559492265856,0.7449699392214462,19.746582,-5.0742216,3.5314183,1.8811953,11.905357,-8.847395,1.5811979,-0.36907148,0.30550537,-0.39327556,-0.7847214,-6.0076504,3.6437464,-0.4640361,-5.807466,5.63995,2.789223,0
0.7800000000000005,20.99999735831216,-5.090958001589743,4.380559492265856,0.7449699392214462,19.746582,-5.0742216,3.5314183,1.8811953,11.845064,-8.810074,1.5765915,-0.33832964,0.33218333,-0.38477373,-0.79191995,-6.0534596,3.820156,-0.45792937,-5.6950145,5.444125,2.6889107,0
0.7900000000000005,20.99999735831216,-5.090958001589743,4.380559492265856,0.7449699392214462,19.746582,-5.0742216,3.5314183,1.8811953,11.784234,-8.771,1.5720241,-0.30790603,0.35758552,-0.37554604,-0.79767936,-6.1151066,3.994266,-0.45620748,-5.6001935,5.2787766,2.593521,0
0.8000000000000005,20.99996776548897,-2.637825291522525,0.9289555500503703,-0.18665087166858066,19.558815,-4.08079,2.7481976,1.1379565,11.72271,-8.730202,1.567452,-0.27778628,0.38183162,-0.36564517,-0.80208707,-6.191921,4.1647916,-0.45891187,-5.5202384,5.1391616,2.5028124,0
0.8100000000000005,20.99996776548897,-2.637825291522525,0.9289555500503703,-0.18665087166858066,19.558815,-4.08079,2.7481976,1.1379565,11.660328,-8.687688,1.5628486,-0.24876228,0.40392897,-0.35539222,-0.80539167,-6.2862606,4.3363953,-0.46282047,-5.1452255,4.5594344,2.3776627,0
0.8200000000000005,20.99996776548897,-2.637825291522525,0.9289555500503703,-0.18665087166858066,19.558815,-4.08079,2.7481976,1.1379565,11.596947,-8.643506,1.558174,-0.22165895,0.42298874,-0.34521848,-0.80794346,-6.3913865,4.4982824,-0.4730047,-4.774629,4.015826,2.2538064,0
0.8300000000000005,20.99996776548897,-2.637825291522525,0.9289555500503703,-0.18665087166858066,19.558815,-4.08079,2.7481976,1.1379565,11.532464,-8.597749,1.553374,-0.19644715,0.43931392,-0.3352716,-0.8099416,-6.506787,4.6524906,-0.48749778,-4.4404116,3.5352688,2.1340525,0
0.8400000000000005,20.99996776548897,-2.637825291522525,0.9289555500503703,-0.18665087166858066,19.886019,-2.432049,2.2590303,0.3888815,11.466777,-8.550481,1.5484143,-0.17294234,0.4533365,-0.32556722,-0.8115316,-6.632069,4.8003964,-0.5048661,-4.158501,3.1295166,2.0201747,0
0.8500000000000005,20.99996776548897,-2.637825291522525,0.9289555500503703,-0.18665087166858066,19.886019,-2.432049,2.2590303,0.3888815,11.399793,-8.501764,1.5432687,-0.15094763,0.465446,-0.31608418,-0.81281376,-6.766012,4.941865,-0.52462626,-3.920704,2.7869308,1.9118851,0
0.8600000000000005,20.99996776548897,-2.637825291522525,0.9289555500503703,-0.18665087166858066,19.886019,-2.432049,2.2590303,0.3888815,11.3314295,-8.451666,1.5379152,-0.13028736,0.47596323,-0.3067927,-0.81385684,-6.9075785,5.0768404,-0.5463532,-3.720111,2.4976802,1.8089094,0
0.8700000000000006,20.99996776548897,-2.637825291522525,0.9289555500503703,-0.18665087166858066,19.886019,-2.432049,2.2590303,0.3888815,11.261617,-8.4002495,1.5323362,-0.11080651,0.48515242,-0.29765907,-0.8147077,-7.055886,5.20532,-0.5696776,-3.5508964,2.253465,1.7109866,0
0.8800000000000006,19.90239374812962,-0.5867433376175295,-2.462829931323489,-0.6479652876615554,20.929428,-0.82806873,0.22287288,-0.14375041,11.19029,-8.347582,1.5265174,-0.09236917,0.49323133,-0.28864878,-0.8153976,-7.2101765,5.3273306,-0.59428054,-3.4081485,2.0472748,1.617869,0
0.8900000000000006,19.90239374812962,-0.5867433376175295,-2.462829931323489,-0.6479652876615554,20.929428,-0.82806873,0.22287288,-0.14375041,11.1174135,-8.29374,1.5204388,-0.07556174,0.49936706,-0.28014648,-0.8163586,-7.3653483,5.4398317,-0.6217996,-3.0211658,1.398344,1.511539,0
0.9000000000000006,19.90239374812962,-0.5867433376175295,-2.462829931323489,-0.6479652876615554,20.929428,-0.82806873,0.22287288,-0.14375041,11.042983,-8.238815,1.5140748,-0.060991056,0.5027917,-0.2726104,-0.8180249,-7.5209913,5.5442657,-0.651103,-2.64723,0.80310255,1.4061617,0
0.9100000000000006,19.90239374812962,-0.5867433376175295,-2.462829931323489,-0.6479652876615554,20.929428,-0.82806873,0.22287288,-0.14375041,10.966986,-8.182873,1.5074184,-0.048460476,0.50386477,-0.26600748,-0.82037336,-7.6790204,5.6435394,-0.68006694,-2.3254113,0.29423052,1.305365,0
0.9200000000000006,18.485001756681886,0.6650603551200029,-5.970152005001817,-0.7723902658480553,20.681335,0.2713249,-3.4094386,-0.36635816,10.889397,-8.125958,1.5004778,-0.03769294,0.5029842,-0.26020807,-0.82333374,-7.839055,5.7386665,-0.7078187,-2.0539086,-0.13537148,1.2095145,0
0.9300000000000006,18.485001756681886,0.6650603551200029,-5.970152005001817,-0.7723902658480553,20.681335,0.2713249,-3.4094386,-0.36635816,10.810216,-8.06812,1.4932612,-0.028844574,0.4995387,-0.2552403,-0.82733434,-7.9965215,5.828136,-0.7354414,-1.7274476,-0.94679564,1.1210828,0
0.9400000000000006,18.485001756681886,0.6650603551200029,-5.970152005001817,-0.7723902658480553,20.681335,0.2713249,-3.4094386,-0.36635816,10.729481,-8.009414,1.4857713,-0.022171628,0.49288547,-0.25126636,-0.8327294,-8.149867,5.9125657,-0.7623592,-1.3961449,-1.6876076,1.0319917,0
0.9500000000000006,18.485001756681886,0.6650603551200029,-5.970152005001817,-0.7723902658480553,20.681335,0.2713249,-3.4094386,-0.36635816,10.647233,-7.949882,1.4780207,-0.017563818,0.4832954,-0.24832655,-0.83931625,-8.2993,5.993548,-0.78723407,-1.0765575,-2.35302,0.9436533,0
0.9600000000000006,17.821632641238928,1.1336458064829413,-5.999998853303666,-1.0088701952971437,20.299175,0.41331923,-4.636146,-0.46410233,10.563499,-7.8895464,1.4700413,-0.014793455,0.47111684,-0.24631804,-0.846852,-8.446892,6.073504,-0.8079306,-0.8047652,-2.9168978,0.8594465,0
0.9700000000000006,17.821632641238928,1.1336458064829413,-5.999998853303666,-1.0088701952971437,20.299175,0.41331923,-4.636146,-0.46410233,10.47833,-7.8284273,1.4618641,-0.013710714,0.45670256,-0.24522004,-0.85504544,-8.586765,6.15034,-0.82671976,-0.502403,-3.397505,0.7677677,0
0.9800000000000006,17.821632641238928,1.1336458064829413,-5.999998853303666,-1.0088701952971437,20.299175,0.41331923,-4.636146,-0.46410233,10.391775,-7.7665386,1.4535244,-0.0141837485,0.44034752,-0.24500002,-0.8636368,-8.723433,6.2275233,-0.84042454,-0.24727444,-3.8032203,0.68058753,0
0.9900000000000007,17.821632641238928,1.1336458064829413,-5.999998853303666,-1.0088701952971437,20.299175,0.41331923,-4.636146,-0.46410233,10.303873,-7.703874,1.4450741,-0.015993001,0.42230383,-0.24548751,-0.87243354,-8.8561535,6.3055515,-0.84878,-0.031991996,-4.145709,0.59768534,0
1.0000000000000007,17.38714988916675,0.6118873240581661,-5.999998730518548,-1.095347209385137,19.92158,0.6025589,-4.836299,-0.5117737,10.214668,-7.640424,1.4365678,-0.018953182,0.40278462,-0.24653502,-0.88126415,-8.984226,6.3848066,-0.85163003,0.149674,-4.434821,0.51885116,0
1.0100000000000007,17.38714988916675,0.6118873240581661,-5.999998730518548,-1.095347209385137,19.92158,0.6025589,-4.836299,-0.5117737,10.124223,-7.576183,1.4280485,-0.022834126,0.381979,-0.24782684,-0.8900299,-9.103999,6.4635835,-0.8513664,0.2215974,-4.678897,0.43964195,0
1.0200000000000007,17.38714988916675,0.6118873240581661,-5.999998730518548,-1.095347209385137,19.92158,0.6025589,-4.836299,-0.5117737,10.032608,-7.5111465,1.4195591,-0.027450837,0.36005163,-0.24910283,-0.8986422,-9.218003,6.5438995,-0.8456475,0.28228265,-4.884918,0.36431962,0
1.0300000000000007,17.38714988916675,0.6118873240581661,-5.999998730518548,-1.095347209385137,19.92158,0.6025589,-4.836299,-0.5117737,9.939884,-7.4452996,1.411154,-0.032717682,0.33714047,-0.2503215,-0.90697616,-9.325686,6.62575,-0.83452094,0.33348975,-5.058818,0.29269335,0
1.0400000000000007,17.38714988916675,0.6118873240581661,-5.999998730518548,-1.095347209385137,19.962677,0.4654735,-4.7938724,-0.7209738,9.846117,-7.378627,1.4028869,-0.038559876,0.31336677,-0.2514486,-0.9149255,-9.426526,6.709076,-0.81810707,0.376703,-5.2056026,0.22458181,0
1.0500000000000007,17.38714988916675,0.6118873240581661,-5.999998730518548,-1.095347209385137,19.962677,0.4654735,-4.7938724,-0.7209738,9.751379,-7.3111134,1.3948096,-0.04491172,0.28883788,-0.25245598,-0.9224003,-9.520031,6.793772,-0.79659057,0.41317308,-5.3295007,0.15981251,0
1.0600000000000007,17.38714988916675,0.6118873240581661,-5.999998730518548,-1.095347209385137,19.962677,0.4654735,-4.7938724,-0.7209738,9.655744,-7.242747,1.386972,-0.051715124,0.26364943,-0.25332087,-0.9293244,-9.605746,6.8796945,-0.77021253,0.44395518,-5.434078,0.098221466,0
1.0700000000000007,17.38714988916675,0.6118873240581661,-5.999998730518548,-1.095347209385137,19.962677,0.4654735,-4.7938724,-0.7209738,9.559293,-7.173516,1.3794211,-0.05891839,0.23788707,-0.25402504,-0.9356337,-9.683252,6.9666615,-0.7392635,0.46993908,-5.5223494,0.039652713,0
1.0800000000000007,17.130302353451896,-0.42479946859516327,-5.999872480177906,-1.0143482848623555,19.444302,-0.04576039,-2.8880706,-1.0435158,9.46211,-7.1034102,1.3722012,-0.06647521,0.21162793,-0.2545542,-0.94127446,-9.75217,7.054463,-0.70407677,0.49187467,-5.596856,-0.016042057,0
1.0900000000000007,17.130302353451896,-0.42479946859516327,-5.999872480177906,-1.0143482848623555,19.444302,-0.04576039,-2.8880706,-1.0435158,9.364286,-7.03243,1.3653429,-0.074250184,0.18496813,-0.25450832,-0.9463087,-9.811279,7.141528,-0.66703504,0.34873843,-5.659716,-0.06502923,0
1.1000000000000008,17.130302353451896,-0.42479946859516327,-5.999872480177906,-1.0143482848623555,19.444302,-0.04576039,-2.8880706,-1.0435158,9.265916,-6.960579,1.3588727,-0.082142785,0.15799569,-0.25356936,-0.9507857,-9.861351,7.2287197,-0.62647104,0.22793013,-5.712765,-0.111612596,0
1.1100000000000008,17.130302353451896,-0.42479946859516327,-5.999872480177906,-1.0143482848623555,19.444302,-0.04576039,-2.8880706,-1.0435158,9.16709,-6.8878574,1.3528244,-0.09015783,0.13076535,-0.25183904,-0.9546465,-9.902191,7.3155613,-0.5826985,0.12596773,-5.7575355,-0.15591009,0
1.1200000000000008,16.291381181705336,-1.570330341681526,-3.108279140093332,-0.9601601636636324,18.955421,-1.1658794,-0.34535626,-0.8796845,9.067904,-6.814271,1.3472285,-0.09829443,0.103326604,-0.24940537,-0.9578412,-9.933635,7.4015965,-0.5360705,0.03991294,-5.7953205,-0.19803391,0
1.1300000000000008,16.291381181705336,-1.570330341681526,-3.108279140093332,-0.9601601636636324,18.955421,-1.1658794,-0.34535626,-0.8796845,8.968456,-6.7398505,1.3420755,-0.106212296,0.07688063,-0.24602829,-0.96035385,-9.954572,7.48222,-0.49418542,-0.21128127,-5.3762407,-0.23543167,0
1.1400000000000008,16.291381181705336,-1.570330341681526,-3.108279140093332,-0.9601601636636324,18.955421,-1.1658794,-0.34535626,-0.8796845,8.868842,-6.664632,1.3373514,-0.113664016,0.052396514,-0.24155293,-0.9622829,-9.967044,7.56116,-0.45034134,-0.42328718,-5.022511,-0.2709943,0
1.1500000000000008,16.291381181705336,-1.570330341681526,-3.108279140093332,-0.9601601636636324,18.955421,-1.1658794,-0.34535626,-0.8796845,8.769142,-6.5886345,1.3330742,-0.1207651,0.029596616,-0.2361604,-0.9637267,-9.971678,7.6379814,-0.40486923,-0.6022199,-4.723943,-0.30481187,0
1.1600000000000008,15.35045982048509,-2.656157753936251,0.5985144562559654,-0.6838627782325364,18.7252,-1.7006897,3.0155158,-0.540413,8.669433,-6.511881,1.3292587,-0.12760682,0.008241145,-0.23000059,-0.9647535,-9.969027,7.7123213,-0.35804516,-0.75324017,-4.4719357,-0.33696997,0
1.1700000000000008,15.35045982048509,-2.656157753936251,0.5985144562559654,-0.6838627782325364,18.7252,-1.7006897,3.0155158,-0.540413,8.569782,-6.434418,1.325875,-0.13389166,-0.0103959255,-0.22297585,-0.96552974,-9.960226,7.7797437,-0.31853282,-1.049867,-3.6811256,-0.3539921,0
1.1800000000000008,15.35045982048509,-2.656157753936251,0.5985144562559654,-0.6838627782325364,18.7252,-1.7006897,3.0155158,-0.540413,8.470246,-6.3562956,1.3228912,-0.13940828,-0.025316594,-0.21503729,-0.9662734,-9.946217,7.8443136,-0.27808428,-1.3002456,-3.013647,-0.37017894,0
1.1900000000000008,15.35045982048509,-2.656157753936251,0.5985144562559654,-0.6838627782325364,18.7252,-1.7006897,3.0155158,-0.540413,8.370872,-6.277542,1.3203164,-0.14433047,-0.037086565,-0.20635588,-0.9670634,-9.92814,7.905873,-0.23673715,-1.5115886,-2.4502668,-0.38557148,0
1.2000000000000008,14.77945409714259,-3.203314151590857,3.95023195092734,-0.35188693768606255,17.751398,-2.5553458,5.123996,0.01753682,8.271694,-6.198189,1.3181596,-0.14879484,-0.046187107,-0.19706668,-0.96793216,-9.906958,7.9643126,-0.19448607,-1.6899834,-1.9747504,-0.40020874,0
1.2100000000000009,14.77945409714259,-3.203314151590857,3.95023195092734,-0.35188693768606255,17.751398,-2.5553458,5.123996,0.01753682,8.172736,-6.118277,1.3164036,-0.15261999,-0.05170323,-0.18726607,-0.96900284,-9.884449,8.017515,-0.15655266,-1.925744,-1.0506942,-0.39783758,0
1.2200000000000009,14.77945409714259,-3.203314151590857,3.95023195092734,-0.35188693768606255,17.751398,-2.5553458,5.123996,0.01753682,8.074008,-6.0378485,1.315032,-0.155673,-0.05293096,-0.17703795,-0.9703726,-9.861072,8.067703,-0.1176233,-2.124778,-0.27075422,-0.3955828,0
1.2300000000000009,14.77945409714259,-3.203314151590857,3.95023195092734,-0.35188693768606255,17.751398,-2.5553458,5.123996,0.01753682,7.975513,-5.956932,1.314055,-0.15810867,-0.050530683,-0.1664575,-0.9719781,-9.838051,8.114962,-0.07759613,-2.2928061,0.38754642,-0.39343858,0
1.2400000000000009,14.77945409714259,-3.203314151590857,3.95023195092734,-0.35188693768606255,17.421597,-2.4846346,5.3370485,0.05235074,7.877242,-5.875558,1.3134841,-0.16004607,-0.04505991,-0.15558039,-0.9737304,-9.816424,8.159365,-0.036401745,-2.4346583,0.94317853,-0.39139962,0
1.2500000000000009,14.77945409714259,-3.203314151590857,3.95023195092734,-0.35188693768606255,17.421597,-2.4846346,5.3370485,0.05235074,7.7791767,-5.7937536,1.313331,-0.16157682,-0.03698998,-0.14444916,-0.97553086,-9.797074,8.2009735,0.0059839524,-2.554412,1.4121541,-0.3894607,0
1.260000000000001,14.77945409714259,-3.203314151590857,3.95023195092734,-0.35188693768606255,17.421597,-2.4846346,5.3370485,0.05235074,7.6812906,-5.711547,1.3136078,-0.16277148,-0.02672024,-0.13309738,-0.97728086,-9.78075,8.239837,0.049534664,-2.6555097,1.8079883,-0.38761693,0
1.270000000000001,14.77945409714259,-3.203314151590857,3.95023195092734,-0.35188693768606255,17.421597,-2.4846346,5.3370485,0.05235074,7.5835495,-5.628966,1.3143256,-0.16368434,-0.01458988,-0.12155241,-0.97888756,-9.768093,8.275987,0.0941735,-2.7408576,2.1420887,-0.38586366,0
1.280000000000001,14.381881341682023,-3.189783165136109,4.826524185143061,-0.16363238647911804,16.570164,-2.983079,5.2597566,0.23044392,7.485914,-5.5460367,1.3154948,-0.16435729,-0.00088773295,-0.10983738,-0.98026675,-9.759646,8.309445,0.13977541,-2.8129091,2.4240825,-0.3841964,0
1.290000000000001,14.381881341682023,-3.189783165136109,4.826524185143061,-0.16363238647911804,16.570164,-2.983079,5.2597566,0.23044392,7.3883395,-5.4627905,1.3171046,-0.1647621,0.014480058,-0.098035276,-0.98134303,-9.755992,8.339405,0.18228331,-2.8716083,2.7987366,-0.37337327,0
1.300000000000001,14.381881341682023,-3.189783165136109,4.826524185143061,-0.16363238647911804,16.570164,-2.983079,5.2597566,0.23044392,7.2907767,-5.379257,1.3191423,-0.164875,0.03157216,-0.08621321,-0.9820326,-9.757419,8.366819,0.22534832,-2.9211712,3.1149614,-0.3630812,0
1.310000000000001,14.381881341682023,-3.189783165136109,4.826524185143061,-0.16363238647911804,16.570164,-2.983079,5.2597566,0.23044392,7.193172,-5.2954626,1.3216125,-0.16473,0.050111182,-0.074369155,-0.98225427,-9.764396,8.391742,0.26870838,-2.9630194,3.3818698,-0.35329416,0
1.320000000000001,14.001325684381134,-2.6625696131077445,3.998785679427066,-0.17238144562097932,16.663944,-2.3466325,5.608487,0.24335197,7.0954685,-5.211431,1.3245165,-0.16435316,0.06985859,-0.06250293,-0.9819381,-9.77731,8.414215,0.31206045,-2.998353,3.607153,-0.34398738,0
1.330000000000001,14.001325684381134,-2.6625696131077445,3.998785679427066,-0.17238144562097932,16.663944,-2.3466325,5.608487,0.24335197,6.997607,-5.1271896,1.3278339,-0.1638022,0.09024929,-0.050769053,-0.98104423,-9.795941,8.433743,0.35133553,-2.9459941,3.6681998,-0.33556664,0
1.340000000000001,14.001325684381134,-2.6625696131077445,3.998785679427066,-0.17238144562097932,16.663944,-2.3466325,5.608487,0.24335197,6.8995285,-5.042764,1.331541,-0.16312712,0.110823736,-0.0392929,-0.9795739,-9.820708,8.450982,0.38994575,-2.901802,3.7197297,-0.3275591,0
1.350000000000001,14.001325684381134,-2.6625696131077445,3.998785679427066,-0.17238144562097932,16.663944,-2.3466325,5.608487,0.24335197,6.8011713,-4.9581776,1.3356293,-0.1623356,0.13153368,-0.028036889,-0.9775282,-9.851613,8.465999,0.4275651,-2.8645034,3.7632263,-0.3199445,0
1.360000000000001,13.470281635583115,-1.7296935091743875,1.4689535980516348,-0.28648179713015265,15.122549,-1.297423,3.2184472,0.12563841,6.7024746,-4.873451,1.3400877,-0.1614334,0.15233642,-0.016970193,-0.97490835,-9.888631,8.4788475,0.46387056,-2.8330219,3.7999415,-0.31270355,0
1.370000000000001,13.470281635583115,-1.7296935091743875,1.4689535980516348,-0.28648179713015265,15.122549,-1.297423,3.2184472,0.12563841,6.603386,-4.7886095,1.3448759,-0.16051404,0.17215055,-0.0062659876,-0.9718856,-9.930023,8.489176,0.49352738,-2.6610353,3.4363878,-0.31141686,0
1.380000000000001,13.470281635583115,-1.7296935091743875,1.4689535980516348,-0.28648179713015265,15.122549,-1.297423,3.2184472,0.12563841,6.503856,-4.7036743,1.3499523,-0.15965877,0.19013056,0.0039398056,-0.96868235,-9.976735,8.497531,0.52148503,-2.5158575,3.1295362,-0.31019327,0
1.390000000000001,13.470281635583115,-1.7296935091743875,1.4689535980516348,-0.28648179713015265,15.122549,-1.297423,3.2184472,0.12563841,6.4038353,-4.618665,1.3552996,-0.15885422,0.2065595,0.013721415,-0.9653558,-10.028252,8.503972,0.5476723,-2.3933103,2.8705428,-0.30902976,0
1.400000000000001,13.046090822414772,-0.5648613784811038,-1.8656494332875937,-0.3467969321492096,13.642154,-0.3293731,-1.0417615,0.19223166,6.3032765,-4.5336013,1.3608996,-0.15808833,0.22167611,0.02314214,-0.9619427,-10.084134,8.508554,0.5720428,-2.2898655,2.6519432,-0.30792335,1
1.410000000000001,13.046090822414772,-0.5648613784811038,-1.8656494332875937,-0.3467969321492096,13.642154,-0.3293731,-1.0417615,0.19223166,6.202135,-4.4484997,1.3667418,-0.15739605,0.23463205,0.03186316,-0.95872855,-10.144715,8.511374,0.5961361,-1.9842772,2.075819,-0.2833806,1
1.420000000000001,13.046090822414772,-0.5648613784811038,-1.8656494332875937,-0.3467969321492096,13.642154,-0.3293731,-1.0417615,0.19223166,6.100371,-4.363379,1.3728166,-0.15680125,0.24478023,0.039618827,-0.9559957,-10.208564,8.512504,0.6185849,-1.7263099,1.58956,-0.26004216,1
1.430000000000001,13.046090822414772,-0.5648613784811038,-1.8656494332875937,-0.3467969321492096,13.642154,-0.3293731,-1.0417615,0.19223166,5.997955,-4.2782555,1.3791087,-0.15627745,0.25257385,0.046557337,-0.95373875,-10.274964,8.512076,0.6396527,-1.5085454,1.1791482,-0.23784895,1
1.440000000000001,13.046090822414772,-0.5648613784811038,-1.8656494332875937,-0.3467969321492096,12.992338,0.6567037,-2.1502242,0.4860754,5.8948646,-4.193143,1.3856057,-0.15580088,0.25839156,0.052803755,-0.9519312,-10.343329,8.510204,0.6595917,-1.3247195,0.83275187,-0.2167448,0
1.450000000000001,13.046090822414772,-0.5648613784811038,-1.8656494332875937,-0.3467969321492096,12.992338,0.6567037,-2.1502242,0.4860754,5.7910986,-4.108055,1.3922719,-0.15537184,0.26224715,0.058621857,-0.9506055,-10.410106,8.507108,0.6735235,-1.2062776,0.41192615,-0.2231265,0
1.460000000000001,13.046090822414772,-0.5648613784811038,-1.8656494332875937,-0.3467969321492096,12.992338,0.6567037,-2.1502242,0.4860754,5.68666,-4.023005,1.3990742,-0.15499535,0.2641648,0.06422845,-0.9497733,-10.4778,8.502705,0.68685895,-1.1063005,0.05672946,-0.22919504,0
1.470000000000001,13.046090822414772,-0.5648613784811038,-1.8656494332875937,-0.3467969321492096,12.992338,0.6567037,-2.1502242,0.4860754,5.581541,-3.938006,1.4060079,-0.15465869,0.26444885,0.06965722,-0.94936645,-10.545986,8.496966,0.69983435,-1.0219089,-0.24307299,-0.23496582,0
1.480000000000001,12.652395513351939,0.3939413552206767,-4.79973487438882,-0.38867889160867686,11.989014,1.0711638,-5.5432267,0.5052254,5.4757395,-3.8530705,1.4130704,-0.154351,0.26335388,0.07493613,-0.9493189,-10.614302,8.48987,0.7126512,-0.9506732,-0.49612036,-0.2404534,1
1.490000000000001,12.652395513351939,0.3939413552206767,-4.79973487438882,-0.38867889160867686,11.989014,1.0711638,-5.5432267,0.5052254,5.3692827,-3.7682097,1.4202161,-0.15402208,0.25960243,0.079666145,-0.9500202,-10.676849,8.482088,0.71653515,-0.6354625,-1.2832787,-0.20386271,1
1.500000000000001,12.652395513351939,0.3939413552206767,-4.79973487438882,-0.38867889160867686,11.989014,1.0711638,-5.5432267,0.5052254,5.2622056,-3.683433,1.4274027,-0.15360376,0.25218785,0.08352559,-0.951752,-10.738443,8.473071,0.7208963,-0.3693599,-1.9476593,-0.16906756,1
1.5100000000000011,12.652395513351939,0.3939413552206767,-4.79973487438882,-0.38867889160867686,11.989014,1.0711638,-5.5432267,0.5052254,5.15452,-3.5987525,1.4346372,-0.15306254,0.24166574,0.08663827,-0.95428747,-10.798316,8.4628525,0.72615933,-0.14471924,-2.508414,-0.1359798,1
1.5200000000000011,12.620530110033739,1.2339008792762092,-5.999987963778156,-0.37584698416519247,11.982155,1.4764147,-6.0758514,0.6183747,5.046247,-3.5141802,1.4419302,-0.15236977,0.22849989,0.08910692,-0.9574092,-10.855803,8.451463,0.7326467,0.044915676,-2.9817073,-0.10451568,1
1.5300000000000011,12.620530110033739,1.2339008792762092,-5.999987963778156,-0.37584698416519247,11.982155,1.4764147,-6.0758514,0.6183747,4.937414,-3.4297273,1.4492948,-0.15150812,0.21288086,0.09088631,-0.9609723,-10.910271,8.438944,0.7405302,0.2682042,-3.4524176,-0.06904322,1
1.5400000000000011,12.620530110033739,1.2339008792762092,-5.999987963778156,-0.37584698416519247,11.982155,1.4764147,-6.0758514,0.6183747,4.8280535,-3.345405,1.4567463,-0.15045725,0.19497791,0.09194275,-0.96482843,-10.9611635,8.425351,0.75004447,0.4566901,-3.8497105,-0.035311427,1
1.5500000000000012,12.620530110033739,1.2339008792762092,-5.999987963778156,-0.37584698416519247,11.982155,1.4764147,-6.0758514,0.6183747,4.718204,-3.2612236,1.4643016,-0.1491927,0.17512372,0.09237115,-0.96878374,-11.007934,8.410759,0.7612833,0.61579484,-4.185038,-0.0032348754,1
1.5600000000000012,12.786735776218384,1.5798612935054124,-5.999993928665345,-0.5180500724178028,11.501682,1.4228641,-5.972249,0.59433436,4.60791,-3.177193,1.471978,-0.14769611,0.15360272,0.09225211,-0.9726678,-11.050094,8.395239,0.77425444,0.75009596,-4.468066,0.027267702,0
1.5700000000000012,12.786735776218384,1.5798612935054124,-5.999993928665345,-0.5180500724178028,11.501682,1.4228641,-5.972249,0.59433436,4.497207,-3.093327,1.4798301,-0.14609711,0.13064057,0.09163508,-0.9763159,-11.089698,8.377765,0.79646003,0.87941974,-4.7069826,0.00050880015,0
1.5800000000000012,12.786735776218384,1.5798612935054124,-5.999993928665345,-0.5180500724178028,11.501682,1.4228641,-5.972249,0.59433436,4.386136,-3.0096402,1.4879128,-0.14451921,0.106432185,0.090562575,-0.9795846,-11.123506,8.359476,0.82030094,0.9885721,-4.908643,-0.024937043,0
1.5900000000000012,12.786735776218384,1.5798612935054124,-5.999993928665345,-0.5180500724178028,11.501682,1.4228641,-5.972249,0.59433436,4.274758,-2.92614,1.4962411,-0.1429421,0.08116506,0.08908894,-0.9823666,-11.151154,8.340467,0.84557456,1.0807006,-5.078857,-0.04913424,0
1.6000000000000012,12.740228370405973,1.5564946165326456,-5.255862116027267,-0.7185209882648244,11.974236,1.5210661,-5.631441,0.41005635,4.163135,-2.842833,1.5048282,-0.14134954,0.055003345,0.08726062,-0.9845719,-11.17233,8.320833,0.87202406,1.1584616,-5.222528,-0.0721441,0
1.6100000000000012,12.740228370405973,1.5564946165326456,-5.255862116027267,-0.7185209882648244,11.974236,1.5210661,-5.631441,0.41005635,4.051335,-2.7597249,1.5136821,-0.1397791,0.028384289,0.08508639,-0.9861125,-11.186735,8.300743,0.89889014,1.2204261,-5.227755,-0.103861995,0
1.6200000000000012,12.740228370405973,1.5564946165326456,-5.255862116027267,-0.7185209882648244,11.974236,1.5210661,-5.631441,0.41005635,3.9394243,-2.6768196,1.5228078,-0.13826671,0.0016680807,0.082577586,-0.98694575,-11.194338,8.280239,0.9262869,1.2727326,-5.232167,-0.13402349,0
1.6300000000000012,12.740228370405973,1.5564946165326456,-5.255862116027267,-0.7185209882648244,11.974236,1.5210661,-5.631441,0.41005635,3.827472,-2.594121,1.5322086,-0.13679808,-0.025114767,0.07977454,-0.9870628,-11.195093,8.259438,0.95386237,1.3168868,-5.2358904,-0.16270494,0
1.6400000000000012,12.740228370405973,1.5564946165326456,-5.255862116027267,-0.7185209882648244,12.085999,1.6122847,-5.4566197,0.16504173,3.7155464,-2.5116315,1.5418844,-0.13536143,-0.051935136,0.07671173,-0.9864567,-11.18898,8.2384405,0.9812589,1.3541601,-5.2390327,-0.189979,1
1.6500000000000012,12.740228370405973,1.5564946165326456,-5.255862116027267,-0.7185209882648244,12.085999,1.6122847,-5.4566197,0.16504173,3.603713,-2.429347,1.5517998,-0.1338315,-0.07883893,0.07341366,-0.9851322,-11.176661,8.218428,1.0016979,1.39447,-5.272954,-0.17255802,1
1.6600000000000013,12.740228370405973,1.5564946165326456,-5.255862116027267,-0.7185209882648244,12.085999,1.6122847,-5.4566197,0.16504173,3.4920356,-2.3472629,1.5619153,-0.13209234,-0.10585628,0.069905885,-0.9830873,-11.157814,8.198404,1.0212736,1.4284921,-5.301585,-0.1559919,1
1.6700000000000013,12.740228370405973,1.5564946165326456,-5.255862116027267,-0.7185209882648244,12.085999,1.6122847,-5.4566197,0.16504173,3.3805792,-2.2653787,1.5722209,-0.1301485,-0.13293824,0.06621749,-0.9803089,-11.132452,8.178451,1.0396309,1.4572066,-5.3257504,-0.14023867,1
1.6800000000000013,12.459047398905193,1.2525605763802856,-2.9889979491832825,-0.9191869552579204,12.143167,1.1404923,-3.2936487,0.26079857,3.269409,-2.1836936,1.5827025,-0.12800531,-0.16003987,0.06237381,-0.97678703,-11.100615,8.158644,1.0564121,1.4814416,-5.3461475,-0.12525848,0
1.6900000000000013,12.459047398905193,1.2525605763802856,-2.9889979491832825,-0.9191869552579204,12.143167,1.1404923,-3.2936487,0.26079857,3.1585946,-2.1022084,1.5933601,-0.12588638,-0.18614948,0.05839046,-0.97267324,-11.061237,8.138459,1.0747651,1.4456507,-4.978585,-0.16421674,0
1.7000000000000013,12.459047398905193,1.2525605763802856,-2.9889979491832825,-0.9191869552579204,12.143167,1.1404923,-3.2936487,0.26079857,3.0482051,-2.0209234,1.6041902,-0.1239967,-0.2104797,0.054279525,-0.96818304,-11.015734,8.118608,1.0909238,1.4154584,-4.66834,-0.20126335,0
1.7100000000000013,12.459047398905193,1.2525605763802856,-2.9889979491832825,-0.9191869552579204,12.143167,1.1404923,-3.2936487,0.26079857,2.9382994,-1.9398347,1.6151705,-0.12231454,-0.23329534,0.050055563,-0.9633839,-10.964583,8.099181,1.1047447,1.3899871,-4.4064765,-0.23649202,0
1.7200000000000013,12.162964817565083,0.7918091811935,0.7824102308146776,-1.012977181192016,12.11838,0.92493457,-0.63587713,0.09476715,2.8289316,-1.858938,1.6262766,-0.12081995,-0.2548198,0.04573016,-0.95832133,-10.908204,8.080251,1.1161128,1.3684978,-4.1854486,-0.26999205,0
1.7300000000000013,12.162964817565083,0.7918091811935,0.7824102308146776,-1.012977181192016,12.11838,0.92493457,-0.63587713,0.09476715,2.7201447,-1.7782255,1.6374713,-0.119623184,-0.2737817,0.041304775,-0.9534304,-10.848482,8.062318,1.1224405,1.2786852,-3.4107964,-0.30644423,0
1.7400000000000013,12.162964817565083,0.7918091811935,0.7824102308146776,-1.012977181192016,12.11838,0.92493457,-0.63587713,0.09476715,2.6119754,-1.6976893,1.6487178,-0.118815936,-0.28921103,0.036784455,-0.9491514,-10.784846,8.045026,1.1265363,1.2028246,-2.7568805,-0.341114,0
1.7500000000000013,12.162964817565083,0.7918091811935,0.7824102308146776,-1.012977181192016,12.11838,0.92493457,-0.63587713,0.09476715,2.5044587,-1.6173226,1.6599954,-0.11835329,-0.3016829,0.032180425,-0.94548726,-10.718057,8.028456,1.1287228,1.1388017,-2.2049406,-0.37408254,0
1.7600000000000013,11.991833433182265,0.3278298292734871,4.722497373145996,-0.9800616171225893,11.996017,0.3249884,2.7820168,-0.1266442,2.397623,-1.5371175,1.6712867,-0.11819449,-0.31167632,0.027500674,-0.9424083,-10.648733,8.012672,1.1293054,1.0847658,-1.7390738,-0.40543327,0
1.7700000000000014,11.991833433182265,0.3278298292734871,4.722497373145996,-0.9800616171225893,11.996017,0.3249884,2.7820168,-0.1266442,2.2914965,-1.4570673,1.6825848,-0.11835873,-0.31818753,0.022664227,-0.94033825,-10.576731,7.997588,1.1296003,0.996994,-0.76141596,-0.430909,0
1.7800000000000014,11.991833433182265,0.3278298292734871,4.722497373145996,-0.9800616171225893,11.996017,0.3249884,2.7820168,-0.1266442,2.186086,-1.377161,1.6938678,-0.118904196,-0.3203111,0.017708175,-0.93965465,-10.505296,7.9838104,1.1269189,0.8935805,0.09310879,-0.4577904,0
1.7900000000000014,11.991833433182265,0.3278298292734871,4.722497373145996,-0.9800616171225893,11.996017,0.3249884,2.7820168,-0.1266442,2.0813916,-1.2973875,1.705123,-0.11979326,-0.31867406,0.012691949,-0.9401793,-10.43363,7.971094,1.1241225,0.8055799,0.815072,-0.48341838,0
1.8000000000000014,12.057265769734014,-0.0453154291143791,5.9999948926572495,-0.858600828039223,12.266427,-0.23528272,4.1283073,-0.32859105,1.9774119,-1.2177355,1.716352,-0.12096656,-0.31385493,0.0076182582,-0.9417037,-10.362402,7.9595165,1.1217966,0.7312888,1.4244446,-0.5077888,0
1.8100000000000014,12.057265769734014,-0.0453154291143791,5.9999948926572495,-0.858600828039223,12.266427,-0.23528272,4.1283073,-0.32859105,1.8741418,-1.1381934,1.7275646,-0.12240719,-0.30583256,0.0025727828,-0.94418114,-10.291856,7.949103,1.1209183,0.6104373,2.1380322,-0.52500325,0
1.8200000000000014,12.057265769734014,-0.0453154291143791,5.9999948926572495,-0.858600828039223,12.266427,-0.23528272,4.1283073,-0.32859105,1.7715689,-1.058749,1.738775,-0.12408995,-0.2946032,-0.0023754248,-0.94752663,-10.2230625,7.9399867,1.1214161,0.5084077,2.7403326,-0.541373,0
1.8300000000000014,12.057265769734014,-0.0453154291143791,5.9999948926572495,-0.858600828039223,12.266427,-0.23528272,4.1283073,-0.32859105,1.6696723,-0.97938895,1.7499989,-0.12595545,-0.28063127,-0.007245574,-0.95148855,-10.1566725,7.9322376,1.1236615,0.42226678,3.248701,-0.5569395,0
1.8400000000000014,12.057265769734014,-0.0453154291143791,5.9999948926572495,-0.858600828039223,11.712231,-0.4338482,4.946108,-0.47899348,1.568425,-0.9000993,1.7612553,-0.12795308,-0.26430702,-0.012052368,-0.95583797,-10.093266,7.9259276,1.1279149,0.34953818,3.677787,-0.57174206,0
1.8500000000000014,12.057265769734014,-0.0453154291143791,5.9999948926572495,-0.858600828039223,11.712231,-0.4338482,4.946108,-0.47899348,1.467795,-0.8208652,1.7725649,-0.13004005,-0.24596077,-0.01680665,-0.9603708,-10.033362,7.9211283,1.1343361,0.28813288,4.039954,-0.58581835,0
1.8600000000000014,12.057265769734014,-0.0453154291143791,5.9999948926572495,-0.858600828039223,11.712231,-0.4338482,4.946108,-0.47899348,1.3677444,-0.7416713,1.7839497,-0.13218035,-0.2258744,-0.021516018,-0.9649082,-9.977433,7.9179125,1.1429945,0.23628616,4.3456388,-0.5992039,0
1.8700000000000014,12.057265769734014,-0.0453154291143791,5.9999948926572495,-0.858600828039223,11.712231,-0.4338482,4.946108,-0.47899348,1.2682314,-0.6625013,1.7954324,-0.13434385,-0.20429,-0.026185371,-0.9692952,-9.925902,7.91635,1.153879,0.19250922,4.6036506,-0.6119326,0
1.8800000000000014,12.167713183870513,-0.18654219397310515,5.999995666481432,-0.7473052537496517,11.272814,-0.46481836,5.5117016,-0.49959862,1.1692101,-0.5833384,1.8070349,-0.13650535,-0.18141676,-0.03081742,-0.9733992,-9.879151,7.9165072,1.1669081,0.15554513,4.8214235,-0.62403667,1
1.8900000000000015,12.167713183870513,-0.18654219397310515,5.999995666481432,-0.7473052537496517,11.272814,-0.46481836,5.5117016,-0.49959862,1.0706171,-0.5041656,1.8187408,-0.13863656,-0.15760596,-0.03521489,-0.9770884,-9.840225,7.9183097,1.1745759,0.05882398,4.929112,-0.6179305,1
1.9000000000000015,12.167713183870513,-0.18654219397310515,5.999995666481432,-0.7473052537496517,11.272814,-0.46481836,5.5117016,-0.49959862,0.97238827,-0.42496657,1.8305323,-0.1407062,-0.13315357,-0.03921993,-0.980273,-9.80632,7.921748,1.1839182,-0.022820188,5.019999,-0.6121239,1
1.9100000000000015,12.167713183870513,-0.18654219397310515,5.999995666481432,-0.7473052537496517,11.272814,-0.46481836,5.5117016,-0.49959862,0.87447274,-0.34572515,1.8424244,-0.14269206,-0.10815473,-0.042886827,-0.98290575,-9.777631,7.9267874,1.1947067,-0.09173735,5.096707,-0.6066023,1
1.9200000000000015,12.343218143365224,-0.15220905103206733,5.98027462540329,-0.6149064507954601,11.624535,-0.3025495,2.9443872,-0.23143746,0.7768172,-0.26642546,1.8544306,-0.14457689,-0.08269395,-0.04626133,-0.98494697,-9.754327,7.933396,1.2066896,-0.14991105,5.161447,-0.6013516,0
1.9300000000000015,12.343218143365224,-0.15220905103206733,5.98027462540329,-0.6149064507954601,11.624535,-0.3025495,2.9443872,-0.23143746,0.679376,-0.18704815,1.8666141,-0.14634283,-0.05667917,-0.049533468,-0.98636657,-9.734866,7.942332,1.2301368,-0.15021726,5.289143,-0.60201675,0
1.9400000000000015,12.343218143365224,-0.15220905103206733,5.98027462540329,-0.6149064507954601,11.624535,-0.3025495,2.9443872,-0.23143746,0.5820984,-0.10757285,1.8790357,-0.14797929,-0.030044725,-0.05285519,-0.98712057,-9.721642,7.9530053,1.2542794,-0.15048361,5.396925,-0.6026492,0
1.9500000000000015,12.343218143365224,-0.15220905103206733,5.98027462540329,-0.6149064507954601,11.624535,-0.3025495,2.9443872,-0.23143746,0.48492125,-0.027981922,1.8917009,-0.14948356,-0.0028985697,-0.056210123,-0.9871616,-9.7148075,7.965463,1.2787766,-0.15071492,5.4878983,-0.6032507,0
1.9600000000000015,12.201086505535018,-0.05242648168660404,3.009040744174591,-0.5491140017512822,11.679705,0.173511,-0.24935314,-0.39230803,0.3877799,0.051742665,1.9046111,-0.15085329,0.024663052,-0.059583668,-0.9864512,-9.714483,7.9797416,1.3032649,-0.15091577,5.5646844,-0.60382265,0
1.9700000000000015,12.201086505535018,-0.05242648168660404,3.009040744174591,-0.5491140017512822,11.679705,0.173511,-0.24935314,-0.39230803,0.29060933,0.1316183,1.9177576,-0.15215532,0.05137591,-0.06282346,-0.9850196,-9.720618,7.9956617,1.3259629,-0.13572219,5.1661267,-0.6011381,0
1.9800000000000015,12.201086505535018,-0.05242648168660404,3.009040744174591,-0.5491140017512822,11.679705,0.173511,-0.24935314,-0.39230803,0.19334657,0.21166179,1.9311279,-0.1534597,0.07623713,-0.065811366,-0.98300976,-9.732846,8.01329,1.3479601,-0.12287183,4.8297253,-0.5985853,0
1.9900000000000015,12.201086505535018,-0.05242648168660404,3.009040744174591,-0.5491140017512822,11.679705,0.173511,-0.24935314,-0.39230803,0.095932975,0.29188958,1.9447136,-0.15476684,0.09952241,-0.068581924,-0.9805306,-9.750724,8.032512,1.3690029,-0.112003766,4.545786,-0.5961577,0
2.0000000000000013,,,,,11.916777,-0.026569363,-1.281741,-0.3050938,-0.0016859919,0.37231714,1.958504,-0.15607524,0.121466294,-0.071164526,-0.97766215,-9.773864,8.053225,1.3888851,-0.10281229,4.3061275,-0.59384924,1
2.010000000000001,,,,,11.916777,-0.026569363,-1.281741,-0.3050938,-0.099557854,0.4529563,1.9724731,-0.1574811,0.14058995,-0.07333041,-0.9747092,-9.801193,8.074802,1.4047446,-0.091291286,3.434697,-0.57967997,1
2.020000000000001,,,,,11.916777,-0.026569363,-1.281741,-0.3050938,-0.19772321,0.53381693,1.9865946,-0.15907207,0.1557499,-0.07490411,-0.972023,-9.832417,8.097488,1.4193847,-0.08149967,2.6991663,-0.566206,1
2.0300000000000007,,,,,11.916777,-0.026569363,-1.281741,-0.3050938,-0.2962166,0.61490893,2.000857,-0.16082856,0.16757889,-0.075979374,-0.9696803,-9.866677,8.121034,1.432963,-0.07317983,2.0783422,-0.5533931,1
2.0400000000000005,,,,,11.916777,-0.026569363,-1.281741,-0.3050938,-0.39506474,0.6962399,2.0152512,-0.16272871,0.17660794,-0.0766342,-0.9677074,-9.903268,8.145233,1.4456606,-0.06611229,1.5543358,-0.54120904,1
2.0500000000000003,,,,,11.27655,-0.16030517,-4.579514,-0.05561857,-0.4942879,0.7778153,2.0297682,-0.16475044,0.18328227,-0.076933615,-0.96609914,-9.941598,8.169913,1.4576623,-0.060110223,1.1120486,-0.5296228,1
2.06,,,,,11.27655,-0.16030517,-4.579514,-0.05561857,-0.59389025,0.85963255,2.044373,-0.16693497,0.18670766,-0.07666757,-0.96508884,-9.978994,8.193563,1.4632834,-0.07604565,0.22445682,-0.5063633,1
2.07,,,,,11.27655,-0.16030517,-4.579514,-0.05561857,-0.693869,0.94168663,2.0590334,-0.16930744,0.18619402,-0.0756699,-0.96485347,-10.016757,8.217248,1.4687649,-0.0894259,-0.5247167,-0.4842451,1
2.0799999999999996,,,,,11.27655,-0.16030517,-4.579514,-0.05561857,-0.79422396,1.0239767,2.073749,-0.17182265,0.18235478,-0.074048676,-0.9652678,-10.054133,8.240696,1.4744396,-0.10066343,-1.1570578,-0.46321225,1
2.0899999999999994,,,,,10.978111,-0.5067761,-6.057076,0.15176384,-0.8949481,1.106499,2.0885236,-0.17443798,0.17570186,-0.071893804,-0.96619505,-10.090489,8.263671,1.4805809,-0.11010354,-1.6907867,-0.44321153,1
2.099999999999999,,,,,10.978111,-0.5067761,-6.057076,0.15176384,-0.9960238,1.1892447,2.1033492,-0.17710547,0.16613634,-0.06905095,-0.9676082,-10.124343,8.285357,1.4846336,-0.17211398,-2.362791,-0.41401592,1
2.109999999999999,,,,,10.978111,-0.5067761,-6.057076,0.15176384,-1.0974276,1.2722028,2.1182196,-0.1797756,0.15359658,-0.06539866,-0.96943957,-10.15606,8.306079,1.4895673,-0.22440486,-2.9300017,-0.38625294,1
2.1199999999999988,,,,,10.978111,-0.5067761,-6.057076,0.15176384,-1.1991355,1.355362,2.1331441,-0.18240875,0.13852845,-0.061050944,-0.9714993,-10.1850815,8.325552,1.4955325,-0.2685026,-3.4087596,-0.35985228,1
2.1299999999999986,,,,,11.304473,-0.506229,-6.303506,0.45373031,-1.3011183,1.4387088,2.148134,-0.18496944,0.121309474,-0.056104597,-0.9736138,-10.210923,8.343521,1.5025991,-0.30569378,-3.8128583,-0.33474714,1
2.1399999999999983,,,,,11.304473,-0.506229,-6.303506,0.45373031,-1.4033451,1.5222291,2.1632156,-0.18739018,0.10225917,-0.050646972,-0.97563523,-10.233829,8.360241,1.5139217,-0.33693698,-4.1539435,-0.2960563,1
2.149999999999998,,,,,11.304473,-0.506229,-6.303506,0.45373031,-1.5057809,1.6059068,2.178416,-0.18961005,0.081651315,-0.044752628,-0.9774352,-10.252658,8.374966,1.5263021,-0.36328745,-4.4418383,-0.25926408,1
2.159999999999998,,,,,11.304473,-0.506229,-6.303506,0.45373031,-1.6083832,1.689721,2.193745,-0.1916097,0.059723742,-0.038481332,-0.9788969,-10.267088,8.387511,1.5396087,-0.3855137,-4.684838,-0.22427721,1
2.1699999999999977,,,,,11.872927,-0.2369743,-6.189235,0.68823844,-1.7111065,1.773649,2.2092106,-0.1933734,0.036682308,-0.031884894,-0.9799213,-10.27685,8.397713,1.553658,-0.40426335,-4.8899426,-0.1910072,1
2.1799999999999975,,,,,11.872927,-0.2369743,-6.189235,0.68823844,-1.8139046,1.8576688,2.224848,-0.19486342,0.012684282,-0.025114957,-0.9804274,-10.281958,8.40582,1.5738883,-0.37805408,-5.0630693,-0.14786234,1
2.1899999999999973,,,,,11.872927,-0.2369743,-6.189235,0.68823844,-1.9167273,1.9417562,2.2406893,-0.19604336,-0.012131212,-0.018294655,-0.9803502,-10.281711,8.411232,1.5943816,-0.35592782,-5.209195,-0.10683464,1
