time-since-start [s],throttle_mpc,roll_mpc,pitch_mpc,yaw_mpc,throttle_nw,roll_nw,pitch_nw,yaw_nw,position_x [m],position_y [m],position_z [m],rotation_w [quaternion],rotation_x [quaternion],rotation_y [quaternion],rotation_z [quaternion],velocity_x [m/s],velocity_y [m/s],velocity_z [m/s],omega_x [rad/s],omega_y [rad/s],omega_z [rad/s],network_used
0.0,10.675058144810867,5.999995428123547,-5.999999931005521,-5.353648605311885,15.45612,1.394448,-5.226904,-1.6422268,19.554647,-9.299075,1.789057,0.07675055,0.32953456,-0.36982304,-0.86530185,-10.835564,-3.6137974,0.35017052,1.9890265,-0.3840217,-0.13778538,0
0.01,10.675058144810867,5.999995428123547,-5.999999931005521,-5.353648605311885,16.925371,0.95880926,-5.8522124,-1.8424252,19.445698,-9.334651,1.7925489,0.07175882,0.32873866,-0.37793022,-0.8625256,-10.953681,-3.501312,0.34751588,1.8646611,-0.5102349,-0.31714937,0
0.02,10.675058144810867,5.999995428123547,-5.999999931005521,-5.353648605311885,16.925371,0.95880926,-5.8522124,-1.8424252,19.335588,-9.369102,1.7959925,0.0659639,0.32770258,-0.38525966,-0.8601365,-11.067744,-3.3888278,0.3405445,1.7603067,-0.61737514,-0.49207115,0
0.03,10.675058144810867,5.999995428123547,-5.999999931005521,-5.353648605311885,16.925371,0.95880926,-5.8522124,-1.8424252,19.22436,-9.402429,1.7993463,0.059386197,0.32651153,-0.39189145,-0.8580703,-11.177743,-3.276472,0.3296559,1.673461,-0.7090364,-0.6625984,0
0.04,10.675058144810867,5.999995428123547,-5.999999931005521,-5.353648605311885,15.335201,-0.7299433,-6.093349,-1.8292413,19.112043,-9.4346285,1.802576,0.05202227,0.3252041,-0.39792758,-0.85626495,-11.28454,-3.1634476,0.31586522,1.6175331,-0.8037874,-0.82747054,0
0.05,10.675058144810867,5.999995428123547,-5.999999931005521,-5.353648605311885,15.335201,-0.7299433,-6.093349,-1.8292413,18.998678,-9.465694,1.8056554,0.043825082,0.3237494,-0.40352005,-0.8546562,-11.388359,-3.0495172,0.2996383,1.5948216,-0.90828335,-0.9864432,0
0.060000000000000005,10.675058144810867,5.999995428123547,-5.999999931005521,-5.353648605311885,15.335201,-0.7299433,-6.093349,-1.8292413,18.884287,-9.495617,1.8085607,0.034748655,0.32210654,-0.4088054,-0.8531811,-11.489017,-2.9348032,0.28109673,1.6009153,-1.0217825,-1.1398749,0
0.07,10.675058144810867,5.999995428123547,-5.999999931005521,-5.353648605311885,15.335201,-0.7299433,-6.093349,-1.8292413,18.768908,-9.524389,1.8112696,0.024753788,0.32023337,-0.41389832,-0.85177815,-11.586321,-2.8193896,0.2603415,1.6319578,-1.1435226,-1.2880945,0
0.08,11.458316349834334,5.999999265557688,-5.99999995597422,-5.999960160527361,13.901899,0.2567043,-6.0975676,-2.8063633,18.652573,-9.552004,1.8137604,0.013807617,0.31808698,-0.4188941,-0.85038686,-11.680074,-2.703332,0.23745719,1.6845735,-1.2727379,-1.431404,0
0.09,11.458316349834334,5.999999265557688,-5.99999995597422,-5.999960160527361,13.901899,0.2567043,-6.0975676,-2.8063633,18.535278,-9.578403,1.816044,0.0019586592,0.31579995,-0.42369917,-0.8489674,-11.777994,-2.576426,0.21894753,1.6867877,-1.3395662,-1.5956235,0
0.09999999999999999,11.458316349834334,5.999999265557688,-5.99999995597422,-5.999960160527361,13.901899,0.2567043,-6.0975676,-2.8063633,18.417027,-9.60353,1.8181326,-0.010756895,0.3134814,-0.42823762,-0.84748226,-11.871916,-2.4487007,0.19845897,1.7141231,-1.4214885,-1.7540628,0
0.10999999999999999,11.458316349834334,5.999999265557688,-5.99999995597422,-5.999960160527361,13.901899,0.2567043,-6.0975676,-2.8063633,18.297855,-9.627376,1.8200067,-0.024380438,0.31105462,-0.4326041,-0.84587485,-11.961682,-2.320286,0.17604923,1.7633734,-1.5168678,-1.9070693,0
0.11999999999999998,11.458316349834334,5.999999265557688,-5.99999995597422,-5.999960160527361,13.901899,0.2567043,-6.0975676,-2.8063633,18.177807,-9.649934,1.8216472,-0.038945794,0.3084462,-0.43687555,-0.8440876,-12.047119,-2.1912887,0.15177149,1.8317008,-1.6241891,-2.0549617,0
0.12999999999999998,13.85318573260762,5.999999724024556,-5.999999975560895,-5.9998933375322165,16.68327,-0.3725676,-5.979523,-1.5432714,18.056929,-9.671199,1.8230358,-0.054479588,0.30558583,-0.4411129,-0.8420622,-12.128036,-2.0617995,0.12567663,1.9165925,-1.7420549,-2.1980326,0
0.13999999999999999,13.85318573260762,5.999999724024556,-5.999999975560895,-5.9998933375322165,16.68327,-0.3725676,-5.979523,-1.5432714,17.93522,-9.691098,1.8241923,-0.07113562,0.30226442,-0.44548467,-0.8397139,-12.212356,-1.9180205,0.105315425,2.080406,-1.9339739,-2.3423247,0
0.15,13.85318573260762,5.999999724024556,-5.999999975560895,-5.9998933375322165,16.68327,-0.3725676,-5.979523,-1.5432714,17.8127,-9.7095585,1.8251351,-0.08904998,0.29828367,-0.45012623,-0.83694893,-12.290976,-1.7740215,0.08293271,2.2522209,-2.129585,-2.4825382,0
0.16,16.695535491207366,5.999999841093523,-5.999999984455288,-5.211079262249845,15.9431,0.6105467,-5.9360933,-2.070258,17.689423,-9.726578,1.8258442,-0.10821256,0.29359317,-0.45502925,-0.83369166,-12.363546,-1.629825,0.05859076,2.4306676,-2.3281891,-2.6188626,0
0.17,16.695535491207366,5.999999841093523,-5.999999984455288,-5.211079262249845,15.9431,0.6105467,-5.9360933,-2.070258,17.56543,-9.74211,1.8263224,-0.12891467,0.28766608,-0.46052772,-0.82978535,-12.433659,-1.4767716,0.03668472,2.801124,-2.7163172,-2.7294607,0
0.18000000000000002,16.695535491207366,5.999999841093523,-5.999999984455288,-5.211079262249845,15.9431,0.6105467,-5.9360933,-2.070258,17.440775,-9.756114,1.8265699,-0.15139638,0.2800186,-0.46687022,-0.8250462,-12.495938,-1.3242599,0.012462229,3.1579547,-3.0881119,-2.8385808,0
0.19000000000000003,16.695535491207366,5.999999841093523,-5.999999984455288,-5.211079262249845,15.9431,0.6105467,-5.9360933,-2.070258,17.31554,-9.768597,1.826564,-0.17556046,0.2706639,-0.4739084,-0.81934774,-12.549731,-1.1722772,-0.01397766,3.5019484,-3.4447794,-2.9461763,0
0.20000000000000004,19.918558901099843,5.999999864596913,-5.99999998491516,-3.977407941051625,16.402498,2.0270522,-5.9848166,-2.41189,17.189814,-9.779562,1.826283,-0.20130275,0.2596119,-0.48149022,-0.81255543,-12.594439,-1.0209516,-0.042534243,3.8338406,-3.7874072,-3.0522082,0
0.21000000000000005,19.918558901099843,5.999999864596913,-5.99999998491516,-3.977407941051625,16.402498,2.0270522,-5.9848166,-2.41189,17.063654,-9.788884,1.8257663,-0.22843501,0.24674001,-0.48953342,-0.80454594,-12.635865,-0.8432342,-0.060849518,4.170843,-4.1332526,-3.097608,0
0.22000000000000006,19.918558901099843,5.999999864596913,-5.99999998491516,-3.977407941051625,16.402498,2.0270522,-5.9848166,-2.41189,16.937136,-9.796417,1.8250641,-0.2566544,0.23207235,-0.49786827,-0.79523486,-12.666004,-0.6630411,-0.07966678,4.455387,-4.42507,-3.1407802,0
0.23000000000000007,19.918558901099843,5.999999864596913,-5.99999998491516,-3.977407941051625,16.402498,2.0270522,-5.9848166,-2.41189,16.810377,-9.802139,1.8241714,-0.28569663,0.21582174,-0.5062389,-0.78455144,-12.683889,-0.48102298,-0.09895256,4.6956415,-4.671296,-3.1818337,0
0.24000000000000007,19.918558901099843,5.999999864596913,-5.99999998491516,-3.977407941051625,17.039871,1.9316287,-6.043964,-0.2928682,16.683504,-9.806034,1.8230836,-0.3153219,0.19817828,-0.5144282,-0.7724387,-12.688722,-0.29800764,-0.11867602,4.898502,-4.879051,-3.2208729,0
0.25000000000000006,19.918558901099843,5.999999864596913,-5.99999998491516,-3.977407941051625,17.039871,1.9316287,-6.043964,-0.2928682,16.55665,-9.808098,1.8217965,-0.34531212,0.17931333,-0.5222527,-0.7588537,-12.67987,-0.11497056,-0.1388096,5.0697904,-5.054344,-3.257996,0
0.26000000000000006,19.918558901099843,5.999999864596913,-5.99999998491516,-3.977407941051625,17.039871,1.9316287,-6.043964,-0.2928682,16.429955,-9.808337,1.8203062,-0.37546805,0.15938273,-0.52955794,-0.7437673,-12.656875,0.06699408,-0.15932895,5.214423,-5.2022457,-3.2932978,0
0.2700000000000001,19.918558901099843,5.999999864596913,-5.99999998491516,-3.977407941051625,17.039871,1.9316287,-6.043964,-0.2928682,16.303562,-9.8067665,1.8186088,-0.40560728,0.138529,-0.5362147,-0.7271635,-12.619449,0.24670133,-0.18021232,5.3365498,-5.3270335,-3.3268673,0
0.2800000000000001,20.99999965927624,5.9999996171447565,-5.9999999409669,-1.423639068755311,17.623037,1.6101894,-5.8200116,-0.13874908,16.177616,-9.803415,1.8167007,-0.43556258,0.11688333,-0.54211515,-0.7090382,-12.567478,0.42290196,-0.20143983,5.439674,-5.4323187,-3.3587897,0
0.2900000000000001,20.99999965927624,5.9999996171447565,-5.9999999409669,-1.423639068755311,17.623037,1.6101894,-5.8200116,-0.13874908,16.05228,-9.798278,1.8145995,-0.46495935,0.09439595,-0.54720783,-0.6895406,-12.497409,0.6036139,-0.21883722,5.5272045,-5.5206976,-3.2638314,0
0.3000000000000001,20.99999965927624,5.9999996171447565,-5.9999999409669,-1.423639068755311,17.623037,1.6101894,-5.8200116,-0.13874908,15.927719,-9.791365,1.8123227,-0.49346438,0.07101903,-0.55145323,-0.66884154,-12.412296,0.77789927,-0.23656783,5.6011076,-5.5952716,-3.1735327,0
0.3100000000000001,20.99999965927624,5.9999996171447565,-5.9999999409669,-1.423639068755311,17.623037,1.6101894,-5.8200116,-0.13874908,15.804084,-9.782747,1.809867,-0.520991,0.04687336,-0.55478597,-0.6469809,-12.31254,0.94439965,-0.25463873,5.663501,-5.6582007,-3.0876648,0
0.3200000000000001,20.999999874771223,4.929373184479384,-5.9999998010000954,0.585382930769381,17.168385,1.4634589,-5.327721,0.3288616,15.681517,-9.77251,1.8072288,-0.5474622,0.022072654,-0.557153,-0.6240024,-12.198701,1.1017902,-0.27307418,5.7161746,-5.711305,-3.0060108,0
0.3300000000000001,20.999999874771223,4.929373184479384,-5.9999998010000954,0.585382930769381,17.168385,1.4634589,-5.327721,0.3288616,15.560156,-9.760748,1.8044041,-0.57265556,-0.00317551,-0.5582585,-0.6003362,-12.071511,1.2488078,-0.2918877,5.5940475,-5.7554445,-2.82978,0
0.34000000000000014,20.999999874771223,4.929373184479384,-5.9999998010000954,0.585382930769381,17.168385,1.4634589,-5.327721,0.3288616,15.440129,-9.747573,1.80139,-0.5964108,-0.028698605,-0.5578966,-0.5763874,-11.931992,1.384332,-0.31095967,5.490956,-5.792792,-2.6621969,0
0.35000000000000014,20.999999874771223,4.929373184479384,-5.9999998010000954,0.585382930769381,17.168385,1.4634589,-5.327721,0.3288616,15.321554,-9.733104,1.7981844,-0.61874866,-0.05444361,-0.5561479,-0.552165,-11.7812805,1.5073767,-0.33016545,5.403927,-5.824393,-2.5028372,0
0.36000000000000015,20.999999832079247,2.361344252331843,-5.999993200164199,3.3382386236495423,17.723688,-0.21230243,-2.1989102,0.5641563,15.204538,-9.717471,1.7947863,-0.63968635,-0.080359384,-0.55308086,-0.5276797,-11.620562,1.6170717,-0.34943253,5.3304543,-5.8511314,-2.3512971,0
0.37000000000000016,20.999999832079247,2.361344252331843,-5.999993200164199,3.3382386236495423,17.723688,-0.21230243,-2.1989102,0.5641563,15.089348,-9.70071,1.791277,-0.6589322,-0.105922125,-0.5487338,-0.5034685,-11.4168215,1.7321025,-0.3527787,5.042572,-5.69909,-2.111663,0
0.38000000000000017,20.999999832079247,2.361344252331843,-5.999993200164199,3.3382386236495423,17.723688,-0.21230243,-2.1989102,0.5641563,14.976213,-9.682898,1.7877227,-0.6763115,-0.13074462,-0.5431939,-0.4800515,-11.209567,1.8275169,-0.35842738,4.7984724,-5.571934,-1.8779639,0
0.3900000000000002,20.999999832079247,2.361344252331843,-5.999993200164199,3.3382386236495423,17.723688,-0.21230243,-2.1989102,0.5641563,14.865162,-9.664225,1.7841009,-0.69199157,-0.15496565,-0.53657335,-0.4574088,-11.000711,1.9041672,-0.36626878,4.5917873,-5.4653115,-1.6500527,0
0.4000000000000002,20.999999421856437,-0.4311764177785764,-2.022212810497566,3.7384987157023457,17.334337,-0.8599007,-0.04743143,0.8196864,14.7562,-9.644876,1.78039,-0.7061113,-0.17870058,-0.5289606,-0.4355158,-10.791901,1.9629475,-0.3762418,4.417171,-5.375522,-1.4277861,0
0.4100000000000002,20.999999421856437,-0.4311764177785764,-2.022212810497566,3.7384987157023457,17.334337,-0.8599007,-0.04743143,0.8196864,14.649366,-9.625013,1.7765886,-0.71834224,-0.20052353,-0.5208293,-0.4153455,-10.5751095,2.0068827,-0.3843747,3.744279,-4.7694592,-1.2011112,0
0.4200000000000002,20.999999421856437,-0.4311764177785764,-2.022212810497566,3.7384987157023457,17.334337,-0.8599007,-0.04743143,0.8196864,14.544686,-9.604791,1.7726953,-0.72857535,-0.21935919,-0.512698,-0.39774445,-10.361357,2.0355291,-0.3945736,3.1803823,-4.25388,-0.9800504,0
0.4300000000000002,20.999999421856437,-0.4311764177785764,-2.022212810497566,3.7384987157023457,17.334337,-0.8599007,-0.04743143,0.8196864,14.442125,-9.584348,1.7686905,-0.73718333,-0.23576371,-0.5046546,-0.38249215,-10.151721,2.05124,-0.40668622,2.7079084,-3.81524,-0.7644644,0
0.4400000000000002,20.999999421856437,-0.4311764177785764,-2.022212810497566,3.7384987157023457,16.67546,-2.8723211,3.5822442,1.0513773,14.341637,-9.563804,1.7645555,-0.74445367,-0.25020126,-0.496738,-0.3693774,-9.9469,2.056029,-0.4205776,2.3121455,-3.4419866,-0.5542177,0
0.45000000000000023,20.999999421856437,-0.4311764177785764,-2.022212810497566,3.7384987157023457,16.67546,-2.8723211,3.5822442,1.0513773,14.243175,-9.543259,1.7602752,-0.75063306,-0.26304433,-0.48892117,-0.3582095,-9.74588,2.0515625,-0.43553615,1.9636184,-3.14142,-0.35063654,0
0.46000000000000024,20.999999421856437,-0.4311764177785764,-2.022212810497566,3.7384987157023457,16.67546,-2.8723211,3.5822442,1.0513773,14.146708,-9.5227995,1.7558429,-0.75599253,-0.27455667,-0.4810531,-0.34882966,-9.547946,2.0391068,-0.45101345,1.6408217,-2.916349,-0.15449695,0
0.47000000000000025,20.999999421856437,-0.4311764177785764,-2.022212810497566,3.7384987157023457,16.67546,-2.8723211,3.5822442,1.0513773,14.052203,-9.502501,1.7512535,-0.7607689,-0.28493994,-0.47296494,-0.3410929,-9.353502,2.0197086,-0.4669069,1.3385446,-2.7562184,0.03467652,0
0.48000000000000026,20.859341653230782,-3.8165450743831197,2.0814382762304717,4.232614964193171,18.275957,-3.1523998,5.0427785,1.2821037,13.959627,-9.482427,1.7465048,-0.7651444,-0.29435918,-0.46451625,-0.3348607,-9.161977,1.9941304,-0.48267257,1.0632945,-2.6412034,0.21638429,0
0.49000000000000027,20.859341653230782,-3.8165450743831197,2.0814382762304717,4.232614964193171,18.275957,-3.1523998,5.0427785,1.2821037,13.8689575,-9.462637,1.7416028,-0.7688142,-0.3014397,-0.45651248,-0.33114263,-8.972532,1.9630996,-0.49764013,0.3081898,-1.8990121,0.41290355,0
0.5000000000000002,20.859341653230782,-3.8165450743831197,2.0814382762304717,4.232614964193171,18.275957,-3.1523998,5.0427785,1.2821037,13.780171,-9.443177,1.7365564,-0.7715912,-0.30511642,-0.44961962,-0.33074695,-8.784939,1.9283811,-0.5113973,-0.33506683,-1.278472,0.6003379,0
0.5100000000000002,20.859341653230782,-3.8165450743831197,2.0814382762304717,4.232614964193171,18.275957,-3.1523998,5.0427785,1.2821037,13.693255,-9.424077,1.7313812,-0.7736404,-0.30595967,-0.44364545,-0.3332391,-8.598532,1.8917501,-0.5233506,-0.878115,-0.7548062,0.7785748,0
0.5200000000000002,18.338191399597395,-5.9999986567781285,5.9999947800470235,5.279796430098381,16.485407,-4.6759744,5.6136417,1.8520836,13.608197,-9.405345,1.7260969,-0.77505535,-0.30443785,-0.4384134,-0.338232,-8.413194,1.8547647,-0.53317666,-1.3365484,-0.31287223,0.9480656,0
0.5300000000000002,18.338191399597395,-5.9999986567781285,5.9999947800470235,5.279796430098381,16.485407,-4.6759744,5.6136417,1.8520836,13.52497,-9.386975,1.7207175,-0.77568513,-0.29960796,-0.4342716,-0.34634703,-8.232994,1.8196955,-0.54261345,-2.1979148,0.53729594,1.141558,0
0.5400000000000003,18.338191399597395,-5.9999986567781285,5.9999947800470235,5.279796430098381,16.485407,-4.6759744,5.6136417,1.8520836,13.44352,-9.368938,1.7152466,-0.7753567,-0.29070902,-0.4314133,-0.35804087,-8.058056,1.7885745,-0.55145365,-2.9319313,1.2478925,1.3302332,0
0.5500000000000003,18.338191399597395,-5.9999986567781285,5.9999947800470235,5.279796430098381,16.485407,-4.6759744,5.6136417,1.8520836,13.363799,-9.351185,1.7096949,-0.7740219,-0.27834347,-0.42950174,-0.37275147,-7.886662,1.7629553,-0.55849576,-3.5399847,1.8591942,1.5125043,0
0.5600000000000003,15.198329054180027,-5.999999745264227,5.999999639097195,4.523179197162498,15.307327,-5.590277,5.504856,2.9705327,13.285778,-9.333654,1.7040851,-0.77153164,-0.26304495,-0.42834428,-0.38995883,-7.7181373,1.744228,-0.5630592,-4.031273,2.397159,1.687797,0
0.5700000000000003,15.198329054180027,-5.999999745264227,5.999999639097195,4.523179197162498,15.307327,-5.590277,5.504856,2.9705327,13.209281,-9.316261,1.698359,-0.7677205,-0.2452488,-0.42787844,-0.4091194,-7.581689,1.7354832,-0.58184373,-4.402392,2.8949318,1.8212551,0
0.5800000000000003,15.198329054180027,-5.999999745264227,5.999999639097195,4.523179197162498,15.307327,-5.590277,5.504856,2.9705327,13.134132,-9.298919,1.6924549,-0.7624506,-0.22531512,-0.4280411,-0.42974806,-7.448388,1.7342577,-0.5986667,-4.6954694,3.3352947,1.949967,0
0.5900000000000003,15.198329054180027,-5.999999745264227,5.999999639097195,4.523179197162498,15.307327,-5.590277,5.504856,2.9705327,13.060299,-9.2815485,1.6863917,-0.7556086,-0.20356417,-0.42869458,-0.45148477,-7.3186874,1.741141,-0.61370695,-4.922445,3.7274327,2.074186,0
0.6000000000000003,15.99708441533759,-5.999999776746776,5.99999968046799,4.337837362217008,15.334019,-5.8089457,6.1742716,2.452475,12.987743,-9.264067,1.680186,-0.7470983,-0.18027268,-0.42972466,-0.47400728,-7.1930003,1.756552,-0.62714356,-5.0948915,4.077596,2.1940243,0
0.6100000000000003,15.99708441533759,-5.999999776746776,5.99999968046799,4.337837362217008,15.334019,-5.8089457,6.1742716,2.452475,12.916461,-9.246381,1.6738791,-0.73687947,-0.15565914,-0.43099123,-0.49701694,-7.064272,1.7822661,-0.6338675,-5.236769,4.3768334,2.299222,0
0.6200000000000003,15.99708441533759,-5.999999776746776,5.99999968046799,4.337837362217008,15.334019,-5.8089457,6.1742716,2.452475,12.846445,-9.228388,1.6675162,-0.72496015,-0.12990138,-0.4323101,-0.5202565,-6.9395223,1.8178375,-0.6384082,-5.356474,4.6294374,2.3992574,0
0.6300000000000003,15.99708441533759,-5.999999776746776,5.99999968046799,4.337837362217008,15.334019,-5.8089457,6.1742716,2.452475,12.777654,-9.20999,1.6611176,-0.7113451,-0.10317067,-0.43351865,-0.54351276,-6.8195457,1.863444,-0.64108217,-5.4574637,4.84268,2.4943838,0
0.6400000000000003,15.99708441533759,-5.999999776746776,5.99999968046799,4.337837362217008,16.90729,-6.3918977,6.6891665,3.7698274,12.710034,-9.191085,1.6546998,-0.6960446,-0.07562527,-0.4344812,-0.5665945,-6.7051764,1.9191151,-0.6422275,-5.5426607,5.022699,2.5848427,1
0.6500000000000004,15.99708441533759,-5.999999776746776,5.99999968046799,4.337837362217008,16.90729,-6.3918977,6.6891665,3.7698274,12.6435585,-9.1715555,1.6483047,-0.6791163,-0.04738164,-0.4350906,-0.5892815,-6.591128,1.9884707,-0.63661736,-5.614435,5.1747756,2.6429904,1
0.6600000000000004,15.99708441533759,-5.999999776746776,5.99999968046799,4.337837362217008,16.90729,-6.3918977,6.6891665,3.7698274,12.578186,-9.151281,1.6419702,-0.66062504,-0.018548405,-0.43525785,-0.6113769,-6.484812,2.0680785,-0.6301614,-5.6749763,5.303161,2.6982846,1
0.6700000000000004,15.99708441533759,-5.999999776746776,5.99999968046799,4.337837362217008,16.90729,-6.3918977,6.6891665,3.7698274,12.513834,-9.130161,1.6357027,-0.6406015,0.010743203,-0.4349051,-0.63274986,-6.3871136,2.1575384,-0.623266,-5.7260394,5.411547,2.7508655,1
0.6800000000000004,18.78042680551827,-5.999999722186259,5.999999548525816,4.017649668068439,17.716732,-6.594613,5.686271,4.3665314,12.450412,-9.1081,1.6295047,-0.61908215,0.040370017,-0.43396947,-0.653283,-6.2988844,2.2563217,-0.616346,-5.7691064,5.5030513,2.8008664,0
0.6900000000000004,18.78042680551827,-5.999999722186259,5.999999548525816,4.017649668068439,17.716732,-6.594613,5.686271,4.3665314,12.387865,-9.084948,1.6234322,-0.5960881,0.07020286,-0.43240204,-0.67288893,-6.212291,2.3756866,-0.5982292,-5.805472,5.5802584,2.8605745,0
0.7000000000000004,18.78042680551827,-5.999999722186259,5.999999548525816,4.017649668068439,17.716732,-6.594613,5.686271,4.3665314,12.326124,-9.060556,1.6175367,-0.57164544,0.100120015,-0.43016538,-0.6914881,-6.1379304,2.5038486,-0.5810146,-5.8361382,5.6454444,2.9173524,0
0.7100000000000004,18.78042680551827,-5.999999722186259,5.999999548525816,4.017649668068439,17.716732,-6.594613,5.686271,4.3665314,12.265062,-9.034844,1.6118071,-0.5458051,0.13001952,-0.42723027,-0.70898986,-6.0765457,2.6398566,-0.565159,-5.8619976,5.700482,2.9713442,0
0.7200000000000004,20.865622971104415,-5.999999412068725,5.999998719848936,2.3220343841192794,17.828594,-6.371533,4.5713153,3.7866957,12.204547,-9.007737,1.6062275,-0.51862234,0.15980476,-0.4235753,-0.72531223,-6.0287867,2.7826607,-0.5511073,-5.8838015,5.7469525,3.022687,0
0.7300000000000004,20.865622971104415,-5.999999412068725,5.999998719848936,2.3220343841192794,17.828594,-6.371533,4.5713153,3.7866957,12.144458,-8.979091,1.6008388,-0.4903105,0.18947321,-0.41915214,-0.7402754,-5.991474,2.947609,-0.52708346,-5.9018707,5.786512,2.9883058,0
0.7400000000000004,20.865622971104415,-5.999999412068725,5.999998719848936,2.3220343841192794,17.828594,-6.371533,4.5713153,3.7866957,12.0846615,-8.948769,1.5956758,-0.4610842,0.21902145,-0.4139159,-0.7537276,-5.970396,3.117505,-0.50599784,-5.9171147,5.819902,2.9556117,0
0.7500000000000004,20.865622971104415,-5.999999412068725,5.999998719848936,2.3220343841192794,17.828594,-6.371533,4.5713153,3.7866957,12.024992,-8.916728,1.5907072,-0.4310047,0.24835877,-0.40785995,-0.76563954,-5.965907,3.2909486,-0.4882912,-5.9299765,5.8480835,2.924522,0
0.7600000000000005,20.999997357475195,-5.090992219113426,4.38143384408029,0.7449542685968495,19.75219,-5.079406,3.5529008,1.8817402,11.965284,-8.882942,1.5858968,-0.40013435,0.2773989,-0.4009828,-0.775987,-5.9782257,3.4664946,-0.4743837,-5.940829,5.8718686,2.8949575,0
0.7700000000000005,20.999997357475195,-5.090992219113426,4.38143384408029,0.7449542685968495,19.75219,-5.079406,3.5529008,1.8817402,11.905368,-8.84739,1.5812085,-0.3690592,0.30549785,-0.39327303,-0.7847314,-6.007559,3.6437938,-0.4639433,-5.8074718,5.6400867,2.7894561,0
0.7800000000000005,20.999997357475195,-5.090992219113426,4.38143384408029,0.7449542685968495,19.75219,-5.079406,3.5529008,1.8817402,11.845076,-8.810069,1.5766029,-0.33831623,0.33217612,-0.3847711,-0.7919299,-6.053369,3.8202016,-0.45783374,-5.695024,5.444377,2.6891317,0
0.7900000000000005,20.999997357475195,-5.090992219113426,4.38143384408029,0.7449542685968495,19.75219,-5.079406,3.5529008,1.8817402,11.7842455,-8.770994,1.5720366,-0.3078913,0.357579,-0.37554345,-0.79768914,-6.115018,3.9943092,-0.45610902,-5.600207,5.279126,2.5937302,0
0.8000000000000005,20.99996767160305,-2.6377678513254352,0.9299003020018184,-0.18674156770615727,19.568714,-4.091866,2.7691848,1.1391788,11.722723,-8.730195,1.5674654,-0.2777701,0.38182616,-0.36564273,-0.80209637,-6.1918344,4.1648326,-0.45881072,-5.520255,5.1395936,2.5030103,0
0.8100000000000005,20.99996767160305,-2.6377678513254352,0.9299003020018184,-0.18674156770615727,19.568714,-4.091866,2.7691848,1.1391788,11.660342,-8.687681,1.562863,-0.24874444,0.40392494,-0.35538995,-0.80540013,-6.286177,4.3364353,-0.46271583,-5.145255,4.559971,2.3778486,0
0.8200000000000005,20.99996767160305,-2.6377678513254352,0.9299003020018184,-0.18674156770615727,19.568714,-4.091866,2.7691848,1.1391788,11.596963,-8.643499,1.5581895,-0.2216393,0.42298654,-0.3452165,-0.80795085,-6.391307,4.4983215,-0.4728971,-4.7746725,4.0164547,2.2539809,0
0.8300000000000005,20.99996767160305,-2.6377678513254352,0.9299003020018184,-0.18674156770615727,19.568714,-4.091866,2.7691848,1.1391788,11.532481,-8.59774,1.5533906,-0.19642562,0.4393138,-0.33526993,-0.80994755,-6.5067115,4.652526,-0.48738912,-4.44044,3.5359464,2.134214,0
0.8400000000000005,20.99996767160305,-2.6377678513254352,0.9299003020018184,-0.18674156770615727,19.888117,-2.4343114,2.2887578,0.38902742,11.466795,-8.55047,1.548432,-0.17291893,0.45333862,-0.32556596,-0.8115359,-6.631998,4.800428,-0.50475734,-4.158516,3.1302364,2.0203238,0
0.8500000000000005,20.99996767160305,-2.6377678513254352,0.9299003020018184,-0.18674156770615727,19.888117,-2.4343114,2.2887578,0.38902742,11.399811,-8.501754,1.5432873,-0.15092237,0.46545047,-0.31608343,-0.8128162,-6.765946,4.9418917,-0.5245183,-3.920707,2.7876852,1.9120224,0
0.8600000000000005,20.99996767160305,-2.6377678513254352,0.9299003020018184,-0.18674156770615727,19.888117,-2.4343114,2.2887578,0.38902742,11.3314495,-8.451655,1.5379348,-0.13026026,0.47597012,-0.3067925,-0.81385726,-6.907518,5.0768623,-0.54624724,-3.7201042,2.4984646,1.8090355,0
0.8700000000000006,20.99996767160305,-2.6377678513254352,0.9299003020018184,-0.18674156770615727,19.888117,-2.4343114,2.2887578,0.38902742,11.261638,-8.400239,1.5323569,-0.11077758,0.48516184,-0.29765943,-0.8147059,-7.0558314,5.2053366,-0.5695748,-3.5508816,2.2542744,1.7111024,0
0.8800000000000006,19.902079925027447,-0.5865845659536882,-2.4622357882487877,-0.6481150606082656,20.925392,-0.83366746,0.22544149,-0.13998209,11.190312,-8.347571,1.526539,-0.092338465,0.49324337,-0.2886497,-0.81539345,-7.210129,5.327341,-0.59418213,-3.4081273,2.0481052,1.6179746,0
0.8900000000000006,19.902079925027447,-0.5865845659536882,-2.4622357882487877,-0.6481150606082656,20.925392,-0.83366746,0.22544149,-0.13998209,11.117435,-8.29373,1.5204613,-0.075529255,0.49938184,-0.2801479,-0.81635207,-7.3653097,5.439838,-0.6217058,-3.0211833,1.3991973,1.5116373,0
0.9000000000000006,19.902079925027447,-0.5865845659536882,-2.4622357882487877,-0.6481150606082656,20.925392,-0.83366746,0.22544149,-0.13998209,11.043005,-8.238805,1.5140982,-0.06095676,0.50280935,-0.2726123,-0.81801593,-7.5209603,5.5442653,-0.65101594,-2.647249,0.8039446,1.4062505,0
0.9100000000000006,19.902079925027447,-0.5865845659536882,-2.4622357882487877,-0.6481150606082656,20.925392,-0.83366746,0.22544149,-0.13998209,10.967008,-8.182862,1.5074424,-0.048424553,0.50388527,-0.26600996,-0.82036203,-7.678995,5.6435313,-0.67998886,-2.3254025,0.2950343,1.3054422,0
0.9200000000000006,18.484611019746787,0.6652433377414995,-5.970235686465144,-0.7725462626776073,20.675737,0.26557848,-3.404574,-0.36179623,10.889419,-8.125948,1.5005025,-0.03765558,0.5030074,-0.2602113,-0.8233202,-7.8390355,5.73865,-0.7077509,-2.0538764,-0.13460027,1.2095807,0
0.9300000000000006,18.484611019746787,0.6652433377414995,-5.970235686465144,-0.7725462626776073,20.675737,0.26557848,-3.404574,-0.36179623,10.810238,-8.0681095,1.4932867,-0.028805858,0.4995645,-0.2552442,-0.8273188,-7.9965134,5.8281136,-0.7353824,-1.7274725,-0.9460771,1.1211452,0
0.9400000000000006,18.484611019746787,0.6652433377414995,-5.970235686465144,-0.7725462626776073,20.675737,0.26557848,-3.404574,-0.36179623,10.729503,-8.009403,1.4857974,-0.022131559,0.4929139,-0.25127086,-0.8327121,-8.149873,5.9125376,-0.7623097,-1.3962172,-1.6869342,1.0320507,0
0.9500000000000006,18.484611019746787,0.6652433377414995,-5.970235686465144,-0.7725462626776073,20.675737,0.26557848,-3.404574,-0.36179623,10.647255,-7.9498715,1.4780473,-0.017522514,0.48332632,-0.24833162,-0.8392976,-8.2993145,5.9935117,-0.7871968,-1.0766084,-2.3524458,0.94370353,0
0.9600000000000006,17.821235788815294,1.1338466989906326,-5.999998853905302,-1.009098540786928,20.296463,0.42055312,-4.6539397,-0.4593389,10.563521,-7.889536,1.4700682,-0.014751247,0.47114992,-0.2463239,-0.8468324,-8.446913,6.0734587,-0.80790716,-0.8047792,-2.916426,0.8594867,0
0.9700000000000006,17.821235788815294,1.1338466989906326,-5.999998853905302,-1.009098540786928,20.296463,0.42055312,-4.6539397,-0.4593389,10.478352,-7.8284173,1.4618913,-0.0136679085,0.45673764,-0.24522689,-0.8550253,-8.586793,6.150287,-0.8267104,-0.5023839,-3.397107,0.7677947,0
0.9800000000000006,17.821235788815294,1.1338466989906326,-5.999998853905302,-1.009098540786928,20.296463,0.42055312,-4.6539397,-0.4593389,10.391797,-7.7665286,1.4535517,-0.014140622,0.44038442,-0.24500804,-0.8636164,-8.723468,6.2274623,-0.84042984,-0.24722658,-3.8028839,0.6806021,0
0.9900000000000007,17.821235788815294,1.1338466989906326,-5.999998853905302,-1.009098540786928,20.296463,0.42055312,-4.6539397,-0.4593389,10.303895,-7.7038646,1.4451014,-0.015949799,0.42234242,-0.24549682,-0.872413,-8.856197,6.3054833,-0.8488004,-0.031920128,-4.145425,0.59768796,0
1.0000000000000007,17.386998572909594,0.6120013869053771,-5.999998731687415,-1.095609274694201,19.92564,0.6027732,-4.840749,-0.511132,10.214689,-7.6404147,1.4365946,-0.018910129,0.40282476,-0.24654573,-0.88124365,-8.984281,6.384732,-0.851666,0.14976595,-4.4345813,0.51884246,0
1.0100000000000007,17.386998572909594,0.6120013869053771,-5.999998731687415,-1.095609274694201,19.92564,0.6027732,-4.840749,-0.511132,10.124243,-7.5761747,1.428075,-0.022791399,0.3820206,-0.24783902,-0.8900097,-9.104065,6.4635034,-0.8514163,0.22169277,-4.6786942,0.43962085,0
1.0200000000000007,17.386998572909594,0.6120013869053771,-5.999998731687415,-1.095609274694201,19.92564,0.6027732,-4.840749,-0.511132,10.032627,-7.5111394,1.4195851,-0.027408583,0.3600946,-0.24911648,-0.8986224,-9.218082,6.543816,-0.84571147,0.28238082,-4.884747,0.36428666,0
1.0300000000000007,17.386998572909594,0.6120013869053771,-5.999998731687415,-1.095609274694201,19.92564,0.6027732,-4.840749,-0.511132,9.939903,-7.445293,1.4111794,-0.03267604,0.3371847,-0.25033668,-0.906957,-9.325778,6.6256638,-0.83459896,0.33359027,-5.0586734,0.29264912,0
1.0400000000000007,17.386998572909594,0.6120013869053771,-5.999998731687415,-1.095609274694201,19.966919,0.46271843,-4.8092227,-0.720328,9.846136,-7.3786206,1.4029113,-0.038518976,0.31341216,-0.2514653,-0.9149071,-9.426633,6.708988,-0.81819904,0.37680548,-5.205481,0.22452687,0
1.0500000000000007,17.386998572909594,0.6120013869053771,-5.999998731687415,-1.095609274694201,19.966919,0.46271843,-4.8092227,-0.720328,9.751396,-7.311108,1.3948331,-0.044871677,0.2888844,-0.25247413,-0.9223827,-9.520152,6.793684,-0.7966963,0.41327763,-5.3293977,0.15974739,0
1.0600000000000007,17.386998572909594,0.6120013869053771,-5.999998731687415,-1.095609274694201,19.966919,0.46271843,-4.8092227,-0.720328,9.65576,-7.242743,1.3869944,-0.05167605,0.26369697,-0.25334045,-0.92930776,-9.605883,6.8796067,-0.77033174,0.4440614,-5.433992,0.09814667,0
1.0700000000000007,17.386998572909594,0.6120013869053771,-5.999998731687415,-1.095609274694201,19.966919,0.46271843,-4.8092227,-0.720328,9.559306,-7.173513,1.3794422,-0.058880392,0.23793557,-0.25404608,-0.93561804,-9.683406,6.966575,-0.73939574,0.47004643,-5.5222764,0.039568737,0
1.0800000000000007,17.130547436808417,-0.42479204908179613,-5.999881376848826,-1.0146374640040128,19.432129,-0.051186826,-2.8717117,-1.0438105,9.46212,-7.103409,1.3722209,-0.066438384,0.21167734,-0.25457668,-0.9412599,-9.75234,7.054379,-0.7042217,0.49198297,-5.596794,-0.01613478,0
1.0900000000000007,17.130547436808417,-0.42479204908179613,-5.999881376848826,-1.0146374640040128,19.432129,-0.051186826,-2.8717117,-1.0438105,9.364293,-7.03243,1.3653609,-0.0742146,0.18501836,-0.25453213,-0.9462953,-9.811467,7.14145,-0.66718906,0.34883082,-5.659665,-0.0651316,0
1.1000000000000008,17.130547436808417,-0.42479204908179613,-5.999881376848826,-1.0146374640040128,19.432129,-0.051186826,-2.8717117,-1.0438105,9.265921,-6.9605794,1.3588891,-0.08210848,0.15804668,-0.25359446,-0.95077354,-9.861558,7.228648,-0.6266334,0.22800909,-5.7127237,-0.111724116,0
1.1100000000000008,17.130547436808417,-0.42479204908179613,-5.999881376848826,-1.0146374640040128,19.432129,-0.051186826,-2.8717117,-1.0438105,9.167094,-6.887858,1.3528392,-0.09012486,0.13081701,-0.25186533,-0.95463574,-9.902417,7.3154984,-0.58286846,0.12603538,-5.7575026,-0.15603034,0
1.1200000000000008,16.292116174329934,-1.5705137682630226,-3.1111262759504625,-0.960290176741183,18.93684,-1.1729674,-0.31003216,-0.87958294,9.067905,-6.814272,1.3472415,-0.09826284,0.10337887,-0.2494328,-0.95783174,-9.93388,7.401543,-0.53624725,0.039971188,-5.7952933,-0.19816245,0
1.1300000000000008,16.292116174329934,-1.5705137682630226,-3.1111262759504625,-0.960290176741183,18.93684,-1.1729674,-0.31003216,-0.87958294,8.968455,-6.739852,1.3420869,-0.10618234,0.076932326,-0.24605656,-0.9603458,-9.954834,7.4821787,-0.49436352,-0.2112608,-5.3766613,-0.23556028,0
1.1400000000000008,16.292116174329934,-1.5705137682630226,-3.1111262759504625,-0.960290176741183,18.93684,-1.1729674,-0.31003216,-0.87958294,8.868837,-6.664634,1.3373611,-0.11363607,0.052445587,-0.24158154,-0.9622764,-9.967322,7.561132,-0.4505198,-0.4232984,-5.02331,-0.271123,0
1.1500000000000008,16.292116174329934,-1.5705137682630226,-3.1111262759504625,-0.960290176741183,18.93684,-1.1729674,-0.31003216,-0.87958294,8.769135,-6.5886374,1.3330822,-0.120739475,0.029641336,-0.23618889,-0.96372163,-9.971972,7.6379666,-0.40504706,-0.6022578,-4.7250614,-0.3049406,0
1.1600000000000008,15.351213076132524,-2.656423920821978,0.5952106344813245,-0.6839960312402897,18.722792,-1.7056848,3.0100737,-0.532874,8.669423,-6.5118837,1.329265,-0.12758379,0.008280054,-0.23002854,-0.96474963,-9.969335,7.71232,-0.35822135,-0.7533011,-4.4733233,-0.3370988,0
1.1700000000000008,15.351213076132524,-2.656423920821978,0.5952106344813245,-0.6839960312402897,18.722792,-1.7056848,3.0100737,-0.532874,8.569769,-6.434421,1.3258796,-0.13387139,-0.010364235,-0.2230028,-0.9655268,-9.960544,7.7797537,-0.31870613,-1.0499598,-3.6828117,-0.35412115,0
1.1800000000000008,15.351213076132524,-2.656423920821978,0.5952106344813245,-0.6839960312402897,18.722792,-1.7056848,3.0100737,-0.532874,8.47023,-6.3562984,1.322894,-0.13939092,-0.025293477,-0.21506278,-0.96627104,-9.946543,7.844336,-0.2782541,-1.3003653,-3.0155852,-0.37030822,0
1.1900000000000008,15.351213076132524,-2.656423920821978,0.5952106344813245,-0.6839960312402897,18.722792,-1.7056848,3.0100737,-0.532874,8.3708515,-6.277545,1.3203176,-0.14431612,-0.03707315,-0.2063795,-0.9670611,-9.92847,7.9059067,-0.236903,-1.511731,-2.4524176,-0.38570097,0
1.2000000000000008,14.779981539086519,-3.2036058508500385,3.9476758835961934,-0.35193422699162913,17.756845,-2.548233,5.0861545,0.016859379,8.27167,-6.198191,1.3181592,-0.1487836,-0.04618433,-0.1970881,-0.9679297,-9.90729,7.964356,-0.19464763,-1.6901451,-1.9770811,-0.4003384,0
1.2100000000000009,14.779981539086519,-3.2036058508500385,3.9476758835961934,-0.35193422699162913,17.756845,-2.548233,5.0861545,0.016859379,8.1727085,-6.118279,1.3164016,-0.15261182,-0.051711597,-0.18728499,-0.96900004,-9.884781,8.017567,-0.15671174,-1.925926,-1.05306,-0.39796323,0
1.2200000000000009,14.779981539086519,-3.2036058508500385,3.9476758835961934,-0.35193422699162913,17.756845,-2.548233,5.0861545,0.016859379,8.073977,-6.03785,1.3150283,-0.15566784,-0.05295063,-0.17705426,-0.9703694,-9.861399,8.067761,-0.117779836,-2.124977,-0.2731497,-0.39570457,0
1.2300000000000009,14.779981539086519,-3.2036058508500385,3.9476758835961934,-0.35193422699162913,17.756845,-2.548233,5.0861545,0.016859379,7.97548,-5.9569335,1.3140497,-0.15810649,-0.050561797,-0.16647102,-0.9719745,-9.838369,8.115025,-0.07775004,-2.29302,0.3851258,-0.39355674,0
1.2400000000000009,14.779981539086519,-3.2036058508500385,3.9476758835961934,-0.35193422699162913,17.424364,-2.478412,5.316372,0.050741486,7.877206,-5.875559,1.3134773,-0.16004686,-0.045102574,-0.15559104,-0.9737265,-9.816731,8.159431,-0.036552917,-2.434884,0.9407368,-0.39151433,0
1.2500000000000009,14.779981539086519,-3.2036058508500385,3.9476758835961934,-0.35193422699162913,17.424364,-2.478412,5.316372,0.050741486,7.7791376,-5.7937546,1.3133227,-0.16158059,-0.03704429,-0.1444569,-0.9755269,-9.797366,8.201042,0.0058357744,-2.5546484,1.4096944,-0.3895721,0
1.260000000000001,14.779981539086519,-3.2036058508500385,3.9476758835961934,-0.35193422699162913,17.424364,-2.478412,5.316372,0.050741486,7.681248,-5.711548,1.3135978,-0.16277824,-0.026786275,-0.13310215,-0.9772772,-9.781025,8.239905,0.049389843,-2.6557548,1.8055137,-0.3877252,0
1.270000000000001,14.779981539086519,-3.2036058508500385,3.9476758835961934,-0.35193422699162913,17.424364,-2.478412,5.316372,0.050741486,7.583504,-5.6289663,1.3143141,-0.16369417,-0.0146676935,-0.121554196,-0.9788845,-9.768348,8.276053,0.09403255,-2.7411098,2.1396012,-0.38596892,0
1.280000000000001,14.382331989221806,-3.1900405327867816,4.825581366675012,-0.1635273486573543,16.59957,-2.9972231,5.288178,0.24025068,7.4858665,-5.5460362,1.3154819,-0.16437022,-0.00097736,-0.1098362,-0.9802646,-9.759877,8.309508,0.13963908,-2.8131676,2.4215841,-0.38429883,0
1.290000000000001,14.382331989221806,-3.1900405327867816,4.825581366675012,-0.1635273486573543,16.59957,-2.9972231,5.288178,0.24025068,7.38829,-5.4627895,1.3170903,-0.1647781,0.014379233,-0.09803126,-0.98134214,-9.756196,8.339463,0.18215175,-2.8718665,2.7964807,-0.3734655,0
1.300000000000001,14.382331989221806,-3.1900405327867816,4.825581366675012,-0.1635273486573543,16.59957,-2.9972231,5.288178,0.24025068,7.290725,-5.3792562,1.3191268,-0.16489401,0.031461276,-0.0862066,-0.98203343,-9.757592,8.366872,0.22522272,-2.9214294,3.1129103,-0.36316374,0
1.310000000000001,14.382331989221806,-3.1900405327867816,4.825581366675012,-0.1635273486573543,16.59957,-2.9972231,5.288178,0.24025068,7.1931195,-5.295461,1.3215958,-0.16475195,0.049991224,-0.07436016,-0.98225725,-9.764538,8.391788,0.2685901,-2.9632776,3.379991,-0.35336754,0
1.320000000000001,14.001777781020865,-2.662780213090305,3.999892842583523,-0.17210870852778257,16.677494,-2.363487,5.639499,0.25123408,7.0954146,-5.211429,1.3244988,-0.16437802,0.06973041,-0.062491734,-0.98194367,-9.777418,8.414253,0.311951,-2.9986112,3.6054204,-0.34405202,0
1.330000000000001,14.001777781020865,-2.662780213090305,3.999892842583523,-0.17210870852778257,16.677494,-2.363487,5.639499,0.25123408,6.997552,-5.1271873,1.327815,-0.16382986,0.090114444,-0.050755948,-0.98105246,-9.796013,8.433773,0.3512366,-2.946245,3.6669097,-0.33561474,0
1.340000000000001,14.001777781020865,-2.662780213090305,3.999892842583523,-0.17210870852778257,16.677494,-2.363487,5.639499,0.25123408,6.899473,-5.042762,1.3315213,-0.16315737,0.1106843,-0.039278287,-0.979585,-9.820744,8.451004,0.38985914,-2.902047,3.7188132,-0.32759145,0
1.350000000000001,14.001777781020865,-2.662780213090305,3.999892842583523,-0.17210870852778257,16.677494,-2.363487,5.639499,0.25123408,6.801116,-4.958175,1.3356091,-0.1623683,0.13139144,-0.028021097,-0.9775421,-9.851611,8.466012,0.4274925,-2.8647428,3.762625,-0.31996188,0
1.360000000000001,13.4707363935472,-1.729909411771347,1.471970756040977,-0.28610578647513774,15.1239,-1.3052485,3.2219706,0.1331965,6.7024193,-4.873449,1.3400668,-0.16146842,0.15219286,-0.01695351,-0.974925,-9.888593,8.478853,0.46381363,-2.833257,3.799607,-0.3127067,0
1.370000000000001,13.4707363935472,-1.729909411771347,1.471970756040977,-0.28610578647513774,15.1239,-1.3052485,3.2219706,0.1331965,6.603331,-4.788607,1.3448546,-0.16055115,0.17200764,-0.006248749,-0.9719045,-9.929951,8.489173,0.4934873,-2.6612673,3.436576,-0.3114014,0
1.380000000000001,13.4707363935472,-1.729909411771347,1.471970756040977,-0.28610578647513774,15.1239,-1.3052485,3.2219706,0.1331965,6.5038023,-4.7036724,1.3499306,-0.15969771,0.18999064,0.0039572218,-0.9687029,-9.976628,8.497519,0.5214629,-2.516087,3.130165,-0.31016013,0
1.390000000000001,13.4707363935472,-1.729909411771347,1.471970756040977,-0.28610578647513774,15.1239,-1.3052485,3.2219706,0.1331965,6.4037824,-4.618664,1.3552777,-0.15889476,0.20642447,0.01373869,-0.9653773,-10.028112,8.503952,0.5476689,-2.3935375,2.8715441,-0.30897975,0
1.400000000000001,13.046314056367443,-0.5650335992660851,-1.86166230095895,-0.34641491011613623,13.652511,-0.3330491,-1.0431675,0.1869184,6.303225,-4.5336,1.3608776,-0.15813024,0.22154763,0.023159007,-0.96196455,-10.083965,8.508527,0.5720585,-2.2900908,2.653259,-0.3078573,1
1.410000000000001,13.046314056367443,-0.5650335992660851,-1.86166230095895,-0.34641491011613623,13.652511,-0.3330491,-1.0431675,0.1869184,6.2020855,-4.448499,1.3667206,-0.15743943,0.23450992,0.03188119,-0.9587503,-10.144563,8.511343,0.59625983,-1.9850403,2.0767105,-0.28357852,1
1.420000000000001,13.046314056367443,-0.5650335992660851,-1.86166230095895,-0.34641491011613623,13.652511,-0.3330491,-1.0431675,0.1869184,6.1003227,-4.363379,1.3727971,-0.15684645,0.2446628,0.039641093,-0.956017,-10.208431,8.5124655,0.61881536,-1.7275275,1.5900935,-0.26049107,1
1.430000000000001,13.046314056367443,-0.5650335992660851,-1.86166230095895,-0.34641491011613623,13.652511,-0.3330491,-1.0431675,0.1869184,5.9979076,-4.2782555,1.3790921,-0.1563248,0.2524597,0.04658647,-0.95375943,-10.274855,8.51203,0.63998884,-1.5101461,1.1793792,-0.23853657,1
1.440000000000001,13.046314056367443,-0.5650335992660851,-1.86166230095895,-0.34641491011613623,13.0050955,0.6521734,-2.1605544,0.4774323,5.894819,-4.1931434,1.385593,-0.15585083,0.25827944,0.052842025,-0.95195097,-10.343245,8.510146,0.6600322,-1.3266441,0.8327279,-0.21765938,0
1.450000000000001,13.046314056367443,-0.5650335992660851,-1.86166230095895,-0.34641491011613623,13.0050955,0.6521734,-2.1605544,0.4774323,5.791054,-4.1080565,1.3922637,-0.15542461,0.2621379,0.058669373,-0.95062375,-10.409998,8.507039,0.67397994,-1.207929,0.41252735,-0.22397746,0
1.460000000000001,13.046314056367443,-0.5650335992660851,-1.86166230095895,-0.34641491011613623,13.0050955,0.6521734,-2.1605544,0.4774323,5.6866155,-4.0230074,1.3990705,-0.15505096,0.26406094,0.06428358,-0.9497891,-10.477672,8.502623,0.6873303,-1.1077211,0.057858497,-0.22998549,0
1.470000000000001,13.046314056367443,-0.5650335992660851,-1.86166230095895,-0.34641491011613623,13.0050955,0.6521734,-2.1605544,0.4774323,5.581498,-3.938009,1.406009,-0.15471715,0.26435244,0.06971857,-0.94937897,-10.545837,8.496869,0.7003196,-1.0231351,-0.24149856,-0.23569871,0
1.480000000000001,12.649728641852764,0.39448138873719846,-4.795210419765042,-0.3881649048129878,11.982019,1.0750412,-5.5256267,0.5039375,5.4756985,-3.8530748,1.4130763,-0.15441227,0.26326668,0.07500252,-0.9493276,-10.614135,8.489758,0.7131488,-0.95173466,-0.4941697,-0.24113159,1
1.490000000000001,12.649728641852764,0.39448138873719846,-4.795210419765042,-0.3881649048129878,11.982019,1.0750412,-5.5256267,0.5039375,5.369244,-3.7682152,1.4202267,-0.15408702,0.2595308,0.07973436,-0.9500233,-10.676632,8.481965,0.71698105,-0.63575363,-1.2788877,-0.20457081,1
1.500000000000001,12.649728641852764,0.39448138873719846,-4.795210419765042,-0.3881649048129878,11.982019,1.0750412,-5.5256267,0.5039375,5.262169,-3.6834395,1.4274174,-0.15367402,0.2521419,0.083590835,-0.95174694,-10.738179,8.4729395,0.7212875,-0.36900106,-1.9412086,-0.16980411,1
1.5100000000000011,12.649728641852764,0.39448138873719846,-4.795210419765042,-0.3881649048129878,11.982019,1.0750412,-5.5256267,0.5039375,5.154486,-3.5987604,1.4346554,-0.1531396,0.24165411,0.08669655,-0.9542726,-10.798013,8.462715,0.72649163,-0.14381213,-2.5002246,-0.13674343,1
1.5200000000000011,12.618068683428513,1.2350992218335066,-5.999987775852664,-0.3751855641046843,11.975758,1.4773527,-6.0816884,0.61783266,5.0462165,-3.514189,1.4419514,-0.15245509,0.22853005,0.08915493,-0.9573839,-10.855468,8.451325,0.73291534,0.046285734,-2.9720504,-0.10530502,1
1.5300000000000011,12.618068683428513,1.2350992218335066,-5.999987775852664,-0.3751855641046843,11.975758,1.4773527,-6.0816884,0.61783266,4.937387,-3.4297373,1.4493183,-0.15160204,0.21295264,0.09092352,-0.96093804,-10.909921,8.438809,0.74073535,0.26950654,-3.4442668,-0.06982044,1
1.5400000000000011,12.618068683428513,1.2350992218335066,-5.999987775852664,-0.3751855641046843,11.975758,1.4773527,-6.0816884,0.61783266,4.82803,-3.3454165,1.4567715,-0.15055919,0.19508496,0.09197084,-0.96478814,-10.960809,8.425225,0.7501822,0.4579354,-3.8428307,-0.036077112,1
1.5500000000000012,12.618068683428513,1.2350992218335066,-5.999987775852664,-0.3751855641046843,11.975758,1.4773527,-6.0816884,0.61783266,4.7181845,-3.2612364,1.4643278,-0.14930223,0.17526066,0.09239155,-0.9687401,-11.007583,8.4106455,0.7613509,0.6169922,-4.179231,-0.003989596,1
1.5600000000000012,12.785565321454662,1.58132845437921,-5.999993940186296,-0.5169952623512305,11.501322,1.4205128,-5.9773035,0.5878884,4.6078944,-3.177207,1.4720045,-0.14781284,0.15376495,0.092266046,-0.9726231,-11.049754,8.395139,0.77425027,0.7512526,-4.4631643,0.026523393,0
1.5700000000000012,12.785565321454662,1.58132845437921,-5.999993940186296,-0.5169952623512305,11.501322,1.4205128,-5.9773035,0.5878884,4.497194,-3.093342,1.4798567,-0.14622064,0.13082412,0.09164337,-0.97627205,-11.0894,8.377676,0.7964316,0.880625,-4.702845,-0.00014723418,0
1.5800000000000012,12.785565321454662,1.58132845437921,-5.999993940186296,-0.5169952623512305,11.501322,1.4205128,-5.9773035,0.5878884,4.386126,-3.0096562,1.4879389,-0.14464897,0.106633626,0.090565726,-0.97954315,-11.123255,8.359399,0.8202492,0.98981833,-4.9051514,-0.02550913,0
1.5900000000000012,12.785565321454662,1.58132845437921,-5.999993940186296,-0.5169952623512305,11.501322,1.4205128,-5.9773035,0.5878884,4.2747498,-2.9261565,1.4962666,-0.14307757,0.0813814,0.08908739,-0.982329,-11.150954,8.340404,0.8455011,1.0819817,-5.0759096,-0.0496265,0
1.6000000000000012,12.740213864099198,1.5579675371218937,-5.261291327812183,-0.7173922013343065,11.958608,1.5302712,-5.6030326,0.40938532,4.163129,-2.84285,1.504853,-0.14149019,0.05523203,0.087254755,-0.9845392,-11.172186,8.320783,0.8719314,1.1597719,-5.22004,-0.072560415,0
1.6100000000000012,12.740213864099198,1.5579675371218937,-5.261291327812183,-0.7173922013343065,11.958608,1.5302712,-5.6030326,0.40938532,4.051329,-2.759742,1.513706,-0.1399243,0.028620949,0.085076794,-0.9860856,-11.186651,8.300704,0.8987923,1.2217622,-5.2265005,-0.104202494,0
1.6200000000000012,12.740213864099198,1.5579675371218937,-5.261291327812183,-0.7173922013343065,11.958608,1.5302712,-5.6030326,0.40938532,3.9394188,-2.6768372,1.5228305,-0.13841558,0.0019069333,0.08256502,-0.98692524,-11.194317,8.280212,0.92618716,1.2740902,-5.2319546,-0.13429189,0
1.6300000000000012,12.740213864099198,1.5579675371218937,-5.261291327812183,-0.7173922013343065,11.958608,1.5302712,-5.6030326,0.40938532,3.8274662,-2.5941389,1.5322303,-0.13694982,-0.024878642,0.079759605,-0.9870487,-11.195136,8.259422,0.95376414,1.3182626,-5.2365575,-0.16290477,0
1.6400000000000012,12.740213864099198,1.5579675371218937,-5.261291327812183,-0.7173922013343065,12.070843,1.6208783,-5.431917,0.16342019,3.7155397,-2.5116494,1.5419052,-0.13551529,-0.051705904,0.07669493,-0.98644865,-11.189084,8.238437,0.9811654,1.3555511,-5.2404423,-0.19011362,1
1.6500000000000012,12.740213864099198,1.5579675371218937,-5.261291327812183,-0.7173922013343065,12.070843,1.6208783,-5.431917,0.16342019,3.6037052,-2.429365,1.5518188,-0.13398786,-0.07860865,0.07339096,-0.9851307,-11.176837,8.218458,1.0014632,1.3969847,-5.270292,-0.17276563,1
1.6600000000000013,12.740213864099198,1.5579675371218937,-5.261291327812183,-0.7173922013343065,12.070843,1.6208783,-5.431917,0.16342019,3.4920256,-2.3472803,1.5619314,-0.13225254,-0.105607465,0.06986971,-0.98309475,-11.1580715,8.198471,1.0209025,1.4319549,-5.2954855,-0.1562689,1
1.6700000000000013,12.740213864099198,1.5579675371218937,-5.261291327812183,-0.7173922013343065,12.070843,1.6208783,-5.431917,0.16342019,3.3805661,-2.2653952,1.5722326,-0.13031362,-0.13265634,0.06616156,-0.9803285,-11.132804,8.178556,1.0391299,1.4614694,-5.31675,-0.14058164,1
1.6800000000000013,12.460311001547714,1.2538361010187207,-2.996205162177401,-0.9181615107111362,12.117856,1.1433172,-3.278225,0.2616847,3.2693918,-2.1837087,1.5827086,-0.12817624,-0.15971279,0.062292892,-0.9768229,-11.101075,8.158793,1.0557897,1.4863793,-5.334698,-0.12566417,0
1.6900000000000013,12.460311001547714,1.2538361010187207,-2.996205162177401,-0.9181615107111362,12.117856,1.1433172,-3.278225,0.2616847,3.1585724,-2.1022215,1.5933601,-0.12606312,-0.18577929,0.058284663,-0.972727,-11.061775,8.138632,1.0741863,1.4500175,-4.970045,-0.16455224,0
1.7000000000000013,12.460311001547714,1.2538361010187207,-2.996205162177401,-0.9181615107111362,12.117856,1.1433172,-3.278225,0.2616847,3.0481772,-2.0209346,1.6041847,-0.1241785,-0.21007952,0.05415312,-0.9682533,-11.016355,8.118808,1.0903971,1.4193431,-4.6622567,-0.20153207,0
1.7100000000000013,12.460311001547714,1.2538361010187207,-2.996205162177401,-0.9181615107111362,12.117856,1.1433172,-3.278225,0.2616847,2.9382648,-1.939844,1.61516,-0.122500755,-0.23287612,0.04991212,-0.9634686,-10.965292,8.099412,1.1042774,1.3934652,-4.4024653,-0.23669727,0
1.7200000000000013,12.1667564627896,0.7912290981882368,0.7671469180214898,-1.0117529292836709,12.103649,0.92127734,-0.64208364,0.10117616,2.8288896,-1.8589448,1.626262,-0.12101001,-0.25439078,0.04557269,-0.95841837,-10.909001,8.080516,1.1157112,1.3716326,-4.183186,-0.27013692,0
1.7300000000000013,12.1667564627896,0.7912290981882368,0.7671469180214898,-1.0117529292836709,12.103649,0.92127734,-0.64208364,0.10117616,2.7200944,-1.7782295,1.637453,-0.11981643,-0.27335286,0.041136913,-0.9535359,-10.849355,8.062615,1.1221237,1.2811728,-3.4111989,-0.30652824,0
1.7400000000000013,12.1667564627896,0.7912290981882368,0.7671469180214898,-1.0117529292836709,12.103649,0.92127734,-0.64208364,0.10117616,2.611916,-1.6976902,1.6486968,-0.11901141,-0.2887937,0.036609817,-0.94926023,-10.785788,8.045355,1.1263124,1.2048335,-2.7596002,-0.34113383,0
1.7500000000000013,12.1667564627896,0.7912290981882368,0.7671469180214898,-1.0117529292836709,12.103649,0.92127734,-0.64208364,0.10117616,2.5043898,-1.61732,1.6599725,-0.1185502,-0.3012864,0.032002002,-0.9455945,-10.71906,8.028817,1.1285918,1.1404061,-2.2096164,-0.37404132,0
1.7600000000000013,11.993793702099742,0.3254739473349898,4.701556823749144,-0.9786331086709976,11.984161,0.32821345,2.7412353,-0.11687578,2.3975437,-1.5371112,1.671263,-0.118392155,-0.3113085,0.027320988,-0.9425097,-10.649792,8.013065,1.1292651,1.086029,-1.7454008,-0.40533403,0
1.7700000000000014,11.993793702099742,0.3254739473349898,4.701556823749144,-0.9786331086709976,11.984161,0.32821345,2.7412353,-0.11687578,2.291406,-1.4570568,1.6825608,-0.118557185,-0.317855,0.022487417,-0.94042933,-10.577886,7.998021,1.1295823,0.99703336,-0.7693625,-0.4308035,0
1.7800000000000014,11.993793702099742,0.3254739473349898,4.701556823749144,-0.9786331086709976,11.984161,0.32821345,2.7412353,-0.11687578,2.1859834,-1.3771461,1.693844,-0.119103596,-0.32002062,0.01753883,-0.9397309,-10.506509,7.984276,1.1269544,0.8930931,0.08328822,-0.45763427,0
1.7900000000000014,11.993793702099742,0.3254739473349898,4.701556823749144,-0.9786331086709976,11.984161,0.32821345,2.7412353,-0.11687578,2.0812764,-1.2973677,1.7050997,-0.11999292,-0.31843385,0.012532176,-0.94023675,-10.434884,7.971587,1.1242166,0.80480045,0.80351734,-0.48319983,0
1.8000000000000014,12.057613656219388,-0.0476276917331563,5.99999481286233,-0.8568610245708722,12.248766,-0.24271819,4.148454,-0.32513732,1.9772842,-1.2177105,1.7163299,-0.12116593,-0.3136722,0.0074697803,-0.94173956,-10.363685,7.9600344,1.1219405,0.7302629,1.4114263,-0.5075109,0
1.8100000000000014,12.057613656219388,-0.0476276917331563,5.99999481286233,-0.8568610245708722,12.248766,-0.24271819,4.148454,-0.32513732,1.8740009,-1.1381631,1.7275442,-0.12260584,-0.30570567,0.0024359385,-0.94419616,-10.293166,7.9496427,1.1210896,0.60921127,2.1270442,-0.5246536,0
1.8200000000000014,12.057613656219388,-0.0476276917331563,5.99999481286233,-0.8568610245708722,12.248766,-0.24271819,4.148454,-0.32513732,1.7714148,-1.0587132,1.7387564,-0.12428745,-0.29452345,-0.0025014156,-0.94752455,-10.224392,7.940545,1.121606,0.50701267,2.7310581,-0.5409551,0
1.8300000000000014,12.057613656219388,-0.0476276917331563,5.99999481286233,-0.8568610245708722,12.248766,-0.24271819,4.148454,-0.32513732,1.6695049,-0.9793475,1.7499822,-0.12615144,-0.28059137,-0.007361375,-0.9514729,-10.158013,7.932812,1.1238629,0.42072892,3.2408733,-0.55645674,0
1.8400000000000014,12.057613656219388,-0.0476276917331563,5.99999481286233,-0.8568610245708722,11.707069,-0.42219618,5.005178,-0.4718389,1.5682443,-0.90005213,1.7612405,-0.12814721,-0.26430085,-0.012158545,-0.95581174,-10.094608,7.926515,1.1281222,0.34787983,3.6711798,-0.5711976,1
1.8500000000000014,12.057613656219388,-0.0476276917331563,5.99999481286233,-0.8568610245708722,11.707069,-0.42219618,5.005178,-0.4718389,1.467592,-0.82081145,1.7725369,-0.13023144,-0.24634697,-0.016696453,-0.9602472,-10.036427,7.9218535,1.1314971,0.22785208,3.8792615,-0.5663221,1
1.8600000000000014,12.057613656219388,-0.0476276917331563,5.99999481286233,-0.8568610245708722,11.707069,-0.42219618,5.005178,-0.4718389,1.3675029,-0.74161017,1.7838777,-0.13236308,-0.22730792,-0.020816542,-0.9645612,-9.9819765,7.9186287,1.1369764,0.12652992,4.054885,-0.56168574,1
1.8700000000000014,12.057613656219388,-0.0476276917331563,5.99999481286233,-0.8568610245708722,11.707069,-0.42219618,5.005178,-0.4718389,1.2679385,-0.6624341,1.7952836,-0.1345069,-0.2073335,-0.024580132,-0.96866775,-9.931543,7.916807,1.1445031,0.04099851,4.2031136,-0.5572769,1
1.8800000000000014,12.185596559496458,-0.1870525399779039,5.9999956306525055,-0.7463123827425222,11.149475,-0.63943475,5.326376,-0.31096572,1.1688573,-0.5832693,1.8067745,-0.13663457,-0.18655336,-0.028038813,-0.97249335,-9.8853855,7.9163675,1.1539805,-0.031202868,4.328221,-0.5530844,0
1.8900000000000015,12.185596559496458,-0.1870525399779039,5.9999956306525055,-0.7463123827425222,11.149475,-0.63943475,5.326376,-0.31096572,1.0702239,-0.50410193,1.8183917,-0.13872711,-0.16470358,-0.031388395,-0.9760342,-9.84205,7.917343,1.1697558,-0.055385273,4.588943,-0.5625661,0
1.9000000000000015,12.185596559496458,-0.1870525399779039,5.9999956306525055,-0.7463123827425222,11.149475,-0.63943475,5.326376,-0.31096572,0.97199893,-0.42491734,1.8301758,-0.14077154,-0.14157888,-0.034786515,-0.9792493,-9.803756,7.919815,1.187301,-0.075809896,4.809004,-0.57158256,0
1.9100000000000015,12.185596559496458,-0.1870525399779039,5.9999956306525055,-0.7463123827425222,11.149475,-0.63943475,5.326376,-0.31096572,0.8741303,-0.3457002,1.8421433,-0.14275476,-0.117365606,-0.038220868,-0.9820316,-9.770838,7.923862,1.2064451,-0.09306134,4.9947453,-0.5801565,0
1.9200000000000015,12.326931954820187,-0.10078106683594606,5.999950048567258,-0.6269813996261389,11.789516,-0.12122384,3.3363266,-0.3368246,0.77656275,-0.26643443,1.8543093,-0.14466564,-0.09222655,-0.04167993,-0.9842913,-9.743586,7.9295526,1.2269655,-0.10763247,5.1515193,-0.5883098,0
1.9300000000000015,12.326931954820187,-0.10078106683594606,5.999950048567258,-0.6269813996261389,11.789516,-0.12122384,3.3363266,-0.3368246,0.67923963,-0.18710288,1.8666934,-0.14647727,-0.06631033,-0.045185648,-0.9859544,-9.721996,7.9370337,1.2499856,-0.10650678,5.2838316,-0.59020746,0
1.9400000000000015,12.326931954820187,-0.10078106683594606,5.999950048567258,-0.6269813996261389,11.789516,-0.12122384,3.3363266,-0.3368246,0.5821016,-0.10768763,1.8793119,-0.14816673,-0.03974777,-0.048754226,-0.9869601,-9.706595,7.9463015,1.2738235,-0.10556455,5.3955092,-0.592012,0
1.9500000000000015,12.326931954820187,-0.10078106683594606,5.999950048567258,-0.6269813996261389,11.789516,-0.12122384,3.3363266,-0.3368246,0.48508587,-0.028170526,1.8921715,-0.1497306,-0.012649344,-0.05236758,-0.98725826,-9.697549,7.95741,1.2981431,-0.10477613,5.489771,-0.59372795,0
1.9600000000000015,12.113600600478417,0.007493643532871789,3.484215755391703,-0.553210774349822,11.571372,0.16937827,-0.39179388,-0.41332293,0.3881283,0.051467046,1.9052752,-0.15116587,0.014886519,-0.056009572,-0.98680836,-9.694984,7.9704003,1.3225845,-0.10411647,5.569333,-0.59535974,0
1.9700000000000015,12.113600600478417,0.007493643532871789,3.484215755391703,-0.553210774349822,11.571372,0.16937827,-0.39179388,-0.41332293,0.29116395,0.13124275,1.9186118,-0.15252247,0.041772082,-0.05955682,-0.9856193,-9.6988735,7.98503,1.3446567,-0.08684403,5.2441535,-0.59329146,0
1.9800000000000015,12.113600600478417,0.007493643532871789,3.484215755391703,-0.553210774349822,11.571372,0.16937827,-0.39179388,-0.41332293,0.1941298,0.2111738,1.9321665,-0.15385485,0.06714196,-0.06291325,-0.98380023,-9.708881,8.001452,1.3661437,-0.07224461,4.9696865,-0.5913247,0
1.9900000000000015,12.113600600478417,0.007493643532871789,3.484215755391703,-0.553210774349822,11.571372,0.16937827,-0.39179388,-0.41332293,0.096966535,0.29127762,1.9459318,-0.155165,0.091217026,-0.066102795,-0.98144484,-9.724645,8.019575,1.3867632,-0.05990444,4.7380233,-0.5894545,0
2.0000000000000013,,,,,11.9414215,0.06647684,-0.9029822,-0.32708445,-0.00038175657,0.37157083,1.959898,-0.15645309,0.11418498,-0.0691459,-0.97862315,-9.745838,8.039318,1.4062747,-0.049474027,4.5424886,-0.587676,1
2.010000000000001,,,,,11.9414215,0.06647684,-0.9029822,-0.32708445,-0.0979659,0.4520677,1.9740446,-0.15782051,0.13448597,-0.07181214,-0.97562766,-9.771716,8.060283,1.4228417,-0.031747606,3.6932635,-0.5748887,1
2.020000000000001,,,,,11.9414215,0.06647684,-0.9029822,-0.32708445,-0.19583042,0.5327808,1.9883504,-0.15936226,0.15091111,-0.07392471,-0.97281283,-9.801767,8.082521,1.4381472,-0.01672174,2.9764757,-0.5627289,1
2.0300000000000007,,,,,11.9414215,0.06647684,-0.9029822,-0.32708445,-0.29401267,0.61372167,2.0028036,-0.16106308,0.16407828,-0.07557109,-0.97027117,-9.835145,8.105795,1.4523114,-0.003986777,2.3714716,-0.5511657,1
2.0400000000000005,,,,,11.9414215,0.06647684,-0.9029822,-0.32708445,-0.3925423,0.69489956,2.017393,-0.16290466,0.17450678,-0.07682418,-0.9680432,-9.871145,8.129904,1.4654859,0.006805132,1.8608185,-0.54016995,1
2.0500000000000003,,,,,11.340971,-0.16805336,-4.4124217,-0.10631488,-0.49144256,0.77632207,2.03211,-0.16486777,0.18263248,-0.07774489,-0.9661366,-9.909184,8.154682,1.4778326,0.01594935,1.4298023,-0.5297138,1
2.06,,,,,11.340971,-0.16805336,-4.4124217,-0.10631488,-0.5907213,0.85798866,2.0469196,-0.16700009,0.18747915,-0.078066096,-0.96481526,-9.946727,8.178694,1.4840186,-0.013067653,0.5187204,-0.50893754,1
2.07,,,,,11.340971,-0.16805336,-4.4124217,-0.10631488,-0.6903793,0.93989664,2.0617893,-0.16933385,0.18829335,-0.07757669,-0.9642893,-9.984905,8.202907,1.4899274,-0.037489597,-0.25028077,-0.48918074,1
2.0799999999999996,,,,,11.340971,-0.16805336,-4.4124217,-0.10631488,-0.79041904,1.0220464,2.0767183,-0.17182626,0.18570612,-0.076397665,-0.9644443,-10.02295,8.227033,1.4959059,-0.058047082,-0.8993586,-0.47039345,1
2.0899999999999994,,,,,11.019201,-0.48413602,-6.06243,0.1339793,-0.8908357,1.1044359,2.091709,-0.17443623,0.18024357,-0.074629664,-0.96515036,-10.06021,8.250818,1.5022448,-0.075353734,-1.4472145,-0.452528,1
2.099999999999999,,,,,11.019201,-0.48413602,-6.06243,0.1339793,-0.9916135,1.1870574,2.1067505,-0.17712077,0.17175165,-0.07212824,-0.9663993,-10.095092,8.273371,1.5062066,-0.13927267,-2.1572027,-0.4237479,1
2.109999999999999,,,,,11.019201,-0.48413602,-6.06243,0.1339793,-1.0927309,1.2699003,2.1218357,-0.17983317,0.16012475,-0.068779916,-0.96813744,-10.128029,8.295067,1.5109956,-0.19317071,-2.7564733,-0.39638004,1
2.1199999999999988,,,,,11.019201,-0.48413602,-6.06243,0.1339793,-1.1941655,1.3529546,2.136974,-0.18253127,0.14583358,-0.06470418,-0.9701696,-10.158433,8.315614,1.5167938,-0.23862232,-3.2622917,-0.37035516,1
2.1299999999999986,,,,,11.308258,-0.48296222,-6.3558297,0.42195323,-1.2958891,1.4362077,2.152176,-0.18517698,0.12927596,-0.060002245,-0.9723156,-10.185797,8.334745,1.5237001,-0.2769538,-3.689231,-0.3456073,1
2.1399999999999983,,,,,11.308258,-0.48296222,-6.3558297,0.42195323,-1.3978727,1.5196462,2.1674662,-0.1877021,0.1107879,-0.054765377,-0.97442055,-10.210308,8.352682,1.5345205,-0.30906266,-4.0495944,-0.3079429,1
2.149999999999998,,,,,11.308258,-0.48296222,-6.3558297,0.42195323,-1.5000819,1.6032546,2.1828704,-0.19004506,0.090656765,-0.04907141,-0.9763488,-10.230857,8.368705,1.5464523,-0.33614182,-4.353761,-0.2721267,1
2.159999999999998,,,,,11.308258,-0.48296222,-6.3558297,0.42195323,-1.6024753,1.6870129,2.1983988,-0.19218415,0.06913173,-0.042982556,-0.97797716,-10.247107,8.382618,1.5593841,-0.35898182,-4.610495,-0.23806801,1
2.1699999999999977,,,,,11.65844,-0.29556692,-6.196382,0.6451244,-1.7050084,1.770899,2.214061,-0.19410151,0.04642814,-0.036552683,-0.97920054,-10.258768,8.39425,1.5731509,-0.37824836,-4.827193,-0.20568058,1
2.1799999999999975,,,,,11.65844,-0.29556692,-6.196382,0.6451244,-1.8076352,1.8548911,2.2298813,-0.19575872,0.02271742,-0.029903227,-0.97993314,-10.265811,8.403738,1.5910238,-0.36524275,-5.0101027,-0.16393133,1
2.1899999999999973,,,,,11.65844,-0.29556692,-6.196382,0.6451244,-1.9103067,1.9389648,2.2458825,-0.19711961,-0.0018496453,-0.023133595,-0.9801051,-10.267658,8.410613,1.6092789,-0.35426,-5.1644874,-0.12423074,1
