t,px,py,pz,qx,qy,qz,qw,vx,vy,vz,wx,wy,wz,throttle_mpc,roll_mpc,pitch_mpc,yaw_mpc,throttle_nw,roll_nw,pitch_nw,yaw_nw,network_used
-2.0,18.355885,-9.814914,1.9594383000000002,0.48129898,-0.20184672,-0.84557986,0.11226715,-11.745883000000001,-6.44068,0.09428011,1.8713328000000002,-0.18862069,-0.27076226,11.645816178044534,-5.999999121784638,-6.0,5.999999958055973,11.35182,-1.6098691,-4.7207623,-1.3128506000000002,0
-1.99,18.237470000000002,-9.879058,1.9603947,0.4819977,-0.20906190000000002,-0.84409094,0.10715318,-11.935986999999999,-6.387662000000001,0.096340075,1.7097073,-0.028766882,-0.060708396,11.645816178044534,-5.999999121784638,-6.0,5.999999958055973,12.915697,-3.5413919999999997,-5.715380000000001,-0.62847847,0
-1.98,18.117176,-9.942658999999999,1.9613535,0.48296009999999995,-0.21603425,-0.8422483000000001,0.10342378,-12.122524,-6.332212,0.09495780599999999,1.5579573999999998,0.09081763,0.14276043,11.645816178044534,-5.999999121784638,-6.0,5.999999958055973,12.915697,-3.5413919999999997,-5.715380000000001,-0.62847847,0
-1.97,17.995028,-10.005694,1.9622838,0.48399758,-0.22277555,-0.8401877000000001,0.10100475,-12.306623,-6.274543,0.09063890599999999,1.400596,0.16244829,0.33885908,11.645816178044534,-5.999999121784638,-6.0,5.999999958055973,12.915697,-3.5413919999999997,-5.715380000000001,-0.62847847,0
-1.96,17.871052,-10.068143,1.9631561999999998,0.48492570000000007,-0.22927238,-0.83804214,0.09983327,-12.488254,-6.215133,0.083383135,1.2373854,0.19247359,0.5280504,11.645816178044534,-5.999999121784638,-6.0,5.999999958055973,7.366367299999999,-2.5455349999999997,-5.36508,0.8767896000000001,0
-1.95,17.745272,-10.129991,1.9639418000000002,0.48558387,-0.23550737,-0.8359271,0.09985214,-12.667363,-6.1544223,0.07327858,1.0683209999999999,0.18645242,0.71075666,11.645816178044534,-5.999999121784638,-6.0,5.999999958055973,7.366367299999999,-2.5455349999999997,-5.36508,0.8767896000000001,0
-1.94,17.617714000000003,-10.191227,1.9646127,0.48583242,-0.2414609,-0.83394295,0.101008944,-12.843889,-6.09281,0.060487762,0.8935726,0.14925392,0.88736343,11.645816178044534,-5.999999121784638,-6.0,5.999999958055973,7.366367299999999,-2.5455349999999997,-5.36508,0.8767896000000001,0
-1.93,17.488402999999998,-10.251844,1.9651432,0.48554948,-0.24711241,-0.8321752,0.10325543,-13.017759,-6.030661599999999,0.04523476,0.71343815,0.085144505,1.0582235,11.645816178044534,-5.999999121784638,-6.0,5.999999958055973,7.366367299999999,-2.5455349999999997,-5.36508,0.8767896000000001,0
-1.92,17.357368,-10.31184,1.9655099999999999,0.48462844,-0.25244110000000003,-0.8306966,0.106546685,-13.188894,-5.968307,0.027793514,0.5283051999999999,-0.0021363553,1.2236598,12.387735809044012,5.999999971966068,-6.0,-4.244978673843312,10.76474,-2.773373,-7.578382,1.7474923999999998,0
-1.91,17.224588,-10.371195,1.9657145,0.48332375,-0.25734788,-0.82951045,0.10992232,-13.366576,-5.902549700000001,0.012835795,0.51692903,-0.07284152,1.0326315000000001,12.387735809044012,5.999999971966068,-6.0,-4.244978673843312,10.76474,-2.773373,-7.578382,1.7474923999999998,0
-1.9,17.090044,-10.429891,1.9657613,0.4819152,-0.26185474,-0.8285866,0.1124026,-13.5417185,-5.8367295,-0.0037109884000000003,0.53646415,-0.16164154,0.8483729,12.387735809044012,5.999999971966068,-6.0,-4.244978673843312,10.76474,-2.773373,-7.578382,1.7474923999999998,0
-1.89,16.953762,-10.487928,1.9656351000000003,0.48034784,-0.266111,-0.82793283,0.11392258,-13.714164000000002,-5.7708025,-0.021765511,0.5829424,-0.26658687,0.67047465,12.387735809044012,5.999999971966068,-6.0,-4.244978673843312,10.76474,-2.773373,-7.578382,1.7474923999999998,0
-1.8800000000000001,16.815770999999998,-10.545306,1.9653211,0.47857127,-0.27024734,-0.82755226,0.11442636,-13.883751,-5.7046633,-0.041251223999999996,0.6528615,-0.3858736,0.49856162,12.387735809044012,5.999999971966068,-6.0,-4.244978673843312,10.76474,-2.773373,-7.578382,1.7474923999999998,0
-1.87,16.676098,-10.602021,1.9648055,0.4765387,-0.27437773,-0.82744336,0.11386606,-14.050310000000001,-5.6381574,-0.06209697,0.7431264,-0.51783806,0.33228952,16.860345686449453,6.0,-6.0,-4.481700613711332,10.873677,1.3081846000000001,-8.349273,-0.54750746,0
-1.8599999999999999,16.53462,-10.658005000000001,1.9641467000000001,0.47406125,-0.2787855,-0.8276485,0.111994304,-14.244520999999999,-5.558397,-0.06988329,0.9387530000000001,-0.7487017,0.15189031,16.860345686449453,6.0,-6.0,-4.481700613711332,10.873677,1.3081846000000001,-8.349273,-0.54750746,0
-1.85,16.39122,-10.713186,1.9634022,0.47095957,-0.28372484,-0.8281956,0.108579926,-14.434344,-5.477614,-0.07923707,1.1452386,-0.9850222,-0.023358941,16.860345686449453,6.0,-6.0,-4.481700613711332,10.873677,1.3081846000000001,-8.349273,-0.54750746,0
-1.84,16.245947,-10.767552,1.9625567,0.46720213,-0.28924474,-0.8290508,0.103608094,-14.619482000000001,-5.395299400000001,-0.090054415,1.3607733999999998,-1.225834,-0.19370057,20.9999998721432,6.0,-6.0,-4.1818461735042325,11.945478,2.1010637,-6.6785746,0.21401199999999998,0
-1.83,16.098736,-10.8210335,1.9616494999999998,0.46246922,-0.29574504,-0.83023596,0.09677503,-14.821767000000001,-5.300536,-0.09166691,1.7373904999999998,-1.6239492,-0.35837042,20.9999998721432,6.0,-6.0,-4.1818461735042325,11.945478,2.1010637,-6.6785746,0.21401199999999998,0
-1.82,15.949534,-10.873552,1.9607177,0.45645782,-0.30356553,-0.83173573,0.08780645,-15.017349,-5.202853,-0.09494421,2.1075916,-2.0124473999999997,-0.5196442,20.9999998721432,6.0,-6.0,-4.1818461735042325,11.945478,2.1010637,-6.6785746,0.21401199999999998,0
-1.81,15.798413,-10.9250765,1.9597453,0.44915283,-0.31264925,-0.8334411,0.07673483,-15.205672,-5.1013956,-0.09975673,2.471293,-2.3917346,-0.67759115,20.9999998721432,6.0,-6.0,-4.1818461735042325,11.945478,2.1010637,-6.6785746,0.21401199999999998,0
-1.8,15.645448000000002,-10.975565,1.9587176,0.44053000000000003,-0.32293096,-0.8352274,0.06359306,-15.386142999999999,-4.9954405,-0.10600915,2.8284472999999997,-2.7621775,-0.8322792,21.0,6.0,-6.0,-3.998349176596601,13.424036,2.1670678,-8.249647999999999,1.3586559999999999,0
-1.79,15.490728,-11.024975,1.9576155,0.43050078,-0.33440268,-0.8369607,0.0483799,-15.556241,-4.8856152999999996,-0.114631765,3.2046509,-3.1497264,-0.97705966,21.0,6.0,-6.0,-3.998349176596601,13.424036,2.1670678,-8.249647999999999,1.3586559999999999,0
-1.7799999999999998,15.334353,-11.073259,1.9564202000000002,0.41897523,-0.34703475,-0.83848614,0.031103445,-15.717135999999998,-4.7703543,-0.12464411,3.571309,-3.5260775,-1.119133,21.0,6.0,-6.0,-3.998349176596601,13.424036,2.1670678,-8.249647999999999,1.3586559999999999,0
-1.77,15.176419000000001,-11.120362,1.9551180000000001,0.40591785,-0.36071727,-0.83962727,0.0118149,-15.868096,-4.6493254,-0.13604127,3.9287487999999997,-3.8918061,-1.2585276,21.0,6.0,-6.0,-3.998349176596601,13.424036,2.1670678,-8.249647999999999,1.3586559999999999,0
-1.7599999999999998,15.017022,-11.16622,1.9536982,0.39132878,-0.3752938,-0.8401951999999999,-0.009388899000000001,-16.010002,-4.520857,-0.14784373,4.2511215,-4.221213,-1.3929715,21.0,6.0,-6.0,-3.998349176596601,13.53227,3.0732095,-8.430295,0.7086908000000001,0
-1.75,14.856248999999998,-11.210749,1.9521623,0.37533033,-0.39049116,-0.8400008,-0.03228282,-16.143145,-4.383548,-0.15930767,4.523233,-4.4992366,-1.5208182,21.0,6.0,-6.0,-3.998349176596601,13.53227,3.0732095,-8.430295,0.7086908000000001,0
-1.7399999999999998,14.694194,-11.2538595,1.9505126,0.35805866,-0.40604547,-0.83887625,-0.056634187999999995,-16.266369,-4.237401,-0.17056110000000002,4.752928,-4.7338834,-1.6423914000000002,21.0,6.0,-6.0,-3.998349176596601,13.53227,3.0732095,-8.430295,0.7086908000000001,0
-1.73,14.530960999999998,-11.295465,1.9487511000000002,0.33963699999999997,-0.4217293,-0.83667725,-0.0822313,-16.378555,-4.082654,-0.18176061,4.9468255,-4.931913400000001,-1.757999,21.0,6.0,-6.0,-3.998349176596601,13.53227,3.0732095,-8.430295,0.7086908000000001,0
-1.72,14.366665,-11.3354845,1.9468771,0.32017840000000003,-0.43734670000000003,-0.8332818999999999,-0.10887997,-16.478642,-3.9197587999999994,-0.19308414,5.1105123,-5.0990343000000005,-1.8679335,21.0,6.0,-6.0,-3.790618097847396,14.736513,3.638647,-10.529177,-0.43800238,0
-1.71,14.201432999999998,-11.373835,1.9448884999999998,0.29977652,-0.45273715,-0.82859135,-0.13637947,-16.565642999999998,-3.7493559999999997,-0.20472406,5.248734,-5.2400303,-1.9622802,21.0,6.0,-6.0,-3.790618097847396,14.736513,3.638647,-10.529177,-0.43800238,0
-1.7,14.035398999999998,-11.410446,1.9427808999999998,0.27851877,-0.46776265,-0.82252705,-0.1645434,-16.63866,-3.5722592000000004,-0.21688168,5.365429,-5.35901,-2.0519971999999997,21.0,6.0,-6.0,-3.790618097847396,14.736513,3.638647,-10.529177,-0.43800238,0
-1.69,13.86871,-11.445258,1.9405483000000001,0.25649837,-0.48229676,-0.8150245,-0.19321856,-16.696892000000002,-3.3894303,-0.2297623,5.4639525,-5.4594073,-2.1373117,21.0,6.0,-6.0,-3.790618097847396,14.736513,3.638647,-10.529177,-0.43800238,0
-1.68,13.701514999999999,-11.478218,1.9381824,0.23380356,-0.49623057,-0.8060341,-0.2222613,-16.739656,-3.2019603,-0.24357037,5.5471379999999995,-5.544121700000001,-2.2184397999999996,21.0,5.978530087059126,-5.999999869867011,-3.805411481597608,15.740520499999999,3.0141332000000003,-10.751491999999999,-0.03876916,0
-1.67,13.533973000000001,-11.509286,1.9356729,0.21052124,-0.509463,-0.79552364,-0.25153607,-16.766397,-3.0110497000000005,-0.25850442,5.6140256,-5.6155972,-2.296313,21.0,5.978530087059126,-5.999999869867011,-3.805411481597608,15.740520499999999,3.0141332000000003,-10.751491999999999,-0.03876916,0
-1.66,13.366242999999999,-11.538432,1.9330077,0.18673435,-0.5219079000000001,-0.78347236,-0.28091547,-16.776692999999998,-2.8179903,-0.27475047,5.670506,-5.675903,-2.370365,21.0,5.978530087059126,-5.999999869867011,-3.805411481597608,15.740520499999999,3.0141332000000003,-10.751491999999999,-0.03876916,0
-1.65,13.198495999999999,-11.565644,1.9301727,0.16251929,-0.53349847,-0.7698659999999999,-0.3102795,-16.770256,-2.6241426,-0.29248115,5.7182010000000005,-5.7267823,-2.440783,21.0,5.978530087059126,-5.999999869867011,-3.805411481597608,15.740520499999999,3.0141332000000003,-10.751491999999999,-0.03876916,0
-1.64,13.030896,-11.5909195,1.9271523000000002,0.13794923,-0.54417694,-0.7546997,-0.33951414,-16.746942999999998,-2.4309175,-0.31185406,5.758479599999999,-5.769705999999999,-2.5077457,21.0,2.881479844045137,-5.424070023731584,-0.27679834780569984,19.121984,4.3124465999999995,-9.924044,-1.7350138,0
-1.63,12.863615,-11.614271,1.9239296000000001,0.11346649,-0.55312234,-0.7388003000000001,-0.36790645,-16.706846,-2.2397661,-0.33293727,5.3103110000000004,-5.714691,-2.3982725,21.0,2.881479844045137,-5.424070023731584,-0.27679834780569984,19.121984,4.3124465999999995,-9.924044,-1.7350138,0
-1.6199999999999999,12.6968155,-11.635728,1.9204888,0.08944210400000001,-0.55977505,-0.7229751,-0.39491645,-16.650726000000002,-2.0521357,-0.35537377,4.931992500000001,-5.668442,-2.2941713,21.0,2.881479844045137,-5.424070023731584,-0.27679834780569984,19.121984,4.3124465999999995,-9.924044,-1.7350138,0
-1.6099999999999999,12.530654,-11.655331,1.9168189999999998,0.06583441,-0.5644335,-0.70718724,-0.42067415,-16.579535,-1.8693136000000001,-0.37871617,4.612637,-5.629556,-2.1951783,21.0,2.881479844045137,-5.424070023731584,-0.27679834780569984,19.121984,4.3124465999999995,-9.924044,-1.7350138,0
-1.5999999999999999,12.365275,-11.673136,1.9129128,0.0426019,-0.5673431999999999,-0.6913963000000001,-0.44528404,-16.494204999999997,-1.6924201,-0.40258786,4.3430542999999995,-5.596858,-2.1010427000000003,21.0,1.6374732722715657,-3.3904778461363443,-0.057207228773639485,19.186220000000002,4.6705136,-9.619045,-1.5658576000000002,0
-1.5899999999999999,12.200816,-11.689204,1.9087666,0.020474778,-0.56874806,-0.67584246,-0.4683411,-16.39573,-1.5223912,-0.42668507,3.9219362999999996,-5.25194,-2.0007509999999997,21.0,1.6374732722715657,-3.3904778461363443,-0.057207228773639485,19.186220000000002,4.6705136,-9.619045,-1.5658576000000002,0
-1.5799999999999998,12.037401,-11.703609,1.9043791,2.3304485e-05,-0.5689248,-0.6607890999999999,-0.48957375,-16.28547,-1.359741,-0.45079896,3.5663636,-4.9609594,-1.9053808,21.0,1.6374732722715657,-3.3904778461363443,-0.057207228773639485,19.186220000000002,4.6705136,-9.619045,-1.5658576000000002,0
-1.5699999999999998,11.875142,-11.716426,1.8997511000000002,-0.019008748,-0.56809014,-0.6462140000000001,-0.5092346,-16.164772,-1.2047459999999999,-0.47476143,3.266138,-4.7154765,-1.8146905,21.0,1.6374732722715657,-3.3904778461363443,-0.057207228773639485,19.186220000000002,4.6705136,-9.619045,-1.5658576000000002,0
-1.5599999999999998,11.714137,-11.727732000000001,1.894885,-0.036842696,-0.566413,-0.63208294,-0.5275321999999999,-16.034801,-1.0575858,-0.49842516,3.0126473999999996,-4.508374,-1.7284503,21.0,1.6374732722715657,-3.3904778461363443,-0.057207228773639485,19.197788,3.9421651,-8.416186999999999,-0.7412123,0
-1.5499999999999998,11.554474,-11.737605,1.8897841,-0.05366832,-0.5640251000000001,-0.61835563,-0.5446390999999999,-15.896576000000001,-0.918375,-0.521664,2.7986186,-4.3336477,-1.6464419,21.0,1.6374732722715657,-3.3904778461363443,-0.057207228773639485,19.197788,3.9421651,-8.416186999999999,-0.7412123,0
-1.5399999999999998,11.396231,-11.746126,1.8844535,-0.06964738,-0.5610295999999999,-0.6049899000000001,-0.56069815,-15.750985,-0.7871854,-0.54437214,2.6179099999999997,-4.186234,-1.5684578000000002,21.0,1.6374732722715657,-3.3904778461363443,-0.057207228773639485,19.197788,3.9421651,-8.416186999999999,-0.7412123,0
-1.5299999999999998,11.239477,-11.753376,1.8788988999999998,-0.084917046,-0.5575073,-0.59194386,-0.5758276,-15.598818,-0.66406155,-0.5664627,2.4653351000000003,-4.061861,-1.4943004,21.0,1.6374732722715657,-3.3904778461363443,-0.057207228773639485,19.197788,3.9421651,-8.416186999999999,-0.7412123,0
-1.5199999999999998,11.084274,-11.759435,1.8731266,-0.09959307,-0.5535213999999999,-0.57917804,-0.5901258,-15.440772,-0.54903156,-0.58786637,2.3365147,-3.956926,-1.4237819,21.0,0.579784616987301,-1.697003635554569,0.5269997263366489,18.631678,2.6994216,-5.1607704000000005,-0.6382701,0
-1.5099999999999998,10.930679,-11.764384,1.8671441000000002,-0.113172695,-0.5492812,-0.56700927,-0.60331005,-15.277516,-0.44204968,-0.6085335,2.0631068,-3.6041093,-1.3280566,21.0,0.579784616987301,-1.697003635554569,0.5269997263366489,18.631678,2.6994216,-5.1607704000000005,-0.6382701,0
-1.4999999999999998,10.778739,-11.768302,1.8609586,-0.12527591,-0.54499054,-0.55572516,-0.61519206,-15.109857,-0.34269458,-0.62844694,1.8322381999999997,-3.3063881,-1.2370285,21.0,0.579784616987301,-1.697003635554569,0.5269997263366489,18.631678,2.6994216,-5.1607704000000005,-0.6382701,0
-1.4899999999999998,10.628494,-11.771262,1.8545778000000002,-0.13615704,-0.54067916,-0.54524314,-0.62596947,-14.938528,-0.25045118,-0.64759636,1.6372943000000002,-3.0551555,-1.150467,21.0,0.579784616987301,-1.697003635554569,0.5269997263366489,18.631678,2.6994216,-5.1607704000000005,-0.6382701,0
-1.4799999999999998,10.479978,-11.773334,1.8480093,-0.14602947,-0.53636295,-0.5354846999999999,-0.63580424,-14.764133,-0.16485718,-0.6659703,1.4726882,-2.8431493999999997,-1.0681534,21.0,-0.3096936854547537,-0.14852771074805407,1.1985468463162297,18.720013,2.1097367,-3.0937723999999998,-0.5786534000000001,0
-1.4699999999999998,10.333219,-11.774579,1.841261,-0.15456025,-0.5322471,-0.52671605,-0.64451134,-14.587192000000002,-0.08544131,-0.683563,1.1951966,-2.4226437,-0.9569257,21.0,-0.3096936854547537,-0.14852771074805407,1.1985468463162297,18.720013,2.1097367,-3.0937723999999998,-0.5786534000000001,0
-1.4599999999999997,10.188239999999999,-11.77506,1.8343406999999998,-0.16150609,-0.5285103,-0.5191656,-0.6519664000000001,-14.408260999999998,-0.011430236000000002,-0.7003965999999999,0.9608747999999999,-2.0677833999999997,-0.85115606,21.0,-0.3096936854547537,-0.14852771074805407,1.1985468463162297,18.720013,2.1097367,-3.0937723999999998,-0.5786534000000001,0
-1.4499999999999997,10.045059,-11.774824,1.8272556,-0.1671501,-0.52511483,-0.51270676,-0.6583673000000001,-14.227825,0.0579739,-0.7164951,0.7630133000000001,-1.7683161,-0.75057656,21.0,-0.3096936854547537,-0.14852771074805407,1.1985468463162297,18.720013,2.1097367,-3.0937723999999998,-0.5786534000000001,0
-1.4399999999999997,9.903688,-11.773914,1.8200131999999998,-0.17172807,-0.5220204,-0.5072234,-0.6638742,-14.046254999999999,0.12346130000000001,-0.7318758000000001,0.5959439999999999,-1.5155915,-0.6549325,21.0,-0.9817499511268633,1.0340417629553078,1.6499337952483497,19.266865,1.7449731,-1.2534301,-0.48621908,0
-1.4299999999999997,9.764137,-11.772367,1.8126203,-0.1750476,-0.51935774,-0.50287133,-0.6683912,-13.863855,0.1856743,-0.74655527,0.35015714,-1.117846,-0.5418321,21.0,-0.9817499511268633,1.0340417629553078,1.6499337952483497,19.266865,1.7449731,-1.2534301,-0.48621908,0
-1.4199999999999997,9.626412,-11.770209,1.8050841,-0.17697020000000002,-0.5172298,-0.49977353,-0.67184955,-13.6809435,0.24544437,-0.76056886,0.14262152,-0.7821765,-0.4342815,21.0,-0.9817499511268633,1.0340417629553078,1.6499337952483497,19.266865,1.7449731,-1.2534301,-0.48621908,0
-1.4099999999999997,9.490518,-11.767463000000001,1.7974111000000002,-0.17774715,-0.51555777,-0.49778429999999996,-0.6744015,-13.497794,0.30357745,-0.77395284,-0.032609202000000004,-0.49889022,-0.33200848,21.0,-0.9817499511268633,1.0340417629553078,1.6499337952483497,19.266865,1.7449731,-1.2534301,-0.48621908,0
-1.3999999999999997,9.356455,-11.76414,1.7896072,-0.1775872,-0.51426935,-0.49677375,-0.6761701999999999,-13.314623000000001,0.3607585,-0.7867383000000001,-0.18055822,-0.25980923,-0.23475398,21.0,-1.4169142705303932,1.6659487496867995,1.4833333164194962,20.063489999999998,0.90562046,-0.40451744,-0.42489314,0
-1.3899999999999997,9.224223,-11.760247999999999,1.7816783,-0.17640986,-0.5133882000000001,-0.4967474,-0.67716664,-13.131611,0.41759545,-0.79895234,-0.37332255,0.04052098,-0.15044695,21.0,-1.4169142705303932,1.6659487496867995,1.4833333164194962,20.063489999999998,0.90562046,-0.40451744,-0.42489314,0
-1.3799999999999997,9.093821,-11.755787,1.7736300999999999,-0.17415608,-0.512927,-0.49769613,-0.67740285,-12.948958,0.47476006,-0.81062037,-0.5360597,0.29399386,-0.07027689999999999,21.0,-1.4169142705303932,1.6659487496867995,1.4833333164194962,20.063489999999998,0.90562046,-0.40451744,-0.42489314,0
-1.3699999999999997,8.965242,-11.750751,1.7654678,-0.17101377,-0.5128098,-0.4994919,-0.6769702,-12.766853999999999,0.5328725000000001,-0.821767,-0.67344326,0.50792265,0.005959211,21.0,-1.4169142705303932,1.6659487496867995,1.4833333164194962,20.063489999999998,0.90562046,-0.40451744,-0.42489314,0
-1.3599999999999997,8.838482,-11.745125999999999,1.7571964,-0.16713974,-0.5129703,-0.50202274,-0.6759432,-12.585464,0.59245324,-0.8324169,-0.7894199000000001,0.6884786999999999,0.07845439,21.0,-1.4169142705303932,1.6659487496867995,1.4833333164194962,20.694395,0.41388866,0.6479191999999999,-0.4354678,0
-1.3499999999999996,8.713531,-11.738895,1.748821,-0.16266493,-0.51335114,-0.50519127,-0.6743832,-12.40494,0.6539376,-0.8425951999999999,-0.8873226000000001,0.8408699000000001,0.1473922,21.0,-1.4169142705303932,1.6659487496867995,1.4833333164194962,20.694395,0.41388866,0.6479191999999999,-0.4354678,0
-1.3399999999999996,8.59038,-11.732039,1.7403461,-0.15769875,-0.513903,-0.50891256,-0.6723414000000001,-12.225422,0.7176876999999999,-0.85232747,-0.9699656999999999,0.9694912,0.21294725,21.0,-1.4169142705303932,1.6659487496867995,1.4833333164194962,20.694395,0.41388866,0.6479191999999999,-0.4354678,0
-1.3299999999999996,8.469017,-11.724533000000001,1.7317759,-0.15233262,-0.5145842,-0.513113,-0.66986054,-12.047044999999999,0.7840037,-0.8616391999999999,-1.0397254999999999,1.0780513,0.27528545,21.0,-1.4169142705303932,1.6659487496867995,1.4833333164194962,20.694395,0.41388866,0.6479191999999999,-0.4354678,0
-1.3199999999999996,8.349434,-11.71635,1.7231145,-0.14664295,-0.5153591,-0.5177286,-0.6669768,-11.869939,0.85313183,-0.87055594,-1.0986093000000001,1.1696806,0.33456472,21.0,-1.5477523968447895,1.7854656856918558,1.4809591524421115,20.162092,-0.001914524,1.236888,-0.46171165,0
-1.3099999999999996,8.231614,-11.707459,1.7143658,-0.14063369,-0.51620245,-0.52273726,-0.6637041,-11.694230000000001,0.9252790000000001,-0.87910163,-1.16872,1.265654,0.39081859999999996,21.0,-1.5477523968447895,1.7854656856918558,1.4809591524421115,20.162092,-0.001914524,1.236888,-0.46171165,0
-1.2999999999999996,8.115544,-11.697832,1.7055335999999999,-0.1343103,-0.5170915,-0.52811587,-0.66005373,-11.52006,1.0006452,-0.8872931999999999,-1.2278972,1.3466605,0.4443121,21.0,-1.5477523968447895,1.7854656856918558,1.4809591524421115,20.162092,-0.001914524,1.236888,-0.46171165,0
-1.2899999999999996,8.001208,-11.687434,1.6966212,-0.12773357,-0.51800233,-0.5338111,-0.65605164,-11.347572,1.0794013999999998,-0.8951466,-1.2778448999999998,1.4150351,0.49518067,21.0,-1.5477523968447895,1.7854656856918558,1.4809591524421115,20.162092,-0.001914524,1.236888,-0.46171165,0
-1.2799999999999996,7.888586999999999,-11.676232,1.6876316999999998,-0.12095437,-0.518915,-0.5397765,-0.65172005,-11.176908500000001,1.1616815,-0.90267855,-1.3200017,1.4727484,0.5435532,21.0,-1.5148193469809048,1.6129232639018654,1.373835404432203,20.361902,-0.8849659,1.8296133,-0.36558622,0
-1.2699999999999996,7.777663,-11.664188000000001,1.6785686000000002,-0.11405439999999999,-0.5197771,-0.54594827,-0.64712,-11.0082035,1.2475826,-0.9099038,-1.3504308,1.4945623,0.5842954,21.0,-1.5148193469809048,1.6129232639018654,1.373835404432203,20.361902,-0.8849659,1.8296133,-0.36558622,0
-1.2599999999999996,7.668416000000001,-11.651269000000001,1.6694348,-0.107099794,-0.52054787,-0.55227274,-0.64230424,-10.841579,1.337142,-0.9168224,-1.3761123,1.5129761999999998,0.6230384,21.0,-1.5148193469809048,1.6129232639018654,1.373835404432203,20.361902,-0.8849659,1.8296133,-0.36558622,0
-1.2499999999999996,7.560824,-11.637433999999999,1.6602332999999998,-0.100108646,-0.52122813,-0.5587261,-0.63727933,-10.677152,1.430369,-0.92343086,-1.3977868999999998,1.5285205,0.6598803000000001,21.0,-1.5148193469809048,1.6129232639018654,1.373835404432203,20.361902,-0.8849659,1.8296133,-0.36558622,0
-1.2399999999999995,7.454865,-11.622649000000001,1.6509671000000001,-0.09309584,-0.52181876,-0.565287,-0.6320515999999999,-10.515033,1.5272611,-0.92972857,-1.4160787000000001,1.5416428,0.6949142,21.0,-1.3614057202567178,1.2877994287756969,1.2135182315633743,21.478185999999997,-1.4321609,1.9913971000000001,-0.48656538,0
-1.2299999999999995,7.350515,-11.606877,1.6416396,-0.08617585,-0.52227587,-0.57188094,-0.6267010000000001,-10.355325,1.6277926,-0.9357139999999999,-1.4075594999999999,1.5020365,0.72036225,21.0,-1.3614057202567178,1.2877994287756969,1.2135182315633743,21.478185999999997,-1.4321609,1.9913971000000001,-0.48656538,0
-1.2199999999999995,7.24775,-11.590082,1.6322538999999998,-0.07943914,-0.52256835,-0.5784484000000001,-0.6212966999999999,-10.198091999999999,1.7318637,-0.94137114,-1.4003695,1.4686073999999998,0.74456155,21.0,-1.3614057202567178,1.2877994287756969,1.2135182315633743,21.478185999999997,-1.4321609,1.9913971000000001,-0.48656538,0
-1.2099999999999995,7.146544500000001,-11.572227999999999,1.6228133,-0.072864264,-0.52271396,-0.58499205,-0.61582917,-10.043386,1.8393581,-0.9466817,-1.394301,1.4403926,0.76757336,21.0,-1.3614057202567178,1.2877994287756969,1.2135182315633743,21.478185999999997,-1.4321609,1.9913971000000001,-0.48656538,0
-1.1999999999999995,7.046873,-11.553283,1.6133214,-0.06643274,-0.52272755,-0.5915134,-0.6102908,-9.891259,1.9501686000000003,-0.95163023,-1.3891795,1.4165785,0.78945595,21.0,-1.1548222191568238,0.9420274445256829,0.9805508802589302,21.788166,-2.3755290000000002,3.3352894999999996,-0.51205575,0
-1.1899999999999995,6.9487104,-11.533215,1.603782,-0.060246035,-0.52258885,-0.5979437,-0.6047603,-9.741754,2.0641835,-0.9562021999999999,-1.3526018999999998,1.3425831,0.798833,21.0,-1.1548222191568238,0.9420274445256829,0.9805508802589302,21.788166,-2.3755290000000002,3.3352894999999996,-0.51205575,0
-1.1799999999999995,6.852029300000001,-11.511991,1.5941988,-0.05438202,-0.52228624,-0.60422933,-0.5993054,-9.594864999999999,2.181229,-0.9603744000000001,-1.3217333999999998,1.2801248,0.80775,21.0,-1.1548222191568238,0.9420274445256829,0.9805508802589302,21.788166,-2.3755290000000002,3.3352894999999996,-0.51205575,0
-1.1699999999999995,6.756803999999999,-11.48958,1.5845759,-0.048793856,-0.52184194,-0.6103900999999999,-0.593906,-9.450572,2.3011293,-0.96412313,-1.295683,1.2274052,0.8162294,21.0,-1.1548222191568238,0.9420274445256829,0.9805508802589302,21.788166,-2.3755290000000002,3.3352894999999996,-0.51205575,0
-1.1599999999999995,6.663009,-11.465959,1.5749178999999998,-0.043441724,-0.52127445,-0.61644226,-0.58854485,-9.308862,2.42373,-0.9674275,-1.2736986000000001,1.1829058000000001,0.8242927999999999,21.0,-1.1548222191568238,0.9420274445256829,0.9805508802589302,21.7614,-2.4080197999999995,3.703229,-0.8328075999999999,0
-1.1499999999999995,6.5706186,-11.441098,1.565229,-0.038291734,-0.52059877,-0.6223988,-0.5832071999999999,-9.169725,2.5488942000000003,-0.9702695,-1.2551454,1.1453445,0.83196044,21.0,-1.1548222191568238,0.9420274445256829,0.9805508802589302,21.7614,-2.4080197999999995,3.703229,-0.8328075999999999,0
-1.1399999999999995,6.4796057000000005,-11.414973,1.5555141000000001,-0.033315063,-0.5198274,-0.6282704000000001,-0.5778808000000001,-9.033161,2.6765017999999996,-0.9726336,-1.2394881000000002,1.11364,0.8392519,21.0,-1.1548222191568238,0.9420274445256829,0.9805508802589302,21.7614,-2.4080197999999995,3.703229,-0.8328075999999999,0
-1.1299999999999994,6.3899465,-11.38756,1.5457782,-0.028487198,-0.5189705,-0.6340655,-0.5725551,-8.899168,2.8064442,-0.974506,-1.2262746999999998,1.0868787,0.84618545,21.0,-1.1548222191568238,0.9420274445256829,0.9805508802589302,21.7614,-2.4080197999999995,3.703229,-0.8328075999999999,0
-1.1199999999999994,6.301614,-11.358836,1.5360258999999998,-0.02378729,-0.5180365,-0.639791,-0.56722146,-8.76775,2.9386240000000003,-0.9758752,-1.2151239999999999,1.06429,0.8527788000000001,21.0,-0.916811720885396,0.5772081110151096,0.7601337404613606,21.768566,-2.1165535,3.3609896,-0.7170859,0
-1.1099999999999994,6.2145824,-11.32878,1.5262624,-0.01933107,-0.5170122,-0.6453849,-0.561964,-8.638902999999999,3.07294,-0.9767292999999999,-1.1685572,0.98835915,0.8482327,21.0,-0.916811720885396,0.5772081110151096,0.7601337404613606,21.768566,-2.1165535,3.3609896,-0.7170859,0
-1.0999999999999994,6.128826999999999,-11.297371,1.5164931000000001,-0.015207654,-0.5158904000000001,-0.6507993000000001,-0.55685407,-8.512561999999999,3.2092347,-0.97704947,-1.1292594999999999,0.92426527,0.84390956,21.0,-0.916811720885396,0.5772081110151096,0.7601337404613606,21.768566,-2.1165535,3.3609896,-0.7170859,0
-1.0899999999999994,6.044323,-11.264588999999999,1.5067233999999998,-0.011364781000000001,-0.5146857,-0.65605783,-0.55186766,-8.388649000000001,3.3473482000000003,-0.97681636,-1.0960961999999999,0.8701629999999999,0.8397986999999999,21.0,-0.916811720885396,0.5772081110151096,0.7601337404613606,21.768566,-2.1165535,3.3609896,-0.7170859,0
-1.0799999999999994,5.961046700000001,-11.230419,1.4969589,-0.007758260699999999,-0.51340955,-0.6611803,-0.5469839,-8.267097,3.4871437999999997,-0.9760128,-1.0681098999999998,0.82449484,0.8358895000000001,21.0,-0.7127518911692803,0.2512952995144849,0.5401485372063164,21.657415,-2.2678015,3.1654902000000003,-0.7034144,0
-1.0699999999999994,5.8789735,-11.194842,1.4872051000000002,-0.0044677975,-0.512055,-0.6661258000000001,-0.5422699000000001,-8.147843,3.6284919,-0.97462255,-1.0126363,0.7351444,0.82137746,21.0,-0.7127518911692803,0.2512952995144849,0.5401485372063164,21.657415,-2.2678015,3.1654902000000003,-0.7034144,0
-1.0599999999999994,5.798082,-11.1578455,1.4774684,-0.0015529572,-0.5106189,-0.6708629,-0.53778183,-8.030769,3.7712260000000004,-0.97262275,-0.9658234,0.6597221,0.80757743,21.0,-0.7127518911692803,0.2512952995144849,0.5401485372063164,21.657415,-2.2678015,3.1654902000000003,-0.7034144,0
-1.0499999999999994,5.7183514,-11.119414,1.4677548,0.0010478077,-0.509115,-0.67541933,-0.5334885,-7.915754300000001,3.9151847,-0.96999085,-0.92631835,0.5960569,0.79445463,21.0,-0.7127518911692803,0.2512952995144849,0.5401485372063164,21.657415,-2.2678015,3.1654902000000003,-0.7034144,0
-1.0399999999999994,5.6397605,-11.079537,1.4580708,0.0033863871000000003,-0.50755394,-0.6798181999999999,-0.52936304,-7.8026957999999995,4.060232,-0.96670747,-0.8929806999999998,0.54231626,0.78197575,21.0,-0.5713436951876077,-0.006973106692924821,0.3169487198784866,19.657598,-2.2020327999999996,2.0640855,-0.20173284,0
-1.0299999999999994,5.562291,-11.038206,1.4484229,0.0054201996,-0.50592846,-0.68403625,-0.525454,-7.691496400000001,4.206245,-0.9627544,-0.8427711999999999,0.45669308,0.75915676,21.0,-0.5713436951876077,-0.006973106692924821,0.3169487198784866,19.657598,-2.2020327999999996,2.0640855,-0.20173284,0
-1.0199999999999994,5.485925,-10.995410000000001,1.4388181,0.007119369699999999,-0.5042343,-0.68805546,-0.5218018,-7.582028,4.353076000000001,-0.9581072,-0.80040085,0.38441688,0.73745745,21.0,-0.5713436951876077,-0.006973106692924821,0.3169487198784866,19.657598,-2.2020327999999996,2.0640855,-0.20173284,0
-1.0099999999999993,5.4106455,-10.951141,1.4292633999999997,0.008541235999999999,-0.5024831,-0.69190055,-0.51837415,-7.474162,4.5005875,-0.95274174,-0.7646458,0.3234073,0.716823,21.0,-0.5713436951876077,-0.006973106692924821,0.3169487198784866,19.657598,-2.2020327999999996,2.0640855,-0.20173284,0
-0.9999999999999991,5.3364367,-10.905396000000001,1.419766,0.009733997,-0.50068426,-0.6955924,-0.51514286,-7.367789299999999,4.6486626,-0.94663835,-0.7344728,0.27190820000000004,0.6972010000000001,21.0,-0.33391680126641105,-0.11581614635234293,0.1358632170164031,20.213198000000002,-2.3547666,2.0454836,-0.1901389,0
-0.9899999999999991,5.2632847,-10.858168,1.4103333999999998,0.010670165,-0.49888885,-0.6990901999999999,-0.51212233,-7.2628083,4.7972007,-0.9397844000000001,-0.67197514,0.2114831,0.66965604,21.0,-0.33391680126641105,-0.11581614635234293,0.1358632170164031,20.213198000000002,-2.3547666,2.0454836,-0.1901389,0
-0.9799999999999991,5.191176400000001,-10.809452,1.4009728000000001,0.011331559,-0.49713877,-0.70236224,-0.5093253,-7.1590834,4.946097,-0.93219244,-0.6192303000000001,0.1604745,0.6434626999999999,21.0,-0.33391680126641105,-0.11581614635234293,0.1358632170164031,20.213198000000002,-2.3547666,2.0454836,-0.1901389,0
-0.9699999999999993,5.1200995,-10.759246000000001,1.3916919,0.011767857,-0.49542782,-0.7054366999999999,-0.5067269,-7.056482300000001,5.0952597,-0.923881,-0.574716,0.11741544,0.61855465,21.0,-0.33391680126641105,-0.11581614635234293,0.1358632170164031,20.213198000000002,-2.3547666,2.0454836,-0.1901389,0
-0.9599999999999993,5.0500435999999995,-10.707546,1.3824976999999998,0.012020639,-0.49375042,-0.70833766,-0.50430554,-6.954892,5.244611,-0.91486615,-0.53714776,0.08106652,0.59486884,21.0,-0.33391680126641105,-0.11581614635234293,0.1358632170164031,19.893625,-2.6945221,2.0060368000000004,-0.024108442999999997,0
-0.9499999999999993,4.980999,-10.654354,1.373397,0.012124677,-0.49210167,-0.71108556,-0.50204235,-6.8542175,5.394086,-0.9051619000000001,-0.5054414,0.050382514,0.5723453000000001,21.0,-0.33391680126641105,-0.11581614635234293,0.1358632170164031,19.893625,-2.6945221,2.0060368000000004,-0.024108442999999997,0
-0.9399999999999993,4.9129567000000005,-10.599667,1.3643967,0.012109005,-0.4904772,-0.71369785,-0.49992126,-6.754376400000001,5.543629599999999,-0.8947803,-0.47868240000000006,0.024480645,0.5509270000000001,21.0,-0.33391680126641105,-0.11581614635234293,0.1358632170164031,19.893625,-2.6945221,2.0060368000000004,-0.024108442999999997,0
-0.9299999999999993,4.845909,-10.543484,1.3555034,0.011997833000000001,-0.48887318,-0.7161894,-0.49792790000000003,-6.655299,5.693196299999999,-0.88373184,-0.45609832,0.0026156777,0.53055966,21.0,-0.33391680126641105,-0.11581614635234293,0.1358632170164031,19.893625,-2.6945221,2.0060368000000004,-0.024108442999999997,0
-0.9199999999999993,4.779849,-10.4858055,1.3467242,0.011811314,-0.48728624,-0.7185731,-0.49605,-6.556926299999999,5.8427467,-0.8720257,-0.43703806,-0.0158416,0.5111918,21.0,-0.13104580935564109,-0.23320891780489236,0.014011851066439677,19.77299,-2.9861772,1.5362931,0.05685171,0
-0.9099999999999993,4.7147684000000005,-10.426632000000001,1.3380651000000001,0.011499516000000001,-0.48574862,-0.7208138000000001,-0.49431148,-6.459199400000001,5.992245,-0.8596729999999999,-0.3893083,-0.049717557,0.486795,21.0,-0.13104580935564109,-0.23320891780489236,0.014011851066439677,19.77299,-2.9861772,1.5362931,0.05685171,0
-0.8999999999999992,4.650663,-10.365963,1.3295329,0.011024546999999999,-0.48428604,-0.72288376,-0.49273205,-6.3620257,6.1416445,-0.84670097,-0.34902453,-0.07831495,0.46359540000000005,21.0,-0.13104580935564109,-0.23320891780489236,0.014011851066439677,19.77299,-2.9861772,1.5362931,0.05685171,0
-0.8899999999999992,4.5875262999999995,-10.3038,1.3211333,0.010417875,-0.48288718,-0.72480345,-0.4912959,-6.2653093,6.290901,-0.8331388000000001,-0.31502497,-0.10245572,0.44153420000000004,21.0,-0.13104580935564109,-0.23320891780489236,0.014011851066439677,19.77299,-2.9861772,1.5362931,0.05685171,0
-0.8799999999999992,4.5253553,-10.240145,1.3128722,0.009705752,-0.48154226,-0.72659045,-0.48998925,-6.1689696,6.439977,-0.81901175,-0.28632936,-0.12283427,0.42055553,21.0,0.17674744782312762,-0.3798567027638733,-0.012536212499371195,18.605925,-3.4270197999999996,1.161841,0.22889146,0
-0.8699999999999992,4.4641459999999995,-10.175001,1.3047549999999999,0.008808652,-0.48030388,-0.7281994,-0.48883180000000004,-6.072927,6.588839,-0.80434686,-0.21410392,-0.16289409,0.3993036,21.0,0.17674744782312762,-0.3798567027638733,-0.012536212499371195,18.605925,-3.4270197999999996,1.161841,0.22889146,0
-0.8599999999999992,4.4038962999999995,-10.108369999999999,1.2967868999999999,0.0076646846999999995,-0.47921359999999996,-0.72959554,-0.48783845,-5.97705,6.737439999999999,-0.78919804,-0.15314454,-0.19671133,0.37909448,21.0,0.17674744782312762,-0.3798567027638733,-0.012536212499371195,18.605925,-3.4270197999999996,1.161841,0.22889146,0
-0.8499999999999992,4.3446050000000005,-10.040254,1.2889726000000001,0.006317616,-0.47824878,-0.7308066,-0.48699117,-5.881204,6.885734599999999,-0.7736218,-0.10169377,-0.22525893,0.35987702,21.0,0.17674744782312762,-0.3798567027638733,-0.012536212499371195,18.605925,-3.4270197999999996,1.161841,0.22889146,0
-0.8399999999999992,4.2862725,-9.970656,1.2813158000000002,0.004804113,-0.47739008,-0.7318561,-0.48627433,-5.785277400000001,7.0336857,-0.7576666999999999,-0.058268227,-0.24935761,0.34160256,21.0,0.3094125129082107,-0.4700707676110635,-0.06867766221263229,17.336536,-3.4863803,1.3894446000000003,0.42394862,0
-0.8299999999999992,4.228899500000001,-9.899581,1.2738203000000001,0.003105945,-0.47664228,-0.7327355999999999,-0.4856969,-5.689169000000001,7.181259599999999,-0.7413764,-0.0009244736,-0.28376496,0.32147,21.0,0.3094125129082107,-0.4700707676110635,-0.06867766221263229,17.336536,-3.4863803,1.3894446000000003,0.42394862,0
-0.8199999999999992,4.1724896000000005,-9.827032,1.2664891,0.001210473,-0.4760084,-0.73343873,-0.48526546,-5.592763400000001,7.328417,-0.72479945,0.0474746,-0.31280982,0.30232529999999996,21.0,0.3094125129082107,-0.4700707676110635,-0.06867766221263229,17.336536,-3.4863803,1.3894446000000003,0.42394862,0
-0.8099999999999992,4.117046,-9.753015,1.2593251,-0.0008465890400000001,-0.4754705,-0.7339872,-0.48496404,-5.495953,7.475119599999999,-0.7079816,0.08832443,-0.33732763,0.28412008,21.0,0.3094125129082107,-0.4700707676110635,-0.06867766221263229,17.336536,-3.4863803,1.3894446000000003,0.42394862,0
-0.7999999999999992,4.0625725,-9.677532000000001,1.2523303,-0.0030353405,-0.47501352,-0.73439956,-0.48477876,-5.3986472999999995,7.6213355,-0.69096243,0.12280285,-0.35802394,0.26680820000000005,20.999999877075158,-0.2433358586573901,-0.13856351028571867,-0.18901889161196775,16.717505,-3.1747767999999996,2.6453667000000003,1.139448,0
-0.7899999999999991,4.009075,-9.600589999999999,1.2455063999999998,-0.00511905,-0.47452652,-0.7347899,-0.48464653,-5.300791,7.7670449999999995,-0.6737678,0.06569301,-0.32381016,0.24444063,20.999999877075158,-0.2433358586573901,-0.13856351028571867,-0.18901889161196775,16.717505,-3.1747767999999996,2.6453667000000003,1.139448,0
-0.7799999999999991,3.9565585,-9.522193,1.2388555,-0.006908024699999999,-0.47392136,-0.73524976,-0.48451906,-5.202460299999999,7.912273,-0.6563688,0.017491365,-0.29492885,0.22317064,20.999999877075158,-0.2433358586573901,-0.13856351028571867,-0.18901889161196775,16.717505,-3.1747767999999996,2.6453667000000003,1.139448,0
-0.7699999999999991,3.9050272000000006,-9.442346,1.2323798000000001,-0.008442716,-0.47321660000000004,-0.73576283,-0.48440474,-5.1037617,8.057053999999999,-0.63872284,-0.023191549,-0.27054948,0.20294435,20.999999877075158,-0.2433358586573901,-0.13856351028571867,-0.18901889161196775,16.717505,-3.1747767999999996,2.6453667000000003,1.139448,0
-0.7599999999999991,3.8544843,-9.361053,1.226082,-0.00975755,-0.47242796,-0.7363155,-0.48431009999999997,-5.004785,8.201417999999999,-0.62079376,-0.057528682000000005,-0.24997012,0.18371059,20.999999877075158,-0.2433358586573901,-0.13856351028571867,-0.18901889161196775,16.298082,-3.7968050000000004,2.3591254,1.3560389,0
-0.7499999999999991,3.8049324,-9.278317999999999,1.219965,-0.010881857,-0.47156858,-0.73689646,-0.4842401,-4.9056053,8.345388,-0.6025505999999999,-0.08651015,-0.23259883,0.16542064,20.999999877075158,-0.2433358586573901,-0.13856351028571867,-0.18901889161196775,16.298082,-3.7968050000000004,2.3591254,1.3560389,0
-0.7399999999999989,3.7563727,-9.194147000000001,1.214032,-0.011840645,-0.4706496,-0.7374963000000001,-0.48419854,-4.8062863,8.488987,-0.58396745,-0.11097128,-0.21793541,0.14802817,20.999999877075158,-0.2433358586573901,-0.13856351028571867,-0.18901889161196775,16.298082,-3.7968050000000004,2.3591254,1.3560389,0
-0.7299999999999989,3.7088068,-9.1085415,1.2082868999999998,-0.0126552675,-0.46968034,-0.7381073,-0.48418808,-4.706881,8.632232,-0.565022,-0.13161704,-0.205558,0.13148919,20.999999877075158,-0.2433358586573901,-0.13856351028571867,-0.18901889161196775,16.298082,-3.7968050000000004,2.3591254,1.3560389,0
-0.7199999999999989,3.662235,-9.021504,1.202733,-0.013343981999999999,-0.4686687,-0.7387232,-0.4842107,-4.607435,8.775135,-0.54569566,-0.14904235,-0.1951102,0.11576177,20.999999573653188,-1.2156567855003266,0.0565064517597201,-0.2752079422072542,12.996616,-4.7332163000000005,0.5465951,2.0004008,0
-0.7099999999999989,3.616658,-8.93304,1.1973745,-0.013671332,-0.46737152,-0.73951674,-0.48424409999999996,-4.508017,8.917712,-0.5259501999999999,-0.31538504,-0.15587936,0.09657678,20.999999573653188,-1.2156567855003266,0.0565064517597201,-0.2752079422072542,12.996616,-4.7332163000000005,0.5465951,2.0004008,0
-0.6999999999999991,3.5720737000000002,-8.843150999999999,1.192216,-0.013450941000000001,-0.4655956,-0.7406225000000001,-0.48427109999999995,-4.408853,9.059984,-0.50562376,-0.45578563,-0.12276151,0.0783332,20.999999573653188,-1.2156567855003266,0.0565064517597201,-0.2752079422072542,12.996616,-4.7332163000000005,0.5465951,2.0004008,0
-0.6899999999999991,3.5284786,-8.751841,1.1872646,-0.012763479,-0.46341366,-0.7419836999999999,-0.48429890000000003,-4.3101954000000005,9.201974,-0.48453638,-0.5742897,-0.094804525,0.060984845999999995,20.999999573653188,-1.2156567855003266,0.0565064517597201,-0.2752079422072542,12.996616,-4.7332163000000005,0.5465951,2.0004008,0
-0.679999999999999,3.4858667999999997,-8.659111,1.1825284,-0.011677298000000001,-0.46088670000000004,-0.7435519,-0.4843327,-4.212258,9.343694000000001,-0.46253815,-0.6743123000000001,-0.071204364,0.044487767000000004,20.999997745303034,-2.7392107275673854,0.31922947600992146,-0.18010053860174238,13.902436999999999,-5.265871,0.15416835,2.3470266,0
-0.669999999999999,3.44423,-8.564967,1.1780173999999999,-0.009882213,-0.45766217,-0.745572,-0.48432502,-4.1152678,9.485153,-0.4394696,-0.99633396,-0.010318745,0.033467155,20.999997745303034,-2.7392107275673854,0.31922947600992146,-0.18010053860174238,13.902436999999999,-5.265871,0.15416835,2.3470266,0
-0.659999999999999,3.4035566,-8.469408999999999,1.1737438,-0.007136093499999999,-0.45345798,-0.748228,-0.48423174,-4.0196867,9.626362,-0.41499683,-1.2681354999999999,0.041076742,0.022987315,20.999997745303034,-2.7392107275673854,0.31922947600992146,-0.18010053860174238,13.902436999999999,-5.265871,0.15416835,2.3470266,0
-0.649999999999999,3.3638296000000003,-8.37244,1.1697235000000001,-0.0035842421999999997,-0.44841498,-0.75139785,-0.4840589,-3.9260025,9.767315,-0.38877884,-1.4975489,0.08446087,0.013021735,20.999997745303034,-2.7392107275673854,0.31922947600992146,-0.18010053860174238,13.902436999999999,-5.265871,0.15416835,2.3470266,0
-0.639999999999999,3.3250284,-8.274063,1.1659753000000002,0.00065033324,-0.44265074,-0.754976,-0.48380968,-3.8346367,9.907993,-0.36054152,-1.6911851000000002,0.12108172,0.0035451758,20.20628958581699,-4.287270239483536,0.3867511970826301,0.176589781177703,14.285219,-5.686706,0.3015158,2.4263065,0
-0.629999999999999,3.2871108,-8.174307,1.1624963,0.0057640155000000005,-0.43580678,-0.759163,-0.48343703,-3.7493502999999997,10.043053,-0.334893,-2.0960438000000003,0.16250044,0.012036526,20.20628958581699,-4.287270239483536,0.3867511970826301,0.176589781177703,14.285219,-5.686706,0.3015158,2.4263065,0
-0.619999999999999,3.2500303,-8.073203,1.1592863000000002,0.011903873999999998,-0.4275934,-0.7640968,-0.48288590000000003,-3.6672818999999994,10.177717,-0.30666742,-2.4377656,0.19745666,0.020111203,20.20628958581699,-4.287270239483536,0.3867511970826301,0.176589781177703,14.285219,-5.686706,0.3015158,2.4263065,0
-0.6099999999999992,3.2137518,-7.9707555999999995,1.1563729999999999,0.018906936000000003,-0.41819343,-0.76960593,-0.48214525,-3.589035,10.311860000000001,-0.27549850000000004,-2.7261963,0.22695968,0.027789643,20.20628958581699,-4.287270239483536,0.3867511970826301,0.176589781177703,14.285219,-5.686706,0.3015158,2.4263065,0
-0.5999999999999992,3.1782342999999997,-7.8669686,1.1537872999999998,0.026634855,-0.40776068,-0.7755418000000001,-0.481204,-3.5151412000000004,10.4453335,-0.24111697,-2.9696462,0.2518604,0.035091326,19.017933781596774,-4.735972138355869,0.4681250732426124,1.2727367283701239,15.865129000000001,-5.831546,0.95076036,2.91735,0
-0.5899999999999992,3.1434119,-7.761889999999999,1.1515223999999997,0.035026617,-0.39630437,-0.7819118,-0.47992745,-3.4501452000000006,10.5701685,-0.21132179,-3.2451157999999998,0.28545263,0.095822945,19.017933781596774,-4.735972138355869,0.4681250732426124,1.2727367283701239,15.865129000000001,-5.831546,0.95076036,2.91735,0
-0.5799999999999992,3.1092142999999997,-7.6555675999999995,1.1495723,0.04402054,-0.383837,-0.7887137,-0.47818667,-3.3901794,10.694028999999999,-0.17816788,-3.4776273,0.31379527,0.15357445,19.017933781596774,-4.735972138355869,0.4681250732426124,1.2727367283701239,15.865129000000001,-5.831546,0.95076036,2.91735,0
-0.5699999999999992,3.0755894,-7.548013,1.1479708,0.0535071,-0.37048402,-0.79581475,-0.47598103,-3.335691,10.816705,-0.14156084,-3.6738796000000002,0.33771217,0.20849209,19.017933781596774,-4.735972138355869,0.4681250732426124,1.2727367283701239,15.865129000000001,-5.831546,0.95076036,2.91735,0
-0.5599999999999992,3.0424802000000004,-7.439238499999999,1.1467530000000001,0.06339335,-0.35635322,-0.8031007,-0.47331116,-3.2870708,10.937968,-0.10147462,-3.8395271,0.35789725,0.26071489999999997,19.017933781596774,-4.735972138355869,0.4681250732426124,1.2727367283701239,17.20725,-5.9980583,0.8761728000000001,3.1852505,0
-0.5499999999999992,3.0098267000000005,-7.3292594,1.1459532,0.07360034,-0.34153792,-0.8104734,-0.47017896,-3.2446585,11.057572,-0.057942315999999994,-3.9793425000000004,0.37493497,0.31037509999999996,19.017933781596774,-4.735972138355869,0.4681250732426124,1.2727367283701239,17.20725,-5.9980583,0.8761728000000001,3.1852505,0
-0.5399999999999991,2.9775647999999997,-7.218094000000001,1.1456057,0.08406092,-0.32611915,-0.8178486999999999,-0.4665878,-3.2087474,11.175261500000001,-0.011048019,-4.097353,0.38931802,0.35759848,19.017933781596774,-4.735972138355869,0.4681250732426124,1.2727367283701239,17.20725,-5.9980583,0.8761728000000001,3.1852505,0
-0.5299999999999991,2.9456284,-7.1057619999999995,1.1457434,0.094717905,-0.31016776,-0.8251543,-0.46254233,-3.1795869999999997,11.290767,0.039080285,-4.19696,0.401462,0.4025046,19.017933781596774,-4.735972138355869,0.4681250732426124,1.2727367283701239,17.20725,-5.9980583,0.8761728000000001,3.1852505,0
-0.5199999999999991,2.913949,-6.992286999999999,1.1463978000000001,0.105522506,-0.29374602,-0.8323284,-0.4580483,-3.1573846000000003,11.403813000000001,0.09227691,-4.2810326,0.41171697,0.44520718,17.858660563137203,-5.1333257290136345,0.4223546813265717,1.4680816624481845,18.848696,-6.082174299999999,-0.9972049999999999,3.0442748,0
-0.5099999999999991,2.8824513,-6.8777289999999995,1.1475518999999998,0.11648301,-0.27676973,-0.8393746999999999,-0.4530792,-3.1432387999999998,11.507392,0.13895175,-4.4139614,0.41319332,0.49539992,17.858660563137203,-5.1333257290136345,0.4223546813265717,1.4680816624481845,18.848696,-6.082174299999999,-0.9972049999999999,3.0442748,0
-0.4999999999999991,2.8510606,-6.7621484,1.1491854,0.1276006,-0.25917447,-0.8462834,-0.44760649999999996,-3.1359851,11.608086,0.18814813,-4.5261593,0.41444522,0.5431296999999999,17.858660563137203,-5.1333257290136345,0.4223546813265717,1.4680816624481845,18.848696,-6.082174299999999,-0.9972049999999999,3.0442748,0
-0.4899999999999989,2.8197074,-6.6455774000000005,1.1513228000000002,0.13882692,-0.24103922,-0.8529863999999999,-0.44163543,-3.1357880000000002,11.705573,0.23966084,-4.620858999999999,0.41550875,0.58851737,17.858660563137203,-5.1333257290136345,0.4223546813265717,1.4680816624481845,18.848696,-6.082174299999999,-0.9972049999999999,3.0442748,0
-0.47999999999999887,2.78832,-6.528049,1.153986,0.15012057,-0.22243373,-0.8594255,-0.43517269999999997,-3.142769,11.799536,0.29325098,-4.7007904,0.4164137,0.6316778000000001,17.05128771389441,-5.261659584725615,0.40640244772739625,1.6213439548505946,19.288023000000003,-6.013614,-1.4072216,2.9418293999999996,0
-0.46999999999999886,2.7568297000000004,-6.4096203,1.1571593999999998,0.16145839999999997,-0.20337549,-0.86557025,-0.42820343,-3.1563673,11.885584,0.34171283,-4.78827,0.41466495,0.68024105,17.05128771389441,-5.261659584725615,0.40640244772739625,1.6213439548505946,19.288023000000003,-6.013614,-1.4072216,2.9418293999999996,0
-0.45999999999999885,2.7251687,-6.2903514000000005,1.1608253000000002,0.17281835,-0.18388416,-0.87139004,-0.42071396,-3.176956,11.967653,0.3916329,-4.8621063,0.41319734,0.7264213,17.05128771389441,-5.261659584725615,0.40640244772739625,1.6213439548505946,19.288023000000003,-6.013614,-1.4072216,2.9418293999999996,0
-0.44999999999999885,2.6932664,-6.170283,1.1649962999999999,0.1841688,-0.16402124,-0.8768383,-0.41271505,-3.20456,12.04544,0.44271943,-4.9244275,0.41196752,0.77033544,17.05128771389441,-5.261659584725615,0.40640244772739625,1.6213439548505946,19.288023000000003,-6.013614,-1.4072216,2.9418293999999996,0
-0.43999999999999884,2.6610534,-6.049459,1.1696826,0.19548236,-0.14384164,-0.88187516,-0.40421867,-3.2391658,12.118642999999999,0.49466157,-4.9770293,0.41093782,0.8120947,16.528074093523585,-5.0972502222106275,0.7218196887663386,2.346317651335111,18.369685999999998,-6.094626,-0.89491916,2.3274724,0
-0.4299999999999988,2.6284657000000005,-5.9279375,1.1748681,0.20680799,-0.123521164,-0.8864684000000002,-0.3951545,-3.2794497000000002,12.184894,0.54250836,-4.995826,0.45916465,0.8873794,16.528074093523585,-5.0972502222106275,0.7218196887663386,2.346317651335111,18.369685999999998,-6.094626,-0.89491916,2.3274724,0
-0.4199999999999988,2.5954412999999996,-5.805778,1.1805332,0.21818481,-0.103207536,-0.8905965,-0.38546318,-3.3264055,12.246233,0.59050757,-5.011689700000001,0.49988246,0.95896995,16.528074093523585,-5.0972502222106275,0.7218196887663386,2.346317651335111,18.369685999999998,-6.094626,-0.89491916,2.3274724,0
-0.4099999999999988,2.5619147,-5.6830300000000005,1.1866775,0.2295771,-0.082909524,-0.89424074,-0.3751724,-3.3799352999999996,12.302480000000001,0.63829494,-5.025078,0.5342621999999999,1.0270475000000001,16.528074093523585,-5.0972502222106275,0.7218196887663386,2.346317651335111,18.369685999999998,-6.094626,-0.89491916,2.3274724,0
-0.3999999999999988,2.5278202999999997,-5.559746,1.1932969999999998,0.24095370000000002,-0.062636934,-0.897384,-0.36430815,-3.4399111,12.353455,0.68551075,-5.0363765,0.5632915,1.0917846000000002,16.81418085327815,-5.217400346997144,2.4830375350789082,4.9388781456336215,17.180122,-5.4508980000000005,-0.5942712,2.1857938999999997,0
-0.3899999999999988,2.4930567999999997,-5.4359519999999995,1.2004683,0.25270832,-0.04218644,-0.90005225,-0.3525129,-3.5136397000000006,12.404092,0.74798864,-5.2171607,0.70958513,1.2659675,16.81418085327815,-5.217400346997144,2.4830375350789082,4.9388781456336215,17.180122,-5.4508980000000005,-0.5942712,2.1857938999999997,0
-0.3799999999999988,2.4575264,-5.311687999999999,1.2082448000000001,0.26515797,-0.021449858,-0.9022196,-0.33945770000000003,-3.593345,12.44778,0.8067286,-5.3541756,0.8486851000000001,1.4339551000000001,16.81418085327815,-5.217400346997144,2.4830375350789082,4.9388781456336215,17.180122,-5.4508980000000005,-0.5942712,2.1857938999999997,0
-0.3699999999999988,2.421169,-5.187021,1.2165898000000002,0.27820423,-0.00063220505,-0.9037869000000001,-0.32522574,-3.6790748,12.484538,0.86163306,-5.448195,0.98778427,1.5956344999999998,16.81418085327815,-5.217400346997144,2.4830375350789082,4.9388781456336215,17.180122,-5.4508980000000005,-0.5942712,2.1857938999999997,0
-0.35999999999999877,2.3839252,-5.062021700000001,1.2254624,0.29177159999999996,0.02007756,-0.9046696,-0.3099028,-3.7705655,12.514303,0.91215295,-5.5051440000000005,1.1276688999999998,1.7513849,16.81418085327815,-5.217400346997144,2.4830375350789082,4.9388781456336215,16.642317000000002,-5.0491877,-0.3586667,2.2231438,0
-0.34999999999999876,2.3457391,-4.9367589999999995,1.2348161,0.30580038,0.040512785,-0.90479773,-0.29357526,-3.8674714999999997,12.537077,0.95777386,-5.530153,1.2688708,1.9015555,16.81418085327815,-5.217400346997144,2.4830375350789082,4.9388781456336215,16.642317000000002,-5.0491877,-0.3586667,2.2231438,0
-0.33999999999999875,2.3065583999999997,-4.811304,1.2445993,0.32024407,0.060527314000000006,-0.9041140999999999,-0.27633023,-3.9693843999999996,12.5529175,0.99802375,-5.52767,1.41172,2.046468,16.81418085327815,-5.217400346997144,2.4830375350789082,4.9388781456336215,16.642317000000002,-5.0491877,-0.3586667,2.2231438,0
-0.32999999999999874,2.2663355,-4.6857242999999995,1.2547565,0.33506665,0.07999384400000001,-0.9025719999999999,-0.25825512,-4.07585,12.561944,1.0324783000000002,-5.5015554,1.5563875,2.1864185000000003,16.81418085327815,-5.217400346997144,2.4830375350789082,4.9388781456336215,16.642317000000002,-5.0491877,-0.3586667,2.2231438,0
-0.31999999999999873,2.2250267999999997,-4.5600879999999995,1.2652283000000002,0.35023758,0.0988076,-0.9001344000000001,-0.23943543,-4.186646,12.56432,1.0610586000000002,-5.459484,1.6985866000000003,2.3213060000000003,15.575762952169907,-4.675471389144301,1.6114571114268037,5.1415207395044975,16.796823999999997,-4.457315400000001,-0.66137576,1.7623936000000002,0
-0.3099999999999987,2.182619,-4.434459700000001,1.275925,0.36528388,0.11690985400000001,-0.8969577,-0.21992536,-4.2954397,12.560419,1.0773343,-5.3595967,1.6623881,2.4576860000000003,15.575762952169907,-4.675471389144301,1.6114571114268037,5.1415207395044975,16.796823999999997,-4.457315400000001,-0.66137576,1.7623936000000002,0
-0.2999999999999987,2.1391080000000002,-4.3089,1.2867544,0.37985012,0.13422568,-0.8931880999999999,-0.19978188,-4.407287999999999,12.550483999999999,1.0876468000000001,-5.256444999999999,1.6507460999999999,2.589066,15.575762952169907,-4.675471389144301,1.6114571114268037,5.1415207395044975,16.796823999999997,-4.457315400000001,-0.66137576,1.7623936000000002,0
-0.2899999999999987,2.094461,-4.18347,1.297661,0.39401764,0.15074457,-0.88879925,-0.17906028,-4.522668,12.534507000000001,1.0929246000000001,-5.165966,1.6443491999999997,2.7143157,15.575762952169907,-4.675471389144301,1.6114571114268037,5.1415207395044975,16.796823999999997,-4.457315400000001,-0.66137576,1.7623936000000002,0
-0.2799999999999987,2.048643,-4.058230399999999,1.3085958,0.40781403,0.16651973,-0.8837769,-0.15779065,-4.6413183,12.512482,1.0932726000000001,-5.0895915,1.6389592,2.8334193,14.079591650833436,-4.019817086840284,0.3881959094160922,5.518272811851287,16.057098,-3.6278512000000003,-1.2633996,0.82355815,0
-0.2699999999999989,2.0016773000000003,-3.9332294,1.3194685,0.42076477,0.18146643,-0.8783738999999999,-0.135966,-4.7520690000000005,12.486884,1.0804171999999999,-4.9358582,1.4304073,2.9639585,14.079591650833436,-4.019817086840284,0.3881959094160922,5.518272811851287,16.057098,-3.6278512000000003,-1.2633996,0.82355815,0
-0.2599999999999989,1.953599,-3.8085105,1.3301861000000001,0.43254972,0.19545682,-0.8728068000000001,-0.11360579999999999,-4.8637776,12.456054,1.062403,-4.793606,1.266943,3.0892234,14.079591650833436,-4.019817086840284,0.3881959094160922,5.518272811851287,16.057098,-3.6278512000000003,-1.2633996,0.82355815,0
-0.2499999999999989,1.9043971000000002,-3.6841269,1.3407018,0.44335657,0.20852709,-0.8670154,-0.09075361,-4.9767585,12.419832000000001,1.0400856,-4.672746,1.129782,3.2084174,14.079591650833436,-4.019817086840284,0.3881959094160922,5.518272811851287,16.057098,-3.6278512000000003,-1.2633996,0.82355815,0
-0.23999999999999888,1.8540609000000001,-3.5601323,1.3509737,0.45331615,0.22074120000000003,-0.86094755,-0.06743655,-5.0905623,12.37825,1.0136764,-4.5707555,1.0140067,3.3217626000000005,12.806732072673778,-3.541837399929611,-1.3790548890179697,5.99999617527024,15.907217000000001,-2.8681669999999997,-1.1858834999999999,0.51796967,0
-0.22999999999999865,1.8026124,-3.4365687000000005,1.3609453,0.46204300000000004,0.23188072,-0.8548923,-0.04367111,-5.1988106,12.333796000000001,0.9798816999999999,-4.3559265,0.69465107,3.4480996,12.806732072673778,-3.541837399929611,-1.3790548890179697,5.99999617527024,15.907217000000001,-2.8681669999999997,-1.1858834999999999,0.51796967,0
-0.21999999999999864,1.7500908,-3.3134706,1.370557,0.46921435,0.24181147,-0.84911025,-0.019424932,-5.305169,12.285188,0.941826,-4.1932316,0.4064119,3.5701654,12.806732072673778,-3.541837399929611,-1.3790548890179697,5.99999617527024,15.907217000000001,-2.8681669999999997,-1.1858834999999999,0.51796967,0
-0.20999999999999863,1.6965168000000002,-3.1908784,1.3797692,0.4749874,0.2507124,-0.8435058000000001,0.0053523197,-5.409237,12.23264,0.9000746,-4.07645,0.14252046,3.688076,12.806732072673778,-3.541837399929611,-1.3790548890179697,5.99999617527024,15.907217000000001,-2.8681669999999997,-1.1858834999999999,0.51796967,0
-0.19999999999999862,1.6419141,-3.0688312,1.388548,0.47948658,0.25872657,-0.8379805,0.030695027000000003,-5.511058,12.176116,0.85534066,-3.9920709999999997,-0.09443013,3.8014822,12.982401765409751,-3.968360003362146,-4.080121727075657,5.999999727592474,16.038488,-3.4287980000000005,-1.9407928,0.40485403,0
-0.18999999999999884,1.5862592,-2.9473963,1.3968905,0.48215246,0.2658426,-0.8328486999999999,0.05674536,-5.6192627,12.110304,0.8127121999999999,-3.8993572999999997,-0.62836945,3.9015055,12.982401765409751,-3.968360003362146,-4.080121727075657,5.999999727592474,16.038488,-3.4287980000000005,-1.9407928,0.40485403,0
-0.17999999999999883,1.5295438000000001,-2.8266366,1.4047936,0.48249045,0.2720777,-0.82835823,0.08366434,-5.7231336,12.041122,0.7675656,-3.8492393,-1.1071948999999999,3.9991293,12.982401765409751,-3.968360003362146,-4.080121727075657,5.999999727592474,16.038488,-3.4287980000000005,-1.9407928,0.40485403,0
-0.16999999999999882,1.4718131,-2.7065847,1.4122356000000003,0.48070163,0.2775405,-0.82430273,0.11145687,-5.822229,11.968814,0.72064906,-3.8345897000000004,-1.5390157,4.0944285,12.982401765409751,-3.968360003362146,-4.080121727075657,5.999999727592474,16.038488,-3.4287980000000005,-1.9407928,0.40485403,0
-0.1599999999999988,1.4131168,-2.5872702999999997,1.4192026000000002,0.4769411,0.2823151,-0.820484,0.14011373,-5.916251,11.893568,0.6726599,-3.8481216000000003,-1.9293981,4.1873665,12.982401765409751,-3.968360003362146,-4.080121727075657,5.999999727592474,15.449907000000001,-3.7231464,-2.7013707,0.61391073,0
-0.1499999999999988,1.3535018,-2.4687264,1.4256897,0.47137314,0.28643575,-0.8167053000000001,0.1695728,-6.0061255,11.814556,0.6248741,-3.8658278,-2.2650757,4.276313,12.982401765409751,-3.968360003362146,-4.080121727075657,5.999999727592474,15.449907000000001,-3.7231464,-2.7013707,0.61391073,0
-0.1399999999999988,1.2930084,-2.3509924,1.4317034,0.46420258,0.28988346,-0.81277454,0.19970374,-6.0918474,11.731633,0.57802904,-3.8808897000000004,-2.5483877999999995,4.3608947,12.982401765409751,-3.968360003362146,-4.080121727075657,5.999999727592474,15.449907000000001,-3.7231464,-2.7013707,0.61391073,0
-0.12999999999999878,1.2316805,-2.234106,1.4372551000000002,0.45560795,0.29264320000000005,-0.8085223000000001,0.23037693,-6.173011,11.64507,0.53256744,-3.8937066,-2.7875023,4.441326,12.982401765409751,-3.968360003362146,-4.080121727075657,5.999999727592474,15.449907000000001,-3.7231464,-2.7013707,0.61391073,0
-0.11999999999999877,1.1695652,-2.1181023,1.4423609,0.44573963,0.2947077,-0.8038019000000001,0.26147002,-6.249256,11.555197999999999,0.4888795,-3.904617,-2.9893122,4.5178113,14.464442042963023,-3.5793479712281586,-5.2593115304477385,5.999999661797638,14.895235000000001,-4.2123537,-2.275851,0.90680903,0
-0.10999999999999877,1.1066724,-2.0030648999999996,1.4470723,0.4343884,0.29582128,-0.7987399000000001,0.2929361,-6.328369599999999,11.451811,0.45378911,-3.852693,-3.343349,4.590543,14.464442042963023,-3.5793479712281586,-5.2593115304477385,5.999999661797638,14.895235000000001,-4.2123537,-2.275851,0.90680903,0
-0.09999999999999876,1.0430190000000001,-1.8890753,1.4514467,0.42139974,0.29576656,-0.7934121999999999,0.32471818,-6.401307599999999,11.34573,0.42160296,-3.8090086000000003,-3.6421847,4.659705000000001,14.464442042963023,-3.5793479712281586,-5.2593115304477385,5.999999661797638,14.895235000000001,-4.2123537,-2.275851,0.90680903,0
-0.08999999999999875,0.97866845,-1.7761574,1.455516,0.40696406,0.29459968,-0.7876329000000001,0.35668778,-6.4677844,11.237589,0.3928112,-3.7722618999999997,-3.8944263,4.725474,14.464442042963023,-3.5793479712281586,-5.2593115304477385,5.999999661797638,14.895235000000001,-4.2123537,-2.275851,0.90680903,0
-0.07999999999999874,0.9136864,-1.6643284999999999,1.4593159,0.391243,0.29237577,-0.78124344,0.38872164,-6.5275807,11.128057,0.36781540000000007,-3.7413553999999998,-4.1073375,4.7880154,15.350964353502807,-2.8338080221979487,-5.887673447889156,5.999999618808062,14.99375,-3.7455062999999993,-1.9785963,0.617693,0
-0.06999999999999873,0.8481238000000001,-1.5536325,1.4629098,0.3742994,0.28881598,-0.7742941999999999,0.42065927,-6.5838017,11.011097,0.35168487,-3.59879,-4.3846765,4.8474874,15.350964353502807,-2.8338080221979487,-5.887673447889156,5.999999618808062,14.99375,-3.7455062999999993,-1.9785963,0.617693,0
-0.05999999999999872,0.7820353,-1.4441058999999998,1.466366,0.35620594,0.28370270000000003,-0.76681304,0.45235866,-6.6327667,10.894302,0.34030770000000005,-3.4785826,-4.618818,4.904042,15.350964353502807,-2.8338080221979487,-5.887673447889156,5.999999618808062,14.99375,-3.7455062999999993,-1.9785963,0.617693,0
