time-since-start [s],throttle_mpc,roll_mpc,pitch_mpc,yaw_mpc,throttle_nw,roll_nw,pitch_nw,yaw_nw,position_x [m],position_y [m],position_z [m],rotation_w [quaternion],rotation_x [quaternion],rotation_y [quaternion],rotation_z [quaternion],velocity_x [m/s],velocity_y [m/s],velocity_z [m/s],omega_x [rad/s],omega_y [rad/s],omega_z [rad/s],network_used
0.0,10.222373663588469,4.533621160563598,-5.999999792087549,-0.8072012240605073,10.265377,1.0389277,-5.467768,0.042468783,13.483721,-10.436232,1.177287,0.32779866,-0.29408744,0.2807957,0.85276866,-8.351242,2.1985679,-0.2508158,0.47385427,-0.028070372,0.108187646,0
0.01,10.222373663588469,4.533621160563598,-5.999999792087549,-0.8072012240605073,11.610619,0.7619527,-5.5105586,0.09466514,13.40001,-10.413825,1.1747075,0.32891738,-0.29121056,0.28318843,0.85253394,-8.390529,2.2823765,-0.26553568,0.87469363,-0.72705716,0.08407413,0
0.02,10.222373663588469,4.533621160563598,-5.999999792087549,-0.8072012240605073,11.610619,0.7619527,-5.5105586,0.09466514,13.315919,-10.390593,1.1719671,0.3316478,-0.2848737,0.2861094,0.8526418,-8.427259,2.3635828,-0.28292295,1.2581244,-1.3621819,0.05710758,0
0.03,10.222373663588469,4.533621160563598,-5.999999792087549,-0.8072012240605073,11.610619,0.7619527,-5.5105586,0.09466514,13.231475,-10.366561,1.1690416,0.33587015,-0.275346,0.28955704,0.85295516,-8.460805,2.4423056,-0.3024598,1.6241542,-1.9406972,0.027670205,0
0.04,10.222373663588469,4.533621160563598,-5.999999792087549,-0.8072012240605073,12.234775,1.1163627,-5.485545,0.261612,13.146714,-10.341754,1.1659119,0.34146065,-0.26285985,0.29351163,0.85332304,-8.490642,2.5186396,-0.3237432,1.9730151,-2.4689488,-0.003894641,0
0.05,10.222373663588469,4.533621160563598,-5.999999792087549,-0.8072012240605073,12.234775,1.1163627,-5.485545,0.261612,13.061676,-10.3161955,1.1625619,0.34829313,-0.24761777,0.29793933,0.85358626,-8.516335,2.59265,-0.34647414,2.305107,-2.952497,-0.037278753,0
0.060000000000000005,10.222373663588469,4.533621160563598,-5.999999792087549,-0.8072012240605073,12.234775,1.1163627,-5.485545,0.261612,12.976403,-10.289908,1.1589781,0.35623989,-0.2297986,0.3027957,0.853581,-8.537524,2.6643646,-0.37044716,2.6209548,-3.39622,-0.07220565,0
0.07,10.222373663588469,4.533621160563598,-5.999999792087549,-0.8072012240605073,12.234775,1.1163627,-5.485545,0.261612,12.890942,-10.262915,1.1551496,0.36516932,-0.20956893,0.30802554,0.85314274,-8.553985,2.7340946,-0.3952025,2.9160194,-3.7992516,-0.10798293,0
0.08,11.550906759730488,4.292584692843895,-5.999999831534799,-0.9896377628994079,12.552417,1.3015097,-5.4011245,0.22505657,12.80534,-10.235228,1.1510775,0.37490207,-0.18718004,0.3135299,0.85212153,-8.56571,2.8033328,-0.41903073,3.1681674,-4.142545,-0.14229377,0
0.09,11.550906759730488,4.292584692843895,-5.999999831534799,-0.9896377628994079,12.552417,1.3015097,-5.4011245,0.22505657,12.719641,-10.206806,1.1468215,0.38523728,-0.1629806,0.3191005,0.8504143,-8.573156,2.8810124,-0.4319851,3.3433733,-4.432321,-0.18387318,0
0.09999999999999999,11.550906759730488,4.292584692843895,-5.999999831534799,-0.9896377628994079,12.552417,1.3015097,-5.4011245,0.22505657,12.633898,-10.17761,1.1424415,0.39600477,-0.13727693,0.32456428,0.8479347,-8.574393,2.957837,-0.44385624,3.491253,-4.676907,-0.22341228,0
0.10999999999999999,11.550906759730488,4.292584692843895,-5.999999831534799,-0.9896377628994079,12.552417,1.3015097,-5.4011245,0.22505657,12.548176,-10.147653,1.1379473,0.40705702,-0.11029615,0.3298566,0.844591,-8.5691,3.0334752,-0.45483834,3.6160705,-4.8833494,-0.26101118,0
0.11999999999999998,11.550906759730488,4.292584692843895,-5.999999831534799,-0.9896377628994079,12.552417,1.3015097,-5.4011245,0.22505657,12.46254,-10.116946,1.1333469,0.41826466,-0.082238734,0.3349225,0.84030855,-8.557028,3.107573,-0.46517655,3.7214255,-5.0575953,-0.2967651,0
0.12999999999999998,15.281222676105703,2.0215600177855273,-5.999999687667942,0.25306729982953335,14.370773,0.16298632,-5.1813145,0.10462592,12.377059,-10.085508,1.1286451,0.4295143,-0.053282786,0.33971566,0.83502793,-8.538,3.1797626,-0.4751586,3.810354,-5.204664,-0.33076456,0
0.13999999999999999,15.281222676105703,2.0215600177855273,-5.999999687667942,0.25306729982953335,14.370773,0.16298632,-5.1813145,0.10462592,12.291843,-10.0532465,1.1239864,0.44054356,-0.02392931,0.34345138,0.82908976,-8.503531,3.2722178,-0.45660514,3.5314653,-5.3285704,-0.30211577,0
0.15,15.281222676105703,2.0215600177855273,-5.999999687667942,0.25306729982953335,14.370773,0.16298632,-5.1813145,0.10462592,12.207019,-10.020078,1.1195126,0.45116964,0.0054046735,0.3455241,0.8228182,-8.460015,3.3609765,-0.4382047,3.2960722,-5.4331746,-0.27487278,0
0.16,16.95257459070568,-0.013503130497924787,-5.999999455060341,0.9146823879295644,13.806038,-0.9255417,-3.3674982,0.30532867,12.122673,-9.986042,1.1152211,0.46140108,0.034686983,0.34613863,0.81614584,-8.407811,3.4454036,-0.4201539,3.0973902,-5.521482,-0.24896662,0
0.17,16.95257459070568,-0.013503130497924787,-5.999999455060341,0.9146823879295644,13.806038,-0.9255417,-3.3674982,0.30532867,12.038923,-9.951142,1.1111708,0.47121078,0.06353869,0.34480482,0.8093411,-8.34071,3.5336072,-0.39000517,2.6124442,-5.59593,-0.19186604,0
0.18000000000000002,16.95257459070568,-0.013503130497924787,-5.999999455060341,0.9146823879295644,13.806038,-0.9255417,-3.3674982,0.30532867,11.955888,-9.915391,1.1074188,0.48060262,0.091652766,0.34115687,0.8026412,-8.265125,3.6156616,-0.36049402,2.2031214,-5.6588144,-0.1375674,0
0.19000000000000003,16.95257459070568,-0.013503130497924787,-5.999999455060341,0.9146823879295644,13.806038,-0.9255417,-3.3674982,0.30532867,11.873648,-9.878852,1.1039586,0.48960793,0.11910063,0.33551928,0.7959434,-8.1818,3.690935,-0.33162344,1.8576276,-5.711928,-0.085933186,0
0.20000000000000004,17.060128471054988,-1.4131138415202793,-5.999998024373219,1.2791770520852792,13.277705,-3.0521467,-1.7252088,0.626843,11.792276,-9.841597,1.1007838,0.49824086,0.14594246,0.32816416,0.7891546,-8.091419,3.7588859,-0.3034502,1.5660076,-5.756786,-0.036832698,0
0.21000000000000005,17.060128471054988,-1.4131138415202793,-5.999998024373219,1.2791770520852792,13.277705,-3.0521467,-1.7252088,0.626843,11.711844,-9.803698,1.097891,0.50655603,0.17196245,0.31887376,0.7823997,-7.9940414,3.8194208,-0.27525735,1.1016585,-5.7946563,0.02774428,0
0.22000000000000006,17.060128471054988,-1.4131138415202793,-5.999998024373219,1.2791770520852792,13.277705,-3.0521467,-1.7252088,0.626843,11.632415,-9.765236,1.0952762,0.5146049,0.1969882,0.30749193,0.77577454,-7.8910427,3.8716319,-0.2478099,0.7097148,-5.8266573,0.089152455,0
0.23000000000000007,17.060128471054988,-1.4131138415202793,-5.999998024373219,1.2791770520852792,13.277705,-3.0521467,-1.7252088,0.626843,11.55404,-9.7262945,1.0929323,0.5223769,0.22112319,0.2943115,0.7691604,-7.7832193,3.915096,-0.22108203,0.3788852,-5.853694,0.14754732,0
0.24000000000000007,17.060128471054988,-1.4131138415202793,-5.999998024373219,1.2791770520852792,12.911523,-4.210247,1.0327659,1.0099148,11.476765,-9.686964,1.090852,0.52985203,0.24445276,0.27957913,0.7624534,-7.6713085,3.9494615,-0.1951177,0.099638715,-5.8765326,0.2030767,0
0.25000000000000006,17.060128471054988,-1.4131138415202793,-5.999998024373219,1.2791770520852792,12.911523,-4.210247,1.0327659,1.0099148,11.400626,-9.647336,1.089027,0.53700495,0.26704648,0.2635037,0.7555644,-7.555999,3.974441,-0.17002401,-0.13606855,-5.8958225,0.25588125,0
0.26000000000000006,17.060128471054988,-1.4131138415202793,-5.999998024373219,1.2791770520852792,12.911523,-4.210247,1.0327659,1.0099148,11.325655,-9.607507,1.087448,0.5438078,0.28896055,0.24626303,0.74841785,-7.4379406,3.989806,-0.1459638,-0.33502665,-5.912113,0.30609465,0
0.2700000000000001,17.060128471054988,-1.4131138415202793,-5.999998024373219,1.2791770520852792,12.911523,-4.210247,1.0327659,1.0099148,11.251875,-9.567574,1.0861034,0.5502316,0.31023955,0.22800948,0.7409508,-7.3177524,3.9953833,-0.12314833,-0.5029666,-5.9258676,0.35384408,0
0.2800000000000001,15.93104940746721,-2.578180097146951,-2.4291984248522973,1.5165989338004089,12.4094305,-4.147219,3.3217132,1.022853,11.179305,-9.527635,1.0849799,0.55624825,0.33091837,0.20887418,0.7331114,-7.1960263,3.9910533,-0.10182991,-0.644725,-5.93748,0.39925045,0
0.2900000000000001,15.93104940746721,-2.578180097146951,-2.4291984248522973,1.5165989338004089,12.4094305,-4.147219,3.3217132,1.022853,11.107918,-9.487783,1.0840219,0.56169236,0.34973457,0.18942274,0.72546965,-7.081488,3.977781,-0.090029866,-0.9461944,-5.390477,0.45407906,0
0.3000000000000001,15.93104940746721,-2.578180097146951,-2.4291984248522973,1.5165989338004089,12.4094305,-4.147219,3.3217132,1.022853,11.037676,-9.44811,1.0831741,0.5665233,0.36573252,0.17014045,0.7185702,-6.9668064,3.955829,-0.07977628,-1.2006696,-4.928783,0.5062172,0
0.3100000000000001,15.93104940746721,-2.578180097146951,-2.4291984248522973,1.5165989338004089,12.4094305,-4.147219,3.3217132,1.022853,10.968578,-9.408695,1.0824218,0.5708671,0.3793461,0.15101536,0.7123212,-6.8526487,3.9258494,-0.07089808,-1.4154727,-4.53909,0.55579686,0
0.3200000000000001,14.535835556040547,-3.416649588680432,4.324328805356005,1.962897271261391,11.721596,-4.4350696,5.3993664,1.144498,10.900619,-9.369618,1.081752,0.5748133,0.39093736,0.13203062,0.70662963,-6.739561,3.8884068,-0.06323951,-1.5967852,-4.2101684,0.6029437,0
0.3300000000000001,14.535835556040547,-3.416649588680432,4.324328805356005,1.962897271261391,11.721596,-4.4350696,5.3993664,1.144498,10.833753,-9.330939,1.0811257,0.578281,0.39874527,0.11428422,0.70251864,-6.634367,3.8466723,-0.062529795,-1.9313159,-2.92977,0.66514,0
0.34000000000000014,14.535835556040547,-3.416649588680432,4.324328805356005,1.962897271261391,11.721596,-4.4350696,5.3993664,1.144498,10.767914,-9.292698,1.0804914,0.5812192,0.40141657,0.09884082,0.7009133,-6.5338593,3.801091,-0.06462355,-2.1725605,-1.8078883,0.72797227,0
0.35000000000000014,14.535835556040547,-3.416649588680432,4.324328805356005,1.962897271261391,11.721596,-4.4350696,5.3993664,1.144498,10.703065,-9.254929,1.079834,0.58372664,0.3997635,0.085519984,0.70152587,-6.4362617,3.7522962,-0.06669372,-2.3669927,-0.8517573,0.78857034,0
0.36000000000000015,13.578368500889411,-3.8463609644087615,5.999999498744611,1.332181438674399,12.234416,-4.4402,6.1882844,1.2912264,10.639179,-9.21766,1.0791622,0.58590233,0.39445716,0.074005194,0.7040207,-6.3412147,3.7012057,-0.0674089,-2.531097,-0.044728354,0.8461949,0
0.37000000000000016,13.578368500889411,-3.8463609644087615,5.999999498744611,1.332181438674399,12.234416,-4.4402,6.1882844,1.2912264,10.5762,-9.180891,1.0784601,0.58786964,0.38546443,0.06431181,0.708301,-6.255043,3.6523023,-0.07266963,-2.736744,0.89778805,0.87004244,0
0.38000000000000017,13.578368500889411,-3.8463609644087615,5.999999498744611,1.332181438674399,12.234416,-4.4402,6.1882844,1.2912264,10.514068,-9.144613,1.0777174,0.58970416,0.37276456,0.05643746,0.71422005,-6.17176,3.6032214,-0.07542345,-2.9102633,1.693334,0.89271975,0
0.3900000000000002,13.578368500889411,-3.8463609644087615,5.999999498744611,1.332181438674399,12.234416,-4.4402,6.1882844,1.2912264,10.452753,-9.108823,1.0769622,0.59137005,0.3568739,0.0500926,0.7213967,-6.0916634,3.5548804,-0.075120695,-3.0566702,2.3648283,0.9142843,0
0.4000000000000002,12.923839317837704,-4.39847760041793,5.999999788714668,0.024916399919600176,11.837859,-4.019433,5.8914337,1.5186102,10.392222,-9.07351,1.0762271,0.59281164,0.33822212,0.045031276,0.72948766,-6.015068,3.5080676,-0.07135537,-3.1801977,2.9316154,0.9347906,0
0.4100000000000002,12.923839317837704,-4.39847760041793,5.999999788714668,0.024916399919600176,11.837859,-4.019433,5.8914337,1.5186102,10.33242,-9.038643,1.0755227,0.594155,0.31703296,0.040937275,0.7381016,-5.9458246,3.4656131,-0.06894251,-3.3703804,3.4101105,0.89014286,0
0.4200000000000002,12.923839317837704,-4.39847760041793,5.999999788714668,0.024916399919600176,11.837859,-4.019433,5.8914337,1.5186102,10.273291,-9.004188,1.074861,0.5954933,0.29350334,0.037550315,0.7468824,-5.880644,3.425805,-0.06280161,-3.5308406,3.814007,0.847686,0
0.4300000000000002,12.923839317837704,-4.39847760041793,5.999999788714668,0.024916399919600176,11.837859,-4.019433,5.8914337,1.5186102,10.214791,-8.970116,1.0742795,0.5967208,0.26793662,0.034753427,0.75559664,-5.819952,3.3891163,-0.05287706,-3.6662273,4.154933,0.80731255,0
0.4400000000000002,12.923839317837704,-4.39847760041793,5.999999788714668,0.024916399919600176,12.146363,-3.3867872,6.382802,0.6588798,10.156875,-8.936393,1.0738162,0.5977423,0.24059768,0.0324475,0.76404446,-5.764167,3.3559647,-0.039230272,-3.7804618,4.442704,0.7689202,0
0.45000000000000023,12.923839317837704,-4.39847760041793,5.999999788714668,0.024916399919600176,12.146363,-3.3867872,6.382802,0.6588798,10.09949,-8.902983,1.0735073,0.5984737,0.21172005,0.030548474,0.7720561,-5.713691,3.3267164,-0.022027649,-3.876851,4.6856074,0.7324116,0
0.46000000000000024,12.923839317837704,-4.39847760041793,5.999999788714668,0.024916399919600176,12.146363,-3.3867872,6.382802,0.6588798,10.042582,-8.8698435,1.0733871,0.59884155,0.18151134,0.028985022,0.7794885,-5.6689067,3.3016903,-0.0015288591,-3.9581857,4.8906374,0.6976946,0
0.47000000000000025,12.923839317837704,-4.39847760041793,5.999999788714668,0.024916399919600176,12.146363,-3.3867872,6.382802,0.6588798,9.986092,-8.836932,1.073487,0.59878266,0.15015751,0.02769654,0.786222,-5.63017,3.2811587,0.02192451,-4.0268188,5.0636973,0.66468114,0
0.48000000000000026,14.008826137302481,-3.048662524281005,5.999999782240954,0.40302449738698576,12.423749,-3.2029262,6.58118,0.090440124,9.929957,-8.804203,1.0738345,0.5982431,0.1178262,0.026631512,0.7921572,-5.597805,3.2653499,0.0479197,-4.0847354,5.2097716,0.6332877,0
0.49000000000000027,14.008826137302481,-3.048662524281005,5.999999782240954,0.40302449738698576,12.423749,-3.2029262,6.58118,0.090440124,9.874125,-8.771613,1.0745053,0.59708685,0.084994234,0.02617004,0.7972318,-5.5699105,3.2535427,0.08656954,-3.923172,5.333103,0.62198865,0
0.5000000000000002,14.008826137302481,-3.048662524281005,5.999999782240954,0.40302449738698576,12.423749,-3.2029262,6.58118,0.090440124,9.818534,-8.739114,1.0755715,0.5952357,0.052058466,0.026615279,0.80142134,-5.549262,3.2472813,0.12686189,-3.786797,5.437187,0.611244,0
0.5100000000000002,14.008826137302481,-3.048662524281005,5.999999782240954,0.40302449738698576,12.423749,-3.2029262,6.58118,0.090440124,9.763114,-8.706648,1.0770462,0.59272164,0.019053508,0.027821321,0.80470127,-5.535841,3.2467465,0.16818056,-3.6716833,5.5250278,0.6010266,0
0.5200000000000002,15.883057578584891,-1.3483966838901904,5.999999642049754,1.0544016644274148,14.641056,-1.9597453,6.686124,-0.07622506,9.707791,-8.674158,1.0789366,0.58956844,-0.013985143,0.029662907,0.8070525,-5.5296197,3.2520652,0.20990537,-3.5745173,5.5991597,0.5913106,0
0.5300000000000002,15.883057578584891,-1.3483966838901904,5.999999642049754,1.0544016644274148,14.641056,-1.9597453,6.686124,-0.07622506,9.652496,-8.641579,1.081337,0.5857499,-0.04661893,0.032584038,0.8084937,-5.5306406,3.2648337,0.2700915,-3.227463,5.661756,0.6140346,0
0.5400000000000003,15.883057578584891,-1.3483966838901904,5.999999642049754,1.0544016644274148,14.641056,-1.9597453,6.686124,-0.07622506,9.597153,-8.608837,1.0843352,0.5812774,-0.07849692,0.036934428,0.80906785,-5.539375,3.2844732,0.32933468,-2.9345253,5.71458,0.63564354,0
0.5500000000000003,15.883057578584891,-1.3483966838901904,5.999999642049754,1.0544016644274148,14.641056,-1.9597453,6.686124,-0.07622506,9.541684,-8.575865,1.0879183,0.5762091,-0.10970255,0.04248581,0.8087913,-5.5554037,3.3110855,0.38697147,-2.687265,5.759157,0.6561921,0
0.5600000000000003,16.57568656795539,0.17844759323987058,5.999999207684,1.1918069217776996,17.390785,0.1602165,6.7887616,-0.15401378,9.48602,-8.542591,1.092067,0.5705866,-0.14030239,0.049042698,0.80767626,-5.578351,3.344714,0.44237003,-2.4785593,5.796774,0.6757324,0
0.5700000000000003,16.57568656795539,0.17844759323987058,5.999999207684,1.1918069217776996,17.390785,0.1602165,6.7887616,-0.15401378,9.430087,-8.508938,1.0967889,0.56451946,-0.17000109,0.05693368,0.8057145,-5.609119,3.387136,0.50149804,-2.0643106,5.828614,0.70105636,0
0.5800000000000003,16.57568656795539,0.17844759323987058,5.999999207684,1.1918069217776996,17.390785,0.1602165,6.7887616,-0.15401378,9.373816,-8.474823,1.1020849,0.55811954,-0.19857024,0.06640829,0.8029086,-5.6461,3.43693,0.5570865,-1.7146578,5.855474,0.7251376,0
0.5900000000000003,16.57568656795539,0.17844759323987058,5.999999207684,1.1918069217776996,17.390785,0.1602165,6.7887616,-0.15401378,9.317146,-8.440173,1.1079167,0.55140793,-0.22614545,0.077203736,0.79927903,-5.688675,3.494117,0.6086007,-1.4195275,5.8781304,0.74803716,0
0.6000000000000003,16.672792912512676,1.0021478756229045,5.9999952174776885,1.1301397495719963,19.49668,1.7554302,3.9730508,0.5480972,9.260025,-8.404915,1.1142411,0.5443928,-0.25283664,0.089095235,0.7948409,-5.736297,3.558662,0.6555303,-1.1704171,5.89724,0.76981306,0
0.6100000000000003,16.672792912512676,1.0021478756229045,5.9999952174776885,1.1301397495719963,19.49668,1.7554302,3.9730508,0.5480972,9.202403,-8.368972,1.121014,0.53716695,-0.27855447,0.10215002,0.78957224,-5.788762,3.6309075,0.69820815,-0.83168304,5.913425,0.7874944,0
0.6200000000000003,16.672792912512676,1.0021478756229045,5.9999952174776885,1.1301397495719963,19.49668,1.7554302,3.9730508,0.5480972,9.144237,-8.332272,1.1281861,0.52981067,-0.30323225,0.11640639,0.783454,-5.845202,3.7104034,0.73533154,-0.54577017,5.927066,0.8043082,0
0.6300000000000003,16.672792912512676,1.0021478756229045,5.9999952174776885,1.1301397495719963,19.49668,1.7554302,3.9730508,0.5480972,9.085487,-8.29474,1.1357,0.5223027,-0.3269791,0.13164625,0.7765008,-5.9050503,3.7970436,0.76646835,-0.30444103,5.938562,0.8202968,0
0.6400000000000003,16.672792912512676,1.0021478756229045,5.9999952174776885,1.1301397495719963,18.850742,2.3608065,4.0796947,0.8299686,9.026125,-8.256306,1.1434934,0.5146189,-0.34988216,0.14768265,0.7687259,-5.9678,3.8906686,0.79119873,-0.10074334,5.94825,0.83550084,0
0.6500000000000004,16.672792912512676,1.0021478756229045,5.9999952174776885,1.1301397495719963,18.850742,2.3608065,4.0796947,0.8299686,8.966124,-8.216902,1.1515005,0.5067342,-0.37201044,0.16435501,0.7601419,-6.032994,3.9910698,0.8091155,0.071191505,5.9564137,0.84995884,0
0.6600000000000004,16.672792912512676,1.0021478756229045,5.9999952174776885,1.1301397495719963,18.850742,2.3608065,4.0796947,0.8299686,8.905458,-8.17646,1.159651,0.4986249,-0.39341807,0.1815251,0.7507621,-6.100216,4.09799,0.819826,0.21631621,5.963292,0.86370736,0
0.6700000000000004,16.672792912512676,1.0021478756229045,5.9999952174776885,1.1301397495719963,18.850742,2.3608065,4.0796947,0.8299686,8.844112,-8.13492,1.167871,0.49026853,-0.41414675,0.1990736,0.74060017,-6.169085,4.2111287,0.8229538,0.338812,5.9690876,0.8767813,0
0.6800000000000004,15.253081830363175,1.4780786825237255,2.4624436880063096,1.1523859202172073,18.084606,2.135157,4.428422,0.77964306,8.78207,-8.0922165,1.1760827,0.48164514,-0.43422806,0.21689726,0.7296706,-6.2392488,4.330145,0.8181418,0.4422075,5.9739704,0.8892136,0
0.6900000000000004,15.253081830363175,1.4780786825237255,2.4624436880063096,1.1523859202172073,18.084606,2.135157,4.428422,0.77964306,8.719353,-8.048349,1.1841687,0.4731478,-0.4525777,0.23437479,0.71859074,-6.3042974,4.4440145,0.79789966,0.6040222,5.4264483,0.9021275,0
0.7000000000000004,15.253081830363175,1.4780786825237255,2.4624436880063096,1.1523859202172073,18.084606,2.135157,4.428422,0.77964306,8.655982,-8.003322,1.1920158,0.46516648,-0.4684022,0.25104377,0.7079521,-6.369768,4.5622563,0.77046126,0.74056244,4.9642997,0.91440773,0
0.7100000000000004,15.253081830363175,1.4780786825237255,2.4624436880063096,1.1523859202172073,18.084606,2.135157,4.428422,0.77964306,8.591958,-7.9570923,1.1995547,0.45766515,-0.4821082,0.2670325,0.69771594,-6.435253,4.6842766,0.736267,0.8557748,4.5742116,0.92608535,0
0.7200000000000004,14.100506858565259,1.3470266291313528,-2.8661019215767696,1.2999070129061647,16.626616,2.3341062,0.8074644,0.6410521,8.527279,-7.9096255,1.2067194,0.45059904,-0.49403194,0.28244638,0.68783474,-6.5004215,4.8095903,0.6957127,0.95299023,4.244948,0.93719,0
0.7300000000000004,14.100506858565259,1.3470266291313528,-2.8661019215767696,1.2999070129061647,16.626616,2.3341062,0.8074644,0.6410521,8.461977,-7.860939,1.2134287,0.44450647,-0.50302273,0.29639754,0.6793602,-6.5601115,4.9280615,0.64537984,1.0150794,3.1360333,0.95498866,0
0.7400000000000004,14.100506858565259,1.3470266291313528,-2.8661019215767696,1.2999070129061647,16.626616,2.3341062,0.8074644,0.6410521,8.396081,-7.811057,1.2196122,0.4398734,-0.50824237,0.3082287,0.6731983,-6.6189837,5.0485854,0.5907433,1.0674034,2.2000475,0.97191393,0
0.7500000000000004,14.100506858565259,1.3470266291313528,-2.8661019215767696,1.2999070129061647,16.626616,2.3341062,0.8074644,0.6410521,8.329602,-7.759962,1.2252331,0.43655375,-0.51034087,0.31831446,0.66906554,-6.6768193,5.1706724,0.5330346,1.1114954,1.4100235,0.9880086,0
0.7600000000000005,13.465462582155945,0.718423241495599,-5.9999983423784435,1.2204047547440784,14.493441,1.282544,-5.684221,1.2882903,8.262549,-7.707639,1.230266,0.43439314,-0.5098385,0.32695454,0.6666841,-6.733446,5.293971,0.47331214,1.1486473,0.7431991,1.0033135,0
0.7700000000000005,13.465462582155945,0.718423241495599,-5.9999983423784435,1.2204047547440784,14.493441,1.282544,-5.684221,1.2882903,8.194949,-7.654107,1.2346873,0.43353245,-0.5064319,0.3336739,0.66651165,-6.786237,5.4126015,0.410871,1.082243,-0.30843484,1.0139663,0
0.7800000000000005,13.465462582155945,0.718423241495599,-5.9999983423784435,1.2204047547440784,14.493441,1.282544,-5.684221,1.2882903,8.126828,-7.5993853,1.2384843,0.43406823,-0.4998845,0.3380977,0.66887206,-6.837655,5.531768,0.34864745,1.0260991,-1.1960615,1.0240964,0
0.7900000000000005,13.465462582155945,0.718423241495599,-5.9999983423784435,1.2204047547440784,14.493441,1.282544,-5.684221,1.2882903,8.058201,-7.5434704,1.241665,0.4357819,-0.4906563,0.34057018,0.6733217,-6.8876157,5.6511307,0.28780115,0.9786286,-1.9452585,1.0337292,0
0.8000000000000005,12.66197044904465,0.14327108689074483,-5.999999710563325,0.8909100261361994,13.571082,0.9843596,-5.747546,0.5939393,7.989081,-7.486363,1.2442483,0.43846592,-0.47911534,0.34136692,0.6794589,-6.936013,5.770381,0.22929943,0.93849045,-2.5776143,1.0428894,1
0.8100000000000005,12.66197044904465,0.14327108689074483,-5.999999710563325,0.8909100261361994,13.571082,0.9843596,-5.747546,0.5939393,7.919484,-7.42806,1.2462633,0.4419982,-0.46561003,0.340791,0.6868086,-6.983079,5.890156,0.17426911,0.9459358,-3.0719721,1.0208592,1
0.8200000000000005,12.66197044904465,0.14327108689074483,-5.999999710563325,0.8909100261361994,13.571082,0.9843596,-5.747546,0.5939393,7.849426,-7.368562,1.2477465,0.44626927,-0.45043275,0.33908665,0.6949633,-7.0282497,6.0092406,0.12301241,0.95215786,-3.4892354,0.9999101,1
0.8300000000000005,12.66197044904465,0.14327108689074483,-5.999999710563325,0.8909100261361994,13.571082,0.9843596,-5.747546,0.5939393,7.7789264,-7.3078785,1.248738,0.45111796,-0.4337857,0.33638054,0.70368344,-7.071322,6.1273503,0.07600351,0.95735943,-3.8414268,0.97998905,1
0.8400000000000005,12.66197044904465,0.14327108689074483,-5.999999710563325,0.8909100261361994,12.661371,0.50316226,-5.825062,0.5612182,7.7080073,-7.24602,1.2492824,0.4564029,-0.41584104,0.33277878,0.71276265,-7.1120872,6.2441854,0.033606354,0.96170866,-4.1386943,0.9610455,1
0.8500000000000005,12.66197044904465,0.14327108689074483,-5.999999710563325,0.8909100261361994,12.661371,0.50316226,-5.825062,0.5612182,7.6367064,-7.183039,1.2494068,0.4619351,-0.39681423,0.3282176,0.7220993,-7.14778,6.351702,-0.007971294,0.8903071,-4.401738,0.9414258,1
0.8600000000000005,12.66197044904465,0.14327108689074483,-5.999999710563325,0.8909100261361994,12.661371,0.50316226,-5.825062,0.5612182,7.5650606,-7.118992,1.2491392,0.46756008,-0.37688866,0.32265005,0.7316004,-7.181001,6.4573994,-0.04481078,0.83001196,-4.623752,0.92276895,1
0.8700000000000006,12.66197044904465,0.14327108689074483,-5.999999710563325,0.8909100261361994,12.661371,0.50316226,-5.825062,0.5612182,7.4930954,-7.0538983,1.2485274,0.4732088,-0.3561597,0.3161834,0.74111503,-7.211632,6.560931,-0.07679639,0.779097,-4.8111353,0.9050275,1
0.8800000000000006,12.813943838917881,-0.6344733982567176,-5.999999773931328,0.9712820089202021,13.065408,-0.62633175,-5.67995,0.7062737,7.4208374,-6.987782,1.2476202,0.47882017,-0.33471185,0.30891064,0.7505152,-7.239546,6.661953,-0.103879794,0.7361037,-4.96929,0.88815665,1
0.8900000000000006,12.813943838917881,-0.6344733982567176,-5.999999773931328,0.9712820089202021,13.065408,-0.62633175,-5.67995,0.7062737,7.3483095,-6.9206533,1.2464787,0.48416206,-0.31287682,0.30060664,0.7598227,-7.265442,6.763249,-0.12364972,0.5236673,-5.0802426,0.8792316,1
0.9000000000000006,12.813943838917881,-0.6344733982567176,-5.999999773931328,0.9712820089202021,13.065408,-0.62633175,-5.67995,0.7062737,7.2755375,-6.852528,1.2451644,0.48905915,-0.2909302,0.29109812,0.76905286,-7.288467,6.861202,-0.13843039,0.3443504,-5.1738715,0.87074447,1
0.9100000000000006,12.813943838917881,-0.6344733982567176,-5.999999773931328,0.9712820089202021,13.065408,-0.62633175,-5.67995,0.7062737,7.20255,-6.783442,1.2437268,0.4935351,-0.2688669,0.28053185,0.7780972,-7.308687,6.9554214,-0.14832264,0.19299018,-5.252881,0.8626738,1
0.9200000000000006,13.89646216904291,-1.3147766561217673,-5.999999702154238,0.9366092462657679,13.799046,-1.5421342,-5.8254404,0.4834636,7.129374,-6.7134337,1.2422141,0.49760607,-0.2466849,0.2690353,0.7868637,-7.326143,7.0455413,-0.15346865,0.06522812,-5.319555,0.85499924,1
0.9300000000000006,13.89646216904291,-1.3147766561217673,-5.999999702154238,0.9366092462657679,13.799046,-1.5421342,-5.8254404,0.4834636,7.0560327,-6.6425223,1.2407002,0.50123155,-0.22452892,0.2563941,0.7953713,-7.3417006,7.1360154,-0.1485664,-0.18545929,-5.398585,0.83676785,1
0.9400000000000006,13.89646216904291,-1.3147766561217673,-5.999999702154238,0.9366092462657679,13.799046,-1.5421342,-5.8254404,0.4834636,6.9825497,-6.570731,1.2392588,0.5043871,-0.20251696,0.24244252,0.8036181,-7.3545146,7.221369,-0.13902104,-0.39705753,-5.465264,0.8194311,1
0.9500000000000006,13.89646216904291,-1.3147766561217673,-5.999999702154238,0.9366092462657679,13.799046,-1.5421342,-5.8254404,0.4834636,6.9089518,-6.498114,1.2379352,0.5071002,-0.1806146,0.22735135,0.8115041,-7.3647227,7.301196,-0.12504843,-0.57566094,-5.5215225,0.8029451,1
0.9600000000000006,14.926217416307333,-1.5185400231934618,-5.999999418747117,0.6606896045150452,13.721798,-1.9050798,-5.765525,0.6236949,6.835264,-6.424728,1.2367723,0.5093899,-0.15879518,0.2112693,0.81894517,-7.3724327,7.375122,-0.10690608,-0.72641397,-5.5689898,0.787268,0
0.9700000000000006,14.926217416307333,-1.5185400231934618,-5.999999418747117,0.6606896045150452,13.721798,-1.9050798,-5.765525,0.6236949,6.761509,-6.350605,1.2358592,0.51126546,-0.13697182,0.19430172,0.8258892,-7.378157,7.448328,-0.075076014,-0.84993404,-5.6362658,0.78105676,0
0.9800000000000006,14.926217416307333,-1.5185400231934618,-5.999999418747117,0.6606896045150452,13.721798,-1.9050798,-5.765525,0.6236949,6.68771,-6.2757854,1.235284,0.5127252,-0.11507607,0.17654207,0.83228785,-7.3813148,7.5144134,-0.0393994,-0.95419586,-5.6930394,0.7751503,0
0.9900000000000007,14.926217416307333,-1.5185400231934618,-5.999999418747117,0.6606896045150452,13.721798,-1.9050798,-5.765525,0.6236949,6.6138916,-6.200342,1.2350831,0.5137649,-0.09311652,0.15809663,0.8380812,-7.381938,7.573047,-0.00025869627,-1.0422018,-5.7409506,0.7695337,0
1.0000000000000007,15.071745591576665,-1.3201763943068952,-5.999998802017647,0.5319308436734136,14.246147,-1.2215598,-5.694933,1.0362823,6.5400796,-6.124351,1.2352892,0.5143799,-0.07110408,0.13905948,0.8432199,-7.380047,7.6239347,0.04192704,-1.1164863,-5.7813826,0.7641927,1
1.0100000000000007,15.071745591576665,-1.3201763943068952,-5.999998802017647,0.5319308436734136,14.246147,-1.2215598,-5.694933,1.0362823,6.466298,-6.047901,1.235898,0.51451874,-0.049087577,0.119680926,0.8476658,-7.3758535,7.6648755,0.08019429,-1.132829,-5.767919,0.7775442,1
1.0200000000000007,15.071745591576665,-1.3201763943068952,-5.999998802017647,0.5319308436734136,14.246147,-1.2215598,-5.694933,1.0362823,6.392571,-5.9710803,1.2369,0.51413894,-0.027111277,0.10016853,0.8514061,-7.369262,7.698048,0.12046327,-1.1466244,-5.756553,0.7902405,1
1.0300000000000007,15.071745591576665,-1.3201763943068952,-5.999998802017647,0.5319308436734136,14.246147,-1.2215598,-5.694933,1.0362823,6.3189216,-5.8939676,1.2383126,0.51324856,-0.0051821154,0.08054284,0.8544366,-7.3602586,7.7233596,0.16224924,-1.1582702,-5.746959,0.8023139,1
1.0400000000000007,15.071745591576665,-1.3201763943068952,-5.999998802017647,0.5319308436734136,14.951011,-0.91230017,-5.6416655,1.0593597,6.245374,-5.8166413,1.2401485,0.5118547,0.01669114,0.06082385,0.8567534,-7.3488317,7.740746,0.205064,-1.1681015,-5.738859,0.81379485,1
1.0500000000000007,15.071745591576665,-1.3201763943068952,-5.999998802017647,0.5319308436734136,14.951011,-0.91230017,-5.6416655,1.0593597,6.1719565,-5.739178,1.2424507,0.5099579,0.03854329,0.04114811,0.85834956,-7.3342824,7.7506413,0.255415,-1.1281725,-5.72369,0.8258448,1
1.0600000000000007,15.071745591576665,-1.3201763943068952,-5.999998802017647,0.5319308436734136,14.951011,-0.91230017,-5.6416655,1.0593597,6.098697,-5.661657,1.245257,0.5075582,0.06039822,0.021627583,0.85922563,-7.317131,7.7522106,0.30580983,-1.0944715,-5.7108884,0.8373035,1
1.0700000000000007,15.071745591576665,-1.3201763943068952,-5.999998802017647,0.5319308436734136,14.951011,-0.91230017,-5.6416655,1.0593597,6.025623,-5.5841618,1.2485653,0.504662,0.08223036,0.002248072,0.85938877,-7.297332,7.745511,0.35573173,-1.0660274,-5.7000847,0.8481999,1
1.0800000000000007,14.869216180675775,-0.8795088183984278,-5.9999922290466925,0.4301229418085047,15.721862,-0.49014512,-5.5305023,0.87023425,5.9527597,-5.506775,1.2523685,0.50127596,0.10401536,-0.01700024,0.8588445,-7.2748523,7.7306247,0.40467075,-1.0420202,-5.690968,0.8585615,1
1.0900000000000007,14.869216180675775,-0.8795088183984278,-5.9999922290466925,0.4301229418085047,15.721862,-0.49014512,-5.5305023,0.87023425,5.8801413,-5.429583,1.2566913,0.49741015,0.12577678,-0.035953626,0.8575957,-7.2483673,7.7064786,0.45962888,-0.95596766,-5.665896,0.85913426,1
1.1000000000000008,14.869216180675775,-0.8795088183984278,-5.9999922290466925,0.4301229418085047,15.721862,-0.49014512,-5.5305023,0.87023425,5.807802,-5.352674,1.2615539,0.49307674,0.14753,-0.054480255,0.85565287,-7.2189713,7.674032,0.51250714,-0.88333267,-5.6447406,0.859679,1
1.1100000000000008,14.869216180675775,-0.8795088183984278,-5.9999922290466925,0.4301229418085047,15.721862,-0.49014512,-5.5305023,0.87023425,5.735772,-5.27613,1.2669327,0.48828563,0.1692415,-0.07262798,0.85302955,-7.1866035,7.6335073,0.5628035,-0.8220234,-5.626891,0.860197,1
1.1200000000000008,13.717987267877291,-0.4006517221375817,-3.5300972487857183,0.3356242329619263,15.475073,-0.115371644,-4.2630324,0.58015937,5.6640806,-5.200031,1.2727996,0.48304692,0.1908806,-0.090435445,0.8497361,-7.1512275,7.585139,0.61003244,-0.77027386,-5.611831,0.8606896,0
1.1300000000000008,13.717987267877291,-0.4006517221375817,-3.5300972487857183,0.3356242329619263,15.475073,-0.115371644,-4.2630324,0.58015937,5.5927334,-5.124418,1.2790307,0.47750401,0.21176603,-0.107506745,0.8459238,-7.117743,7.5363464,0.6356736,-0.71290267,-5.2871413,0.8349245,0
1.1400000000000008,13.717987267877291,-0.4006517221375817,-3.5300972487857183,0.3356242329619263,15.475073,-0.115371644,-4.2630324,0.58015937,5.521734,-5.0493236,1.2855017,0.4718225,0.23137319,-0.123536505,0.8417769,-7.081774,7.4814434,0.65801543,-0.6644365,-5.0130944,0.81042373,0
1.1500000000000008,13.717987267877291,-0.4006517221375817,-3.5300972487857183,0.3356242329619263,15.475073,-0.115371644,-4.2630324,0.58015937,5.451106,-4.9748077,1.2921791,0.46603513,0.24988736,-0.138675,0.8373389,-7.0434823,7.4209304,0.67690504,-0.6234944,-4.7817907,0.7871252,0
1.1600000000000008,12.389322217645686,0.14291486755861918,0.8514115728039648,0.20004352926293043,14.370051,0.53063124,-0.57889956,0.33907372,5.380872,-4.900923,1.2990274,0.46016428,0.2674649,-0.15304863,0.8326387,-7.0030084,7.3552465,0.69221777,-0.5889086,-4.5865636,0.7649699,0
1.1700000000000008,12.389322217645686,0.14291486755861918,0.8514115728039648,0.20004352926293043,14.370051,0.53063124,-0.57889956,0.33907372,5.311033,-4.827685,1.3059574,0.45446754,0.2828892,-0.16577937,0.82822096,-6.9646277,7.2916756,0.6932789,-0.47527182,-3.7384486,0.7372488,0
1.1800000000000008,12.389322217645686,0.14291486755861918,0.8514115728039648,0.20004352926293043,14.370051,0.53063124,-0.57889956,0.33907372,5.241585,-4.755101,1.312883,0.44921002,0.29523665,-0.17620347,0.8246198,-6.924721,7.2246203,0.69140303,-0.379262,-3.0226097,0.71088797,0
1.1900000000000008,12.389322217645686,0.14291486755861918,0.8514115728039648,0.20004352926293043,14.370051,0.53063124,-0.57889956,0.33907372,5.1725426,-4.683202,1.3197771,0.44439557,0.3050166,-0.18470205,0.8218044,-6.8835917,7.154834,0.68704134,-0.29814857,-2.4184158,0.6858207,0
1.2000000000000008,11.67360730435605,0.695682169374338,5.605473250212484,0.02386882195883196,14.6997795,1.1538587,4.1522536,0.082884625,5.1039166,-4.612012,1.3266168,0.4400079,0.3126513,-0.19159117,0.8197164,-6.8414874,7.082922,0.6806194,-0.22962269,-1.9084536,0.6619835,0
1.2100000000000009,11.67360730435605,0.695682169374338,5.605473250212484,0.02386882195883196,14.6997795,1.1538587,4.1522536,0.082884625,5.0357084,-4.541538,1.3333691,0.43629172,0.31713936,-0.19608316,0.818916,-6.8002596,7.0122237,0.66919214,-0.06065781,-0.7617612,0.6329576,0
1.2200000000000009,11.67360730435605,0.695682169374338,5.605473250212484,0.02386882195883196,14.6997795,1.1538587,4.1522536,0.082884625,4.9679093,-4.4717646,1.3399916,0.4335134,0.317562,-0.1976151,0.81985897,-6.759523,6.9423056,0.6552302,0.056887284,0.23125291,0.60306937,0
1.2300000000000009,11.67360730435605,0.695682169374338,5.605473250212484,0.02386882195883196,14.6997795,1.1538587,4.1522536,0.082884625,4.900518,-4.402691,1.346474,0.43157858,0.31449845,-0.1966738,0.82228345,-6.7187967,6.8724837,0.64135325,0.15619692,1.0693958,0.5746478,0
1.2400000000000009,11.67360730435605,0.695682169374338,5.605473250212484,0.02386882195883196,14.298982,1.403389,5.559988,-0.31395867,4.833533,-4.3343124,1.3528214,0.43035483,0.30847687,-0.19364117,0.8259176,-6.6784134,6.8034115,0.62825495,0.24009526,1.7768219,0.5476209,0
1.2500000000000009,11.67360730435605,0.695682169374338,5.605473250212484,0.02386882195883196,14.298982,1.403389,5.559988,-0.31395867,4.7669477,-4.2666183,1.3590438,0.42971265,0.29993224,-0.18883131,0.8305002,-6.638671,6.7356505,0.6165022,0.3109702,2.3739183,0.5219202,0
1.260000000000001,11.67360730435605,0.695682169374338,5.605473250212484,0.02386882195883196,14.298982,1.403389,5.559988,-0.31395867,4.700756,-4.1995935,1.3651575,0.4295308,0.2892257,-0.1825044,0.8357895,-6.599843,6.669694,0.6065429,0.37083995,2.8778923,0.4974807,0
1.270000000000001,11.67360730435605,0.695682169374338,5.605473250212484,0.02386882195883196,14.298982,1.403389,5.559988,-0.31395867,4.6349473,-4.133217,1.3711818,0.42969906,0.2766595,-0.17487757,0.8415677,-6.5621843,6.6059837,0.59871566,0.4214107,3.3032672,0.47424042,0
1.280000000000001,11.480905573727439,1.1202833101125467,5.999996350335682,-0.21504389699312623,13.058392,1.2642676,6.013899,-0.6572635,4.5695076,-4.067464,1.3771397,0.43011928,0.26248878,-0.16613351,0.84764194,-6.5259347,6.5449195,0.5932606,0.46412468,3.6623015,0.45214057,0
1.290000000000001,11.480905573727439,1.1202833101125467,5.999996350335682,-0.21504389699312623,13.058392,1.2642676,6.013899,-0.6572635,4.50442,-4.0023026,1.3830478,0.43071142,0.24687362,-0.15620671,0.85389745,-6.491886,6.4878335,0.58876354,0.56643033,4.0268817,0.41940168,0
1.300000000000001,11.480905573727439,1.1202833101125467,5.999996350335682,-0.21504389699312623,13.058392,1.2642676,6.013899,-0.6572635,4.4396634,-3.9376955,1.3889239,0.43140602,0.22995164,-0.1450514,0.8602159,-6.459631,6.434116,0.5868576,0.65280706,4.3345985,0.38826925,0
1.310000000000001,11.480905573727439,1.1202833101125467,5.999996350335682,-0.21504389699312623,13.058392,1.2642676,6.013899,-0.6572635,4.37522,-3.8736072,1.3947941,0.4321367,0.21189483,-0.13283886,0.86643666,-6.4293447,6.3841505,0.5875768,0.72573245,4.594321,0.35866448,0
1.320000000000001,11.206160985921894,1.420075911866101,5.999997256485123,-0.30595536147756075,12.083079,1.4198248,6.090253,-0.93219143,4.3110685,-3.8099985,1.4006846,0.4328454,0.19285235,-0.11971684,0.87242246,-6.4011974,6.3382864,0.590882,0.7872992,4.813535,0.33051243,1
1.330000000000001,11.206160985921894,1.420075911866101,5.999997256485123,-0.30595536147756075,12.083079,1.4198248,6.090253,-0.93219143,4.247195,-3.7468376,1.4066476,0.4335368,0.17301673,-0.105691984,0.87803215,-6.3739886,6.29467,0.6021191,0.88610274,4.998549,0.2685512,1
1.340000000000001,11.206160985921894,1.420075911866101,5.999997256485123,-0.30595536147756075,12.083079,1.4198248,6.090253,-0.93219143,4.1835804,-3.6840882,1.4127353,0.4342249,0.1525515,-0.09077884,0.8831399,-6.349319,6.256033,0.6158032,0.9695068,5.154702,0.20963041,1
1.350000000000001,11.206160985921894,1.420075911866101,5.999997256485123,-0.30595536147756075,12.083079,1.4198248,6.090253,-0.93219143,4.120199,-3.6216989,1.4189713,0.43487456,0.13153994,-0.07510888,0.8876599,-6.3272953,6.2226734,0.6317161,1.0399083,5.2864976,0.15360089,1
1.360000000000001,10.816284900419024,1.5673147999078025,5.999995231074268,-0.262687409624793,12.194774,2.2047298,6.4830008,-0.69304216,4.057025,-3.5596156,1.4253763,0.43545404,0.11005641,-0.058797535,0.89152133,-6.308015,6.1948524,0.6495945,1.0993321,5.397735,0.10032074,0
1.370000000000001,10.816284900419024,1.5673147999078025,5.999995231074268,-0.262687409624793,12.194774,2.2047298,6.4830008,-0.69304216,3.9940205,-3.49777,1.4319073,0.4358549,0.08818888,-0.041902676,0.89470524,-6.2932878,6.1751113,0.6568026,1.1723714,5.491648,0.082507834,0
1.380000000000001,10.816284900419024,1.5673147999078025,5.999995231074268,-0.262687409624793,12.194774,2.2047298,6.4830008,-0.69304216,3.9311504,-3.4360952,1.4385165,0.43597847,0.06601561,-0.024478426,0.89719874,-6.2811465,6.1607175,0.6652,1.2340198,5.5709143,0.06556898,0
1.390000000000001,10.816284900419024,1.5673147999078025,5.999995231074268,-0.262687409624793,12.194774,2.2047298,6.4830008,-0.69304216,3.8683887,-3.3745372,1.4452143,0.43581155,0.043587297,-0.0066155554,0.89895755,-6.2716346,6.1518245,0.6744621,1.2860532,5.6378183,0.04946134,0
1.400000000000001,10.60339779428596,1.442774089026702,5.956009357299179,-0.09618093451353475,10.908812,1.3421193,5.5218406,-0.23231272,3.8057084,-3.3130398,1.4520077,0.4353426,0.020950865,0.01160544,0.89994615,-6.2647853,6.148553,0.684244,1.3299707,5.6942873,0.03414412,1
1.410000000000001,10.60339779428596,1.442774089026702,5.956009357299179,-0.09618093451353475,10.908812,1.3421193,5.5218406,-0.23231272,3.743084,-3.2515464,1.4589044,0.4345646,-0.0017169318,0.029948538,0.9001409,-6.260587,6.151002,0.6951092,1.3319142,5.6673827,0.021069005,1
1.420000000000001,10.60339779428596,1.442774089026702,5.956009357299179,-0.09618093451353475,10.908812,1.3421193,5.5218406,-0.23231272,3.6804876,-3.1899998,1.465909,0.4334794,-0.024269937,0.048220444,0.899545,-6.2591,6.159193,0.7057647,1.3335516,5.644675,0.008635489,1
1.430000000000001,10.60339779428596,1.442774089026702,5.956009357299179,-0.09618093451353475,10.908812,1.3421193,5.5218406,-0.23231272,3.6178927,-3.128343,1.4730177,0.4320893,-0.046708256,0.066411845,0.8981684,-6.260313,6.173079,0.7158443,1.3349311,5.625509,-0.0031879211,1
1.440000000000001,10.60339779428596,1.442774089026702,5.956009357299179,-0.09618093451353475,11.1651125,1.1242846,5.653908,-0.031607766,3.555272,-3.066519,1.4802227,0.43039596,-0.069029465,0.08451268,0.8960199,-6.264207,6.1925974,0.7249869,1.3360932,5.609332,-0.014431159,1
1.450000000000001,10.60339779428596,1.442774089026702,5.956009357299179,-0.09618093451353475,11.1651125,1.1242846,5.653908,-0.031607766,3.4925988,-3.004469,1.4875255,0.42836672,-0.09131149,0.102458715,0.8931216,-6.2709155,6.218259,0.7353269,1.303065,5.616283,-0.015274022,1
1.460000000000001,10.60339779428596,1.442774089026702,5.956009357299179,-0.09618093451353475,11.1651125,1.1242846,5.653908,-0.031607766,3.4298446,-2.9421344,1.4949235,0.42596814,-0.1136117,0.12019726,0.88949203,-6.2803464,6.249504,0.74398607,1.2751874,5.6221495,-0.016075524,1
1.470000000000001,10.60339779428596,1.442774089026702,5.956009357299179,-0.09618093451353475,11.1651125,1.1242846,5.653908,-0.031607766,3.3669825,-2.87946,1.5023981,0.42320138,-0.13589662,0.13773292,0.88513404,-6.2924976,6.286215,0.7506114,1.251657,5.627102,-0.016837683,1
1.480000000000001,10.069295281170975,1.114621159763971,2.5102260779018772,0.04067753535299495,10.052227,0.5624309,5.554714,0.06821344,3.303985,-2.816392,1.5099275,0.4200686,-0.15813513,0.1550675,0.88005096,-6.3073516,6.3282576,0.75485635,1.231796,5.631282,-0.01756246,0
1.490000000000001,10.069295281170975,1.114621159763971,2.5102260779018772,0.04067753535299495,10.052227,0.5624309,5.554714,0.06821344,3.2408345,-2.7529001,1.5174369,0.41677594,-0.17919743,0.17167516,0.87447906,-6.3231254,6.37081,0.74662894,1.2135074,5.144557,-0.014704612,0
1.500000000000001,10.069295281170975,1.114621159763971,2.5102260779018772,0.04067753535299495,10.052227,0.5624309,5.554714,0.06821344,3.1775153,-2.6889613,1.5248513,0.41354695,-0.19820915,0.18715847,0.86871374,-6.3410234,6.417607,0.73586017,1.1980737,4.7337365,-0.011986999,0
1.5100000000000011,10.069295281170975,1.114621159763971,2.5102260779018772,0.04067753535299495,10.052227,0.5624309,5.554714,0.06821344,3.1140077,-2.624535,1.5321453,0.41039777,-0.21548769,0.20168939,0.86282086,-6.3607626,6.4682355,0.7225208,1.185049,4.386983,-0.00940274,0
1.5200000000000011,9.68504165213886,0.6622305420477925,-1.9631028511594841,0.16634472341694262,9.575193,0.57566786,1.1518495,-0.25166124,3.0502944,-2.5595849,1.5392929,0.40733328,-0.23130052,0.21541236,0.85684127,-6.382102,6.522347,0.70660394,1.1740576,4.094306,-0.006945288,0
1.5300000000000011,9.68504165213886,0.6622305420477925,-1.9631028511594841,0.16634472341694262,9.575193,0.57566786,1.1518495,-0.25166124,2.986363,-2.4940834,1.5462607,0.40470165,-0.24444014,0.22763442,0.8512625,-6.4042125,6.5781145,0.68611985,1.1067827,3.1622262,0.0004041593,0
1.5400000000000011,9.68504165213886,0.6622305420477925,-1.9631028511594841,0.16634472341694262,9.575193,0.57566786,1.1518495,-0.25166124,2.9222078,-2.4280164,1.5530055,0.40281776,-0.25395438,0.23774216,0.8465951,-6.426942,6.635642,0.6625403,1.0374424,2.3629394,0.008546907,0
1.5500000000000012,9.68504165213886,0.6622305420477925,-1.9631028511594841,0.16634472341694262,9.575193,0.57566786,1.1518495,-0.25166124,2.8578227,-2.3613641,1.5595057,0.4016234,-0.26043138,0.24606828,0.8428073,-6.4501657,6.695088,0.6372854,0.97892344,1.6883,0.01629008,0
1.5600000000000012,9.771011884595204,0.13489809703294875,-5.999985202426711,0.25044961501902574,9.62196,0.35821715,-5.127328,0.072090015,2.793204,-2.2941098,1.5657467,0.40105054,-0.26436597,0.25290683,0.83982545,-6.4735546,6.7560134,0.610745,0.929536,1.1188695,0.023653304,1
1.5700000000000012,9.771011884595204,0.13489809703294875,-5.999985202426711,0.25044961501902574,9.62196,0.35821715,-5.127328,0.072090015,2.7283514,-2.2262383,1.5717196,0.40133157,-0.26517352,0.25792816,0.83790725,-6.4968524,6.818147,0.5834351,0.84849626,0.15282051,0.025286185,1
1.5800000000000012,9.771011884595204,0.13489809703294875,-5.999985202426711,0.25044961501902574,9.62196,0.35821715,-5.127328,0.072090015,2.6632695,-2.1577458,1.5774127,0.40264046,-0.26238343,0.26080924,0.83726555,-6.5194306,6.880359,0.5551778,0.772052,-0.670616,0.027582854,1
1.5900000000000012,9.771011884595204,0.13489809703294875,-5.999985202426711,0.25044961501902574,9.62196,0.35821715,-5.127328,0.072090015,2.597966,-2.0886304,1.5828238,0.40482345,-0.25655302,0.26186627,0.8376897,-6.541106,6.9426866,0.5271035,0.70752895,-1.3656378,0.029766837,1
1.6000000000000012,10.179989211976695,-0.41102506911624315,-5.99999706439526,0.24302300644514313,7.636182,-0.5639006,-5.6109924,0.8493951,2.5324516,-2.018893,1.5879569,0.4077337,-0.24814638,0.26136747,0.83896554,-6.5615587,7.0047154,0.49965835,0.653068,-1.9522713,0.031843655,0
1.6100000000000012,10.179989211976695,-0.41102506911624315,-5.99999706439526,0.24302300644514313,7.636182,-0.5639006,-5.6109924,0.8493951,2.4667344,-1.9485207,1.592841,0.411232,-0.23737562,0.2591365,0.84106416,-6.581614,7.069625,0.4773696,0.48715365,-2.583512,0.04220628,0
1.6200000000000012,10.179989211976695,-0.41102506911624315,-5.99999706439526,0.24302300644514313,7.636182,-0.5639006,-5.6109924,0.8493951,2.4008257,-1.8775047,1.5975093,0.4151874,-0.22442251,0.25503698,0.8439251,-6.5998497,7.1333623,0.45651966,0.3471176,-3.1163125,0.05206041,0
1.6300000000000012,10.179989211976695,-0.41102506911624315,-5.99999706439526,0.24302300644514313,7.636182,-0.5639006,-5.6109924,0.8493951,2.3347445,-1.8058591,1.6019775,0.4194805,-0.2096014,0.24932477,0.84731346,-6.616064,7.1954813,0.43741742,0.22892268,-3.5660243,0.061430994,0
1.6400000000000012,10.179989211976695,-0.41102506911624315,-5.99999706439526,0.24302300644514313,8.51578,-0.62584996,-6.2011633,0.7067254,2.268512,-1.733602,1.6062644,0.42400277,-0.19317769,0.24221459,0.85102034,-6.6300774,7.255573,0.42027864,0.12916113,-3.9456043,0.07034177,0
1.6500000000000012,10.179989211976695,-0.41102506911624315,-5.99999706439526,0.24302300644514313,8.51578,-0.62584996,-6.2011633,0.7067254,2.2021508,-1.6607559,1.6103903,0.42865723,-0.1753773,0.23388806,0.85486346,-6.6417313,7.313258,0.40523562,0.04495752,-4.2659893,0.07881529,0
1.6600000000000013,10.179989211976695,-0.41102506911624315,-5.99999706439526,0.24302300644514313,8.51578,-0.62584996,-6.2011633,0.7067254,2.1356854,-1.5873463,1.6143765,0.4333583,-0.15639406,0.22449999,0.8586854,-6.6508865,7.3681855,0.39234638,-0.026115334,-4.536411,0.086872995,0
1.6700000000000013,10.179989211976695,-0.41102506911624315,-5.99999706439526,0.24302300644514313,8.51578,-0.62584996,-6.2011633,0.7067254,2.069142,-1.5134027,1.6182446,0.43803102,-0.13639551,0.21418321,0.8623514,-6.6574206,7.4200273,0.38160315,-0.08610518,-4.76466,0.094535336,0
1.6800000000000013,10.60506115005268,-0.7727172474325077,-5.999997681425908,0.3170349196585978,10.3622875,-0.6602069,-5.9790764,0.5024844,2.002547,-1.4389575,1.6220158,0.4426103,-0.11552737,0.20305248,0.8657474,-6.66123,7.46848,0.37294075,-0.13674092,-4.957314,0.101821676,1
1.6900000000000013,10.60506115005268,-0.7727172474325077,-5.999997681425908,0.3170349196585978,10.3622875,-0.6602069,-5.9790764,0.5024844,1.9359273,-1.3640416,1.6257184,0.4469996,-0.09396226,0.19112831,0.86881053,-6.6622515,7.514065,0.36788154,-0.21829908,-5.1166654,0.12148232,1
1.7000000000000013,10.60506115005268,-0.7727172474325077,-5.999997681425908,0.3170349196585978,10.3622875,-0.6602069,-5.9790764,0.5024844,1.8693119,-1.2886899,1.6293797,0.45111746,-0.07184829,0.17843455,0.871488,-6.660372,7.555638,0.36466888,-0.28713974,-5.251167,0.14017823,1
1.7100000000000013,10.60506115005268,-0.7727172474325077,-5.999997681425908,0.3170349196585978,10.3622875,-0.6602069,-5.9790764,0.5024844,1.80273,-1.2129436,1.6330175,0.45493153,-0.049272213,0.16506915,0.8737054,-6.6555657,7.592946,0.3631107,-0.3452469,-5.364693,0.15795667,1
1.7200000000000013,11.236112121244169,-0.9459097485835578,-5.9999939725404605,0.4651676582869284,12.32588,-0.6640402,-5.918664,0.5566233,1.7362107,-1.1368465,1.6366469,0.4584141,-0.026311712,0.15111782,0.8754011,-6.647821,7.6257644,0.36298126,-0.3942948,-5.4605155,0.17486276,0
1.7300000000000013,11.236112121244169,-0.9459097485835578,-5.9999939725404605,0.4651676582869284,12.32588,-0.6640402,-5.918664,0.5566233,1.6697879,-1.0604322,1.6403229,0.46154445,-0.003082592,0.13655184,0.87653875,-6.636239,7.656261,0.3723884,-0.48025793,-5.544661,0.1891081,0
1.7400000000000013,11.236112121244169,-0.9459097485835578,-5.9999939725404605,0.4651676582869284,12.32588,-0.6640402,-5.918664,0.5566233,1.6034968,-0.9837394,1.644098,0.4643078,0.020315083,0.12135523,0.87708485,-6.6215124,7.681461,0.3827781,-0.5528179,-5.6156836,0.20265444,0
1.7500000000000013,11.236112121244169,-0.9459097485835578,-5.9999939725404605,0.4651676582869284,12.32588,-0.6640402,-5.918664,0.5566233,1.5373684,-0.9068219,1.6479807,0.46668962,0.043836083,0.10561629,0.876997,-6.6036973,7.7011786,0.39383706,-0.6140647,-5.6756296,0.21553604,0
1.7600000000000013,11.551247566460939,-0.9682198515007909,-4.527572097990044,0.6303439676604636,12.819664,-0.72035205,-5.800037,0.30203003,1.4714333,-0.8297352,1.6519759,0.4686771,0.067438245,0.089412816,0.8762411,-6.582858,7.7152624,0.405232,-0.6657631,-5.7262263,0.22778554,0
1.7700000000000014,11.551247566460939,-0.9682198515007909,-4.527572097990044,0.6303439676604636,12.819664,-0.72035205,-5.800037,0.30203003,1.4057246,-0.75253505,1.6561005,0.47019768,0.09056445,0.073081605,0.87485456,-6.558416,7.7238507,0.41968676,-0.7128871,-5.539313,0.2475392,0
1.7800000000000014,11.551247566460939,-0.9682198515007909,-4.527572097990044,0.6303439676604636,12.819664,-0.72035205,-5.800037,0.30203003,1.3402747,-0.6752781,1.6603683,0.4712225,0.11277303,0.056898948,0.87292224,-6.531147,7.7266226,0.43378595,-0.7526656,-5.381548,0.26632354,0
1.7900000000000014,11.551247566460939,-0.9682198515007909,-4.527572097990044,0.6303439676604636,12.819664,-0.72035205,-5.800037,0.30203003,1.2751107,-0.5980221,1.664774,0.47179726,0.1341838,0.040845923,0.87047845,-6.5012584,7.723707,0.44721293,-0.78624296,-5.2483854,0.28418612,0
1.8000000000000014,11.313093903100576,-0.9000160190205568,-0.021645309687426777,0.7625147530943318,12.70312,-0.64901376,-4.6178527,0.21026325,1.210258,-0.5208231,1.6693093,0.47195816,0.15489738,0.024906782,0.8675488,-6.468937,7.7152295,0.45967367,-0.814586,-5.135989,0.30117217,0
1.8100000000000014,11.313093903100576,-0.9000160190205568,-0.021645309687426777,0.7625147530943318,12.70312,-0.64901376,-4.6178527,0.21026325,1.1457361,-0.4437347,1.673952,0.4716936,0.17345342,0.00994093,0.86447626,-6.4351096,7.701674,0.46866313,-0.8280003,-4.3384256,0.32381037,0
1.8200000000000014,11.313093903100576,-0.9000160190205568,-0.021645309687426777,0.7625147530943318,12.70312,-0.64901376,-4.6178527,0.21026325,1.0815617,-0.3668056,1.6786783,0.47107235,0.1887244,-0.0033723207,0.8616621,-6.3995457,7.683479,0.47639793,-0.8393211,-3.6652403,0.34533775,0
1.8300000000000014,11.313093903100576,-0.9000160190205568,-0.021645309687426777,0.7625147530943318,12.70312,-0.64901376,-4.6178527,0.21026325,1.0177495,-0.29007882,1.6834759,0.47020993,0.2012345,-0.015290591,0.85916966,-6.3626876,7.66131,0.48292744,-0.8488723,-3.097037,0.36580878,0
1.8400000000000014,11.313093903100576,-0.9000160190205568,-0.021645309687426777,0.7625147530943318,12.752258,-1.5946248,0.29590943,0.47839236,0.954311,-0.21359114,1.688333,0.46918553,0.21142383,-0.02603382,0.85702163,-6.324895,7.6357265,0.48834,-0.85692877,-2.617444,0.38527527,0
1.8500000000000014,11.313093903100576,-0.9000160190205568,-0.021645309687426777,0.7625147530943318,12.752258,-1.5946248,0.29590943,0.47839236,0.8912538,-0.13737439,1.6932392,0.46805272,0.2196614,-0.0357888,0.8552155,-6.286463,7.607194,0.4927423,-0.86372286,-2.2126427,0.40378654,0
1.8600000000000014,11.313093903100576,-0.9000160190205568,-0.021645309687426777,0.7625147530943318,12.752258,-1.5946248,0.29590943,0.47839236,0.8285831,-0.061456054,1.6981848,0.46684703,0.2262565,-0.04471357,0.8537338,-6.2476325,7.5761003,0.49624696,-0.86945087,-1.8709694,0.42138943,0
1.8700000000000014,11.313093903100576,-0.9000160190205568,-0.021645309687426777,0.7625147530943318,12.752258,-1.5946248,0.29590943,0.47839236,0.7663019,0.014139935,1.7031615,0.46559173,0.23146841,-0.05294153,0.85255075,-6.208604,7.5427704,0.49896413,-0.8742791,-1.5825794,0.43812856,0
1.8800000000000014,11.197327316826021,-0.7540751870974541,3.906805838096039,0.8170873569984846,12.292944,-0.87839067,3.8602297,0.74153733,0.70441115,0.0893926,1.7081617,0.46430123,0.23551452,-0.06058504,0.851637,-6.169541,7.507474,0.5009971,-0.87834793,-1.3391627,0.4540463,0
1.8900000000000015,11.197327316826021,-0.7540751870974541,3.906805838096039,0.8170873569984846,12.292944,-0.87839067,3.8602297,0.74153733,0.6429086,0.16428545,1.7131742,0.4630662,0.23726644,-0.066961944,0.85134554,-6.131014,7.4708767,0.50145745,-0.859203,-0.5210612,0.47186083,0
1.9000000000000015,11.197327316826021,-0.7540751870974541,3.906805838096039,0.8170873569984846,12.292944,-0.87839067,3.8602297,0.74153733,0.5817892,0.23880643,1.71819,0.46197167,0.23584145,-0.071539454,0.8519636,-6.092956,7.433204,0.50169545,-0.8430218,0.16945782,0.48880118,0
1.9100000000000015,11.197327316826021,-0.7540751870974541,3.906805838096039,0.8170873569984846,12.292944,-0.87839067,3.8602297,0.74153733,0.52104664,0.31294793,1.7232085,0.46100363,0.23173268,-0.07460365,0.85335153,-6.055717,7.3950663,0.50206727,-0.8293436,0.75229084,0.5049103,0
1.9200000000000015,11.240352025227406,-0.5711470996958996,5.999991537713365,0.7907626590237784,12.75024,-0.9917683,5.713367,0.5138794,0.46067107,0.3867079,1.7282327,0.4601357,0.2253504,-0.07639341,0.8553685,-6.019597,7.3569746,0.50287217,-0.81777936,1.2442316,0.5202289,0
1.9300000000000015,11.240352025227406,-0.5711470996958996,5.999991537713365,0.7907626590237784,12.75024,-0.9917683,5.713367,0.5138794,0.40065056,0.46008837,1.7332703,0.45938438,0.21635295,-0.076659665,0.85806733,-5.9847417,7.319249,0.50475264,-0.7795852,1.985896,0.53350407,0
1.9400000000000015,11.240352025227406,-0.5711470996958996,5.999991537713365,0.7907626590237784,12.75024,-0.9917683,5.713367,0.5138794,0.34097016,0.5330967,1.7383313,0.45874462,0.20447789,-0.0752125,0.86144304,-5.951638,7.282628,0.50763315,-0.747318,2.611897,0.54612786,0
1.9500000000000015,11.240352025227406,-0.5711470996958996,5.999991537713365,0.7907626590237784,12.75024,-0.9917683,5.713367,0.5138794,0.28161055,0.60574675,1.7434272,0.45814964,0.19014688,-0.0723146,0.86528176,-5.920635,7.2476873,0.5117666,-0.72005635,3.1402724,0.5581322,0
1.9600000000000015,11.242608652625464,-0.4353800161141389,5.999996126974873,0.7249357338842277,11.413939,-0.93492776,5.87254,1.1357876,0.22254914,0.67805797,1.7485715,0.45753348,0.17371577,-0.0681865,0.8693879,-5.8920493,7.2149243,0.51731426,-0.69702244,3.5862474,0.5695474,1
1.9700000000000015,11.242608652625464,-0.4353800161141389,5.999996126974873,0.7249357338842277,11.413939,-0.93492776,5.87254,1.1357876,0.1637623,0.75005186,1.7537867,0.4568183,0.15546216,-0.0631715,0.87358844,-5.865773,7.184298,0.5259754,-0.73432696,3.9427662,0.597333,1
1.9800000000000015,11.242608652625464,-0.4353800161141389,5.999996126974873,0.7249357338842277,11.413939,-0.93492776,5.87254,1.1357876,0.1052232,0.8217541,1.7590961,0.4559278,0.13562566,-0.05755241,0.8777369,-5.842548,7.1566525,0.5361453,-0.7658003,4.2436876,0.62375516,1
1.9900000000000015,11.242608652625464,-0.4353800161141389,5.999996126974873,0.7249357338842277,11.413939,-0.93492776,5.87254,1.1357876,0.0468999,0.89319605,1.7645146,0.4548076,0.11443694,-0.05141952,0.881708,-5.8226523,7.1322675,0.5477512,-0.7923521,4.497682,0.6488807,1
2.0000000000000013,,,,,12.004523,-0.8012926,5.3954835,1.2695805,-0.011242155,0.96441144,1.7700558,0.45341203,0.09209585,-0.044849683,0.8853944,-5.8063364,7.111384,0.5606614,-0.8147504,4.7120686,0.6727734,1
2.010000000000001,,,,,12.004523,-0.8012926,5.3954835,1.2695805,-0.06923649,1.0354319,1.7757607,0.4516773,0.06896944,-0.037949122,0.88870096,-5.7931666,7.093309,0.5804939,-0.8127901,4.8186326,0.70205885,1
2.020000000000001,,,,,12.004523,-0.8012926,5.3954835,1.2695805,-0.12711972,1.1062917,1.7816687,0.44955865,0.045364253,-0.030805921,0.8915654,-5.7841377,7.0792575,0.6012601,-0.81112725,4.908578,0.7299073,1
2.0300000000000007,,,,,12.004523,-0.8012926,5.3954835,1.2695805,-0.18493387,1.1770313,1.787788,0.44704738,0.021360938,-0.023456628,0.8939468,-5.779364,7.0693235,0.6226865,-0.8097156,4.9844975,0.7563892,1
2.0400000000000005,,,,,12.004523,-0.8012926,5.3954835,1.2695805,-0.24272197,1.2476925,1.7941238,0.44413754,-0.0029684743,-0.015932912,0.8958113,-5.7789426,7.0635743,0.6444812,-0.8085164,5.0485783,0.7815716,1
2.0500000000000003,,,,,11.817026,-0.52623796,5.41378,0.6289133,-0.30052796,1.3183173,1.8006779,0.44082555,-0.027559347,-0.008262345,0.89713085,-5.782953,7.0620556,0.6663374,-0.807497,5.102666,0.8055184,1
2.06,,,,,11.817026,-0.52623796,5.41378,0.6289133,-0.35839587,1.3889481,1.8074403,0.43718508,-0.05231112,-0.00036962284,0.8978482,-5.7913194,7.0647507,0.6860678,-0.76363134,5.1512113,0.7968523,1
2.07,,,,,11.817026,-0.52623796,5.41378,0.6289133,-0.41636962,1.4596268,1.8143973,0.43328986,-0.077138774,0.007799918,0.8979128,-5.8041205,7.071662,0.7052264,-0.72660327,5.192182,0.78861153,1
2.0799999999999996,,,,,11.817026,-0.52623796,5.41378,0.6289133,-0.4744935,1.5303959,1.8215418,0.4291379,-0.10200789,0.016195463,0.89731354,-5.8213506,7.0828023,0.7234889,-0.6953474,5.2267594,0.78077507,1
2.0899999999999994,,,,,10.704057,-0.16703172,5.364938,0.35030982,-0.53281176,1.6012974,1.828863,0.42472747,-0.12688613,0.024772868,0.89604217,-5.8429914,7.098161,0.7405278,-0.66896415,5.255942,0.7733232,1
2.099999999999999,,,,,10.704057,-0.16703172,5.364938,0.35030982,-0.59135646,1.6723646,1.8362933,0.42010838,-0.15166579,0.03360962,0.89407814,-5.8665557,7.1158705,0.74531734,-0.5906252,5.2729874,0.75256586,1
2.109999999999999,,,,,10.704057,-0.16703172,5.364938,0.35030982,-0.65015626,1.7436278,1.8437634,0.41532993,-0.17625862,0.042762008,0.89140576,-5.894005,7.1373563,0.74841046,-0.52450514,5.2873664,0.73282707,1
2.1199999999999988,,,,,10.704057,-0.16703172,5.364938,0.35030982,-0.7092496,1.8151246,1.8512547,0.41038918,-0.20066139,0.052165266,0.8880277,-5.9252453,7.1625853,0.7495206,-0.46869832,5.299496,0.7140568,1
2.1299999999999986,,,,,10.0163965,-0.38332832,2.8802812,0.216567,-0.76867396,1.8868922,1.858746,0.4052825,-0.22486854,0.061763454,0.883948,-5.9601793,7.1915064,0.7483654,-0.42159653,5.3097286,0.69620764,1
2.1399999999999983,,,,,10.0163965,-0.38332832,2.8802812,0.216567,-0.8284534,1.9589568,1.8661828,0.40007216,-0.24803504,0.07102817,0.8794171,-5.996207,7.2219276,0.73862416,-0.41538095,4.930867,0.6726715,1
2.149999999999998,,,,,10.0163965,-0.38332832,2.8802812,0.216567,-0.88860875,2.0313413,1.8735101,0.3948428,-0.26951087,0.07954783,0.87471926,-6.03533,7.2554183,0.72642416,-0.41017494,4.611088,0.6502903,1
2.159999999999998,,,,,10.0163965,-0.38332832,2.8802812,0.216567,-0.9491698,2.1040747,1.8807027,0.3896156,-0.28955176,0.08743453,0.86989266,-6.077293,7.291663,0.71173024,-0.40581343,4.341177,0.6290074,1
2.1699999999999977,,,,,10.202119,-0.7683477,-2.6759312,0.18417816,-1.0101637,2.1771832,1.887736,0.3844032,-0.30837324,0.09478228,0.8649596,-6.121879,7.3303924,0.694522,-0.4021592,4.113358,0.6087688,1
2.1799999999999975,,,,,10.202119,-0.7683477,-2.6759312,0.18417816,-1.0716282,2.2507012,1.8946059,0.37934744,-0.32442078,0.10064497,0.8606485,-6.1711016,7.373262,0.67860645,-0.4888876,3.0846105,0.59065527,1
2.1899999999999973,,,,,10.202119,-0.7683477,-2.6759312,0.18417816,-1.1335877,2.3246498,1.9012926,0.3746598,-0.33636358,0.10435367,0.85767037,-6.221023,7.4165983,0.65838724,-0.53343254,2.187584,0.5708344,1
2.199999999999997,,,,,10.202119,-0.7683477,-2.6759312,0.18417816,-1.1960539,2.3990364,1.9077679,0.37036693,-0.34479946,0.10629582,0.8559448,-6.2724257,7.460854,0.63649225,-0.56976753,1.4291149,0.55186105,1
2.209999999999997,,,,,10.059415,-1.2552781,-5.7762976,0.2982374,-1.2590401,2.4738684,1.9140186,0.36644015,-0.35029656,0.10676286,0.8553446,-6.324998,7.505583,0.6135167,-0.60049635,0.78893125,0.5338187,1
2.2199999999999966,,,,,10.059415,-1.2552781,-5.7762976,0.2982374,-1.322553,2.5491452,1.9200311,0.36289248,-0.3523337,0.10538015,0.85619134,-6.3776727,7.549719,0.5889053,-0.70245165,-0.2347459,0.5222771,1
