time-since-start [s],throttle_mpc,roll_mpc,pitch_mpc,yaw_mpc,throttle_nw,roll_nw,pitch_nw,yaw_nw,position_x [m],position_y [m],position_z [m],rotation_w [quaternion],rotation_x [quaternion],rotation_y [quaternion],rotation_z [quaternion],velocity_x [m/s],velocity_y [m/s],velocity_z [m/s],omega_x [rad/s],omega_y [rad/s],omega_z [rad/s],network_used
0.0,18.024476013376457,5.999999979224292,-6.0,-2.9757134467905546,8.757382,6.4408326,-6.803349,-0.5242512,21.09548,-9.51396,2.4517832,-0.009682721,0.50194746,-0.16189204,-0.8495563,-11.462409,-5.489108,-3.2911074,4.5711474,0.19929206,-1.2356576,0
0.01,18.024476013376457,5.999999979224292,-6.0,-2.9757134467905546,22.407799,5.2478557,-7.15738,0.13555156,20.980074,-9.568579,2.4187891,-0.027032627,0.50145173,-0.1784123,-0.8461587,-11.618076,-5.433722,-3.3083982,4.7553554,-0.73004997,-1.3176154,0
0.02,18.024476013376457,5.999999979224292,-6.0,-2.9757134467905546,22.407799,5.2478557,-7.15738,0.13555156,20.863138,-9.62261,2.3856046,-0.045975775,0.4969746,-0.19531174,-0.8442487,-11.768293,-5.3712616,-3.3286564,4.947484,-1.5511333,-1.3988675,0
0.03,18.024476013376457,5.999999979224292,-6.0,-2.9757134467905546,22.407799,5.2478557,-7.15738,0.13555156,20.744719,-9.675975,2.3522146,-0.06639919,0.4889821,-0.21245152,-0.8434169,-11.914741,-5.3003635,-3.3492467,5.11088,-2.245338,-1.4762439,0
0.04,18.024476013376457,5.999999979224292,-6.0,-2.9757134467905546,19.43801,6.519548,-7.4746413,-0.80332977,20.624859,-9.728588,2.3186216,-0.08812943,0.47791955,-0.22965297,-0.84325904,-12.056316,-5.220803,-3.3692043,5.248841,-2.8312593,-1.5498233,0
0.05,18.024476013376457,5.999999979224292,-6.0,-2.9757134467905546,19.43801,6.519548,-7.4746413,-0.80332977,20.503614,-9.780362,2.2848353,-0.11099913,0.464158,-0.24676394,-0.8434123,-12.191863,-5.132568,-3.387802,5.3653345,-3.3257847,-1.619792,0
0.060000000000000005,18.024476013376457,5.999999979224292,-6.0,-2.9757134467905546,19.43801,6.519548,-7.4746413,-0.80332977,20.381048,-9.831211,2.2508721,-0.13484736,0.4480109,-0.2636553,-0.843557,-12.32026,-5.03581,-3.4044783,5.463709,-3.7431679,-1.6863273,0
0.07,18.024476013376457,5.999999979224292,-6.0,-2.9757134467905546,19.43801,6.519548,-7.4746413,-0.80332977,20.257236,-9.88105,2.2167537,-0.15951957,0.42974678,-0.2802175,-0.8434154,-12.440433,-4.9308352,-3.4188192,5.5467887,-4.0954394,-1.7495979,0
0.08,20.99999998421685,5.999999987169222,-6.0,-2.410942689779989,19.051762,7.259354,-6.28338,-1.9648405,20.132269,-9.9298,2.1825047,-0.18486752,0.409599,-0.2963576,-0.84274846,-12.551357,-4.818095,-3.4305408,5.6169567,-4.392755,-1.8097637,0
0.09,20.99999998421685,5.999999987169222,-6.0,-2.410942689779989,19.051762,7.259354,-6.28338,-1.9648405,20.006159,-9.977289,2.1482255,-0.21069057,0.38775212,-0.3120253,-0.8413669,-12.668696,-4.678377,-3.4247549,5.676308,-4.6435833,-1.8392637,0
0.09999999999999999,20.99999998421685,5.999999987169222,-6.0,-2.410942689779989,19.051762,7.259354,-6.28338,-1.9648405,19.878939,-10.023342,2.114021,-0.23679888,0.36436865,-0.3271789,-0.8391162,-12.773103,-4.5311136,-3.4156456,5.726446,-4.85528,-1.8673162,0
0.10999999999999999,20.99999998421685,5.999999987169222,-6.0,-2.410942689779989,19.051762,7.259354,-6.28338,-1.9648405,19.750742,-10.067889,2.079924,-0.2630698,0.33961385,-0.34175697,-0.8358583,-12.863638,-4.377251,-3.4032462,5.768802,-5.0339503,-1.8939921,0
0.11999999999999998,20.99999998421685,5.999999987169222,-6.0,-2.410942689779989,19.051762,7.259354,-6.28338,-1.9648405,19.621714,-10.110868,2.045967,-0.2893871,0.3136379,-0.35570684,-0.8314801,-12.939468,-4.2178445,-3.3876853,5.8045855,-5.1847453,-1.9193591,0
0.12999999999999998,21.0,5.999999918382561,-5.999999982470232,-2.1596232948014036,17.315603,4.550332,-6.6874604,0.7986932,19.492004,-10.152232,2.0121806,-0.31564048,0.28657836,-0.3689834,-0.8258906,-12.999882,-4.054042,-3.3691761,5.834818,-5.312013,-1.9434812,0
0.13999999999999999,21.0,5.999999918382561,-5.999999982470232,-2.1596232948014036,17.315603,4.550332,-6.6874604,0.7986932,19.361773,-10.19194,1.9785926,-0.34170005,0.25855076,-0.38155666,-0.8190282,-13.044291,-3.887068,-3.348004,5.8604045,-5.419377,-1.9540874,0
0.15,21.0,5.999999918382561,-5.999999982470232,-2.1596232948014036,17.315603,4.550332,-6.6874604,0.7986932,19.231176,-10.229968,1.9452283,-0.3674439,0.22966209,-0.39340064,-0.8108492,-13.07224,-3.7182083,-3.3245184,5.882023,-5.5099907,-1.9641732,0
0.16,21.0,4.739056929799716,-5.999999751596483,-0.6074330500939817,18.795938,4.9503417,-6.8000703,0.74268866,19.100384,-10.266302,1.9121089,-0.39278224,0.20002352,-0.4044846,-0.8013146,-13.083413,-3.5487924,-3.2991238,5.900289,-5.5864677,-1.9737638,0
0.17,21.0,4.739056929799716,-5.999999751596483,-0.6074330500939817,18.795938,4.9503417,-6.8000703,0.74268866,18.969566,-10.300946,1.8792511,-0.4173857,0.16986644,-0.41442135,-0.79068935,-13.077669,-3.3801954,-3.272246,5.7193604,-5.650475,-1.9067177,0
0.18000000000000002,21.0,4.739056929799716,-5.999999751596483,-0.6074330500939817,18.795938,4.9503417,-6.8000703,0.74268866,18.838888,-10.333915,1.8466681,-0.44099817,0.13939747,-0.4229254,-0.77924526,-13.0552225,-3.213871,-3.2442102,5.5666523,-5.7045617,-1.8429613,0
0.19000000000000003,21.0,4.739056929799716,-5.999999751596483,-0.6074330500939817,18.795938,4.9503417,-6.8000703,0.74268866,18.708519,-10.365236,1.8143699,-0.4636372,0.10867887,-0.43010816,-0.76696575,-13.01646,-3.0512295,-3.215332,5.4377613,-5.7502656,-1.7823335,0
0.20000000000000004,21.0,2.1583039938333446,-4.246018725666269,1.0224241482208694,20.925758,2.3322937,-4.493383,0.8733172,18.578617,-10.394956,1.7823632,-0.48531216,0.07776728,-0.4360632,-0.753839,-12.961853,-2.8935955,-3.185964,5.328971,-5.7888846,-1.7246808,0
0.21000000000000005,21.0,2.1583039938333446,-4.246018725666269,1.0224241482208694,20.925758,2.3322937,-4.493383,0.8733172,18.449337,-10.423129,1.750651,-0.5055134,0.04766389,-0.44047067,-0.74038494,-12.892056,-2.7421782,-3.1564672,4.835267,-5.5472937,-1.5898796,0
0.22000000000000006,21.0,2.1583039938333446,-4.246018725666269,1.0224241482208694,20.925758,2.3322937,-4.493383,0.8733172,18.320824,-10.449823,1.7192335,-0.5239111,0.0191717,-0.4431625,-0.7271564,-12.80839,-2.5978637,-3.127071,4.4184546,-5.3435574,-1.461693,0
0.23000000000000007,21.0,2.1583039938333446,-4.246018725666269,1.0224241482208694,20.925758,2.3322937,-4.493383,0.8733172,18.19321,-10.475113,1.6881087,-0.5407421,-0.007937413,-0.44440433,-0.7141706,-12.712264,-2.4612885,-3.097926,4.0665607,-5.1717377,-1.3397967,0
0.24000000000000007,21.0,2.1583039938333446,-4.246018725666269,1.0224241482208694,21.542244,-0.24984136,-1.9845921,0.83746684,18.066616,-10.499078,1.6572737,-0.55619884,-0.033863302,-0.44440997,-0.7014241,-12.604938,-2.3329446,-3.0691626,3.769476,-5.026827,-1.2238817,0
0.25000000000000006,21.0,2.1583039938333446,-4.246018725666269,1.0224241482208694,21.542244,-0.24984136,-1.9845921,0.83746684,17.941147,-10.521801,1.6267239,-0.57043767,-0.058779,-0.44335186,-0.68890125,-12.48753,-2.2132156,-3.0409007,3.518665,-4.9046063,-1.113655,0
0.26000000000000006,21.0,2.1583039938333446,-4.246018725666269,1.0224241482208694,21.542244,-0.24984136,-1.9845921,0.83746684,17.816898,-10.543372,1.5964538,-0.5835861,-0.0828329,-0.44136918,-0.676579,-12.361048,-2.1024053,-3.0132582,3.3069208,-4.80152,-1.0088371,0
0.2700000000000001,21.0,2.1583039938333446,-4.246018725666269,1.0224241482208694,21.542244,-0.24984136,-1.9845921,0.83746684,17.693954,-10.563881,1.5664564,-0.5957482,-0.10615116,-0.4385746,-0.66443074,-12.2263975,-2.000756,-2.9863555,3.128158,-4.7145686,-0.9091626,0
0.2800000000000001,21.0,-0.5455176978403932,-0.22818898420311717,1.0150197133927437,20.91527,-0.3615889,0.43791175,0.53859264,17.572393,-10.583419,1.5367237,-0.60700923,-0.12884016,-0.43505952,-0.6524287,-12.084407,-1.9084632,-2.9603198,2.97724,-4.641225,-0.8143791,0
0.2900000000000001,21.0,-0.5455176978403932,-0.22818898420311717,1.0150197133927437,20.91527,-0.3615889,0.43791175,0.53859264,17.45229,-10.602082,1.5072465,-0.6169097,-0.14929011,-0.4311935,-0.6412541,-11.935927,-1.8255347,-2.935263,2.4284663,-3.9525793,-0.72461,0
0.3000000000000001,21.0,-0.5455176978403932,-0.22818898420311717,1.0150197133927437,20.91527,-0.3615889,0.43791175,0.53859264,17.333694,-10.619959,1.4780151,-0.625195,-0.1662576,-0.42735493,-0.63155127,-11.782261,-1.7510772,-2.9111488,1.9651389,-3.3714333,-0.63924587,0
0.3100000000000001,21.0,-0.5455176978403932,-0.22818898420311717,1.0150197133927437,20.91527,-0.3615889,0.43791175,0.53859264,17.216656,-10.637129,1.4490207,-0.6321811,-0.18031682,-0.4236018,-0.6232127,-11.624616,-1.6839666,-2.8878415,1.5739614,-2.8809986,-0.5580706,0
0.3200000000000001,21.0,-3.1348033129846167,3.5206910581135644,1.4554274232548745,21.015053,-2.4355023,2.5031133,0.7390186,17.101213,-10.65366,1.4202561,-0.6381112,-0.1919498,-0.4199621,-0.6161176,-11.463932,-1.623198,-2.8651743,1.2437057,-2.467111,-0.48087862,0
0.3300000000000001,21.0,-3.1348033129846167,3.5206910581135644,1.4554274232548745,21.015053,-2.4355023,2.5031133,0.7390186,16.987389,-10.66961,1.3917158,-0.6427228,-0.20000167,-0.41676378,-0.6109128,-11.301018,-1.5677371,-2.8429365,0.5612701,-1.5330658,-0.3858635,0
0.34000000000000014,21.0,-3.1348033129846167,3.5206910581135644,1.4554274232548745,21.015053,-2.4355023,2.5031133,0.7390186,16.875198,-10.685025,1.3633974,-0.6458373,-0.20358852,-0.4142824,-0.60812473,-11.136919,-1.5158144,-2.820725,-0.014885813,-0.74478936,-0.29551083,0
0.35000000000000014,21.0,-3.1348033129846167,3.5206910581135644,1.4554274232548745,21.015053,-2.4355023,2.5031133,0.7390186,16.76465,-10.699931,1.3353028,-0.64770716,-0.20343688,-0.41243187,-0.6074443,-10.9725895,-1.4656097,-2.7980967,-0.5013008,-0.0795228,-0.20959176,0
0.36000000000000015,21.0,-4.950114392259756,5.928041174770743,2.0114087424132467,22.156519,-3.8585298,4.6549597,0.8646563,16.655745,-10.714337,1.3074384,-0.6485085,-0.20014784,-0.4111141,-0.6085741,-10.808803,-1.4155723,-2.774665,-0.91194135,0.48193726,-0.1278888,0
0.37000000000000016,21.0,-4.950114392259756,5.928041174770743,2.0114087424132467,22.156519,-3.8585298,4.6549597,0.8646563,16.54847,-10.728237,1.2798135,-0.6480676,-0.19318916,-0.4103959,-0.6117689,-10.64626,-1.3642945,-2.7500873,-1.5417094,1.3312037,-0.022912841,0
0.38000000000000017,21.0,-4.950114392259756,5.928041174770743,2.0114087424132467,22.156519,-3.8585298,4.6549597,0.8646563,16.44281,-10.7416115,1.2524419,-0.64620066,-0.182153,-0.410294,-0.61717373,-10.485882,-1.3100346,-2.7239594,-2.073368,2.0479531,0.0769119,0
0.3900000000000002,21.0,-4.950114392259756,5.928041174770743,2.0114087424132467,22.156519,-3.8585298,4.6549597,0.8646563,16.338741,-10.754422,1.2253407,-0.64298826,-0.1676631,-0.41063678,-0.6243654,-10.328629,-1.2511609,-2.6959572,-2.5221872,2.6528738,0.17183821,0
0.4000000000000002,21.0,-5.321673932901556,5.671045822551462,2.0362575770145788,22.335436,-4.1820936,5.0004773,0.8095701,16.236223,-10.766615,1.1985297,-0.638475,-0.15024292,-0.41126427,-0.63295966,-10.175433,-1.1863464,-2.6658967,-2.9010625,3.1634226,0.26210648,0
0.4100000000000002,21.0,-5.321673932901556,5.671045822551462,2.0362575770145788,22.335436,-4.1820936,5.0004773,0.8095701,16.135212,-10.778124,1.17203,-0.6327466,-0.13030799,-0.41187164,-0.64266086,-10.027228,-1.1145471,-2.6337152,-3.2788227,3.554236,0.34916455,0
0.4200000000000002,21.0,-5.321673932901556,5.671045822551462,2.0362575770145788,22.335436,-4.1820936,5.0004773,0.8095701,16.035658,-10.788878,1.1458628,-0.625861,-0.10821743,-0.41220322,-0.6532038,-9.884993,-1.0350071,-2.5994,-3.5976877,3.8840854,0.4319507,0
0.4300000000000002,21.0,-5.321673932901556,5.671045822551462,2.0362575770145788,22.335436,-4.1820936,5.0004773,0.8095701,15.9374895,-10.798796,1.1200491,-0.6178051,-0.084308766,-0.41219276,-0.6643084,-9.749712,-0.9472065,-2.563038,-3.8668332,4.1624875,0.5106745,0
0.4400000000000002,21.0,-5.321673932901556,5.671045822551462,2.0362575770145788,22.196274,-4.351893,4.2655168,0.7734386,15.840635,-10.807794,1.0946085,-0.6085698,-0.058874983,-0.41178432,-0.6757292,-9.6223545,-0.85082716,-2.5248315,-4.094007,4.397472,0.5855353,0
0.45000000000000023,21.0,-5.321673932901556,5.671045822551462,2.0362575770145788,22.196274,-4.351893,4.2655168,0.7734386,15.745012,-10.8157835,1.0695579,-0.5981513,-0.032172263,-0.41093186,-0.68725157,-9.503862,-0.7457367,-2.485081,-4.285749,4.5958133,0.6567226,0
0.46000000000000024,21.0,-5.321673932901556,5.671045822551462,2.0362575770145788,22.196274,-4.351893,4.2655168,0.7734386,15.650525,-10.8226795,1.0449109,-0.5865522,-0.004426122,-0.40959856,-0.69868857,-9.395143,-0.63197327,-2.4441707,-4.4475822,4.76323,0.72441673,0
0.47000000000000025,21.0,-5.321673932901556,5.671045822551462,2.0362575770145788,22.196274,-4.351893,4.2655168,0.7734386,15.557074,-10.828395,1.0206769,-0.5737812,0.024163758,-0.40775594,-0.70987755,-9.297054,-0.5097311,-2.4025543,-4.5841684,4.904547,0.78878915,0
0.48000000000000026,21.0,-4.1988042256110285,3.5264246638537218,1.5627491700539675,21.407177,-3.6261847,2.4758425,0.40126744,15.464546,-10.832846,0.9968604,-0.5598529,0.053419586,-0.40538287,-0.7206772,-9.210403,-0.3793475,-2.360741,-4.6994433,5.0238357,0.8500028,0
0.49000000000000027,21.0,-4.1988042256110285,3.5264246638537218,1.5627491700539675,21.407177,-3.6261847,2.4758425,0.40126744,15.372824,-10.835955,0.9734608,-0.545217,0.082336575,-0.40231928,-0.7308202,-9.135859,-0.24134561,-2.3192606,-4.6213493,4.790253,0.88497746,0
0.5000000000000002,21.0,-4.1988042256110285,3.5264246638537218,1.5627491700539675,21.407177,-3.6261847,2.4758425,0.40126744,15.281786,-10.837649,0.95047253,-0.53030264,0.11011164,-0.39849192,-0.7401747,-9.073626,-0.09665215,-2.2785225,-4.5554395,4.593098,0.9182359,0
0.5100000000000002,21.0,-4.1988042256110285,3.5264246638537218,1.5627491700539675,21.407177,-3.6261847,2.4758425,0.40126744,15.191309,-10.837868,0.92788655,-0.5150963,0.13687292,-0.3939997,-0.7488029,-9.023727,0.053743456,-2.2388651,-4.4998145,4.426691,0.94986236,0
0.5200000000000002,21.0,-2.2109083092511197,0.4441077461496541,1.0376042874985805,21.168497,-2.2544389,-0.23944727,0.48197737,15.10127,-10.836558,0.9056904,-0.49958566,0.16272937,-0.3889238,-0.75675064,-8.986154,0.20892152,-2.2006035,-4.4528694,4.286237,0.9799369,1
0.5300000000000002,21.0,-2.2109083092511197,0.4441077461496541,1.0376042874985805,21.168497,-2.2544389,-0.23944727,0.48197737,15.011546,-10.833671,0.8838742,-0.4845944,0.18630144,-0.38316742,-0.7639651,-8.960537,0.36922646,-2.162893,-4.1095176,3.5807436,0.9555019,1
0.5400000000000003,21.0,-2.2109083092511197,0.4441077461496541,1.0376042874985805,21.168497,-2.2544389,-0.23944727,0.48197737,14.922022,-10.829166,0.8624274,-0.47085693,0.206532,-0.37672526,-0.7705298,-8.946254,0.5321813,-2.12667,-3.819803,2.9852247,0.93226594,1
0.5500000000000003,21.0,-2.2109083092511197,0.4441077461496541,1.0376042874985805,21.168497,-2.2544389,-0.23944727,0.48197737,14.832586,-10.823024,0.8413367,-0.45822442,0.22394109,-0.36976406,-0.77663064,-8.942211,0.6966728,-2.091619,-3.5753438,2.4825387,0.9101702,1
0.5600000000000003,21.0,-0.0943175294095601,-2.383510175050812,0.8322311027415091,21.011822,-0.9512006,-2.2968433,0.66493297,14.743145,-10.815231,0.82059205,-0.4465541,0.23896804,-0.36240727,-0.7823967,-8.947452,0.86182386,-2.057424,-3.3690696,2.0582151,0.8891586,1
0.5700000000000003,21.0,-0.0943175294095601,-2.383510175050812,0.8322311027415091,21.011822,-0.9512006,-2.2968433,0.66493297,14.653609,-10.805794,0.8001815,-0.4361241,0.251101,-0.35480055,-0.78794694,-8.960958,1.0256938,-2.024722,-2.991601,1.3792864,0.8781558,1
0.5800000000000003,21.0,-0.0943175294095601,-2.383510175050812,0.8322311027415091,21.011822,-0.9512006,-2.2968433,0.66493297,14.563902,-10.794722,0.7800976,-0.4271515,0.25996125,-0.34708035,-0.7934083,-8.981517,1.1888205,-1.9920042,-2.6730683,0.8061964,0.86769295,1
0.5900000000000003,21.0,-0.0943175294095601,-2.383510175050812,0.8322311027415091,21.011822,-0.9512006,-2.2968433,0.66493297,14.47396,-10.782022,0.7603433,-0.41942275,0.2660657,-0.339307,-0.7988517,-9.007898,1.3506458,-1.9587123,-2.4042683,0.3224466,0.8577435,1
0.6000000000000003,21.0,1.287040775277763,-3.701458044353163,0.7895792503392484,20.60239,-0.10083321,-3.4003737,1.0244298,14.383729,-10.7677145,0.7409269,-0.4127466,0.26984602,-0.33151746,-0.8043129,-9.039053,1.5107447,-1.9243531,-2.1774352,-0.08589019,0.8482822,0
0.6100000000000003,21.0,1.287040775277763,-3.701458044353163,0.7895792503392484,20.60239,-0.10083321,-3.4003737,1.0244298,14.293166,-10.751816,0.721861,-0.407372,0.27083862,-0.32423037,-0.80967206,-9.073968,1.6687102,-1.8885635,-1.6368419,-0.64943445,0.84540164,0
0.6200000000000003,21.0,1.287040775277763,-3.701458044353163,0.7895792503392484,20.60239,-0.10083321,-3.4003737,1.0244298,14.202242,-10.734348,0.7031624,-0.40348288,0.26869723,-0.31786385,-0.81484085,-9.11125,1.8244599,-1.8508289,-1.180604,-1.1251427,0.8426624,0
0.6300000000000003,21.0,1.287040775277763,-3.701458044353163,0.7895792503392484,20.60239,-0.10083321,-3.4003737,1.0244298,14.110939,-10.715335,0.6848525,-0.40082973,0.2639072,-0.3122927,-0.8198545,-9.149509,1.9778998,-1.8107569,-0.79555815,-1.5267051,0.8400576,0
0.6400000000000003,21.0,1.287040775277763,-3.701458044353163,0.7895792503392484,20.83172,1.1423615,-2.6376967,1.0656517,14.019254,-10.694798,0.6669564,-0.39919445,0.25687242,-0.30740035,-0.8247211,-9.187562,2.128961,-1.7680333,-0.47059548,-1.8656781,0.8375806,0
0.6500000000000004,21.0,1.287040775277763,-3.701458044353163,0.7895792503392484,20.83172,1.1423615,-2.6376967,1.0656517,13.927194,-10.672764,0.6495018,-0.39838862,0.24793042,-0.3030808,-0.82943267,-9.224398,2.2775824,-1.7224201,-0.19634047,-2.1518168,0.8352252,0
0.6600000000000004,21.0,1.287040775277763,-3.701458044353163,0.7895792503392484,20.83172,1.1423615,-2.6376967,1.0656517,13.834774,-10.649255,0.63251853,-0.39825088,0.2373645,-0.29923934,-0.8339722,-9.259149,2.4236984,-1.6737525,0.035119846,-2.3933566,0.83298534,0
0.6700000000000004,21.0,1.287040775277763,-3.701458044353163,0.7895792503392484,20.83172,1.1423615,-2.6376967,1.0656517,13.74202,-10.624298,0.6160376,-0.39864385,0.22541332,-0.29579246,-0.8383187,-9.291069,2.5672362,-1.621933,0.23046331,-2.5972486,0.83085537,0
0.6800000000000004,21.0,1.8493752848759362,-3.485864563799279,0.6889468658956067,20.608856,0.59339535,-1.9150777,0.9120459,13.648963,-10.59792,0.60009086,-0.39945123,0.21227878,-0.29266706,-0.84244996,-9.319516,2.7081115,-1.566924,0.3953254,-2.7693608,0.82882994,0
0.6900000000000004,21.0,1.8493752848759362,-3.485864563799279,0.6889468658956067,20.608856,0.59339535,-1.9150777,0.9120459,13.555642,-10.570147,0.58471,-0.40060723,0.19811895,-0.29002175,-0.84625626,-9.3439245,2.8462455,-1.5087534,0.622131,-2.8809795,0.8219658,0
0.7000000000000004,21.0,1.8493752848759362,-3.485864563799279,0.6889468658956067,20.608856,0.59339535,-1.9150777,0.9120459,13.4621,-10.541005,0.5699261,-0.40205383,0.18307018,-0.28797892,-0.8496503,-9.363737,2.9816356,-1.4475616,0.81355673,-2.975212,0.81543857,0
0.7100000000000004,21.0,1.8493752848759362,-3.485864563799279,0.6889468658956067,20.608856,0.59339535,-1.9150777,0.9120459,13.368385,-10.510524,0.55576843,-0.4037116,0.16726185,-0.28643078,-0.8526414,-9.378456,3.1142876,-1.3835399,0.9751221,-3.054766,0.8092316,0
0.7200000000000004,21.0,1.595419615577822,-1.8961224139202224,0.4432649061957519,20.828245,0.30121407,-0.43652657,0.6838336,13.2745495,-10.478729,0.54226434,-0.40551427,0.15080455,-0.28528512,-0.8552357,-9.387657,3.2441843,-1.316902,1.1114848,-3.1219282,0.8033292,0
0.7300000000000004,21.0,1.595419615577822,-1.8961224139202224,0.4432649061957519,20.828245,0.30121407,-0.43652657,0.6838336,13.180652,-10.44565,0.5294386,-0.40723956,0.13438879,-0.2846319,-0.85736793,-9.391028,3.3713202,-1.247905,1.1868205,-2.9307384,0.78566074,0
0.7400000000000004,21.0,1.595419615577822,-1.8961224139202224,0.4432649061957519,20.828245,0.30121407,-0.43652657,0.6838336,13.086749,-10.411312,0.517313,-0.40872684,0.11857452,-0.28454664,-0.8590199,-9.388565,3.4958613,-1.1769484,1.2504284,-2.7693717,0.76885927,0
0.7500000000000004,21.0,1.595419615577822,-1.8961224139202224,0.4432649061957519,20.828245,0.30121407,-0.43652657,0.6838336,12.9929,-10.375741,0.50590503,-0.4100076,0.10327232,-0.2849363,-0.86025536,-9.380359,3.6180084,-1.1044332,1.3041341,-2.6331756,0.75288224,0
0.7600000000000005,21.0,0.9699001049258533,0.042767481192022484,0.23019486953559742,21.196041,-0.48929843,2.2160344,0.56797516,12.899161,-10.33896,0.49522847,-0.41110805,0.08840607,-0.2857217,-0.86112547,-9.366496,3.737932,-1.0307099,1.3494787,-2.5182238,0.73768926,0
0.7700000000000005,21.0,0.9699001049258533,0.042767481192022484,0.23019486953559742,21.196041,-0.48929843,2.2160344,0.56797516,12.80559,-10.30099,0.48529384,-0.41183302,0.07469074,-0.2869383,-0.8616732,-9.34712,3.8558102,-0.9561056,1.2900572,-2.118888,0.7127864,0
0.7800000000000005,21.0,0.9699001049258533,0.042767481192022484,0.23019486953559742,21.196041,-0.48929843,2.2160344,0.56797516,12.712236,-10.26185,0.47610807,-0.4120459,0.06269286,-0.28861865,-0.86196655,-9.322733,3.9720085,-0.8809967,1.2399448,-1.7818214,0.68910545,0
0.7900000000000005,21.0,0.9699001049258533,0.042767481192022484,0.23019486953559742,21.196041,-0.48929843,2.2160344,0.56797516,12.61915,-10.221555,0.46767446,-0.41184253,0.052151386,-0.2906943,-0.86206853,-9.293889,4.0869203,-0.805713,1.1976818,-1.4973142,0.6665866,0
0.8000000000000005,20.99999994336915,0.046098455236579634,2.000214043619901,0.06301264071691114,20.983133,-1.350633,4.0684175,0.37746155,12.526372,-10.180115,0.45999345,-0.41130057,0.04284458,-0.29310548,-0.86202365,-9.261064,4.200888,-0.7305136,1.1620376,-1.2571712,0.6451727,0
0.8100000000000005,20.99999994336915,0.046098455236579634,2.000214043619901,0.06301264071691114,20.983133,-1.350633,4.0684175,0.37746155,12.43394,-10.137539,0.45306316,-0.41025767,0.0354178,-0.29580393,-0.861936,-9.2247305,4.314241,-0.6556099,0.9877795,-0.74927545,0.61660594,0
0.8200000000000005,20.99999994336915,0.046098455236579634,2.000214043619901,0.06301264071691114,20.983133,-1.350633,4.0684175,0.37746155,12.341886,-10.09383,0.44687957,-0.40859497,0.030372947,-0.29875046,-0.86190206,-9.185721,4.427457,-0.581199,0.8407468,-0.32056823,0.5894409,0
0.8300000000000005,20.99999994336915,0.046098455236579634,2.000214043619901,0.06301264071691114,20.983133,-1.350633,4.0684175,0.37746155,12.250232,-10.048988,0.44143695,-0.4064245,0.027342742,-0.30190697,-0.86192983,-9.144883,4.541011,-0.5074348,0.7166835,0.04129684,0.5636089,0
0.8400000000000005,20.99999994336915,0.046098455236579634,2.000214043619901,0.06301264071691114,20.138012,-2.3935797,4.5399423,0.28149748,12.158992,-10.003008,0.43672824,-0.4038358,0.026016615,-0.30523834,-0.86201435,-9.102931,4.655307,-0.4344316,0.6119996,0.3467406,0.53904456,0
0.8500000000000005,20.99999994336915,0.046098455236579634,2.000214043619901,0.06301264071691114,20.138012,-2.3935797,4.5399423,0.28149748,12.068175,-9.955879,0.43274537,-0.40090096,0.026132116,-0.3087129,-0.86214346,-9.060477,4.7706823,-0.3622788,0.52366626,0.6045597,0.51568556,0
0.8600000000000005,20.99999994336915,0.046098455236579634,2.000214043619901,0.06301264071691114,20.138012,-2.3935797,4.5399423,0.28149748,11.977782,-9.90759,0.42947945,-0.39767852,0.027467525,-0.31230268,-0.86230147,-9.018039,4.8874154,-0.29105052,0.4491284,0.82217973,0.49347275,0
0.8700000000000006,20.99999994336915,0.046098455236579634,2.000214043619901,0.06301264071691114,20.138012,-2.3935797,4.5399423,0.28149748,11.887813,-9.858126,0.42692092,-0.39421636,0.029835518,-0.31598327,-0.8624717,-8.97606,5.005735,-0.2208122,0.3862306,1.005868,0.47234994,0
0.8800000000000006,20.99999980677021,-0.5945454264335216,2.6136194480849184,-0.006057632119431671,19.21448,-2.8887904,4.625881,0.20619233,11.798258,-9.80747,0.4250596,-0.39055386,0.03307782,-0.31973344,-0.8626376,-8.934917,5.1258254,-0.15162428,0.3331545,1.1609148,0.45226365,0
0.8900000000000006,20.99999980677021,-0.5945454264335216,2.6136194480849184,-0.006057632119431671,19.21448,-2.8887904,4.625881,0.20619233,11.709109,-9.755604,0.42388466,-0.38664308,0.037374903,-0.32340887,-0.8628537,-8.89497,5.247834,-0.08353939,0.18843357,1.3874179,0.4297737,0
0.9000000000000006,20.99999980677021,-0.5945454264335216,2.6136194480849184,-0.006057632119431671,19.21448,-2.8887904,4.625881,0.20619233,11.620353,-9.702507,0.42338496,-0.3824445,0.04286186,-0.3268914,-0.86315745,-8.85671,5.3718934,-0.016579572,0.06629686,1.578608,0.4083873,0
0.9100000000000006,20.99999980677021,-0.5945454264335216,2.6136194480849184,-0.006057632119431671,19.21448,-2.8887904,4.625881,0.20619233,11.531968,-9.648159,0.42354915,-0.37799904,0.049354047,-0.33019918,-0.8635097,-8.820627,5.498104,0.04923451,-0.0367812,1.7399905,0.38805038,0
0.9200000000000006,20.99999957291514,-1.2264263283873582,2.88720124796879,-0.09732908962199577,18.765137,-3.3576195,3.752924,-0.026444772,11.443932,-9.592537,0.4243656,-0.37334085,0.056695316,-0.33334714,-0.8638759,-8.787136,5.6265345,0.11387017,-0.12377521,1.876212,0.3687114,0
0.9300000000000006,20.99999957291514,-1.2264263283873582,2.88720124796879,-0.09732908962199577,18.765137,-3.3576195,3.752924,-0.026444772,11.356215,-9.535621,0.42582235,-0.36845627,0.064945824,-0.33616877,-0.8642987,-8.756617,5.7572165,0.1772923,-0.2957406,2.0338383,0.34584263,0
0.9400000000000006,20.99999957291514,-1.2264263283873582,2.88720124796879,-0.09732908962199577,18.765137,-3.3576195,3.752924,-0.026444772,11.268786,-9.477386,0.42790726,-0.36333323,0.074144945,-0.33853027,-0.86480546,-8.72953,5.8901253,0.23950464,-0.4408797,2.1668935,0.32409605,0
0.9500000000000006,20.99999957291514,-1.2264263283873582,2.88720124796879,-0.09732908962199577,18.765137,-3.3576195,3.752924,-0.026444772,11.18161,-9.417811,0.43060827,-0.35800007,0.08414261,-0.3404868,-0.8653465,-8.706316,6.025203,0.30050617,-0.56337833,2.2792068,0.30341658,0
0.9600000000000006,20.9999985918225,-1.5761984041934494,1.9481830456290115,-0.1507548082667219,17.721958,-3.7022867,2.3235378,-0.30035764,11.0946455,-9.356875,0.43391314,-0.35248092,0.09481166,-0.34208462,-0.8658787,-8.687346,6.162376,0.36027262,-0.6667688,2.3740113,0.28375188,0
0.9700000000000006,20.9999985918225,-1.5761984041934494,1.9481830456290115,-0.1507548082667219,17.721958,-3.7022867,2.3235378,-0.30035764,11.007848,-9.294557,0.43780938,-0.3469181,0.105770305,-0.34311005,-0.8664502,-8.672923,6.301529,0.41878104,-0.80854964,2.3075886,0.26243052,0
0.9800000000000006,20.9999985918225,-1.5761984041934494,1.9481830456290115,-0.1507548082667219,17.721958,-3.7022867,2.3235378,-0.30035764,10.92117,-9.230839,0.44228476,-0.34142888,0.11671026,-0.34340146,-0.86711043,-8.6632,6.4423957,0.4761156,-0.9282246,2.2515311,0.24215542,0
0.9900000000000007,20.9999985918225,-1.5761984041934494,1.9481830456290115,-0.1507548082667219,17.721958,-3.7022867,2.3235378,-0.30035764,10.834566,-9.165704,0.44732806,-0.3359987,0.12763116,-0.3430645,-0.867826,-8.658272,6.5846844,0.53237706,-1.0292408,2.2042212,0.2228752,0
1.0000000000000007,20.61229912840194,-1.767604689640981,1.3007559475399688,-0.25493476525049047,16.24834,-3.6262884,1.6435721,-0.28474867,10.747987,-9.099141,0.45292887,-0.33061546,0.1385326,-0.34218794,-0.8685675,-8.658216,6.7281356,0.5876382,-1.1145068,2.164293,0.20454106,0
1.0100000000000007,20.61229912840194,-1.767604689640981,1.3007559475399688,-0.25493476525049047,16.24834,-3.6262884,1.6435721,-0.28474867,10.661386,-9.031153,0.45906347,-0.32535857,0.14921889,-0.34069356,-0.8693695,-8.662993,6.8698344,0.63914883,-1.2163092,2.0296295,0.18199442,0
1.0200000000000007,20.61229912840194,-1.767604689640981,1.3007559475399688,-0.25493476525049047,16.24834,-3.6262884,1.6435721,-0.28474867,10.574711,-8.961743,0.4657091,-0.32029268,0.15953556,-0.338526,-0.87026495,-8.672563,7.0121236,0.6898677,-1.3022432,1.9159697,0.16055422,0
1.0300000000000007,20.61229912840194,-1.767604689640981,1.3007559475399688,-0.25493476525049047,16.24834,-3.6262884,1.6435721,-0.28474867,10.487917,-8.890909,0.47285855,-0.3153886,0.1695378,-0.33578455,-0.8712265,-8.686865,7.154707,0.73992425,-1.3747816,1.8200381,0.14016606,0
1.0400000000000007,20.61229912840194,-1.767604689640981,1.3007559475399688,-0.25493476525049047,15.67482,-3.542547,1.8646941,-0.27267098,10.400957,-8.818649,0.48050565,-0.31062162,0.17927215,-0.33255246,-0.8722296,-8.705844,7.2973266,0.78942,-1.4360127,1.7390687,0.120778345,0
1.0500000000000007,20.61229912840194,-1.767604689640981,1.3007559475399688,-0.25493476525049047,15.67482,-3.542547,1.8646941,-0.27267098,10.313785,-8.744964,0.48864526,-0.30597094,0.18877774,-0.32889956,-0.8732523,-8.729448,7.439755,0.8384318,-1.4876989,1.670728,0.10234201,0
1.0600000000000007,20.61229912840194,-1.767604689640981,1.3007559475399688,-0.25493476525049047,15.67482,-3.542547,1.8646941,-0.27267098,10.226353,-8.669855,0.49727282,-0.30141896,0.19808751,-0.32488465,-0.87427545,-8.757632,7.581793,0.88701516,-1.5313277,1.6130456,0.084810324,0
1.0700000000000007,20.61229912840194,-1.767604689640981,1.3007559475399688,-0.25493476525049047,15.67482,-3.542547,1.8646941,-0.27267098,10.138617,-8.593329,0.50638425,-0.29695094,0.20722908,-0.3205571,-0.8752822,-8.79035,7.723261,0.93520707,-1.5681555,1.5643591,0.06813893,0
1.0800000000000007,17.648155018912224,-1.6537106735906002,-0.32583814569906777,-0.26767695644525413,15.600041,-3.5706367,1.7532384,-0.21833883,10.05053,-8.515392,0.5159757,-0.29255432,0.21622558,-0.31595856,-0.8762581,-8.827562,7.863999,0.9830286,-1.5992419,1.5232656,0.0522856,0
1.0900000000000007,17.648155018912224,-1.6537106735906002,-0.32583814569906777,-0.26767695644525413,15.600041,-3.5706367,1.7532384,-0.21833883,9.96208,-8.436153,0.5259389,-0.28843564,0.22451371,-0.31097525,-0.8773212,-8.863197,7.983732,1.0095828,-1.6077136,1.2349149,0.036584955,0
1.1000000000000008,17.648155018912224,-1.6537106735906002,-0.32583814569906777,-0.26767695644525413,15.600041,-3.5706367,1.7532384,-0.21833883,9.873255,-8.355721,0.536167,-0.28475815,0.23165011,-0.30552566,-0.8785811,-8.90231,8.102481,1.0360368,-1.6148714,0.9915319,0.021654734,0
1.1100000000000008,17.648155018912224,-1.6537106735906002,-0.32583814569906777,-0.26767695644525413,15.600041,-3.5706367,1.7532384,-0.21833883,9.784023,-8.274108,0.54666,-0.28145355,0.23781373,-0.29968378,-0.8800101,-8.944572,8.220028,1.0626013,-1.620918,0.7861035,0.0074571534,0
1.1200000000000008,15.661293021529852,-1.4608281186544865,-0.5669473302788612,-0.3435943472637584,15.211461,-3.3330767,0.63160515,-0.35223952,9.694354,-8.191325,0.55742,-0.27846363,0.24315506,-0.29351053,-0.8815809,-8.989705,8.336195,1.0894545,-1.6260259,0.612711,-0.006043762,0
1.1300000000000008,15.661293021529852,-1.4608281186544865,-0.5669473302788612,-0.3435943472637584,15.211461,-3.3330767,0.63160515,-0.35223952,9.604246,-8.107454,0.56838006,-0.27579466,0.24769711,-0.28709537,-0.88326627,-9.032087,8.437923,1.1026301,-1.6002594,0.42876115,-0.022607451,0
1.1400000000000008,15.661293021529852,-1.4608281186544865,-0.5669473302788612,-0.3435943472637584,15.211461,-3.3330767,0.63160515,-0.35223952,9.513705,-8.022572,0.57947433,-0.27345043,0.2514653,-0.28051165,-0.885044,-9.076565,8.538184,1.1163182,-1.5785145,0.27349666,-0.03835836,0
1.1500000000000008,15.661293021529852,-1.4608281186544865,-0.5669473302788612,-0.3435943472637584,15.211461,-3.3330767,0.63160515,-0.35223952,9.4227085,-7.9366946,0.5907085,-0.27138218,0.25457945,-0.2737837,-0.8868952,-9.122925,8.636889,1.130624,-1.5601631,0.1424446,-0.05333638,0
1.1600000000000008,13.167935967172147,-1.2716049464636876,-1.8756583420523965,-0.2765353869346846,15.229771,-2.77101,0.21172103,-0.44020283,9.331241,-7.849839,0.6020892,-0.26954865,0.2571404,-0.26693162,-0.8888023,-9.170985,8.733964,1.1456339,-1.5446752,0.031829104,-0.06757941,0
1.1700000000000008,13.167935967172147,-1.2716049464636876,-1.8756583420523965,-0.2765353869346846,15.229771,-2.77101,0.21172103,-0.44020283,9.239323,-7.7620974,0.6135333,-0.26806575,0.25874478,-0.25990042,-0.89086664,-9.21267,8.814149,1.1433038,-1.5021049,-0.26563466,-0.07783293,0
1.1800000000000008,13.167935967172147,-1.2716049464636876,-1.8756583420523965,-0.2765353869346846,15.229771,-2.77101,0.21172103,-0.44020283,9.146984,-7.6735616,0.62495816,-0.2670182,0.25907558,-0.2526486,-0.8931683,-9.255356,8.892801,1.1417998,-1.4661745,-0.5167095,-0.08758332,0
1.1900000000000008,13.167935967172147,-1.2716049464636876,-1.8756583420523965,-0.2765353869346846,15.229771,-2.77101,0.21172103,-0.44020283,9.054214,-7.584247,0.6363728,-0.2663317,0.25832704,-0.24520828,-0.8956603,-9.2987585,8.969822,1.1412859,-1.4358479,-0.7286298,-0.09685525,0
1.2000000000000008,12.385902993822034,-1.0066167781744033,-0.4895750857043864,-0.3317393377357907,13.713234,-2.8070755,-2.130136,0.038210943,8.961007,-7.494171,0.6477878,-0.2659436,0.25666258,-0.2376056,-0.8982994,-9.342637,9.045123,1.1418949,-1.4102508,-0.90750176,-0.10567221,0
1.2100000000000009,12.385902993822034,-1.0066167781744033,-0.4895750857043864,-0.3317393377357907,13.713234,-2.8070755,-2.130136,0.038210943,8.867373,-7.4033732,0.6591853,-0.26570466,0.2546926,-0.23010369,-0.90088004,-9.384185,9.114274,1.1377771,-1.347306,-0.8423208,-0.11676539,0
1.2200000000000009,12.385902993822034,-1.0066167781744033,-0.4895750857043864,-0.3317393377357907,13.713234,-2.8070755,-2.130136,0.038210943,8.773323,-7.3118916,0.67054707,-0.26550227,0.25291207,-0.22291383,-0.90324605,-9.425966,9.181783,1.1347438,-1.2941769,-0.7873053,-0.12731422,0
1.2300000000000009,12.385902993822034,-1.0066167781744033,-0.4895750857043864,-0.3317393377357907,13.713234,-2.8070755,-2.130136,0.038210943,8.678854,-7.219743,0.6818836,-0.26533633,0.25129202,-0.21598597,-0.9054275,-9.467983,9.247708,1.1327121,-1.2493331,-0.74086994,-0.13734543,0
1.2400000000000009,12.385902993822034,-1.0066167781744033,-0.4895750857043864,-0.3317393377357907,12.989463,-2.383906,-2.8169668,-0.011202289,8.583962,-7.126943,0.69320446,-0.26520622,0.24980778,-0.2092777,-0.9074495,-9.51024,9.3121,1.1316109,-1.2114825,-0.70167667,-0.14688441,0
1.2500000000000009,12.385902993822034,-1.0066167781744033,-0.4895750857043864,-0.3317393377357907,12.989463,-2.383906,-2.8169668,-0.011202289,8.488648,-7.0335064,0.70451874,-0.2651109,0.2484383,-0.20275325,-0.9093326,-9.552735,9.375002,1.1313791,-1.1795346,-0.6685957,-0.15595528,0
1.260000000000001,12.385902993822034,-1.0066167781744033,-0.4895750857043864,-0.3317393377357907,12.989463,-2.383906,-2.8169668,-0.011202289,8.392907,-6.939448,0.7158348,-0.26504907,0.24716562,-0.19638228,-0.91109395,-9.595474,9.436448,1.1319635,-1.1525689,-0.6406738,-0.16458106,0
1.270000000000001,12.385902993822034,-1.0066167781744033,-0.4895750857043864,-0.3317393377357907,12.989463,-2.383906,-2.8169668,-0.011202289,8.296738,-6.844782,0.72716063,-0.26501927,0.2459744,-0.19013931,-0.91274774,-9.638454,9.496468,1.1333176,-1.1298087,-0.6171065,-0.17278357,0
1.280000000000001,10.724724404189093,-1.002207271790548,-1.2078168703335999,-0.21183851833461234,13.744865,-1.7335682,-3.4090474,-0.5115152,8.200137,-6.7495227,0.73850363,-0.26501992,0.24485159,-0.18400274,-0.9143058,-9.681679,9.555083,1.1354003,-1.1105977,-0.59721464,-0.18058358,0
1.290000000000001,10.724724404189093,-1.002207271790548,-1.2078168703335999,-0.21183851833461234,13.744865,-1.7335682,-3.4090474,-0.5115152,8.103132,-6.6537232,0.7498035,-0.2650884,0.24351981,-0.17788336,-0.91585135,-9.719306,9.604635,1.1246536,-1.0937061,-0.6924388,-0.18211728,0
1.300000000000001,10.724724404189093,-1.002207271790548,-1.2078168703335999,-0.21183851833461234,13.744865,-1.7335682,-3.4090474,-0.5115152,8.005751,-6.557434,0.7609989,-0.2652493,0.24175723,-0.17170961,-0.91744864,-9.757066,9.652961,1.1145339,-1.0794472,-0.77281237,-0.1835757,0
1.310000000000001,10.724724404189093,-1.002207271790548,-1.2078168703335999,-0.21183851833461234,13.744865,-1.7335682,-3.4090474,-0.5115152,7.907991,-6.460668,0.7720964,-0.26548427,0.23962846,-0.16548854,-0.919081,-9.79488,9.70003,1.1050701,-1.0674106,-0.8406517,-0.18496259,0
1.320000000000001,10.314884191589476,-0.8734462417382282,0.6374982051040105,-0.258937416845375,12.193436,-1.5798982,-3.924285,-0.5753289,7.809853,-6.363438,0.78310263,-0.26577792,0.23718809,-0.1592261,-0.9207339,-9.832682,9.745813,1.0962826,-1.05725,-0.89791113,-0.1862814,0
1.330000000000001,10.314884191589476,-0.8734462417382282,0.6374982051040105,-0.258937416845375,12.193436,-1.5798982,-3.924285,-0.5753289,7.7113447,-6.265765,0.79400724,-0.2660196,0.23515026,-0.15317026,-0.922213,-9.868996,9.788602,1.0847275,-1.0285585,-0.6584659,-0.18984663,0
1.340000000000001,10.314884191589476,-0.8734462417382282,0.6374982051040105,-0.258937416845375,12.193436,-1.5798982,-3.924285,-0.5753289,7.612473,-6.16767,0.804799,-0.26612923,0.23408659,-0.14751908,-0.92337257,-9.905376,9.83023,1.0737087,-1.0043448,-0.45636177,-0.19323695,0
1.350000000000001,10.314884191589476,-0.8734462417382282,0.6374982051040105,-0.258937416845375,12.193436,-1.5798982,-3.924285,-0.5753289,7.513237,-6.069164,0.8154828,-0.26613447,0.23384668,-0.14220959,-0.92426443,-9.941967,9.870801,1.0630994,-0.98391044,-0.28577533,-0.19646087,0
1.360000000000001,9.155953165562625,-1.029819072058679,-0.8218839626288295,-0.10148789811904557,9.924671,-1.7471458,-3.1026278,-0.17924933,7.413633,-5.970257,0.826062,-0.26605722,0.2343028,-0.13718824,-0.9249299,-9.9788885,9.910406,1.0527936,-0.96666557,-0.14179164,-0.19952661,0
1.370000000000001,9.155953165562625,-1.029819072058679,-0.8218839626288295,-0.10148789811904557,9.924671,-1.7471458,-3.1026278,-0.17924933,7.3136787,-5.8709803,0.8364899,-0.26596117,0.23482019,-0.1322007,-0.9255525,-10.012029,9.944758,1.0328263,-0.97652745,-0.24785362,-0.19471583,0
1.380000000000001,9.155953165562625,-1.029819072058679,-0.8218839626288295,-0.10148789811904557,9.924671,-1.7471458,-3.1026278,-0.17924933,7.2133913,-5.771364,0.84671926,-0.26589027,0.23488882,-0.12704346,-0.9262774,-10.045505,9.978284,1.0130751,-0.9848487,-0.33737528,-0.19014111,0
1.390000000000001,9.155953165562625,-1.029819072058679,-0.8218839626288295,-0.10148789811904557,9.924671,-1.7471458,-3.1026278,-0.17924933,7.1127677,-5.671417,0.85675234,-0.26583466,0.23457679,-0.12174295,-0.9270839,-10.079255,10.010935,0.99357444,-0.99187,-0.4129362,-0.18579088,0
1.400000000000001,9.365572494332419,-0.9531294922297573,0.20778417976345478,-0.09631939899963834,8.917889,-2.0061483,-3.7571821,0.18715332,7.011805,-5.5711484,0.8665917,-0.2657863,0.23394158,-0.11632146,-0.9279539,-10.113229,10.042673,0.9743511,-0.99779457,-0.47671336,-0.18165411,0
1.410000000000001,9.365572494332419,-0.9531294922297573,0.20778417976345478,-0.09631939899963834,8.917889,-2.0061483,-3.7571821,0.18715332,6.910498,-5.470564,0.8762494,-0.2656982,0.23340613,-0.11093607,-0.92877305,-10.148175,10.074178,0.9572293,-0.99081534,-0.36997,-0.1774667,0
1.420000000000001,9.365572494332419,-0.9531294922297573,0.20778417976345478,-0.09631939899963834,8.917889,-2.0061483,-3.7571821,0.18715332,6.8088403,-5.369669,0.8857372,-0.26553643,0.23330916,-0.1057125,-0.9294526,-10.183358,10.10475,0.94036204,-0.9849269,-0.27987248,-0.1734848,0
1.430000000000001,9.365572494332419,-0.9531294922297573,0.20778417976345478,-0.09631939899963834,8.917889,-2.0061483,-3.7571821,0.18715332,6.7068295,-5.268472,0.8950574,-0.26531187,0.23358183,-0.100625835,-0.93001264,-10.218839,10.134429,0.92369676,-0.9799591,-0.20382577,-0.16969828,0
1.440000000000001,9.365572494332419,-0.9531294922297573,0.20778417976345478,-0.09631939899963834,9.777375,-1.9537412,-2.951777,0.22761577,6.6044626,-5.1669827,0.9042117,-0.26503345,0.23416586,-0.095654935,-0.93046963,-10.254665,10.163248,0.9071883,-0.9757677,-0.13963814,-0.16609755,0
1.450000000000001,9.365572494332419,-0.9531294922297573,0.20778417976345478,-0.09631939899963834,9.777375,-1.9537412,-2.951777,0.22761577,6.501735,-5.06521,0.9132016,-0.26470828,0.23501197,-0.09078195,-0.93083704,-10.290881,10.191237,0.89079773,-0.97223103,-0.085460395,-0.16267352,0
1.460000000000001,9.365572494332419,-0.9531294922297573,0.20778417976345478,-0.09631939899963834,9.777375,-1.9537412,-2.951777,0.22761577,6.398643,-4.9631615,0.92202795,-0.26434222,0.23607847,-0.08599177,-0.931126,-10.32752,10.218418,0.87449086,-0.9692472,-0.039731346,-0.15941751,0
1.470000000000001,9.365572494332419,-0.9531294922297573,0.20778417976345478,-0.09631939899963834,9.777375,-1.9537412,-2.951777,0.22761577,6.2951827,-4.860845,0.9306916,-0.2639401,0.23733012,-0.08127164,-0.9313458,-10.364612,10.244814,0.858238,-0.9667296,-0.001133577,-0.15632126,0
1.480000000000001,8.80378207897767,-1.0935129457825923,-2.647841053501112,0.0685011486188466,9.600514,-1.9583514,-2.3323712,0.34173673,6.191349,-4.7582684,0.9391929,-0.2635059,0.23873715,-0.07661079,-0.9315042,-10.402179,10.270438,0.84201247,-0.96460533,0.031444862,-0.15337695,1
1.490000000000001,8.80378207897767,-1.0935129457825923,-2.647841053501112,0.0685011486188466,9.600514,-1.9583514,-2.3323712,0.34173673,6.0871325,-4.6554356,0.9475422,-0.26297206,0.23942892,-0.07137041,-0.93189377,-10.441172,10.295896,0.8278662,-1.1196111,-0.3371932,-0.12908158,1
1.500000000000001,8.80378207897767,-1.0935129457825923,-2.647841053501112,0.0685011486188466,9.600514,-1.9583514,-2.3323712,0.34173673,5.982524,-4.5523534,0.95575064,-0.26226914,0.23871115,-0.06504556,-0.93273854,-10.480513,10.320329,0.81386274,-1.2504288,-0.6483477,-0.105978385,1
1.5100000000000011,8.80378207897767,-1.0935129457825923,-2.647841053501112,0.0685011486188466,9.600514,-1.9583514,-2.3323712,0.34173673,5.877521,-4.449033,0.9638203,-0.2613977,0.23679693,-0.05780774,-0.93394697,-10.520033,10.343483,0.800136,-1.3608341,-0.9109819,-0.08400888,1
1.5200000000000011,9.082537892781252,-0.9425020538999587,-2.3593098956076606,0.10206168422842687,9.3798485,-1.8421564,-3.8990355,0.34194142,5.772123,-4.3454885,0.9717545,-0.26035836,0.2338651,-0.049801346,-0.93543607,-10.5595875,10.365143,0.78678876,-1.4540136,-1.1326615,-0.06311742,0
1.5300000000000011,9.082537892781252,-0.9425020538999587,-2.3593098956076606,0.10206168422842687,9.3798485,-1.8421564,-3.8990355,0.34194142,5.6663404,-4.2417417,0.9795346,-0.25927573,0.22995219,-0.041519027,-0.93710965,-10.596912,10.384059,0.76929957,-1.3742446,-1.3239672,-0.055012036,0
1.5400000000000011,9.082537892781252,-0.9425020538999587,-2.3593098956076606,0.10206168422842687,9.3798485,-1.8421564,-3.8990355,0.34194142,5.560186,-4.1378136,0.98714226,-0.25825357,0.22509694,-0.033357672,-0.93889505,-10.633977,10.40134,0.7522957,-1.306913,-1.4854373,-0.047304377,0
1.5500000000000012,9.082537892781252,-0.9425020538999587,-2.3593098956076606,0.10206168422842687,9.3798485,-1.8421564,-3.8990355,0.34194142,5.4536624,-4.0337205,0.9945824,-0.25726554,0.2194411,-0.025300464,-0.94075507,-10.670623,10.416965,0.73581654,-1.2500796,-1.6217251,-0.039974935,0
1.5600000000000012,9.085760478162864,-0.7677423037755345,-5.228965442994464,0.20046478060744272,9.871332,-1.3046769,-3.7439885,0.26549357,5.346775,-3.9294798,1.0018605,-0.2562903,0.21310437,-0.017333081,-0.94265664,-10.706712,10.430911,0.7198873,-1.202108,-1.7367578,-0.03300516,0
1.5700000000000012,9.085760478162864,-0.7677423037755345,-5.228965442994464,0.20046478060744272,9.871332,-1.3046769,-3.7439885,0.26549357,5.2395306,-3.8251083,1.0089822,-0.2553291,0.20508508,-0.009217856,-0.9448081,-10.742101,10.443147,0.70456874,-1.1343637,-2.2813754,-0.021548718,0
1.5800000000000012,9.085760478162864,-0.7677423037755345,-5.228965442994464,0.20046478060744272,9.871332,-1.3046769,-3.7439885,0.26549357,5.131937,-3.7206235,1.0159543,-0.2543612,0.19458571,-0.000767383,-0.9473312,-10.776418,10.453518,0.68995184,-1.0771766,-2.7410588,-0.010654453,0
1.5900000000000012,9.085760478162864,-0.7677423037755345,-5.228965442994464,0.20046478060744272,9.871332,-1.3046769,-3.7439885,0.26549357,5.0240073,-3.616045,1.022784,-0.25334117,0.18197437,0.007961532,-0.9500739,-10.809277,10.461859,0.67614454,-1.0289023,-3.1290538,-0.0002947857,0
1.6000000000000012,9.497222413743975,-0.3778050176806166,-3.305982617268477,0.26938584843282215,9.885368,-1.0141438,-5.678805,0.3394674,4.915757,-3.5113938,1.02948,-0.25223115,0.16756254,0.016920235,-0.95289886,-10.840335,10.468026,0.6632013,-0.98815256,-3.45654,0.009556544,0
1.6100000000000012,9.497222413743975,-0.3778050176806166,-3.305982617268477,0.26938584843282215,9.885368,-1.0141438,-5.678805,0.3394674,4.807201,-3.406691,1.0360703,-0.25103527,0.15231144,0.025722902,-0.95557374,-10.870629,10.4720955,0.65501535,-0.8929408,-3.4330678,0.022306437,0
1.6200000000000012,9.497222413743975,-0.3778050176806166,-3.305982617268477,0.26938584843282215,9.885368,-1.0141438,-5.678805,0.3394674,4.698353,-3.3019598,1.0425831,-0.24977066,0.13700719,0.03406246,-0.9579581,-10.898635,10.4738245,0.64764374,-0.812579,-3.4132545,0.034430712,0
1.6300000000000012,9.497222413743975,-0.3778050176806166,-3.305982617268477,0.26938584843282215,9.885368,-1.0141438,-5.678805,0.3394674,4.589236,-3.1972227,1.0490257,-0.24842635,0.12165773,0.042006597,-0.96006227,-10.924293,10.473289,0.64097816,-0.7447511,-3.3965294,0.04596002,0
1.6400000000000012,9.497222413743975,-0.3778050176806166,-3.305982617268477,0.26938584843282215,10.390548,-0.6179022,-4.5309515,0.08983226,4.4798746,-3.0925019,1.0554047,-0.24699423,0.10627014,0.049612578,-0.9618936,-10.947555,10.470555,0.63491225,-0.6875022,-3.382412,0.05692359,0
1.6500000000000012,9.497222413743975,-0.3778050176806166,-3.305982617268477,0.26938584843282215,10.390548,-0.6179022,-4.5309515,0.08983226,4.370293,-2.9878192,1.0617255,-0.2454684,0.090850934,0.056928776,-0.96345776,-10.968377,10.465684,0.62934095,-0.63918275,-3.3704953,0.06734918,0
1.6600000000000013,9.497222413743975,-0.3778050176806166,-3.305982617268477,0.26938584843282215,10.390548,-0.6179022,-4.5309515,0.08983226,4.2605157,-2.8831954,1.0679928,-0.2438447,0.075406104,0.063996024,-0.9647583,-10.986723,10.458729,0.6241599,-0.5983999,-3.3604364,0.07726319,0
1.6700000000000013,9.497222413743975,-0.3778050176806166,-3.305982617268477,0.26938584843282215,10.390548,-0.6179022,-4.5309515,0.08983226,4.1505675,-2.7786515,1.0742099,-0.24212049,0.05994127,0.070848726,-0.96579784,-11.002559,10.4497385,0.61926544,-0.563978,-3.351946,0.086690724,0
1.6800000000000013,9.775468932517999,-0.17097830834910543,-3.598894430464443,0.2928334054921464,10.291029,-0.3958362,-3.0481324,0.25417256,4.0404735,-2.6742072,1.0803789,-0.24029423,0.04446173,0.07751582,-0.96657825,-11.015858,10.43876,0.61455446,-0.53492534,-3.3447795,0.09565562,1
1.6900000000000013,9.775468932517999,-0.17097830834910543,-3.598894430464443,0.2928334054921464,10.291029,-0.3958362,-3.0481324,0.25417256,3.9302545,-2.5698879,1.0865403,-0.2383753,0.029073937,0.08400405,-0.96709645,-11.027497,10.424756,0.61773634,-0.5132208,-3.2985187,0.10343409,1
1.7000000000000013,9.775468932517999,-0.17097830834910543,-3.598894430464443,0.2928334054921464,10.291029,-0.3958362,-3.0481324,0.25417256,3.819933,-2.465719,1.0927335,-0.23637398,0.013863172,0.090320475,-0.9673561,-11.036372,10.408702,0.620894,-0.49490163,-3.2594721,0.11083086,1
1.7100000000000013,9.775468932517999,-0.17097830834910543,-3.598894430464443,0.2928334054921464,10.291029,-0.3958362,-3.0481324,0.25417256,3.7095366,-2.3617208,1.0989577,-0.23429081,-0.0011943106,0.09648785,-0.967366,-11.042499,10.390655,0.6239196,-0.47944018,-3.2265148,0.11786469,1
1.7200000000000013,9.867522282510205,0.14362090178985665,-0.0878708554716302,0.34125802501558933,10.471933,-0.17808034,-1.864197,0.2890251,3.5990927,-2.2579126,1.105211,-0.2321266,-0.016118204,0.10252524,-0.9671331,-11.04589,10.370666,0.62670857,-0.4663903,-3.1986973,0.12455335,0
1.7300000000000013,9.867522282510205,0.14362090178985665,-0.0878708554716302,0.34125802501558933,10.471933,-0.17808034,-1.864197,0.2890251,3.4886284,-2.1543093,1.1114701,-0.22999391,-0.02982826,0.10796726,-0.9667247,-11.0465765,10.349718,0.6250284,-0.37127978,-2.7135606,0.13518712,0
1.7400000000000013,9.867522282510205,0.14362090178985665,-0.0878708554716302,0.34125802501558933,10.471933,-0.17808034,-1.864197,0.2890251,3.3781688,-2.0509233,1.1177106,-0.22799505,-0.04147058,0.11245406,-0.9662572,-11.044989,10.327236,0.6229926,-0.29100198,-2.3040807,0.14529909,0
1.7500000000000013,9.867522282510205,0.14362090178985665,-0.0878708554716302,0.34125802501558933,10.471933,-0.17808034,-1.864197,0.2890251,3.2677352,-1.9477689,1.1239289,-0.2261137,-0.051366013,0.1161412,-0.96578765,-11.041459,10.30349,0.6206009,-0.22324318,-1.958459,0.15491487,0
1.7600000000000013,10.041564448942818,0.3585787022025432,1.1726438948866,0.32321614221809497,11.15365,0.21232823,-0.552621,0.20706654,3.1573455,-1.8448572,1.1301215,-0.22433326,-0.059786063,0.119158715,-0.9653506,-11.036268,10.278702,0.61786944,-0.16604997,-1.6667371,0.16405877,0
1.7700000000000014,10.041564448942818,0.3585787022025432,1.1726438948866,0.32321614221809497,11.15365,0.21232823,-0.552621,0.20706654,3.0470154,-1.7422,1.1362935,-0.22269571,-0.06649296,0.12141961,-0.96500933,-11.029555,10.25262,0.616505,-0.08427547,-1.2239288,0.17186867,0
1.7800000000000014,10.041564448942818,0.3585787022025432,1.1726438948866,0.32321614221809497,11.15365,0.21232823,-0.552621,0.20706654,2.9367583,-1.6398069,1.1424507,-0.2212348,-0.07131083,0.122861534,-0.96481884,-11.021737,10.225922,0.61488956,-0.015250266,-0.85017693,0.17929533,0
1.7900000000000014,10.041564448942818,0.3585787022025432,1.1726438948866,0.32321614221809497,11.15365,0.21232823,-0.552621,0.20706654,2.8265834,-1.5376829,1.1485907,-0.21992311,-0.07453441,0.12361686,-0.96477854,-11.013125,10.198832,0.61309755,0.043013938,-0.53471214,0.18635756,0
1.8000000000000014,10.183949605535808,0.4900081835162041,4.067612226613101,0.33627997123221887,10.654206,0.32738358,1.7177908,0.4958024,2.7164974,-1.4358308,1.1547123,-0.21873568,-0.07641207,0.12379592,-0.9648787,-11.003982,10.171538,0.61119896,0.09219506,-0.26844454,0.19307326,0
1.8100000000000014,10.183949605535808,0.4900081835162041,4.067612226613101,0.33627997123221887,10.654206,0.32738358,1.7177908,0.4958024,2.606505,-1.334254,1.1608213,-0.217788,-0.076046444,0.12318732,-0.9651998,-10.99444,10.143833,0.6106317,0.15414713,0.4077695,0.20010047,0
1.8200000000000014,10.183949605535808,0.4900081835162041,4.067612226613101,0.33627997123221887,10.654206,0.32738358,1.7177908,0.4958024,2.4966075,-1.2329532,1.1669251,-0.21716708,-0.07273591,0.12162779,-0.9657925,-10.985125,10.116389,0.6101598,0.20644587,0.9785278,0.20678282,0
1.8300000000000014,10.183949605535808,0.4900081835162041,4.067612226613101,0.33627997123221887,10.654206,0.32738358,1.7177908,0.4958024,2.3867998,-1.1319243,1.1730251,-0.21681066,-0.066936195,0.11926478,-0.9665863,-10.976545,10.089493,0.60990727,0.25059655,1.4602758,0.21313727,0
1.8400000000000014,10.183949605535808,0.4900081835162041,4.067612226613101,0.33627997123221887,10.986572,0.59362835,2.6902325,0.6692217,2.2770724,-1.0311605,1.1791241,-0.2166628,-0.059031222,0.11622034,-0.9675049,-10.969133,10.06339,0.60996383,0.28786892,1.8668946,0.21917991,0
1.8500000000000014,10.183949605535808,0.4900081835162041,4.067612226613101,0.33627997123221887,10.986572,0.59362835,2.6902325,0.6692217,2.1674118,-0.9306529,1.1852256,-0.21667416,-0.04934515,0.11259599,-0.96847296,-10.963258,10.038287,0.6103846,0.31933534,2.2101011,0.22492605,0
1.8600000000000014,10.183949605535808,0.4900081835162041,4.067612226613101,0.33627997123221887,10.986572,0.59362835,2.6902325,0.6692217,2.057801,-0.8303907,1.191333,-0.2168018,-0.038152296,0.10847662,-0.9694197,-10.95923,10.014369,0.6111913,0.3459004,2.499784,0.23039022,0
1.8700000000000014,10.183949605535808,0.4900081835162041,4.067612226613101,0.33627997123221887,10.986572,0.59362835,2.6902325,0.6692217,1.94822,-0.7303609,1.1974505,-0.21700881,-0.025685318,0.10393354,-0.9702812,-10.957318,9.991791,0.6123751,0.36832803,2.7442904,0.23558626,0
1.8800000000000014,10.33353221549005,0.4754945122027989,3.761785535406111,0.34498568912822003,11.428851,0.5169906,3.2688904,0.6427072,1.8386467,-0.6305497,1.2035817,-0.21726373,-0.012142014,0.099026956,-0.9710011,-10.957745,9.970689,0.6139002,0.3872629,2.9506657,0.24052732,0
1.8900000000000015,10.33353221549005,0.4754945122027989,3.761785535406111,0.34498568912822003,11.428851,0.5169906,3.2688904,0.6427072,1.7290562,-0.53094316,1.209737,-0.21752729,0.0021915915,0.09384019,-0.9715305,-10.960739,9.950892,0.61717355,0.40099248,3.077163,0.24565311,0
1.9000000000000015,10.33353221549005,0.4754945122027989,3.761785535406111,0.34498568912822003,11.428851,0.5169906,3.2688904,0.6427072,1.6194224,-0.4315261,1.2159259,-0.21776871,0.017078498,0.08844275,-0.9718351,-10.966422,9.932799,0.62064964,0.41258374,3.1839328,0.25052738,0
1.9100000000000015,10.33353221549005,0.4754945122027989,3.761785535406111,0.34498568912822003,11.428851,0.5169906,3.2688904,0.6427072,1.5097181,-0.3322811,1.2221503,-0.21797502,0.032428693,0.08286324,-0.97188956,-10.974891,9.916479,0.6242317,0.42237025,3.2740514,0.25516248,0
1.9200000000000015,10.423224584685784,0.27496497578933965,3.047851592289016,0.3837202044880547,10.687237,0.19047028,2.047481,0.69584405,1.3999147,-0.23319021,1.2284106,-0.2181355,0.048164893,0.07712622,-0.97167325,-10.986221,9.901993,0.62781256,0.4306326,3.350116,0.25957015,0
1.9300000000000015,10.423224584685784,0.27496497578933965,3.047851592289016,0.3837202044880547,10.687237,0.19047028,2.047481,0.69584405,1.2899829,-0.13423537,1.2347107,-0.21821171,0.06396104,0.071393065,-0.97118276,-11.000588,9.889271,0.6321584,0.40635112,3.3029754,0.26566225,0
1.9400000000000015,10.423224584685784,0.27496497578933965,3.047851592289016,0.3837202044880547,10.687237,0.19047028,2.047481,0.69584405,1.1798929,-0.03539834,1.241053,-0.21817562,0.07955529,0.065793894,-0.97043383,-11.017872,9.878425,0.63626915,0.38585597,3.263187,0.27145538,0
1.9500000000000015,10.423224584685784,0.27496497578933965,3.047851592289016,0.3837202044880547,10.687237,0.19047028,2.047481,0.69584405,1.0696156,0.06333945,1.2474349,-0.21803328,0.094972745,0.060305998,-0.96943545,-11.038029,9.869417,0.6400318,0.368557,3.2296038,0.2769642,0
1.9600000000000015,10.454026924241829,0.0505028903847928,0.6047962490794034,0.4207421077194991,10.294233,-0.039686117,-0.42809796,0.65656495,0.9591225,0.16199623,1.2538522,-0.21779004,0.11023415,0.05491032,-0.9681947,-11.061019,9.862222,0.6433376,0.3539554,3.2012584,0.28220275,0
1.9700000000000015,10.454026924241829,0.0505028903847928,0.6047962490794034,0.4207421077194991,10.294233,-0.039686117,-0.42809796,0.65656495,0.8483853,0.26058984,1.2603012,-0.21738602,0.12443135,0.049890503,-0.9668357,-11.08684,9.856769,0.64638793,0.30669403,2.7963343,0.28900093,0
1.9800000000000015,10.454026924241829,0.0505028903847928,0.6047962490794034,0.4207421077194991,10.294233,-0.039686117,-0.42809796,0.65656495,0.7373772,0.359137,1.2667778,-0.21678597,0.1368517,0.045471583,-0.9655091,-11.115133,9.8529,0.6488488,0.266795,2.4545586,0.29546547,0
1.9900000000000015,10.454026924241829,0.0505028903847928,0.6047962490794034,0.4207421077194991,10.294233,-0.039686117,-0.42809796,0.65656495,0.62607527,0.45765257,1.273276,-0.216025,0.14777415,0.041559286,-0.96424526,-11.145584,9.850413,0.6507226,0.23311092,2.1660836,0.30161285,0
2.0000000000000013,,,,,9.627713,-0.8798972,-3.2989743,0.7133925,0.51445913,0.5561495,1.2797902,-0.21513064,0.15743384,0.038073573,-0.96305966,-11.177925,9.84914,0.6520248,0.20467365,1.9225969,0.30745858,0
2.010000000000001,,,,,9.627713,-0.8798972,-3.2989743,0.7133925,0.40251058,0.65463907,1.2863164,-0.21405531,0.1650246,0.035340577,-0.9621322,-11.212011,9.848906,0.65313673,0.1151357,1.2954371,0.31456277,0
2.020000000000001,,,,,9.627713,-0.8798972,-3.2989743,0.7133925,0.29021487,0.75313014,1.2928514,-0.21276645,0.16992137,0.033614077,-0.9616274,-11.247277,9.849405,0.6538347,0.03954646,0.7660845,0.32131836,0
2.0300000000000007,,,,,9.627713,-0.8798972,-3.2989743,0.7133925,0.17756253,0.85162854,1.2993921,-0.21130088,0.17254852,0.03273388,-0.96151316,-11.283269,9.850321,0.65426815,-0.024267647,0.319286,0.32774243,0
2.0400000000000005,,,,,9.627713,-0.8798972,-3.2989743,0.7133925,0.0645483,0.950137,1.3059365,-0.20968586,0.17326152,0.032564677,-0.96174425,-11.319603,9.851386,0.654574,-0.0781414,-0.05783291,0.33385128,0
2.0500000000000003,,,,,9.880786,-1.323008,-5.0203366,0.6842656,-0.048829604,1.048656,1.3124837,-0.20794196,0.17235856,0.032992363,-0.9622704,-11.355959,9.85238,0.6548728,-0.123623595,-0.37613875,0.33966038,1
2.06,,,,,9.880786,-1.323008,-5.0203366,0.6842656,-0.16256113,1.1471835,1.3190104,-0.20596005,0.16906376,0.034494538,-0.9632279,-11.390143,9.853044,0.6501433,-0.3042952,-1.0942404,0.3559955,1
2.07,,,,,9.880786,-1.323008,-5.0203366,0.6842656,-0.27662948,1.2457145,1.3254864,-0.2036317,0.16273518,0.037493307,-0.96469975,-11.423371,9.853045,0.64509606,-0.46300352,-1.7065544,0.3721038,1
2.0799999999999996,,,,,9.880786,-1.323008,-5.0203366,0.6842656,-0.39102435,1.3442407,1.3319138,-0.20098642,0.15382788,0.041754108,-0.9665392,-11.455377,9.851996,0.6404695,-0.59697384,-2.2233753,0.38742164,1
2.0899999999999994,,,,,10.500402,-1.9254835,-5.4783263,0.83946884,-0.50573134,1.4427496,1.3382976,-0.19804755,0.1427291,0.047071226,-0.968602,-11.485742,9.849566,0.63636225,-0.7100634,-2.659595,0.40198785,1
2.099999999999999,,,,,10.500402,-1.9254835,-5.4783263,0.83946884,-0.6207412,1.5412251,1.3446727,-0.19477147,0.12963623,0.053537365,-0.97076887,-11.515872,9.845216,0.6387527,-0.89944947,-3.0992362,0.42345515,1
2.109999999999999,,,,,10.500402,-1.9254835,-5.4783263,0.83946884,-0.7360401,1.6396468,1.3510748,-0.19112107,0.114721596,0.061215315,-0.97291535,-11.543495,9.838767,0.6417477,-1.0593109,-3.470312,0.44386908,1
2.1199999999999988,,,,,10.500402,-1.9254835,-5.4783263,0.83946884,-0.85160136,1.7379922,1.3575096,-0.18712129,0.09825509,0.06990304,-0.9749077,-11.568277,9.8299265,0.6452957,-1.194252,-3.7835147,0.46328124,1
2.1299999999999986,,,,,10.407492,-1.8034767,-5.5534067,0.86898905,-0.96739495,1.8362362,1.3639822,-0.1827931,0.08046808,0.0794283,-0.9766282,-11.58992,9.818459,0.6492961,-1.3081589,-4.0478697,0.48174086,1
2.1399999999999983,,,,,10.407492,-1.8034767,-5.5534067,0.86898905,-1.0833871,1.9343523,1.370492,-0.17815222,0.061522055,0.08960136,-0.9779818,-11.607994,9.804306,0.6526998,-1.3852768,-4.2826986,0.5007432,1
2.149999999999998,,,,,10.407492,-1.8034767,-5.5534067,0.86898905,-1.1995422,2.0323122,1.3770366,-0.17321104,0.041559964,0.100262165,-0.9788862,-11.622446,9.78724,0.65623486,-1.4503776,-4.480903,0.51881313,1
2.159999999999998,,,,,10.407492,-1.8034767,-5.5534067,0.86898905,-1.3158227,2.1300867,1.3836163,-0.16798277,0.02074311,0.11131413,-0.97926533,-11.633057,9.767175,0.65969497,-1.5053347,-4.6481943,0.5359964,1
2.1699999999999977,,,,,10.1122265,-1.4261123,-3.043385,0.7704576,-1.4321895,2.2276452,1.3902293,-0.16248032,-0.000787769,0.122674,-0.97905594,-11.63964,9.744062,0.6628473,-1.5517297,-4.789395,0.55233645,1
2.1799999999999975,,,,,10.1122265,-1.4261123,-3.043385,0.7704576,-1.5486008,2.324961,1.396857,-0.15685676,-0.021952048,0.13396306,-0.97824734,-11.642009,9.71865,0.66258574,-1.5322058,-4.5171094,0.56303966,1
2.1899999999999973,,,,,10.1122265,-1.4261123,-3.043385,0.7704576,-1.6650162,2.4220088,1.4034785,-0.15125687,-0.041885823,0.14489143,-0.9769203,-11.640493,9.690421,0.6615671,-1.5157161,-4.2872868,0.57321775,1
2.199999999999997,,,,,10.1122265,-1.4261123,-3.043385,0.7704576,-1.7813979,2.5187604,1.4100852,-0.1456786,-0.060769312,0.15551154,-0.97514147,-11.635301,9.659544,0.65961164,-1.5017892,-4.093305,0.58289635,1
2.209999999999997,,,,,10.783162,-1.0463052,-0.586956,0.8689199,-1.8977102,2.615191,1.416667,-0.14011829,-0.07875541,0.16586666,-0.97296077,-11.626612,9.62617,0.6565638,-1.4900258,-3.929575,0.5921,1
2.2199999999999966,,,,,10.783162,-1.0463052,-0.586956,0.8689199,-2.013915,2.7112641,1.4232435,-0.13471502,-0.09503783,0.17571206,-0.97053844,-11.613831,9.588081,0.65852416,-1.4209982,-3.4082813,0.6056836,1
2.2299999999999964,,,,,10.783162,-1.0463052,-0.586956,0.8689199,-2.1299763,2.8069446,1.4298329,-0.1295905,-0.10899091,0.18487035,-0.9680652,-11.597959,9.547735,0.65915024,-1.3627133,-2.9682858,0.6186007,1
