time-since-start [s],throttle_mpc,roll_mpc,pitch_mpc,yaw_mpc,throttle_nw,roll_nw,pitch_nw,yaw_nw,position_x [m],position_y [m],position_z [m],rotation_w [quaternion],rotation_x [quaternion],rotation_y [quaternion],rotation_z [quaternion],velocity_x [m/s],velocity_y [m/s],velocity_z [m/s],omega_x [rad/s],omega_y [rad/s],omega_z [rad/s],network_used
0.0,9.55669618118871,5.99999961628983,-5.999999920120676,-4.913738674857901,8.316393,1.5137655,-3.583319,-1.5454307,19.549566,-9.904492,2.1588354,-0.0028117856,-0.4517316,0.3372738,0.8259401,-10.176278,-4.246452,-0.36299986,1.1184235,-0.045388874,0.30253765,0
0.01,9.55669618118871,5.99999961628983,-5.999999920120676,-4.913738674857901,17.176435,0.9709716,-4.5808105,-1.3501233,19.447115,-9.9464445,2.1550493,-0.0011233318,-0.4510143,0.3421956,0.82430995,-10.313269,-4.1441164,-0.39463744,1.0340909,-0.1285281,0.12842101,0
0.02,9.55669618118871,5.99999961628983,-5.999999920120676,-4.913738674857901,17.176435,0.9709716,-4.5808105,-1.3501233,19.343315,-9.987378,2.1509337,0.00123056,-0.4502621,0.34640166,0.8229632,-10.446169,-4.042816,-0.42882004,0.96331,-0.19909804,-0.04138335,0
0.03,9.55669618118871,5.99999961628983,-5.999999920120676,-4.913738674857901,17.176435,0.9709716,-4.5808105,-1.3501233,19.238203,-10.027303,2.1464663,0.0042557158,-0.4495044,0.34997147,0.82185614,-10.575836,-3.942017,-0.4649291,0.91563994,-0.2707345,-0.20598277,0
0.04,9.55669618118871,5.99999961628983,-5.999999920120676,-4.913738674857901,17.95645,2.7832582,-5.082807,-1.9682461,19.131805,-10.066219,2.1416304,0.00801054,-0.44869807,0.35303798,0.82095665,-10.703018,-3.8411925,-0.5024271,0.8993912,-0.3551969,-0.36465013,0
0.05,9.55669618118871,5.99999961628983,-5.999999920120676,-4.913738674857901,17.95645,2.7832582,-5.082807,-1.9682461,19.02415,-10.104126,2.1364133,0.012559307,-0.4477838,0.3557322,0.8202355,-10.827594,-3.7404163,-0.5412025,0.9104679,-0.4513016,-0.51774883,0
0.060000000000000005,9.55669618118871,5.99999961628983,-5.999999920120676,-4.913738674857901,17.95645,2.7832582,-5.082807,-1.9682461,18.915264,-10.141026,2.1308024,0.017957093,-0.4467048,0.35816664,0.8196638,-10.949427,-3.6397161,-0.5811533,0.9452762,-0.55790883,-0.66561204,0
0.07,9.55669618118871,5.99999961628983,-5.999999920120676,-4.913738674857901,17.95645,2.7832582,-5.082807,-1.9682461,18.805174,-10.176918,2.1247864,0.024250647,-0.44540688,0.36043718,0.8192126,-11.068366,-3.5390847,-0.6221852,1.0006586,-0.6739307,-0.80854553,0
0.08,11.198723480725679,5.999999809332383,-5.999999957328786,-5.0243471998442795,15.392664,4.6454725,-5.576837,-3.5025978,18.693907,-10.211807,2.1183553,0.03147914,-0.4438381,0.36262503,0.8188526,-11.184254,-3.438488,-0.6642097,1.0738384,-0.7983359,-0.94683003,0
0.09,11.198723480725679,5.999999809332383,-5.999999957328786,-5.0243471998442795,15.392664,4.6454725,-5.576837,-3.5025978,18.58145,-10.2456455,2.111523,0.0397499,-0.4418933,0.3648459,0.8185581,-11.3064785,-3.3293266,-0.7024591,1.191255,-0.9590866,-1.0887322,0
0.09999999999999999,11.198723480725679,5.999999809332383,-5.999999957328786,-5.0243471998442795,15.392664,4.6454725,-5.576837,-3.5025978,18.46779,-10.278393,2.104303,0.04916032,-0.43947068,0.36719888,0.81829906,-11.424908,-3.2200954,-0.7416317,1.320678,-1.1251442,-1.2263839,0
0.10999999999999999,11.198723480725679,5.999999809332383,-5.999999957328786,-5.0243471998442795,15.392664,4.6454725,-5.576837,-3.5025978,18.352966,-10.310046,2.096687,0.059724994,-0.43652514,0.36972174,0.8180368,-11.539307,-3.110671,-0.78162867,1.4602932,-1.2957399,-1.3599987,0
0.11999999999999998,11.198723480725679,5.999999809332383,-5.999999957328786,-5.0243471998442795,15.392664,4.6454725,-5.576837,-3.5025978,18.237019,-10.340606,2.0886679,0.07145304,-0.43301216,0.3724422,0.81772935,-11.649433,-3.0009387,-0.822353,1.6085037,-1.4701579,-1.4897743,0
0.12999999999999998,14.62541454127999,5.999999922171234,-5.999999989352048,-4.752359346463623,16.66568,3.691995,-5.3876915,-2.3630517,18.119991,-10.370065,2.080238,0.0843483,-0.42888767,0.37537873,0.8173317,-11.755046,-2.8907986,-0.86370885,1.7639033,-1.6477356,-1.6158931,0
0.13999999999999999,14.62541454127999,5.999999922171234,-5.999999989352048,-4.752359346463623,16.66568,3.691995,-5.3876915,-2.3630517,18.001863,-10.398345,2.0714307,0.09867102,-0.42380467,0.37878224,0.8168091,-11.869587,-2.7650964,-0.89794856,2.0556235,-1.9585215,-1.7368355,0
0.15,14.62541454127999,5.999999922171234,-5.999999989352048,-4.752359346463623,16.66568,3.691995,-5.3876915,-2.3630517,17.882622,-10.425365,2.0622773,0.11464737,-0.41743702,0.38285515,0.8161028,-11.977881,-2.6389854,-0.9328351,2.34153,-2.2605908,-1.8553938,0
0.16,17.624743131578413,5.999999957493577,-6.0,-4.362986982429526,18.24215,3.3989954,-5.5281105,-2.0237916,17.762327,-10.451122,2.0527723,0.13222304,-0.4097696,0.38753238,0.8151221,-12.079466,-2.5122576,-0.96819824,2.6216495,-2.5544167,-1.9716064,0
0.17,17.624743131578413,5.999999957493577,-6.0,-4.362986982429526,18.24215,3.3989954,-5.5281105,-2.0237916,17.641008,-10.475544,2.0429432,0.15159743,-0.40044618,0.39298102,0.8137729,-12.18328,-2.3720515,-0.99764293,3.0312178,-2.9759538,-2.078496,0
0.18000000000000002,17.624743131578413,5.999999957493577,-6.0,-4.362986982429526,18.24215,3.3989954,-5.5281105,-2.0237916,17.518694,-10.498561,2.032818,0.17293039,-0.38912866,0.39931485,0.8119243,-12.278196,-2.231269,-1.027426,3.4233124,-3.3782098,-2.184292,0
0.19000000000000003,17.624743131578413,5.999999957493577,-6.0,-4.362986982429526,18.24215,3.3989954,-5.5281105,-2.0237916,17.395475,-10.520167,2.0223942,0.19610092,-0.37582168,0.4063833,0.8094162,-12.363544,-2.089839,-1.0573398,3.7991168,-3.7626438,-2.2889094,0
0.20000000000000004,20.77228777345457,5.9999999645205095,-6.0,-3.6116477210319733,18.792585,4.3276324,-5.595241,-1.518703,17.271452,-10.540353,2.0116735,0.22095725,-0.36055383,0.4140173,0.80608183,-12.439409,-1.9464725,-1.086547,4.1415515,-4.1123424,-2.3906848,0
0.21000000000000005,20.77228777345457,5.9999999645205095,-6.0,-3.6116477210319733,18.792585,4.3276324,-5.595241,-1.518703,17.146656,-10.558954,2.0007322,0.24715286,-0.3434519,0.4220099,0.8017876,-12.517856,-1.7731547,-1.1013188,4.430745,-4.4073443,-2.4505978,0
0.22000000000000006,20.77228777345457,5.9999999645205095,-6.0,-3.6116477210319733,18.792585,4.3276324,-5.595241,-1.518703,17.021135,-10.575803,1.9896547,0.2743336,-0.32467136,0.43015933,0.79642457,-12.584249,-1.5959538,-1.1138223,4.6749005,-4.656281,-2.5075707,0
0.23000000000000007,20.77228777345457,5.9999999645205095,-6.0,-3.6116477210319733,18.792585,4.3276324,-5.595241,-1.518703,16.895016,-10.590862,1.9784639,0.302251,-0.30438757,0.4382645,0.78988373,-12.63763,-1.4155395,-1.1239756,4.8810353,-4.866342,-2.561748,0
0.24000000000000007,20.77228777345457,5.9999999645205095,-6.0,-3.6116477210319733,19.679495,3.4179916,-4.685362,-0.7791586,16.768429,-10.604106,1.9671835,0.3306806,-0.28275982,0.44615504,0.7820757,-12.677182,-1.2327583,-1.1317487,5.055073,-5.0435953,-2.6132667,0
0.25000000000000006,20.77228777345457,5.9999999645205095,-6.0,-3.6116477210319733,19.679495,3.4179916,-4.685362,-0.7791586,16.64152,-10.615513,1.9558371,0.3594189,-0.25993434,0.4536873,0.7729292,-12.702229,-1.0486048,-1.1371591,5.202014,-5.1931624,-2.6622577,0
0.26000000000000006,20.77228777345457,5.9999999645205095,-6.0,-3.6116477210319733,19.679495,3.4179916,-4.685362,-0.7791586,16.514437,-10.625076,1.9444482,0.3882806,-0.23604652,0.46074057,0.7623896,-12.712248,-0.8641958,-1.1402689,5.32608,-5.3193645,-2.7088444,0
0.2700000000000001,20.77228777345457,5.9999999645205095,-6.0,-3.6116477210319733,19.679495,3.4179916,-4.685362,-0.7791586,16.38733,-10.632799,1.9330393,0.41709664,-0.2112225,0.46721375,0.7504175,-12.706874,-0.6807432,-1.1411803,5.4308333,-5.425851,-2.7531452,0
0.2800000000000001,20.99999999748541,5.999999762508063,-5.999999932910327,-3.5661818853478895,20.138554,2.8562067,-4.164171,-0.36603487,16.260353,-10.638699,1.9216317,0.44571206,-0.18558042,0.47302264,0.73698705,-12.685895,-0.49952996,-1.1400317,5.519283,-5.5156994,-2.795272,0
0.2900000000000001,20.99999999748541,5.999999762508063,-5.999999932910327,-3.5661818853478895,20.138554,2.8562067,-4.164171,-0.36603487,16.133665,-10.642793,1.9102507,0.47398052,-0.15922886,0.47809854,0.7220874,-12.648862,-0.319939,-1.135885,5.5939746,-5.5915,-2.833101,0
0.3000000000000001,20.99999999748541,5.999999762508063,-5.999999932910327,-3.5661818853478895,20.138554,2.8562067,-4.164171,-0.36603487,16.00743,-10.645114,1.8989199,0.5017675,-0.13227046,0.482385,0.70571834,-12.596115,-0.14532715,-1.1300293,5.6570435,-5.6554546,-2.8690736,0
0.3100000000000001,20.99999999748541,5.999999762508063,-5.999999932910327,-3.5661818853478895,20.138554,2.8562067,-4.164171,-0.36603487,15.881798,-10.6457205,1.8876553,0.52895296,-0.10480513,0.48583522,0.6878871,-12.5279255,0.02293089,-1.1226907,5.7102995,-5.709413,-2.9032812,0
0.3200000000000001,20.999999985221162,3.423180082752899,-5.651438622021525,-0.537284883453719,19.568867,2.1433687,-3.773528,-0.25471467,15.756923,-10.644682,1.8764703,0.555426,-0.076927945,0.48841143,0.66860914,-12.44472,0.183476,-1.1141157,5.75527,-5.754937,-2.93581,0
0.3300000000000001,20.999999985221162,3.423180082752899,-5.651438622021525,-0.537284883453719,19.568867,2.1433687,-3.773528,-0.25471467,15.632953,-10.642081,1.8653762,0.5807115,-0.049223006,0.48952085,0.6486297,-12.347156,0.33500472,-1.1045215,5.392054,-5.737686,-2.8181136,0
0.34000000000000014,20.999999985221162,3.423180082752899,-5.651438622021525,-0.537284883453719,19.568867,2.1433687,-3.773528,-0.25471467,15.510024,-10.638016,1.8543835,0.60448647,-0.022170564,0.48876318,0.6286613,-12.23647,0.47642928,-1.0938696,5.085453,-5.7233005,-2.7061927,0
0.35000000000000014,20.999999985221162,3.423180082752899,-5.651438622021525,-0.537284883453719,19.568867,2.1433687,-3.773528,-0.25471467,15.388263,-10.63259,1.8435029,0.6268568,0.0042927423,0.48636374,0.60867256,-12.11404,0.60686326,-1.0820693,4.8266397,-5.7113013,-2.5997639,0
0.36000000000000015,20.99999964373429,1.51544085592941,-3.5361830368218374,0.2809995512212574,19.897997,0.56247777,-4.4755826,0.73930895,15.267779,-10.625918,1.8327463,0.64790606,0.03022318,0.48250875,0.58863354,-11.981186,0.72556293,-1.0690798,4.6081634,-5.701291,-2.4985573,0
0.37000000000000016,20.99999964373429,1.51544085592941,-3.5361830368218374,0.2809995512212574,19.897997,0.56247777,-4.4755826,0.73930895,15.148671,-10.618121,1.8221256,0.66728145,0.054727055,0.47747356,0.5689984,-11.839234,0.8319935,-1.0549082,4.1268845,-5.362491,-2.3621638,0
0.38000000000000017,20.99999964373429,1.51544085592941,-3.5361830368218374,0.2809995512212574,19.897997,0.56247777,-4.4755826,0.73930895,15.03102,-10.609321,1.8116522,0.68479484,0.07711557,0.47156435,0.5502146,-11.689769,0.9262448,-1.0395973,3.7205007,-5.0767374,-2.232463,0
0.3900000000000002,20.99999964373429,1.51544085592941,-3.5361830368218374,0.2809995512212574,19.897997,0.56247777,-4.4755826,0.73930895,14.914895,-10.599637,1.8013375,0.70071805,0.0977139,0.46494848,0.53223014,-11.534264,1.0086538,-1.0231812,3.3773625,-4.8357162,-2.1091263,0
0.4000000000000002,20.999997329929183,-0.4258180462781843,-1.3313881960099203,0.9972150501597806,20.278389,-0.8856405,-3.8571138,1.7551066,14.800351,-10.589187,1.7911922,0.71527004,0.11680049,0.45775166,0.514985,-11.373967,1.0795805,-1.0056832,3.0876307,-4.632419,-1.9918424,0
0.4100000000000002,20.999997329929183,-0.4258180462781843,-1.3313881960099203,0.9972150501597806,20.278389,-0.8856405,-3.8571138,1.7551066,14.687429,-10.578083,1.7812274,0.72829103,0.13364701,0.45030758,0.49895236,-11.209982,1.1394894,-0.98712003,2.540775,-4.11667,-1.8451685,0
0.4200000000000002,20.999997329929183,-0.4258180462781843,-1.3313881960099203,0.9972150501597806,20.278389,-0.8856405,-3.8571138,1.7551066,14.57616,-10.56643,1.7714536,0.73973006,0.14771016,0.44293362,0.4845521,-11.043441,1.1894239,-0.967478,2.078996,-3.6815603,-1.7056918,0
0.4300000000000002,20.999997329929183,-0.4258180462781843,-1.3313881960099203,0.9972150501597806,20.278389,-0.8856405,-3.8571138,1.7551066,14.466565,-10.554323,1.7618817,0.7498787,0.15945646,0.43567646,0.47163692,-10.87529,1.230533,-0.9467106,1.6890675,-3.314471,-1.5730594,0
0.4400000000000002,20.999997329929183,-0.4258180462781843,-1.3313881960099203,0.9972150501597806,19.128628,-1.5686729,-2.9237132,2.2507153,14.358657,-10.541845,1.7525234,0.75896406,0.16927782,0.42855597,0.4600633,-10.706252,1.2638338,-0.9247561,1.3598177,-3.0047598,-1.4469353,0
0.45000000000000023,20.999997329929183,-0.4258180462781843,-1.3313881960099203,0.9972150501597806,19.128628,-1.5686729,-2.9237132,2.2507153,14.252442,-10.52907,1.7433909,0.76716405,0.17750274,0.42157474,0.44969624,-10.536885,1.2902164,-0.9015481,1.0818104,-2.7434504,-1.327,0
0.46000000000000024,20.999997329929183,-0.4258180462781843,-1.3313881960099203,0.9972150501597806,19.128628,-1.5686729,-2.9237132,2.2507153,14.147921,-10.516062,1.7344971,0.77461916,0.184406,0.41472495,0.4404119,-10.36762,1.310454,-0.8770216,0.84707534,-2.5229733,-1.2129501,0
0.47000000000000025,20.999997329929183,-0.4258180462781843,-1.3313881960099203,0.9972150501597806,19.128628,-1.5686729,-2.9237132,2.2507153,14.045089,-10.502879,1.7258552,0.7814411,0.19021724,0.40799278,0.43209836,-10.198793,1.3252138,-0.8511172,0.6488813,-2.3369431,-1.1044967,0
0.48000000000000026,20.3332983879968,-2.832340517916792,1.2826723096630002,4.810223868816293,20.170944,-2.425887,-1.9282846,2.854906,13.943942,-10.489574,1.7174796,0.78771913,0.1951282,0.40136144,0.4246557,-10.030665,1.3350698,-0.82378244,0.4815426,-2.1799738,-1.0013652,0
0.49000000000000027,20.3332983879968,-2.832340517916792,1.2826723096630002,4.810223868816293,20.170944,-2.425887,-1.9282846,2.854906,13.8446455,-10.476186,1.7095156,0.793181,0.19822305,0.3951116,0.41887742,-9.829723,1.3417784,-0.7693483,-0.05197124,-1.6569513,-0.76184255,0
0.5000000000000002,20.3332983879968,-2.832340517916792,1.2826723096630002,4.810223868816293,20.170944,-2.425887,-1.9282846,2.854906,13.747327,-10.46275,1.7020863,0.7976099,0.19881624,0.3894803,0.41544622,-9.635151,1.3448057,-0.7167604,-0.49995923,-1.2131681,-0.528252,0
0.5100000000000002,20.3332983879968,-2.832340517916792,1.2826723096630002,4.810223868816293,20.170944,-2.425887,-1.9282846,2.854906,13.65192,-10.449296,1.6951748,0.80112964,0.19735818,0.38437557,0.41412112,-9.447,1.3458704,-0.6658318,-0.8767268,-0.8372315,-0.30044675,0
0.5200000000000002,20.25979970773884,-5.036071259136574,3.9468531779000076,5.130806732710072,20.840746,-2.795817,-0.34378666,3.886796,13.558365,-10.435835,1.6887646,0.80382717,0.19422072,0.3797027,0.41468772,-9.2652445,1.3463365,-0.61642444,-1.1942307,-0.5194092,-0.07828346,0
0.5300000000000002,20.25979970773884,-5.036071259136574,3.9468531779000076,5.130806732710072,20.840746,-2.795817,-0.34378666,3.886796,13.466625,-10.422366,1.682867,0.8055713,0.1885294,0.375743,0.41752666,-9.083692,1.3474499,-0.56330425,-1.8421222,0.12809269,0.14597182,0
0.5400000000000003,20.25979970773884,-5.036071259136574,3.9468531779000076,5.130806732710072,20.840746,-2.795817,-0.34378666,3.886796,13.376669,-10.408876,1.6774942,0.8062261,0.17959212,0.37269163,0.42290306,-8.908747,1.3509654,-0.51147103,-2.3906674,0.6729306,0.36467308,0
0.5500000000000003,20.25979970773884,-5.036071259136574,3.9468531779000076,5.130806732710072,20.840746,-2.795817,-0.34378666,3.886796,13.288428,-10.395333,1.6726338,0.80581903,0.16793235,0.3703315,0.43047515,-8.740492,1.3585076,-0.46080118,-2.8567848,1.1296866,0.5779578,0
0.5600000000000003,20.999968356866265,-5.999998791994947,5.999990663507824,5.752911605330237,19.89104,-4.207945,2.4026423,3.5589156,13.201836,-10.381688,1.6682744,0.80434924,0.15398595,0.36846083,0.43993995,-8.579046,1.3712937,-0.41125482,-3.254612,1.5108109,0.7859602,0
0.5700000000000003,20.999968356866265,-5.999998791994947,5.999990663507824,5.752911605330237,19.89104,-4.207945,2.4026423,3.5589156,13.116896,-10.367877,1.6644729,0.80163807,0.13738121,0.36710075,0.45137548,-8.410215,1.392048,-0.34921864,-3.831969,2.0614114,1.0076982,0
0.5800000000000003,20.999968356866265,-5.999998791994947,5.999990663507824,5.752911605330237,19.89104,-4.207945,2.4026423,3.5589156,13.033605,-10.353819,1.6612854,0.7974789,0.11783167,0.36621258,0.46479172,-8.249403,1.4207798,-0.28851265,-4.3278255,2.5175958,1.2239444,0
0.5900000000000003,20.999968356866265,-5.999998791994947,5.999990663507824,5.752911605330237,19.89104,-4.207945,2.4026423,3.5589156,12.951884,-10.339429,1.6587025,0.7917911,0.0958049,0.3655863,0.479828,-8.095811,1.4587789,-0.22796734,-4.7357383,2.9132776,1.4330728,0
0.6000000000000003,20.999994230927985,-5.999999362441602,5.999998209026246,5.315109989991035,20.38167,-4.3891788,4.782884,3.8798819,12.871665,-10.324607,1.6567276,0.7844458,0.07173595,0.36518425,0.49612412,-7.9492493,1.507061,-0.16697031,-5.0548935,3.272458,1.6341906,0
0.6100000000000003,20.999994230927985,-5.999999362441602,5.999998209026246,5.315109989991035,20.38167,-4.3891788,4.782884,3.8798819,12.792854,-10.3092575,1.6553415,0.77527744,0.046034746,0.36521316,0.5132689,-7.8142376,1.5645875,-0.11032094,-5.2371597,3.6629784,1.8117473,0
0.6200000000000003,20.999994230927985,-5.999999362441602,5.999998209026246,5.315109989991035,20.38167,-4.3891788,4.782884,3.8798819,12.715351,-10.293279,1.6545177,0.76416045,0.019049462,0.36585796,0.5308897,-7.6876388,1.6328937,-0.054606356,-5.3633065,4.0203753,1.9830755,0
0.6300000000000003,20.999994230927985,-5.999999362441602,5.999998209026246,5.315109989991035,20.38167,-4.3891788,4.782884,3.8798819,12.639074,-10.27656,1.6542492,0.7510667,-0.008961612,0.36702207,0.5487379,-7.5688915,1.712829,0.00089491997,-5.4634566,4.328386,2.1465795,0
0.6400000000000003,20.999994230927985,-5.999999362441602,5.999998209026246,5.315109989991035,20.20204,-5.2727823,5.1617727,4.323041,12.563945,-10.258982,1.6545336,0.7360141,-0.03779038,0.3685174,0.5666127,-7.45841,1.8047377,0.055861056,-5.5479574,4.588393,2.3020601,1
0.6500000000000004,20.999994230927985,-5.999999362441602,5.999998209026246,5.315109989991035,20.20204,-5.2727823,5.1617727,4.323041,12.489856,-10.240444,1.655333,0.7192428,-0.06688962,0.37009686,0.5841607,-7.3608627,1.9045796,0.10374703,-5.50548,4.677519,2.4012303,1
0.6600000000000004,20.999994230927985,-5.999999362441602,5.999998209026246,5.315109989991035,20.20204,-5.2727823,5.1617727,4.323041,12.416695,-10.220852,1.6566019,0.7010085,-0.095811546,0.3715815,0.6011108,-7.2727227,2.0153923,0.14968657,-5.4696,4.7527575,2.4955342,1
0.6700000000000004,20.999994230927985,-5.999999362441602,5.999998209026246,5.315109989991035,20.20204,-5.2727823,5.1617727,4.323041,12.344366,-10.2001,1.6583179,0.681356,-0.12451393,0.37290645,0.61740655,-7.194594,2.1365519,0.19304925,-5.4392915,4.8162746,2.5852106,1
0.6800000000000004,20.999867490541284,-5.923257694645688,4.560449942250594,3.9050213557422757,19.777578,-5.236717,5.707335,3.5243816,12.272766,-10.178087,1.6604521,0.6603293,-0.15295327,0.37401667,0.63299435,-7.1270523,2.2673519,0.23324163,-5.4136853,4.869897,2.6704862,0
0.6900000000000004,20.999867490541284,-5.923257694645688,4.560449942250594,3.9050213557422757,19.777578,-5.236717,5.707335,3.5243816,12.201798,-10.154695,1.6629969,0.63805306,-0.1811205,0.374534,0.6479257,-7.0684285,2.4125113,0.27504513,-5.493259,4.821284,2.731065,0
0.7000000000000004,20.999867490541284,-5.923257694645688,4.560449942250594,3.9050213557422757,19.777578,-5.236717,5.707335,3.5243816,12.131355,-10.129808,1.6659387,0.6146324,-0.20899044,0.3741551,0.6622368,-7.0220356,2.5658875,0.3126083,-5.5604243,4.7802787,2.7886715,0
0.7100000000000004,20.999867490541284,-5.923257694645688,4.560449942250594,3.9050213557422757,19.777578,-5.236717,5.707335,3.5243816,12.061314,-10.103353,1.6692334,0.59008664,-0.23649901,0.37293887,0.67585665,-6.9884753,2.7264135,0.34560356,-5.617115,4.7456927,2.843451,0
0.7200000000000004,19.70967187351128,-4.681343712443716,2.774861841052139,3.0313640811959237,19.403622,-5.482912,4.688264,3.4531155,11.99154,-10.07526,1.6728339,0.5644415,-0.26358712,0.37093624,0.6887188,-6.9682517,2.8929703,0.3737199,-5.664964,4.7165236,2.8955426,0
0.7300000000000004,19.70967187351128,-4.681343712443716,2.774861841052139,3.0313640811959237,19.403622,-5.482912,4.688264,3.4531155,11.921899,-10.045529,1.6766527,0.53821504,-0.28947455,0.3681192,0.70072603,-6.962109,3.0538328,0.38927156,-5.511018,4.413988,2.9022074,0
0.7400000000000004,19.70967187351128,-4.681343712443716,2.774861841052139,3.0313640811959237,19.403622,-5.482912,4.688264,3.4531155,11.852255,-10.014172,1.680603,0.5118968,-0.31357217,0.36452028,0.7118699,-6.968705,3.2179499,0.4000495,-5.381165,4.1585903,2.9085453,0
0.7500000000000004,19.70967187351128,-4.681343712443716,2.774861841052139,3.0313640811959237,19.403622,-5.482912,4.688264,3.4531155,11.782482,-9.981162,1.6846378,0.4854704,-0.3360876,0.36025447,0.7222049,-6.987778,3.3840923,0.40619123,-5.2716355,3.9429848,2.914572,0
0.7600000000000005,17.487420926555302,-3.0185989617067297,0.6463071703506387,2.1393846242773535,17.844471,-4.6109886,1.9938164,2.3190618,11.712458,-9.946486,1.6887114,0.45891917,-0.35719612,0.35541263,0.7317688,-7.0190415,3.5511465,0.40783978,-5.179249,3.7609725,2.9203029,0
0.7700000000000005,17.487420926555302,-3.0185989617067297,0.6463071703506387,2.1393846242773535,17.844471,-4.6109886,1.9938164,2.3190618,11.642084,-9.9102335,1.6927255,0.43286258,-0.37616718,0.35014164,0.7406272,-7.0572557,3.6992645,0.3944306,-4.8412914,3.2760053,2.881983,0
0.7800000000000005,17.487420926555302,-3.0185989617067297,0.6463071703506387,2.1393846242773535,17.844471,-4.6109886,1.9938164,2.3190618,11.571279,-9.872504,1.6965884,0.4078474,-0.39247793,0.3446103,0.7489092,-7.105204,3.846439,0.37765646,-4.556206,2.8665483,2.8455434,0
0.7900000000000005,17.487420926555302,-3.0185989617067297,0.6463071703506387,2.1393846242773535,17.844471,-4.6109886,1.9938164,2.3190618,11.499949,-9.833311,1.7002689,0.3837488,-0.40653968,0.3389007,0.75670886,-7.162078,3.9919813,0.35802394,-4.315719,2.5208457,2.810892,0
0.8000000000000005,15.94633236730367,-1.3231968651409751,-1.312245145487732,1.2637653194310916,18.220179,-1.8439058,-1.9084094,0.6314721,11.42801,-9.792673,1.7037406,0.3604496,-0.41869578,0.3330682,0.764091,-7.2271585,4.135347,0.3359906,-4.1128516,2.2289722,2.777941,0
0.8100000000000005,15.94633236730367,-1.3231968651409751,-1.312245145487732,1.2637653194310916,18.220179,-1.8439058,-1.9084094,0.6314721,11.355408,-9.750668,1.7069536,0.33843118,-0.42849588,0.32733175,0.7711739,-7.2939415,4.2648873,0.30609572,-3.6914024,1.6923107,2.7049859,0
0.8200000000000005,15.94633236730367,-1.3231968651409751,-1.312245145487732,1.2637653194310916,18.220179,-1.8439058,-1.9084094,0.6314721,11.282112,-9.707387,1.7098567,0.31816837,-0.43553507,0.32192636,0.778101,-7.3660774,4.3906474,0.2743767,-3.3212001,1.2245573,2.634265,0
0.8300000000000005,15.94633236730367,-1.3231968651409751,-1.312245145487732,1.2637653194310916,18.220179,-1.8439058,-1.9084094,0.6314721,11.20807,-9.662864,1.7124392,0.29945186,-0.4402556,0.3168514,0.78492576,-7.443252,4.5137124,0.24204475,-3.0088973,0.8296122,2.567014,0
0.8400000000000005,15.94633236730367,-1.3231968651409751,-1.312245145487732,1.2637653194310916,18.333584,0.4040912,-4.8316255,-0.50648403,11.133234,-9.617123,1.7146975,0.28207758,-0.44304287,0.31208393,0.79167455,-7.5246916,4.6340585,0.20960498,-2.7454343,0.49614567,2.5030632,0
0.8500000000000005,15.94633236730367,-1.3231968651409751,-1.312245145487732,1.2637653194310916,18.333584,0.4040912,-4.8316255,-0.50648403,11.057565,-9.570192,1.7166326,0.26586613,-0.44421467,0.30759364,0.7983573,-7.609735,4.751707,0.17748576,-2.523169,0.21459053,2.4422503,0
0.8600000000000005,15.94633236730367,-1.3231968651409751,-1.312245145487732,1.2637653194310916,18.333584,0.4040912,-4.8316255,-0.50648403,10.9810295,-9.5220995,1.7182496,0.25066134,-0.44403374,0.303347,0.8049741,-7.6978164,4.866708,0.14604795,-2.3356562,-0.023132175,2.3844218,0
0.8700000000000006,15.94633236730367,-1.3231968651409751,-1.312245145487732,1.2637653194310916,18.333584,0.4040912,-4.8316255,-0.50648403,10.9036,-9.472868,1.7195569,0.23632817,-0.4427177,0.29930976,0.8115192,-7.788448,4.979124,0.11559374,-2.1774595,-0.22384481,2.3294308,0
0.8800000000000006,15.162444909329261,0.046783651602079215,-2.7804305762175128,0.41589058815044433,18.960936,1.1022041,-5.9280195,-0.92797375,10.8252535,-9.422525,1.7205657,0.22275062,-0.4404472,0.2954488,0.81798416,-7.8812075,5.089027,0.08637487,-2.043994,-0.3933081,2.2771385,0
0.8900000000000006,15.162444909329261,0.046783651602079215,-2.7804305762175128,0.41589058815044433,18.960936,1.1022041,-5.9280195,-0.92797375,10.745988,-9.371116,1.7212763,0.21028998,-0.43685353,0.2919822,0.824429,-7.9718113,5.1921077,0.0557347,-1.7305148,-0.7519444,2.1870053,0
0.9000000000000006,15.162444909329261,0.046783651602079215,-2.7804305762175128,0.41589058815044433,18.960936,1.1022041,-5.9280195,-0.92797375,10.665816,-9.318692,1.7216846,0.19929875,-0.4315832,0.28913164,0.8309142,-8.062708,5.2922244,0.02622036,-1.4529557,-1.0678077,2.1000962,0
0.9100000000000006,15.162444909329261,0.046783651602079215,-2.7804305762175128,0.41589058815044433,18.960936,1.1022041,-5.9280195,-0.92797375,10.584732,-9.265277,1.7218076,0.18959257,-0.42489037,0.2868128,0.8374132,-8.154072,5.3905163,-0.0013039494,-1.2187785,-1.3345039,2.0174518,0
0.9200000000000006,14.513321490122472,1.0379314154901522,-3.8848456890827414,-0.3045983963687633,19.680258,1.1805828,-6.4038057,-1.1709435,10.502735,-9.210887,1.7216662,0.1809987,-0.41700327,0.28493866,0.8438941,-8.245389,5.4872174,-0.026607601,-1.021198,-1.5596831,1.9388626,0
0.9300000000000006,14.513321490122472,1.0379314154901522,-3.8848456890827414,-0.3045983963687633,19.680258,1.1805828,-6.4038057,-1.1709435,10.419821,-9.155532,1.7212882,0.17356333,-0.4079138,0.28351173,0.85035455,-8.336989,5.5833707,-0.048859883,-0.7807108,-1.841067,1.8360323,0
0.9400000000000006,14.513321490122472,1.0379314154901522,-3.8848456890827414,-0.3045983963687633,19.680258,1.1805828,-6.4038057,-1.1709435,10.336005,-9.099231,1.7206923,0.16740729,-0.39751112,0.28259954,0.8567946,-8.425651,5.676361,-0.07016984,-0.54388624,-2.112494,1.735218,0
0.9500000000000006,14.513321490122472,1.0379314154901522,-3.8848456890827414,-0.3045983963687633,19.680258,1.1805828,-6.4038057,-1.1709435,10.25132,-9.042014,1.7198883,0.16249001,-0.38583267,0.28221673,0.8631823,-8.510959,5.7665296,-0.090448126,-0.31096426,-2.3747008,1.6363938,0
0.9600000000000006,14.323959968428426,1.5349563113735694,-4.547360784667978,-0.9306041538714312,19.417109,1.125809,-5.9213176,-1.7139478,10.165795,-8.983905,1.7188905,0.15874524,-0.37294415,0.28234997,0.8694774,-8.593513,5.855247,-0.10869418,-0.10051533,-2.609976,1.5411488,0
0.9700000000000006,14.323959968428426,1.5349563113735694,-4.547360784667978,-0.9306041538714312,19.417109,1.125809,-5.9213176,-1.7139478,10.079438,-8.924889,1.7177445,0.15607624,-0.35900602,0.2828545,0.8756415,-8.677308,5.9475946,-0.12033652,0.06633123,-2.823735,1.4277693,0
0.9800000000000006,14.323959968428426,1.5349563113735694,-4.547360784667978,-0.9306041538714312,19.417109,1.125809,-5.9213176,-1.7139478,9.992265,-8.864959,1.7164885,0.15446104,-0.344076,0.28366092,0.88164043,-8.756608,6.037957,-0.13064712,0.23706362,-3.0341141,1.3172771,0
0.9900000000000007,14.323959968428426,1.5349563113735694,-4.547360784667978,-0.9306041538714312,19.417109,1.125809,-5.9213176,-1.7139478,9.904323,-8.804135,1.7151358,0.1538765,-0.32815284,0.2847996,0.8874271,-8.83112,6.1265125,-0.13969287,0.41067973,-3.2412426,1.2095662,0
1.0000000000000007,14.181973081939653,1.5360174205959303,-4.554942516150796,-1.367090846298336,19.40103,1.8441699,-6.0115976,-2.176858,9.8156595,-8.7424345,1.7136991,0.15429392,-0.31123877,0.2862916,0.89295065,-8.90073,6.21363,-0.14734912,0.58250916,-3.44141,1.1048656,0
1.0100000000000007,14.181973081939653,1.5360174205959303,-4.554942516150796,-1.367090846298336,19.40103,1.8441699,-6.0115976,-2.176858,9.7263155,-8.679855,1.7122062,0.15561503,-0.29352728,0.28801227,0.8981507,-8.967079,6.3019733,-0.15102749,0.69466597,-3.5786703,0.98683786,0
1.0200000000000007,14.181973081939653,1.5360174205959303,-4.554942516150796,-1.367090846298336,19.40103,1.8441699,-6.0115976,-2.176858,9.636336,-8.6164,1.7106824,0.15777384,-0.27516213,0.28987315,0.90297663,-9.027922,6.389038,-0.15355408,0.8148374,-3.7200515,0.87232107,0
1.0300000000000007,14.181973081939653,1.5360174205959303,-4.554942516150796,-1.367090846298336,19.40103,1.8441699,-6.0115976,-2.176858,9.545774,-8.552076,1.7091419,0.16074225,-0.25613952,0.29189402,0.9073877,-9.083616,6.475686,-0.15418245,0.92710376,-3.8502543,0.7624325,0
1.0400000000000007,14.181973081939653,1.5360174205959303,-4.554942516150796,-1.367090846298336,18.828205,1.5149512,-5.97567,-2.1868067,9.454681,-8.486885,1.7076074,0.16443881,-0.23654294,0.29403114,0.9113468,-9.134309,6.5625796,-0.1523319,1.0218487,-3.9601722,0.6579362,0
1.0500000000000007,14.181973081939653,1.5360174205959303,-4.554942516150796,-1.367090846298336,18.828205,1.5149512,-5.97567,-2.1868067,9.363107,-8.420824,1.7061032,0.16878113,-0.21646248,0.29623556,0.9148232,-9.179717,6.649694,-0.14816102,1.1018106,-4.0529637,0.5585675,0
1.0600000000000007,14.181973081939653,1.5360174205959303,-4.554942516150796,-1.367090846298336,18.828205,1.5149512,-5.97567,-2.1868067,9.271106,-8.35389,1.7046516,0.17369717,-0.19597606,0.29846656,0.91779107,-9.219592,6.7369766,-0.14184932,1.1692991,-4.131294,0.46407488,0
1.0700000000000007,14.181973081939653,1.5360174205959303,-4.554942516150796,-1.367090846298336,18.828205,1.5149512,-5.97567,-2.1868067,9.178734,-8.286084,1.7032729,0.17912364,-0.17515132,0.30069038,0.9202294,-9.253716,6.824349,-0.13359356,1.226263,-4.197416,0.3742191,0
1.0800000000000007,13.541589518123757,1.0883741863861118,-4.035231640352828,-1.5827657841142455,18.391865,0.34105095,-5.3700027,-1.8592513,9.086052,-8.217403,1.7019857,0.18500452,-0.15404731,0.30287933,0.9221209,-9.281903,6.9117107,-0.12360459,1.2743459,-4.253231,0.2887725,0
1.0900000000000007,13.541589518123757,1.0883741863861118,-4.035231640352828,-1.5827657841142455,18.391865,0.34105095,-5.3700027,-1.8592513,8.993123,-8.147869,1.7007815,0.1912258,-0.1329497,0.30488136,0.92347413,-9.30301,6.9950004,-0.11705285,1.2450845,-4.2193146,0.19693556,0
1.1000000000000008,13.541589518123757,1.0883741863861118,-4.035231640352828,-1.5827657841142455,18.391865,0.34105095,-5.3700027,-1.8592513,8.900012,-8.077504,1.6996491,0.19770233,-0.112093866,0.3065815,0.9243141,-9.318288,7.078006,-0.10926915,1.2204033,-4.1906796,0.109605104,0
1.1100000000000008,13.541589518123757,1.0883741863861118,-4.035231640352828,-1.5827657841142455,18.391865,0.34105095,-5.3700027,-1.8592513,8.806777,-8.00631,1.6985998,0.20442507,-0.09145928,0.3080088,0.92464924,-9.327758,7.1605606,-0.10045923,1.199586,-4.1665044,0.026559964,0
1.1200000000000008,12.689821395875468,0.3608014831911678,-3.2237929220273225,-1.6460885187116685,16.97559,-1.0402114,-4.3035836,-1.6805573,8.713477,-7.9342947,1.6976428,0.21138306,-0.07102878,0.3091884,0.9244862,-9.331444,7.2425017,-0.09082393,1.1820287,-4.1460934,-0.052410115,0
1.1300000000000008,12.689821395875468,0.3608014831911678,-3.2237929220273225,-1.6460885187116685,16.97559,-1.0402114,-4.3035836,-1.6805573,8.620169,-7.8614883,1.6967514,0.21845314,-0.05115327,0.30994353,0.923903,-9.329527,7.318556,-0.08737135,1.0537593,-4.0023108,-0.13061237,0
1.1400000000000008,12.689821395875468,0.3608014831911678,-3.2237929220273225,-1.6460885187116685,16.97559,-1.0402114,-4.3035836,-1.6805573,8.526905,-7.787926,1.6958969,0.2255463,-0.03211367,0.31014532,0.9229884,-9.322431,7.393698,-0.08346983,0.9455148,-3.8809383,-0.20497724,0
1.1500000000000008,12.689821395875468,0.3608014831911678,-3.2237929220273225,-1.6460885187116685,16.97559,-1.0402114,-4.3035836,-1.6805573,8.433737,-7.713618,1.695083,0.23269443,-0.013801079,0.3098775,0.92175853,-9.3103695,7.4677567,-0.079241656,0.85416836,-3.7784843,-0.27569297,0
1.1600000000000008,11.998980218565796,-0.6358311411511082,-2.068275989488723,-1.4883068850337728,15.365026,-2.4970212,-3.3214557,-1.8033941,8.3407135,-7.638575,1.6943128,0.23992056,0.0038778577,0.3092102,0.92022395,-9.293535,7.540577,-0.07479836,0.7770817,-3.692001,-0.34293866,0
1.1700000000000008,11.998980218565796,-0.6358311411511082,-2.068275989488723,-1.4883068850337728,15.365026,-2.4970212,-3.3214557,-1.8033941,8.247876,-7.5628304,1.6935596,0.24708499,0.020487148,0.3079494,0.9185295,-9.273299,7.608126,-0.075822845,0.55666876,-3.4387536,-0.39914218,0
1.1800000000000008,11.998980218565796,-0.6358311411511082,-2.068275989488723,-1.4883068850337728,15.365026,-2.4970212,-3.3214557,-1.8033941,8.155261,-7.486418,1.6927966,0.25408652,0.035685547,0.30595547,0.9168194,-9.249096,7.674229,-0.07675862,0.3706419,-3.2249932,-0.45258778,0
1.1900000000000008,11.998980218565796,-0.6358311411511082,-2.068275989488723,-1.4883068850337728,15.365026,-2.4970212,-3.3214557,-1.8033941,8.062906,-7.4093513,1.6920247,0.26098785,0.049675953,0.30335343,0.9150925,-9.221289,7.738764,-0.07760396,0.21363494,-3.044565,-0.5034108,0
1.2000000000000008,11.702631075898399,-1.5803648867083468,-0.6458787296294978,-1.1364708327372883,15.205387,-2.9528651,-2.1537447,-1.387463,7.970847,-7.3316483,1.6912447,0.2678371,0.0626315,0.30024645,0.91334146,-9.19019,7.8016305,-0.07835282,0.08111963,-2.892273,-0.55174,0
1.2100000000000009,11.702631075898399,-1.5803648867083468,-0.6458787296294978,-1.1364708327372883,15.205387,-2.9528651,-2.1537447,-1.387463,7.8791094,-7.2533326,1.690446,0.27448756,0.074091434,0.29652736,0.91172284,-9.156946,7.861238,-0.08139466,-0.17791006,-2.5418532,-0.5804329,0
1.2200000000000009,11.702631075898399,-1.5803648867083468,-0.6458787296294978,-1.1364708327372883,15.205387,-2.9528651,-2.1537447,-1.387463,7.787717,-7.17443,1.6896175,0.2808281,0.08370077,0.29212326,0.9103811,-9.121235,7.9190907,-0.08424613,-0.39655054,-2.2460876,-0.6077179,0
1.2300000000000009,11.702631075898399,-1.5803648867083468,-0.6458787296294978,-1.1364708327372883,15.205387,-2.9528651,-2.1537447,-1.387463,7.696692,-7.094957,1.688762,0.2869367,0.091738716,0.28715542,0.9092816,-9.083506,7.9751635,-0.086810656,-0.58110094,-1.9964532,-0.63366395,0
1.2400000000000009,11.702631075898399,-1.5803648867083468,-0.6458787296294978,-1.1364708327372883,15.283972,-3.257049,-1.382091,-1.1181784,7.606053,-7.014932,1.6878825,0.29287407,0.09844191,0.2817224,0.9083867,-9.044136,8.029439,-0.08900027,-0.7368776,-1.7857559,-0.6583368,0
1.2500000000000009,11.702631075898399,-1.5803648867083468,-0.6458787296294978,-1.1364708327372883,15.283972,-3.257049,-1.382091,-1.1181784,7.515814,-6.934374,1.6869836,0.29868728,0.10401081,0.27590448,0.90765864,-9.003445,8.08191,-0.09073758,-0.86836743,-1.6079232,-0.68179905,0
1.260000000000001,11.702631075898399,-1.5803648867083468,-0.6458787296294978,-1.1364708327372883,15.283972,-3.257049,-1.382091,-1.1181784,7.4259872,-6.8533,1.6860696,0.30441284,0.108615205,0.26976728,0.9070617,-8.961707,8.132573,-0.091956384,-0.9793578,-1.4578295,-0.70410997,0
1.270000000000001,11.702631075898399,-1.5803648867083468,-0.6458787296294978,-1.1364708327372883,15.283972,-3.257049,-1.382091,-1.1181784,7.3365827,-6.7717285,1.6851463,0.31007883,0.11239894,0.26336467,0.906563,-8.919157,8.181428,-0.09260149,-1.0730449,-1.3311485,-0.72532606,0
1.280000000000001,11.996719566436632,-2.320734615218028,0.6706310508349285,-0.5764526866312207,14.544325,-2.9971352,-1.2564013,-0.75580704,7.2476063,-6.6896772,1.6842196,0.31570664,0.11548389,0.2567408,0.9061329,-8.875994,8.228475,-0.092628196,-1.1521269,-1.2242287,-0.74550104,0
1.290000000000001,11.996719566436632,-2.320734615218028,0.6706310508349285,-0.5764526866312207,14.544325,-2.9971352,-1.2564013,-0.75580704,7.159069,-6.607159,1.6833084,0.3211503,0.117419705,0.24982342,0.9059046,-8.831325,8.274858,-0.08951045,-1.3342221,-0.9286451,-0.7372058,0
1.300000000000001,11.996719566436632,-2.320734615218028,0.6706310508349285,-0.5764526866312207,14.544325,-2.9971352,-1.2564013,-0.75580704,7.0709796,-6.524186,1.682432,0.32628995,0.11785567,0.2425588,0.9059856,-8.786586,8.319449,-0.08562048,-1.4879448,-0.67917275,-0.7293176,0
1.310000000000001,11.996719566436632,-2.320734615218028,0.6706310508349285,-0.5764526866312207,14.544325,-2.9971352,-1.2564013,-0.75580704,6.9833364,-6.4407763,1.681599,0.3311732,0.11702125,0.23500368,0.90631306,-8.742137,8.362309,-0.08086557,-1.6177156,-0.46861792,-0.7218165,0
1.320000000000001,12.389437332664668,-2.924657753218808,1.7119040845462905,0.03722240214764704,14.653656,-2.909402,-0.9835016,-0.45526052,6.896135,-6.356946,1.6808182,0.3358375,0.115110226,0.2272041,0.90683013,-8.698284,8.403494,-0.075174406,-1.7272658,-0.29090926,-0.7146834,0
1.330000000000001,12.389437332664668,-2.924657753218808,1.7119040845462905,0.03722240214764704,14.653656,-2.909402,-0.9835016,-0.45526052,6.809375,-6.2727056,1.6801163,0.34017715,0.11184387,0.21911019,0.90761286,-8.653907,8.44435,-0.06505771,-1.9138532,0.021469384,-0.6777872,0
1.340000000000001,12.389437332664668,-2.924657753218808,1.7119040845462905,0.03722240214764704,14.653656,-2.909402,-0.9835016,-0.45526052,6.7230525,-6.1880646,1.679521,0.34409916,0.107009456,0.21068306,0.90871197,-8.610842,8.483618,-0.053829268,-2.0713773,0.28511414,-0.6427015,0
1.350000000000001,12.389437332664668,-2.924657753218808,1.7119040845462905,0.03722240214764704,14.653656,-2.909402,-0.9835016,-0.45526052,6.6371527,-6.1030383,1.6790438,0.34764633,0.10084712,0.2019711,0.9100437,-8.569477,8.521381,-0.041420575,-2.2043636,0.507629,-0.60933745,0
1.360000000000001,12.882880995284918,-3.2678176280004396,2.3232303031235984,0.6186126704993442,15.343946,-4.003058,-0.68854946,0.26918697,6.5516562,-6.0176415,1.6786968,0.35085255,0.09355985,0.19301403,0.9115342,-8.530151,8.557711,-0.027794229,-2.3166327,0.69543177,-0.5776106,0
1.370000000000001,12.882880995284918,-3.2678176280004396,2.3232303031235984,0.6186126704993442,15.343946,-4.003058,-0.68854946,0.26918697,6.466549,-5.931882,1.6785146,0.35364482,0.08506164,0.1837989,0.9131909,-8.491696,8.594061,-0.008438358,-2.4649096,0.9492477,-0.5189116,0
1.380000000000001,12.882880995284918,-3.2678176280004396,2.3232303031235984,0.6186126704993442,15.343946,-4.003058,-0.68854946,0.26918697,6.3818126,-5.845765,1.6785325,0.35595495,0.07529347,0.17431605,0.91500854,-8.456041,8.629063,0.012203317,-2.5900922,1.163468,-0.46309298,0
1.390000000000001,12.882880995284918,-3.2678176280004396,2.3232303031235984,0.6186126704993442,15.343946,-4.003058,-0.68854946,0.26918697,6.297417,-5.759305,1.678763,0.3578139,0.06445077,0.16460046,0.91690886,-8.4235325,8.662783,0.034111034,-2.6957748,1.3442711,-0.41001338,0
1.400000000000001,13.122833832482172,-3.3441301405379167,2.3838531600676163,1.0675949311950945,14.685764,-2.8870165,-0.39281338,-0.12605375,6.2133303,-5.672514,1.6792189,0.35924727,0.05269947,0.15468198,0.918824,-8.3944645,8.695272,0.057234064,-2.7849932,1.4968714,-0.35953838,0
1.410000000000001,13.122833832482172,-3.3441301405379167,2.3838531600676163,1.0675949311950945,14.685764,-2.8870165,-0.39281338,-0.12605375,6.129518,-5.585401,1.679923,0.36022326,0.04015583,0.14456429,0.9207214,-8.368624,8.727155,0.08377436,-2.872232,1.6350851,-0.28950852,0
1.420000000000001,13.122833832482172,-3.3441301405379167,2.3838531600676163,1.0675949311950945,14.685764,-2.8870165,-0.39281338,-0.12605375,6.045944,-5.497975,1.680898,0.36070997,0.026920762,0.13425265,0.9225724,-8.34679,8.757849,0.11137439,-2.945878,1.7517413,-0.22291508,0
1.430000000000001,13.122833832482172,-3.3441301405379167,2.3838531600676163,1.0675949311950945,14.685764,-2.8870165,-0.39281338,-0.12605375,5.962568,-5.410248,1.6821538,0.36072782,0.013104235,0.12377373,0.9243288,-8.329172,8.787368,0.13991363,-3.0080469,1.8502036,-0.15958941,0
1.440000000000001,13.122833832482172,-3.3441301405379167,2.3838531600676163,1.0675949311950945,14.639725,-2.881853,-0.94331175,0.18037617,5.879346,-5.3222313,1.683699,0.3602953,-0.0011998492,0.11315117,0.9259496,-8.315947,8.815713,0.16925281,-3.060526,1.9333116,-0.09937112,0
1.450000000000001,13.122833832482172,-3.3441301405379167,2.3838531600676163,1.0675949311950945,14.639725,-2.881853,-0.94331175,0.18037617,5.796233,-5.2339373,1.685541,0.35942927,-0.01591117,0.10240611,0.9273998,-8.307261,8.842881,0.19923688,-3.1048243,2.0034604,-0.04210776,0
1.460000000000001,13.122833832482172,-3.3441301405379167,2.3838531600676163,1.0675949311950945,14.639725,-2.881853,-0.94331175,0.18037617,5.713185,-5.1453776,1.6876855,0.35814533,-0.03096087,0.091557555,0.92864984,-8.303239,8.868859,0.22969808,-3.1422153,2.062672,0.012345666,0
1.470000000000001,13.122833832482172,-3.3441301405379167,2.3838531600676163,1.0675949311950945,14.639725,-2.881853,-0.94331175,0.18037617,5.630152,-5.0565643,1.6901362,0.35645816,-0.04628979,0.08062273,0.92967457,-8.303977,8.893628,0.2604581,-3.1737754,2.1126523,0.06412705,0
1.480000000000001,12.728004326958832,-3.1158753348220327,1.747222125471973,1.2837078878200145,14.651314,-2.5506494,-1.7547468,0.42453802,5.5470886,-4.9675093,1.6928952,0.3543814,-0.061846957,0.069617294,0.93045264,-8.309554,8.917164,0.29133037,-3.200413,2.1548421,0.11336752,0
1.490000000000001,12.728004326958832,-3.1158753348220327,1.747222125471973,1.2837078878200145,14.651314,-2.5506494,-1.7547468,0.42453802,5.4639463,-4.8782287,1.6959432,0.35192728,-0.07731732,0.05855242,0.9309892,-8.319696,8.938764,0.31824604,-3.187303,2.0911558,0.17079645,0
1.500000000000001,12.728004326958832,-3.1158753348220327,1.747222125471973,1.2837078878200145,14.651314,-2.5506494,-1.7547468,0.42453802,5.3806787,-4.7887383,1.6992593,0.34910616,-0.0924492,0.047440868,0.93130416,-8.334514,8.959069,0.34491163,-3.1762307,2.0374079,0.22540735,0
1.5100000000000011,12.728004326958832,-3.1158753348220327,1.747222125471973,1.2837078878200145,14.651314,-2.5506494,-1.7547468,0.42453802,5.2972403,-4.699052,1.7028402,0.3459288,-0.107287385,0.036298055,0.9313995,-8.353924,8.978009,0.37116176,-3.1668792,1.9920475,0.27733845,0
1.5200000000000011,12.160617443184194,-2.636725525091182,0.6460445194409989,1.3217671314503123,14.050045,-2.3055124,-3.017741,0.2800281,5.2135854,-4.6091833,1.7066808,0.34240606,-0.12186941,0.025137478,0.9312755,-8.377843,8.995517,0.39683503,-3.1589808,1.9537667,0.32672128,0
1.5300000000000011,12.160617443184194,-2.636725525091182,0.6460445194409989,1.3217671314503123,14.050045,-2.3055124,-3.017741,0.2800281,5.129675,-4.5191507,1.710747,0.33857995,-0.13575135,0.013999989,0.93098825,-8.404902,9.010808,0.41629538,-3.0775483,1.7497475,0.37554848,0
1.5400000000000011,12.160617443184194,-2.636725525091182,0.6460445194409989,1.3217671314503123,14.050045,-2.3055124,-3.017741,0.2800281,5.045474,-4.4289722,1.715004,0.33448875,-0.14858639,0.0029212,0.93060774,-8.435935,9.024564,0.43496186,-3.0088084,1.5775511,0.4219797,0
1.5500000000000012,12.160617443184194,-2.636725525091182,0.6460445194409989,1.3217671314503123,14.050045,-2.3055124,-3.017741,0.2800281,4.960944,-4.338665,1.7194432,0.33013815,-0.1605343,-0.008095636,0.93014616,-8.470685,9.036685,0.45275947,-2.950784,1.432214,0.46613252,0
1.5600000000000012,11.10497759032521,-1.8653081090402654,-0.5158471509724053,1.1648562896788577,12.550833,-2.1535316,-4.137467,0.81594515,4.876049,-4.248245,1.7240558,0.32553408,-0.17172992,-0.019048255,0.9296093,-8.50893,9.047086,0.46962032,-2.9018054,1.3095466,0.50811875,0
1.5700000000000012,11.10497759032521,-1.8653081090402654,-0.5158471509724053,1.1648562896788577,12.550833,-2.1535316,-4.137467,0.81594515,4.7907724,-4.157734,1.7287825,0.32074627,-0.18175523,-0.029802172,0.92908484,-8.546841,9.054942,0.4755979,-2.740092,1.0248729,0.540345,0
1.5800000000000012,11.10497759032521,-1.8653081090402654,-0.5158471509724053,1.1648562896788577,12.550833,-2.1535316,-4.137467,0.81594515,4.705103,-4.0671525,1.7335646,0.31583747,-0.19028959,-0.04025006,0.92866373,-8.58741,9.061088,0.48068506,-2.6036012,0.7845943,0.57098997,0
1.5900000000000012,11.10497759032521,-1.8653081090402654,-0.5158471509724053,1.1648562896788577,12.550833,-2.1535316,-4.137467,0.81594515,4.619016,-3.9765186,1.7383933,0.31080383,-0.19756836,-0.05042796,0.9283451,-8.630307,9.065461,0.48491803,-2.488401,0.5817867,0.60013115,0
1.6000000000000012,10.351250679215658,-0.9744454349713836,-1.3278639927452158,0.921561671009127,12.062756,-1.6686319,-4.973893,0.10490549,4.53249,-3.88585,1.7432601,0.30564237,-0.20378938,-0.060367264,0.92812085,-8.675251,9.06801,0.48833165,-2.3911705,0.41060603,0.62784237,0
1.6100000000000012,10.351250679215658,-0.9744454349713836,-1.3278639927452158,0.921561671009127,12.062756,-1.6686319,-4.973893,0.10490549,4.445521,-3.795165,1.7481232,0.30043265,-0.20870785,-0.06986936,0.92806214,-8.718806,9.068653,0.48412994,-2.1701238,0.13956241,0.6422552,0
1.6200000000000012,10.351250679215658,-0.9744454349713836,-1.3278639927452158,0.921561671009127,12.062756,-1.6686319,-4.973893,0.10490549,4.3581095,-3.7044826,1.7529408,0.29524407,-0.21214156,-0.07877895,0.9282352,-8.763701,9.067561,0.47929138,-1.9835622,-0.08922188,0.6559609,0
1.6300000000000012,10.351250679215658,-0.9744454349713836,-1.3278639927452158,0.921561671009127,12.062756,-1.6686319,-4.973893,0.10490549,4.2702436,-3.6138198,1.7577071,0.29006028,-0.21432689,-0.08718007,0.92861634,-8.809626,9.064745,0.47391477,-1.8261064,-0.28233585,0.668994,0
1.6400000000000012,10.351250679215658,-0.9744454349713836,-1.3278639927452158,0.921561671009127,11.811968,-0.8145024,-5.749068,-0.36877787,4.181915,-3.5231936,1.7624174,0.2848673,-0.21546191,-0.09514439,0.9291792,-8.856315,9.060214,0.4680875,-1.6932158,-0.4453413,0.68138754,0
1.6500000000000012,10.351250679215658,-0.9744454349713836,-1.3278639927452158,0.921561671009127,11.811968,-0.8145024,-5.749068,-0.36877787,4.0931163,-3.4326212,1.7670677,0.27965343,-0.2157127,-0.10273303,0.9298965,-8.903543,9.053983,0.46188512,-1.5810585,-0.5829328,0.693173,0
1.6600000000000013,10.351250679215658,-0.9744454349713836,-1.3278639927452158,0.921561671009127,11.811968,-0.8145024,-5.749068,-0.36877787,4.0038433,-3.3421197,1.7716542,0.27440923,-0.21521857,-0.109998114,0.9307419,-8.951121,9.046063,0.45537186,-1.4864001,-0.6990726,0.7043801,0
1.6700000000000013,10.351250679215658,-0.9744454349713836,-1.3278639927452158,0.921561671009127,11.811968,-0.8145024,-5.749068,-0.36877787,3.9140933,-3.2517056,1.7761743,0.26912728,-0.21409649,-0.11698409,0.9316906,-8.998886,9.0364685,0.4486012,-1.4065105,-0.7971054,0.7150373,0
1.6800000000000013,9.857531055290321,-0.22477505483098875,-1.9105046324729777,0.6197680859094246,12.477669,-1.1885487,-5.9108343,-0.37858355,3.8238652,-3.161396,1.7806256,0.26380184,-0.21244465,-0.12372887,0.93271995,-9.046696,9.025211,0.44161698,-1.3390858,-0.87985444,0.72517145,0
1.6900000000000013,9.857531055290321,-0.22477505483098875,-1.9105046324729777,0.6197680859094246,12.477669,-1.1885487,-5.9108343,-0.37858355,3.7331707,-3.0712042,1.7849844,0.25849798,-0.210045,-0.13005383,0.93388724,-9.092139,9.012927,0.43012503,-1.1652371,-1.0404978,0.71999925,0
1.7000000000000013,9.857531055290321,-0.22477505483098875,-1.9105046324729777,0.6197680859094246,12.477669,-1.1885487,-5.9108343,-0.37858355,3.6420233,-2.9811425,1.7892277,0.25327054,-0.20672956,-0.13581881,0.9352377,-9.137304,8.999127,0.4185503,-1.0185128,-1.1761031,0.7150809,0
1.7100000000000013,9.857531055290321,-0.22477505483098875,-1.9105046324729777,0.6197680859094246,12.477669,-1.1885487,-5.9108343,-0.37858355,3.5504265,-2.8912268,1.7933553,0.24810189,-0.2026413,-0.1411057,0.93673396,-9.182,8.983868,0.40697363,-0.89468026,-1.2905723,0.71040386,0
1.7200000000000013,9.688061877985097,0.4885861804514699,-2.3106351832965886,0.24930702219225384,12.579704,-0.75380987,-6.1743755,-0.6415144,3.4583857,-2.8014703,1.7973675,0.24297743,-0.19790013,-0.14598393,0.938342,-9.226066,8.9672,0.3954607,-0.79016817,-1.3871996,0.7059563,0
1.7300000000000013,9.688061877985097,0.4885861804514699,-2.3106351832965886,0.24930702219225384,12.579704,-0.75380987,-6.1743755,-0.6415144,3.3659117,-2.711886,1.8012575,0.23796058,-0.1923809,-0.15029188,0.9400937,-9.268605,8.949487,0.38257968,-0.59070325,-1.5311085,0.6835484,0
1.7400000000000013,9.688061877985097,0.4885861804514699,-2.3106351832965886,0.24930702219225384,12.579704,-0.75380987,-6.1743755,-0.6415144,3.2730172,-2.622485,1.8050197,0.23310483,-0.18598928,-0.15390411,0.94201016,-9.310189,8.93053,0.36990243,-0.42235738,-1.6525943,0.66224,0
1.7500000000000013,9.688061877985097,0.4885861804514699,-2.3106351832965886,0.24930702219225384,12.579704,-0.75380987,-6.1743755,-0.6415144,3.179712,-2.5332792,1.8086566,0.22838561,-0.17885906,-0.15692373,0.94404656,-9.350636,8.910419,0.35750726,-0.28027517,-1.7551504,0.6419773,0
1.7600000000000013,9.89758112895069,1.0836027515171371,-2.2981215630542398,-0.1836726707416764,12.735687,-0.03444328,-4.8178186,-0.8303085,3.0860088,-2.4442801,1.8121712,0.22378232,-0.17110267,-0.15943787,0.94616294,-9.38979,8.889241,0.3454541,-0.16035847,-1.8417258,0.6227089,0
1.7700000000000014,9.89758112895069,1.0836027515171371,-2.2981215630542398,-0.1836726707416764,12.735687,-0.03444328,-4.8178186,-0.8303085,2.9919174,-2.3555002,1.8155766,0.2193693,-0.16275813,-0.16130278,0.94835,-9.4283285,8.866598,0.33566007,0.033616096,-1.9128222,0.58313954,0
1.7800000000000014,9.89758112895069,1.0836027515171371,-2.2981215630542398,-0.1836726707416764,12.735687,-0.03444328,-4.8178186,-0.8303085,2.8974483,-2.266951,1.818886,0.21521,-0.15386017,-0.16240865,0.9505969,-9.465264,8.843079,0.3263207,0.19733544,-1.972852,0.54551184,0
1.7900000000000014,9.89758112895069,1.0836027515171371,-2.2981215630542398,-0.1836726707416764,12.735687,-0.03444328,-4.8178186,-0.8303085,2.8026183,-2.178641,1.8221047,0.21127357,-0.14449148,-0.16286926,0.9528687,-9.500466,8.818811,0.3174832,0.3355192,-2.023536,0.5097305,0
1.8000000000000014,10.189706686883948,1.5350137772336436,-1.6905005002230167,-0.5352664407417803,11.530468,0.7986667,-4.9120727,-0.74216205,2.7074454,-2.090577,1.8252376,0.2075338,-0.13472176,-0.16278058,0.9551344,-9.533825,8.793914,0.30917868,0.45215082,-2.0663285,0.47570503,0
1.8100000000000014,10.189706686883948,1.5350137772336436,-1.6905005002230167,-0.5352664407417803,11.530468,0.7986667,-4.9120727,-0.74216205,2.6119437,-2.002768,1.8283036,0.20407367,-0.124798104,-0.16200686,0.9573571,-9.566176,8.76775,0.3040918,0.62093955,-2.007686,0.42609638,0
1.8200000000000014,10.189706686883948,1.5350137772336436,-1.6905005002230167,-0.5352664407417803,11.530468,0.7986667,-4.9120727,-0.74216205,2.5161288,-1.9152229,1.8313215,0.20096244,-0.11492057,-0.16044636,0.9595123,-9.5964985,8.741225,0.29958507,0.7634149,-1.9582049,0.37892202,0
1.8300000000000014,10.189706686883948,1.5350137772336436,-1.6905005002230167,-0.5352664407417803,11.530468,0.7986667,-4.9120727,-0.74216205,2.4200208,-1.827944,1.8342973,0.198161,-0.105079584,-0.15821947,0.96159065,-9.62477,8.71451,0.2956643,0.88367885,-1.9164526,0.33406255,0
1.8400000000000014,10.189706686883948,1.5350137772336436,-1.6905005002230167,-0.5352664407417803,11.167685,1.082031,-4.5095716,-1.1012938,2.3236408,-1.7409328,1.8372368,0.19563594,-0.09526696,-0.15542753,0.9635832,-9.650973,8.687752,0.29232746,0.9851941,-1.8812206,0.2914043,0
1.8500000000000014,10.189706686883948,1.5350137772336436,-1.6905005002230167,-0.5352664407417803,11.167685,1.082031,-4.5095716,-1.1012938,2.227009,-1.6541889,1.8401458,0.19335866,-0.0854758,-0.15215592,0.96548134,-9.675096,8.6610775,0.28956518,1.0708835,-1.8514899,0.25083932,0
1.8600000000000014,10.189706686883948,1.5350137772336436,-1.6905005002230167,-0.5352664407417803,11.167685,1.082031,-4.5095716,-1.1012938,2.130146,-1.5677108,1.84303,0.19130453,-0.075700395,-0.14847663,0.9672776,-9.697122,8.634595,0.28736177,1.1432142,-1.8264005,0.21226487,0
1.8700000000000014,10.189706686883948,1.5350137772336436,-1.6905005002230167,-0.5352664407417803,11.167685,1.082031,-4.5095716,-1.1012938,2.0330737,-1.481496,1.8458948,0.18945235,-0.06593613,-0.14445028,0.96896523,-9.717041,8.608398,0.28569615,1.2042692,-1.8052272,0.17558329,0
1.8800000000000014,10.300747845336316,1.616161438146772,-1.2004907446144797,-0.7998117820701403,11.666746,1.5668591,-4.353996,-1.046357,1.9358126,-1.3955414,1.8487456,0.18778372,-0.056179352,-0.14012805,0.9705383,-9.734842,8.582569,0.28454226,1.2558059,-1.7873583,0.14070168,0
1.8900000000000015,10.300747845336316,1.616161438146772,-1.2004907446144797,-0.7998117820701403,11.666746,1.5668591,-4.353996,-1.046357,1.8383833,-1.3098444,1.8515925,0.18634343,-0.046607085,-0.13548677,0.97198075,-9.750696,8.556906,0.2849317,1.3119437,-1.6958709,0.094550416,0
1.9000000000000015,10.300747845336316,1.616161438146772,-1.2004907446144797,-0.7998117820701403,11.666746,1.5668591,-4.353996,-1.046357,1.740806,-1.2244014,1.8544457,0.18516959,-0.03735981,-0.13051094,0.9732845,-9.764452,8.531781,0.28577477,1.3593351,-1.6186525,0.050663806,0
1.9100000000000015,10.300747845336316,1.616161438146772,-1.2004907446144797,-0.7998117820701403,11.666746,1.5668591,-4.353996,-1.046357,1.6431013,-1.1392065,1.8573095,0.18423793,-0.02838572,-0.12525058,0.9744549,-9.776162,8.507286,0.2870378,1.3993425,-1.5534769,0.008930708,0
1.9200000000000015,10.046839527670148,1.377322914569184,-0.8604929515117967,-0.9410914637320243,11.384125,1.1789131,-3.9936419,-1.0939668,1.5452896,-1.0542532,1.8601879,0.18352728,-0.019641232,-0.11974774,0.97549564,-9.785871,8.483494,0.28868663,1.4331162,-1.4984658,-0.030754521,0
1.9300000000000015,10.046839527670148,1.377322914569184,-0.8604929515117967,-0.9410914637320243,11.384125,1.1789131,-3.9936419,-1.0939668,1.4473917,-0.96953124,1.8630722,0.18305078,-0.011238005,-0.11410662,0.97639394,-9.793429,8.461034,0.28821835,1.4243765,-1.3990157,-0.07542502,0
1.9400000000000015,10.046839527670148,1.377322914569184,-0.8604929515117967,-0.9410914637320243,11.384125,1.1789131,-3.9936419,-1.0939668,1.3494275,-0.8850299,1.8659533,0.18282047,-0.0032627762,-0.10841203,0.97714496,-9.799159,8.439362,0.2880522,1.417006,-1.3150722,-0.11790352,0
1.9500000000000015,10.046839527670148,1.377322914569184,-0.8604929515117967,-0.9410914637320243,11.384125,1.1789131,-3.9936419,-1.0939668,1.2514148,-0.8007412,1.8688341,0.1828172,0.0043517463,-0.102670476,0.9777613,-9.803137,8.418506,0.28815016,1.4107898,-1.2442174,-0.1582976,0
1.9600000000000015,9.623796000822031,0.987060554131273,-0.5309003986539598,-0.9702362875950442,10.893253,1.6418998,-4.161643,-1.9932891,1.1533706,-0.71665686,1.8717172,0.18302384,0.011662229,-0.096887276,0.9782528,-9.805432,8.398494,0.28847727,1.405547,-1.1844105,-0.19670953,0
1.9700000000000015,9.623796000822031,0.987060554131273,-0.5309003986539598,-0.9702362875950442,10.893253,1.6418998,-4.161643,-1.9932891,1.0553119,-0.6327642,1.8745837,0.18344352,0.018559046,-0.09119555,0.97861475,-9.806081,8.380149,0.28484723,1.3402705,-1.0825208,-0.23466669,0
1.9800000000000015,9.623796000822031,0.987060554131273,-0.5309003986539598,-0.9702362875950442,10.893253,1.6418998,-4.161643,-1.9932891,0.95725405,-0.54905105,1.8774147,0.18407877,0.02495763,-0.08570133,0.9788498,-9.805276,8.3626175,0.28137052,1.2851771,-0.996518,-0.27076128,0
1.9900000000000015,9.623796000822031,0.987060554131273,-0.5309003986539598,-0.9702362875950442,10.893253,1.6418998,-4.161643,-1.9932891,0.85921115,-0.46550918,1.8802116,0.184914,0.030935744,-0.080372125,0.9789738,-9.803115,8.345881,0.27801663,1.2386781,-0.9239248,-0.3050847,0
2.0000000000000013,,,,,11.569038,-0.08925297,-3.729954,-1.3185115,0.7611962,-0.38213074,1.8829756,0.18593507,0.03655896,-0.07518039,0.9789991,-9.79968,8.329926,0.27475962,1.1994323,-0.86265063,-0.3377239,0
2.010000000000001,,,,,11.569038,-0.08925297,-3.729954,-1.3185115,0.6632206,-0.29890445,1.885685,0.18714188,0.041637357,-0.07021288,0.9789352,-9.795268,8.315446,0.26712674,1.1063449,-0.7250025,-0.364915,0
2.020000000000001,,,,,11.569038,-0.08925297,-3.729954,-1.3185115,0.5652943,-0.21581943,1.8883183,0.18853197,0.046023175,-0.065537214,0.97879624,-9.789844,8.301664,0.25954798,1.0277746,-0.60882014,-0.3907718,0
2.0300000000000007,,,,,11.569038,-0.08925297,-3.729954,-1.3185115,0.46742684,-0.13286887,1.890876,0.19008966,0.049824234,-0.061106164,0.97859544,-9.783532,8.288551,0.25201118,0.96145654,-0.51075613,-0.41535982,0
2.0400000000000005,,,,,11.569038,-0.08925297,-3.729954,-1.3185115,0.3696264,-0.0500462,1.8933586,0.19180098,0.053131532,-0.05687985,0.97834235,-9.776441,8.276082,0.24450769,0.90547985,-0.42798525,-0.4387413,0
2.0500000000000003,,,,,11.325655,-0.44965675,-3.1565614,-1.1687986,0.2719004,0.032654904,1.8957663,0.19365346,0.056021873,-0.052824672,0.97804344,-9.768661,8.264234,0.23703112,0.8582318,-0.3581229,-0.46097544,1
2.06,,,,,11.325655,-0.44965675,-3.1565614,-1.1687986,0.17426515,0.11522715,1.8982056,0.19562767,0.05972298,-0.049569413,0.97760195,-9.7582445,8.250306,0.25084397,0.654119,-0.7944915,-0.49570855,1
2.07,,,,,11.325655,-0.44965675,-3.1565614,-1.1687986,0.07673915,0.19766238,1.900783,0.19771716,0.06520912,-0.047612775,0.97692806,-9.746764,8.236773,0.26460078,0.48184234,-1.1628102,-0.5287373,1
2.0799999999999996,,,,,11.325655,-0.44965675,-3.1565614,-1.1687986,-0.020665389,0.27996275,1.9034972,0.19992544,0.072198346,-0.046752416,0.97602826,-9.733906,8.223282,0.2782127,0.33643883,-1.4736916,-0.5601453,1
2.0899999999999994,,,,,11.356743,-0.72093165,-4.299359,-0.95695996,-0.11793334,0.36212716,1.9063464,0.2022514,0.08045207,-0.04681655,0.97489995,-9.719411,8.209538,0.29159278,0.21371849,-1.7360936,-0.59001213,1
2.099999999999999,,,,,11.356743,-0.72093165,-4.299359,-0.95695996,-0.21504699,0.44415155,1.9093295,0.20465232,0.09019041,-0.04786014,0.97349495,-9.703002,8.195235,0.30495298,0.067782015,-2.1357784,-0.60801846,1
2.109999999999999,,,,,11.356743,-0.72093165,-4.299359,-0.95695996,-0.3119859,0.526029,1.9124441,0.20708582,0.10157419,-0.049919467,0.97175413,-9.6844225,8.1800995,0.3178609,-0.055378325,-2.4731383,-0.6251411,1
2.1199999999999988,,,,,11.356743,-0.72093165,-4.299359,-0.95695996,-0.408727,0.60774964,1.9156848,0.20954669,0.11433626,-0.052833904,0.9696524,-9.663394,8.163841,0.330171,-0.1593161,-2.7578928,-0.6414236,1
2.1299999999999986,,,,,10.92436,-0.7866667,-4.0572424,-0.76855284,-0.5052446,0.6893011,1.919045,0.21202783,0.12824944,-0.056466565,0.96716475,-9.639695,8.146216,0.3417269,-0.24703023,-2.9982448,-0.6569071,1
2.1399999999999983,,,,,10.92436,-0.7866667,-4.0572424,-0.76855284,-0.6015161,0.7706721,1.9224955,0.21450782,0.14301981,-0.060708564,0.96428525,-9.614166,8.127748,0.34822345,-0.33126816,-3.1633575,-0.6623856,1
2.149999999999998,,,,,10.92436,-0.7866667,-4.0572424,-0.76855284,-0.69751817,0.8518502,1.9260058,0.21696623,0.15840337,-0.0654672,0.96101403,-9.585808,8.107604,0.35367632,-0.40235856,-3.3027263,-0.66759527,1
2.159999999999998,,,,,10.92436,-0.7866667,-4.0572424,-0.76855284,-0.7932223,0.932818,1.9295648,0.2193964,0.17428814,-0.07065626,0.9573382,-9.554563,8.085652,0.35792342,-0.4623533,-3.4203656,-0.67254925,1
2.1699999999999977,,,,,9.910873,-1.4945233,-3.6009064,-0.37086773,-0.88859934,1.0135567,1.9331595,0.22179171,0.1905783,-0.07620215,0.9532478,-9.520395,8.061787,0.36079884,-0.5129841,-3.5196624,-0.67726016,1
2.1799999999999975,,,,,9.910873,-1.4945233,-3.6009064,-0.37086773,-0.9836371,1.0940588,1.9367291,0.22416914,0.20695111,-0.08228052,0.9487619,-9.48675,8.038309,0.35291195,-0.6660256,-3.5322711,-0.6622254,1
2.1899999999999973,,,,,9.910873,-1.4945233,-3.6009064,-0.37086773,-1.0783256,1.1743163,1.9402124,0.22654271,0.22314607,-0.08902751,0.9439058,-9.450544,8.012895,0.34349564,-0.79520094,-3.5429265,-0.6479285,1
2.199999999999997,,,,,9.910873,-1.4945233,-3.6009064,-0.37086773,-1.1726396,1.2543095,1.9435931,0.2289014,0.23917064,-0.09633177,0.93868065,-9.411891,7.985437,0.3324218,-0.90423226,-3.5519302,-0.634333,1
2.209999999999997,,,,,10.286274,-1.8512136,-1.6747087,0.4899428,-1.2665554,1.3340176,1.9468544,0.23123443,0.25503024,-0.10409886,0.933088,-9.370902,7.955853,0.31956396,-0.996261,-3.5595384,-0.62140465,1
2.2199999999999966,,,,,10.286274,-1.8512136,-1.6747087,0.4899428,-1.3600421,1.413413,1.9499935,0.2335537,0.26996866,-0.112230845,0.9273475,-9.326078,7.9228864,0.30797267,-1.1293547,-3.2655864,-0.56687057,1
