time-since-start [s],throttle_mpc,roll_mpc,pitch_mpc,yaw_mpc,throttle_nw,roll_nw,pitch_nw,yaw_nw,position_x [m],position_y [m],position_z [m],rotation_w [quaternion],rotation_x [quaternion],rotation_y [quaternion],rotation_z [quaternion],velocity_x [m/s],velocity_y [m/s],velocity_z [m/s],omega_x [rad/s],omega_y [rad/s],omega_z [rad/s],network_used
0.0,9.556696181188714,5.99999961628983,-5.999999920120676,-4.9137386748579015,8.374493,1.423247,-3.5303535,-1.5154516,19.549566,-9.904492,2.1588354,-0.0028117856,-0.4517316,0.3372738,0.8259401,-10.176278,-4.246452,-0.36299986,1.1184235,-0.045388874,0.30253765,0
0.01,9.556696181188714,5.99999961628983,-5.999999920120676,-4.9137386748579015,17.325146,0.8154268,-4.5507927,-1.305942,19.447115,-9.9464445,2.1550493,-0.0011233318,-0.4510143,0.3421956,0.82430995,-10.313269,-4.1441164,-0.39463744,1.0340909,-0.1285281,0.12842101,0
0.02,9.556696181188714,5.99999961628983,-5.999999920120676,-4.9137386748579015,17.325146,0.8154268,-4.5507927,-1.305942,19.343315,-9.987378,2.1509337,0.00123056,-0.4502621,0.34640166,0.8229632,-10.446169,-4.042816,-0.42882004,0.96331,-0.19909804,-0.04138335,0
0.03,9.556696181188714,5.99999961628983,-5.999999920120676,-4.9137386748579015,17.325146,0.8154268,-4.5507927,-1.305942,19.238203,-10.027303,2.1464663,0.0042557158,-0.4495044,0.34997147,0.82185614,-10.575836,-3.942017,-0.4649291,0.91563994,-0.2707345,-0.20598277,0
0.04,9.556696181188714,5.99999961628983,-5.999999920120676,-4.9137386748579015,18.001684,2.6194026,-5.0670323,-1.9066418,19.131805,-10.066219,2.1416304,0.00801054,-0.44869807,0.35303798,0.82095665,-10.703018,-3.8411925,-0.5024271,0.8993912,-0.3551969,-0.36465013,0
0.05,9.556696181188714,5.99999961628983,-5.999999920120676,-4.9137386748579015,18.001684,2.6194026,-5.0670323,-1.9066418,19.02415,-10.104126,2.1364133,0.012559307,-0.4477838,0.3557322,0.8202355,-10.827594,-3.7404163,-0.5412025,0.9104679,-0.4513016,-0.51774883,0
0.060000000000000005,9.556696181188714,5.99999961628983,-5.999999920120676,-4.9137386748579015,18.001684,2.6194026,-5.0670323,-1.9066418,18.915264,-10.141026,2.1308024,0.017957093,-0.4467048,0.35816664,0.8196638,-10.949427,-3.6397161,-0.5811533,0.9452762,-0.55790883,-0.66561204,0
0.07,9.556696181188714,5.99999961628983,-5.999999920120676,-4.9137386748579015,18.001684,2.6194026,-5.0670323,-1.9066418,18.805174,-10.176918,2.1247864,0.024250647,-0.44540688,0.36043718,0.8192126,-11.068366,-3.5390847,-0.6221852,1.0006586,-0.6739307,-0.80854553,0
0.08,11.19872348072567,5.999999809332383,-5.999999957328786,-5.024347199844278,15.463062,4.704157,-5.510305,-3.5721908,18.693907,-10.211807,2.1183553,0.03147914,-0.4438381,0.36262503,0.8188526,-11.184254,-3.438488,-0.6642097,1.0738384,-0.7983359,-0.94683003,0
0.09,11.19872348072567,5.999999809332383,-5.999999957328786,-5.024347199844278,15.463062,4.704157,-5.510305,-3.5721908,18.58145,-10.2456455,2.111523,0.0397499,-0.4418933,0.3648459,0.8185581,-11.3064785,-3.3293266,-0.7024591,1.191255,-0.9590866,-1.0887322,0
0.09999999999999999,11.19872348072567,5.999999809332383,-5.999999957328786,-5.024347199844278,15.463062,4.704157,-5.510305,-3.5721908,18.46779,-10.278393,2.104303,0.04916032,-0.43947068,0.36719888,0.81829906,-11.424908,-3.2200954,-0.7416317,1.320678,-1.1251442,-1.2263839,0
0.10999999999999999,11.19872348072567,5.999999809332383,-5.999999957328786,-5.024347199844278,15.463062,4.704157,-5.510305,-3.5721908,18.352966,-10.310046,2.096687,0.059724994,-0.43652514,0.36972174,0.8180368,-11.539307,-3.110671,-0.78162867,1.4602932,-1.2957399,-1.3599987,0
0.11999999999999998,11.19872348072567,5.999999809332383,-5.999999957328786,-5.024347199844278,15.463062,4.704157,-5.510305,-3.5721908,18.237019,-10.340606,2.0886679,0.07145304,-0.43301216,0.3724422,0.81772935,-11.649433,-3.0009387,-0.822353,1.6085037,-1.4701579,-1.4897743,0
0.12999999999999998,14.62541454127999,5.999999922171234,-5.999999989352048,-4.752359346463623,16.649399,3.6345887,-5.3897967,-2.3658185,18.119991,-10.370065,2.080238,0.0843483,-0.42888767,0.37537873,0.8173317,-11.755046,-2.8907986,-0.86370885,1.7639033,-1.6477356,-1.6158931,0
0.13999999999999999,14.62541454127999,5.999999922171234,-5.999999989352048,-4.752359346463623,16.649399,3.6345887,-5.3897967,-2.3658185,18.001863,-10.398345,2.0714307,0.09867102,-0.42380467,0.37878224,0.8168091,-11.869587,-2.7650964,-0.89794856,2.0556235,-1.9585215,-1.7368355,0
0.15,14.62541454127999,5.999999922171234,-5.999999989352048,-4.752359346463623,16.649399,3.6345887,-5.3897967,-2.3658185,17.882622,-10.425365,2.0622773,0.11464737,-0.41743702,0.38285515,0.8161028,-11.977881,-2.6389854,-0.9328351,2.34153,-2.2605908,-1.8553938,0
0.16,17.624743131578416,5.999999957493577,-6.0,-4.362986982429522,18.20272,3.3842635,-5.574911,-2.0017507,17.762327,-10.451122,2.0527723,0.13222304,-0.4097696,0.38753238,0.8151221,-12.079466,-2.5122576,-0.96819824,2.6216495,-2.5544167,-1.9716064,0
0.17,17.624743131578416,5.999999957493577,-6.0,-4.362986982429522,18.20272,3.3842635,-5.574911,-2.0017507,17.641008,-10.475544,2.0429432,0.15159743,-0.40044618,0.39298102,0.8137729,-12.18328,-2.3720515,-0.99764293,3.0312178,-2.9759538,-2.078496,0
0.18000000000000002,17.624743131578416,5.999999957493577,-6.0,-4.362986982429522,18.20272,3.3842635,-5.574911,-2.0017507,17.518694,-10.498561,2.032818,0.17293039,-0.38912866,0.39931485,0.8119243,-12.278196,-2.231269,-1.027426,3.4233124,-3.3782098,-2.184292,0
0.19000000000000003,17.624743131578416,5.999999957493577,-6.0,-4.362986982429522,18.20272,3.3842635,-5.574911,-2.0017507,17.395475,-10.520167,2.0223942,0.19610092,-0.37582168,0.4063833,0.8094162,-12.363544,-2.089839,-1.0573398,3.7991168,-3.7626438,-2.2889094,0
0.20000000000000004,20.77228777345456,5.9999999645205095,-6.0,-3.6116477210319715,18.735016,4.299708,-5.652519,-1.6119072,17.271452,-10.540353,2.0116735,0.22095725,-0.36055383,0.4140173,0.80608183,-12.439409,-1.9464725,-1.086547,4.1415515,-4.1123424,-2.3906848,0
0.21000000000000005,20.77228777345456,5.9999999645205095,-6.0,-3.6116477210319715,18.735016,4.299708,-5.652519,-1.6119072,17.146656,-10.558954,2.0007322,0.24715286,-0.3434519,0.4220099,0.8017876,-12.517856,-1.7731547,-1.1013188,4.430745,-4.4073443,-2.4505978,0
0.22000000000000006,20.77228777345456,5.9999999645205095,-6.0,-3.6116477210319715,18.735016,4.299708,-5.652519,-1.6119072,17.021135,-10.575803,1.9896547,0.2743336,-0.32467136,0.43015933,0.79642457,-12.584249,-1.5959538,-1.1138223,4.6749005,-4.656281,-2.5075707,0
0.23000000000000007,20.77228777345456,5.9999999645205095,-6.0,-3.6116477210319715,18.735016,4.299708,-5.652519,-1.6119072,16.895016,-10.590862,1.9784639,0.302251,-0.30438757,0.4382645,0.78988373,-12.63763,-1.4155395,-1.1239756,4.8810353,-4.866342,-2.561748,0
0.24000000000000007,20.77228777345456,5.9999999645205095,-6.0,-3.6116477210319715,19.628317,3.3984008,-4.7447643,-0.8363459,16.768429,-10.604106,1.9671835,0.3306806,-0.28275982,0.44615504,0.7820757,-12.677182,-1.2327583,-1.1317487,5.055073,-5.0435953,-2.6132667,0
0.25000000000000006,20.77228777345456,5.9999999645205095,-6.0,-3.6116477210319715,19.628317,3.3984008,-4.7447643,-0.8363459,16.64152,-10.615513,1.9558371,0.3594189,-0.25993434,0.4536873,0.7729292,-12.702229,-1.0486048,-1.1371591,5.202014,-5.1931624,-2.6622577,0
0.26000000000000006,20.77228777345456,5.9999999645205095,-6.0,-3.6116477210319715,19.628317,3.3984008,-4.7447643,-0.8363459,16.514437,-10.625076,1.9444482,0.3882806,-0.23604652,0.46074057,0.7623896,-12.712248,-0.8641958,-1.1402689,5.32608,-5.3193645,-2.7088444,0
0.2700000000000001,20.77228777345456,5.9999999645205095,-6.0,-3.6116477210319715,19.628317,3.3984008,-4.7447643,-0.8363459,16.38733,-10.632799,1.9330393,0.41709664,-0.2112225,0.46721375,0.7504175,-12.706874,-0.6807432,-1.1411803,5.4308333,-5.425851,-2.7531452,0
0.2800000000000001,20.99999999748541,5.999999762508063,-5.999999932910327,-3.566181885347893,20.193453,2.8166244,-4.198933,-0.17835903,16.260353,-10.638699,1.9216317,0.44571206,-0.18558042,0.47302264,0.73698705,-12.685895,-0.49952996,-1.1400317,5.519283,-5.5156994,-2.795272,0
0.2900000000000001,20.99999999748541,5.999999762508063,-5.999999932910327,-3.566181885347893,20.193453,2.8166244,-4.198933,-0.17835903,16.133665,-10.642793,1.9102507,0.47398052,-0.15922886,0.47809854,0.7220874,-12.648862,-0.319939,-1.135885,5.5939746,-5.5915,-2.833101,0
0.3000000000000001,20.99999999748541,5.999999762508063,-5.999999932910327,-3.566181885347893,20.193453,2.8166244,-4.198933,-0.17835903,16.00743,-10.645114,1.8989199,0.5017675,-0.13227046,0.482385,0.70571834,-12.596115,-0.14532715,-1.1300293,5.6570435,-5.6554546,-2.8690736,0
0.3100000000000001,20.99999999748541,5.999999762508063,-5.999999932910327,-3.566181885347893,20.193453,2.8166244,-4.198933,-0.17835903,15.881798,-10.6457205,1.8876553,0.52895296,-0.10480513,0.48583522,0.6878871,-12.5279255,0.02293089,-1.1226907,5.7102995,-5.709413,-2.9032812,0
0.3200000000000001,20.999999985221162,3.4231800827529,-5.651438622021524,-0.5372848834537196,19.596605,2.2239342,-3.810001,0.028579958,15.756923,-10.644682,1.8764703,0.555426,-0.076927945,0.48841143,0.66860914,-12.44472,0.183476,-1.1141157,5.75527,-5.754937,-2.93581,0
0.3300000000000001,20.999999985221162,3.4231800827529,-5.651438622021524,-0.5372848834537196,19.596605,2.2239342,-3.810001,0.028579958,15.632953,-10.642081,1.8653762,0.5807115,-0.049223006,0.48952085,0.6486297,-12.347156,0.33500472,-1.1045215,5.392054,-5.737686,-2.8181136,0
0.34000000000000014,20.999999985221162,3.4231800827529,-5.651438622021524,-0.5372848834537196,19.596605,2.2239342,-3.810001,0.028579958,15.510024,-10.638016,1.8543835,0.60448647,-0.022170564,0.48876318,0.6286613,-12.23647,0.47642928,-1.0938696,5.085453,-5.7233005,-2.7061927,0
0.35000000000000014,20.999999985221162,3.4231800827529,-5.651438622021524,-0.5372848834537196,19.596605,2.2239342,-3.810001,0.028579958,15.388263,-10.63259,1.8435029,0.6268568,0.0042927423,0.48636374,0.60867256,-12.11404,0.60686326,-1.0820693,4.8266397,-5.7113013,-2.5997639,0
0.36000000000000015,20.99999964373429,1.5154408559294081,-3.536183036821837,0.2809995512212614,20.386417,0.7658738,-4.3481336,0.80875146,15.267779,-10.625918,1.8327463,0.64790606,0.03022318,0.48250875,0.58863354,-11.981186,0.72556293,-1.0690798,4.6081634,-5.701291,-2.4985573,1
0.37000000000000016,20.99999964373429,1.5154408559294081,-3.536183036821837,0.2809995512212614,20.386417,0.7658738,-4.3481336,0.80875146,15.14865,-10.618137,1.8221091,0.6674103,0.05475067,0.47708344,0.5691723,-11.843399,0.828869,-1.0581548,4.0098877,-5.4888654,-2.3362668,1
0.38000000000000017,20.99999964373429,1.5154408559294081,-3.536183036821837,0.2809995512212614,20.386417,0.7658738,-4.3481336,0.80875146,15.030936,-10.609383,1.8115879,0.6852824,0.07719422,0.47007978,0.55086666,-11.6984415,0.92024106,-1.0458701,3.5047925,-5.3098445,-2.1819398,1
0.3900000000000002,20.99999964373429,1.5154408559294081,-3.536183036821837,0.2809995512212614,20.386417,0.7658738,-4.3481336,0.80875146,14.914701,-10.599772,1.8011972,0.70175374,0.09785991,0.46176717,0.53360665,-11.547883,0.9999022,-1.0320151,3.078368,-5.158963,-2.0351858,1
0.4000000000000002,20.999997883178228,-0.34481886876785195,-1.2447675442059207,1.033864195035067,20.532532,-0.755206,-4.0524693,1.710832,14.799994,-10.589424,1.7909535,0.71700627,0.11701186,0.45235765,0.5172839,-11.393064,1.06812,-1.0164188,2.7183626,-5.0317883,-1.895633,0
0.4100000000000002,20.999997883178228,-0.34481886876785195,-1.2447675442059207,1.033864195035067,20.532532,-0.755206,-4.0524693,1.710832,14.686876,-10.57844,1.7808924,0.7306826,0.13393582,0.44269565,0.5021798,-11.230408,1.1270168,-0.9955055,2.2418098,-4.440404,-1.7518817,0
0.4200000000000002,20.999997883178228,-0.34481886876785195,-1.2447675442059207,1.033864195035067,20.532532,-0.755206,-4.0524693,1.710832,14.575396,-10.566918,1.7710495,0.74258316,0.1481088,0.4335135,0.48856947,-11.065677,1.1756274,-0.9728045,1.8393493,-3.9414215,-1.6151843,0
0.4300000000000002,20.999997883178228,-0.34481886876785195,-1.2447675442059207,1.033864195035067,20.532532,-0.755206,-4.0524693,1.710832,14.465569,-10.554957,1.761442,0.7530336,0.15999448,0.4247954,0.47633085,-10.899744,1.2151659,-0.94844234,1.4994723,-3.5203934,-1.4851947,0
0.4400000000000002,20.999997883178228,-0.34481886876785195,-1.2447675442059207,1.033864195035067,19.51531,-1.3072836,-2.854909,2.2281883,14.357404,-10.542642,1.7520859,0.7622894,0.16998182,0.4165078,0.46534097,-10.733268,1.2467014,-0.9225003,1.2124562,-3.1651342,-1.3615838,0
0.45000000000000023,20.999997883178228,-0.34481886876785195,-1.2447675442059207,1.033864195035067,19.51531,-1.3072836,-2.854909,2.2281883,14.250903,-10.530047,1.7429969,0.77055216,0.17839628,0.40860805,0.45548168,-10.566745,1.2711657,-0.89502966,0.97008663,-2.8653636,-1.2440385,0
0.46000000000000024,20.999997883178228,-0.34481886876785195,-1.2447675442059207,1.033864195035067,19.51531,-1.3072836,-2.854909,2.2281883,14.146066,-10.51724,1.7341902,0.7779815,0.18550982,0.40104985,0.44664285,-10.400553,1.2893648,-0.8660622,0.7654244,-2.61241,-1.1322612,0
0.47000000000000025,20.999997883178228,-0.34481886876785195,-1.2447675442059207,1.033864195035067,19.51531,-1.3072836,-2.854909,2.2281883,14.042889,-10.504278,1.7256807,0.7847051,0.19154927,0.39378697,0.43872374,-10.234979,1.3019916,-0.83561784,0.59260696,-2.3989577,-1.0259688,0
0.48000000000000026,20.341880688348404,-2.5078348967302984,1.463809521466105,4.785056978318338,20.360306,-1.9936001,-1.8552444,2.931035,13.941364,-10.491217,1.7174829,0.79082555,0.1967038,0.3867752,0.43163347,-10.070245,1.3096404,-0.8037093,0.44668314,-2.2188346,-0.9248922,0
0.49000000000000027,20.341880688348404,-2.5078348967302984,1.463809521466105,4.785056978318338,20.360306,-1.9936001,-1.8552444,2.931035,13.84164,-10.478097,1.7097389,0.79612845,0.20005861,0.38019878,0.42615113,-9.875545,1.3135785,-0.7454285,-0.07554776,-1.7062736,-0.6878464,0
0.5000000000000002,20.341880688348404,-2.5078348967302984,1.463809521466105,4.785056978318338,20.360306,-1.9936001,-1.8552444,2.931035,13.743832,-10.464957,1.7025675,0.8004423,0.20092593,0.37421453,0.42294705,-9.6871605,1.3138378,-0.6891266,-0.51418215,-1.2714889,-0.45667145,0
0.5100000000000002,20.341880688348404,-2.5078348967302984,1.463809521466105,4.785056978318338,20.360306,-1.9936001,-1.8552444,2.931035,13.647875,-10.451826,1.6959503,0.80388415,0.19975002,0.36873186,0.42179006,-9.505149,1.3120861,-0.6345994,-0.88318956,-0.90328145,-0.23122194,0
0.5200000000000002,20.186069335538047,-4.568579947050336,4.242338808070884,5.121937290662666,21.16699,-2.4515605,-0.17303567,3.7277575,13.553706,-10.438717,1.6898701,0.80653554,0.19689785,0.3636581,0.42247412,-9.329488,1.3096479,-0.58169174,-1.1942472,-0.5920862,-0.011356071,0
0.5300000000000002,20.186069335538047,-4.568579947050336,4.242338808070884,5.121937290662666,21.16699,-2.4515605,-0.17303567,3.7277575,13.461294,-10.425632,1.6843379,0.8082804,0.19148752,0.35927,0.4253709,-9.154122,1.307629,-0.52496535,-1.8346094,0.0474443,0.21067533,0
0.5400000000000003,20.186069335538047,-4.568579947050336,4.242338808070884,5.121937290662666,21.16699,-2.4515605,-0.17303567,3.7277575,13.370602,-10.412558,1.679366,0.80899656,0.18282086,0.35575983,0.43073905,-8.985327,1.3078468,-0.46957904,-2.3769746,0.58537817,0.42720783,0
0.5500000000000003,20.186069335538047,-4.568579947050336,4.242338808070884,5.121937290662666,21.16699,-2.4515605,-0.17303567,3.7277575,13.281564,-10.399463,1.674942,0.8087059,0.1714196,0.35291642,0.4382467,-8.823183,1.3118906,-0.41537762,-2.8380148,1.0361676,0.63837755,0
0.5600000000000003,20.9999930524555,-5.943578937336296,5.9999764459851015,4.985703771990445,20.307777,-3.5708702,2.9962728,3.221936,13.194114,-10.386304,1.6710545,0.8074026,0.15771818,0.3505439,0.4475992,-8.667808,1.320953,-0.36229506,-3.2316628,1.4121494,0.84431726,0
0.5700000000000003,20.9999930524555,-5.943578937336296,5.9999764459851015,4.985703771990445,20.307777,-3.5708702,2.9962728,3.221936,13.108207,-10.373022,1.6677153,0.8048564,0.14134523,0.348894,0.4588035,-8.514514,1.3364797,-0.30544263,-3.7436957,2.038353,1.0396008,0
0.5800000000000003,20.9999930524555,-5.943578937336296,5.9999764459851015,4.985703771990445,20.307777,-3.5708702,2.9962728,3.221936,13.023805,-10.359548,1.6649477,0.8007759,0.122047745,0.34827167,0.47177243,-8.366781,1.3596289,-0.24800208,-4.1473083,2.5955372,1.2278634,0
0.5900000000000003,20.9999930524555,-5.943578937336296,5.9999764459851015,4.985703771990445,20.307777,-3.5708702,2.9962728,3.221936,12.94085,-10.3457985,1.662756,0.79505044,0.10032413,0.34858677,0.48612463,-8.2250805,1.3915873,-0.19034846,-4.459069,3.0948122,1.4094781,0
0.6000000000000003,20.999997926203623,-5.999970121608104,5.999985967324647,4.525736063079411,19.31378,-3.8651125,5.1696134,3.3775647,12.859282,-10.331683,1.6611401,0.78757906,0.07659938,0.34976113,0.50151664,-8.089749,1.4332746,-0.1328029,-4.695834,3.5426757,1.5845524,0
0.6100000000000003,20.999997926203623,-5.999970121608104,5.999985967324647,4.525736063079411,19.31378,-3.8651125,5.1696134,3.3775647,12.779036,-10.317097,1.6601034,0.7783348,0.05118104,0.3516396,0.51761484,-7.960018,1.48583,-0.074393645,-4.8999753,3.9252217,1.728877,0
0.6200000000000003,20.999997926203623,-5.999970121608104,5.999985967324647,4.525736063079411,19.31378,-3.8651125,5.1696134,3.3775647,12.70006,-10.301926,1.6596541,0.7673322,0.024315612,0.3539937,0.5341335,-7.836328,1.5499643,-0.015416139,-5.072261,4.248133,1.8661196,0
0.6300000000000003,20.999997926203623,-5.999970121608104,5.999985967324647,4.525736063079411,19.31378,-3.8651125,5.1696134,3.3775647,12.622286,-10.286056,1.6597947,0.75456095,-0.0037418804,0.35663074,0.5508524,-7.719489,1.6260743,0.043456376,-5.2176514,4.520714,1.9966277,0
0.6400000000000003,20.999997926203623,-5.999970121608104,5.999985967324647,4.525736063079411,19.838907,-4.8104806,5.7518744,3.5865204,12.545643,-10.269362,1.6605206,0.740017,-0.03276184,0.35938826,0.5675752,-7.6103625,1.7143341,0.10151264,-5.3403363,4.750815,2.120732,0
0.6500000000000004,20.999997926203623,-5.999970121608104,5.999985967324647,4.525736063079411,19.838907,-4.8104806,5.7518744,3.5865204,12.470049,-10.251727,1.6618198,0.7237041,-0.062536255,0.36213,0.5841263,-7.509837,1.8147073,0.15801509,-5.443854,4.9450617,2.2387462,0
0.6600000000000004,20.999997926203623,-5.999970121608104,5.999985967324647,4.525736063079411,19.838907,-4.8104806,5.7518744,3.5865204,12.395412,-10.233028,1.6636729,0.70563406,-0.092875674,0.36474195,0.60034835,-7.4188085,1.9269588,0.21221182,-5.531192,5.109045,2.3509693,0
0.6700000000000004,20.999997926203623,-5.999970121608104,5.999985967324647,4.525736063079411,19.838907,-4.8104806,5.7518744,3.5865204,12.321635,-10.213148,1.6660534,0.6858269,-0.12360678,0.36712918,0.6161,-7.338156,2.050667,0.26334864,-5.604874,5.247485,2.4576857,0
0.6800000000000004,20.846707153733902,-5.3643546222382845,4.899193248925139,3.98949700061976,19.742542,-5.274131,5.6884937,3.5748248,12.2486105,-10.1919775,1.668927,0.6643104,-0.15457036,0.36921287,0.631254,-7.268728,2.1852355,0.31068057,-5.6670313,5.364363,2.5591655,0
0.6900000000000004,20.846707153733902,-5.3643546222382845,4.899193248925139,3.98949700061976,19.742542,-5.274131,5.6884937,3.5748248,12.176218,-10.1694145,1.6722465,0.6413757,-0.18519898,0.37079528,0.6456389,-7.2117147,2.3288198,0.35247716,-5.619951,5.291642,2.6293523,0
0.7000000000000004,20.846707153733902,-5.3643546222382845,4.899193248925139,3.98949700061976,19.742542,-5.274131,5.6884937,3.5748248,12.104334,-10.1453705,1.6759592,0.61731756,-0.21503814,0.37174943,0.65915114,-7.167151,2.4813159,0.3892751,-5.5802135,5.230265,2.696095,0
0.7100000000000004,20.846707153733902,-5.3643546222382845,4.899193248925139,3.98949700061976,19.742542,-5.274131,5.6884937,3.5748248,12.032831,-10.119762,1.6800132,0.59217393,-0.24410398,0.37210816,0.671773,-7.1354475,2.6415389,0.42064443,-5.5466743,5.178464,2.7595625,0
0.7200000000000004,19.28411299675938,-4.1361634679578145,2.8568454974280133,3.1127842348703667,19.052776,-5.425885,4.6291165,3.5317724,11.96158,-10.092518,1.6843519,0.56598336,-0.27240548,0.37189817,0.6834838,-7.116939,2.808288,0.44620192,-5.5183654,5.1347456,2.8199158,0
0.7300000000000004,19.28411299675938,-4.1361634679578145,2.8568454974280133,3.1127842348703667,19.052776,-5.425885,4.6291165,3.5317724,11.890445,-10.063643,1.6888716,0.539315,-0.299157,0.37100348,0.694263,-7.112208,2.96742,0.45685133,-5.3022056,4.7798553,2.834287,0
0.7400000000000004,19.28411299675938,-4.1361634679578145,2.8568454974280133,3.1127842348703667,19.052776,-5.425885,4.6291165,3.5317724,11.819295,-10.033157,1.6934698,0.51270276,-0.32377166,0.36938974,0.70417273,-7.1196523,3.1301234,0.46192896,-5.119849,4.4802537,2.847953,0
0.7500000000000004,19.28411299675938,-4.1361634679578145,2.8568454974280133,3.1127842348703667,19.052776,-5.425885,4.6291165,3.5317724,11.748011,-10.001033,1.6980917,0.48612484,-0.34652072,0.36717713,0.7132932,-7.1389184,3.295165,0.4616283,-4.9660106,4.2273264,2.8609486,0
0.7600000000000005,17.0925892042445,-2.5570409448386306,0.46657324698541397,2.196668946597046,17.419294,-4.290378,1.6296532,2.3640769,11.676477,-9.967252,1.7026848,0.45955607,-0.36763307,0.36445826,0.7216817,-7.169649,3.4614546,0.4561517,-4.8362308,4.0138025,2.8733058,0
0.7700000000000005,17.0925892042445,-2.5570409448386306,0.46657324698541397,2.196668946597046,17.419294,-4.290378,1.6296532,2.3640769,11.604603,-9.931899,1.7071478,0.43364802,-0.38637358,0.3612988,0.7294712,-7.206667,3.609078,0.43579736,-4.4796824,3.461378,2.840103,0
0.7800000000000005,17.0925892042445,-2.5570409448386306,0.46657324698541397,2.196668946597046,17.419294,-4.290378,1.6296532,2.3640769,11.532312,-9.895073,1.7113876,0.40897128,-0.40221876,0.35780448,0.7368438,-7.252707,3.7561214,0.411639,-4.178923,2.9949818,2.8085294,0
0.7900000000000005,17.0925892042445,-2.5570409448386306,0.46657324698541397,2.196668946597046,17.419294,-4.290378,1.6296532,2.3640769,11.45952,-9.856782,1.7153696,0.38537857,-0.41562605,0.35407987,0.7438858,-7.3069615,3.9019337,0.384287,-3.9252198,2.6012182,2.7785053,0
0.8000000000000005,15.740797611954237,-1.051513114608238,-1.6509894300630668,1.3120966525611772,18.120216,-1.1087945,-2.3259413,0.57715166,11.3861475,-9.817041,1.7190644,0.36273134,-0.42697638,0.35019717,0.7506527,-7.368717,4.046015,0.35428816,-3.711209,2.2687776,2.7499545,0
0.8100000000000005,15.740797611954237,-1.051513114608238,-1.6509894300630668,1.3120966525611772,18.120216,-1.1087945,-2.3259413,0.57715166,11.312144,-9.775915,1.722427,0.34148476,-0.43585518,0.34629095,0.75729877,-7.432635,4.178376,0.31770608,-3.3148975,1.6779544,2.6811912,0
0.8200000000000005,15.740797611954237,-1.051513114608238,-1.6509894300630668,1.3120966525611772,18.120216,-1.1087945,-2.3259413,0.57715166,11.237479,-9.733486,1.7254118,0.3221067,-0.44186315,0.34253272,0.7639869,-7.5012074,4.3069634,0.27908793,-2.9609666,1.1595552,2.6140091,0
0.8300000000000005,15.740797611954237,-1.051513114608238,-1.6509894300630668,1.3120966525611772,18.120216,-1.1087945,-2.3259413,0.57715166,11.162105,-9.689783,1.7280066,0.30437705,-0.44544828,0.33895713,0.7707391,-7.574329,4.4333067,0.23986165,-2.6624122,0.7218715,2.550124,0
0.8400000000000005,15.740797611954237,-1.051513114608238,-1.6509894300630668,1.3120966525611772,18.139494,0.4809843,-5.1311407,-0.3783524,11.085979,-9.644827,1.7302088,0.28807333,-0.44701087,0.33556646,0.7775541,-7.6512513,4.55739,0.20060125,-2.410565,0.35233897,2.4893734,0
0.8500000000000005,15.740797611954237,-1.051513114608238,-1.6509894300630668,1.3120966525611772,18.139494,0.4809843,-5.1311407,-0.3783524,11.0090685,-9.598642,1.7320203,0.27300024,-0.44688103,0.33235085,0.7844178,-7.731334,4.6792417,0.1617898,-2.1981137,0.040348217,2.4316041,0
0.8600000000000005,15.740797611954237,-1.051513114608238,-1.6509894300630668,1.3120966525611772,18.139494,0.4809843,-5.1311407,-0.3783524,10.931343,-9.5512495,1.7334474,0.2589881,-0.44533163,0.3292934,0.79130965,-7.814025,4.7989144,0.12383105,-2.018892,-0.22305875,2.3766696,0
0.8700000000000006,15.740797611954237,-1.051513114608238,-1.6509894300630668,1.3120966525611772,18.139494,0.4809843,-5.1311407,-0.3783524,10.85278,-9.502671,1.7345009,0.24589059,-0.44258893,0.32637364,0.7982064,-7.898846,4.916476,0.08706031,-1.8677002,-0.44544598,2.3244307,0
0.8800000000000006,15.153291648751223,0.08982384310740014,-3.1559692174212737,0.4734299361179596,18.793781,0.62435544,-6.170066,-0.5629425,10.773359,-9.452929,1.7351937,0.23358205,-0.43884093,0.3235697,0.8050845,-7.9853816,5.0319967,0.051754378,-1.7401521,-0.6332004,2.2747552,0
0.8900000000000006,15.153291648751223,0.08982384310740014,-3.1559692174212737,0.4734299361179596,18.793781,0.62435544,-6.170066,-0.5629425,10.693081,-9.402058,1.7355316,0.222416,-0.43370888,0.3210348,0.8120128,-8.070221,5.141684,0.01595636,-1.459097,-1.0212773,2.1868136,0
0.9000000000000006,15.153291648751223,0.08982384310740014,-3.1559692174212737,0.4734299361179596,18.793781,0.62435544,-6.170066,-0.5629425,10.611954,-9.350101,1.7355193,0.2127049,-0.42686945,0.3189129,0.8190446,-8.155475,5.2493224,-0.018053912,-1.2171434,-1.3537698,2.1027372,0
0.9100000000000006,15.153291648751223,0.08982384310740014,-3.1559692174212737,0.4734299361179596,18.793781,0.62435544,-6.170066,-0.5629425,10.529972,-9.297076,1.7351782,0.20425132,-0.41858843,0.31713942,0.82612836,-8.2408285,5.355476,-0.049762767,-1.0130227,-1.6344893,2.0227866,0
0.9200000000000006,14.67828285713242,0.8405364887229759,-4.198736284754667,-0.22382194857932938,19.298506,0.6839204,-6.552137,-0.9181857,10.447138,-9.242996,1.7345327,0.1968827,-0.4090908,0.315652,0.83321434,-8.325771,5.460329,-0.078926794,-0.8408142,-1.8714943,1.9467592,0
0.9300000000000006,14.67828285713242,0.8405364887229759,-4.198736284754667,-0.22382194857932938,19.298506,0.6839204,-6.552137,-0.9181857,10.363458,-9.187871,1.733611,0.19066046,-0.39833096,0.31444043,0.8403027,-8.40997,5.564215,-0.10524365,-0.6299132,-2.18256,1.8448851,0
0.9400000000000006,14.67828285713242,0.8405364887229759,-4.198736284754667,-0.22382194857932938,19.298506,0.6839204,-6.552137,-0.9181857,10.278951,-9.131722,1.7324325,0.18571961,-0.38616696,0.3135592,0.8473868,-8.490991,5.664942,-0.13021605,-0.41808078,-2.4790192,1.7449813,0
0.9500000000000006,14.67828285713242,0.8405364887229759,-4.198736284754667,-0.22382194857932938,19.298506,0.6839204,-6.552137,-0.9181857,10.193648,-9.074578,1.7310139,0.18199809,-0.37266886,0.31302568,0.8544061,-8.569166,5.7637486,-0.15301885,-0.22166775,-2.7469704,1.6483716,0
0.9600000000000006,14.587428451467881,1.12197971420748,-4.710967773536139,-0.8225893390135893,20.224615,0.64582825,-6.0630827,-1.4588984,10.107575,-9.016449,1.7293829,0.17935492,-0.35800475,0.31278294,0.8612964,-8.64494,5.861981,-0.1726803,-0.055952325,-2.973191,1.5565023,0
0.9700000000000006,14.587428451467881,1.12197971420748,-4.710967773536139,-0.8225893390135893,20.224615,0.64582825,-6.0630827,-1.4588984,10.020749,-8.957328,1.7275813,0.17772315,-0.34229636,0.312716,0.86801887,-8.719445,5.9619007,-0.18735278,0.08525389,-3.20157,1.443582,0
0.9800000000000006,14.587428451467881,1.12197971420748,-4.710967773536139,-0.8225893390135893,20.224615,0.64582825,-6.0630827,-1.4588984,9.933203,-8.89722,1.7256415,0.1771205,-0.3255501,0.31279105,0.8745328,-8.789227,6.059573,-0.20033544,0.23388255,-3.4238234,1.3335679,0
0.9900000000000007,14.587428451467881,1.12197971420748,-4.710967773536139,-0.8225893390135893,20.224615,0.64582825,-6.0630827,-1.4588984,9.84498,-8.836142,1.7235832,0.17750214,-0.30779943,0.31303263,0.88077444,-8.854653,6.156105,-0.21080944,0.37230563,-3.6244578,1.2277646,0
1.0000000000000007,14.453458660548627,0.9625274345291343,-4.493397153778521,-1.2313829432055234,20.1878,1.5820639,-5.5763526,-1.7751809,9.756124,-8.774098,1.7214365,0.17875773,-0.28917092,0.31339645,0.8866843,-8.915907,6.252398,-0.21806593,0.4891041,-3.7938366,1.1271532,0
1.0100000000000007,14.453458660548627,0.9625274345291343,-4.493397153778521,-1.2313829432055234,20.1878,1.5820639,-5.5763526,-1.7751809,9.66668,-8.711098,1.7192286,0.1807768,-0.26989967,0.31377563,0.8921991,-8.972086,6.347581,-0.22304292,0.56272024,-3.902921,1.0114192,0
1.0200000000000007,14.453458660548627,0.9625274345291343,-4.493397153778521,-1.2313829432055234,20.1878,1.5820639,-5.5763526,-1.7751809,9.576699,-8.647147,1.716986,0.18347348,-0.25018495,0.31408384,0.8972719,-9.023451,6.442505,-0.22502403,0.6248444,-3.9950087,0.90136427,0
1.0300000000000007,14.453458660548627,0.9625274345291343,-4.493397153778521,-1.2313829432055234,20.1878,1.5820639,-5.5763526,-1.7751809,9.48623,-8.582248,1.7147378,0.18677759,-0.23009911,0.31430158,0.90187776,-9.069746,6.537106,-0.22415526,0.67727405,-4.072747,0.7967097,0
1.0400000000000007,14.453458660548627,0.9625274345291343,-4.493397153778521,-1.2313829432055234,19.709766,1.1248949,-5.35638,-1.9237577,9.395322,-8.516405,1.712512,0.1906274,-0.20970455,0.31441367,0.9059965,-9.110745,6.631304,-0.2206024,0.7215248,-4.1383715,0.69719064,0
1.0500000000000007,14.453458660548627,0.9625274345291343,-4.493397153778521,-1.2313829432055234,19.709766,1.1248949,-5.35638,-1.9237577,9.304032,-8.449623,1.7103343,0.19496812,-0.18905534,0.31440827,0.9096117,-9.146252,6.7249975,-0.21454774,0.7588756,-4.1937675,0.60255504,0
1.0600000000000007,14.453458660548627,0.9625274345291343,-4.493397153778521,-1.2313829432055234,19.709766,1.1248949,-5.35638,-1.9237577,9.212416,-8.3819065,1.7082288,0.19975094,-0.16819848,0.31427658,0.9127101,-9.176093,6.818073,-0.2061873,0.79040486,-4.2405286,0.51256317,0
1.0700000000000007,14.453458660548627,0.9625274345291343,-4.493397153778521,-1.2313829432055234,19.709766,1.1248949,-5.35638,-1.9237577,9.12053,-8.313263,1.7062176,0.20493212,-0.14717498,0.3140122,0.915281,-9.200123,6.9104023,-0.19572827,0.8170218,-4.28,0.4269872,0
1.0800000000000007,13.746688493027074,0.4735497063873768,-3.764157353777698,-1.4208892897973255,18.564957,-0.848986,-4.4511886,-1.6704351,9.028434,-8.243702,1.7043207,0.21047212,-0.12602079,0.3136108,0.9173163,-9.218218,7.0018487,-0.18338703,0.8394939,-4.3133173,0.3456105,0
1.0900000000000007,13.746688493027074,0.4735497063873768,-3.764157353777698,-1.4208892897973255,18.564957,-0.848986,-4.4511886,-1.6704351,8.936191,-8.173253,1.7025282,0.21624278,-0.10508483,0.31295055,0.91883564,-9.229708,7.0878415,-0.17486864,0.7821668,-4.227733,0.25892788,0
1.1000000000000008,13.746688493027074,0.4735497063873768,-3.764157353777698,-1.4208892897973255,18.564957,-0.848986,-4.4511886,-1.6704351,8.843861,-8.10195,1.700828,0.22215036,-0.08465096,0.31194338,0.919878,-9.235546,7.1726923,-0.16498414,0.7338023,-4.1554866,0.17649876,0
1.1100000000000008,13.746688493027074,0.4735497063873768,-3.764157353777698,-1.4208892897973255,18.564957,-0.848986,-4.4511886,-1.6704351,8.7515,-8.029804,1.6992325,0.22820592,-0.0646597,0.3106321,0.9204617,-9.235839,7.256243,-0.15393415,0.6929997,-4.094499,0.09811446,0
1.1200000000000008,12.808818947376386,-0.17626002678071656,-2.7944094599521208,-1.4627160444715064,17.109083,-2.2023885,-3.4844544,-1.498677,8.659163,-7.9568295,1.6977525,0.2344154,-0.04506021,0.30905327,0.92060083,-9.230684,7.338344,-0.14190902,0.6585768,-4.043017,0.023576507,0
1.1300000000000008,12.808818947376386,-0.17626002678071656,-2.7944094599521208,-1.4627160444715064,17.109083,-2.2023885,-3.4844544,-1.498677,8.566902,-7.8830695,1.6963592,0.24065702,-0.026229711,0.30709195,0.92037576,-9.2209215,7.4133577,-0.1366546,0.52819794,-3.8483248,-0.04935629,0
1.1400000000000008,12.808818947376386,-0.17626002678071656,-2.7944094599521208,-1.4627160444715064,17.109083,-2.2023885,-3.4844544,-1.498677,8.474762,-7.8085675,1.6950215,0.24684387,-0.008466816,0.30466855,0.91987735,-9.206455,7.4867544,-0.1307915,0.41817644,-3.683983,-0.118710265,0
1.1500000000000008,12.808818947376386,-0.17626002678071656,-2.7944094599521208,-1.4627160444715064,17.109083,-2.2023885,-3.4844544,-1.498677,8.382789,-7.7333403,1.6937449,0.25302187,0.008375867,0.30185822,0.9191258,-9.187566,7.5584183,-0.124429464,0.3253324,-3.5452616,-0.18466103,0
1.1600000000000008,12.080043506123486,-1.0016273595824678,-1.5511782354182517,-1.3035323596992743,16.0611,-3.701559,-1.9699707,-1.4881067,8.291025,-7.6574054,1.6925341,0.25922567,0.024424415,0.2987233,0.91813433,-9.164495,7.6282473,-0.11766468,0.24698295,-3.4281676,-0.24737555,0
1.1700000000000008,12.080043506123486,-1.0016273595824678,-1.5511782354182517,-1.3035323596992743,16.0611,-3.701559,-1.9699707,-1.4881067,8.199506,-7.5808015,1.6913626,0.26532593,0.03924965,0.29514375,0.9170347,-9.139026,7.692289,-0.1165605,0.05220361,-3.135423,-0.29920146,0
1.1800000000000008,12.080043506123486,-1.0016273595824678,-1.5511782354182517,-1.3035323596992743,16.0611,-3.701559,-1.9699707,-1.4881067,8.108257,-7.5035663,1.6902038,0.2712291,0.052518204,0.29103592,0.91595614,-9.110227,7.7544503,-0.11517074,-0.112185866,-2.8883257,-0.34848428,0
1.1900000000000008,12.080043506123486,-1.0016273595824678,-1.5511782354182517,-1.3035323596992743,16.0611,-3.701559,-1.9699707,-1.4881067,8.017311,-7.4257193,1.6890602,0.2770032,0.06445967,0.28649423,0.9148968,-9.0784855,7.8146844,-0.1134905,-0.2509286,-2.6797593,-0.39534876,0
1.2000000000000008,11.771853069503576,-1.7263393827162925,-0.13530521096631623,-0.970848933299796,15.289177,-3.432238,-1.4247936,-1.2548759,7.9266963,-7.3472795,1.687935,0.28270093,0.07526933,0.28159574,0.9138487,-9.044131,7.8729563,-0.111509904,-0.36802727,-2.503717,-0.43991357,0
1.2100000000000009,11.771853069503576,-1.7263393827162925,-0.13530521096631623,-0.970848933299796,15.289177,-3.432238,-1.4247936,-1.2548759,7.8364325,-7.2682743,1.6868182,0.2881904,0.084524885,0.27629793,0.9129415,-9.008412,7.9278083,-0.111770764,-0.57978594,-2.134294,-0.4659667,0
1.2200000000000009,11.771853069503576,-1.7263393827162925,-0.13530521096631623,-0.970848933299796,15.289177,-3.432238,-1.4247936,-1.2548759,7.746535,-7.18873,1.6857009,0.29337102,0.09190257,0.2705753,0.9122923,-8.970897,7.980751,-0.11165259,-0.75852543,-1.8224866,-0.49074143,0
1.2300000000000009,11.771853069503576,-1.7263393827162925,-0.13530521096631623,-0.970848933299796,15.289177,-3.432238,-1.4247936,-1.2548759,7.657019,-7.108665,1.684587,0.29831833,0.09768846,0.26450604,0.9118666,-8.932019,8.031825,-0.11107491,-0.9093957,-1.5593095,-0.5143004,0
1.2400000000000009,11.771853069503576,-1.7263393827162925,-0.13530521096631623,-0.970848933299796,15.310753,-3.3268628,-0.9343179,-1.0252882,7.5678973,-7.028099,1.6834813,0.30309123,0.102124505,0.2581526,0.9116274,-8.892149,8.081071,-0.10996509,-1.0367432,-1.3371792,-0.5367033,0
1.2500000000000009,11.771853069503576,-1.7263393827162925,-0.13530521096631623,-0.970848933299796,15.310753,-3.3268628,-0.9343179,-1.0252882,7.479178,-6.9470496,1.6823899,0.30773553,0.10541535,0.25156543,0.9115385,-8.851598,8.128525,-0.10826012,-1.1442358,-1.1496941,-0.55800694,0
1.260000000000001,11.771853069503576,-1.7263393827162925,-0.13530521096631623,-0.970848933299796,15.310753,-3.3268628,-0.9343179,-1.0252882,7.3908668,-6.8655343,1.6813185,0.31228676,0.10773408,0.24478514,0.9115655,-8.81063,8.174222,-0.10590729,-1.2349703,-0.9914514,-0.5782652,0
1.270000000000001,11.771853069503576,-1.7263393827162925,-0.13530521096631623,-0.970848933299796,15.310753,-3.3268628,-0.9343179,-1.0252882,7.3029666,-6.7835703,1.680274,0.3167724,0.10922716,0.23784482,0.91167736,-8.769472,8.218193,-0.102864094,-1.3115597,-0.8578905,-0.5975294,0
1.280000000000001,12.056266572434069,-2.2543676975550313,1.0872796821256774,-0.454130855869203,13.655046,-3.005261,-0.6784592,-0.74416226,7.2154784,-6.701176,1.6792636,0.3212136,0.110018566,0.23077133,0.9118461,-8.728317,8.260466,-0.09909765,-1.3762096,-0.7451621,-0.6158483,0
1.290000000000001,12.056266572434069,-2.2543676975550313,1.0872796821256774,-0.454130855869203,13.655046,-3.005261,-0.6784592,-0.74416226,7.128405,-6.6183624,1.6783069,0.32547972,0.10971357,0.22354501,0.91217023,-8.68637,8.3020525,-0.09209782,-1.5130408,-0.45934674,-0.6079127,0
1.300000000000001,12.056266572434069,-2.2543676975550313,1.0872796821256774,-0.454130855869203,13.655046,-3.005261,-0.6784592,-0.74416226,7.0417495,-6.535141,1.6774243,0.32946196,0.10800534,0.2161519,0.91272616,-8.644945,8.342016,-0.084264025,-1.6285537,-0.21811351,-0.60036665,0
1.310000000000001,12.056266572434069,-2.2543676975550313,1.0872796821256774,-0.454130855869203,13.655046,-3.005261,-0.6784592,-0.74416226,6.9555035,-6.451527,1.6766245,0.33320266,0.10510903,0.20861867,0.913459,-8.604367,8.380444,-0.075537734,-1.7260693,-0.014508117,-0.5931908,0
1.320000000000001,12.405939050586664,-2.6743202691461923,1.968975122340693,0.09740075604557386,14.176273,-2.669703,-0.5735981,-0.40624678,6.869658,-6.3675365,1.6759167,0.3367352,0.10120639,0.20096657,0.9143195,-8.564918,8.417413,-0.06587868,-1.8083913,0.15733886,-0.58636713,0
1.330000000000001,12.405939050586664,-2.6743202691461923,1.968975122340693,0.09740075604557386,14.176273,-2.669703,-0.5735981,-0.40624678,6.7842054,-6.2831783,1.675326,0.33996993,0.09608501,0.1931712,0.91535467,-8.525749,8.454026,-0.052105445,-1.9433339,0.4398716,-0.5528144,0
1.340000000000001,12.405939050586664,-2.6743202691461923,1.968975122340693,0.09740075604557386,14.176273,-2.669703,-0.5735981,-0.40624678,6.6991367,-6.19846,1.6748781,0.34282687,0.089584485,0.18521293,0.9165924,-8.488353,8.489311,-0.037304476,-2.0572586,0.6783329,-0.52090824,0
1.350000000000001,12.405939050586664,-2.6743202691461923,1.968975122340693,0.09740075604557386,14.176273,-2.669703,-0.5735981,-0.40624678,6.6144314,-6.1133957,1.6745836,0.34534228,0.08191674,0.17711332,0.91796535,-8.453063,8.523363,-0.021452032,-2.153438,0.8795978,-0.49056762,0
1.360000000000001,12.819098039011887,-2.8931000533299476,2.3979584553442064,0.6083674155106435,14.587545,-3.1781816,-0.2414221,0.24294126,6.5300674,-6.027997,1.6744527,0.34754524,0.073261134,0.1688901,0.91941416,-8.42017,8.556263,-0.0045491722,-2.2346346,1.0494696,-0.46171585,0
1.370000000000001,12.819098039011887,-2.8931000533299476,2.3979584553442064,0.6083674155106435,14.587545,-3.1781816,-0.2414221,0.24294126,6.446024,-5.942269,1.6745155,0.34937847,0.0635917,0.16053264,0.92093503,-8.388924,8.589137,0.017247148,-2.3373015,1.2597166,-0.40920657,0
1.380000000000001,12.819098039011887,-2.8931000533299476,2.3979584553442064,0.6083674155106435,14.587545,-3.1781816,-0.2414221,0.24294126,6.362278,-5.8562174,1.6748015,0.35078755,0.052896414,0.15203284,0.9225168,-8.360712,8.620962,0.04007383,-2.4239771,1.4371692,-0.35927394,0
1.390000000000001,12.819098039011887,-2.8931000533299476,2.3979584553442064,0.6083674155106435,14.587545,-3.1781816,-0.2414221,0.24294126,6.278798,-5.769853,1.6753204,0.3517982,0.041334756,0.143408,0.9241021,-8.335807,8.651803,0.063877285,-2.4971504,1.5869437,-0.3117915,0
1.400000000000001,12.984773673160435,-2.9266345566102516,2.306139077588811,0.9940130871597855,14.482922,-3.026487,-0.37979656,0.37816483,6.195549,-5.6831846,1.676082,0.35243216,0.029042225,0.13467318,0.9256416,-8.314439,8.681706,0.088581786,-2.5589232,1.7133583,-0.26663905,0
1.410000000000001,12.984773673160435,-2.9266345566102516,2.306139077588811,0.9940130871597855,14.482922,-3.026487,-0.37979656,0.37816483,6.112497,-5.59622,1.6771027,0.35266915,0.016169764,0.12581511,0.9271109,-8.296579,8.711082,0.115690485,-2.6163242,1.8057066,-0.20477848,0
1.420000000000001,12.984773673160435,-2.9266345566102516,2.306139077588811,0.9940130871597855,14.482922,-3.026487,-0.37979656,0.37816483,6.029604,-5.508966,1.678398,0.35248792,0.0028443018,0.11682526,0.92849183,-8.282666,8.739555,0.14350629,-2.6647785,1.883653,-0.14595342,0
1.430000000000001,12.984773673160435,-2.9266345566102516,2.306139077588811,0.9940130871597855,14.482922,-3.026487,-0.37979656,0.37816483,5.94683,-5.421432,1.6799747,0.3519051,-0.010859797,0.10772288,0.92975354,-8.272838,8.767125,0.17190643,-2.7056797,1.9494448,-0.09001494,0
1.440000000000001,12.984773673160435,-2.9266345566102516,2.306139077588811,0.9940130871597855,14.345484,-2.5412402,-0.92998797,0.37499857,5.8641324,-5.3336263,1.6818376,0.35093614,-0.024879007,0.09852507,0.9308699,-8.267205,8.793786,0.20075713,-2.7402036,2.004978,-0.036821373,0
1.450000000000001,12.984773673160435,-2.9266345566102516,2.306139077588811,0.9940130871597855,14.345484,-2.5412402,-0.92998797,0.37499857,5.7814703,-5.2455587,1.6839907,0.34959552,-0.039158948,0.089247145,0.9318184,-8.2658615,8.819522,0.22991559,-2.7693436,2.0518532,0.013761965,0
1.460000000000001,12.984773673160435,-2.9266345566102516,2.306139077588811,0.9940130871597855,14.345484,-2.5412402,-0.92998797,0.37499857,5.6988,-5.157239,1.6864364,0.34789675,-0.053652987,0.079902865,0.93258023,-8.268881,8.844318,0.25923172,-2.7939389,2.0914214,0.06186316,0
1.470000000000001,12.984773673160435,-2.9266345566102516,2.306139077588811,0.9940130871597855,14.345484,-2.5412402,-0.92998797,0.37499857,5.616077,-5.068676,1.6891754,0.34585273,-0.068321005,0.07050465,0.933139,-8.276321,8.868153,0.2885498,-2.8146975,2.1248217,0.10760401,0
1.480000000000001,12.553191753714838,-2.7287273952458047,1.5863210927226628,1.165923345539398,13.6732235,-2.2105343,-1.8793998,0.30708903,5.533258,-4.9798794,1.6922069,0.3434756,-0.0831284,0.06106377,0.93348086,-8.288224,8.891,0.31770977,-2.832217,2.1530163,0.15110035,0
1.490000000000001,12.553191753714838,-2.7287273952458047,1.5863210927226628,1.165923345539398,13.6732235,-2.2105343,-1.8793998,0.30708903,5.4502997,-4.890863,1.6955073,0.34078184,-0.09774815,0.05156775,0.9336246,-8.304056,8.912101,0.34233236,-2.8161361,2.0645506,0.200898,0
1.500000000000001,12.553191753714838,-2.7287273952458047,1.5863210927226628,1.165923345539398,13.6732235,-2.2105343,-1.8793998,0.30708903,5.367162,-4.8016415,1.6990519,0.33778536,-0.111920364,0.04201001,0.93360126,-8.324129,8.93214,0.36651188,-2.8025568,1.989886,0.24825208,0
1.5100000000000011,12.553191753714838,-2.7287273952458047,1.5863210927226628,1.165923345539398,13.6732235,-2.2105343,-1.8793998,0.30708903,5.2838035,-4.7122245,1.7028354,0.33449444,-0.12570791,0.032407887,0.9334141,-8.348332,8.951038,0.39012396,-2.7910893,1.9268702,0.29328248,0
1.5200000000000011,11.985162118485425,-2.332530315159649,0.45335500016233077,1.1792002598794187,12.736496,-2.1526146,-3.3310447,0.13308787,5.2001815,-4.6226244,1.7068518,0.33091772,-0.1391637,0.022776205,0.9330645,-8.376567,8.968724,0.41304836,-2.7814062,1.873686,0.3361032,0
1.5300000000000011,11.985162118485425,-2.332530315159649,0.45335500016233077,1.1792002598794187,12.736496,-2.1526146,-3.3310447,0.13308787,5.116265,-4.532858,1.7110664,0.32709548,-0.15185754,0.013126508,0.93261826,-8.407258,8.984383,0.42973545,-2.7114005,1.6521283,0.37747422,0
1.5400000000000011,11.985162118485425,-2.332530315159649,0.45335500016233077,1.1792002598794187,12.736496,-2.1526146,-3.3310447,0.13308787,5.032024,-4.442941,1.7154437,0.3230637,-0.16345407,0.0034708933,0.932149,-8.441446,8.998703,0.44560632,-2.6523077,1.4651268,0.41681513,0
1.5500000000000012,11.985162118485425,-2.332530315159649,0.45335500016233077,1.1792002598794187,12.736496,-2.1526146,-3.3310447,0.13308787,4.9474254,-4.3528886,1.7199756,0.31882492,-0.174122,-0.0061788317,0.9316625,-8.47888,9.011579,0.4606271,-2.6024277,1.3072914,0.45422554,0
1.5600000000000012,10.972647794869413,-1.6739378487372298,-0.693055511574051,1.0190884958717972,11.038355,-1.3722836,-3.3660023,0.3115934,4.862436,-4.262715,1.7246531,0.31438243,-0.18400364,-0.01581328,0.9311592,-8.5193405,9.022916,0.47476727,-2.5603254,1.1740733,0.48980024,0
1.5700000000000012,10.972647794869413,-1.6739378487372298,-0.693055511574051,1.0190884958717972,11.038355,-1.3722836,-3.3660023,0.3115934,4.7770467,-4.1724405,1.7294207,0.30980042,-0.19270973,-0.025326781,0.93072355,-8.558957,9.03181,0.47860184,-2.4220161,0.8828987,0.5157726,0
1.5800000000000012,10.972647794869413,-1.6739378487372298,-0.693055511574051,1.0190884958717972,11.038355,-1.3722836,-3.3660023,0.3115934,4.691249,-4.082084,1.7342227,0.30513555,-0.19994186,-0.03463452,0.93043923,-8.600837,9.039139,0.48165354,-2.3052819,0.63713145,0.5404705,0
1.5900000000000012,10.972647794869413,-1.6739378487372298,-0.693055511574051,1.0190884958717972,11.038355,-1.3722836,-3.3660023,0.3115934,4.605023,-3.9916632,1.7390513,0.30038095,-0.20593223,-0.043758497,0.93029547,-8.64467,9.044832,0.4839807,-2.206758,0.42969045,0.5639564,0
1.6000000000000012,10.268605956453559,-0.9002594932070875,-1.4604335673002857,0.7897057520545313,11.992939,-1.4125323,-4.9467115,0.095998414,4.51835,-3.9011936,1.7439,0.29553106,-0.21087602,-0.052718185,0.93027675,-8.690192,9.04883,0.48563612,-2.1236048,0.2545983,0.5862898,0
1.6100000000000012,10.268605956453559,-0.9002594932070875,-1.4604335673002857,0.7897057520545313,11.992939,-1.4125323,-4.9467115,0.095998414,4.4312296,-3.8106935,1.7487301,0.2906575,-0.21455956,-0.06133898,0.93044144,-8.734146,9.050941,0.4803137,-1.9327227,-0.012799881,0.5962715,0
1.6200000000000012,10.268605956453559,-0.9002594932070875,-1.4604335673002857,0.7897057520545313,11.992939,-1.4125323,-4.9467115,0.095998414,4.343664,-3.7201805,1.7535045,0.2858218,-0.21682423,-0.06948381,0.93084174,-8.779155,9.051413,0.47450763,-1.7716216,-0.2385061,0.6057634,0
1.6300000000000012,10.268605956453559,-0.9002594932070875,-1.4604335673002857,0.7897057520545313,11.992939,-1.4125323,-4.9467115,0.095998414,4.255644,-3.629671,1.7582189,0.28100616,-0.21789439,-0.07721954,0.9314483,-8.824931,9.050241,0.4683172,-1.6356558,-0.4290213,0.6147894,0
1.6400000000000012,10.268605956453559,-0.9002594932070875,-1.4604335673002857,0.7897057520545313,11.901663,-0.7680907,-5.695192,-0.33802986,4.1671634,-3.5391815,1.76287,0.27619544,-0.21795817,-0.08460329,0.9322306,-8.871231,9.04743,0.4618283,-1.5209033,-0.58983225,0.6233726,0
1.6500000000000012,10.268605956453559,-0.9002594932070875,-1.4604335673002857,0.7897057520545313,11.901663,-0.7680907,-5.695192,-0.33802986,4.0782185,-3.448728,1.7674549,0.27137715,-0.2171734,-0.091683805,0.9331589,-8.917849,9.042984,0.45511353,-1.4240552,-0.7255702,0.6315347,0
1.6600000000000013,10.268605956453559,-0.9002594932070875,-1.4604335673002857,0.7897057520545313,11.901663,-0.7680907,-5.695192,-0.33802986,3.9888065,-3.3583272,1.7719718,0.2665413,-0.21567266,-0.098502755,0.9342053,-8.964605,9.036907,0.44823343,-1.3423182,-0.84014493,0.6392962,0
1.6700000000000013,10.268605956453559,-0.9002594932070875,-1.4604335673002857,0.7897057520545313,11.901663,-0.7680907,-5.695192,-0.33802986,3.8989265,-3.2679954,1.7764193,0.2616799,-0.21356729,-0.10509569,0.9353442,-9.011351,9.029206,0.4412372,-1.2733347,-0.9368561,0.64667684,0
1.6800000000000013,9.808290867411428,-0.2515713100219407,-1.9901354932662942,0.5114663248479333,12.191294,-1.070919,-5.068261,-0.42349148,3.80858,-3.1777487,1.7807964,0.2567868,-0.21095096,-0.11149298,0.9365526,-9.05795,9.019892,0.4341642,-1.2151148,-1.0184886,0.6536953,0
1.6900000000000013,9.808290867411428,-0.2515713100219407,-1.9901354932662942,0.5114663248479333,12.191294,-1.070919,-5.068261,-0.42349148,3.7177787,-3.0876005,1.7850821,0.25192028,-0.20763387,-0.11753855,0.9378754,-9.102201,9.009466,0.42297322,-1.0647914,-1.1699476,0.646716,0
1.7000000000000013,9.808290867411428,-0.2515713100219407,-1.9901354932662942,0.5114663248479333,12.191294,-1.070919,-5.068261,-0.42349148,3.6265373,-2.9975643,1.7892559,0.24712911,-0.20346989,-0.12310974,0.9393468,-9.146018,8.997551,0.41181123,-0.937922,-1.297798,0.64007926,0
1.7100000000000013,9.808290867411428,-0.2515713100219407,-1.9901354932662942,0.5114663248479333,12.191294,-1.070919,-5.068261,-0.42349148,3.5348604,-2.9076548,1.7933185,0.24239643,-0.19859006,-0.12827563,0.94093174,-9.189225,8.984196,0.40074462,-0.8308467,-1.4057198,0.6337682,0
1.7200000000000013,9.665086931490702,0.3742307972800863,-2.3340625718709083,0.1734451216582684,12.369873,-0.7701557,-5.2019215,-0.6715522,3.4427552,-2.8178856,1.7972713,0.23770836,-0.19310452,-0.1330948,0.9425987,-9.231674,8.969445,0.3898257,-0.74047714,-1.4968188,0.6277668,0
1.7300000000000013,9.665086931490702,0.3742307972800863,-2.3340625718709083,0.1734451216582684,12.369873,-0.7701557,-5.2019215,-0.6715522,3.350233,-2.7282693,1.8011093,0.23312235,-0.18691139,-0.13742115,0.94437003,-9.272619,8.953578,0.3778242,-0.5666094,-1.627307,0.6054731,0
1.7400000000000013,9.665086931490702,0.3742307972800863,-2.3340625718709083,0.1734451216582684,12.369873,-0.7701557,-5.2019215,-0.6715522,3.2573066,-2.6388183,1.8048286,0.2286867,-0.17993434,-0.14114116,0.9462592,-9.31251,8.936459,0.36607742,-0.4198663,-1.7374616,0.58427334,0
1.7500000000000013,9.665086931490702,0.3742307972800863,-2.3340625718709083,0.1734451216582684,12.369873,-0.7701557,-5.2019215,-0.6715522,3.1639872,-2.5495443,1.8084321,0.22437878,-0.17229289,-0.14434457,0.94822747,-9.35118,8.918169,0.3546447,-0.29601574,-1.8304502,0.56411386,0
1.7600000000000013,9.87897088156802,0.9062029668422993,-2.269800916328036,-0.22328502849031073,13.526068,0.28238687,-4.1421394,-0.8531137,3.0702877,-2.4604588,1.8119228,0.22017956,-0.1640876,-0.14710724,0.9502405,-9.388491,8.898785,0.34356946,-0.19148612,-1.9089475,0.54494363,0
1.7700000000000014,9.87897088156802,0.9062029668422993,-2.269800916328036,-0.22328502849031073,13.526068,0.28238687,-4.1421394,-0.8531137,2.9762187,-2.3715742,1.8153144,0.21615806,-0.15537398,-0.14929329,0.9522854,-9.425109,8.877928,0.33481857,-0.020330332,-1.9651608,0.50724643,0
1.7800000000000014,9.87897088156802,0.9062029668422993,-2.269800916328036,-0.22328502849031073,13.526068,0.28238687,-4.1421394,-0.8531137,2.8817914,-2.2829032,1.8186207,0.21237326,-0.14620039,-0.15079878,0.9543501,-9.460084,8.856148,0.32650402,0.124130756,-2.0126243,0.47139904,0
1.7900000000000014,9.87897088156802,0.9062029668422993,-2.269800916328036,-0.22328502849031073,13.526068,0.28238687,-4.1421394,-0.8531137,2.7870228,-2.194454,1.821846,0.20879687,-0.13663521,-0.15172596,0.9564075,-9.493305,8.833564,0.318656,0.24606124,-2.0526989,0.4373107,0
1.8000000000000014,10.162854415812872,1.3315219342017195,-1.6231683135171768,-0.5431036176164329,11.024469,0.44603524,-4.537651,-0.72473496,2.6919315,-2.1062343,1.8249954,0.20540498,-0.1267361,-0.15216108,0.9584337,-9.524676,8.810284,0.3112916,0.34897557,-2.0865338,0.4048951,0
1.8100000000000014,10.162854415812872,1.3315219342017195,-1.6231683135171768,-0.5431036176164329,11.024469,0.44603524,-4.537651,-0.72473496,2.5965319,-2.0182538,1.8280867,0.20227586,-0.11675945,-0.15196602,0.9603955,-9.554967,8.785726,0.30703893,0.5021228,-2.014247,0.35837656,0
1.8200000000000014,10.162854415812872,1.3315219342017195,-1.6231683135171768,-0.5431036176164329,11.024469,0.44603524,-4.537651,-0.72473496,2.500839,-1.9305212,1.831138,0.19947506,-0.106912054,-0.15103678,0.96227276,-9.583255,8.760721,0.30329216,0.6313964,-1.9532462,0.31414068,0
1.8300000000000014,10.162854415812872,1.3315219342017195,-1.6231683135171768,-0.5431036176164329,11.024469,0.44603524,-4.537651,-0.72473496,2.4048736,-1.8430402,1.8341544,0.19696644,-0.09717184,-0.14948614,0.9640628,-9.609536,8.735431,0.30004838,0.7405176,-1.9017687,0.27207544,0
1.8400000000000014,10.162854415812872,1.3315219342017195,-1.6231683135171768,-0.5431036176164329,10.844292,0.6557857,-4.180125,-0.9155148,2.3086553,-1.755813,1.8371408,0.19471899,-0.08751999,-0.14740905,0.96576226,-9.633808,8.709993,0.2972996,0.8326281,-1.8583266,0.23207438,0
1.8500000000000014,10.162854415812872,1.3315219342017195,-1.6231683135171768,-0.5431036176164329,10.844292,0.6557857,-4.180125,-0.9155148,2.2122042,-1.6688405,1.8401021,0.19270611,-0.077940606,-0.1448855,0.9673672,-9.656067,8.684527,0.29503298,0.9103794,-1.8216645,0.19403619,0
1.8600000000000014,10.162854415812872,1.3315219342017195,-1.6231683135171768,-0.5431036176164329,10.844292,0.6557857,-4.180125,-0.9155148,2.1155407,-1.5821222,1.8430431,0.1909049,-0.068420365,-0.14198276,0.96887374,-9.6763115,8.659134,0.29323137,0.97601026,-1.7907237,0.15786453,0
1.8700000000000014,10.162854415812872,1.3315219342017195,-1.6231683135171768,-0.5431036176164329,10.844292,0.6557857,-4.180125,-0.9155148,2.018685,-1.4956572,1.8459684,0.18929558,-0.058948148,-0.1387576,0.9702783,-9.694537,8.6339,0.2918738,1.0314099,-1.764611,0.1234678,0
1.8800000000000014,10.268826021444632,1.4243077150140258,-1.1104348722047386,-0.7805045070161223,10.701786,0.1999316,-4.3031216,-0.7885267,1.9216571,-1.4094434,1.8488821,0.1878609,-0.049514756,-0.1352578,0.97157776,-9.710744,8.608902,0.29093584,1.0781734,-1.7425723,0.09075895,0
1.8900000000000015,10.268826021444632,1.4243077150140258,-1.1104348722047386,-0.7805045070161223,10.701786,0.1999316,-4.3031216,-0.7885267,1.8244764,-1.3234793,1.8517935,0.18664382,-0.04030123,-0.13145065,0.97276,-9.725084,8.583952,0.2914074,1.1321009,-1.6440191,0.048005804,0
1.9000000000000015,10.268826021444632,1.4243077150140258,-1.1104348722047386,-0.7805045070161223,10.701786,0.1999316,-4.3031216,-0.7885267,1.7271624,-1.2377628,1.8547114,0.1856806,-0.031450905,-0.12731287,0.9738205,-9.737442,8.559399,0.29224688,1.1776263,-1.5608366,0.007350551,0
1.9100000000000015,10.268826021444632,1.4243077150140258,-1.1104348722047386,-0.7805045070161223,10.701786,0.1999316,-4.3031216,-0.7885267,1.6297344,-1.1522896,1.8576396,0.18494806,-0.022906015,-0.12289417,0.9747656,-9.747874,8.53533,0.2934262,1.216058,-1.4906272,-0.031309724,0
1.9200000000000015,10.015694260150884,1.2285543303612054,-0.7602020970390985,-0.9034076934269235,10.614599,0.014849403,-3.9211278,-0.8933941,1.5322114,-1.0670543,1.860581,0.18442596,-0.0146179125,-0.118236355,0.9755998,-9.756433,8.511816,0.2949175,1.2485011,-1.4313669,-0.06807294,0
1.9300000000000015,10.015694260150884,1.2285543303612054,-0.7602020970390985,-0.9034076934269235,10.614599,0.014849403,-3.9211278,-0.8933941,1.434613,-0.9820481,1.8635266,0.18412702,-0.006695127,-0.11342553,0.9763137,-9.7630005,8.489483,0.29423016,1.2453595,-1.3267323,-0.109063074,0
1.9400000000000015,10.015694260150884,1.2285543303612054,-0.7602020970390985,-0.9034076934269235,10.614599,0.014849403,-3.9211278,-0.8933941,1.3369573,-0.8972622,1.8664664,0.18406245,0.0007783582,-0.108532086,0.97690463,-9.767871,8.467795,0.29378816,1.2427135,-1.2384136,-0.14804178,0
1.9500000000000015,10.015694260150884,1.2285543303612054,-0.7602020970390985,-0.9034076934269235,10.614599,0.014849403,-3.9211278,-0.8933941,1.2392613,-0.8126898,1.869403,0.18421341,0.007873328,-0.10356719,0.9773836,-9.771127,8.446789,0.293562,1.2404842,-1.1638664,-0.18510783,0
1.9600000000000015,9.59708716138728,0.8996830020873526,-0.4333935361669059,-0.924242100804827,11.700457,0.20311354,-3.4558485,-1.1395363,1.1415404,-0.72832394,1.8723384,0.18456317,0.014649424,-0.098540135,0.9777592,-9.772838,8.426492,0.29352468,1.2386061,-1.1009434,-0.22035502,0
1.9700000000000015,9.59708716138728,0.8996830020873526,-0.4333935361669059,-0.924242100804827,11.700457,0.20311354,-3.4558485,-1.1395363,1.0438099,-0.6441533,1.8752536,0.18511437,0.021004906,-0.09356327,0.97802794,-9.77306,8.4077425,0.28954515,1.1857437,-0.9968585,-0.25489497,0
1.9800000000000015,9.59708716138728,0.8996830020873526,-0.4333935361669059,-0.924242100804827,11.700457,0.20311354,-3.4558485,-1.1395363,0.94608384,-0.5601667,1.8781296,0.18586878,0.02686161,-0.08872628,0.9781923,-9.771962,8.389693,0.28569606,1.1411276,-0.9090034,-0.28774,0
1.9900000000000015,9.59708716138728,0.8996830020873526,-0.4333935361669059,-0.924242100804827,11.700457,0.20311354,-3.4558485,-1.1395363,0.8483749,-0.4763571,1.8809679,0.18681096,0.032297608,-0.08400572,0.9782653,-9.769638,8.3723345,0.2819544,1.1034714,-0.8348478,-0.31897336,0
2.0000000000000013,,,,,11.430059,-0.20040967,-3.7070642,-1.289104,0.75069505,-0.39271766,1.883769,0.18792693,0.03737874,-0.07938172,0.9782568,-9.766167,8.355658,0.2783007,1.0716888,-0.7722555,-0.3486741,0
2.010000000000001,,,,,11.430059,-0.20040967,-3.7070642,-1.289104,0.65305424,-0.30923787,1.8865122,0.18921645,0.041926187,-0.074923284,0.9781755,-9.761837,8.340398,0.2703296,0.9948236,-0.63600296,-0.37303615,0
2.020000000000001,,,,,11.430059,-0.20040967,-3.7070642,-1.289104,0.55546135,-0.22590756,1.8891758,0.19067669,0.045800988,-0.070684254,0.9780337,-9.756608,8.325764,0.26241466,0.9299447,-0.5209987,-0.3962027,0
2.0300000000000007,,,,,11.430059,-0.20040967,-3.7070642,-1.289104,0.4579247,-0.14272052,1.8917606,0.19229232,0.049108025,-0.06662879,0.9778416,-9.750601,8.311738,0.25454798,0.87518257,-0.42392954,-0.41823253,0
2.0400000000000005,,,,,11.430059,-0.20040967,-3.7070642,-1.289104,0.3604516,-0.059670754,1.8942671,0.19404972,0.051935814,-0.06272666,0.9776064,-9.743918,8.2983055,0.246724,0.82895917,-0.3419986,-0.43918136,0
2.0500000000000003,,,,,11.272211,-0.5299642,-3.0515647,-1.1069838,0.26304838,0.023247587,1.8966954,0.19593683,0.054359037,-0.058952402,0.97733307,-9.736644,8.285453,0.23893884,0.78994304,-0.27284503,-0.45910218,1
2.06,,,,,11.272211,-0.5299642,-3.0515647,-1.1069838,0.16572958,0.106025815,1.8991507,0.19792603,0.05758824,-0.055964734,0.97692287,-9.7269945,8.270279,0.25211707,0.5839608,-0.70613563,-0.49089393,1
2.07,,,,,11.272211,-0.5299642,-3.0515647,-1.1069838,0.06851173,0.18865436,1.9017377,0.20000389,0.0625841,-0.05428654,0.97628695,-9.716404,8.255457,0.265257,0.4101073,-1.0718566,-0.5211257,1
2.0799999999999996,,,,,11.272211,-0.5299642,-3.0515647,-1.1069838,-0.028594201,0.27113494,1.9044555,0.20217615,0.06906792,-0.05371402,0.97543365,-9.704567,8.240639,0.27827132,0.26337343,-1.3805463,-0.5498739,1
2.0899999999999994,,,,,11.399302,-1.5395151,-4.0439024,-0.6056467,-0.12557442,0.35346606,1.9073025,0.20444377,0.07680394,-0.05407409,0.97436213,-9.691228,8.225525,0.2910755,0.13953061,-1.6410991,-0.57721144,1
2.099999999999999,,,,,11.399302,-1.5395151,-4.0439024,-0.6056467,-0.222412,0.4356426,1.9102823,0.2067542,0.085892834,-0.055699617,0.97302336,-9.675999,8.209663,0.30482608,-0.12245849,-2.0157166,-0.5786068,1
2.109999999999999,,,,,11.399302,-1.5395151,-4.0439024,-0.6056467,-0.3190876,0.51765597,1.9133976,0.2090556,0.096400216,-0.0588471,0.9713607,-9.6587925,8.19283,0.3181465,-0.34356868,-2.3319273,-0.5799337,1
2.1199999999999988,,,,,11.399302,-1.5395151,-4.0439024,-0.6056467,-0.41558033,0.5994945,1.9166434,0.21134472,0.10809407,-0.063277155,0.9693538,-9.6394,8.17464,0.33089262,-0.5301787,-2.598838,-0.5811955,1
2.1299999999999986,,,,,11.046312,-1.8300254,-3.806583,-0.27445823,-0.5118675,0.68114305,1.9200132,0.2136158,0.120777145,-0.06878629,0.9669806,-9.617656,8.154773,0.34291136,-0.6876717,-2.824135,-0.5823953,1
2.1399999999999983,,,,,11.046312,-1.8300254,-3.806583,-0.27445823,-0.6079287,0.76258665,1.9234817,0.21584357,0.13416201,-0.075298436,0.9642324,-9.594189,8.133632,0.35065848,-0.8658499,-2.9772882,-0.5672847,1
2.149999999999998,,,,,11.046312,-1.8300254,-3.806583,-0.27445823,-0.7037429,0.8438084,1.9270228,0.21800344,0.14801046,-0.082744025,0.9611049,-9.56828,8.110361,0.3573841,-1.0162312,-3.1065702,-0.55291563,1
2.159999999999998,,,,,11.046312,-1.8300254,-3.806583,-0.27445823,-0.7992858,0.924786,1.9306253,0.22008912,0.16223326,-0.09097166,0.95758396,-9.539916,8.084762,0.36292404,-1.1431526,-3.2157013,-0.5392516,1
2.1699999999999977,,,,,9.705215,-2.5454364,-3.403041,0.05654312,-0.8945328,1.0054951,1.9342765,0.22209428,0.17675388,-0.099852465,0.9536579,-9.509101,8.05667,0.3671094,-1.2502745,-3.307822,-0.5262581,1
2.1799999999999975,,,,,9.705215,-2.5454364,-3.403041,0.05654312,-0.9894795,1.0859287,1.9379009,0.22404248,0.19128473,-0.10952057,0.9493272,-9.479899,8.02968,0.3575364,-1.4521973,-3.322629,-0.49765986,1
2.1899999999999973,,,,,9.705215,-2.5454364,-3.403041,0.05654312,-1.0841238,1.1660804,1.9414223,0.22595307,0.2055929,-0.1200757,0.9445953,-9.448676,8.00024,0.34647942,-1.6226323,-3.3351426,-0.47046494,1
2.199999999999997,,,,,9.705215,-2.5454364,-3.403041,0.05654312,-1.1784464,1.2459247,1.944825,0.22781341,0.2196906,-0.13136972,0.93945765,-9.415555,7.9682255,0.33379644,-1.7664899,-3.3457167,-0.44460452,1
2.209999999999997,,,,,11.008726,-2.3859231,-2.3609042,0.75052226,-1.2724289,1.3254356,1.9480922,0.22961138,0.23358707,-0.14327654,0.93391067,-9.380654,7.9335427,0.31934506,-1.8879149,-3.3546515,-0.42001307,1
2.2199999999999966,,,,,11.008726,-2.3859231,-2.3609042,0.75052226,-1.3660295,1.4045613,1.9512606,0.23130305,0.24690378,-0.15555426,0.928085,-9.339193,7.8911114,0.3139724,-1.9654167,-3.1997294,-0.36257455,1
