t,px,py,pz,qx,qy,qz,qw,vx,vy,vz,wx,wy,wz,throttle_mpc,roll_mpc,pitch_mpc,yaw_mpc,throttle_nw,roll_nw,pitch_nw,yaw_nw,network_used
-2.0,18.355885,-9.814914,1.9594383000000002,0.48129898,-0.20184672,-0.84557986,0.11226715,-11.745883000000001,-6.44068,0.09428011,1.8713328000000002,-0.18862069,-0.27076226,11.391677725042609,-5.999998790157912,-6.0,5.999999964131853,11.632008,-1.7407317999999998,-4.991699,-1.4469068999999999,0
-1.99,18.237476,-9.879059,1.9603918000000002,0.48199835,-0.20906048,-0.8440913000000001,0.107150644,-11.934905,-6.3879633,0.09577039,1.7097049,-0.028770762999999998,-0.061903127,11.391677725042609,-5.999998790157912,-6.0,5.999999964131853,12.793817500000001,-4.555124299999999,-5.603036,-0.07544889999999999,0
-1.98,18.117199,-9.942665,1.9613407999999999,0.4829771,-0.21604063,-0.8422386000000001,0.10341063,-12.119876,-6.332978,0.09357489,1.5645022,0.09736113,0.14095646,11.391677725042609,-5.999998790157912,-6.0,5.999999964131853,12.793817500000001,-4.555124299999999,-5.603036,-0.07544889999999999,0
-1.97,17.995085,-10.005711,1.9622532,0.4840632,-0.22281325,-0.8401441999999999,0.100969456,-12.302425,-6.2757883,0.08844728,1.4137266000000002,0.17558122,0.33646405,11.391677725042609,-5.999998790157912,-6.0,5.999999964131853,12.793817500000001,-4.555124299999999,-5.603036,-0.07544889999999999,0
-1.96,17.871157,-10.068174,1.9630997,0.48507005,-0.22936334,-0.8379418,0.09976491,-12.482565,-6.2168529999999995,0.0803892,1.2566547,0.21175228,0.52504134,11.391677725042609,-5.999998790157912,-6.0,5.999999964131853,8.184459,-2.982239,-5.6048794,1.2223018,0
-1.95,17.745441,-10.130042999999999,1.9638511000000003,0.4858349,-0.23567186,-0.8357482,0.09974044,-12.660246,-6.156601,0.06947057,1.0933223,0.21147117,0.7071143,11.391677725042609,-5.999998790157912,-6.0,5.999999964131853,8.184459,-2.982239,-5.6048794,1.2223018,0
-1.94,17.617962,-10.191303,1.9644796999999998,0.4862161,-0.24171779999999998,-0.8336646999999999,0.1008442,-12.835407,-6.0954237000000004,0.05583694,0.92393464,0.1796421,0.883072,11.391677725042609,-5.999998790157912,-6.0,5.999999964131853,8.184459,-2.982239,-5.6048794,1.2223018,0
-1.93,17.488743,-10.251949,1.9649593,0.48609018,-0.24747929999999996,-0.83177847,0.10302844,-13.007977499999999,-6.033682,0.039696816,0.7488216999999999,0.12056327,1.0532703,11.391677725042609,-5.999998790157912,-6.0,5.999999964131853,8.184459,-2.982239,-5.6048794,1.2223018,0
-1.92,17.357810999999998,-10.311976,1.9652659,0.48534918,-0.25293452,-0.83016354,0.10624881,-13.177876999999999,-5.9717007,0.021309922000000002,0.56839985,0.038003743,1.218035,12.585993512210102,-5.9999996040435,-6.0,5.999999999134929,12.835684,-3.2149197999999997,-7.4424677,2.5424802000000004,0
-1.91,17.225157,-10.371369,1.9653965,0.48382005,-0.25800675,-0.8289409,0.11048841,-13.352626999999998,-5.906958,0.0045253728,0.35091809999999996,-0.09701441,1.3805455,12.585993512210102,-5.9999996040435,-6.0,5.999999999134929,12.835684,-3.2149197999999997,-7.4424677,2.5424802000000004,0
-1.9,17.090769,-10.430117,1.9653506,0.48134702,-0.262626,-0.82821447,0.115730464,-13.524267000000002,-5.842610400000001,-0.013927538,0.13129443,-0.24712655,1.5383084999999999,12.585993512210102,-5.9999996040435,-6.0,5.999999999134929,12.835684,-3.2149197999999997,-7.4424677,2.5424802000000004,0
-1.89,16.954681,-10.488223,1.9651138,0.47786385,-0.2667806,-0.82801354,0.12193433,-13.692682999999999,-5.778917,-0.033599928,-0.09013721,-0.40997756,1.691557,12.585993512210102,-5.9999996040435,-6.0,5.999999999134929,12.835684,-3.2149197999999997,-7.4424677,2.5424802000000004,0
-1.8800000000000001,16.816925,-10.545697,1.9646759999999999,0.47331017,-0.27045864,-0.8283556999999999,0.12906061,-13.857754000000002,-5.7161007,-0.05403898,-0.3130216,-0.58350575,1.8405061999999999,12.585993512210102,-5.9999996040435,-6.0,5.999999999134929,12.835684,-3.2149197999999997,-7.4424677,2.5424802000000004,0
-1.87,16.677536,-10.602549,1.9640319,0.4676305,-0.27364767,-0.82924694,0.13707073,-14.019347,-5.6543503,-0.07479530599999999,-0.5369944000000001,-0.7659059,1.9853546999999998,16.888869036562635,6.0,-6.0,-4.624525621913621,12.541521000000001,-2.1483767000000005,-7.6845289999999995,3.7429886,0
-1.8599999999999999,16.53625,-10.658673,1.9633269,0.46175018,-0.27648953,-0.83026236,0.14493105,-14.237245000000001,-5.570837,-0.06617667,-0.4241346,-0.67558885,1.7426856,16.888869036562635,6.0,-6.0,-4.624525621913621,12.541521000000001,-2.1483767000000005,-7.6845289999999995,3.7429886,0
-1.85,16.392803,-10.713969,1.9627098000000003,0.45652846,-0.27919552,-0.8310511999999999,0.15161096,-14.451188,-5.4885235,-0.057195522,-0.2985572,-0.6296231,1.5085864,16.888869036562635,6.0,-6.0,-4.624525621913621,12.541521000000001,-2.1483767000000005,-7.6845289999999995,3.7429886,0
-1.84,16.247238,-10.768447,1.9621833999999998,0.45179835,-0.28189352,-0.8317142,0.15705454,-14.661439999999999,-5.407128,-0.04809321,-0.15744269,-0.62592065,1.2828411,20.999999572494627,6.0,-6.0,-4.914720873118768,13.117602999999999,0.059830405,-6.7070007,1.9300834999999998,0
-1.83,16.099445000000003,-10.822058,1.9618218999999997,0.44730607,-0.2848573,-0.83237046,0.16103828,-14.8967285,-5.3151193,-0.024262607000000002,0.06849233,-0.72953594,1.0443982,20.999999572494627,6.0,-6.0,-4.914720873118768,13.117602999999999,0.059830405,-6.7070007,1.9300834999999998,0
-1.82,15.949322,-10.87475,1.9616957999999998,0.44282170000000004,-0.28834190000000004,-0.83311695,0.1633532,-15.127281,-5.2234178,-0.0010996121,0.3045865,-0.86246157,0.8135975999999999,20.999999572494627,6.0,-6.0,-4.914720873118768,13.117602999999999,0.059830405,-6.7070007,1.9300834999999998,0
-1.81,15.796918,-10.926525,1.9617968000000001,0.43823690000000004,-0.29243436,-0.8339926999999999,0.16397232,-15.352892,-5.131385,0.021143507000000002,0.5497685999999999,-1.0206546,0.59001714,20.999999572494627,6.0,-6.0,-4.914720873118768,13.117602999999999,0.059830405,-6.7070007,1.9300834999999998,0
-1.8,15.6422825,-10.977375,1.9621147,0.43345332,-0.29721007,-0.8350193000000001,0.16287255,-15.573336,-5.0383629999999995,0.04224558,0.80298096,-1.2005451999999999,0.37326932,21.0,6.0,-6.0,-5.00860549442644,13.767477,2.8895724,-7.4610825,0.90487105,0
-1.79,15.485464000000002,-11.027286,1.9626398999999997,0.42840597,-0.30269557,-0.8361983000000001,0.16005145,-15.78939,-4.943245,0.06257353,1.0500834,-1.3858781999999998,0.15956223,21.0,6.0,-6.0,-5.00860549442644,13.767477,2.8895724,-7.4610825,0.90487105,0
-1.7799999999999998,15.326514000000001,-11.076233,1.9633610000000001,0.423033,-0.30891138,-0.8375171,0.15550639,-15.999791,-4.8458285000000005,0.08141113,1.3047296999999998,-1.5884979,-0.047781076,21.0,6.0,-6.0,-5.00860549442644,13.767477,2.8895724,-7.4610825,0.90487105,0
-1.77,15.16549,-11.124191999999999,1.9642624,0.41725087,-0.3159055,-0.83895135,0.14921902,-16.204237,-4.745518,0.09859214,1.565827,-1.8057956000000002,-0.24908075,21.0,6.0,-6.0,-5.00860549442644,13.767477,2.8895724,-7.4610825,0.90487105,0
-1.7599999999999998,15.002451999999998,-11.171132,1.9653267,0.41098009999999996,-0.32371342,-0.84046125,0.14117394,-16.402379999999997,-4.6417456,0.11396205,1.8323490000000002,-2.0354650000000003,-0.44463196,21.0,6.0,-6.0,-5.00860549442644,13.931060999999998,3.4571989999999997,-8.233742999999999,0.45476946,0
-1.75,14.837465,-11.217013,1.9665348999999999,0.40414414,-0.33235785,-0.8419921999999999,0.13135871,-16.59384,-4.533981,0.12737472,2.10334,-2.2754676,-0.63470715,21.0,6.0,-6.0,-5.00860549442644,13.931060999999998,3.4571989999999997,-8.233742999999999,0.45476946,0
-1.7399999999999998,14.670599,-11.261796,1.9678668999999998,0.39666843,-0.34184899999999996,-0.8434751,0.119763985,-16.778187,-4.4217424,0.13868977,2.377913,-2.5240017999999997,-0.81955826,21.0,6.0,-6.0,-5.00860549442644,13.931060999999998,3.4571989999999997,-8.233742999999999,0.45476946,0
-1.73,14.501926999999998,-11.305432000000001,1.9693009999999997,0.38848007,-0.35218436,-0.84482664,0.10638395,-16.954947,-4.3046126,0.14777024,2.65525,-2.7794757000000003,-0.9994184000000002,21.0,6.0,-6.0,-5.00860549442644,13.931060999999998,3.4571989999999997,-8.233742999999999,0.45476946,0
-1.72,14.331528,-11.347871000000001,1.9708142,0.37950742,-0.36334884,-0.84594995,0.09121683,-17.123596,-4.1822443,0.1544809,2.9345996,-3.0404835,-1.1745038,21.0,6.0,-6.0,-4.931338030649084,14.963807999999998,6.168467,-10.016016,-2.2641447,0
-1.71,14.159488,-11.389061,1.9723798,0.36965640000000005,-0.37534276,-0.84673417,0.07425117,-17.282845000000002,-4.054954,0.15822431,3.2260568,-3.3165748,-1.3421876,21.0,6.0,-6.0,-4.931338030649084,14.963807999999998,6.168467,-10.016016,-2.2641447,0
-1.7,13.985903,-11.428951,1.9739697,0.35883635,-0.38814786,-0.8470534,0.05548349,-17.432785,-3.9220406999999997,0.15931016,3.5169528,-3.5946078000000004,-1.5056610000000001,21.0,6.0,-6.0,-4.931338030649084,14.963807999999998,6.168467,-10.016016,-2.2641447,0
-1.69,13.810867000000002,-11.4674835,1.9755563999999999,0.34698266,-0.4017024,-0.8467691999999999,0.034932498,-17.572756,-3.7834284,0.15760233,3.8068442000000005,-3.8737432999999997,-1.6650828000000002,21.0,6.0,-6.0,-4.931338030649084,14.963807999999998,6.168467,-10.016016,-2.2641447,0
-1.68,13.634484,-11.504601,1.9771116000000002,0.33403298,-0.41593209999999997,-0.8457324,0.012624389,-17.702063,-3.6391654000000004,0.15296273,4.0953292999999995,-4.153246,-1.8206016999999999,21.0,6.0,-6.0,-4.718625774458394,15.808755,7.815359,-11.174845,-4.3912606,0
-1.67,13.45687,-11.540254,1.9786016,0.31988198,-0.43079332,-0.8437786,-0.011418896000000001,-17.819423999999998,-3.4901042,0.14483313,4.3916087,-4.442003,-1.9628085,21.0,6.0,-6.0,-4.718625774458394,15.808755,7.815359,-11.174845,-4.3912606,0
-1.66,13.278131,-11.574375,1.9800031000000002,0.3045522,-0.44610667,-0.8407524,-0.03704238,-17.926796,-3.3328562000000006,0.13522176,4.641712999999999,-4.6856995,-2.0980372000000003,21.0,6.0,-6.0,-4.718625774458394,15.808755,7.815359,-11.174845,-4.3912606,0
-1.65,13.098372,-11.606883999999999,1.9813002,0.2881683,-0.46161157,-0.83652526,-0.06402562,-18.023066,-3.1676764,0.123910226,4.8528476,-4.8913584000000006,-2.2266302000000002,21.0,6.0,-6.0,-4.718625774458394,15.808755,7.815359,-11.174845,-4.3912606,0
-1.64,12.917711,-11.637703,1.9824747999999999,0.27084395,-0.47708344,-0.83098763,-0.09216539,-18.107183,-2.9950416,0.11069005,5.031091,-5.0649095,-2.348913,21.0,6.0,-6.0,-4.489568594424578,18.22479,10.758714999999999,-11.108766000000001,-6.663463,0
-1.63,12.736274,-11.666761,1.9835068,0.25267035,-0.49233649999999995,-0.8240516,-0.12124944,-18.178179999999998,-2.8156277999999997,0.09536776,5.1816125,-5.211321400000001,-2.4539557,21.0,6.0,-6.0,-4.489568594424578,18.22479,10.758714999999999,-11.108766000000001,-6.663463,0
-1.6199999999999999,12.554195,-11.693995,1.9843743000000003,0.23373184,-0.50721115,-0.8156478,-0.1510797,-18.235182000000002,-2.6302865,0.0777688,5.3086953,-5.3348637000000005,-2.5538437000000003,21.0,6.0,-6.0,-4.489568594424578,18.22479,10.758714999999999,-11.108766000000001,-6.663463,0
-1.6099999999999999,12.371621000000001,-11.71935,1.9850538,0.21412034,-0.5215627,-0.80572027,-0.18149321,-18.277422,-2.440022,0.05774099,5.415994599999999,-5.4391050000000005,-2.6488302000000004,21.0,6.0,-6.0,-4.489568594424578,18.22479,10.758714999999999,-11.108766000000001,-6.663463,0
-1.5999999999999999,12.1887,-11.742783,1.9855202,0.19392231,-0.5352669,-0.79422724,-0.21233626,-18.304254999999998,-2.2459689999999997,0.035157766,5.506593,-5.5270567,-2.7391558,21.0,4.069334416342695,-5.999999809990205,-2.255542643077914,19.874216,9.044157,-12.025961,-5.440198400000001,0
-1.5899999999999999,12.005589500000001,-11.76426,1.9857479,0.17324682,-0.54766816,-0.78163034,-0.2431033,-18.315208,-2.0493932,0.009976478,5.2824089999999995,-5.600330400000001,-2.715425,21.0,4.069334416342695,-5.999999809990205,-2.255542643077914,19.874216,9.044157,-12.025961,-5.440198400000001,0
-1.5799999999999998,11.822449,-11.783767,1.9857118999999999,0.15220517,-0.55828905,-0.7683816,-0.27338022,-18.310179,-1.8517381999999998,-0.017504998,5.0932045,-5.662249,-2.6928585,21.0,4.069334416342695,-5.999999809990205,-2.255542643077914,19.874216,9.044157,-12.025961,-5.440198400000001,0
-1.5699999999999998,11.639439999999999,-11.801297,1.9853913,0.13087176,-0.5672691999999999,-0.75443804,-0.3031527,-18.289265,-1.6544473000000002,-0.04690965,4.933521,-5.714572,-2.6713994,21.0,4.069334416342695,-5.999999809990205,-2.255542643077914,19.874216,9.044157,-12.025961,-5.440198400000001,0
-1.5599999999999998,11.4567175,-11.816862,1.9847683,0.10930931599999999,-0.57472634,-0.73976433,-0.3324002,-18.252663000000002,-1.4589025,-0.077904925,4.7987514000000004,-5.758786,-2.6509932999999997,21.0,4.069334416342695,-5.999999809990205,-2.255542643077914,21.253181,8.3418045,-11.732634,-4.434055,0
-1.5499999999999998,11.274439,-11.830485000000001,1.9838288,0.08757176,-0.5807598,-0.7243326999999999,-0.3610975,-18.200672,-1.2664263999999998,-0.11019752,4.6850076,-5.7961480000000005,-2.6315885,21.0,4.069334416342695,-5.999999809990205,-2.255542643077914,21.253181,8.3418045,-11.732634,-4.434055,0
-1.5399999999999998,11.092756,-11.842206,1.9825609,0.06570632,-0.5854535,-0.7081227,-0.38921609999999995,-18.133675,-1.0782846000000001,-0.14352867,4.58901,-5.827719,-2.6131358,21.0,4.069334416342695,-5.999999809990205,-2.255542643077914,21.253181,8.3418045,-11.732634,-4.434055,0
-1.5299999999999998,10.911817,-11.852071,1.9809554,0.04375509,-0.58887863,-0.6911206999999999,-0.41672495,-18.052141,-0.8956848,-0.17766994,4.507988500000001,-5.854396299999999,-2.5955887000000004,21.0,4.069334416342695,-5.999999809990205,-2.255542643077914,21.253181,8.3418045,-11.732634,-4.434055,0
-1.5199999999999998,10.731762,-11.860142999999999,1.9790053,0.021756442,-0.59109586,-0.6733194,-0.44359145,-17.956621,-0.7197756999999999,-0.21241961,4.439606700000001,-5.876939,-2.5789027,21.0,2.4203418198022484,-4.479140654897448,-0.8536699335661498,20.76739,7.204679,-10.363172,-3.2520284999999998,0
-1.5099999999999998,10.55273,-11.866493,1.9767054,0.00034839055,-0.5920098000000001,-0.65519136,-0.46930649999999996,-17.847813000000002,-0.55160373,-0.24758308,4.1253834000000005,-5.658196,-2.4942450000000003,21.0,2.4203418198022484,-4.479140654897448,-0.8536699335661498,20.76739,7.204679,-10.363172,-3.2520284999999998,0
-1.4999999999999998,10.374847,-11.871203999999999,1.9740529999999998,-0.019968264,-0.59162825,-0.63720447,-0.49350548,-17.726860000000002,-0.39188063,-0.28289467,3.86007,-5.473688,-2.4137416000000003,21.0,2.4203418198022484,-4.479140654897448,-0.8536699335661498,20.76739,7.204679,-10.363172,-3.2520284999999998,0
-1.4899999999999998,10.19823,-11.874362,1.9710478999999999,-0.039349742,-0.590128,-0.6193407,-0.5163502000000001,-17.59496,-0.24111239999999998,-0.3180914,3.6360552000000004,-5.318054,-2.3371882,21.0,2.4203418198022484,-4.479140654897448,-0.8536699335661498,20.76739,7.204679,-10.363172,-3.2520284999999998,0
-1.4799999999999998,10.022982,-11.87606,1.9676923,-0.05793057,-0.5876496999999999,-0.60157716,-0.5379746999999999,-17.453215,-0.09970887,-0.35294688,3.4469112999999996,-5.186774,-2.2643914,21.0,1.2790923508256922,-2.508899047961409,-0.8118083080801302,21.118738,7.2411145999999995,-9.045008000000001,-2.8063056,0
-1.4699999999999998,9.849196000000001,-11.876389999999999,1.9639908,-0.07511157,-0.58447444,-0.58422047,-0.55806303,-17.30269,0.032060497,-0.38727659999999997,3.1096804,-4.768518,-2.1931129,21.0,1.2790923508256922,-2.508899047961409,-0.8118083080801302,21.118738,7.2411145999999995,-9.045008000000001,-2.8063056,0
-1.4599999999999997,9.676953999999999,-11.875451,1.9599490000000002,-0.09043649,-0.5808923,-0.56756204,-0.57641894,-17.144642,0.15437959,-0.42097095,2.8249009999999997,-4.415598999999999,-2.1253319,21.0,1.2790923508256922,-2.508899047961409,-0.8118083080801302,21.118738,7.2411145999999995,-9.045008000000001,-2.8063056,0
-1.4499999999999997,9.506325,-11.873334,1.9555738999999999,-0.10420475,-0.5770046999999999,-0.5515454000000001,-0.5932999,-16.980228,0.26759875,-0.45394796,2.5844188,-4.117808,-2.0608768,21.0,1.2790923508256922,-2.508899047961409,-0.8118083080801302,21.118738,7.2411145999999995,-9.045008000000001,-2.8063056,0
-1.4399999999999997,9.337367,-11.870128999999999,1.9508729,-0.11666994,-0.57288194,-0.5361099,-0.60891753,-16.810423,0.3720665,-0.48613320000000004,2.3813459999999997,-3.8665314,-1.9995846999999998,21.0,0.08918580959239546,-0.8391575902762081,0.27361529170092475,20.983385000000002,6.744213,-6.381387999999999,-1.915759,0
-1.4299999999999997,9.170132,-11.865921,1.9458542,-0.12747736,-0.5687220000000001,-0.52163625,-0.6230573,-16.636076,0.468183,-0.51746213,2.0247488000000002,-3.3938007000000003,-1.8880381999999998,21.0,0.08918580959239546,-0.8391575902762081,0.27361529170092475,20.983385000000002,6.744213,-6.381387999999999,-1.915759,0
-1.4199999999999997,9.004658000000001,-11.860792,1.9405267,-0.13637632,-0.56471527,-0.50845885,-0.6355845999999999,-16.458094,0.5567164000000001,-0.54789114,1.7235979,-2.9949147999999997,-1.7819651,21.0,0.08918580959239546,-0.8391575902762081,0.27361529170092475,20.983385000000002,6.744213,-6.381387999999999,-1.915759,0
-1.4099999999999997,8.84098,-11.854811,1.9348997,-0.14370209,-0.56088346,-0.49644879,-0.6467596,-16.277258,0.63849705,-0.5773877,1.4692785,-2.6583327999999997,-1.6810973000000002,21.0,0.08918580959239546,-0.8391575902762081,0.27361529170092475,20.983385000000002,6.744213,-6.381387999999999,-1.915759,0
-1.3999999999999997,8.679122,-11.8480425,1.9289825,-0.1497349,-0.5572303000000001,-0.48548463,-0.6567940999999999,-16.094179999999998,0.7142621,-0.6059257,1.254514,-2.374319,-1.5851791000000002,21.0,-0.6885726323256772,0.4261577133489866,1.4181076080924278,22.375067,5.6502742999999995,-4.081593499999999,-1.1040529,0
-1.3899999999999997,8.519102,-11.840544,1.9227846999999998,-0.15433885,-0.55391467,-0.4758004,-0.6655614000000001,-15.909355999999999,0.78471136,-0.6334915,0.9521301,-1.937181,-1.437807,21.0,-0.6885726323256772,0.4261577133489866,1.4181076080924278,22.375067,5.6502742999999995,-4.081593499999999,-1.1040529,0
-1.3799999999999997,8.360937,-11.832364,1.9163159,-0.15743186,-0.55106896,-0.46759394,-0.672974,-15.723272,0.8507584,-0.6601144,0.6967539,-1.5683155,-1.2976665,21.0,-0.6885726323256772,0.4261577133489866,1.4181076080924278,22.375067,5.6502742999999995,-4.081593499999999,-1.1040529,0
-1.3699999999999997,8.2046385,-11.823541,1.9095855,-0.15929888,-0.54864264,-0.46070690000000003,-0.6792379,-15.536323999999999,0.9132969999999999,-0.68583786,0.4810866,-1.2570534,-1.1644026,21.0,-0.6885726323256772,0.4261577133489866,1.4181076080924278,22.375067,5.6502742999999995,-4.081593499999999,-1.1040529,0
-1.3599999999999997,8.050214,-11.814105999999999,1.9026021,-0.16017604,-0.54658353,-0.45499653,-0.68452024,-15.348811999999999,0.9730947,-0.7107051999999999,0.29896134,-0.99439406,-1.037678,21.0,-0.6885726323256772,0.4261577133489866,1.4181076080924278,21.720053,5.2038035,-2.8383130000000003,-0.6920776999999999,0
-1.3499999999999996,7.897664999999999,-11.804085,1.8953741000000002,-0.16025892,-0.5448409000000001,-0.45033568,-0.6889578000000001,-15.160966,1.0308071,-0.7347588,0.14516768,-0.772744,-0.91717184,21.0,-0.6885726323256772,0.4261577133489866,1.4181076080924278,21.720053,5.2038035,-2.8383130000000003,-0.6920776999999999,0
-1.3399999999999996,7.746995,-11.793494,1.8879093999999996,-0.15970942,-0.5433674,-0.44661188,-0.69266313,-14.972961999999999,1.0869928999999998,-0.7580399999999999,0.01530266,-0.5856969,-0.802579,21.0,-0.6885726323256772,0.4261577133489866,1.4181076080924278,21.720053,5.2038035,-2.8383130000000003,-0.6920776999999999,0
-1.3299999999999996,7.5982056,-11.782347999999999,1.8802158,-0.15866147,-0.5421199999999999,-0.443726,-0.6957293999999999,-14.784941,1.1421266,-0.78058845,-0.09435268,-0.4278479,-0.69360924,21.0,-0.6885726323256772,0.4261577133489866,1.4181076080924278,21.720053,5.2038035,-2.8383130000000003,-0.6920776999999999,0
-1.3199999999999996,7.451296000000001,-11.770653999999999,1.8723,-0.1572257,-0.5410600999999999,-0.44159090000000006,-0.6982343000000001,-14.597010000000001,1.1966101,-0.80244184,-0.18694046,-0.29463649999999997,-0.5899867,21.0,-1.0793854059052042,1.0793831353182266,1.9050147276898317,21.753183,4.7048364000000005,-2.161603,-0.7667354999999999,0
-1.3099999999999996,7.306265,-11.758416,1.864169,-0.15530148,-0.54025835,-0.44029775,-0.7000999,-14.409264000000002,1.2508112,-0.82364035,-0.3260269,-0.08033105,-0.46755624,21.0,-1.0793854059052042,1.0793831353182266,1.9050147276898317,21.753183,4.7048364000000005,-2.161603,-0.7667354999999999,0
-1.2999999999999996,7.1631100000000005,-11.745636,1.8558291,-0.15281649,-0.53976744,-0.43991756,-0.70126337,-14.221815,1.3051988,-0.84424984,-0.44346455,0.10052864,-0.35113347,21.0,-1.0793854059052042,1.0793831353182266,1.9050147276898317,21.753183,4.7048364000000005,-2.161603,-0.7667354999999999,0
-1.2899999999999996,7.021827,-11.73231,1.8472859000000001,-0.14989182,-0.5395309,-0.4403505999999999,-0.70180464,-14.034767,1.3602219,-0.86434007,-0.5426188,0.25316439999999996,-0.24042359,21.0,-1.0793854059052042,1.0793831353182266,1.9050147276898317,21.753183,4.7048364000000005,-2.161603,-0.7667354999999999,0
-1.2799999999999996,6.882412400000001,-11.71843,1.838544,-0.14662759,-0.53949946,-0.44150922,-0.70179045,-13.848213000000001,1.4162581,-0.88397366,-0.6263326,0.38198304,-0.1351463,21.0,-1.2637555158333091,1.317270071570931,2.0758758015941865,21.185564000000003,4.227257,-1.4082806,-0.6296763000000001,0
-1.2699999999999996,6.7448606,-11.703981,1.8296078000000002,-0.14302391,-0.539662,-0.44338495,-0.70122635,-13.662235999999998,1.4736351,-0.90320736,-0.72576195,0.5277983,-0.026650827000000002,21.0,-1.2637555158333091,1.317270071570931,2.0758758015941865,21.185564000000003,4.227257,-1.4082806,-0.6296763000000001,0
-1.2599999999999996,6.609164999999999,-11.6889515,1.8204811,-0.13908477,-0.54000545,-0.44596553,-0.70011705,-13.476931,1.5326889,-0.9220969999999999,-0.8097029,0.6508634,0.076520756,21.0,-1.2637555158333091,1.317270071570931,2.0758758015941865,21.185564000000003,4.227257,-1.4082806,-0.6296763000000001,0
-1.2499999999999996,6.475319,-11.673321000000001,1.8111669,-0.13489078,-0.54048836,-0.44917349999999995,-0.6985124,-13.292394,1.5937216,-0.9406939000000001,-0.88056517,0.7547295,0.17462967,21.0,-1.2637555158333091,1.317270071570931,2.0758758015941865,21.185564000000003,4.227257,-1.4082806,-0.6296763000000001,0
-1.2399999999999995,6.3433137,-11.657069,1.8016679,-0.13050845,-0.54107547,-0.45294088,-0.69645464,-13.108717,1.656984,-0.95904344,-0.9403845,0.8423939,0.2679244,21.0,-1.2930853817427872,1.2566861131556522,2.079545621005449,21.392129999999998,3.7009269999999996,-0.50907266,-0.85616654,0
-1.2299999999999995,6.213141,-11.640172,1.7919866000000002,-0.12599571,-0.5417145999999999,-0.45721135,-0.69399405,-12.925989,1.722682,-0.9771829,-0.99545145,0.90693545,0.35682115,21.0,-1.2930853817427872,1.2566861131556522,2.079545621005449,21.392129999999998,3.7009269999999996,-0.50907266,-0.85616654,0
-1.2199999999999995,6.08479,-11.622606,1.7821248,-0.12140017,-0.5423631,-0.46193516,-0.6911728,-12.744301,1.7909784,-0.9951321,-1.0419328,0.96141076,0.44135574,21.0,-1.2930853817427872,1.2566861131556522,2.079545621005449,21.392129999999998,3.7009269999999996,-0.50907266,-0.85616654,0
-1.2099999999999995,5.958251000000001,-11.604341999999999,1.7720843999999998,-0.116758004,-0.5430062,-0.4670648,-0.6880130999999999,-12.563741,1.8620033,-1.0129033,-1.0811658000000002,1.0073907,0.52174217,21.0,-1.2930853817427872,1.2566861131556522,2.079545621005449,21.392129999999998,3.7009269999999996,-0.50907266,-0.85616654,0
-1.1999999999999995,5.8335114,-11.585355999999999,1.7618672999999998,-0.1120986,-0.5436314,-0.47255820000000004,-0.68453425,-12.384396,1.9358606,-1.0305068000000002,-1.1142796,1.0462017,0.59818405,21.0,-1.2414356717524069,1.0235969222993504,1.919430954595804,21.090338,2.619232,0.27629504,-0.69815713,0
-1.1899999999999995,5.7105584,-11.565616,1.751475,-0.10749336,-0.544177,-0.4783429,-0.68081146,-12.20635,2.0126252,-1.0479460999999999,-1.1341522,1.0426207,0.663018,21.0,-1.2414356717524069,1.0235969222993504,1.919430954595804,21.090338,2.619232,0.27629504,-0.69815713,0
-1.1799999999999995,5.5893793,-11.545094,1.7409091,-0.10299824,-0.5445954000000001,-0.48435715,-0.67690843,-12.029678,2.0923092,-1.0651981000000001,-1.1509234,1.0396004,0.7246705,21.0,-1.2414356717524069,1.0235969222993504,1.919430954595804,21.090338,2.619232,0.27629504,-0.69815713,0
-1.1699999999999995,5.4699597,-11.523760000000001,1.7301717,-0.0986138,-0.5448961999999999,-0.49058,-0.6728257,-11.854447,2.1749032,-1.0822333999999998,-1.1650771,1.0370535,0.7832978,21.0,-1.2414356717524069,1.0235969222993504,1.919430954595804,21.090338,2.619232,0.27629504,-0.69815713,0
-1.1599999999999995,5.3522854,-11.501585,1.7192651999999997,-0.094339564,-0.5450875,-0.49699217,-0.6685641999999999,-11.680723,2.2603912,-1.0990255,-1.1770216999999998,1.0349059,0.83904815,21.0,-1.2414356717524069,1.0235969222993504,1.919430954595804,21.3314,1.9118985000000002,1.0400687,-0.61271024,0
-1.1499999999999995,5.2363405,-11.478541,1.7081921000000002,-0.09017423,-0.54517615,-0.50357586,-0.66412544,-11.508572000000001,2.3487566,-1.11555,-1.187102,1.0330958000000001,0.8920629000000001,21.0,-1.2414356717524069,1.0235969222993504,1.919430954595804,21.3314,1.9118985000000002,1.0400687,-0.61271024,0
-1.1399999999999995,5.122109,-11.454599,1.6969551999999999,-0.086115845,-0.54516804,-0.5103146,-0.65951085,-11.338055,2.4399772,-1.1317841,-1.1956083999999998,1.0315703,0.9424761999999999,21.0,-1.2414356717524069,1.0235969222993504,1.919430954595804,21.3314,1.9118985000000002,1.0400687,-0.61271024,0
-1.1299999999999994,5.009574,-11.429730000000001,1.6855575,-0.08216197,-0.545068,-0.517193,-0.6547223000000001,-11.169235,2.5340278,-1.1477058,-1.2027864,1.0302849,0.99041563,21.0,-1.2414356717524069,1.0235969222993504,1.919430954595804,21.3314,1.9118985000000002,1.0400687,-0.61271024,0
-1.1199999999999994,4.898719,-11.403908,1.6740022,-0.07830978,-0.5448803000000001,-0.52419686,-0.6497616999999999,-11.002171,2.6308814999999997,-1.1632947,-1.2088435,1.0292021,1.0360028000000001,21.0,-1.0798898241404986,0.7208968607716891,1.6820202517744087,22.93429,0.95209694,1.9821162,-0.20538434,0
-1.1099999999999994,4.7895246,-11.377103,1.6622927,-0.07464596,-0.5445667,-0.53124964,-0.644708,-10.836916,2.730497,-1.1785275,-1.1887212999999999,0.9811110000000001,1.067703,21.0,-1.0798898241404986,0.7208968607716891,1.6820202517744087,22.93429,0.95209694,1.9821162,-0.20538434,0
-1.0999999999999994,4.6819744000000005,-11.349288,1.6504330000000003,-0.07123691,-0.54410017,-0.5382885000000001,-0.639629,-10.673492,2.832767,-1.1933649,-1.1717395,0.94051945,1.0978478,21.0,-1.0798898241404986,0.7208968607716891,1.6820202517744087,22.93429,0.95209694,1.9821162,-0.20538434,0
-1.0899999999999994,4.576049299999999,-11.320438000000001,1.638427,-0.0680521,-0.54349864,-0.54531884,-0.6345116,-10.511911,2.9375749,-1.2077651000000003,-1.1574081,0.9062581000000001,1.1265132,21.0,-1.0798898241404986,0.7208968607716891,1.6820202517744087,22.93429,0.95209694,1.9821162,-0.20538434,0
-1.0799999999999994,4.47173,-11.290528,1.6262794,-0.06506517,-0.54277694,-0.5523445,-0.6293446999999999,-10.352182,3.044816,-1.2216909,-1.1453137,0.87733966,1.1537721,21.0,-0.8769767524360897,0.3950781217555169,1.3753510695161255,22.646791,0.47043535,2.1727886,-0.32964572,0
-1.0699999999999994,4.368999,-11.259534,1.6139951000000001,-0.062356092,-0.5419134,-0.5592921,-0.6242063,-10.194315,3.154385,-1.2351058000000001,-1.103416,0.80215496,1.1646451,21.0,-0.8769767524360897,0.3950781217555169,1.3753510695161255,22.646791,0.47043535,2.1727886,-0.32964572,0
-1.0599999999999994,4.2678375,-11.227433,1.6015793,-0.05998439,-0.54089475,-0.5661016999999999,-0.61916333,-10.038274000000001,3.2661182999999996,-1.2479641000000001,-1.0680597,0.7386911999999999,1.1749844999999999,21.0,-0.8769767524360897,0.3950781217555169,1.3753510695161255,22.646791,0.47043535,2.1727886,-0.32964572,0
-1.0499999999999994,4.1682277,-11.194204,1.5890379,-0.057901267,-0.53974277,-0.5727936,-0.6141924,-9.884015,3.3798497000000003,-1.2602218,-1.0382235999999998,0.68512124,1.1848165000000002,21.0,-0.8769767524360897,0.3950781217555169,1.3753510695161255,22.646791,0.47043535,2.1727886,-0.32964572,0
-1.0399999999999994,4.0701513,-11.159829,1.5763768999999999,-0.056065145999999996,-0.53847533,-0.57938427,-0.6092738,-9.7315035,3.4954362,-1.2718396,-1.0130463,0.6399024999999999,1.1941661,21.0,-0.6649811853578144,0.10569298576408044,1.0349362899609726,23.000498,0.278972,2.4906294,-0.5352851,0
-1.0299999999999994,3.9735913,-11.1242895,1.5636033,-0.054536900000000006,-0.5370889,-0.58581,-0.60447305,-9.580698,3.6127434000000003,-1.2827826,-0.95869815,0.55663997,1.1863526000000002,21.0,-0.6649811853578144,0.10569298576408044,1.0349362899609726,23.000498,0.278972,2.4906294,-0.5352851,0
-1.0199999999999994,3.8785317000000004,-11.087569,1.5507238,-0.05336002,-0.53558385,-0.59201884,-0.5998467,-9.431521,3.7315921999999997,-1.293015,-0.91283655,0.4863548,1.1789225,21.0,-0.6649811853578144,0.10569298576408044,1.0349362899609726,23.000498,0.278972,2.4906294,-0.5352851,0
-1.0099999999999993,3.7849562000000003,-11.049653,1.5377456,-0.05247835,-0.53397864,-0.5980392,-0.59536684,-9.283888000000001,3.8518087999999997,-1.3025049,-0.87413603,0.42702445,1.1718571000000002,21.0,-0.6649811853578144,0.10569298576408044,1.0349362899609726,23.000498,0.278972,2.4906294,-0.5352851,0
-0.9999999999999991,3.6928494,-11.010529,1.5246763,-0.0518444,-0.53228813,-0.60389495,-0.59100944,-9.137723,3.9732456,-1.311225,-0.84147865,0.37694165,1.1651385,21.0,-0.5686955178250663,-0.07282322036684809,0.7493305232724564,20.256247000000002,0.027340867,2.1428293999999997,-0.52157414,0
-0.9899999999999991,3.6021970000000003,-10.970183,1.5115237,-0.051465265,-0.5305076,-0.6095611999999999,-0.5868116,-8.992962,4.09577,-1.319151,-0.79888105,0.30684406,1.1447346,21.0,-0.5686955178250663,-0.07282322036684809,0.7493305232724564,20.256247000000002,0.027340867,2.1428293999999997,-0.52157414,0
-0.9799999999999991,3.5129855000000005,-10.928609,1.4982959999999999,-0.051342204,-0.52863526,-0.61501735,-0.58280534,-8.849517,4.219233,-1.3262552,-0.7629366,0.24767154,1.125332,21.0,-0.5686955178250663,-0.07282322036684809,0.7493305232724564,20.256247000000002,0.027340867,2.1428293999999997,-0.52157414,0
-0.9699999999999993,3.4252021,-10.885797,1.4850014,-0.051430397,-0.5266854999999999,-0.6202876,-0.5789648000000001,-8.707308,4.3434963,-1.3325125,-0.73260564,0.19772168,1.1068813999999998,21.0,-0.5686955178250663,-0.07282322036684809,0.7493305232724564,20.256247000000002,0.027340867,2.1428293999999997,-0.52157414,0
-0.9599999999999993,3.3388352,-10.841737,1.4716486999999998,-0.051692154000000004,-0.52467006,-0.62539244,-0.5752678000000001,-8.566264,4.4684415,-1.3379021999999998,-0.7070118000000001,0.15555702,1.0893362,21.0,-0.5686955178250663,-0.07282322036684809,0.7493305232724564,20.238634,-0.313705,2.2899852000000003,-0.47557023,0
-0.9499999999999993,3.2538732999999995,-10.796425,1.4582465,-0.052095804,-0.52259856,-0.6303496,-0.57169545,-8.426325,4.5939674,-1.3424075,-0.685415,0.11996408,1.072652,21.0,-0.5686955178250663,-0.07282322036684809,0.7493305232724564,20.238634,-0.313705,2.2899852000000003,-0.47557023,0
-0.9399999999999993,3.1703053,-10.749855,1.4448036,-0.052614786,-0.5204789000000001,-0.635174,-0.5682313,-8.2874365,4.7199874,-1.3460143999999998,-0.6671908000000001,0.08991874,1.0567865,21.0,-0.5686955178250663,-0.07282322036684809,0.7493305232724564,20.238634,-0.313705,2.2899852000000003,-0.47557023,0
-0.9299999999999993,3.088121,-10.7020235,1.4313294,-0.05322684,-0.5183175999999999,-0.6398786,-0.56486154,-8.149555,4.8464265,-1.3487116000000001,-0.65181243,0.06455624,1.0416995999999998,21.0,-0.5686955178250663,-0.07282322036684809,0.7493305232724564,20.238634,-0.313705,2.2899852000000003,-0.47557023,0
-0.9199999999999993,3.0073106,-10.652925999999999,1.4178326,-0.05391334,-0.5161199000000001,-0.6444745,-0.5615741999999999,-8.012641,4.9732194000000005,-1.35049,-0.63883555,0.043147005,1.0273529000000001,21.0,-0.4963015732520874,-0.12507696150042472,0.6755048439353528,19.626611999999998,-0.79150224,2.4653572999999995,-0.5053111,0
-0.9099999999999993,2.9278647999999996,-10.602559,1.4043226999999998,-0.054683775,-0.5138977,-0.6489503000000001,-0.5583741,-7.876658,5.100308,-1.3513427,-0.6165896,0.016934486000000002,1.0100876,21.0,-0.4963015732520874,-0.12507696150042472,0.6755048439353528,19.626611999999998,-0.79150224,2.4653572999999995,-0.5053111,0
-0.8999999999999992,2.8497744,-10.55092,1.390809,-0.055544399999999994,-0.5116612,-0.65329707,-0.5552655,-7.741560499999999,5.2276287,-1.3512703000000001,-0.5978161,-0.005193295,0.99366945,21.0,-0.4963015732520874,-0.12507696150042472,0.6755048439353528,19.626611999999998,-0.79150224,2.4653572999999995,-0.5053111,0
-0.8899999999999992,2.7730308,-10.498006,1.3773007,-0.056476634000000005,-0.5094118,-0.6575276999999999,-0.55223775,-7.607303999999999,5.3551245000000005,-1.3502754,-0.58197314,-0.023872921000000002,0.978057,21.0,-0.4963015732520874,-0.12507696150042472,0.6755048439353528,19.626611999999998,-0.79150224,2.4653572999999995,-0.5053111,0
-0.8799999999999992,2.6976254,-10.443816,1.363807,-0.05746499,-0.50715065,-0.6616529999999999,-0.5492819,-7.4738507,5.4827447,-1.3483608,-0.5686031,-0.039641578,0.96321064,21.0,-0.4438314983183556,-0.12842005330861245,0.4039185811258843,19.465387,-1.569617,2.5601811000000003,-0.55607986,0
-0.8699999999999992,2.623551,-10.38835,1.3503368,-0.05849199,-0.5048938000000001,-0.66565335,-0.5464117,-7.3411655,5.610446,-1.3455304,-0.5491373,-0.05346443,0.93576604,21.0,-0.4438314983183556,-0.12842005330861245,0.4039185811258843,19.465387,-1.569617,2.5601811000000003,-0.55607986,0
-0.8599999999999992,2.5507996,-10.331607,1.3368993999999998,-0.05954094,-0.5026548,-0.6695121,-0.5436413,-7.2092113,5.738187,-1.341796,-0.5327088000000001,-0.065134525,0.9096681000000001,21.0,-0.4438314983183556,-0.12842005330861245,0.4039185811258843,19.465387,-1.569617,2.5601811000000003,-0.55607986,0
-0.8499999999999992,2.4793644,-10.273586,1.323504,-0.060601283,-0.5004307,-0.6732416999999999,-0.54096353,-7.077954300000001,5.8659324999999995,-1.3371708,-0.5188436,-0.074987195,0.8848507999999999,21.0,-0.4438314983183556,-0.12842005330861245,0.4039185811258843,19.465387,-1.569617,2.5601811000000003,-0.55607986,0
-0.8399999999999992,2.4092386,-10.214288999999999,1.3101592,-0.06166447,-0.49821907,-0.6768533,-0.5383717,-6.947364299999999,5.9936514,-1.3316661,-0.5071420999999999,-0.083305426,0.8612513,21.0,-0.3845339634418901,-0.11756474752263167,0.06745270773529549,19.482391,-2.0139153000000003,2.109441,-0.5092409000000001,0
-0.8299999999999992,2.340415,-10.153713,1.2968737,-0.06271276,-0.4960389,-0.68032306,-0.5358847,-6.817415,6.1213169999999995,-1.3252937,-0.48802070000000003,-0.08862499,0.8222993000000001,21.0,-0.3845339634418901,-0.11756474752263167,0.06745270773529549,19.482391,-2.0139153000000003,2.109441,-0.5092409000000001,0
-0.8199999999999992,2.272888,-10.091863,1.2836561000000002,-0.06372916,-0.49390593,-0.68363017,-0.53352106,-6.688075,6.248906,-1.3180746,-0.47188184,-0.093117915,0.78525877,21.0,-0.3845339634418901,-0.11756474752263167,0.06745270773529549,19.482391,-2.0139153000000003,2.109441,-0.5092409000000001,0
-0.8099999999999992,2.2066512,-10.028736,1.270515,-0.06470873,-0.49181372,-0.6867884,-0.5312751,-6.559317,6.376399500000001,-1.31003,-0.45826024,-0.09691295,0.7500358,21.0,-0.3845339634418901,-0.11756474752263167,0.06745270773529549,19.482391,-2.0139153000000003,2.109441,-0.5092409000000001,0
-0.7999999999999992,2.1416993,-9.9643345,1.2574582,-0.06564784,-0.48975667,-0.68981,-0.5291412,-6.431116,6.50378,-1.3011786,-0.44676325,-0.10011835,0.71654123,21.0,-0.498807344394961,-0.0066817378384877325,-0.31587212288783817,19.67267,-2.732571,2.0160313000000003,-0.47361872,0
-0.7899999999999991,2.0780265,-9.898661,1.244494,-0.06646593,-0.4877252,-0.69270605,-0.5271281999999999,-6.303457,6.6310363,-1.2915348,-0.45488903,-0.085535586,0.66588044,21.0,-0.498807344394961,-0.0066817378384877325,-0.31587212288783817,19.67267,-2.732571,2.0160313000000003,-0.47361872,0
-0.7799999999999991,2.0156278999999997,-9.831714,1.2316301,-0.06709628,-0.4857116,-0.6954832,-0.5252475000000001,-6.1763515,6.7581773,-1.2811025,-0.46174560000000003,-0.07322697,0.6177056,21.0,-0.498807344394961,-0.0066817378384877325,-0.31587212288783817,19.67267,-2.732571,2.0160313000000003,-0.47361872,0
-0.7699999999999991,1.9544973,-9.763496,1.2188746000000001,-0.06755557,-0.48371428,-0.69814557,-0.52349687,-6.049821400000001,6.885217,-1.2698828000000002,-0.46753147,-0.06283777,0.5718946999999999,21.0,-0.498807344394961,-0.0066817378384877325,-0.31587212288783817,19.67267,-2.732571,2.0160313000000003,-0.47361872,0
-0.7599999999999991,1.8946294,-9.69401,1.206235,-0.06785857,-0.48173180000000004,-0.70069754,-0.5218735999999999,-5.9238844,7.012166499999999,-1.257876,-0.4724139,-0.054068677,0.52833176,21.0,-0.498807344394961,-0.0066817378384877325,-0.31587212288783817,19.24695,-3.4482284,1.7561810000000002,0.009477343000000001,0
-0.7499999999999991,1.8360176,-9.623253,1.1937195,-0.06801839999999999,-0.47976297,-0.7031433000000001,-0.5203747000000001,-5.798555,7.139033,-1.2450828999999999,-0.47653365,-0.04666726,0.48690647,21.0,-0.498807344394961,-0.0066817378384877325,-0.31587212288783817,19.24695,-3.4482284,1.7561810000000002,0.009477343000000001,0
-0.7399999999999989,1.7786561,-9.5512295,1.1813360000000002,-0.06804673,-0.47780666,-0.70548713,-0.5189967000000001,-5.673847,7.2658224,-1.2315040000000002,-0.48001012,-0.040420275,0.44751388,21.0,-0.498807344394961,-0.0066817378384877325,-0.31587212288783817,19.24695,-3.4482284,1.7561810000000002,0.009477343000000001,0
-0.7299999999999989,1.7225386000000003,-9.477936999999999,1.1690922,-0.06795396,-0.47586190000000006,-0.7077333,-0.51773596,-5.5497723,7.392539,-1.2171402,-0.48294390000000004,-0.035147786,0.41005427,21.0,-0.498807344394961,-0.0066817378384877325,-0.31587212288783817,19.24695,-3.4482284,1.7561810000000002,0.009477343000000001,0
-0.7199999999999989,1.6676583999999999,-9.403377,1.1569958999999999,-0.067749426,-0.47392777,-0.70988584,-0.5165887,-5.4263395999999995,7.519186,-1.2019925,-0.48541978,-0.03069792,0.37443286,21.0,-0.3829228336864807,0.18213079276165406,2.317102420626262,19.099888,-3.5483716,1.4281944,0.520055,0
-0.7099999999999989,1.6140094999999999,-9.327552,1.1450548999999999,-0.06756588,-0.47205314,-0.7120996999999999,-0.51528054,-5.3035593,7.6457686,-1.1860681999999998,-0.46944359999999996,0.0024671024,0.46976019999999996,21.0,-0.3829228336864807,0.18213079276165406,2.317102420626262,19.099888,-3.5483716,1.4281944,0.520055,0
-0.6999999999999991,1.561585,-9.250463,1.1332768999999998,-0.06753027,-0.47027284,-0.71452075,-0.5135587,-5.181441,7.7723265,-1.1694075000000002,-0.45596123,0.03046278,0.5604098000000001,21.0,-0.3829228336864807,0.18213079276165406,2.317102420626262,19.099888,-3.5483716,1.4281944,0.520055,0
-0.6899999999999991,1.5103784,-9.172107,1.1216692,-0.0676415,-0.46856695,-0.71713895,-0.5114496000000001,-5.059993,7.8989009999999995,-1.1520559,-0.44458237,0.05409436,0.64661115,21.0,-0.3829228336864807,0.18213079276165406,2.317102420626262,19.099888,-3.5483716,1.4281944,0.520055,0
-0.679999999999999,1.4603829,-9.092483999999999,1.1102381000000001,-0.06789746,-0.46691847,-0.7199439000000001,-0.5089766,-4.9392223,8.025526,-1.134051,-0.43497887,0.074042335,0.7285826,21.0,-0.437347749742329,0.310206448379467,2.6140125293429968,18.493624,-3.6338790000000003,1.0573641000000003,1.2902547,0
-0.669999999999999,1.4115916000000002,-9.011596,1.0989901000000002,-0.06826437,-0.46532062,-0.722957,-0.5061117,-4.8191394999999995,8.152234,-1.1154239,-0.43537217,0.11084556599999999,0.8211011999999999,21.0,-0.437347749742329,0.310206448379467,2.6140125293429968,18.493624,-3.6338790000000003,1.0573641000000003,1.2902547,0
-0.659999999999999,1.3639976999999999,-8.92944,1.0879315,-0.06871643,-0.4637662,-0.72619504,-0.50283086,-4.6997743,8.279071,-1.0962015,-0.43570504,0.14191082,0.9090799,21.0,-0.437347749742329,0.310206448379467,2.6140125293429968,18.493624,-3.6338790000000003,1.0573641000000003,1.2902547,0
-0.649999999999999,1.3175936000000001,-8.846014,1.0770680000000001,-0.06926113,-0.462241,-0.7296405,-0.49915937,-4.581159599999999,8.406077999999999,-1.0764061000000003,-0.43598583,0.16813248,0.9927414000000001,21.0,-0.437347749742329,0.310206448379467,2.6140125293429968,18.493624,-3.6338790000000003,1.0573641000000003,1.2902547,0
-0.639999999999999,1.2723718000000002,-8.761317,1.0664053,-0.069903694,-0.46073290000000006,-0.73327655,-0.49511948,-4.4633236,8.533294,-1.056055,-0.43622237,0.19026607,1.0722976999999998,21.0,-0.7486037231818827,0.29581633934069834,2.3510558404707065,18.80742,-4.037493700000001,0.71767735,1.6415686999999999,0
-0.629999999999999,1.2283244,-8.675347,1.0559489,-0.07057523,-0.45913935,-0.73712784,-0.49076656,-4.3462973,8.660743,-1.0351521000000001,-0.48495787,0.20667273,1.1350467,21.0,-0.7486037231818827,0.29581633934069834,2.3510558404707065,18.80742,-4.037493700000001,0.71767735,1.6415686999999999,0
-0.619999999999999,1.1854428999999997,-8.588102000000001,1.0457044,-0.07121883,-0.45737806,-0.7412088000000001,-0.48615003,-4.2301517,8.788432,-1.0136485999999998,-0.52609205,0.22052372,1.1947166999999999,21.0,-0.7486037231818827,0.29581633934069834,2.3510558404707065,18.80742,-4.037493700000001,0.71767735,1.6415686999999999,0
-0.6099999999999992,1.143718,-8.499578,1.0356781,-0.07185317,-0.45546678,-0.7454897,-0.4812809,-4.11496,8.916366,-0.9914843000000001,-0.5608102,0.23221770000000003,1.2514586,21.0,-0.7486037231818827,0.29581633934069834,2.3510558404707065,18.80742,-4.037493700000001,0.71767735,1.6415686999999999,0
-0.5999999999999992,1.10314,-8.409773,1.0258770000000001,-0.07249308,-0.45342043,-0.7499444000000001,-0.47616917,-4.0007854,9.044539,-0.96860677,-0.59011304,0.24209131,1.3054162,21.0,-1.6271673674351983,0.05996528898498062,2.148221733363279,18.044401,-4.0484786,1.1455348,1.334071,0
-0.5899999999999992,1.0636983999999998,-8.318686,1.0163084999999998,-0.07304315,-0.45094422,-0.7546892,-0.47091118,-3.8876964999999997,9.172931,-0.9449434000000001,-0.75182265,0.21353154,1.346773,21.0,-1.6271673674351983,0.05996528898498062,2.148221733363279,18.044401,-4.0484786,1.1455348,1.334071,0
-0.5799999999999992,1.0253818000000001,-8.226314,1.0069816999999999,-0.07342845,-0.44780278,-0.7598090000000001,-0.46558598,-3.7758467000000002,9.30145,-0.92027396,-0.88831604,0.18944088,1.3861004,21.0,-1.6271673674351983,0.05996528898498062,2.148221733363279,18.044401,-4.0484786,1.1455348,1.334071,0
-0.5699999999999992,0.9881768,-8.132655999999999,0.99790746,-0.07368634,-0.44408795,-0.76523906,-0.46017885,-3.6653949999999997,9.429981,-0.8943593000000001,-1.0035254999999998,0.16912094,1.4234978999999999,21.0,-1.6271673674351983,0.05996528898498062,2.148221733363279,18.044401,-4.0484786,1.1455348,1.334071,0
-0.5599999999999992,0.95206875,-8.037714,0.98909944,-0.073847115,-0.43987727,-0.77092296,-0.45467746,-3.5564735,9.558415,-0.86699975,-1.1007698000000001,0.15198256,1.4590604,21.0,-1.6271673674351983,0.05996528898498062,2.148221733363279,18.720062,-4.181894000000001,0.77930856,1.4112151000000002,0
-0.5499999999999992,0.9170417,-7.9414883000000005,0.98057294,-0.073935255,-0.4352362,-0.7768119000000001,-0.44907188,-3.449192,9.686647,-0.83802956,-1.1828507,0.13752867,1.4928778,21.0,-1.6271673674351983,0.05996528898498062,2.148221733363279,18.720062,-4.181894000000001,0.77930856,1.4112151000000002,0
-0.5399999999999991,0.88307893,-7.8439817,0.97234476,-0.073970445,-0.43022016,-0.7828635,-0.44335416,-3.3436415,9.814571,-0.8073119000000001,-1.2521323999999998,0.1253392,1.5250357,21.0,-1.6271673674351983,0.05996528898498062,2.148221733363279,18.720062,-4.181894000000001,0.77930856,1.4112151000000002,0
-0.5299999999999991,0.85016274,-7.745197999999999,0.9644331,-0.0739684,-0.4248762,-0.78904116,-0.43751809999999997,-3.2398965,9.942085,-0.7747345999999999,-1.310611,0.115060255,1.5556157,21.0,-1.6271673674351983,0.05996528898498062,2.148221733363279,18.720062,-4.181894000000001,0.77930856,1.4112151000000002,0
-0.5199999999999991,0.8182746999999999,-7.645141000000001,0.9568568000000001,-0.07394160000000001,-0.4192443,-0.79531306,-0.43155894,-3.1380177000000002,10.069088,-0.7402071,-1.3599709999999998,0.10639252,1.5846949,20.999999867399463,-2.8425692255007253,0.8144332617037832,5.999999725109505,18.220694,-4.364169,0.7422743,1.6373656,0
-0.5099999999999991,0.78741986,-7.5437875,0.94966817,-0.07358852,-0.41323283,-0.8020206,-0.42495340000000004,-3.0337,10.201067,-0.6977229,-1.5384107,0.26939416,1.7927706,20.999999867399463,-2.8425692255007253,0.8144332617037832,5.999999725109505,18.220694,-4.364169,0.7422743,1.6373656,0
-0.4999999999999991,0.7575844,-7.4411325,0.9428989,-0.07270584,-0.40672687,-0.8094511999999999,-0.41722298,-2.9340458,10.329558,-0.65611726,-1.6991427,0.39683282,1.9951519,20.999999867399463,-2.8425692255007253,0.8144332617037832,5.999999725109505,18.220694,-4.364169,0.7422743,1.6373656,0
-0.4899999999999989,0.72872484,-7.3372044999999995,0.93654734,-0.07146089,-0.39963412,-0.81752175,-0.4084645,-2.838519,10.45567,-0.61413383,-1.8643287,0.47479752,2.1904566,20.999999867399463,-2.8425692255007253,0.8144332617037832,5.999999725109505,18.220694,-4.364169,0.7422743,1.6373656,0
-0.47999999999999887,0.70080173,-7.232023700000001,0.9306223,-0.06999906,-0.39185570000000003,-0.8261540999999999,-0.39877045,-2.7465947,10.580374,-0.5704679,-2.0170238,0.5273011,2.377392,20.999999721024466,-3.459446991072597,1.8846255544295425,5.9999996334969685,18.669473999999997,-4.860739,0.9256742,2.3259923,0
-0.46999999999999886,0.67378163,-7.1256,0.9251475,-0.067944445,-0.3833948,-0.8353596,-0.38802790000000004,-2.6579807,10.704319,-0.52405655,-2.24238,0.7383683000000001,2.5551543,20.999999721024466,-3.459446991072597,1.8846255544295425,5.9999996334969685,18.669473999999997,-4.860739,0.9256742,2.3259923,0
-0.45999999999999885,0.6476291000000001,-7.0179405,0.9201513000000001,-0.06498838,-0.3742705,-0.84511214,-0.37614202,-2.5731692,10.827444,-0.4746947,-2.4325773999999996,0.91654354,2.7241937999999997,20.999999721024466,-3.459446991072597,1.8846255544295425,5.9999996334969685,18.669473999999997,-4.860739,0.9256742,2.3259923,0
-0.44999999999999885,0.6223034000000001,-6.9090543,0.9156643,-0.06129611,-0.36452955,-0.85525626,-0.36317635,-2.492658,10.949664,-0.42220467,-2.593095,1.0669603,2.8849387,20.999999721024466,-3.459446991072597,1.8846255544295425,5.9999996334969685,18.669473999999997,-4.860739,0.9256742,2.3259923,0
-0.43999999999999884,0.59775966,-6.798951,0.9117184000000002,-0.057004895,-0.35421354,-0.8656507999999999,-0.34918649999999996,-2.4168653,11.070834,-0.36645234,-2.7285592999999997,1.1939495,3.0377955,20.999999476981486,-3.3325836201725374,3.262515037519908,5.999999157381858,18.45509,-5.9747276,1.2627182,2.650766,0
-0.4299999999999988,0.5739486,-6.6876416,0.9083468000000001,-0.05176645,-0.3435924,-0.8761796999999999,-0.33402532,-2.3461773,11.190785,-0.30735353,-2.8235357000000003,1.5160867,3.1831515,20.999999476981486,-3.3325836201725374,3.262515037519908,5.999999157381858,18.45509,-5.9747276,1.2627182,2.650766,0
-0.4199999999999988,0.5508166999999999,-6.575139,0.9055828000000001,-0.04530137,-0.33287242,-0.88672554,-0.31758606,-2.2811272000000002,11.3095,-0.24491754,-2.9036447999999995,1.7880144,3.3213751000000005,20.999999476981486,-3.3325836201725374,3.262515037519908,5.999999157381858,18.45509,-5.9747276,1.2627182,2.650766,0
-0.4099999999999988,0.5283049,-6.461456,0.90345967,-0.037809245,-0.3220048,-0.89716274,-0.29996955,-2.2222426,11.42693,-0.17919296,-2.9712057,2.0175622,3.4528160000000003,20.999999476981486,-3.3325836201725374,3.262515037519908,5.999999157381858,18.45509,-5.9747276,1.2627182,2.650766,0
-0.3999999999999988,0.50634915,-6.3466053,0.90200996,-0.029459883,-0.31095192,-0.90737593,-0.2812637,-2.1699697999999996,11.542938000000001,-0.11024497,-3.0281773,2.2113376000000002,3.577807,20.999999238184305,-2.598048693150163,4.800060888918919,5.999993868371853,18.826760999999998,-5.8011312,2.1366186000000003,2.2022626,0
-0.3899999999999988,0.48488137,-6.2306023,0.9012655,-0.01991763,-0.3001212,-0.91718405,-0.261349,-2.1247156000000005,11.657353,-0.038179636,-2.9622397,2.6149723999999996,3.6966639999999997,20.999999238184305,-2.598048693150163,4.800060888918919,5.999993868371853,18.826760999999998,-5.8011312,2.1366186000000003,2.2022626,0
-0.3799999999999988,0.46382877,-6.1134634000000005,0.9012562,-0.008912207,-0.28982374,-0.9264184999999999,-0.24014786,-2.0870268,11.770197999999999,0.0367523,-2.9064803,2.9556563,3.8096892999999996,20.999999238184305,-2.598048693150163,4.800060888918919,5.999993868371853,18.826760999999998,-5.8011312,2.1366186000000003,2.2022626,0
-0.3699999999999988,0.44311294,-5.995204,0.9020093000000001,0.0033297815999999997,-0.27990675,-0.9349912,-0.21778922,-2.0574436,11.881461999999999,0.11426239,-2.8593197,3.2432072,3.9171681000000005,20.999999238184305,-2.598048693150163,4.800060888918919,5.999993868371853,18.826760999999998,-5.8011312,2.1366186000000003,2.2022626,0
-0.35999999999999877,0.4226505,-5.8758407,0.9035493,0.016610873999999998,-0.27024525,-0.94281775,-0.19438568,-2.036423,11.991010000000001,0.19406904,-2.8194249,3.4859120000000003,4.019373000000001,20.999999238184305,-2.598048693150163,4.800060888918919,5.999993868371853,20.444916,-5.028899,2.984929,2.1398658999999998,0
-0.34999999999999876,0.4023538,-5.755391,0.9058976000000001,0.030758418,-0.26073802,-0.94981915,-0.17003743,-2.0243406000000004,12.098597,0.2758912,-2.7856702999999996,3.6907650000000003,4.116562999999999,20.999999238184305,-2.598048693150163,4.800060888918919,5.999993868371853,20.444916,-5.028899,2.984929,2.1398658999999998,0
-0.33999999999999875,0.38213193,-5.633877,0.9090731,0.04562093,-0.25130410000000003,-0.95592225,-0.14483529999999997,-2.0214915,12.203888000000001,0.35944499999999996,-2.7571065,3.8636699999999995,4.2089834,20.999999238184305,-2.598048693150163,4.800060888918919,5.999993868371853,20.444916,-5.028899,2.984929,2.1398658999999998,0
-0.32999999999999874,0.36189148,-5.511323,0.9130915000000001,0.061065048,-0.24187943,-0.9610601000000001,-0.11886288,-2.02809,12.306475,0.44444185,-2.7329307000000003,4.0096099999999995,4.296869,20.999999238184305,-2.598048693150163,4.800060888918919,5.999993868371853,20.444916,-5.028899,2.984929,2.1398658999999998,0
-0.31999999999999873,0.34153720000000004,-5.3877587,0.9179659,0.07697291,-0.23241428,-0.9651724,-0.092198305,-2.0442708,12.405889,0.5305879,-2.7124653,4.1327906,4.380441,20.999840731073434,-1.9987311075944998,5.999999887069992,5.930837022481532,22.694044,-4.136172,3.0711927000000006,1.7646674999999998,0
-0.3099999999999987,0.32097283,-5.263218,0.9237061,0.09368623,-0.22313954,-0.9681053,-0.064832754,-2.070129,12.501642,0.6175643,-2.6022081000000004,4.4241667,4.456519999999999,20.999840731073434,-1.9987311075944998,5.999999887069992,5.930837022481532,22.694044,-4.136172,3.0711927000000006,1.7646674999999998,0
-0.2999999999999987,0.30010048,-5.1377397,0.9303184999999999,0.11147221,-0.21422096,-0.9697061,-0.036781497,-2.1059077,12.59334,0.7049405,-2.509029,4.6700697,4.528865000000001,20.999840731073434,-1.9987311075944998,5.999999887069992,5.930837022481532,22.694044,-4.136172,3.0711927000000006,1.7646674999999998,0
-0.2899999999999987,0.2788198,-5.011366000000001,0.93780464,0.13012739999999998,-0.20553973,-0.9699244,-0.008148858,-2.1518222999999996,12.680552,0.7922465999999999,-2.430278,4.877595400000001,4.597659999999999,20.999840731073434,-1.9987311075944998,5.999999887069992,5.930837022481532,22.694044,-4.136172,3.0711927000000006,1.7646674999999998,0
-0.2799999999999987,0.25702885,-4.8841453,0.9461615,0.14947054,-0.19700108,-0.96871513,0.020968609,-2.2079716,12.762769,0.8790154,-2.3637175999999998,5.052733,4.6630793,19.112468021810397,-1.0692455002789796,5.999999915238829,5.999995805249778,23.489132,-3.331828,3.5907127999999995,2.0868189999999998,0
-0.2699999999999989,0.23465435,-4.756164599999999,0.9552988000000001,0.16935073,-0.18889222,-0.9659690999999999,0.05043097,-2.2683747000000003,12.832567,0.94824576,-2.1625167999999997,5.2009773,4.728682,19.112468021810397,-1.0692455002789796,5.999999915238829,5.999995805249778,23.489132,-3.331828,3.5907127999999995,2.0868189999999998,0
-0.2599999999999989,0.21162975,-4.6275129999999995,0.96512157,0.18964572,-0.18144234,-0.9616109,0.08010664599999999,-2.3379717,12.896979,1.0160581,-1.9926225,5.3260264,4.791066000000001,19.112468021810397,-1.0692455002789796,5.999999915238829,5.999995805249778,23.489132,-3.331828,3.5907127999999995,2.0868189999999998,0
-0.2499999999999989,0.18786393,-4.4982452,0.9756133,0.21023817,-0.17450534,-0.9556488000000001,0.10992060599999999,-2.416582,12.955656,1.0819602,-1.8491606,5.4315085,4.8503885,19.112468021810397,-1.0692455002789796,5.999999915238829,5.999995805249778,23.489132,-3.331828,3.5907127999999995,2.0868189999999998,0
-0.23999999999999888,0.16326797,-4.368420599999999,0.98675257,0.23101893,-0.16796076,-0.9480898000000001,0.13980211,-2.5039523,13.008207,1.1454897,-1.7280167000000002,5.520484,4.9068003,17.961083375553965,-0.598897517340424,5.999999917726027,5.999998478004035,21.786554000000002,-2.8814580000000003,3.8532010000000003,2.2013304,0
-0.22999999999999865,0.13778435,-4.2381177,0.9984654000000001,0.2519154,-0.16188770000000002,-0.9389105,0.16963907,-2.5939875,13.05145,1.1966388000000001,-1.5523666,5.5957713,4.960444,17.961083375553965,-0.598897517340424,5.999999917726027,5.999998478004035,21.786554000000002,-2.8814580000000003,3.8532010000000003,2.2013304,0
-0.21999999999999864,0.11136217400000001,-4.1074142,1.0106747999999999,0.27286354,-0.15634479999999998,-0.9281001,0.19932719,-2.6916006,13.088225,1.2447261,-1.4040661,5.659243,5.011455000000001,17.961083375553965,-0.598897517340424,5.999999917726027,5.999998478004035,21.786554000000002,-2.8814580000000003,3.8532010000000003,2.2013304,0
-0.20999999999999863,0.08392767,-3.9763767999999997,1.023348,0.29377574,-0.15121405,-0.9156827,0.22881146,-2.7963886000000002,13.118216,1.2893546999999999,-1.2788551000000001,5.7127523,5.0599627,17.961083375553965,-0.598897517340424,5.999999917726027,5.999998478004035,21.786554000000002,-2.8814580000000003,3.8532010000000003,2.2013304,0
-0.19999999999999862,0.05541132,-3.8450743999999997,1.0364488,0.31456903,-0.1463979,-0.90168154,0.25803816,-2.9078906000000004,13.141085999999998,1.3301636000000001,-1.1731375,5.757861599999999,5.10609,17.53904953316073,-0.9697532313617291,5.999999830042263,5.999999345024973,22.465654,-2.8384973999999996,3.6236040000000003,2.3972130000000003,0
-0.18999999999999884,0.025762282,-3.7135825,1.0499212,0.33512467,-0.14168298,-0.8861415000000001,0.28700185,-3.022818,13.156125,1.3636652,-1.1417111,5.7956953,5.149954,17.53904953316073,-0.9697532313617291,5.999999830042263,5.999999345024973,22.465654,-2.8384973999999996,3.6236040000000003,2.3972130000000003,0
-0.17999999999999883,-0.005063792,-3.5819786,1.0637072,0.35533112,-0.13690062,-0.86910117,0.3156907,-3.1431992,13.163488000000001,1.3928742,-1.1151596000000001,5.8276153,5.191665599999999,17.53904953316073,-0.9697532313617291,5.999999830042263,5.999999345024973,22.465654,-2.8384973999999996,3.6236040000000003,2.3972130000000003,0
-0.16999999999999882,-0.03711821,-3.4503407,1.0777632,0.37512365,-0.13203782,-0.8505777,0.34404257,-3.268381,13.162803,1.4175841999999998,-1.092726,5.8545465,5.231331,17.53904953316073,-0.9697532313617291,5.999999830042263,5.999999345024973,22.465654,-2.8384973999999996,3.6236040000000003,2.3972130000000003,0
-0.1599999999999988,-0.07044553,-3.3187516,1.0920428,0.39444226,-0.1270855,-0.83059186,0.3719962,-3.3976662,13.153735999999999,1.4376216999999998,-1.0737705,5.8772683,5.2690496,17.53904953316073,-0.9697532313617291,5.999999830042263,5.999999345024973,21.882284,-2.8878915000000003,3.1193504,2.0590565,0
-0.1499999999999988,-0.10508311,-3.187296,1.106499,0.41323102,-0.122037835,-0.809168,0.39949143,-3.5303156,13.136002,1.4528476000000001,-1.0577526000000002,5.8964386,5.3049173,17.53904953316073,-0.9697532313617291,5.999999830042263,5.999999345024973,21.882284,-2.8878915000000003,3.1193504,2.0590565,0
-0.1399999999999988,-0.14106077,-3.056062,1.1210829,0.43143782,-0.11689163,-0.78633404,0.42646912,-3.6655580000000003,13.10936,1.4631582,-1.0442166,5.9126124,5.3390245,17.53904953316073,-0.9697532313617291,5.999999830042263,5.999999345024973,21.882284,-2.8878915000000003,3.1193504,2.0590565,0
-0.12999999999999878,-0.17840044,-2.9251400000000003,1.135745,0.449014,-0.11164589,-0.7621210999999999,0.4528713,-3.8025943999999994,13.073625999999999,1.468486,-1.032777,5.9262586,5.3714585,17.53904953316073,-0.9697532313617291,5.999999830042263,5.999999345024973,21.882284,-2.8878915000000003,3.1193504,2.0590565,0
-0.11999999999999877,-0.21711601,-2.794621,1.1504353,0.46591422,-0.106301434,-0.7365636,0.47864112,-3.940604,13.028669,1.4688002,-1.0231081,5.937772,5.4023012999999995,15.78722725742771,-1.93234059816769,5.0461562412011824,5.999999815358177,21.193022,-3.0086694,2.1775439999999997,1.6978782,0
-0.10999999999999877,-0.25714394,-2.6645717999999996,1.165057,0.48163334,-0.10076813,-0.70992434,0.50386703,-4.0649347,12.979842999999999,1.4548101,-1.1645232,5.798205,5.43163,15.78722725742771,-1.93234059816769,5.0461562412011824,5.999999815358177,21.193022,-3.0086694,2.1775439999999997,1.6978782,0
-0.09999999999999876,-0.29841205,-2.5350525,1.1795171,0.49577823,-0.095001735,-0.68244267,0.5286304000000001,-4.188503,12.922705,1.4366033999999999,-1.2839516000000002,5.680477,5.4595199999999995,15.78722725742771,-1.93234059816769,5.0461562412011824,5.999999815358177,21.193022,-3.0086694,2.1775439999999997,1.6978782,0
-0.08999999999999875,-0.34090847,-2.4061456000000003,1.1937758,0.50846046,-0.08906176,-0.6541220999999999,0.55286497,-4.310454,12.857377,1.4145126000000001,-1.3848116000000001,5.5811725,5.486041,15.78722725742771,-1.93234059816769,5.0461562412011824,5.999999815358177,21.193022,-3.0086694,2.1775439999999997,1.6978782,0
-0.07999999999999874,-0.38461286,-2.2779324,1.2077954,0.51977307,-0.082995094,-0.6249703000000001,0.57650614,-4.429991,12.784042,1.3888707,-1.4699901000000002,5.4974084,5.511261,15.550054306520419,-2.47460187545646,3.718424225860538,5.999999826262371,20.586416,-3.3253262,1.7252721999999998,2.186239,0
-0.06999999999999873,-0.42948859999999994,-2.1504858,1.221537,0.5293448000000001,-0.077017635,-0.5953007,0.5995656,-4.544620500000001,12.704174,1.3590014,-1.6257441000000001,5.2193913,5.5352440000000005,15.550054306520419,-2.47460187545646,3.718424225860538,5.999999826262371,20.586416,-3.3253262,1.7252721999999998,2.186239,0
-0.05999999999999872,-0.47549227,-2.023874,1.2349665,0.5369147,-0.07132379,-0.56539094,0.6220675,-4.6554694,12.617106,1.3265265,-1.7573528000000003,4.984815,5.558049700000001,15.550054306520419,-2.47460187545646,3.718424225860538,5.999999826262371,20.586416,-3.3253262,1.7252721999999998,2.186239,0
-0.04999999999999871,-0.522583,-1.8981668,1.2480607,0.54269964,-0.06591203,-0.5352020000000001,0.64396495,-4.7619615,12.52334,1.2920083,-1.8685598,4.7868934,5.5797360000000005,15.550054306520419,-2.47460187545646,3.718424225860538,5.999999826262371,20.586416,-3.3253262,1.7252721999999998,2.186239,0
-0.0399999999999987,-0.57071483,-1.7734286,1.2608016000000002,0.5468795999999999,-0.06077397,-0.5047023,0.6652099,-4.8636055,12.423377,1.255968,-1.9625281000000003,4.619898,5.6003585,15.337543707636266,-3.255556438744542,2.4685539424471736,5.999999847357372,17.82594,-3.996063,1.1419218,2.653775,0
