time-since-start [s],throttle_mpc,roll_mpc,pitch_mpc,yaw_mpc,throttle_nw,roll_nw,pitch_nw,yaw_nw,position_x [m],position_y [m],position_z [m],rotation_w [quaternion],rotation_x [quaternion],rotation_y [quaternion],rotation_z [quaternion],velocity_x [m/s],velocity_y [m/s],velocity_z [m/s],omega_x [rad/s],omega_y [rad/s],omega_z [rad/s],network_used
0.0,16.842893633764287,5.99999935959522,-5.999999857852842,-2.4373588749022406,16.910244,-0.98518234,-3.3906398,-0.81635267,16.658035,-10.491577,1.3071088,-0.123516634,0.39882177,-0.23792987,-0.87696874,-8.7808275,-3.484091,-0.582589,1.3861026,-0.16205937,-0.108736776,0
0.01,16.842893633764287,5.99999935959522,-5.999999857852842,-2.4373588749022406,9.364595,0.3733746,-4.8784585,-0.3978913,16.569605,-10.525913,1.3013461,-0.12798846,0.3958556,-0.24438815,-0.8758948,-8.904557,-3.3830502,-0.5704871,1.839076,-0.8061516,-0.19913779,0
0.02,16.842893633764287,5.99999935959522,-5.999999857852842,-2.4373588749022406,9.364595,0.3733746,-4.8784585,-0.3978913,16.479965,-10.559238,1.2956886,-0.13448218,0.38995597,-0.25219214,-0.8753559,-9.022668,-3.2819138,-0.5614125,2.2756636,-1.404172,-0.28996056,0
0.03,16.842893633764287,5.99999935959522,-5.999999857852842,-2.4373588749022406,9.364595,0.3733746,-4.8784585,-0.3978913,16.389174,-10.59155,1.2901096,-0.14291188,0.3812859,-0.26125997,-0.87518024,-9.134288,-3.1801257,-0.5547092,2.6960855,-1.96096,-0.38097492,0
0.04,16.842893633764287,5.99999935959522,-5.999999857852842,-2.4373588749022406,11.501233,0.49491823,-4.9222455,-0.4811201,16.297302,-10.622838,1.284588,-0.15318806,0.36997804,-0.2715007,-0.8751783,-9.238627,-3.077256,-0.54986227,3.1006942,-2.4807692,-0.47197694,0
0.05,16.842893633764287,5.99999935959522,-5.999999857852842,-2.4373588749022406,11.501233,0.49491823,-4.9222455,-0.4811201,16.204428,-10.6530905,1.2791073,-0.16521697,0.35614076,-0.2828157,-0.87514704,-9.334952,-2.973004,-0.5464889,3.489939,-2.9673398,-0.5627863,0
0.060000000000000005,16.842893633764287,5.99999935959522,-5.999999857852842,-2.4373588749022406,11.501233,0.49491823,-4.9222455,-0.4811201,16.110632,-10.682293,1.2736541,-0.17890005,0.33986422,-0.29509935,-0.87487334,-9.422575,-2.8672013,-0.5443288,3.8643367,-3.423969,-0.6532439,0
0.07,16.842893633764287,5.99999935959522,-5.999999857852842,-2.4373588749022406,11.501233,0.49491823,-4.9222455,-0.4811201,16.016,-10.710423,1.2682229,-0.19409657,0.3212794,-0.3082055,-0.874137,-9.502059,-2.7581332,-0.5416906,4.1970043,-3.8260798,-0.74079096,0
0.08,18.513805214497793,5.99999922986936,-5.9999998958772345,-2.6831884769538656,12.806798,0.6149647,-5.1238604,-0.004304489,15.920618,-10.737442,1.2628254,-0.21056847,0.3006503,-0.32190087,-0.87272567,-9.573246,-2.644783,-0.5375912,4.4777923,-4.165479,-0.8240421,0
0.09,18.513805214497793,5.99999922986936,-5.9999998958772345,-2.6831884769538656,12.806798,0.6149647,-5.1238604,-0.004304489,15.824537,-10.7632475,1.257527,-0.22811137,0.27824253,-0.3359578,-0.8704473,-9.641341,-2.5156705,-0.521856,4.714762,-4.4519787,-0.9152709,0
0.09999999999999999,18.513805214497793,5.99999922986936,-5.9999998958772345,-2.6831884769538656,12.806798,0.6149647,-5.1238604,-0.004304489,15.72783,-10.78774,1.2523925,-0.24654283,0.25429145,-0.35017958,-0.86713696,-9.698349,-2.382397,-0.50483614,4.9147854,-4.693788,-1.0020231,0
0.10999999999999999,18.513805214497793,5.99999922986936,-5.9999998958772345,-2.6831884769538656,12.806798,0.6149647,-5.1238604,-0.004304489,15.630611,-10.810883,1.2474335,-0.26567367,0.22899842,-0.36440495,-0.8626622,-9.743442,-2.2454674,-0.48683143,5.083628,-4.8978744,-1.0845186,0
0.11999999999999998,18.513805214497793,5.99999922986936,-5.9999998958772345,-2.6831884769538656,12.806798,0.6149647,-5.1238604,-0.004304489,15.533005,-10.832641,1.2426581,-0.28533265,0.20254487,-0.37849474,-0.85691446,-9.775904,-2.1055186,-0.46821412,5.2261558,-5.0701175,-1.1629658,0
0.12999999999999998,20.563051872719836,4.122174831955108,-5.9999998734217534,-1.3808848378242,14.681217,0.053613834,-4.3733473,0.13386248,15.435139,-10.852985,1.23807,-0.30536434,0.17509574,-0.39232892,-0.8498069,-9.795138,-1.9632995,-0.44941524,5.3464727,-5.215483,-1.2375636,0
0.13999999999999999,20.563051872719836,4.122174831955108,-5.9999998734217534,-1.3808848378242,14.681217,0.053613834,-4.3733473,0.13386248,15.337145,-10.871822,1.2337334,-0.32536983,0.14697547,-0.40520057,-0.84163225,-9.801332,-1.8037878,-0.41796523,5.1554213,-5.3376975,-1.2445964,0
0.15,20.563051872719836,4.122174831955108,-5.9999998734217534,-1.3808848378242,14.681217,0.053613834,-4.3733473,0.13386248,15.239164,-10.889061,1.2297087,-0.34504136,0.118473105,-0.41657132,-0.8326936,-9.792277,-1.643941,-0.387097,4.9941797,-5.440874,-1.2512841,0
0.16,20.160199842158022,1.6194671563841736,-5.006994658901631,0.2505063322730264,13.440583,-1.0594965,-3.1530113,0.12605761,15.141351,-10.904705,1.2259886,-0.3643651,0.08967822,-0.4265727,-0.8229406,-9.7680855,-1.4850028,-0.3570593,4.858097,-5.5279784,-1.2576437,0
0.17,20.160199842158022,1.6194671563841736,-5.006994658901631,0.2505063322730264,13.440583,-1.0594965,-3.1530113,0.12605761,15.04385,-10.918784,1.2225512,-0.3829128,0.06128204,-0.43467015,-0.81282455,-9.729801,-1.3312447,-0.33058172,4.353364,-5.4461064,-1.1836385,0
0.18000000000000002,20.160199842158022,1.6194671563841736,-5.006994658901631,0.2505063322730264,13.440583,-1.0594965,-3.1530113,0.12605761,14.946801,-10.931341,1.2193733,-0.40038007,0.033845223,-0.4405015,-0.8028127,-9.677779,-1.1807001,-0.30515698,3.9273143,-5.377117,-1.1132646,0
0.19000000000000003,20.160199842158022,1.6194671563841736,-5.006994658901631,0.2505063322730264,13.440583,-1.0594965,-3.1530113,0.12605761,14.850337,-10.942413,1.2164447,-0.41690755,0.0072564073,-0.4443949,-0.7928734,-9.612969,-1.034369,-0.28071433,3.567681,-5.3189793,-1.0463439,0
0.20000000000000004,19.039640357785736,0.13747764137767451,-3.4008445561157665,0.5537091938960462,15.291522,-2.2610793,-1.3048049,0.2705852,14.754582,-10.952047,1.2137558,-0.4326049,-0.01858464,-0.4466215,-0.78296643,-9.536253,-0.8931002,-0.2572066,3.26411,-5.269983,-0.9827071,0
0.21000000000000005,19.039640357785736,0.13747764137767451,-3.4008445561157665,0.5537091938960462,15.291522,-2.2610793,-1.3048049,0.2705852,14.659626,-10.960335,1.2112639,-0.44726402,-0.043022994,-0.44723186,-0.77336097,-9.453393,-0.7651232,-0.2413043,2.7769458,-4.978042,-0.9073147,0
0.22000000000000006,19.039640357785736,0.13747764137767451,-3.4008445561157665,0.5537091938960462,15.291522,-2.2610793,-1.3048049,0.2705852,14.565547,-10.967371,1.2089273,-0.46075946,-0.065550424,-0.44631875,-0.76433176,-9.361262,-0.6429702,-0.2261226,2.3656898,-4.7317243,-0.83562183,0
0.23000000000000007,19.039640357785736,0.13747764137767451,-3.4008445561157665,0.5537091938960462,15.291522,-2.2610793,-1.3048049,0.2705852,14.472429,-10.973216,1.2067397,-0.47327355,-0.086450145,-0.4441367,-0.7558311,-9.260976,-0.52686507,-0.2115039,2.018516,-4.523895,-0.76744694,0
0.24000000000000007,19.039640357785736,0.13747764137767451,-3.4008445561157665,0.5537091938960462,14.584939,-3.4479556,0.18040936,0.3837395,14.380352,-10.977929,1.2046958,-0.48495087,-0.10596548,-0.4408907,-0.74780273,-9.153488,-0.41695958,-0.19730327,1.7254411,-4.3485355,-0.70261747,0
0.25000000000000006,19.039640357785736,0.13747764137767451,-3.4008445561157665,0.5537091938960462,14.584939,-3.4479556,0.18040936,0.3837395,14.289382,-10.981575,1.2027925,-0.4959063,-0.12430441,-0.43674633,-0.74018747,-9.039622,-0.31335732,-0.1833945,1.4780358,-4.2005706,-0.64096916,0
0.26000000000000006,19.039640357785736,0.13747764137767451,-3.4008445561157665,0.5537091938960462,14.584939,-3.4479556,0.18040936,0.3837395,14.199579,-10.984218,1.2010273,-0.5062314,-0.14164391,-0.43183777,-0.7329272,-8.920089,-0.21612974,-0.16967307,1.2691846,-4.0757174,-0.5823459,0
0.2700000000000001,19.039640357785736,0.13747764137767451,-3.4008445561157665,0.5537091938960462,14.584939,-3.4479556,0.18040936,0.3837395,14.110998,-10.985919,1.1993986,-0.51599926,-0.15813415,-0.42627424,-0.72596693,-8.795509,-0.12532711,-0.15605687,1.09288,-3.9703643,-0.52659935,0
0.2800000000000001,17.595732382943293,-1.521556554869898,-1.3078509076751716,1.278215031934772,15.3528385,-3.5203073,0.95068306,0.5003841,14.023685,-10.986745,1.1979059,-0.5252684,-0.17390202,-0.42014474,-0.71925586,-8.666428,-0.040986165,-0.14248607,0.94405043,-3.8814642,-0.47358832,0
0.2900000000000001,17.595732382943293,-1.521556554869898,-1.3078509076751716,1.278215031934772,15.3528385,-3.5203073,0.95068306,0.5003841,13.937633,-10.986791,1.1965066,-0.5337965,-0.18814301,-0.41347805,-0.7132312,-8.543473,0.031016383,-0.13736093,0.5598605,-3.47996,-0.38762683,0
0.3000000000000001,17.595732382943293,-1.521556554869898,-1.3078509076751716,1.278215031934772,15.3528385,-3.5203073,0.95068306,0.5003841,13.852825,-10.986144,1.1951596,-0.54142445,-0.20023756,-0.4063259,-0.70828176,-8.417609,0.09742979,-0.13199145,0.23551883,-3.1411254,-0.30588353,0
0.3100000000000001,17.595732382943293,-1.521556554869898,-1.3078509076751716,1.278215031934772,15.3528385,-3.5203073,0.95068306,0.5003841,13.769287,-10.984859,1.1938685,-0.5482982,-0.21053217,-0.3987779,-0.7042874,-8.28956,0.15868458,-0.12611924,-0.038293563,-2.8551738,-0.22815132,0
0.3200000000000001,16.540891821643353,-2.824517188841922,0.9718277506937248,1.4121548116464733,15.321036,-4.913303,2.7696395,1.0356066,13.687038,-10.982986,1.1926397,-0.5545318,-0.21931776,-0.39090136,-0.7011345,-8.15992,0.21516189,-0.11951565,-0.26944512,-2.6138477,-0.15423349,0
0.3300000000000001,16.540891821643353,-2.824517188841922,0.9718277506937248,1.4121548116464733,15.321036,-4.913303,2.7696395,1.0356066,13.606052,-10.980587,1.1914499,-0.5599683,-0.2259172,-0.38288873,-0.69913685,-8.037058,0.26413614,-0.11829269,-0.66774654,-2.0546556,-0.07737034,0
0.34000000000000014,16.540891821643353,-2.824517188841922,0.9718277506937248,1.4121548116464733,15.321036,-4.913303,2.7696395,1.0356066,13.526298,-10.9777155,1.1902779,-0.56450397,-0.22980909,-0.3749043,-0.69854784,-7.9138536,0.30966955,-0.115861356,-1.0039932,-1.5827072,-0.0042789318,0
0.35000000000000014,16.540891821643353,-2.824517188841922,0.9718277506937248,1.4121548116464733,15.321036,-4.913303,2.7696395,1.0356066,13.447774,-10.974402,1.1891378,-0.5682809,-0.2314246,-0.36694893,-0.6991762,-7.790922,0.35246283,-0.11190244,-1.287847,-1.1843857,0.0652259,0
0.36000000000000015,16.331377523870067,-3.812167775422843,3.166222877937676,1.451541002630921,15.253263,-4.5416718,4.5109873,1.3275887,13.370477,-10.970674,1.188046,-0.57140595,-0.23112363,-0.35901457,-0.70084596,-7.6687737,0.39311048,-0.106142,-1.5274669,-0.84820086,0.13132007,0
0.37000000000000016,16.331377523870067,-3.812167775422843,3.166222877937676,1.451541002630921,15.253263,-4.5416718,4.5109873,1.3275887,13.294388,-10.966549,1.1870153,-0.5737344,-0.2283663,-0.3513127,-0.70374453,-7.549404,0.431678,-0.099675596,-1.8838072,-0.22226277,0.19610369,0
0.38000000000000017,16.331377523870067,-3.812167775422843,3.166222877937676,1.451541002630921,15.253263,-4.5416718,4.5109873,1.3275887,13.219483,-10.962043,1.1860604,-0.5751495,-0.22273247,-0.34400424,-0.7079928,-7.431855,0.46948296,-0.0908946,-2.1846123,0.30604434,0.25770834,0
0.3900000000000002,16.331377523870067,-3.812167775422843,3.166222877937676,1.451541002630921,15.253263,-4.5416718,4.5109873,1.3275887,13.145742,-10.957159,1.1852063,-0.57575214,-0.21465835,-0.3370041,-0.7133434,-7.316711,0.5073092,-0.07953563,-2.4385316,0.75195265,0.31629005,0
0.4000000000000002,16.81829167382367,-4.192257592152642,4.596417254783091,1.5553425352340873,17.484835,-5.4691796,5.7276607,1.0750577,13.073138,-10.951895,1.1844795,-0.57561487,-0.20450974,-0.3302346,-0.7195747,-7.204497,0.5458023,-0.065403216,-2.652867,1.1283168,0.37199715,0
0.4100000000000002,16.81829167382367,-4.192257592152642,4.596417254783091,1.5553425352340873,17.484835,-5.4691796,5.7276607,1.0750577,13.001656,-10.946234,1.1839254,-0.5746214,-0.19209751,-0.3238424,-0.7266596,-7.0924687,0.5867105,-0.044930007,-2.8931272,1.668998,0.43006423,0
0.4200000000000002,16.81829167382367,-4.192257592152642,4.596417254783091,1.5553425352340873,17.484835,-5.4691796,5.7276607,1.0750577,12.931274,-10.940153,1.1835914,-0.5726658,-0.17728087,-0.31793013,-0.7345373,-6.984565,0.62958014,-0.021367755,-3.0959291,2.1253595,0.48528194,0
0.4300000000000002,16.81829167382367,-4.192257592152642,4.596417254783091,1.5553425352340873,17.484835,-5.4691796,5.7276607,1.0750577,12.861949,-10.933633,1.1835086,-0.5698052,-0.16041088,-0.3123734,-0.7429754,-6.8813844,0.6750406,0.0053090234,-3.2671077,2.510554,0.5377902,0
0.4400000000000002,16.81829167382367,-4.192257592152642,4.596417254783091,1.5553425352340873,19.070637,-5.9108043,6.0502777,0.7520838,12.79363,-10.926642,1.183708,-0.5660815,-0.14178726,-0.3070657,-0.75176984,-6.7834973,0.7235823,0.03504979,-3.4115899,2.835682,0.58772177,0
0.45000000000000023,16.81829167382367,-4.192257592152642,4.596417254783091,1.5553425352340873,19.070637,-5.9108043,6.0502777,0.7520838,12.726259,-10.919149,1.1842197,-0.5615268,-0.12166759,-0.30191717,-0.7607429,-6.691446,0.775573,0.06773391,-3.5335352,3.110112,0.6352032,0
0.46000000000000024,16.81829167382367,-4.192257592152642,4.596417254783091,1.5553425352340873,19.070637,-5.9108043,6.0502777,0.7520838,12.659779,-10.9111185,1.1850722,-0.5561668,-0.10027456,-0.29685274,-0.7697409,-6.605747,0.83127177,0.103177264,-3.6364565,3.341751,0.68035465,0
0.47000000000000025,16.81829167382367,-4.192257592152642,4.596417254783091,1.5553425352340873,19.070637,-5.9108043,6.0502777,0.7520838,12.594121,-10.902511,1.1862919,-0.5500235,-0.07780169,-0.29181045,-0.7786313,-6.52689,0.89084166,0.14113927,-3.7233183,3.537273,0.7232906,0
0.48000000000000026,17.425448671420032,-4.001840438364658,4.995447929673033,1.5394147715269066,21.448961,-5.9362454,6.0020337,0.55283004,12.529217,-10.893288,1.1879026,-0.5431165,-0.05441803,-0.2867396,-0.7873008,-6.455332,0.9543601,0.1813299,-3.7966254,3.7023106,0.7641197,0
0.49000000000000027,17.425448671420032,-4.001840438364658,4.995447929673033,1.5394147715269066,21.448961,-5.9362454,6.0020337,0.55283004,12.464999,-10.883398,1.1899502,-0.53541595,-0.030186374,-0.2817456,-0.7956362,-6.389193,1.0242769,0.22847143,-3.8288252,3.903864,0.80216366,0
0.5000000000000002,17.425448671420032,-4.001840438364658,4.995447929673033,1.5394147715269066,21.448961,-5.9362454,6.0020337,0.55283004,12.401402,-10.872788,1.1924772,-0.5269026,-0.0051674745,-0.27690983,-0.80353403,-6.331464,1.0983119,0.27714863,-3.8559916,4.0739903,0.8383408,0
0.5100000000000002,17.425448671420032,-4.001840438364658,4.995447929673033,1.5394147715269066,21.448961,-5.9362454,6.0020337,0.55283004,12.33834,-10.861418,1.1954968,-0.51760805,0.02050098,-0.27216262,-0.81091815,-6.282515,1.1764249,0.32689786,-3.8789093,4.2175922,0.8727427,0
0.5200000000000002,17.75366766321111,-3.368814990663222,4.540570366595282,1.3745875757506532,21.919254,-5.231429,5.796434,0.8243202,12.275722,-10.849247,1.1990173,-0.5075611,0.046696443,-0.267447,-0.8177239,-6.2426786,1.2585028,0.37723294,-3.8982418,4.3388047,0.90545654,0
0.5300000000000002,17.75366766321111,-3.368814990663222,4.540570366595282,1.3745875757506532,21.919254,-5.231429,5.796434,0.8243202,12.213458,-10.836228,1.2030559,-0.49687073,0.073038295,-0.26283306,-0.8238341,-6.2116485,1.3459817,0.4304455,-3.8157623,4.370261,0.9284769,0
0.5400000000000003,17.75366766321111,-3.368814990663222,4.540570366595282,1.3745875757506532,21.919254,-5.231429,5.796434,0.8243202,12.151456,-10.822315,1.2076247,-0.48564842,0.099218175,-0.25838476,-0.8291789,-6.1902647,1.437055,0.48320764,-3.7461395,4.396809,0.95036775,0
0.5500000000000003,17.75366766321111,-3.368814990663222,4.540570366595282,1.3745875757506532,21.919254,-5.231429,5.796434,0.8243202,12.089621,-10.807475,1.2127167,-0.47392148,0.1252311,-0.2540505,-0.83377033,-6.178546,1.5314261,0.5350004,-3.6873698,4.4192147,0.9711843,0
0.5600000000000003,17.715136688458962,-2.4516608399250024,3.562220550040288,1.124111808894099,20.69575,-4.378535,5.2729034,1.1309571,12.027852,-10.791677,1.2183195,-0.46171367,0.15106928,-0.24978673,-0.8376181,-6.1764927,1.6287771,0.5853243,-3.6377606,4.4381247,0.99097943,0
0.5700000000000003,17.715136688458962,-2.4516608399250024,3.562220550040288,1.124111808894099,20.69575,-4.378535,5.2729034,1.1309571,11.966057,-10.774893,1.2244147,-0.44923252,0.17623585,-0.24568367,-0.8406959,-6.1840267,1.7285466,0.6333887,-3.4527192,4.301633,0.9975123,0
0.5800000000000003,17.715136688458962,-2.4516608399250024,3.562220550040288,1.124111808894099,20.69575,-4.378535,5.2729034,1.1309571,11.90414,-10.757099,1.2309791,-0.43667483,0.20034587,-0.24182606,-0.8430278,-6.200834,1.8305548,0.67911917,-3.296547,4.18641,1.0037245,0
0.5900000000000003,17.715136688458962,-2.4516608399250024,3.562220550040288,1.124111808894099,20.69575,-4.378535,5.2729034,1.1309571,11.8420105,-10.738276,1.2379878,-0.42404187,0.22354068,-0.23817037,-0.84468454,-6.226545,1.9344223,0.72217953,-3.1647398,4.0891423,1.009632,0
0.6000000000000003,17.648311117434332,-1.3940763442174808,2.346765911586784,0.879245067687516,21.571335,-3.054159,4.121431,1.209638,11.77958,-10.718406,1.2454125,-0.41133165,0.24593835,-0.23467782,-0.84572214,-6.260826,2.0397975,0.76227134,-3.0534964,4.007031,1.0152496,0
0.6100000000000003,17.648311117434332,-1.3940763442174808,2.346765911586784,0.879245067687516,21.571335,-3.054159,4.121431,1.209638,11.716766,-10.697477,1.2532197,-0.3987912,0.2670633,-0.23146935,-0.84620553,-6.3031635,2.1459458,0.79863495,-2.7945235,3.748297,1.0085758,0
0.6200000000000003,17.648311117434332,-1.3940763442174808,2.346765911586784,0.879245067687516,21.571335,-3.054159,4.121431,1.209638,11.653491,-10.675484,1.2613738,-0.38664228,0.28656036,-0.22865218,-0.8462317,-6.3530965,2.2529473,0.8316783,-2.5759666,3.5298831,1.0022296,0
0.6300000000000003,17.648311117434332,-1.3940763442174808,2.346765911586784,0.879245067687516,21.571335,-3.054159,4.121431,1.209638,11.589681,-10.652416,1.2698416,-0.3748419,0.30468118,-0.22617276,-0.84587693,-6.4100204,2.3605316,0.8613561,-2.3915179,3.3455067,0.99619466,0
0.6400000000000003,17.648311117434332,-1.3940763442174808,2.346765911586784,0.879245067687516,19.79052,-1.9436656,3.0261211,1.1865832,11.525269,-10.628271,1.2785891,-0.36334807,0.32163644,-0.22398227,-0.8451976,-6.4734163,2.4684715,0.8876433,-2.2358546,3.1898632,0.99045587,0
0.6500000000000004,17.648311117434332,-1.3940763442174808,2.346765911586784,0.879245067687516,19.79052,-1.9436656,3.0261211,1.1865832,11.460192,-10.603046,1.2875826,-0.3521211,0.3376024,-0.22203688,-0.84423566,-6.542839,2.5765743,0.9105265,-2.1044838,3.0584748,0.9849987,0
0.6600000000000004,17.648311117434332,-1.3940763442174808,2.346765911586784,0.879245067687516,19.79052,-1.9436656,3.0261211,1.1865832,11.394392,-10.57674,1.296788,-0.3411244,0.35272646,-0.22029759,-0.843022,-6.6179047,2.6846714,0.92999893,-1.9936152,2.9475617,0.97980934,0
0.6700000000000004,17.648311117434332,-1.3940763442174808,2.346765911586784,0.879245067687516,19.79052,-1.9436656,3.0261211,1.1865832,11.327815,-10.549354,1.3061711,-0.33032465,0.36713165,-0.21872991,-0.84157956,-6.6982794,2.7926123,0.9460564,-1.9000486,2.8539338,0.9748746,0
0.6800000000000004,17.212429713396375,-0.3531453133463347,1.016154967327023,0.6633188090635386,19.683495,-0.9300323,1.9955418,0.8659043,11.260408,-10.520888,1.3156976,-0.3196921,0.38092065,-0.21730365,-0.8399253,-6.7836733,2.900261,0.95869523,-1.8210838,2.7748969,0.97018206,0
0.6900000000000004,17.212429713396375,-0.3531453133463347,1.016154967327023,0.6633188090635386,19.683495,-0.9300323,1.9955418,0.8659043,11.192136,-10.491363,1.32532,-0.30950108,0.39360908,-0.21616527,-0.83818406,-6.871563,3.0048509,0.9652888,-1.5919619,2.5007825,0.9551242,0
0.7000000000000004,17.212429713396375,-0.3531453133463347,1.016154967327023,0.6633188090635386,19.683495,-0.9300323,1.9955418,0.8659043,11.122963,-10.460793,1.3349926,-0.29998305,0.40483412,-0.215438,-0.83648366,-6.963562,3.108987,0.9687595,-1.3986039,2.269389,0.9408052,0
0.7100000000000004,17.212429713396375,-0.3531453133463347,1.016154967327023,0.6633188090635386,19.683495,-0.9300323,1.9955418,0.8659043,11.052853,-10.429184,1.3446853,-0.2910522,0.4148356,-0.21506356,-0.8348334,-7.059175,3.2126534,0.96933395,-1.235427,2.0740585,0.9271889,0
0.7200000000000004,16.573699429200538,0.654445600465444,-0.4590257137331939,0.4674693264850287,18.965366,0.37491402,0.28789562,0.7323136,10.9817705,-10.396541,1.3543701,-0.2826322,0.42381296,-0.2149903,-0.83323455,-7.157989,3.3158486,0.9672132,-1.0977199,1.9091715,0.91424066,0
0.7300000000000004,16.573699429200538,0.654445600465444,-0.4590257137331939,0.4674693264850287,18.965366,0.37491402,0.28789562,0.7323136,10.909703,-10.362887,1.3640037,-0.27497634,0.43133512,-0.2153344,-0.8318462,-7.2558484,3.4147768,0.95913875,-0.8242287,1.5400269,0.8923174,0
0.7400000000000004,16.573699429200538,0.654445600465444,-0.4590257137331939,0.4674693264850287,18.965366,0.37491402,0.28789562,0.7323136,10.836646,-10.328246,1.3735459,-0.26829043,0.43707946,-0.21619046,-0.8308083,-7.355883,3.513352,0.94903946,-0.59343225,1.2284181,0.87147,0
0.7500000000000004,16.573699429200538,0.654445600465444,-0.4590257137331939,0.4674693264850287,18.965366,0.37491402,0.28789562,0.7323136,10.76258,-10.292621,1.3829787,-0.26244467,0.44134074,-0.2174848,-0.83008456,-7.4575725,3.6116858,0.9372994,-0.3986644,0.96537787,0.8516456,0
0.7600000000000005,16.18709677551251,1.4845061784994538,-1.846490710487227,0.3191270609200117,17.285275,1.4872235,-0.67491776,0.470996,10.68749,-10.256013,1.3922874,-0.2573254,0.44436303,-0.21915233,-0.8296362,-7.5604877,3.7098885,0.92424804,-0.2343002,0.7433372,0.83279395,0
0.7700000000000005,16.18709677551251,1.4845061784994538,-1.846490710487227,0.3191270609200117,17.285275,1.4872235,-0.67491776,0.470996,10.61138,-10.218434,1.4014505,-0.25311902,0.44580775,-0.22126189,-0.82959527,-7.661817,3.8057837,0.90823716,0.033971623,0.33960024,0.80758816,0
0.7800000000000005,16.18709677551251,1.4845061784994538,-1.846490710487227,0.3191270609200117,17.285275,1.4872235,-0.67491776,0.470996,10.534254,-10.179896,1.4104505,-0.24997027,0.44541737,-0.22386545,-0.8300611,-7.7634478,3.901821,0.89168596,0.26036116,-0.001204446,0.7836192,0
0.7900000000000005,16.18709677551251,1.4845061784994538,-1.846490710487227,0.3191270609200117,17.285275,1.4872235,-0.67491776,0.470996,10.456112,-10.140397,1.4192839,-0.24772872,0.4434836,-0.22688523,-0.8309481,-7.8648815,3.9981635,0.87501967,0.4514086,-0.288885,0.7608264,0
0.8000000000000005,16.25663292915953,2.0084294904621984,-2.7518162060906137,0.23307560727033524,18.351414,2.1549053,-1.2604804,0.3367783,10.376958,-10.099932,1.4279516,-0.2462639,0.4402479,-0.2302529,-0.8321769,-7.965695,4.094955,0.85859084,0.6126326,-0.5317214,0.7391521,0
0.8100000000000005,16.25663292915953,2.0084294904621984,-2.7518162060906137,0.23307560727033524,18.351414,2.1549053,-1.2604804,0.3367783,10.296799,-10.058493,1.4364593,-0.24564762,0.43555963,-0.23398964,-0.83378226,-8.06593,4.1927433,0.84306127,0.830459,-0.8778524,0.71431875,0
0.8200000000000005,16.25663292915953,2.0084294904621984,-2.7518162060906137,0.23307560727033524,18.351414,2.1549053,-1.2604804,0.3367783,10.215644,-10.016073,1.444816,-0.24592899,0.42930445,-0.2381061,-0.83577573,-8.16469,4.291257,0.82844245,1.0142809,-1.1700261,0.690704,0
0.8300000000000005,16.25663292915953,2.0084294904621984,-2.7518162060906137,0.23307560727033524,18.351414,2.1549053,-1.2604804,0.3367783,10.133511,-9.972664,1.4530324,-0.24697182,0.42171466,-0.24253201,-0.83805656,-8.26152,4.390624,0.8150617,1.1694081,-1.4166527,0.66824806,0
0.8400000000000005,16.25663292915953,2.0084294904621984,-2.7518162060906137,0.23307560727033524,17.616554,2.408129,-2.0763779,-0.16637833,10.050421,-9.928256,1.4611223,-0.24865882,0.41298428,-0.2472063,-0.840536,-8.356022,4.4909415,0.8031753,1.3003211,-1.6248318,0.646894,0
0.8500000000000005,16.25663292915953,2.0084294904621984,-2.7518162060906137,0.23307560727033524,17.616554,2.408129,-2.0763779,-0.16637833,9.966399,-9.882841,1.4691017,-0.25088924,0.40327615,-0.2520762,-0.8431367,-8.447841,4.5922794,0.7929782,1.4108006,-1.8005567,0.6265878,0
0.8600000000000005,16.25663292915953,2.0084294904621984,-2.7518162060906137,0.23307560727033524,17.616554,2.408129,-2.0763779,-0.16637833,9.881474,-9.836407,1.4769882,-0.2535766,0.39272743,-0.25709638,-0.8457923,-8.536655,4.6946816,0.784613,1.5040365,-1.9488859,0.60727805,0
0.8700000000000006,16.25663292915953,2.0084294904621984,-2.7518162060906137,0.23307560727033524,17.616554,2.408129,-2.0763779,-0.16637833,9.795677,-9.788943,1.4848006,-0.25664675,0.38145417,-0.26222798,-0.8484461,-8.62218,4.798169,0.7781767,1.582721,-2.0740902,0.5889158,0
0.8800000000000006,16.141742256719336,2.232908163865194,-3.2570897943581354,0.1367497643249167,15.522123,1.9941992,-2.712525,-0.36706552,9.709043,-9.740439,1.4925586,-0.26003608,0.36955482,-0.26743782,-0.85105026,-8.704157,4.902743,0.7737281,1.6491259,-2.1797745,0.5714547,1
0.8900000000000006,16.141742256719336,2.232908163865194,-3.2570897943581354,0.1367497643249167,15.522123,1.9941992,-2.712525,-0.36706552,9.621625,-9.690909,1.5002606,-0.2637471,0.3571481,-0.27266973,-0.85354143,-8.778818,5.003612,0.7669697,1.7029029,-2.262888,0.52540123,1
0.9000000000000006,16.141742256719336,2.232908163865194,-3.2570897943581354,0.1367497643249167,15.522123,1.9941992,-2.712525,-0.36706552,9.53348,-9.640365,1.5079046,-0.2677877,0.34433714,-0.27787519,-0.8558657,-8.849671,5.10547,0.76212645,1.7482879,-2.3330429,0.48160765,1
0.9100000000000006,16.141742256719336,2.232908163865194,-3.2570897943581354,0.1367497643249167,15.522123,1.9941992,-2.712525,-0.36706552,9.444645,-9.588798,1.5155096,-0.27211422,0.33117837,-0.2830387,-0.8579993,-8.91654,5.2082725,0.7591698,1.7865914,-2.3922591,0.439963,1
0.9200000000000006,15.962030735506087,2.230784243820972,-3.391329249053107,0.04648326450366749,15.177456,2.0434403,-2.8010883,-0.26250157,9.355163,-9.536197,1.5230943,-0.2766885,0.3177201,-0.28814757,-0.85992295,-8.979265,5.3119617,0.7580539,1.8189188,-2.442242,0.4003619,1
0.9300000000000006,15.962030735506087,2.230784243820972,-3.391329249053107,0.04648326450366749,15.177456,2.0434403,-2.8010883,-0.26250157,9.265081,-9.482568,1.530666,-0.28148228,0.3039639,-0.29320246,-0.8616293,-9.036404,5.4141517,0.75652677,1.8538945,-2.4982338,0.367835,1
0.9400000000000006,15.962030735506087,2.230784243820972,-3.391329249053107,0.04648326450366749,15.177456,2.0434403,-2.8010883,-0.26250157,9.17445,-9.427912,1.5382308,-0.28646815,0.28991252,-0.29820338,-0.8631109,-9.089204,5.5170712,0.7566788,1.8834141,-2.5454946,0.33690417,1
0.9500000000000006,15.962030735506087,2.230784243820972,-3.391329249053107,0.04648326450366749,15.177456,2.0434403,-2.8010883,-0.26250157,9.083313,-9.372224,1.5458051,-0.29161575,0.27560622,-0.30313993,-0.8643533,-9.137534,5.6206393,0.75843686,1.9083294,-2.585385,0.30749118,1
0.9600000000000006,15.867467177160064,2.080365903506986,-3.2197241953472986,-0.020558551982146196,18.111609,2.139397,-4.4121027,0.1669374,8.991716,-9.315497,1.5534047,-0.29689863,0.26107964,-0.30800352,-0.8653447,-9.181274,5.7247677,0.7617164,1.9293588,-2.6190548,0.27952147,0
0.9700000000000006,15.867467177160064,2.080365903506986,-3.2197241953472986,-0.020558551982146196,18.111609,2.139397,-4.4121027,0.1669374,8.899696,-9.257703,1.5610677,-0.3023227,0.24620369,-0.31275722,-0.86612165,-9.222084,5.8341126,0.7711047,1.9528993,-2.7127438,0.26479647,0
0.9800000000000006,15.867467177160064,2.080365903506986,-3.2197241953472986,-0.020558551982146196,18.111609,2.139397,-4.4121027,0.1669374,8.807293,-9.198813,1.5688318,-0.3078854,0.2308751,-0.3173689,-0.866706,-9.257822,5.9438095,0.78193057,1.972766,-2.7918215,0.25079402,0
0.9900000000000007,15.867467177160064,2.080365903506986,-3.2197241953472986,-0.020558551982146196,18.111609,2.139397,-4.4121027,0.1669374,8.71456,-9.138827,1.576711,-0.31355342,0.21515709,-0.3218389,-0.8670701,-9.288333,6.0537157,0.7941264,1.9895324,-2.8585672,0.23747867,0
1.0000000000000007,15.649676831722925,1.8477959229982273,-2.8064111496742488,-0.06944550361614481,14.805757,2.041088,-3.2480364,-0.2135057,8.621546,-9.07774,1.5847187,-0.3192976,0.19910413,-0.32616752,-0.8671911,-9.313482,6.163684,0.80760485,2.0036826,-2.9149039,0.22481671,1
1.0100000000000007,15.649676831722925,1.8477959229982273,-2.8064111496742488,-0.06944550361614481,14.805757,2.041088,-3.2480364,-0.2135057,8.5283165,-9.01559,1.5928295,-0.32511395,0.18276638,-0.33033326,-0.86705035,-9.3318405,6.2662115,0.8147185,2.0094821,-2.966883,0.2033081,1
1.0200000000000007,15.649676831722925,1.8477959229982273,-2.8064111496742488,-0.06944550361614481,14.805757,2.041088,-3.2480364,-0.2135057,8.434928,-8.952416,1.6010165,-0.3310004,0.16618848,-0.33431894,-0.8666314,-9.345002,6.3685093,0.82282984,2.0143769,-3.0107548,0.18285495,1
1.0300000000000007,15.649676831722925,1.8477959229982273,-2.8064111496742488,-0.06944550361614481,14.805757,2.041088,-3.2480364,-0.2135057,8.341434,-8.888222,1.6092892,-0.33693558,0.14940697,-0.33813086,-0.8659206,-9.352897,6.4704256,0.83182573,2.0185084,-3.0477839,0.16340543,1
1.0400000000000007,15.649676831722925,1.8477959229982273,-2.8064111496742488,-0.06944550361614481,14.842796,1.8079264,-3.4708548,-0.16904034,8.247887,-8.82301,1.6176558,-0.34290054,0.13245365,-0.34177452,-0.8649072,-9.355466,6.5718102,0.8415835,2.0219958,-3.0790372,0.14491029,1
1.0500000000000007,15.649676831722925,1.8477959229982273,-2.8064111496742488,-0.06944550361614481,14.842796,1.8079264,-3.4708548,-0.16904034,8.154341,-8.756787,1.6261245,-0.34889215,0.11530949,-0.34514394,-0.8636277,-9.35266,6.672758,0.8522498,1.988586,-3.1401641,0.12950464,1
1.0600000000000007,15.649676831722925,1.8477959229982273,-2.8064111496742488,-0.06944550361614481,14.842796,1.8079264,-3.4708548,-0.16904034,8.060851,-8.689559,1.6347027,-0.35490724,0.09796218,-0.3481546,-0.86210895,-9.344443,6.772824,0.8634554,1.960386,-3.1917562,0.11485495,1
1.0700000000000007,15.649676831722925,1.8477959229982273,-2.8064111496742488,-0.06944550361614481,14.842796,1.8079264,-3.4708548,-0.16904034,7.9674706,-8.621335,1.6433952,-0.36092916,0.0804468,-0.35084003,-0.86033064,-9.330796,6.87181,0.87509996,1.9365839,-3.2353008,0.10092412,1
1.0800000000000007,15.261562581980122,1.4538440619472899,-2.273018691971532,-0.07315908933136617,16.354874,2.2171917,-3.1559446,-0.8634048,7.8742537,-8.552128,1.6522058,-0.36694255,0.06279383,-0.35322875,-0.8582766,-9.311713,6.969527,0.8870711,1.9164939,-3.2720535,0.0876769,0
1.0900000000000007,15.261562581980122,1.4538440619472899,-2.273018691971532,-0.07315908933136617,16.354874,2.2171917,-3.1559446,-0.8634048,7.781258,-8.481936,1.6611528,-0.37274763,0.04548937,-0.3554032,-0.8559659,-9.286539,7.068523,0.90235144,1.8443189,-3.1162682,0.07978463,0
1.1000000000000008,15.261562581980122,1.4538440619472899,-2.273018691971532,-0.07315908933136617,16.354874,2.2171917,-3.1559446,-0.8634048,7.6885414,-8.410763,1.670253,-0.37819335,0.028920632,-0.35744196,-0.8534447,-9.256028,7.165964,0.9176684,1.783403,-2.9847758,0.07227965,0
1.1100000000000008,15.261562581980122,1.4538440619472899,-2.273018691971532,-0.07315908933136617,16.354874,2.2171917,-3.1559446,-0.8634048,7.5961556,-8.338622,1.6795058,-0.38333136,0.012978295,-0.35936093,-0.8507335,-9.2204275,7.2618117,0.9328609,1.7319899,-2.8737884,0.065142915,0
1.1200000000000008,14.64806018605791,0.9580625037581953,-1.5072823435484448,-0.061816773538477046,16.818949,2.0711882,-2.7851794,-1.1143771,7.50415,-8.2655325,1.6889094,-0.38820434,-0.0024302932,-0.36117262,-0.84784734,-9.1799555,7.356028,0.9477865,1.6885968,-2.7801082,0.0583564,0
1.1300000000000008,14.64806018605791,0.9580625037581953,-1.5072823435484448,-0.061816773538477046,16.818949,2.0711882,-2.7851794,-1.1143771,7.4125633,-8.191527,1.6984377,-0.39273828,-0.01704721,-0.36283943,-0.84487444,-9.136641,7.444864,0.9577924,1.5746528,-2.581622,0.052459467,0
1.1400000000000008,14.64806018605791,0.9580625037581953,-1.5072823435484448,-0.061816773538477046,16.818949,2.0711882,-2.7851794,-1.1143771,7.3214316,-8.116641,1.7080638,-0.39688393,-0.03067267,-0.3643391,-0.8419017,-9.089165,7.532126,0.9673326,1.4784812,-2.4140882,0.046851885,0
1.1500000000000008,14.64806018605791,0.9580625037581953,-1.5072823435484448,-0.061816773538477046,16.818949,2.0711882,-2.7851794,-1.1143771,7.2307935,-8.04089,1.7177827,-0.40070552,-0.043457713,-0.36569974,-0.83893347,-9.037836,7.6178503,0.9763399,1.3973098,-2.2726798,0.041519508,0
1.1600000000000008,13.89543115557229,0.4181072417947592,-0.8316350021528808,-0.07487297740105134,14.728057,0.8416016,-1.4659182,-0.5369225,7.1406875,-7.9642887,1.7275887,-0.40425575,-0.055530243,-0.36694354,-0.8359696,-8.982915,7.7020683,0.9847596,1.3287991,-2.1533225,0.03644877,1
1.1700000000000008,13.89543115557229,0.4181072417947592,-0.8316350021528808,-0.07487297740105134,14.728057,0.8416016,-1.4659182,-0.5369225,7.051149,-7.8868513,1.7374785,-0.40762365,-0.0669442,-0.36805958,-0.8330022,-8.924311,7.78526,0.9931266,1.2527807,-2.0461469,0.008313277,1
1.1800000000000008,13.89543115557229,0.4181072417947592,-0.8316350021528808,-0.07487297740105134,14.728057,0.8416016,-1.4659182,-0.5369225,6.962213,-7.808589,1.7474488,-0.41088894,-0.07774484,-0.36904135,-0.83002025,-8.862532,7.8669863,1.0008324,1.1886228,-1.9556817,-0.018441606,1
1.1900000000000008,13.89543115557229,0.4181072417947592,-0.8316350021528808,-0.07487297740105134,14.728057,0.8416016,-1.4659182,-0.5369225,6.873909,-7.7295165,1.7574929,-0.41407788,-0.08802051,-0.36991078,-0.8270169,-8.797763,7.947263,1.0078579,1.1344746,-1.8793213,-0.043883614,1
1.2000000000000008,12.90473984712245,-0.1320278890609402,-0.24514609739228777,-0.07704511473197151,14.825568,0.79575944,-1.034086,-0.718425,6.7862673,-7.649648,1.7676038,-0.41721138,-0.09784605,-0.3706859,-0.82398534,-8.730163,8.026102,1.0141864,1.0887743,-1.8148673,-0.06807716,0
1.2100000000000009,12.90473984712245,-0.1320278890609402,-0.24514609739228777,-0.07704511473197151,14.825568,0.79575944,-1.034086,-0.718425,6.699272,-7.569047,1.7777101,-0.42011893,-0.10674139,-0.37126094,-0.8211399,-8.668602,8.093944,1.0069737,0.8984012,-1.5700617,-0.06851722,0
1.2200000000000009,12.90473984712245,-0.1320278890609402,-0.24514609739228777,-0.07704511473197151,14.825568,0.79575944,-1.034086,-0.718425,6.6129026,-7.487773,1.7877414,-0.4226687,-0.11433459,-0.37155932,-0.8186705,-8.60502,8.160641,0.99921536,0.7377152,-1.3634348,-0.0689357,0
1.2300000000000009,12.90473984712245,-0.1320278890609402,-0.24514609739228777,-0.07704511473197151,14.825568,0.79575944,-1.034086,-0.718425,6.5271773,-7.405837,1.7976928,-0.42492566,-0.12082959,-0.37163183,-0.81653357,-8.539736,8.226306,0.9909981,0.6020866,-1.1890324,-0.069333635,0
1.2400000000000009,12.90473984712245,-0.1320278890609402,-0.24514609739228777,-0.07704511473197151,13.65232,0.022847379,-0.8817697,-0.32615113,6.442113,-7.32325,1.8075601,-0.42694223,-0.12639831,-0.37151927,-0.8146877,-8.473012,8.291037,0.9824012,0.48760822,-1.0418286,-0.069712035,1
1.2500000000000009,12.90473984712245,-0.1320278890609402,-0.24514609739228777,-0.07704511473197151,13.65232,0.022847379,-0.8817697,-0.32615113,6.357742,-7.240001,1.8173656,-0.4288723,-0.131408,-0.37119958,-0.8130254,-8.401123,8.358612,0.9786621,0.4151217,-1.0168676,-0.08229556,1
1.260000000000001,12.90473984712245,-0.1320278890609402,-0.24514609739228777,-0.07704511473197151,13.65232,0.022847379,-0.8817697,-0.32615113,6.2740955,-7.156081,1.8271325,-0.43084034,-0.13615462,-0.37065485,-0.81145084,-8.328053,8.425288,0.9746551,0.35394013,-0.99579877,-0.094261624,1
1.270000000000001,12.90473984712245,-0.1320278890609402,-0.24514609739228777,-0.07704511473197151,13.65232,0.022847379,-0.8817697,-0.32615113,6.1911845,-7.0714984,1.836858,-0.43284598,-0.14067589,-0.36992094,-0.8099457,-8.25388,8.491049,0.97042847,0.30230016,-0.97801524,-0.10564051,1
1.280000000000001,12.039989544055118,-0.635791293178252,-0.34692382299447816,0.06497348317030574,12.232559,-0.4781736,-1.2522585,0.24110858,6.109021,-6.986263,1.8465405,-0.43488818,-0.14500386,-0.36902806,-0.80849445,-8.178671,8.5558815,0.96602243,0.25871384,-0.96300465,-0.11646103,1
1.290000000000001,12.039989544055118,-0.635791293178252,-0.34692382299447816,0.06497348317030574,12.232559,-0.4781736,-1.2522585,0.24110858,6.027575,-6.9004173,1.8561294,-0.43699285,-0.14922397,-0.36776447,-0.80716646,-8.110407,8.613118,0.95175076,0.14380485,-1.0081034,-0.09891497,1
1.300000000000001,12.039989544055118,-0.635791293178252,-0.34692382299447816,0.06497348317030574,12.232559,-0.4781736,-1.2522585,0.24110858,5.9468155,-6.8140035,1.8655753,-0.4391721,-0.15340814,-0.3659612,-0.80601805,-8.041322,8.669425,0.9374381,0.046816595,-1.0461724,-0.08222992,1
1.310000000000001,12.039989544055118,-0.635791293178252,-0.34692382299447816,0.06497348317030574,12.232559,-0.4781736,-1.2522585,0.24110858,5.866751,-6.7270317,1.8748783,-0.44140613,-0.15756312,-0.36369884,-0.80501956,-7.9714704,8.724713,0.9231682,-0.03504599,-1.0783074,-0.0663636,1
1.320000000000001,11.14272788019187,-1.1808309356166051,-0.4093573830630892,0.2861607907690367,11.919887,-0.6863568,-1.7677325,0.50895596,5.787389,-6.6395125,1.884039,-0.443678,-0.16169444,-0.36104527,-0.8041454,-7.9008994,8.778907,0.9090096,-0.104141586,-1.105433,-0.05127587,0
1.330000000000001,11.14272788019187,-1.1808309356166051,-0.4093573830630892,0.2861607907690367,11.919887,-0.6863568,-1.7677325,0.50895596,5.708704,-6.551481,1.8930216,-0.44589376,-0.1654127,-0.3579811,-0.80353326,-7.836015,8.827227,0.8875334,-0.27203625,-0.99687773,-0.034717754,0
1.340000000000001,11.14272788019187,-1.1808309356166051,-0.4093573830630892,0.2861607907690367,11.919887,-0.6863568,-1.7677325,0.50895596,5.63067,-6.462971,1.9017905,-0.44798154,-0.16840988,-0.35449594,-0.8032945,-7.77068,8.87451,0.8663202,-0.41375077,-0.90525526,-0.018972142,0
1.350000000000001,11.14272788019187,-1.1808309356166051,-0.4093573830630892,0.2861607907690367,11.919887,-0.6863568,-1.7677325,0.50895596,5.553291,-6.3739934,1.9103491,-0.44995674,-0.17079955,-0.35065416,-0.8033722,-7.7050548,8.920782,0.84547335,-0.53336763,-0.8279238,-0.0039991806,0
1.360000000000001,10.561542223279908,-1.7214765354054742,-0.15220178323819541,0.46371186769966605,10.815553,-0.3107512,-1.3521118,-0.36243516,5.476569,-6.284558,1.9187014,-0.4518315,-0.17267735,-0.3465094,-0.80371696,-7.6392756,8.966067,0.8250796,-0.6343319,-0.76265407,0.010239073,0
1.370000000000001,10.561542223279908,-1.7214765354054742,-0.15220178323819541,0.46371186769966605,10.815553,-0.3107512,-1.3521118,-0.36243516,5.4004884,-6.1946864,1.9268321,-0.4535996,-0.17395079,-0.34197518,-0.80438817,-7.5769005,9.008072,0.8011377,-0.8038624,-0.66746706,0.03249113,0
1.380000000000001,10.561542223279908,-1.7214765354054742,-0.15220178323819541,0.46371186769966605,10.815553,-0.3107512,-1.3521118,-0.36243516,5.325031,-6.1043997,1.9347262,-0.45525378,-0.17455067,-0.336984,-0.8054295,-7.5146494,9.049174,0.77780306,-0.9469574,-0.58712757,0.053651262,0
1.390000000000001,10.561542223279908,-1.7214765354054742,-0.15220178323819541,0.46371186769966605,10.815553,-0.3107512,-1.3521118,-0.36243516,5.2501945,-6.0137067,1.9423906,-0.45680094,-0.17458265,-0.33160242,-0.8067791,-7.4526706,9.089389,0.7551738,-1.0677385,-0.5193193,0.07377307,0
1.400000000000001,10.14395195653039,-2.1245409948003378,0.2896341753501768,0.5737270297991789,9.757663,-0.9355808,-1.4273404,-0.19641246,5.1759763,-5.9226155,1.9498323,-0.4582463,-0.1741356,-0.3258862,-0.80838364,-7.3910894,9.128726,0.73332936,-1.1696855,-0.46208695,0.09290749,0
1.410000000000001,10.14395195653039,-2.1245409948003378,0.2896341753501768,0.5737270297991789,9.757663,-0.9355808,-1.4273404,-0.19641246,5.1023593,-5.831143,1.9570447,-0.4595534,-0.1730717,-0.31983048,-0.81028646,-7.33244,9.165674,0.70928955,-1.3185962,-0.34488562,0.116501436,0
1.420000000000001,10.14395195653039,-2.1245409948003378,0.2896341753501768,0.5737270297991789,9.757663,-0.9355808,-1.4273404,-0.19641246,5.029325,-5.739305,1.9640211,-0.46069178,-0.17128494,-0.3134326,-0.8125167,-7.274436,9.201819,0.6861489,-1.4442867,-0.24596314,0.13893764,0
1.430000000000001,10.14395195653039,-2.1245409948003378,0.2896341753501768,0.5737270297991789,9.757663,-0.9355808,-1.4273404,-0.19641246,4.9568677,-5.64711,1.970771,-0.4616727,-0.16888721,-0.3067389,-0.8150126,-7.217224,9.237192,0.6639791,-1.550377,-0.16246799,0.16027288,0
1.440000000000001,10.14395195653039,-2.1245409948003378,0.2896341753501768,0.5737270297991789,9.153422,-1.1625924,-1.3201276,0.08919937,4.8849773,-5.5545645,1.9773042,-0.46250504,-0.16597277,-0.29978842,-0.8177211,-7.160932,9.271814,0.64283526,-1.6399237,-0.091993816,0.18056121,0
1.450000000000001,10.14395195653039,-2.1245409948003378,0.2896341753501768,0.5737270297991789,9.153422,-1.1625924,-1.3201276,0.08919937,4.8136454,-5.4616766,1.9836315,-0.4631961,-0.16262111,-0.29261422,-0.820597,-7.10567,9.305701,0.6227578,-1.7155062,-0.03250955,0.19985396,0
1.460000000000001,10.14395195653039,-2.1245409948003378,0.2896341753501768,0.5737270297991789,9.153422,-1.1625924,-1.3201276,0.08919937,4.7428603,-5.368453,1.9897633,-0.46375188,-0.15889934,-0.28524438,-0.8236016,-7.051536,9.338863,0.6037747,-1.7793018,0.01769901,0.21820001,0
1.470000000000001,10.14395195653039,-2.1245409948003378,0.2896341753501768,0.5737270297991789,9.153422,-1.1625924,-1.3201276,0.08919937,4.6726108,-5.2749014,1.9957107,-0.46417746,-0.15486404,-0.27770284,-0.826702,-6.9986153,9.371305,0.5859034,-1.8331482,0.060078684,0.23564585,0
1.480000000000001,9.839253875330204,-2.365560829998448,0.30720047484446084,0.7002004489342023,10.0447235,-1.5162607,-1.1942071,0.24108623,4.6028833,-5.1810293,2.001485,-0.46447727,-0.15056305,-0.27001017,-0.82987034,-6.9469843,9.4030285,0.5691521,-1.8785976,0.09585023,0.2522356,0
1.490000000000001,9.839253875330204,-2.365560829998448,0.30720047484446084,0.7002004489342023,10.0447235,-1.5162607,-1.1942071,0.24108623,4.533658,-5.0868483,2.0070853,-0.46465442,-0.1459902,-0.2621046,-0.8331164,-6.8982234,9.433095,0.5510464,-1.9545467,0.12876976,0.27421737,0
1.500000000000001,9.839253875330204,-2.365560829998448,0.30720047484446084,0.7002004489342023,10.0447235,-1.5162607,-1.1942071,0.24108623,4.4649134,-4.99237,2.0125098,-0.46470815,-0.14114273,-0.2539371,-0.8364447,-6.8508596,9.462444,0.5340393,-2.0186512,0.15655707,0.2951205,0
1.5100000000000011,9.839253875330204,-2.365560829998448,0.30720047484446084,0.7002004489342023,10.0447235,-1.5162607,-1.1942071,0.24108623,4.3966355,-4.897602,2.0177696,-0.4646372,-0.13606244,-0.24554142,-0.8398258,-6.8049693,9.4910555,0.5181359,-2.0727582,0.18001266,0.3149979,0
1.5200000000000011,9.659153772708232,-2.5409894609905592,0.43374730829225794,0.7819457661081797,9.340275,-1.7787589,-0.78877294,0.4470147,4.328809,-4.8025517,2.0228763,-0.4644408,-0.1307847,-0.23694655,-0.8432349,-6.7606196,9.518906,0.503332,-2.118427,0.19981195,0.3338999,0
1.5300000000000011,9.659153772708232,-2.5409894609905592,0.43374730829225794,0.7819457661081797,9.340275,-1.7787589,-0.78877294,0.4470147,4.2614136,-4.707229,2.0278325,-0.4641072,-0.12526625,-0.22814013,-0.8466779,-6.718657,9.545479,0.48807272,-2.1843367,0.23624848,0.35588562,0
1.5400000000000011,9.659153772708232,-2.5409894609905592,0.43374730829225794,0.7819457661081797,9.340275,-1.7787589,-0.78877294,0.4470147,4.19443,-4.6116447,2.0326416,-0.4636251,-0.119474165,-0.21911319,-0.8501562,-6.6783447,9.571265,0.47387445,-2.2399673,0.2670049,0.37679255,0
1.5500000000000012,9.659153772708232,-2.5409894609905592,0.43374730829225794,0.7819457661081797,9.340275,-1.7787589,-0.78877294,0.4470147,4.127841,-4.515806,2.037314,-0.46299535,-0.113449916,-0.20989351,-0.8536437,-6.639755,9.596245,0.46072352,-2.2869217,0.2929671,0.39667356,0
1.5600000000000012,9.66411419164584,-2.636640568058809,0.7091399768968243,0.7970285161223879,8.450208,-1.6338791,-0.067164734,0.4690943,4.061629,-4.419722,2.0418596,-0.46221897,-0.107228585,-0.20050508,-0.8571183,-6.602952,9.620398,0.44859868,-2.326553,0.31488284,0.415579,0
1.5700000000000012,9.66411419164584,-2.636640568058809,0.7091399768968243,0.7970285161223879,8.450208,-1.6338791,-0.067164734,0.4690943,3.9957755,-4.323401,2.0462894,-0.46127775,-0.10072791,-0.19098641,-0.86058086,-6.567979,9.643716,0.43751737,-2.3749325,0.37632495,0.43429688,0
1.5800000000000012,9.66411419164584,-2.636640568058809,0.7091399768968243,0.7970285161223879,8.450208,-1.6338791,-0.067164734,0.4690943,3.9302626,-4.2268505,2.0506132,-0.4601575,-0.09388381,-0.18136895,-0.86402816,-6.53493,9.666185,0.42740613,-2.4157653,0.42818764,0.45209625,0
1.5900000000000012,9.66411419164584,-2.636640568058809,0.7091399768968243,0.7970285161223879,8.450208,-1.6338791,-0.067164734,0.4690943,3.86507,-4.1300797,2.0548406,-0.45886508,-0.08674833,-0.17166266,-0.86743754,-6.503881,9.687805,0.41823062,-2.4502287,0.4719649,0.46902215,0
1.6000000000000012,9.827598019011798,-2.6430667999924027,1.0543535687966132,0.772063992224809,8.879489,-1.723403,0.43781692,0.72470176,3.8001778,-4.0330973,2.0589807,-0.45740628,-0.07936566,-0.16187648,-0.8707898,-6.4748945,9.708571,0.4099506,-2.479316,0.5089173,0.48511752,1
1.6100000000000012,9.827598019011798,-2.6430667999924027,1.0543535687966132,0.772063992224809,8.879489,-1.723403,0.43781692,0.72470176,3.7355537,-3.9359193,2.063006,-0.45578468,-0.07203372,-0.15228878,-0.87400115,-6.450196,9.726863,0.39515454,-2.361432,0.49784815,0.496874,1
1.6200000000000012,9.827598019011798,-2.6430667999924027,1.0543535687966132,0.772063992224809,8.879489,-1.723403,0.43781692,0.72470176,3.6711674,-3.8385625,2.0668864,-0.45401227,-0.06499121,-0.14312443,-0.8770193,-6.427385,9.744385,0.38105965,-2.2619324,0.48850188,0.5080536,1
1.6300000000000012,9.827598019011798,-2.6430667999924027,1.0543535687966132,0.772063992224809,8.879489,-1.723403,0.43781692,0.72470176,3.6069999,-3.741034,2.0706294,-0.45210457,-0.058192886,-0.13431822,-0.87987053,-6.406396,9.761159,0.36759013,-2.17795,0.48061025,0.5186846,1
1.6400000000000012,9.827598019011798,-2.6430667999924027,1.0543535687966132,0.772063992224809,8.823551,-1.5490919,0.7480795,0.95942473,3.5430334,-3.6433415,2.0742402,-0.45007423,-0.051600486,-0.12581478,-0.88257563,-6.387172,9.777204,0.35467964,-2.1070645,0.47394675,0.528794,0
1.6500000000000012,9.827598019011798,-2.6430667999924027,1.0543535687966132,0.772063992224809,8.823551,-1.5490919,0.7480795,0.95942473,3.47926,-3.5454843,2.0777705,-0.447913,-0.044799004,-0.11735211,-0.8852084,-6.367815,9.794168,0.351423,-2.1906893,0.56441516,0.5407313,0
1.6600000000000013,9.827598019011798,-2.6430667999924027,1.0543535687966132,0.772063992224809,8.823551,-1.5490919,0.7480795,0.95942473,3.4156702,-3.4474611,2.0812707,-0.44560808,-0.037457667,-0.10871695,-0.8878116,-6.3504567,9.810349,0.3486888,-2.261269,0.64077914,0.5520829,0
1.6700000000000013,9.827598019011798,-2.6430667999924027,1.0543535687966132,0.772063992224809,8.823551,-1.5490919,0.7480795,0.95942473,3.3522437,-3.3492799,2.084746,-0.44316307,-0.029660404,-0.099932246,-0.89035875,-6.3352027,9.825746,0.3464429,-2.3208385,0.7052379,0.5628774,0
1.6800000000000013,10.177819695233447,-2.5881276103787156,0.8461247934284308,0.7938421480568225,10.125384,-2.0021975,0.47859365,1.0966953,3.2889588,-3.2509487,2.0882008,-0.44058102,-0.021478405,-0.091018,-0.89282763,-6.322143,9.840354,0.34464324,-2.371115,0.75964814,0.5731423,1
1.6900000000000013,10.177819695233447,-2.5881276103787156,0.8461247934284308,0.7938421480568225,10.125384,-2.0021975,0.47859365,1.0966953,3.2257948,-3.1524732,2.0916545,-0.43784538,-0.013294385,-0.082119085,-0.89519244,-6.3110113,9.854585,0.34616986,-2.3135784,0.71580034,0.5988332,1
1.7000000000000013,10.177819695233447,-2.5881276103787156,0.8461247934284308,0.7938421480568225,10.125384,-2.0021975,0.47859365,1.0966953,3.1627307,-3.0538597,2.0951254,-0.43494242,-0.0054150117,-0.07335427,-0.89744824,-6.302167,9.867973,0.3480417,-2.2650154,0.67879105,0.6232634,1
1.7100000000000013,10.177819695233447,-2.5881276103787156,0.8461247934284308,0.7938421480568225,10.125384,-2.0021975,0.47859365,1.0966953,3.099744,-2.9551167,2.0986164,-0.43187878,0.0022064936,-0.06470421,-0.89960414,-6.295547,9.880502,0.35019696,-2.224026,0.64755344,0.64649487,1
1.7200000000000013,10.461121910547558,-2.481683281542506,0.8257783027725244,0.7912546089895692,9.498237,-1.7126968,0.22495572,1.1883032,3.0368123,-2.856253,2.10213,-0.42866042,0.009609656,-0.05615256,-0.90166694,-6.2910953,9.892149,0.352578,-2.1894298,0.6211873,0.6685863,1
1.7300000000000013,10.461121910547558,-2.481683281542506,0.8257783027725244,0.7912546089895692,9.498237,-1.7126968,0.22495572,1.1883032,2.973914,-2.7572803,2.105637,-0.42528996,0.016686138,-0.047746878,-0.90364194,-6.288902,9.90223,0.34889653,-2.115066,0.55939215,0.694089,1
1.7400000000000013,10.461121910547558,-2.481683281542506,0.8257783027725244,0.7912546089895692,9.498237,-1.7126968,0.22495572,1.1883032,2.9110277,-2.6582112,2.1091082,-0.42177033,0.023352142,-0.039525114,-0.9055389,-6.288606,9.9114485,0.34532836,-2.0523012,0.5072328,0.7183402,1
1.7500000000000013,10.461121910547558,-2.481683281542506,0.8257783027725244,0.7912546089895692,9.498237,-1.7126968,0.22495572,1.1883032,2.8481352,-2.5590544,2.1125438,-0.41810724,0.02967152,-0.031461358,-0.90736693,-6.290124,9.919786,0.34183025,-1.9993263,0.4632064,0.74140143,1
1.7600000000000013,10.840851743439806,-2.3650805991687824,0.9156672490417367,0.7179397196060918,11.270947,-1.726748,-0.50541234,1.1661509,2.785219,-2.4598186,2.115945,-0.41430587,0.035698175,-0.023533566,-0.90913206,-6.2933807,9.927227,0.3383631,-1.9546148,0.42604488,0.76333106,0
1.7700000000000014,10.840851743439806,-2.3650805991687824,0.9156672490417367,0.7179397196060918,11.270947,-1.726748,-0.50541234,1.1661509,2.7222583,-2.3605082,2.1193783,-0.41040757,0.041838028,-0.015597318,-0.91080767,-6.299028,9.934682,0.3482657,-2.018664,0.5023722,0.7611037,0
1.7800000000000014,10.840851743439806,-2.3650805991687824,0.9156672490417367,0.7179397196060918,11.270947,-1.726748,-0.50541234,1.1661509,2.6592314,-2.2611284,2.1229103,-0.40645102,0.048413616,-0.007534542,-0.9123572,-6.30666,9.9410925,0.35811308,-2.0727186,0.56680155,0.75898564,0
1.7900000000000014,10.840851743439806,-2.3650805991687824,0.9156672490417367,0.7179397196060918,11.270947,-1.726748,-0.50541234,1.1661509,2.596118,-2.16169,2.1265404,-0.4024369,0.055354454,0.0006360344,-0.91377175,-6.316359,9.946454,0.36785153,-2.1183386,0.62118727,0.75697154,0
1.8000000000000014,10.93048072036309,-2.247278810519865,0.5482022194653491,0.6817543687404292,12.693664,-2.2361863,-0.6070752,1.2263978,2.532897,-2.0622032,2.130267,-0.3983655,0.0626008,0.008898081,-0.91504407,-6.3281894,9.950761,0.37742433,-2.1568396,0.6670949,0.7550562,0
1.8100000000000014,10.93048072036309,-2.247278810519865,0.5482022194653491,0.6817543687404292,12.693664,-2.2361863,-0.6070752,1.2263978,2.4695463,-1.9626784,2.1340926,-0.39424273,0.069948636,0.017252788,-0.9161774,-6.342313,9.954025,0.3876615,-2.170933,0.64855164,0.7514593,0
1.8200000000000014,10.93048072036309,-2.247278810519865,0.5482022194653491,0.6817543687404292,12.693664,-2.2361863,-0.6070752,1.2263978,2.4060433,-1.8631264,2.138019,-0.3900739,0.07723362,0.025699291,-0.91717815,-6.3586287,9.956174,0.3976181,-2.1828303,0.63290125,0.7480389,0
1.8300000000000014,10.93048072036309,-2.247278810519865,0.5482022194653491,0.6817543687404292,12.693664,-2.2361863,-0.6070752,1.2263978,2.3423662,-1.7635586,2.1420438,-0.38585854,0.084462464,0.034221683,-0.9180453,-6.377118,9.957169,0.40724102,-2.1928735,0.619692,0.74478626,0
1.8400000000000014,10.93048072036309,-2.247278810519865,0.5482022194653491,0.6817543687404292,12.414819,-2.0993896,-0.8184744,1.0849413,2.2784934,-1.6639869,2.1461627,-0.3815963,0.09164067,0.04280636,-0.91877794,-6.39776,9.956974,0.4164766,-2.2013514,0.60854363,0.74169326,0
1.8500000000000014,10.93048072036309,-2.247278810519865,0.5482022194653491,0.6817543687404292,12.414819,-2.0993896,-0.8184744,1.0849413,2.2144039,-1.5644233,2.1503718,-0.37728718,0.09877281,0.05144165,-0.9193754,-6.4205327,9.955559,0.4252711,-2.2085083,0.5991342,0.738752,0
1.8600000000000014,10.93048072036309,-2.247278810519865,0.5482022194653491,0.6817543687404292,12.414819,-2.0993896,-0.8184744,1.0849413,2.1500757,-1.4648801,2.1546664,-0.37293127,0.10586257,0.06011752,-0.9198371,-6.4454145,9.952893,0.4335706,-2.2145495,0.5911926,0.7359551,0
1.8700000000000014,10.93048072036309,-2.247278810519865,0.5482022194653491,0.6817543687404292,12.414819,-2.0993896,-0.8184744,1.0849413,2.0854886,-1.3653699,2.1590414,-0.36852872,0.11291294,0.06882531,-0.9201627,-6.4723806,9.948953,0.4413211,-2.2196496,0.5844897,0.73329544,0
1.8800000000000014,10.796524551629188,-1.9942168292492066,-0.2716672116124054,0.6144443559691178,12.137599,-1.9757298,-1.1775357,0.95503813,2.020621,-1.2659056,2.1634905,-0.3640799,0.1199263,0.07755752,-0.9203518,-6.5014067,9.943714,0.44846877,-2.2239547,0.57883215,0.7307663,0
1.8900000000000015,10.796524551629188,-1.9942168292492066,-0.2716672116124054,0.6144443559691178,12.137599,-1.9757298,-1.1775357,0.95503813,1.9554553,-1.1664999,2.168002,-0.35957924,0.12656534,0.086334385,-0.9204507,-6.532072,9.93723,0.45368195,-2.1880624,0.44622242,0.7250584,0
1.9000000000000015,10.796524551629188,-1.9942168292492066,-0.2716672116124054,0.6144443559691178,12.137599,-1.9757298,-1.1775357,0.95503813,1.8899733,-1.0671657,2.172562,-0.35502294,0.13256367,0.09517034,-0.9205038,-6.564611,9.92937,0.4582245,-2.1577785,0.33428994,0.71963054,0
1.9100000000000015,10.796524551629188,-1.9942168292492066,-0.2716672116124054,0.6144443559691178,12.137599,-1.9757298,-1.1775357,0.95503813,1.8241571,-0.96791744,2.177164,-0.35041362,0.13801856,0.10405187,-0.92050713,-6.5988884,9.920063,0.46207812,-2.132226,0.23981033,0.7144691,0
1.9200000000000015,10.626465741938825,-1.6004291101614536,-0.6177657908466553,0.5473580904544098,11.980807,-1.7865707,-1.6063007,0.9546846,1.75799,-0.86876965,2.181801,-0.3457537,0.14301196,0.11296774,-0.92045593,-6.6347847,9.909251,0.46522355,-2.110666,0.16006258,0.7095609,0
1.9300000000000015,10.626465741938825,-1.6004291101614536,-0.6177657908466553,0.5473580904544098,11.980807,-1.7865707,-1.6063007,0.9546846,1.6914591,-0.76973677,2.186458,-0.3410603,0.1474304,0.121812426,-0.92038184,-6.6715975,9.897082,0.46606058,-2.0310385,0.038808107,0.70160156,0
1.9400000000000015,10.626465741938825,-1.6004291101614536,-0.6177657908466553,0.5473580904544098,11.980807,-1.7865707,-1.6063007,0.9546846,1.6245533,-0.67083335,2.1911201,-0.33634934,0.15118878,0.13050197,-0.9203147,-6.7097397,9.883351,0.46618736,-1.9638386,-0.0635439,0.69403285,0
1.9500000000000015,10.626465741938825,-1.6004291101614536,-0.6177657908466553,0.5473580904544098,11.980807,-1.7865707,-1.6063007,0.9546846,1.5572603,-0.5720751,2.1957796,-0.33162114,0.1543886,0.13905689,-0.92024654,-6.749061,9.868036,0.46561238,-1.9071265,-0.14993986,0.68683547,0
1.9600000000000015,10.33574258108033,-1.1806983076755655,-1.1830838011294367,0.46884039409912914,11.400665,-1.677941,-1.7334318,1.0021515,1.4895686,-0.47347808,2.20043,-0.32687598,0.15711536,0.14749464,-0.92016906,-6.789432,9.851117,0.46434104,-1.8592658,-0.2228675,0.67999125,0
1.9700000000000015,10.33574258108033,-1.1806983076755655,-1.1830838011294367,0.46884039409912914,11.400665,-1.677941,-1.7334318,1.0021515,1.4214741,-0.37505582,2.205051,-0.32211602,0.15917681,0.15575074,-0.920133,-6.8295975,9.833084,0.4597506,-1.75338,-0.37255406,0.66963005,0
1.9800000000000015,10.33574258108033,-1.1806983076755655,-1.1830838011294367,0.46884039409912914,11.400665,-1.677941,-1.7334318,1.0021515,1.352974,-0.27682185,2.2096226,-0.31734338,0.16042529,0.16377433,-0.9201814,-6.870487,9.813459,0.45452335,-1.6640186,-0.49890605,0.6597773,0
1.9900000000000015,10.33574258108033,-1.1806983076755655,-1.1830838011294367,0.46884039409912914,11.400665,-1.677941,-1.7334318,1.0021515,1.2840623,-0.17879216,2.2141395,-0.31255838,0.16098672,0.1715978,-0.9202954,-6.9119277,9.792226,0.44869652,-1.5886029,-0.6055609,0.6504079,0
2.0000000000000013,,,,,9.656357,-1.0819902,-2.0744488,0.7613643,1.2147341,-0.080982886,2.218595,-0.30776125,0.160967,0.17924856,-0.9204572,-6.95377,9.769375,0.44230032,-1.5249562,-0.69558954,0.6414983,1
2.010000000000001,,,,,9.656357,-1.0819902,-2.0744488,0.7613643,1.1449999,0.0165977,2.2229538,-0.3028603,0.16012113,0.18681668,-0.9207254,-6.9931045,9.7465,0.42937008,-1.4557828,-0.9105986,0.64738023,1
2.020000000000001,,,,,9.656357,-1.0819902,-2.0744488,0.7613643,1.0748719,0.11394167,2.227181,-0.29777378,0.15826012,0.19437118,-0.9211423,-7.032493,9.722042,0.41597348,-1.3974098,-1.0920811,0.6529734,1
2.0300000000000007,,,,,9.656357,-1.0819902,-2.0744488,0.7613643,1.0043505,0.21103288,2.231272,-0.29251593,0.15554133,0.20190535,-0.9216693,-7.071748,9.69594,0.4021472,-1.3481511,-1.2452644,0.6582922,1
2.0400000000000005,,,,,9.656357,-1.0819902,-2.0744488,0.7613643,0.93343794,0.30785465,2.2352223,-0.28709954,0.15209728,0.2094137,-0.92227155,-7.1107054,9.668148,0.38791728,-1.3065836,-1.3745617,0.66335,1
2.0500000000000003,,,,,9.930734,-0.7795225,-2.4059577,0.628283,0.86213785,0.4043899,2.239029,-0.2815361,0.14803964,0.21689169,-0.9229184,-7.1492214,9.63863,0.37330043,-1.2715067,-1.4836974,0.66815954,1
2.06,,,,,9.930734,-0.7795225,-2.4059577,0.628283,0.79045004,0.50061685,2.2426991,-0.27583995,0.14330263,0.22426328,-0.923624,-7.188241,9.606473,0.3606699,-1.1947215,-1.6274886,0.6662028,1
2.07,,,,,9.930734,-0.7795225,-2.4059577,0.628283,0.7183756,0.5965132,2.246241,-0.2700239,0.13783894,0.23146726,-0.9243966,-7.226507,9.572504,0.3476778,-1.1299208,-1.7488611,0.664342,1
2.0799999999999996,,,,,9.930734,-0.7795225,-2.4059577,0.628283,0.64592296,0.6920607,2.2496514,-0.26409605,0.1317601,0.23852018,-0.9252023,-7.2638645,9.53672,0.3343448,-1.0752342,-1.8513101,0.66257256,1
2.0899999999999994,,,,,10.660235,-0.49992603,-2.8823867,0.48200867,0.5731019,0.78724134,2.252927,-0.25806388,0.12516023,0.2454361,-0.9260117,-7.3001757,9.499123,0.32068142,-1.0290828,-1.9377861,0.66089,1
2.099999999999999,,,,,10.660235,-0.49992603,-2.8823867,0.48200867,0.4999105,0.8820226,2.2560952,-0.2519176,0.11790897,0.25217414,-0.92684513,-7.3378916,9.456829,0.31287163,-0.9465098,-2.0850554,0.65211225,1
2.109999999999999,,,,,10.660235,-0.49992603,-2.8823867,0.48200867,0.426349,0.9763713,2.2591834,-0.24564946,0.109906636,0.25870025,-0.927712,-7.3741655,9.412611,0.3047302,-0.8768245,-2.2093647,0.6437653,1
2.1199999999999988,,,,,10.660235,-0.49992603,-2.8823867,0.48200867,0.35243276,1.0702683,2.2621884,-0.23926932,0.10126789,0.26503485,-0.9285742,-7.40882,9.3664875,0.296269,-0.81801564,-2.3142934,0.6358278,1
2.1299999999999986,,,,,10.967135,-0.18098943,-3.018341,0.3954582,0.2781787,1.1636945,2.2651072,-0.23278633,0.0920897,0.27119517,-0.9293986,-7.4417014,9.318481,0.28748745,-0.7683848,-2.402863,0.6282798,1
2.1399999999999983,,,,,10.967135,-0.18098943,-3.018341,0.3954582,0.2036008,1.2566243,2.2679496,-0.22621532,0.08237127,0.27709064,-0.9301941,-7.47356,9.267194,0.2809396,-0.6767601,-2.498804,0.6168552,1
2.149999999999998,,,,,10.967135,-0.18098943,-3.018341,0.3954582,0.1287148,1.349032,2.2707248,-0.21956871,0.07211693,0.28264952,-0.9309654,-7.503295,9.2140665,0.27405643,-0.5994307,-2.57979,0.6059912,1
2.159999999999998,,,,,10.967135,-0.18098943,-3.018341,0.3954582,0.053542685,1.4408995,2.2734296,-0.21285145,0.061409365,0.28791085,-0.9316808,-7.530763,9.159169,0.26683545,-0.5341658,-2.6481526,0.59566027,1
2.1699999999999977,,,,,10.162021,0.37579018,-2.795412,0.07184038,-0.021892238,1.5322095,2.2760606,-0.20606846,0.050318643,0.29290754,-0.9323131,-7.5558395,9.102574,0.25926286,-0.4790833,-2.7058587,0.5858363,1
2.1799999999999975,,,,,10.162021,0.37579018,-2.795412,0.07184038,-0.097557075,1.6229666,2.278581,-0.19929883,0.038930394,0.29744372,-0.9328935,-7.5767584,9.048635,0.24470307,-0.34580564,-2.7197678,0.56061435,1
2.1899999999999973,,,,,10.162021,0.37579018,-2.795412,0.07184038,-0.17341915,1.7131776,2.280954,-0.19260992,0.027315937,0.3013673,-0.9334515,-7.595275,8.993324,0.22981274,-0.23331167,-2.7315197,0.5366301,1
