time-since-start [s],throttle_mpc,roll_mpc,pitch_mpc,yaw_mpc,throttle_nw,roll_nw,pitch_nw,yaw_nw,position_x [m],position_y [m],position_z [m],rotation_w [quaternion],rotation_x [quaternion],rotation_y [quaternion],rotation_z [quaternion],velocity_x [m/s],velocity_y [m/s],velocity_z [m/s],omega_x [rad/s],omega_y [rad/s],omega_z [rad/s],network_used
0.0,12.4772458177137,5.9999995581157,-5.999999880217407,-3.815026328520087,13.556808,0.56737936,1.2063528,-0.10988046,16.658035,-10.491577,1.3071088,-0.123516634,0.39882177,-0.23792987,-0.87696874,-8.7808275,-3.484091,-0.582589,1.3861026,-0.16205937,-0.108736776,0
0.01,12.4772458177137,5.9999995581157,-5.999999880217407,-3.815026328520087,13.382863,0.4962975,1.083845,-0.31097808,16.56965,-10.5259495,1.3013058,-0.12757501,0.39667103,-0.24375676,-0.87576216,-8.895755,-3.3903432,-0.5784139,1.5289011,-0.49595034,-0.23902807,0
0.02,12.4772458177137,5.9999995581157,-5.999999880217407,-3.815026328520087,13.382863,0.4962975,1.083845,-0.31097808,16.480137,-10.559382,1.295533,-0.13288316,0.39312768,-0.2497613,-0.8748782,-9.00682,-3.2961698,-0.57648396,1.6857822,-0.81419855,-0.36618036,0
0.03,12.4772458177137,5.9999995581157,-5.999999880217407,-3.815026328520087,13.382863,0.4962975,1.083845,-0.31097808,16.38953,-10.591872,1.2897698,-0.13943708,0.38823548,-0.2560011,-0.87423897,-9.113609,-3.201452,-0.57644963,1.8540071,-1.1186976,-0.49029875,0
0.04,12.4772458177137,5.9999995581157,-5.999999880217407,-3.815026328520087,13.55656,0.815673,0.75901705,-0.75074476,16.29788,-10.62341,1.2839986,-0.14722711,0.3820276,-0.26251897,-0.8737635,-9.215727,-3.1060817,-0.57801276,2.0312593,-1.4110405,-0.6114827,0
0.05,12.4772458177137,5.9999995581157,-5.999999880217407,-3.815026328520087,13.55656,0.815673,0.75901705,-0.75074476,16.205233,-10.653991,1.2782049,-0.15623823,0.3745283,-0.26934457,-0.87336785,-9.312794,-3.0099683,-0.5809227,2.215579,-1.6925683,-0.7298266,0
0.060000000000000005,12.4772458177137,5.9999995581157,-5.999999880217407,-3.815026328520087,13.55656,0.815673,0.75901705,-0.75074476,16.111643,-10.683606,1.2723763,-0.16645029,0.3657544,-0.2764961,-0.87296486,-9.404444,-2.9130487,-0.5849726,2.4053094,-1.9644094,-0.84542,0
0.07,12.4772458177137,5.9999995581157,-5.999999880217407,-3.815026328520087,13.55656,0.815673,0.75901705,-0.75074476,16.017164,-10.712248,1.2665021,-0.1778381,0.35571674,-0.28398165,-0.872464,-9.490323,-2.8152912,-0.58999676,2.5990503,-2.2275138,-0.9583478,0
0.08,14.06513077187346,5.999999535348495,-5.999999899077413,-4.128719592308894,15.587188,-0.18680295,-0.57927454,-0.8296004,15.921857,-10.739908,1.2605735,-0.19037144,0.34442127,-0.29180005,-0.87177134,-9.570089,-2.7167008,-0.5958676,2.7956188,-2.4826834,-1.0686907,0
0.09,14.06513077187346,5.999999535348495,-5.999999899077413,-4.128719592308894,15.587188,-0.18680295,-0.57927454,-0.8296004,15.825746,-10.766527,1.2546297,-0.20404655,0.3318851,-0.29992646,-0.87078196,-9.65103,-2.606998,-0.5929904,2.9930856,-2.72972,-1.191836,0
0.09999999999999999,14.06513077187346,5.999999535348495,-5.999999899077413,-4.128719592308894,15.587188,-0.18680295,-0.57927454,-0.8296004,15.728862,-10.792046,1.2487112,-0.21885738,0.3181144,-0.30833432,-0.8693874,-9.724562,-2.4964457,-0.5908124,3.1937518,-2.9722838,-1.3119801,0
0.10999999999999999,14.06513077187346,5.999999535348495,-5.999999899077413,-4.128719592308894,15.587188,-0.18680295,-0.57927454,-0.8296004,15.631282,-10.816454,1.2428111,-0.2347618,0.30309564,-0.31700748,-0.86748254,-9.790338,-2.3851984,-0.58931214,3.3966506,-3.2106013,-1.4292287,0
0.11999999999999998,14.06513077187346,5.999999535348495,-5.999999899077413,-4.128719592308894,15.587188,-0.18680295,-0.57927454,-0.8296004,15.533083,-10.839747,1.2369225,-0.2517111,0.2868157,-0.32592142,-0.86495847,-9.848023,-2.2734616,-0.5885009,3.6009536,-3.4448514,-1.5436804,0
0.12999999999999998,15.883270532134349,5.1406600704488135,-5.99999984922987,-3.4760233754853878,16.506859,-0.4725648,-0.49343607,-0.72984457,15.43435,-10.861922,1.2310385,-0.26964977,0.26926294,-0.33504403,-0.8617027,-9.897311,-2.1614957,-0.58842176,3.8059518,-3.6751761,-1.6554285,0
0.13999999999999999,15.883270532134349,5.1406600704488135,-5.99999984922987,-3.4760233754853878,16.506859,-0.4725648,-0.49343607,-0.72984457,15.335161,-10.88296,1.2251657,-0.28860012,0.2500917,-0.34426385,-0.85769814,-9.939217,-2.0459547,-0.5859424,4.013474,-4.0381885,-1.7447655,0
0.15,15.883270532134349,5.1406600704488135,-5.99999984922987,-3.4760233754853878,16.506859,-0.4725648,-0.49343607,-0.72984457,15.235597,-10.902834,1.2193236,-0.3084816,0.22914217,-0.35340747,-0.8528984,-9.972424,-1.928633,-0.5822873,4.1886706,-4.344563,-1.829719,0
0.16,16.76984685909742,3.1111794416822685,-5.514075426980576,-1.2771700118725415,15.91499,-0.85984886,-0.98029697,-1.2931067,15.135746,-10.921529,1.2135239,-0.32909232,0.20666173,-0.36235845,-0.84716296,-9.996273,-1.810037,-0.5774962,4.336583,-4.603132,-1.9105036,0
0.17,16.76984685909742,3.1111794416822685,-5.514075426980576,-1.2771700118725415,15.91499,-0.85984886,-0.98029697,-1.2931067,15.035701,-10.939,1.2078062,-0.3497921,0.18321007,-0.37045926,-0.8407372,-10.011048,-1.6841273,-0.5658582,4.1454015,-4.7448707,-1.8794258,0
0.18000000000000002,16.76984685909742,3.1111794416822685,-5.514075426980576,-1.2771700118725415,15.91499,-0.85984886,-0.98029697,-1.2931067,14.935561,-10.955213,1.2022103,-0.37006608,0.15926296,-0.3772204,-0.8339009,-10.015314,-1.5583615,-0.5531483,3.984062,-4.8645535,-1.849873,0
0.19000000000000003,16.76984685909742,3.1111794416822685,-5.514075426980576,-1.2771700118725415,15.91499,-0.85984886,-0.98029697,-1.2931067,14.835431,-10.970171,1.1967467,-0.3899113,0.13490537,-0.38277704,-0.82659,-10.009135,-1.4335935,-0.53940547,3.8479056,-4.9656115,-1.8217703,0
0.20000000000000004,16.76104465584158,1.9814636078599324,-4.345234760801018,-1.0606372520165213,16.186335,-1.6288815,0.19987041,-0.80986094,14.7354145,-10.9838915,1.1914253,-0.4093192,0.11021048,-0.3872441,-0.818751,-9.992625,-1.3106316,-0.52471405,3.733,-5.050943,-1.7950466,0
0.21000000000000005,16.76104465584158,1.9814636078599324,-4.345234760801018,-1.0606372520165213,16.186335,-1.6288815,0.19987041,-0.80986094,14.635613,-10.996394,1.186255,-0.4280329,0.08580276,-0.3905534,-0.81048965,-9.9660015,-1.1902963,-0.5092561,3.4600937,-4.9404874,-1.759009,0
0.22000000000000006,16.76104465584158,1.9814636078599324,-4.345234760801018,-1.0606372520165213,16.186335,-1.6288815,0.19987041,-0.80986094,14.536127,-11.007708,1.1812427,-0.44587457,0.062189676,-0.39269137,-0.8019486,-9.929763,-1.0731671,-0.4931067,3.229717,-4.847322,-1.7247397,0
0.23000000000000007,16.76104465584158,1.9814636078599324,-4.345234760801018,-1.0606372520165213,16.186335,-1.6288815,0.19987041,-0.80986094,14.437049,-11.01787,1.1763948,-0.46293575,0.039268855,-0.39381784,-0.7931303,-9.884483,-0.9597913,-0.4763951,3.035242,-4.7687387,-1.692152,0
0.24000000000000007,16.76104465584158,1.9814636078599324,-4.345234760801018,-1.0606372520165213,16.635572,-1.7659535,0.25062826,-0.6730115,14.338467,-11.026918,1.1717163,-0.47928974,0.016951388,-0.39406487,-0.7840323,-9.830701,-0.8506489,-0.4592486,2.871074,-4.7024546,-1.6611634,0
0.25000000000000006,16.76104465584158,1.9814636078599324,-4.345234760801018,-1.0606372520165213,16.635572,-1.7659535,0.25062826,-0.6730115,14.240462,-11.034899,1.1672109,-0.49499485,-0.00483922,-0.3935417,-0.77464914,-9.768918,-0.7461647,-0.44179484,2.7324896,-4.6465435,-1.6316954,0
0.26000000000000006,16.76104465584158,1.9814636078599324,-4.345234760801018,-1.0606372520165213,16.635572,-1.7659535,0.25062826,-0.6730115,14.143113,-11.04186,1.162881,-0.51009744,-0.026168197,-0.39233875,-0.76497436,-9.69961,-0.6467182,-0.42416355,2.6155016,-4.599383,-1.6036735,0
0.2700000000000001,16.76104465584158,1.9814636078599324,-4.345234760801018,-1.0606372520165213,16.635572,-1.7659535,0.25062826,-0.6730115,14.046493,-11.0478525,1.1587278,-0.52463424,-0.047090676,-0.39053106,-0.755001,-9.623227,-0.5526507,-0.40648723,2.5167446,-4.5596023,-1.5770264,0
0.2800000000000001,16.44132765551339,-0.14980476030662362,-2.3832803899786135,0.653071884088145,18.470762,-2.9879234,2.6339393,-0.7346568,13.95067,-11.052932,1.154751,-0.5386342,-0.06765282,-0.38818085,-0.7447225,-9.540202,-0.4642704,-0.38890183,2.4333768,-4.526046,-1.5516871,0
0.2900000000000001,16.44132765551339,-0.14980476030662362,-2.3832803899786135,0.653071884088145,18.470762,-2.9879234,2.6339393,-0.7346568,13.855701,-11.057166,1.150938,-0.55173194,-0.08693117,-0.3851273,-0.73465055,-9.4527235,-0.38338515,-0.37372524,2.031166,-4.191331,-1.443499,0
0.3000000000000001,16.44132765551339,-0.14980476030662362,-2.3832803899786135,0.653071884088145,18.470762,-2.9879234,2.6339393,-0.7346568,13.761634,-11.06062,1.1472759,-0.56367964,-0.104209766,-0.38128674,-0.72527623,-9.360044,-0.30825153,-0.35872066,1.6915733,-3.9089322,-1.3406197,0
0.3100000000000001,16.44132765551339,-0.14980476030662362,-2.3832803899786135,0.653071884088145,18.470762,-2.9879234,2.6339393,-0.7346568,13.668515,-11.063352,1.1437634,-0.57464814,-0.11980545,-0.3768012,-0.71655184,-9.263001,-0.23870021,-0.34380123,1.4048543,-3.6706667,-1.2427886,0
0.3200000000000001,16.25775199251966,-2.244706528206766,0.22153540226686028,1.855665077674773,18.035995,-3.1386302,2.556884,-0.6745592,13.576386,-11.065413,1.1403999,-0.5847743,-0.13398704,-0.37178174,-0.70842385,-9.162299,-0.17455766,-0.32888088,1.1627799,-3.469632,-1.1497582,0
0.3300000000000001,16.25775199251966,-2.244706528206766,0.22153540226686028,1.855665077674773,18.035995,-3.1386302,2.556884,-0.6745592,13.485275,-11.066863,1.1371808,-0.59380627,-0.14581111,-0.3663117,-0.7013904,-9.059637,-0.116176404,-0.31498954,0.6302623,-2.8953671,-1.0024523,0
0.34000000000000014,16.25775199251966,-2.244706528206766,0.22153540226686028,1.855665077674773,18.035995,-3.1386302,2.556884,-0.6745592,13.395201,-11.067752,1.1341012,-0.60157025,-0.15455455,-0.36050516,-0.69588906,-8.955028,-0.062359627,-0.30088264,0.1824526,-2.4089766,-0.8622036,0
0.35000000000000014,16.25775199251966,-2.244706528206766,0.22153540226686028,1.855665077674773,18.035995,-3.1386302,2.556884,-0.6745592,13.30618,-11.068123,1.1311653,-0.6082687,-0.16072282,-0.35444373,-0.6917706,-8.8492,-0.012342062,-0.28615838,-0.19565555,-1.9985523,-0.728837,0
0.36000000000000015,17.493325974016084,-3.9139749288687824,3.208302992540817,2.053580539270149,16.995127,-2.6592143,4.567981,-0.03814931,13.21822,-11.06801,1.1283809,-0.6140564,-0.16473925,-0.34818092,-0.68888706,-8.742842,0.03449014,-0.2705691,-0.51490134,-1.6522204,-0.6020148,0
0.37000000000000016,17.493325974016084,-3.9139749288687824,3.208302992540817,2.053580539270149,16.995127,-2.6592143,4.567981,-0.03814931,13.131365,-11.067426,1.1258013,-0.6187346,-0.16573319,-0.34202632,-0.6875447,-8.628485,0.082118355,-0.24515796,-1.0446081,-0.89410317,-0.471704,0
0.38000000000000017,17.493325974016084,-3.9139749288687824,3.208302992540817,2.053580539270149,16.995127,-2.6592143,4.567981,-0.03814931,13.045648,-11.066374,1.1234831,-0.62215096,-0.16302997,-0.33622828,-0.6879678,-8.51507,0.12807305,-0.21825238,-1.4918641,-0.2543165,-0.3477876,0
0.3900000000000002,17.493325974016084,-3.9139749288687824,3.208302992540817,2.053580539270149,16.995127,-2.6592143,4.567981,-0.03814931,12.961058,-11.064866,1.1214426,-0.62445796,-0.15721533,-0.33072552,-0.6898956,-8.403422,0.17345862,-0.18956123,-1.8694882,0.28562033,-0.22995175,0
0.4000000000000002,18.38635235439238,-4.653578523996554,4.526410177902606,1.9641155390524188,14.518652,-1.7418271,2.9575922,-0.28728947,12.877572,-11.062903,1.1196988,-0.6257626,-0.14877841,-0.32545415,-0.69308406,-8.29425,0.2192043,-0.1588623,-2.188309,0.74130034,-0.117898166,0
0.4100000000000002,18.38635235439238,-4.653578523996554,4.526410177902606,1.9641155390524188,14.518652,-1.7418271,2.9575922,-0.28728947,12.79519,-11.060465,1.118306,-0.6260176,-0.13757347,-0.32047766,-0.6974735,-8.182783,0.26851767,-0.119312435,-2.5728076,1.3314457,-0.015733134,0
0.4200000000000002,18.38635235439238,-4.653578523996554,4.526410177902606,1.9641155390524188,14.518652,-1.7418271,2.9575922,-0.28728947,12.713902,-11.057525,1.1173207,-0.6251666,-0.12349923,-0.31583086,-0.7029689,-8.075364,0.32000196,-0.07736411,-2.8974116,1.8295196,0.08141859,0
0.4300000000000002,18.38635235439238,-4.653578523996554,4.526410177902606,1.9641155390524188,14.518652,-1.7418271,2.9575922,-0.28728947,12.633666,-11.054056,1.1167672,-0.62325984,-0.106994934,-0.31141543,-0.7093091,-7.972748,0.37449798,-0.032977857,-3.1714413,2.2498937,0.17380308,0
0.4400000000000002,18.38635235439238,-4.653578523996554,4.526410177902606,1.9641155390524188,14.319915,-1.6904689,2.585777,-0.28693345,12.554428,-11.050023,1.1166694,-0.62033063,-0.08843388,-0.30714518,-0.7162618,-7.875638,0.43267235,0.013790473,-3.402768,2.6046948,0.2616542,0
0.45000000000000023,18.38635235439238,-4.653578523996554,4.526410177902606,1.9641155390524188,14.319915,-1.6904689,2.585777,-0.28693345,12.476131,-11.045388,1.1170508,-0.6164022,-0.06813526,-0.3029461,-0.7236224,-7.7846932,0.49503642,0.062797174,-3.5980392,2.9041567,0.34519446,0
0.46000000000000024,18.38635235439238,-4.653578523996554,4.526410177902606,1.9641155390524188,14.319915,-1.6904689,2.585777,-0.28693345,12.398711,-11.040107,1.1179323,-0.61149234,-0.046373617,-0.29875594,-0.7312122,-7.700531,0.56196254,0.11381967,-3.7628698,3.156915,0.42463538,0
0.47000000000000025,18.38635235439238,-4.653578523996554,4.526410177902606,1.9641155390524188,14.319915,-1.6904689,2.585777,-0.28693345,12.322097,-11.034133,1.119333,-0.6056162,-0.0233863,-0.29452327,-0.7388761,-7.6237297,0.6336986,0.1665663,-3.9019997,3.3702564,0.5001781,0
0.48000000000000026,18.84981107442032,-4.574520186701021,4.260066025680046,1.4704522895374736,13.923568,-1.6932961,2.3620453,0.23215672,12.24621,-11.027417,1.1212684,-0.5987883,0.00062040845,-0.2902063,-0.74647987,-7.5548267,0.71038073,0.22068588,-4.019432,3.5503316,0.5720139,0
0.49000000000000027,18.84981107442032,-4.574520186701021,4.260066025680046,1.4704522895374736,13.923568,-1.6932961,2.3620453,0.23215672,12.1709795,-11.019898,1.1237694,-0.5911014,0.025385361,-0.28573206,-0.75386447,-7.4927874,0.7940959,0.2796408,-4.106144,3.6608644,0.6161005,0
0.5000000000000002,18.84981107442032,-4.574520186701021,4.260066025680046,1.4704522895374736,13.923568,-1.6932961,2.3620453,0.23215672,12.096325,-11.011518,1.1268631,-0.58264476,0.050688263,-0.28104454,-0.7609004,-7.4397745,0.882808,0.33915687,-4.179327,3.7541661,0.6580238,0
0.5100000000000002,18.84981107442032,-4.574520186701021,4.260066025680046,1.4704522895374736,13.923568,-1.6932961,2.3620453,0.23215672,12.022153,-11.002226,1.1305529,-0.57342947,0.07641567,-0.27613688,-0.7675203,-7.39616,0.9763312,0.39877135,-4.241091,3.8329246,0.6978899,0
0.5200000000000002,18.74196119730045,-3.9042823407304277,3.4777941087746926,1.0250517045576681,14.290987,-1.7783817,2.2523205,0.42756674,11.948369,-10.991975,1.1348373,-0.5634682,0.102466874,-0.271005,-0.7736667,-7.362268,1.0744214,0.457999,-4.2932153,3.8994074,0.7357998,0
0.5300000000000002,18.74196119730045,-3.9042823407304277,3.4777941087746926,1.0250517045576681,14.290987,-1.7783817,2.2523205,0.42756674,11.874872,-10.980726,1.1397054,-0.55293673,0.12837484,-0.26567665,-0.77922815,-7.3384814,1.1761822,0.5154494,-4.2325654,3.833647,0.7499935,0
0.5400000000000003,18.74196119730045,-3.9042823407304277,3.4777941087746926,1.0250517045576681,14.290987,-1.7783817,2.2523205,0.42756674,11.801564,-10.96844,1.1451417,-0.54200846,0.15376808,-0.2601867,-0.7841459,-7.324631,1.2817414,0.5715657,-4.181376,3.7781403,0.76349074,0
0.5500000000000003,18.74196119730045,-3.9042823407304277,3.4777941087746926,1.0250517045576681,14.290987,-1.7783817,2.2523205,0.42756674,11.728345,-10.955081,1.1511308,-0.5306927,0.17869207,-0.25454253,-0.78844285,-7.320663,1.3906393,0.625922,-4.138171,3.7312882,0.77632564,0
0.5600000000000003,17.795807419321907,-2.7160055561774694,2.449822312140662,0.7481149119496233,14.065139,0.65570915,-0.9509028,0.5579905,11.655117,-10.940617,1.1576529,-0.5189978,0.20318338,-0.24875028,-0.7921368,-7.326506,1.5024273,0.67811155,-4.101706,3.691742,0.78853077,0
0.5700000000000003,17.795807419321907,-2.7160055561774694,2.449822312140662,0.7481149119496233,14.065139,0.65570915,-0.9509028,0.5579905,11.581784,-10.925051,1.164647,-0.5071667,0.22671069,-0.24297644,-0.7952021,-7.341245,1.6108887,0.7202996,-3.8855026,3.4981813,0.78654754,0
0.5800000000000003,17.795807419321907,-2.7160055561774694,2.449822312140662,0.7481149119496233,14.065139,0.65570915,-0.9509028,0.5579905,11.508261,-10.908391,1.1720498,-0.4954292,0.24886937,-0.237369,-0.79766506,-7.364771,1.721206,0.7598193,-3.7030325,3.3347883,0.78466165,0
0.5900000000000003,17.795807419321907,-2.7160055561774694,2.449822312140662,0.7481149119496233,14.065139,0.65570915,-0.9509028,0.5579905,11.434461,-10.89062,1.1798337,-0.48377,0.26985636,-0.2319047,-0.7996024,-7.3966274,1.8329537,0.79648113,-3.5490317,3.196861,0.78286827,0
0.6000000000000003,17.567596882663207,-1.574918019245046,0.9291778134326172,-1.1772217449590976,13.916768,1.3265892,-3.4658601,0.17380571,11.360301,-10.871726,1.1879691,-0.4721719,0.2898371,-0.22656116,-0.80107296,-7.436409,1.9457574,0.83012444,-3.419059,3.0804305,0.781163,0
0.6100000000000003,17.567596882663207,-1.574918019245046,0.9291778134326172,-1.1772217449590976,13.916768,1.3265892,-3.4658601,0.17380571,11.285708,-10.851708,1.1964171,-0.4610855,0.30830595,-0.22133131,-0.8020971,-7.483098,2.0578153,0.8589911,-3.1311226,2.7452874,0.6850645,0
0.6200000000000003,17.567596882663207,-1.574918019245046,0.9291778134326172,-1.1772217449590976,13.916768,1.3265892,-3.4658601,0.17380571,11.210616,-10.830568,1.2051386,-0.45091742,0.32489336,-0.21620874,-0.8027274,-7.536558,2.1702094,0.8848575,-2.8881595,2.4623473,0.5936816,0
0.6300000000000003,17.567596882663207,-1.574918019245046,0.9291778134326172,-1.1772217449590976,13.916768,1.3265892,-3.4658601,0.17380571,11.134956,-10.808304,1.2141044,-0.4415839,0.3399079,-0.21117097,-0.80303967,-7.59614,2.28263,0.90787876,-2.683141,2.2234824,0.5067828,0
0.6400000000000003,17.567596882663207,-1.574918019245046,0.9291778134326172,-1.1772217449590976,13.573261,1.286456,-3.5640671,0.13644308,11.058673,-10.784916,1.2232867,-0.4330054,0.35360736,-0.20619515,-0.80308867,-7.661291,2.3948355,0.9282037,-2.5101383,2.0218291,0.42414826,0
0.6500000000000004,17.567596882663207,-1.574918019245046,0.9291778134326172,-1.1772217449590976,13.573261,1.286456,-3.5640671,0.13644308,10.981713,-10.760408,1.2326595,-0.42510805,0.36620656,-0.20125927,-0.8029136,-7.7315435,2.506636,0.94596964,-2.3641489,1.8515925,0.34556854,0
0.6600000000000004,17.567596882663207,-1.574918019245046,0.9291778134326172,-1.1772217449590976,13.573261,1.286456,-3.5640671,0.13644308,10.904027,-10.734785,1.2421976,-0.41782424,0.3778847,-0.19634299,-0.8025429,-7.8064985,2.6178806,0.96129954,-2.240953,1.7078798,0.27084476,0
0.6700000000000004,17.567596882663207,-1.574918019245046,0.9291778134326172,-1.1772217449590976,13.573261,1.286456,-3.5640671,0.13644308,10.825568,-10.708053,1.2518774,-0.4110927,0.38879108,-0.19142799,-0.80199707,-7.885816,2.7284489,0.97430104,-2.1369896,1.5865593,0.1997877,0
0.6800000000000004,16.7563199597359,-0.02995902218211196,0.47312225601574753,-3.516966834242504,14.594818,2.3276494,-5.3873935,-0.3202885,10.746296,-10.680218,1.261676,-0.4048583,0.3990502,-0.18649808,-0.80129075,-7.9692073,2.838242,0.98506653,-2.049256,1.484143,0.13221742,0
0.6900000000000004,16.7563199597359,-0.02995902218211196,0.47312225601574753,-3.516966834242504,14.594818,2.3276494,-5.3873935,-0.3202885,10.666149,-10.651263,1.2715982,-0.3992883,0.4089613,-0.1816807,-0.80019456,-8.060591,2.9524133,0.9987651,-1.9059703,1.4984728,-0.03147142,0
0.7000000000000004,16.7563199597359,-0.02995902218211196,0.47312225601574753,-3.516966834242504,14.594818,2.3276494,-5.3873935,-0.3202885,10.585076,-10.62118,1.2816379,-0.3946025,0.41866326,-0.1770898,-0.7985292,-8.154354,3.0641322,1.0085664,-1.7573844,1.4828789,-0.1895991,0
0.7100000000000004,16.7563199597359,-0.02995902218211196,0.47312225601574753,-3.516966834242504,14.594818,2.3276494,-5.3873935,-0.3202885,10.503055,-10.589989,1.2917559,-0.3908268,0.4280339,-0.17269655,-0.79637736,-8.250091,3.1734807,1.014468,-1.6037146,1.4414102,-0.34249386,0
0.7200000000000004,15.75261843577618,2.1008639635153807,0.5289506229446874,-5.237338585554028,14.567688,2.3718593,-5.6557384,-0.3195052,10.420069,-10.557717,1.3019139,-0.38798302,0.43696788,-0.16847904,-0.79381526,-8.34739,3.280542,1.0165235,-1.4452729,1.377615,-0.49045613,0
0.7300000000000004,15.75261843577618,2.1008639635153807,0.5289506229446874,-5.237338585554028,14.567688,2.3718593,-5.6557384,-0.3195052,10.33602,-10.524298,1.3121547,-0.3861194,0.44592798,-0.16476059,-0.79051477,-8.4621935,3.402842,1.030783,-1.2345016,1.5878652,-0.68207526,0
0.7400000000000004,15.75261843577618,2.1008639635153807,0.5289506229446874,-5.237338585554028,14.567688,2.3718593,-5.6557384,-0.3195052,10.250825,-10.489672,1.3225105,-0.385234,0.455381,-0.16174243,-0.7861692,-8.576976,3.521932,1.0395019,-1.0556544,1.7643725,-0.86894864,0
0.7500000000000004,15.75261843577618,2.1008639635153807,0.5289506229446874,-5.237338585554028,14.567688,2.3718593,-5.6557384,-0.3195052,10.164481,-10.453868,1.3329253,-0.38527092,0.465244,-0.1592448,-0.7808681,-8.691448,3.638259,1.0425717,-0.9033773,1.9120215,-1.0511938,0
0.7600000000000005,14.86356452481415,4.5771155159191945,0.9707199461329099,-4.190942413714242,18.338993,2.9374325,-7.7427516,-0.1855236,10.076993,-10.41691,1.3433449,-0.38619262,0.47540814,-0.15712878,-0.77469504,-8.806172,3.753013,1.0406332,-0.75825095,2.0200098,-1.227654,0
0.7700000000000005,14.86356452481415,4.5771155159191945,0.9707199461329099,-4.190942413714242,18.338993,2.9374325,-7.7427516,-0.1855236,9.988397,-10.37885,1.3536896,-0.38843453,0.485289,-0.15624605,-0.76759356,-8.913118,3.8589091,1.0275279,-0.17776757,2.107729,-1.3505244,0
0.7800000000000005,14.86356452481415,4.5771155159191945,0.9707199461329099,-4.190942413714242,18.338993,2.9374325,-7.7427516,-0.1855236,9.898735,-10.339736,1.3638785,-0.39237475,0.49434975,-0.15728633,-0.75955313,-9.018985,3.9639134,1.009538,0.34943187,2.1444457,-1.4706984,0
0.7900000000000005,14.86356452481415,4.5771155159191945,0.9707199461329099,-4.190942413714242,18.338993,2.9374325,-7.7427516,-0.1855236,9.8080225,-10.299574,1.3738642,-0.39793202,0.50248647,-0.15994853,-0.7507153,-9.123022,4.0685883,0.9868508,0.831187,2.1385882,-1.5882664,0
0.8000000000000005,15.18889158583204,5.999999695738337,1.8950314984667853,-5.936614910866662,17.586168,1.6467816,-7.0793204,-0.75008446,9.716282,-10.258365,1.3836004,-0.40502742,0.5096091,-0.16397302,-0.7411908,-9.224553,4.173367,0.95972043,1.2740877,2.097297,-1.7033122,0
0.8100000000000005,15.18889158583204,5.999999695738337,1.8950314984667853,-5.936614910866662,17.586168,1.6467816,-7.0793204,-0.75008446,9.623456,-10.216015,1.3931023,-0.4134923,0.51644284,-0.1694104,-0.7304866,-9.340075,4.2968683,0.9399768,1.6529623,2.4239125,-1.8789207,0
0.8200000000000005,15.18889158583204,5.999999695738337,1.8950314984667853,-5.936614910866662,17.586168,1.6467816,-7.0793204,-0.75008446,9.529491,-10.1724205,1.4023842,-0.42315778,0.52355945,-0.17626767,-0.7181589,-9.452123,4.422161,0.915674,2.0016377,2.6706257,-2.048525,0
0.8300000000000005,15.18889158583204,5.999999695738337,1.8950314984667853,-5.936614910866662,17.586168,1.6467816,-7.0793204,-0.75008446,9.434427,-10.127563,1.4113992,-0.4339534,0.53067166,-0.18427491,-0.7043538,-9.560073,4.549558,0.88658696,2.3259974,2.8487158,-2.212498,0
0.8400000000000005,15.18889158583204,5.999999695738337,1.8950314984667853,-5.936614910866662,17.427505,1.7273875,-7.1938868,-0.81374186,9.338305,-10.081421,1.4200991,-0.44581473,0.5375284,-0.19319649,-0.68919307,-9.6633005,4.6792173,0.8526258,2.6306646,2.9680486,-2.371191,0
0.8500000000000005,15.18889158583204,5.999999695738337,1.8950314984667853,-5.936614910866662,17.427505,1.7273875,-7.1938868,-0.81374186,9.241178,-10.033971,1.4284352,-0.45868275,0.5439117,-0.20282483,-0.6727792,-9.7612,4.811169,0.81382376,2.9193747,3.0371206,-2.5249233,0
0.8600000000000005,15.18889158583204,5.999999695738337,1.8950314984667853,-5.936614910866662,17.427505,1.7273875,-7.1938868,-0.81374186,9.143101,-9.98519,1.4363595,-0.4725028,0.5496328,-0.21297544,-0.65519917,-9.853195,4.945331,0.77032095,3.1951344,3.0632515,-2.6739848,0
0.8700000000000006,15.18889158583204,5.999999695738337,1.8950314984667853,-5.936614910866662,17.427505,1.7273875,-7.1938868,-0.81374186,9.044135,-9.935059,1.4438262,-0.48722315,0.55452895,-0.2234827,-0.6365267,-9.9387455,5.0815287,0.7223495,3.4603531,3.052749,-2.8186393,0
0.8800000000000006,15.743282631284758,5.999999972078368,1.898465143446427,-5.999998501487773,15.96438,-0.59334266,-5.889405,-2.0430443,8.944349,-9.883554,1.4507922,-0.5027937,0.5584601,-0.2341964,-0.6168243,-10.017362,5.2195015,0.6702199,3.7169518,3.0110495,-2.9591281,0
0.8900000000000006,15.743282631284758,5.999999972078368,1.898465143446427,-5.999998501487773,15.96438,-0.59334266,-5.889405,-2.0430443,8.843803,-9.830642,1.4572241,-0.5191825,0.5612913,-0.24497594,-0.59614414,-10.090778,5.363171,0.615595,3.972719,2.9370863,-3.0993416,0
0.9000000000000006,15.743282631284758,5.999999972078368,1.898465143446427,-5.999998501487773,15.96438,-0.59334266,-5.889405,-2.0430443,8.742562,-9.776287,1.4630922,-0.53635603,0.5629039,-0.25569007,-0.57452893,-10.156204,5.507931,0.5575248,4.222616,2.8405492,-3.2357216,0
0.9100000000000006,15.743282631284758,5.999999972078368,1.898465143446427,-5.999998501487773,15.96438,-0.59334266,-5.889405,-2.0430443,8.640708,-9.720481,1.4683644,-0.5542603,0.5632083,-0.26621816,-0.5520138,-10.213314,5.653328,0.4965068,4.4675684,2.7249513,-3.3684568,0
0.9200000000000006,17.262714574795428,6.0,1.889821735024682,-5.999999587473393,15.492437,-0.39055285,-6.1311,-2.1145027,8.538324,-9.6632185,1.4730141,-0.57283324,0.562133,-0.2764467,-0.5286258,-10.261996,5.7993035,0.4331737,4.703119,2.5985243,-3.4972737,0
0.9300000000000006,17.262714574795428,6.0,1.889821735024682,-5.999999587473393,15.492437,-0.39055285,-6.1311,-2.1145027,8.435473,-9.604415,1.4770398,-0.5919333,0.5597084,-0.28627533,-0.5043683,-10.306591,5.961952,0.3718131,4.9053135,2.4871504,-3.6200833,0
0.9400000000000006,17.262714574795428,6.0,1.889821735024682,-5.999999587473393,15.492437,-0.39055285,-6.1311,-2.1145027,8.332222,-9.543971,1.4804476,-0.611361,0.5560401,-0.29562536,-0.4792309,-10.34207,6.1270013,0.30967334,5.075991,2.3932095,-3.7368662,0
0.9500000000000006,17.262714574795428,6.0,1.889821735024682,-5.999999587473393,15.492437,-0.39055285,-6.1311,-2.1145027,8.228664,-9.481868,1.4832324,-0.63093114,0.5512217,-0.30443582,-0.4532096,-10.368068,6.2938666,0.24725068,5.220066,2.3139787,-3.8479187,0
0.9600000000000006,19.236126449938492,6.0,2.0555500838699166,-5.999999844485787,15.32198,0.87990725,-5.6019745,-2.1544328,8.124894,-9.41809,1.4853935,-0.65047514,0.545332,-0.31265822,-0.4263093,-10.38431,6.4619203,0.18501928,5.341685,2.2471597,-3.9535222,0
0.9700000000000006,19.236126449938492,6.0,2.0555500838699166,-5.999999844485787,15.32198,0.87990725,-5.6019745,-2.1544328,8.021007,-9.352532,1.4869559,-0.6698186,0.5384651,-0.32029793,-0.39850655,-10.391324,6.649773,0.12760223,5.444416,2.2166579,-4.053943,0
0.9800000000000006,19.236126449938492,6.0,2.0555500838699166,-5.999999844485787,15.32198,0.87990725,-5.6019745,-2.1544328,7.9171057,-9.285094,1.4879496,-0.68880284,0.5306967,-0.32736057,-0.36979258,-10.387118,6.837453,0.07135131,5.5311284,2.1909604,-4.1494365,0
0.9900000000000007,19.236126449938492,6.0,2.0555500838699166,-5.999999844485787,15.32198,0.87990725,-5.6019745,-2.1544328,7.8133035,-9.215786,1.4883884,-0.7073039,0.5220647,-0.33381218,-0.3402042,-10.371644,7.0241766,0.016694354,5.604319,2.1693141,-4.240244,0
1.0000000000000007,20.759915145389822,6.0,2.126421317787796,-5.9999998495197,16.023987,0.16813388,-5.01413,-2.8507855,7.7097116,-9.144618,1.4882904,-0.7252083,0.51260287,-0.33962584,-0.30978265,-10.344943,7.209146,-0.035954464,5.6660967,2.1510832,-4.326596,0
1.0100000000000007,20.759915145389822,6.0,2.126421317787796,-5.9999998495197,16.023987,0.16813388,-5.01413,-2.8507855,7.606457,-9.07154,1.4876964,-0.7424025,0.50235003,-0.34480116,-0.27855867,-10.30415,7.4060044,-0.08240687,5.718272,2.1467843,-4.40871,0
1.0200000000000007,20.759915145389822,6.0,2.126421317787796,-5.9999998495197,16.023987,0.16813388,-5.01413,-2.8507855,7.5036693,-8.9965105,1.4866526,-0.75878274,0.49133936,-0.34933874,-0.24656987,-10.251602,7.5992336,-0.12586369,5.7623067,2.143189,-4.486795,0
1.0300000000000007,20.759915145389822,6.0,2.126421317787796,-5.9999998495197,16.023987,0.16813388,-5.01413,-2.8507855,7.401464,-8.919571,1.4851907,-0.77426356,0.4795927,-0.35322106,-0.2138728,-10.187612,7.787976,-0.1659461,5.79947,2.1401849,-4.5610485,0
1.0400000000000007,20.759915145389822,6.0,2.126421317787796,-5.9999998495197,16.240088,0.02222839,-4.944822,-2.9812312,7.2999544,-8.840769,1.4833465,-0.7887666,0.4671313,-0.35643476,-0.18052642,-10.112577,7.9713902,-0.20229328,5.830834,2.1376772,-4.631658,0
1.0500000000000007,20.759915145389822,6.0,2.126421317787796,-5.9999998495197,16.240088,0.02222839,-4.944822,-2.9812312,7.199249,-8.760163,1.4811589,-0.80222005,0.45397606,-0.35897005,-0.14659184,-10.026983,8.148661,-0.23456477,5.8573027,2.1355858,-4.698803,0
1.0600000000000007,20.759915145389822,6.0,2.126421317787796,-5.9999998495197,16.240088,0.02222839,-4.944822,-2.9812312,7.099449,-8.677819,1.4786702,-0.8145582,0.44014782,-0.36082014,-0.11213217,-9.931397,8.319002,-0.26244274,5.8796396,2.1338434,-4.7626534,0
1.0700000000000007,20.759915145389822,6.0,2.126421317787796,-5.9999998495197,16.240088,0.02222839,-4.944822,-2.9812312,7.000653,-8.593809,1.4759262,-0.8257211,0.42566746,-0.3619809,-0.077212326,-9.826458,8.481669,-0.28563428,5.8984904,2.132394,-4.82337,0
1.0800000000000007,20.999999238663698,5.999999985582058,1.891716808149719,-5.9999994423513625,16.790977,1.5101205,-3.4178371,-1.7071005,6.90295,-8.508215,1.4729747,-0.8356541,0.41055617,-0.36245048,-0.041898835,-9.712882,8.635963,-0.3038733,5.9143977,2.1311903,-4.8811073,0
1.0900000000000007,20.999999238663698,5.999999985582058,1.891716808149719,-5.9999994423513625,16.790977,1.5101205,-3.4178371,-1.7071005,6.8064294,-8.421113,1.4698714,-0.8443423,0.39483318,-0.36215067,-0.006297866,-9.590051,8.782919,-0.31593361,5.9277034,2.09359,-4.9360113,0
1.1000000000000008,20.999999238663698,5.999999985582058,1.891716808149719,-5.9999994423513625,16.790977,1.5101205,-3.4178371,-1.7071005,6.711173,-8.332589,1.4666749,-0.8517708,0.3785237,-0.3610213,0.0294929,-9.460171,8.920171,-0.32249424,5.938947,2.0618694,-4.9882216,0
1.1100000000000008,20.999999238663698,5.999999985582058,1.891716808149719,-5.9999994423513625,16.790977,1.5101205,-3.4178371,-1.7071005,6.617247,-8.2427435,1.4634413,-0.85789293,0.36165687,-0.35908875,0.065416306,-9.324196,9.04721,-0.32334068,5.9484477,2.035111,-5.03787,0
1.1200000000000008,21.0,5.999999972414035,0.42939607025394944,-5.999999348729015,17.433134,1.3554369,-3.5848114,-1.7471536,6.524707,-8.151681,1.4602283,-0.86266744,0.34426066,-0.3563777,0.10141228,-9.183121,9.163598,-0.31830162,5.9564753,2.012539,-5.085082,0
1.1300000000000008,21.0,5.999999972414035,0.42939607025394944,-5.999999348729015,17.433134,1.3554369,-3.5848114,-1.7471536,6.4335985,-8.059508,1.457096,-0.86626893,0.32643145,-0.35240778,0.13722011,-9.038008,9.268994,-0.30721948,5.962497,1.7654535,-5.129977,0
1.1400000000000008,21.0,5.999999972414035,0.42939607025394944,-5.999999348729015,17.433134,1.3554369,-3.5848114,-1.7471536,6.343956,-7.966338,1.4541056,-0.86884254,0.30827945,-0.34680572,0.17263298,-8.890169,9.363283,-0.28982043,5.9676933,1.5569117,-5.1726694,0
1.1500000000000008,21.0,5.999999972414035,0.42939607025394944,-5.999999348729015,17.433134,1.3554369,-3.5848114,-1.7471536,6.2557993,-7.8722806,1.451322,-0.87031287,0.28984386,-0.33974037,0.20765927,-8.740953,9.446486,-0.265861,5.9721766,1.3809024,-5.213267,0
1.1600000000000008,20.999999868161687,5.976815246555773,0.05709237196021888,-5.99999985985338,16.919445,2.569334,-5.3666687,-2.157845,6.1691365,-7.777446,1.4488114,-0.8706145,0.27115548,-0.33135894,0.2422937,-8.591657,9.518706,-0.2351901,5.9760427,1.2323514,-5.251872,0
1.1700000000000008,20.999999868161687,5.976815246555773,0.05709237196021888,-5.99999985985338,16.919445,2.569334,-5.3666687,-2.157845,6.0839615,-7.6819434,1.4466414,-0.8697383,0.25228575,-0.32166356,0.27647725,-8.443536,9.580126,-0.19773541,5.9755616,1.0489283,-5.288583,0
1.1800000000000008,20.999999868161687,5.976815246555773,0.05709237196021888,-5.99999985985338,16.919445,2.569334,-5.3666687,-2.157845,6.0002575,-7.5858793,1.4448802,-0.8676752,0.23329918,-0.31066898,0.31015483,-8.297842,9.631055,-0.15347253,5.975245,0.89411664,-5.323492,0
1.1900000000000008,20.999999868161687,5.976815246555773,0.05709237196021888,-5.99999985985338,16.919445,2.569334,-5.3666687,-2.157845,5.9179926,-7.489357,1.4435954,-0.8643739,0.21420854,-0.29851368,0.3433104,-8.15578,9.671885,-0.10244687,5.9750543,0.7634541,-5.3566885,0
1.2000000000000008,20.999999621020564,4.165475943832339,-0.38334678758411683,-5.999999908221275,16.824123,2.2195055,-5.3074336,-1.0694542,5.837125,-7.392475,1.442854,-0.8597924,0.19502462,-0.28531963,0.37591895,-8.0184765,9.703063,-0.044779815,5.974958,0.65317446,-5.388256,0
1.2100000000000009,20.999999621020564,4.165475943832339,-0.38334678758411683,-5.999999908221275,16.824123,2.2195055,-5.3074336,-1.0694542,5.7576027,-7.2953277,1.442722,-0.85382193,0.17644966,-0.27133006,0.40771744,-7.8869643,9.725148,0.019307783,5.6922145,0.49240902,-5.418275,0
1.2200000000000009,20.999999621020564,4.165475943832339,-0.38334678758411683,-5.999999908221275,16.824123,2.2195055,-5.3074336,-1.0694542,5.6793633,-7.1980004,1.4432609,-0.84643793,0.1590516,-0.25679073,0.4385245,-7.7620034,9.739048,0.08937663,5.4536467,0.3565742,-5.4468207,0
1.2300000000000009,20.999999621020564,4.165475943832339,-0.38334678758411683,-5.999999908221275,16.824123,2.2195055,-5.3074336,-1.0694542,5.6023383,-7.100571,1.4445285,-0.83771783,0.14265448,-0.2417976,0.4684146,-7.6441746,9.745739,0.16494758,5.252354,0.24180396,-5.473965,0
1.2400000000000009,20.999999621020564,4.165475943832339,-0.38334678758411683,-5.999999908221275,16.709408,2.4583817,-5.37708,-1.5345643,5.526454,-7.0031075,1.4465773,-0.827724,0.12710617,-0.22642727,0.497441,-7.5339556,9.746141,0.24557175,5.0825124,0.14483134,-5.499778,0
1.2500000000000009,20.999999621020564,4.165475943832339,-0.38334678758411683,-5.999999908221275,16.709408,2.4583817,-5.37708,-1.5345643,5.4516315,-6.9056673,1.4494557,-0.81650776,0.11227615,-0.21074155,0.5256397,-7.4317393,9.741119,0.33082387,4.939208,0.06289585,-5.5243235,0
1.260000000000001,20.999999621020564,4.165475943832339,-0.38334678758411683,-5.999999908221275,16.709408,2.4583817,-5.37708,-1.5345643,5.3777905,-6.8083014,1.4532081,-0.8041125,0.098053195,-0.19479078,0.55303276,-7.3378487,9.731496,0.42029688,4.8182955,-0.006334586,-5.5476656,0
1.270000000000001,20.999999621020564,4.165475943832339,-0.38334678758411683,-5.999999908221275,16.709408,2.4583817,-5.37708,-1.5345643,5.3048453,-6.711051,1.4578748,-0.7905761,0.084343165,-0.17861657,0.57963073,-7.2525415,9.718053,0.5135974,4.716276,-0.064829625,-5.569862,0
1.280000000000001,20.839885449817615,2.1384458497769008,-0.654219290067579,-5.999999852408551,15.501701,1.4786664,-4.270758,0.64439034,5.2327094,-6.613951,1.4634919,-0.7759323,0.07106692,-0.16225395,0.60543543,-7.1760235,9.701537,0.6103427,4.6301985,-0.114253946,-5.590969,0
1.290000000000001,20.839885449817615,2.1384458497769008,-0.654219290067579,-5.999999852408551,15.501701,1.4786664,-4.270758,0.64439034,5.1612916,-6.517028,1.4700847,-0.760184,0.05884967,-0.14615133,0.63031465,-7.1088963,9.682836,0.70862854,4.241305,-0.1971022,-5.6110396,0
1.300000000000001,20.839885449817615,2.1384458497769008,-0.654219290067579,-5.999999852408551,15.501701,1.4786664,-4.270758,0.64439034,5.0905023,-6.4202995,1.4776733,-0.7433816,0.048174165,-0.13069741,0.6542025,-7.0502186,9.662666,0.8094617,3.9131043,-0.26724023,-5.630126,0
1.310000000000001,20.839885449817615,2.1384458497769008,-0.654219290067579,-5.999999852408551,15.501701,1.4786664,-4.270758,0.64439034,5.02026,-6.3237767,1.4862813,-0.72561157,0.03878777,-0.11583096,0.6771753,-6.999494,9.641809,0.912402,3.6361248,-0.32661793,-5.648276,0
1.320000000000001,18.281832579252555,0.6019472921878258,-0.9944819639093815,-5.999999595992334,15.28055,1.3812176,-4.156807,0.225218,4.950487,-6.2274632,1.4959275,-0.70694226,0.030477561,-0.101493046,0.69928735,-6.956247,9.620938,1.0170823,3.4023726,-0.3768865,-5.665535,0
1.330000000000001,18.281832579252555,0.6019472921878258,-0.9944819639093815,-5.999999595992334,15.28055,1.3812176,-4.156807,0.225218,4.8810887,-6.131343,1.5065025,-0.68742996,0.023590665,-0.08796978,0.720517,-6.924421,9.603136,1.0981189,2.965291,-0.47162065,-5.681947,0
1.340000000000001,18.281832579252555,0.6019472921878258,-0.9944819639093815,-5.999999595992334,15.28055,1.3812176,-4.156807,0.225218,4.811981,-6.0353966,1.517893,-0.66713953,0.018383328,-0.07550044,0.7408686,-6.8980002,9.586339,1.1801304,2.5964248,-0.55182326,-5.697554,0
1.350000000000001,18.281832579252555,0.6019472921878258,-0.9944819639093815,-5.999999595992334,15.28055,1.3812176,-4.156807,0.225218,4.743113,-5.939611,1.5301074,-0.6461295,0.014569645,-0.06396414,0.760403,-6.8762426,9.570957,1.2628918,2.2851279,-0.6197239,-5.7123947,0
1.360000000000001,16.870008932355166,-1.865102506288726,-5.006721909958556,-5.999999965670576,12.985023,-0.14572462,-3.1524558,1.7294178,4.6744423,-5.8439713,1.5431527,-0.62444526,0.011910107,-0.05325111,0.77915996,-6.8584805,9.557306,1.3462286,2.0224156,-0.67720914,-5.726507,0
1.370000000000001,16.870008932355166,-1.865102506288726,-5.006721909958556,-5.999999965670576,12.985023,-0.14572462,-3.1524558,1.7294178,4.6059265,-5.748453,1.5569634,-0.6021928,0.012075011,-0.043053325,0.7970973,-6.845123,9.546626,1.4159567,1.4136366,-1.3501408,-5.7399273,0
1.380000000000001,16.870008932355166,-1.865102506288726,-5.006721909958556,-5.999999965670576,12.985023,-0.14572462,-3.1524558,1.7294178,4.5375338,-5.6530294,1.5714729,-0.57943267,0.016384915,-0.033178445,0.8141795,-6.8336062,9.5386505,1.4859716,0.90017736,-1.9184748,-5.752689,0
1.390000000000001,16.870008932355166,-1.865102506288726,-5.006721909958556,-5.999999965670576,12.985023,-0.14572462,-3.1524558,1.7294178,4.4692526,-5.5576687,1.5866835,-0.5561253,0.024178265,-0.023675587,0.83040905,-6.822625,9.534131,1.55615,0.4671153,-2.39847,-5.7648244,0
1.400000000000001,13.696074294051051,-2.4836674571476873,-5.999999719954651,-5.999999972074487,13.594679,-2.4055111,-1.3036737,2.5510352,4.4010835,-5.462333,1.602596,-0.5322283,0.03489046,-0.0145711405,0.8457559,-6.8109837,9.533587,1.6263425,0.10186322,-2.8038576,-5.776365,0
1.410000000000001,13.696074294051051,-2.4836674571476873,-5.999999719954651,-5.999999972074487,13.594679,-2.4055111,-1.3036737,2.5510352,4.3330264,-5.366985,1.6190517,-0.5076972,0.048506383,-0.005879214,0.86014867,-6.80009,9.53665,1.6647302,-0.30324268,-3.3007715,-5.7873383,0
1.420000000000001,13.696074294051051,-2.4836674571476873,-5.999999719954651,-5.999999972074487,13.594679,-2.4055111,-1.3036737,2.5510352,4.2650895,-5.271587,1.6358895,-0.4824799,0.06498054,0.0023826621,0.8734899,-6.786793,9.543428,1.7027688,-0.64488643,-3.7204254,-5.7977734,0
1.430000000000001,13.696074294051051,-2.4836674571476873,-5.999999719954651,-5.999999972074487,13.594679,-2.4055111,-1.3036737,2.5510352,4.197302,-5.176102,1.6531049,-0.45653555,0.08382097,0.010206319,0.8856889,-6.770187,9.554017,1.7401978,-0.93300855,-4.0748324,-5.807697,0
1.440000000000001,13.696074294051051,-2.4836674571476873,-5.999999719954651,-5.999999972074487,12.399348,-2.594333,-0.45501608,2.3733392,4.1297,-5.0804935,1.6706903,-0.42983782,0.10460241,0.017593656,0.8966537,-6.74947,9.568369,1.7767097,-1.1759925,-4.374137,-5.817133,0
1.450000000000001,13.696074294051051,-2.4836674571476873,-5.999999719954651,-5.999999972074487,12.399348,-2.594333,-0.45501608,2.3733392,4.0623293,-4.9847226,1.6886349,-0.40237522,0.12695576,0.024553405,0.9062964,-6.7239485,9.586322,1.8119565,-1.3809087,-4.6269064,-5.8261065,0
1.460000000000001,13.696074294051051,-2.4836674571476873,-5.999999719954651,-5.999999972074487,12.399348,-2.594333,-0.45501608,2.3733392,3.99524,-4.8887553,1.7069238,-0.37415028,0.15055937,0.03109876,0.9145359,-6.6930304,9.607613,1.8455586,-1.5537208,-4.8403773,-5.83464,0
1.470000000000001,13.696074294051051,-2.4836674571476873,-5.999999719954651,-5.999999972074487,12.399348,-2.594333,-0.45501608,2.3733392,3.928489,-4.7925596,1.7255388,-0.3451782,0.17513178,0.03724561,0.92129976,-6.6562257,9.631893,1.8771126,-1.6994572,-5.0206585,-5.8427544,0
1.480000000000001,12.185986454647761,-4.0529545215909435,-5.507354946797004,-5.999999956350383,10.892863,-1.995834,1.2284493,2.6944249,3.862137,-4.6961083,1.7444575,-0.31548557,0.20042579,0.043011233,0.92652464,-6.6131444,9.658744,1.9062016,-1.8223599,-5.1729107,-5.8504705,0
1.490000000000001,12.185986454647761,-4.0529545215909435,-5.507354946797004,-5.999999956350383,10.892863,-1.995834,1.2284493,2.6944249,3.796222,-4.599394,1.7635841,-0.28498638,0.22623,0.047770433,0.93022597,-6.5689554,9.68446,1.9187013,-2.1704404,-5.2237315,-5.857808,0
1.500000000000001,12.185986454647761,-4.0529545215909435,-5.507354946797004,-5.999999956350383,10.892863,-1.995834,1.2284493,2.6944249,3.730779,-4.5024157,1.7828215,-0.2536097,0.25233266,0.05103668,0.932419,-6.518663,9.711308,1.9282857,-2.4642074,-5.266832,-5.864785,0
1.5100000000000011,12.185986454647761,-4.0529545215909435,-5.507354946797004,-5.999999956350383,10.892863,-1.995834,1.2284493,2.6944249,3.6658702,-4.4051666,1.8021388,-0.22141919,0.2785322,0.053015534,0.93305,-6.4621177,9.73852,1.9346266,-2.7121356,-5.3033834,-5.8714204,0
1.5200000000000011,10.85394087581677,-5.99999919200373,-4.4165660361438,-5.9999999014298835,10.618292,-2.0303571,1.2676525,2.6110182,3.6015582,-4.3076468,1.8215019,-0.18848598,0.30465353,0.05388442,0.93207043,-6.399288,9.765345,1.937415,-2.9213772,-5.33438,-5.87773,0
1.5300000000000011,10.85394087581677,-5.99999919200373,-4.4165660361438,-5.9999999014298835,10.618292,-2.0303571,1.2676525,2.6110182,3.5378685,-4.209878,1.8408204,-0.15466748,0.33027261,0.052994363,0.92961776,-6.337799,9.788195,1.9257686,-3.4009547,-5.1893983,-5.88373,0
1.5400000000000011,10.85394087581677,-5.99999919200373,-4.4165660361438,-5.9999999014298835,10.618292,-2.0303571,1.2676525,2.6110182,3.4748204,-4.1118894,1.8600049,-0.11984772,0.35501015,0.04986296,0.9258064,-6.2709627,9.8091,1.9105724,-3.8058274,-5.06731,-5.8894353,0
1.5500000000000012,10.85394087581677,-5.99999919200373,-4.4165660361438,-5.9999999014298835,10.618292,-2.0303571,1.2676525,2.6110182,3.4124663,-4.0137053,1.8790194,-0.0841465,0.37878755,0.044856347,0.92055786,-6.199072,9.827154,1.8917363,-4.147632,-4.964501,-5.8948603,0
1.5600000000000012,6.125137242256683,-5.999999519944285,-1.5409843035662465,-5.999999910346335,11.112013,-2.2232118,2.0513625,0.8728989,3.3508549,-3.9153588,1.897827,-0.04768696,0.40153736,0.0382864,0.91379833,-6.122516,9.841544,1.8691947,-4.4361935,-4.8779283,-5.9000196,0
1.5700000000000012,6.125137242256683,-5.999999519944285,-1.5409843035662465,-5.999999910346335,11.112013,-2.2232118,2.0513625,0.8728989,3.2898557,-3.8169131,1.9162328,-0.010638241,0.42216048,0.030382693,0.9059491,-6.07697,9.847187,1.8116436,-4.678081,-4.356587,-5.904926,0
1.5800000000000012,6.125137242256683,-5.999999519944285,-1.5409843035662465,-5.999999910346335,11.112013,-2.2232118,2.0513625,0.8728989,3.229322,-3.7184248,1.9340532,0.026848514,0.4398237,0.021394782,0.89742744,-6.0295177,9.849998,1.7521554,-4.882556,-3.916692,-5.9095907,0
1.5900000000000012,6.125137242256683,-5.999999519944285,-1.5409843035662465,-5.999999910346335,11.112013,-2.2232118,2.0513625,0.8728989,3.1692703,-3.6199238,1.95127,0.06467568,0.45483118,0.011584688,0.8881502,-5.980626,9.8497,1.6909356,-5.055404,-3.54552,-5.9140267,0
1.6000000000000012,3.786416344539641,-5.999999788132653,-0.45933685327043955,-5.999999888272647,12.673121,-0.7707614,2.1698496,0.5250783,3.109713,-3.5214422,1.9678665,0.10274511,0.4674401,0.0011651386,0.8780326,-5.9307466,9.846087,1.628185,-5.201517,-3.2323353,-5.918246,0
1.6100000000000012,3.786416344539641,-5.999999788132653,-0.45933685327043955,-5.999999888272647,12.673121,-0.7707614,2.1698496,0.5250783,3.0505614,-3.4230013,1.9837636,0.14095902,0.47749183,-0.009639895,0.8672016,-5.8995724,9.841718,1.551117,-5.32438,-2.7993982,-5.9222574,0
1.6200000000000012,3.786416344539641,-5.999999788132653,-0.45933685327043955,-5.999999888272647,12.673121,-0.7707614,2.1698496,0.5250783,2.9917216,-3.3246152,1.9988865,0.1792273,0.48488653,-0.02063067,0.85576665,-5.868338,9.835168,1.4733844,-5.428341,-2.4340506,-5.9260726,0
1.6300000000000012,3.786416344539641,-5.999999788132653,-0.45933685327043955,-5.999999888272647,12.673121,-0.7707614,2.1698496,0.5250783,2.9331937,-3.2263057,2.0132294,0.21746163,0.4899031,-0.031686526,0.8436237,-5.837313,9.826431,1.3951449,-5.5163074,-2.125741,-5.9297004,0
1.6400000000000012,3.786416344539641,-5.999999788132653,-0.45933685327043955,-5.999999888272647,14.533327,-1.081458,1.8528237,0.8139703,2.8749738,-3.1280942,2.0267878,0.2555725,0.49277726,-0.042713206,0.8306795,-5.8067455,9.815535,1.3165442,-5.5907397,-1.865565,-5.9331503,0
1.6500000000000012,3.786416344539641,-5.999999788132653,-0.45933685327043955,-5.999999888272647,14.533327,-1.081458,1.8528237,0.8139703,2.8170562,-3.0300024,2.0395594,0.29347,0.49370906,-0.053637214,0.8168533,-5.776866,9.802529,1.2377157,-5.6537194,-1.6460081,-5.936431,0
1.6600000000000013,3.786416344539641,-5.999999788132653,-0.45933685327043955,-5.999999888272647,14.533327,-1.081458,1.8528237,0.8139703,2.7594333,-2.9320507,2.0515418,0.33106458,0.49286893,-0.06440133,0.8020776,-5.747887,9.78749,1.1587822,-5.7070093,-1.4607288,-5.9395504,0
1.6700000000000013,3.786416344539641,-5.999999788132653,-0.45933685327043955,-5.999999888272647,14.533327,-1.081458,1.8528237,0.8139703,2.7020946,-2.8342593,2.0627348,0.36826771,0.49040285,-0.07496099,0.78629786,-5.7200055,9.77051,1.0798556,-5.752099,-1.3043759,-5.942517,0
1.6800000000000013,4.766547551298521,-5.999999729981413,-1.515949591272865,-5.999999896418039,15.524706,0.6353389,-2.9612203,0.581678,2.6450286,-2.736647,2.0731392,0.4049923,0.48643664,-0.08528151,0.76947206,-5.6934,9.751704,1.0010378,-5.7902513,-1.1724336,-5.9453373,0
1.6900000000000013,4.766547551298521,-5.999999729981413,-1.515949591272865,-5.999999896418039,15.524706,0.6353389,-2.9612203,0.581678,2.5882545,-2.6392574,2.0827813,0.44111592,0.48140082,-0.095512964,0.75136334,-5.6617184,9.725889,0.9274577,-5.8231707,-1.2258675,-5.9480195,0
1.7000000000000013,4.766547551298521,-5.999999729981413,-1.515949591272865,-5.999999896418039,15.524706,0.6353389,-2.9612203,0.581678,2.5317876,-2.5421362,2.0916893,0.4765182,0.47563267,-0.10579103,0.73178667,-5.632024,9.698078,0.854181,-5.850924,-1.2709886,-5.9505706,0
1.7100000000000013,4.766547551298521,-5.999999729981413,-1.515949591272865,-5.999999896418039,15.524706,0.6353389,-2.9612203,0.581678,2.475607,-2.4453022,2.0998662,0.51111966,0.46911004,-0.11606684,0.7107886,-5.6044784,9.6684265,0.7812487,-5.874322,-1.3090904,-5.9529967,0
1.7200000000000013,6.318544453045462,-5.999999698105615,-2.6034049608789145,-5.999999865739373,15.855273,0.3416454,-2.7900958,1.0044397,2.4196904,-2.3487735,2.1073155,0.5448442,0.46181837,-0.1262951,0.6884168,-5.5792303,9.637107,0.7087019,-5.8940477,-1.3412646,-5.9553037,0
1.7300000000000013,6.318544453045462,-5.999999698105615,-2.6034049608789145,-5.999999865739373,15.855273,0.3416454,-2.7900958,1.0044397,2.364052,-2.2526183,2.1140838,0.5775622,0.45404404,-0.13667636,0.66451854,-5.548985,9.593619,0.6450302,-5.9113355,-1.5380205,-5.957497,0
1.7400000000000013,6.318544453045462,-5.999999698105615,-2.6034049608789145,-5.999999865739373,15.855273,0.3416454,-2.7900958,1.0044397,2.3086994,-2.156907,2.120218,0.6091489,0.44600123,-0.14737847,0.63898325,-5.5221267,9.548378,0.5819033,-5.9258084,-1.7041034,-5.959583,0
1.7500000000000013,6.318544453045462,-5.999999698105615,-2.6034049608789145,-5.999999865739373,15.855273,0.3416454,-2.7900958,1.0044397,2.2535975,-2.061656,2.1257236,0.6395396,0.43758845,-0.15831211,0.61191684,-5.498807,9.50161,0.5193011,-5.9379244,-1.8442951,-5.961566,0
1.7600000000000013,9.052495565289924,-5.999999803555197,-3.357498409678603,-5.999999834300469,16.279507,-2.1427276,-0.32377726,3.8063178,2.1987104,-1.9668792,2.130606,0.6686725,0.42872518,-0.16939364,0.58341837,-5.479161,9.453566,0.45721334,-5.948066,-1.9626321,-5.9634523,0
1.7700000000000014,9.052495565289924,-5.999999803555197,-3.357498409678603,-5.999999834300469,16.279507,-2.1427276,-0.32377726,3.8063178,2.1440365,-1.872694,2.1349485,0.6964354,0.41952044,-0.18074992,0.5534521,-5.4564443,9.383287,0.4114311,-5.9570127,-2.18012,-5.9652457,0
1.7800000000000014,9.052495565289924,-5.999999803555197,-3.357498409678603,-5.999999834300469,16.279507,-2.1427276,-0.32377726,3.8063178,2.0895622,-1.7792171,2.1388369,0.72271985,0.41004822,-0.1924783,0.5220037,-5.4393167,9.3119335,0.36631736,-5.9644322,-2.363697,-5.966951,0
1.7900000000000014,9.052495565289924,-5.999999803555197,-3.357498409678603,-5.999999834300469,16.279507,-2.1427276,-0.32377726,3.8063178,2.0352304,-1.6864576,2.142277,0.7474736,0.40020788,-0.20446111,0.48919502,-5.4279137,9.239896,0.32181472,-5.9705834,-2.5186503,-5.9685726,0
1.8000000000000014,12.395325142131389,-5.99999988660869,-3.001945666078148,-5.999999821781067,16.80985,-1.4780978,-1.2705959,3.2410293,1.9809837,-1.5944202,2.145275,0.77064687,0.3899211,-0.21658996,0.4551405,-5.422333,9.167598,0.27788037,-5.975682,-2.6494431,-5.9701147,0
1.8100000000000014,12.395325142131389,-5.99999988660869,-3.001945666078148,-5.999999821781067,16.80985,-1.4780978,-1.2705959,3.2410293,1.9267647,-1.5032383,2.1479375,0.79222524,0.3790664,-0.22865471,0.42000473,-5.4227386,9.068867,0.25468796,-5.9796906,-2.7043946,-5.971581,0
1.8200000000000014,12.395325142131389,-5.99999988660869,-3.001945666078148,-5.999999821781067,16.80985,-1.4780978,-1.2705959,3.2410293,1.8725015,-1.4130397,2.1503716,0.8121969,0.3675593,-0.24047455,0.3839368,-5.431182,8.971067,0.2322397,-5.9830403,-2.7507794,-5.9729753,0
1.8300000000000014,12.395325142131389,-5.99999988660869,-3.001945666078148,-5.999999821781067,16.80985,-1.4780978,-1.2705959,3.2410293,1.8181139,-1.3238114,2.1525848,0.83052105,0.35539734,-0.25199583,0.34702274,-5.447582,8.874884,0.2105534,-5.98584,-2.789933,-5.9743013,0
1.8400000000000014,12.395325142131389,-5.99999988660869,-3.001945666078148,-5.999999821781067,15.819613,-1.5884868,-0.2743088,3.3316145,1.763523,-1.2355342,2.1545854,0.8471603,0.3425846,-0.26316917,0.30934817,-5.471791,8.781,0.18964672,-5.988179,-2.822982,-5.9755626,0
1.8500000000000014,12.395325142131389,-5.99999988660869,-3.001945666078148,-5.999999821781067,15.819613,-1.5884868,-0.2743088,3.3316145,1.7086518,-1.1481814,2.156381,0.86208105,0.3291305,-0.27394927,0.27099854,-5.503599,8.690087,0.1695359,-5.990134,-2.8508792,-5.9767623,0
1.8600000000000014,12.395325142131389,-5.99999988660869,-3.001945666078148,-5.999999821781067,15.819613,-1.5884868,-0.2743088,3.3316145,1.6534258,-1.06172,2.157979,0.8752532,0.31504935,-0.28429446,0.2320591,-5.5427337,8.602805,0.15023483,-5.9917665,-2.8744273,-5.977903,0
1.8700000000000014,12.395325142131389,-5.99999988660869,-3.001945666078148,-5.999999821781067,15.819613,-1.5884868,-0.2743088,3.3316145,1.5977731,-0.9761106,2.1593883,0.8866503,0.3003593,-0.2941666,0.19261512,-5.58886,8.519786,0.13175426,-5.9931297,-2.8943043,-5.978987,0
1.8800000000000014,14.664998826619177,-5.999999888787644,-2.6559635741039633,-5.99999978637354,11.526763,-3.3140297,0.92657286,3.0316885,1.5416259,-0.89130753,2.1606169,0.8962496,0.28508207,-0.3035308,0.15275176,-5.6415854,8.441637,0.1141011,-5.9942684,-2.9110827,-5.980018,0
1.8900000000000015,14.664998826619177,-5.999999888787644,-2.6559635741039633,-5.99999978637354,11.526763,-3.3140297,0.92657286,3.0316885,1.4848672,-0.80732656,2.1617475,0.90407526,0.26922384,-0.31223124,0.112593316,-5.7112355,8.355615,0.11216597,-5.99501,-2.8712902,-5.9809985,0
1.9000000000000015,14.664998826619177,-5.999999888787644,-2.6559635741039633,-5.99999978637354,11.526763,-3.3140297,0.92657286,3.0316885,1.4273783,-0.7241709,2.1628635,0.9101526,0.25280502,-0.32014135,0.07225376,-5.787518,8.276657,0.11125375,-5.9956594,-2.8377037,-5.981931,0
1.9100000000000015,14.664998826619177,-5.999999888787644,-2.6559635741039633,-5.99999978637354,11.526763,-3.3140297,0.92657286,3.0316885,1.3690964,-0.64176714,2.1639757,0.91446525,0.23586938,-0.32727152,0.031804085,-5.8697324,8.205332,0.111399315,-5.9962277,-2.8093555,-5.982818,0
1.9200000000000015,15.634879122042085,-5.999999793681424,-2.0014764328881616,-5.999999685636371,10.904399,-3.1295598,1.1807824,2.585616,1.3099657,-0.56003636,2.165095,0.9170009,0.21845886,-0.33363006,-0.008682942,-5.957138,8.142137,0.112624526,-5.9967246,-2.7854288,-5.983661,0
1.9300000000000015,15.634879122042085,-5.999999793681424,-2.0014764328881616,-5.999999685636371,10.904399,-3.1295598,1.1807824,2.585616,1.2499082,-0.47891358,2.1662652,0.91784066,0.20062126,-0.3389842,-0.049077228,-6.055016,8.083883,0.12159099,-5.996761,-2.663168,-5.9844627,0
1.9400000000000015,15.634879122042085,-5.999999793681424,-2.0014764328881616,-5.999999685636371,10.904399,-3.1295598,1.1807824,2.585616,1.1888525,-0.39832613,2.1675313,0.9170612,0.18241602,-0.34315315,-0.08926547,-6.156635,8.035105,0.13180089,-5.996865,-2.5599737,-5.9852247,0
1.9500000000000015,15.634879122042085,-5.999999793681424,-2.0014764328881616,-5.999999685636371,10.904399,-3.1295598,1.1807824,2.585616,1.1267661,-0.31817803,2.1689057,0.9146483,0.16389604,-0.34621418,-0.1291958,-6.261011,7.9960513,0.14332436,-5.997016,-2.4728725,-5.9859495,0
1.9600000000000015,14.175156305175667,-5.999997880893181,-0.8569161748636109,-5.9999995461954345,10.229279,-3.7826102,-2.062946,1.3890536,1.0636262,-0.23837107,2.1704023,0.9105923,0.14510857,-0.34823385,-0.16881222,-6.367169,7.9668894,0.15620695,-5.997196,-2.3993547,-5.986639,0
1.9700000000000015,14.175156305175667,-5.999997880893181,-0.8569161748636109,-5.9999995461954345,10.229279,-3.7826102,-2.062946,1.3890536,0.9994698,-0.15879628,2.171982,0.9050507,0.1261819,-0.3488551,-0.20799199,-6.4641337,7.9494762,0.15999772,-5.9966965,-2.1588101,-5.9872947,0
1.9800000000000015,14.175156305175667,-5.999997880893181,-0.8569161748636109,-5.9999995461954345,10.229279,-3.7826102,-2.062946,1.3890536,0.93434435,-0.079350844,2.1736066,0.8981635,0.1072456,-0.34780803,-0.24663626,-6.5608273,7.9409933,0.1651722,-5.996421,-1.9557781,-5.9879184,0
1.9900000000000015,14.175156305175667,-5.999997880893181,-0.8569161748636109,-5.9999995461954345,10.229279,-3.7826102,-2.062946,1.3890536,0.86825746,5.3603202e-05,2.1752903,0.88990164,0.088337615,-0.34526438,-0.28471598,-6.6562757,7.9412403,0.17184262,-5.9963117,-1.7844083,-5.9885116,0
2.0000000000000013,12.268313187696634,-5.296338388916404,0.7023336205670669,-5.999999420615663,9.208502,-3.5184052,-1.249078,-0.3286871,0.8012262,0.07950305,2.1770487,0.88024247,0.06948868,-0.34137166,-0.32219437,-6.749566,7.9499464,0.18008374,-5.9963236,-1.6397632,-5.989075,0
2.010000000000001,12.268313187696634,-5.296338388916404,0.7023336205670669,-5.999999420615663,9.208502,-3.5184052,-1.249078,-0.3286871,0.7333375,0.1590699,2.1788251,0.8693711,0.051182132,-0.33580878,-0.35889563,-6.827692,7.9644785,0.17542829,-5.885739,-1.2749417,-5.989611,0
2.020000000000001,12.268313187696634,-5.296338388916404,0.7023336205670669,-5.999999420615663,9.208502,-3.5184052,-1.249078,-0.3286871,0.6646839,0.23881473,2.1805625,0.85746706,0.033826143,-0.3283623,-0.3946943,-6.9024653,7.985444,0.17228302,-5.792621,-0.9669461,-5.990121,0
2.0300000000000007,12.268313187696634,-5.296338388916404,0.7023336205670669,-5.999999420615663,9.208502,-3.5184052,-1.249078,-0.3286871,0.59530205,0.31879866,2.1822767,0.84450346,0.017335897,-0.31929103,-0.42961147,-6.9732294,8.012197,0.1707434,-5.7142124,-0.70692533,-5.990606,0
2.0400000000000005,12.268313187696634,-5.296338388916404,0.7023336205670669,-5.999999420615663,9.208502,-3.5184052,-1.249078,-0.3286871,0.525235,0.39907634,2.1839836,0.8304563,0.0016332841,-0.3088124,-0.46365267,-7.039425,8.044086,0.17086965,-5.6481895,-0.48740673,-5.9910665,0
2.0500000000000003,12.268313187696634,-5.296338388916404,0.7023336205670669,-5.999999420615663,10.740497,-3.8754022,-1.5683491,0.20354304,0.45453086,0.47969586,2.1857002,0.81530684,-0.013352352,-0.29710996,-0.49681124,-7.100578,8.080469,0.17268944,-5.5925956,-0.30208153,-5.9915047,1
2.06,12.268313187696634,-5.296338388916404,0.7023336205670669,-5.999999420615663,10.740497,-3.8754022,-1.5683491,0.20354304,0.38302734,0.56084937,2.1878273,0.79910105,-0.027676422,-0.28532532,-0.5284507,-7.1982484,8.15095,0.2524878,-5.276605,-0.4527713,-5.787582,1
2.07,12.268313187696634,-5.296338388916404,0.7023336205670669,-5.999999420615663,10.740497,-3.8754022,-1.5683491,0.20354304,0.31060606,0.64272857,2.1907432,0.7820402,-0.041438118,-0.2743915,-0.5580363,-7.2842345,8.225437,0.3303312,-5.0066814,-0.5766167,-5.58871,1
2.0799999999999996,12.268313187696634,-5.296338388916404,0.7023336205670669,-5.999999420615663,10.740497,-3.8754022,-1.5683491,0.20354304,0.23738062,0.7253686,2.1944256,0.76431566,-0.054745357,-0.26416337,-0.5856975,-7.35918,8.302993,0.40578148,-4.7755675,-0.67775154,-5.394763,1
2.0899999999999994,10.88804205971763,-4.7957427883231425,2.4371499297353623,-5.999999146991126,12.8132515,-2.4106386,-0.66142476,-0.055070188,0.16345832,0.80879605,2.1988494,0.74608755,-0.06768159,-0.2545124,-0.6115516,-7.423693,8.382806,0.47849524,-4.5771766,-0.75969917,-5.2056193,1
2.099999999999999,10.88804205971763,-4.7957427883231425,2.4371499297353623,-5.999999146991126,12.8132515,-2.4106386,-0.66142476,-0.055070188,0.08893552,0.89303726,2.2040005,0.7274765,-0.08030095,-0.2454777,-0.6356648,-7.479351,8.465649,0.5512358,-4.3635488,-0.8696107,-5.0178213,1
2.109999999999999,10.88804205971763,-4.7957427883231425,2.4371499297353623,-5.999999146991126,12.8132515,-2.4106386,-0.66142476,-0.055070188,0.01390362,0.9781124,2.2098627,0.7085918,-0.09265609,-0.2370835,-0.6581059,-7.5256057,8.549489,0.6206587,-4.1811433,-0.9602109,-4.834674,1
2.1199999999999988,10.88804205971763,-4.7957427883231425,2.4371499297353623,-5.999999146991126,12.8132515,-2.4106386,-0.66142476,-0.055070188,-0.061546315,1.0640287,2.2164016,0.6895416,-0.10480048,-0.22920436,-0.67898023,-7.5630484,8.633827,0.6865608,-4.0250564,-1.0344865,-4.656063,1
2.1299999999999986,8.168997268547647,-5.999989357036083,3.543794624802785,-5.999998138445878,12.342962,-2.2079217,-0.6123449,-0.22844741,-0.13732894,1.150789,2.2235813,0.67041636,-0.1167738,-0.22173207,-0.698384,-7.592223,8.718223,0.74879086,-3.8911724,-1.0949818,-4.481876,1
2.1399999999999983,8.168997268547647,-5.999989357036083,3.543794624802785,-5.999998138445878,12.342962,-2.2079217,-0.6123449,-0.22844741,-0.21335977,1.2383758,2.2313344,0.6512778,-0.12860294,-0.21461779,-0.7164058,-7.6128154,8.799069,0.8012428,-3.7641923,-1.1559554,-4.3185077,1
2.149999999999998,8.168997268547647,-5.999989357036083,3.543794624802785,-5.999998138445878,12.342962,-2.2079217,-0.6123449,-0.22844741,-0.28956118,1.326768,2.2395935,0.6321767,-0.14030889,-0.20781758,-0.7331286,-7.6264076,8.879276,0.8499727,-3.6551373,-1.2054976,-4.1591854,1
2.159999999999998,8.168997268547647,-5.999989357036083,3.543794624802785,-5.999998138445878,12.342962,-2.2079217,-0.6123449,-0.22844741,-0.36586535,1.4159582,2.248321,0.6131688,-0.15190873,-0.20125219,-0.74862874,-7.6334357,8.95856,0.8949226,-3.5612278,-1.2454127,-4.0038085,1
