time-since-start [s],throttle_mpc,roll_mpc,pitch_mpc,yaw_mpc,throttle_nw,roll_nw,pitch_nw,yaw_nw,position_x [m],position_y [m],position_z [m],rotation_w [quaternion],rotation_x [quaternion],rotation_y [quaternion],rotation_z [quaternion],velocity_x [m/s],velocity_y [m/s],velocity_z [m/s],omega_x [rad/s],omega_y [rad/s],omega_z [rad/s],network_used
0.0,9.056360699912679,5.999999669998201,-5.999999917673724,-4.477015763979563,9.163272,1.3415655,-3.431522,-1.4997913,18.534008,-9.471707,2.1169748,0.02284832,0.38699266,-0.2633276,-0.8833873,-10.956827,-4.328376,0.55791456,1.4621272,-0.13551906,-0.22049215,0
0.01,9.056360699912679,5.999999669998201,-5.999999917673724,-4.477015763979563,12.469351,-0.99772197,-4.8016415,-0.831076,18.423876,-9.5146265,2.1225185,0.018476753,0.38655558,-0.26914677,-0.881926,-11.069297,-4.255103,0.5504596,1.425974,-0.3064289,-0.36285618,0
0.02,9.056360699912679,5.999999669998201,-5.999999917673724,-4.477015763979563,12.469351,-0.99772197,-4.8016415,-0.831076,18.312632,-9.556807,2.1279767,0.013297529,0.38553283,-0.27460572,-0.8807834,-11.1793785,-4.1808577,0.54084647,1.4205424,-0.47579792,-0.5004788,0
0.03,9.056360699912679,5.999999669998201,-5.999999917673724,-4.477015763979563,12.469351,-0.99772197,-4.8016415,-0.831076,18.2003,-9.59824,2.1333287,0.0072739897,0.3839284,-0.2798331,-0.87990886,-11.286853,-4.105685,0.52925384,1.4414314,-0.6442616,-0.63362753,0
0.04,9.056360699912679,5.999999669998201,-5.999999917673724,-4.477015763979563,9.109247,-1.0758113,-6.702681,-1.1441072,18.086906,-9.638916,2.1385555,0.00037597725,0.3817404,-0.28493738,-0.8792525,-11.391509,-4.0295987,0.5158376,1.4848367,-0.8122646,-0.76254857,0
0.05,9.056360699912679,5.999999669998201,-5.999999917673724,-4.477015763979563,9.109247,-1.0758113,-6.702681,-1.1441072,17.97248,-9.678827,2.1436396,-0.0074207583,0.37896198,-0.29000917,-0.87876475,-11.493138,-3.9525895,0.50073403,1.5474653,-0.98010015,-0.88746893,0
0.060000000000000005,9.056360699912679,5.999999669998201,-5.999999917673724,-4.477015763979563,9.109247,-1.0758113,-6.702681,-1.1441072,17.857056,-9.717964,2.1485646,-0.01613505,0.37558237,-0.29512355,-0.8783961,-11.591536,-3.8746347,0.484062,1.626465,-1.1479414,-1.008598,0
0.07,9.056360699912679,5.999999669998201,-5.999999917673724,-4.477015763979563,9.109247,-1.0758113,-6.702681,-1.1441072,17.740664,-9.756316,2.1533158,-0.025780732,0.37158754,-0.3003417,-0.8780962,-11.6865,-3.7957044,0.46592543,1.7193621,-1.3158675,-1.1261287,0
0.08,10.924097415457787,5.999999807447206,-5.999999947428934,-4.386911859796395,9.899929,-0.4887715,-5.983769,-1.2507292,17.623339,-9.793875,2.1578784,-0.036366962,0.36696082,-0.3057125,-0.8778138,-11.777827,-3.7157676,0.44641516,1.8240107,-1.4838862,-1.2402395,0
0.09,10.924097415457787,5.999999807447206,-5.999999947428934,-4.386911859796395,9.899929,-0.4887715,-5.983769,-1.2507292,17.505081,-9.830592,2.162274,-0.04800824,0.36153713,-0.31140566,-0.87750363,-11.873088,-3.6275861,0.4324863,2.0015116,-1.7150295,-1.3523029,0
0.09999999999999999,10.924097415457787,5.999999807447206,-5.999999947428934,-4.386911859796395,9.899929,-0.4887715,-5.983769,-1.2507292,17.385893,-9.866423,2.1665227,-0.06080457,0.35516003,-0.3175619,-0.87710804,-11.963714,-3.538331,0.41709682,2.1824048,-1.9412509,-1.4616477,0
0.10999999999999999,10.924097415457787,5.999999807447206,-5.999999947428934,-4.386911859796395,9.899929,-0.4887715,-5.983769,-1.2507292,17.265823,-9.901355,2.1706107,-0.07473722,0.34782228,-0.32417232,-0.87655365,-12.049417,-3.4479172,0.40033603,2.3657255,-2.1628795,-1.5683681,0
0.11999999999999998,10.924097415457787,5.999999807447206,-5.999999947428934,-4.386911859796395,9.899929,-0.4887715,-5.983769,-1.2507292,17.144922,-9.935378,2.1745248,-0.08978397,0.33951402,-0.33122113,-0.8757635,-12.129916,-3.3562977,0.3822771,2.5506496,-2.3801825,-1.6725527,0
0.12999999999999998,14.038969358689377,5.999999896006177,-5.999999970613872,-4.101085973352657,10.614,0.38665003,-6.40831,-1.4481257,17.023243,-9.968478,2.178252,-0.105918854,0.33022338,-0.33868632,-0.8746572,-12.204936,-3.263466,0.3629779,2.736474,-2.5933785,-1.7742856,0
0.13999999999999999,14.038969358689377,5.999999896006177,-5.999999970613872,-4.101085973352657,10.614,0.38665003,-6.40831,-1.4481257,16.900793,-10.000579,2.1818337,-0.12331449,0.31962284,-0.3467798,-0.8731429,-12.283696,-3.156529,0.3531428,3.0464783,-2.926816,-1.8706985,0
0.15,14.038969358689377,5.999999896006177,-5.999999970613872,-4.101085973352657,10.614,0.38665003,-6.40831,-1.4481257,16.777592,-10.031605,2.1853094,-0.1421144,0.3074056,-0.3556639,-0.87109613,-12.355191,-3.048558,0.34172702,3.3459458,-3.2461064,-1.9657627,0
0.16,17.69078612332583,5.999999933835105,-5.999999981292327,-3.38527999595964,10.997375,0.52519935,-7.385394,-1.0960544,16.653713,-10.061546,2.188663,-0.1622424,0.29358864,-0.36523518,-0.8683815,-12.418979,-2.9395785,0.32878405,3.6354012,-3.5523322,-2.0594444,0
0.17,17.69078612332583,5.999999933835105,-5.999999981292327,-3.38527999595964,10.997375,0.52519935,-7.385394,-1.0960544,16.529188,-10.090293,2.1919568,-0.18371654,0.27791065,-0.37557316,-0.8648461,-12.485072,-2.8090305,0.33007398,4.003481,-3.9347072,-2.1245036,0
0.18000000000000002,17.69078612332583,5.999999933835105,-5.999999981292327,-3.38527999595964,10.997375,0.52519935,-7.385394,-1.0960544,16.404045,-10.117715,2.1952658,-0.20643033,0.26027113,-0.38662708,-0.8603285,-12.542159,-2.6746266,0.33179793,4.3142204,-4.2573915,-2.1863704,0
0.19000000000000003,17.69078612332583,5.999999933835105,-5.999999981292327,-3.38527999595964,10.997375,0.52519935,-7.385394,-1.0960544,16.27838,-10.143774,2.1985939,-0.23013502,0.24090768,-0.39812574,-0.85469145,-12.589256,-2.5366488,0.33385235,4.576556,-4.529699,-2.2452013,0
0.20000000000000004,20.99999210289123,5.999999947486805,-5.999999984039839,-2.8587176669755787,12.022266,2.4235168,-6.5791006,-1.6520568,16.152298,-10.168437,2.2019434,-0.25460657,0.22003166,-0.40983668,-0.8478182,-12.625491,-2.3955572,0.33608204,4.7980328,-4.75949,-2.3011453,0
0.21000000000000005,20.99999210289123,5.999999947486805,-5.999999984039839,-2.8587176669755787,12.022266,2.4235168,-6.5791006,-1.6520568,16.025887,-10.191542,2.2054095,-0.27958733,0.19780622,-0.42157543,-0.8396297,-12.654719,-2.22511,0.35705033,4.9851003,-4.953316,-2.3285055,0
0.22000000000000006,20.99999210289123,5.999999947486805,-5.999999984039839,-2.8587176669755787,12.022266,2.4235168,-6.5791006,-1.6520568,15.899255,-10.212932,2.2090838,-0.30484313,0.17437802,-0.43318447,-0.83006895,-12.66942,-2.0525901,0.37770775,5.1430387,-5.116873,-2.3545232,0
0.23000000000000007,20.99999210289123,5.999999947486805,-5.999999984039839,-2.8587176669755787,12.022266,2.4235168,-6.5791006,-1.6520568,15.772551,-10.23259,2.2129617,-0.33021352,0.14990625,-0.4445161,-0.81908053,-12.6690035,-1.8790182,0.3977349,5.2763853,-5.2548857,-2.379264,0
0.24000000000000007,20.99999210289123,5.999999947486805,-5.999999984039839,-2.8587176669755787,13.488457,1.9196814,-5.3810377,-1.5615656,15.645928,-10.250512,2.2170353,-0.35555246,0.124537386,-0.45544422,-0.8066249,-12.653041,-1.7055193,0.4167835,5.38897,-5.371343,-2.402791,0
0.25000000000000006,20.99999210289123,5.999999947486805,-5.999999984039839,-2.8587176669755787,13.488457,1.9196814,-5.3810377,-1.5615656,15.519545,-10.266705,2.2212927,-0.38072672,0.09840704,-0.46586132,-0.792677,-12.621261,-1.5332992,0.43448496,5.4840264,-5.4696107,-2.4251635,0
0.26000000000000006,20.99999210289123,5.999999947486805,-5.999999984039839,-2.8587176669755787,13.488457,1.9196814,-5.3810377,-1.5615656,15.3935585,-10.281187,2.225719,-0.40561426,0.07164127,-0.4756758,-0.7772242,-12.573555,-1.3636215,0.45045805,5.564285,-5.552529,-2.4464383,0
0.2700000000000001,20.99999210289123,5.999999947486805,-5.999999984039839,-2.8587176669755787,13.488457,1.9196814,-5.3810377,-1.5615656,15.268128,-10.293991,2.230295,-0.43010324,0.04435774,-0.4848098,-0.76026535,-12.509976,-1.1977859,0.46431676,5.632049,-5.6224937,-2.4666688,0
0.2800000000000001,20.99999951094492,4.48339825493124,-5.999997918794846,-1.1267213628961334,13.629967,0.7770633,-4.4219785,-1.1205577,15.143413,-10.305161,2.2349968,-0.45409092,0.016666682,-0.49319732,-0.7418089,-12.4307375,-1.0371073,0.47567677,5.689265,-5.6815286,-2.4859068,0
0.2900000000000001,20.99999951094492,4.48339825493124,-5.999997918794846,-1.1267213628961334,13.629967,0.7770633,-4.4219785,-1.1205577,15.019566,-10.314755,2.2397983,-0.477326,-0.011153333,-0.50034577,-0.7222811,-12.336243,-0.8829013,0.48420307,5.5013804,-5.7306504,-2.4192114,0
0.3000000000000001,20.99999951094492,4.48339825493124,-5.999997918794846,-1.1267213628961334,13.629967,0.7770633,-4.4219785,-1.1205577,14.896737,-10.322845,2.2446706,-0.49962527,-0.03886854,-0.50589556,-0.70209247,-12.227257,-0.7364587,0.4898093,5.342799,-5.7721844,-2.3557885,0
0.3100000000000001,20.99999951094492,4.48339825493124,-5.999997918794846,-1.1267213628961334,13.629967,0.7770633,-4.4219785,-1.1205577,14.775068,-10.329515,2.2495844,-0.5209897,-0.0664452,-0.5099729,-0.68123615,-12.104692,-0.5989717,0.49247754,5.20895,-5.807301,-2.2954779,0
0.3200000000000001,20.700849352968408,2.5317025995967524,-3.9993349518889487,-0.43890287453479004,14.584656,-1.4478494,-4.0853043,-0.06352983,14.654688,-10.33486,2.25451,-0.5414153,-0.09385195,-0.5126837,-0.65970975,-11.969517,-0.47152108,0.49216884,5.095974,-5.8369923,-2.2381268,0
0.3300000000000001,20.700849352968408,2.5317025995967524,-3.9993349518889487,-0.43890287453479004,14.584656,-1.4478494,-4.0853043,-0.06352983,14.535708,-10.338992,2.2594106,-0.5605234,-0.12015519,-0.51405436,-0.63806313,-11.824905,-0.35666883,0.48750293,4.6968155,-5.5495567,-2.1498382,0
0.34000000000000014,20.700849352968408,2.5317025995967524,-3.9993349518889487,-0.43890287453479004,14.584656,-1.4478494,-4.0853043,-0.06352983,14.418224,-10.342032,2.26425,-0.5780899,-0.14463522,-0.51420045,-0.61683947,-11.670396,-0.25295356,0.47998673,4.3597975,-5.307089,-2.0658822,0
0.35000000000000014,20.700849352968408,2.5317025995967524,-3.9993349518889487,-0.43890287453479004,14.584656,-1.4478494,-4.0853043,-0.06352983,14.30233,-10.34409,2.269001,-0.59430903,-0.16755618,-0.5133115,-0.5960145,-11.507428,-0.16047527,0.46978593,4.075248,-5.1025496,-1.986046,0
0.36000000000000015,17.966824236727394,0.46203172661017283,-1.6452743736662487,0.43216716276324924,14.687115,-2.595973,-2.370617,0.43647304,14.188101,-10.345281,2.273637,-0.60933864,-0.18914354,-0.5115361,-0.5755539,-11.337267,-0.07926275,0.4570579,3.835,-4.9300027,-1.9101272,0
0.37000000000000016,17.966824236727394,0.46203172661017283,-1.6452743736662487,0.43216716276324924,14.687115,-2.595973,-2.370617,0.43647304,14.075489,-10.345761,2.2780788,-0.6229417,-0.20860438,-0.5090915,-0.55610627,-11.184355,-0.018451013,0.4310107,3.3099587,-4.416847,-1.7951902,0
0.38000000000000017,17.966824236727394,0.46203172661017283,-1.6452743736662487,0.43216716276324924,14.687115,-2.595973,-2.370617,0.43647304,13.964428,-10.34568,2.2822511,-0.6350063,-0.22535715,-0.5062229,-0.53825635,-11.027343,0.033320107,0.40320036,2.8666174,-3.9838974,-1.6858932,0
0.3900000000000002,17.966824236727394,0.46203172661017283,-1.6452743736662487,0.43216716276324924,14.687115,-2.595973,-2.370617,0.43647304,13.854953,-10.345123,2.2861378,-0.6458048,-0.23986045,-0.5030562,-0.52186006,-10.867204,0.076823644,0.3739353,2.492271,-3.618609,-1.5819592,0
0.4000000000000002,15.987360847401,-1.1432804970741441,0.44719429798975,0.9725458096020414,14.035845,-2.7519813,-0.6406321,1.5624875,13.747091,-10.34417,2.289726,-0.65555215,-0.25249845,-0.49967706,-0.50677323,-10.704701,0.11276284,0.3434934,2.176188,-3.3104014,-1.4831254,0
0.4100000000000002,15.987360847401,-1.1432804970741441,0.44719429798975,0.9725458096020414,14.035845,-2.7519813,-0.6406321,1.5624875,13.640774,-10.342907,2.2929678,-0.6641404,-0.26278558,-0.4963619,-0.49344343,-10.558551,0.13864253,0.3047833,1.6593014,-2.7237742,-1.3626249,0
0.4200000000000002,15.987360847401,-1.1432804970741441,0.44719429798975,0.9725458096020414,14.035845,-2.7519813,-0.6406321,1.5624875,13.535924,-10.341413,2.2958198,-0.67152077,-0.2703733,-0.4933575,-0.48224148,-10.41137,0.1593933,0.26554856,1.2228479,-2.2287827,-1.2480375,0
0.4300000000000002,15.987360847401,-1.1432804970741441,0.44719429798975,0.9725458096020414,14.035845,-2.7519813,-0.6406321,1.5624875,13.4325485,-10.339733,2.2982779,-0.67791384,-0.27573526,-0.4906608,-0.472922,-10.263566,0.17600077,0.2260698,0.85432094,-1.8111038,-1.1390729,0
0.4400000000000002,15.987360847401,-1.1432804970741441,0.44719429798975,0.9725458096020414,13.554918,-3.1912818,2.603849,1.9096721,13.330652,-10.337905,2.3003411,-0.6834886,-0.27926272,-0.48825097,-0.4652601,-10.115425,0.18931346,0.18658718,0.5431571,-1.4586546,-1.0354553,0
0.45000000000000023,15.987360847401,-1.1432804970741441,0.44719429798975,0.9725458096020414,13.554918,-3.1912818,2.603849,1.9096721,13.23024,-10.335957,2.3020105,-0.6883755,-0.28127936,-0.48609793,-0.45905358,-9.967154,0.20005801,0.14730333,0.28043413,-1.1612425,-0.93692213,0
0.46000000000000024,15.987360847401,-1.1432804970741441,0.44719429798975,0.9725458096020414,13.554918,-3.1912818,2.603849,1.9096721,13.1313095,-10.33391,2.3032885,-0.6926762,-0.28205302,-0.48416758,-0.45412305,-9.8189,0.20885457,0.10838738,0.05861603,-0.91026795,-0.843224,0
0.47000000000000025,15.987360847401,-1.1432804970741441,0.44719429798975,0.9725458096020414,13.554918,-3.1912818,2.603849,1.9096721,13.033861,-10.331783,2.30418,-0.696471,-0.28180572,-0.48242518,-0.4503108,-9.670773,0.21623111,0.069979206,-0.12866166,-0.69847643,-0.75412357,0
0.48000000000000026,16.461258697977478,-4.1706785644748905,3.343856263750728,2.8643555837596297,14.386591,-3.6196175,3.7511978,1.0468374,12.937893,-10.329588,2.3046901,-0.6998238,-0.2807216,-0.48083746,-0.447479,-9.522852,0.22263637,0.032193594,-0.28677395,-0.5197475,-0.6693954,0
0.49000000000000027,16.461258697977478,-4.1706785644748905,3.343856263750728,2.8643555837596297,14.386591,-3.6196175,3.7511978,1.0468374,12.843471,-10.32733,2.304854,-0.7024707,-0.2776889,-0.4795906,-0.446561,-9.362403,0.22907828,0.00045876484,-0.8902557,0.0849036,-0.50449,0
0.5000000000000002,16.461258697977478,-4.1706785644748905,3.343856263750728,2.8643555837596297,14.386591,-3.6196175,3.7511978,1.0468374,12.75063,-10.325005,2.3046975,-0.7041675,-0.27184752,-0.4788214,-0.44830492,-9.206423,0.23598243,-0.03179971,-1.3983928,0.59649277,-0.34366876,0
0.5100000000000002,16.461258697977478,-4.1706785644748905,3.343856263750728,2.8643555837596297,14.386591,-3.6196175,3.7511978,1.0468374,12.659327,-10.322604,2.3042173,-0.7049731,-0.2636687,-0.47841543,-0.45233902,-9.054763,0.24450013,-0.064174086,-1.8282973,1.0272926,-0.18707538,0
0.5200000000000002,18.63472494937014,-5.999997786119337,5.76977720023213,3.521952522032074,13.86454,-3.9542906,5.08344,0.9471642,12.56953,-10.3201065,2.3034186,-0.70493305,-0.25353497,-0.4782464,-0.45833388,-8.904836,0.25571588,-0.09525014,-2.19368,1.3883917,-0.03734078,0
0.5300000000000002,18.63472494937014,-5.999997786119337,5.76977720023213,3.521952522032074,13.86454,-3.9542906,5.08344,0.9471642,12.481333,-10.317468,2.3023677,-0.7037833,-0.24082017,-0.4784749,-0.46664402,-8.735049,0.27266943,-0.1147383,-2.803083,2.0557702,0.13589972,0
0.5400000000000003,18.63472494937014,-5.999997786119337,5.76977720023213,3.521952522032074,13.86454,-3.9542906,5.08344,0.9471642,12.394816,-10.314634,2.3011296,-0.70119447,-0.22504584,-0.47926486,-0.47747883,-8.568399,0.29502472,-0.13251519,-3.3020384,2.6345034,0.3020482,0
0.5500000000000003,18.63472494937014,-5.999997786119337,5.76977720023213,3.521952522032074,13.86454,-3.9542906,5.08344,0.9471642,12.309957,-10.311543,2.2997258,-0.6971456,-0.2066796,-0.48042887,-0.490367,-8.404065,0.32427627,-0.14780004,-3.7231987,3.122984,0.46004987,0
0.5600000000000003,18.61107330428684,-5.999999570084491,5.999998909120763,3.775977383068102,14.981453,-4.688171,5.68308,1.2880763,12.226727,-10.308122,2.298182,-0.691626,-0.18610924,-0.48176458,-0.5048959,-8.242682,0.3615302,-0.160542,-4.0787315,3.535246,0.61029834,0
0.5700000000000003,18.61107330428684,-5.999999570084491,5.999998909120763,3.775977383068102,14.981453,-4.688171,5.68308,1.2880763,12.14509,-10.304283,2.2965229,-0.6845576,-0.16363524,-0.48315248,-0.5207383,-8.085182,0.40760255,-0.17089306,-4.3788996,3.9190621,0.76563907,0
0.5800000000000003,18.61107330428684,-5.999999570084491,5.999998909120763,3.775977383068102,14.981453,-4.688171,5.68308,1.2880763,12.065007,-10.299936,2.2947721,-0.6758684,-0.13952035,-0.48448282,-0.5375989,-7.9321704,0.46323088,-0.1788816,-4.632278,4.243012,0.91335726,0
0.5900000000000003,18.61107330428684,-5.999999570084491,5.999998909120763,3.775977383068102,14.981453,-4.688171,5.68308,1.2880763,11.986428,-10.294983,2.2929528,-0.66555375,-0.11402631,-0.48560634,-0.5551783,-7.784522,0.52890414,-0.1847147,-4.846148,4.5164433,1.0538268,0
0.6000000000000003,20.22089519858223,-5.999999350227144,5.999975259867961,3.8227718191363915,16.7561,-5.6885905,5.779502,2.142247,11.909294,-10.289322,2.2910845,-0.6536133,-0.087384716,-0.48639756,-0.5732112,-7.643165,0.6049071,-0.18865259,-5.026661,4.7472425,1.1874034,0
0.6100000000000003,20.22089519858223,-5.999999350227144,5.999975259867961,3.8227718191363915,16.7561,-5.6885905,5.779502,2.142247,11.833598,-10.282812,2.2892265,-0.64005005,-0.059804954,-0.48675206,-0.5914659,-7.4974527,0.69880825,-0.18271744,-5.179019,4.9420524,1.3167217,0
0.6200000000000003,20.22089519858223,-5.999999350227144,5.999975259867961,3.8227718191363915,16.7561,-5.6885905,5.779502,2.142247,11.7593155,-10.275307,2.2874348,-0.6248734,-0.031475168,-0.48658422,-0.60973644,-7.3606615,0.8039379,-0.17542416,-5.3076,5.106499,1.4396943,0
0.6300000000000003,20.22089519858223,-5.999999350227144,5.999975259867961,3.8227718191363915,16.7561,-5.6885905,5.779502,2.142247,11.686351,-10.266696,2.2857213,-0.6081034,-0.0025627036,-0.48582542,-0.62783563,-7.233831,0.9200166,-0.16717316,-5.416109,5.245322,1.5566326,0
0.6400000000000003,20.22089519858223,-5.999999350227144,5.999975259867961,3.8227718191363915,17.475126,-6.3630414,5.689325,2.5689826,11.6146,-10.256871,2.2840931,-0.5897666,0.026780427,-0.48442116,-0.64559615,-7.1179705,1.0465932,-0.15838702,-5.5076737,5.362519,1.6678327,0
0.6500000000000004,20.22089519858223,-5.999999350227144,5.999975259867961,3.8227718191363915,17.475126,-6.3630414,5.689325,2.5689826,11.54395,-10.245731,2.282554,-0.56989634,0.056415472,-0.48232895,-0.66286826,-7.0140424,1.1830581,-0.14950277,-5.5849357,5.461461,1.7735763,0
0.6600000000000004,20.22089519858223,-5.999999350227144,5.999975259867961,3.8227718191363915,17.475126,-6.3630414,5.689325,2.5689826,11.474276,-10.23318,2.2811022,-0.54853165,0.08621521,-0.47951666,-0.6795173,-6.9229465,1.3286561,-0.14096482,-5.6501245,5.5449963,1.8741308,0
0.6700000000000004,20.22089519858223,-5.999999350227144,5.999975259867961,3.8227718191363915,17.475126,-6.3630414,5.689325,2.5689826,11.405444,-10.2191305,2.279732,-0.525717,0.11606254,-0.47596094,-0.6954224,-6.845507,1.4825,-0.13321833,-5.705124,5.6155276,1.9697512,0
0.6800000000000004,19.32906907254782,-5.911632241246234,3.701593953550726,1.5594319645749557,17.677149,-6.2584634,5.420012,2.737624,11.337315,-10.2035055,2.2784333,-0.501502,0.14584921,-0.4716459,-0.7104745,-6.782457,1.6435843,-0.1267031,-5.751522,5.6750817,2.0606794,0
0.6900000000000004,19.32906907254782,-5.911632241246234,3.701593953550726,1.5594319645749557,17.677149,-6.2584634,5.420012,2.737624,11.2697315,-10.1862755,2.2771697,-0.4765882,0.17493407,-0.46610135,-0.7245767,-6.736507,1.8033822,-0.1263357,-5.7759924,5.3673773,2.036083,0
0.7000000000000004,19.32906907254782,-5.911632241246234,3.701593953550726,1.5594319645749557,17.677149,-6.2584634,5.420012,2.737624,11.202535,-10.167423,2.2759013,-0.45161033,0.202814,-0.45900545,-0.7377186,-6.7050977,1.9676012,-0.12753901,-5.796723,5.1076603,2.0126936,0
0.7100000000000004,19.32906907254782,-5.911632241246234,3.701593953550726,1.5594319645749557,17.677149,-6.2584634,5.420012,2.737624,11.135579,-10.146914,2.2746136,-0.42652538,0.22958566,-0.45054382,-0.74991786,-6.6882687,2.1348252,-0.13026108,-5.814285,4.888447,1.9904519,0
0.7200000000000004,17.22456240615686,-4.170756723989207,1.7173482315806186,0.8675207682254195,18.08387,-5.847054,3.8393111,1.6498419,11.06872,-10.124721,2.2732909,-0.40129966,0.25533122,-0.44087103,-0.76118153,-6.6859746,2.30372,-0.13447843,-5.829161,4.7034187,1.9693016,0
0.7300000000000004,17.22456240615686,-4.170756723989207,1.7173482315806186,0.8675207682254195,18.08387,-5.847054,3.8393111,1.6498419,11.001816,-10.100929,2.2718682,-0.37651443,0.27928346,-0.43032703,-0.77139896,-6.6966953,2.4545844,-0.15023066,-5.5697865,4.2382717,1.9152368,0
0.7400000000000004,17.22456240615686,-4.170756723989207,1.7173482315806186,0.8675207682254195,18.08387,-5.847054,3.8393111,1.6498419,10.934744,-10.075632,2.270282,-0.35268837,0.3008816,-0.41925374,-0.78058153,-6.7194963,2.6047506,-0.16716486,-5.3509893,3.8455873,1.863825,0
0.7500000000000004,17.22456240615686,-4.170756723989207,1.7173482315806186,0.8675207682254195,18.08387,-5.847054,3.8393111,1.6498419,10.867387,-10.0488405,2.2685215,-0.32970282,0.32046685,-0.40775892,-0.78887874,-6.753576,2.7533216,-0.18511422,-5.1664176,3.5140781,1.814936,0
0.7600000000000005,15.358544556357833,-2.042655185043148,-0.3158304891378615,0.22911617736436732,18.049263,-4.8607635,1.9806298,0.9063771,10.799637,-10.020575,2.2665772,-0.30744898,0.33832693,-0.39592075,-0.79640234,-6.7981963,2.8995483,-0.20392644,-5.0107155,3.234215,1.768446,0
0.7700000000000005,15.358544556357833,-2.042655185043148,-0.3158304891378615,0.22911617736436732,18.049263,-4.8607635,1.9806298,0.9063771,10.731412,-9.990917,2.2644093,-0.28640464,0.35397485,-0.38415167,-0.80318224,-6.8480244,3.0307896,-0.23004678,-4.590229,2.724385,1.6968015,0
0.7800000000000005,15.358544556357833,-2.042655185043148,-0.3158304891378615,0.22911617736436732,18.049263,-4.8607635,1.9806298,0.9063771,10.662656,-9.95998,2.2619686,-0.26708946,0.36692435,-0.37289038,-0.8093099,-6.9044566,3.1559222,-0.25828698,-4.1967783,2.2553637,1.6251972,0
0.7900000000000005,15.358544556357833,-2.042655185043148,-0.3158304891378615,0.22911617736436732,18.049263,-4.8607635,1.9806298,0.9063771,10.593302,-9.927811,2.2592425,-0.24937059,0.37752002,-0.36215985,-0.8149437,-6.96745,3.2775207,-0.28688678,-3.860336,1.8549165,1.556691,0
0.8000000000000005,14.328956975331494,-0.0432012682972483,-1.995443826285891,-0.3290411341837948,15.956582,-3.2608972,0.26103482,-0.1209918,10.523287,-9.894441,2.2562308,-0.23304477,0.38615236,-0.35191438,-0.8202029,-7.0362706,3.3958716,-0.31540114,-3.5764618,1.5168298,1.4915466,0
0.8100000000000005,14.328956975331494,-0.0432012682972483,-1.995443826285891,-0.3290411341837948,15.956582,-3.2608972,0.26103482,-0.1209918,10.452552,-9.859893,2.252942,-0.2182472,0.3928003,-0.3423832,-0.8251363,-7.111212,3.5126734,-0.34258047,-3.155364,1.1000376,1.4138997,0
0.8200000000000005,14.328956975331494,-0.0432012682972483,-1.995443826285891,-0.3290411341837948,15.956582,-3.2608972,0.26103482,-0.1209918,10.381056,-9.824208,2.2493746,-0.20519514,0.39733183,-0.33383164,-0.8298065,-7.1883216,3.6233437,-0.37108904,-2.7575958,0.70577854,1.336271,0
0.8300000000000005,14.328956975331494,-0.0432012682972483,-1.995443826285891,-0.3290411341837948,15.956582,-3.2608972,0.26103482,-0.1209918,10.308782,-9.787446,2.2455168,-0.19382274,0.39990455,-0.3262539,-0.8343066,-7.2666492,3.7283912,-0.40065327,-2.3812537,0.33228326,1.2588158,0
0.8400000000000005,14.328956975331494,-0.0432012682972483,-1.995443826285891,-0.3290411341837948,14.686463,-2.2506006,-1.1333104,-0.7679554,10.235722,-9.749659,2.241359,-0.18406196,0.4006572,-0.3196357,-0.8387062,-7.345453,3.8284204,-0.43096307,-2.0260885,-0.020588227,1.1817962,0
0.8500000000000005,14.328956975331494,-0.0432012682972483,-1.995443826285891,-0.3290411341837948,14.686463,-2.2506006,-1.1333104,-0.7679554,10.161868,-9.710887,2.2369,-0.17579451,0.39977357,-0.31391695,-0.8430501,-7.4254355,3.925618,-0.46060407,-1.7166365,-0.3282441,1.107659,0
0.8600000000000005,14.328956975331494,-0.0432012682972483,-1.995443826285891,-0.3290411341837948,14.686463,-2.2506006,-1.1333104,-0.7679554,10.087209,-9.671153,2.2321513,-0.16882627,0.39751664,-0.30897018,-0.84735805,-7.5065475,4.0209365,-0.4889425,-1.4555042,-0.58798724,1.0371597,0
0.8700000000000006,14.328956975331494,-0.0432012682972483,-1.995443826285891,-0.3290411341837948,14.686463,-2.2506006,-1.1333104,-0.7679554,10.011735,-9.630473,2.2271264,-0.16298106,0.39411506,-0.3046747,-0.851636,-7.588302,4.114621,-0.5158319,-1.235143,-0.80727595,0.9701197,0
0.8800000000000006,14.565908619480101,1.5175340082931297,-3.075207079845335,-0.8636291094627007,13.3270035,-1.0549544,-1.6549786,-1.1242613,9.935442,-9.588864,2.2218401,-0.15810846,0.38975778,-0.30092493,-0.85588247,-7.670288,4.206888,-0.5411539,-1.0491842,-0.9924086,0.9063695,0
0.8900000000000006,14.565908619480101,1.5175340082931297,-3.075207079845335,-0.8636291094627007,13.3270035,-1.0549544,-1.6549786,-1.1242613,9.858314,-9.546321,2.2163236,-0.15444238,0.3842393,-0.29801354,-0.86005557,-7.7550282,4.301177,-0.56217784,-0.6765077,-1.2892542,0.82202303,0
0.9000000000000006,14.565908619480101,1.5175340082931297,-3.075207079845335,-0.8636291094627007,13.3270035,-1.0549544,-1.6549786,-1.1242613,9.780349,-9.502849,2.210598,-0.15224667,0.37729618,-0.29624084,-0.8641237,-7.8376174,4.392936,-0.58275294,-0.33544296,-1.5664113,0.7394161,0
0.9100000000000006,14.565908619480101,1.5175340082931297,-3.075207079845335,-0.8636291094627007,13.3270035,-1.0549544,-1.6549786,-1.1242613,9.701565,-9.458463,2.204675,-0.15136106,0.36909682,-0.29545775,-0.8680795,-7.9189215,4.4841022,-0.6015145,-0.04645069,-1.8015648,0.6607542,0
0.9200000000000006,15.01196239863283,2.5208030992729973,-3.7691324835405706,-1.2505051987305773,12.904537,0.05289881,-1.6432563,-1.7410823,9.621976,-9.413167,2.198574,-0.15160497,0.35983652,-0.29549566,-0.8719036,-7.9985285,4.575059,-0.6183404,0.1974403,-2.0000927,0.5859523,0
0.9300000000000006,15.01196239863283,2.5208030992729973,-3.7691324835405706,-1.2505051987305773,12.904537,0.05289881,-1.6432563,-1.7410823,9.541587,-9.366944,2.1923306,-0.15306924,0.34941766,-0.29647976,-0.8755437,-8.078759,4.669308,-0.63024247,0.5526495,-2.26878,0.49649248,0
0.9400000000000006,15.01196239863283,2.5208030992729973,-3.7691324835405706,-1.2505051987305773,12.904537,0.05289881,-1.6432563,-1.7410823,9.460411,-9.319781,2.1859753,-0.15585256,0.3377166,-0.2985305,-0.8789407,-8.155874,4.763501,-0.64050215,0.8595183,-2.502707,0.41076678,0
0.9500000000000006,15.01196239863283,2.5208030992729973,-3.7691324835405706,-1.2505051987305773,12.904537,0.05289881,-1.6432563,-1.7410823,9.37848,-9.271673,2.1795275,-0.15977359,0.32491428,-0.30145922,-0.8820573,-8.229725,4.8583817,-0.6487224,1.1185046,-2.7001948,0.32924768,0
0.9600000000000006,15.52133654539134,2.865669857562064,-3.9195121146020746,-1.5061322272879476,13.064154,1.0509843,-1.0241741,-1.9872017,9.295829,-9.22261,2.173008,-0.1646719,0.31117016,-0.30509913,-0.8848562,-8.299843,4.9541736,-0.65494263,1.3370836,-2.8669152,0.25172877,0
0.9700000000000006,15.52133654539134,2.865669857562064,-3.9195121146020746,-1.5061322272879476,13.064154,1.0509843,-1.0241741,-1.9872017,9.212485,-9.172568,2.1664515,-0.17049886,0.29655218,-0.30940998,-0.8872723,-8.36804,5.054326,-0.6560486,1.5753227,-3.031116,0.16547005,0
0.9800000000000006,15.52133654539134,2.865669857562064,-3.9195121146020746,-1.5061322272879476,13.064154,1.0509843,-1.0241741,-1.9872017,9.128484,-9.121519,2.1598935,-0.17720814,0.281121,-0.3143491,-0.8892427,-8.431502,5.155733,-0.6552641,1.7763976,-3.1697338,0.083444044,0
0.9900000000000007,15.52133654539134,2.865669857562064,-3.9195121146020746,-1.5061322272879476,13.064154,1.0509843,-1.0241741,-1.9872017,9.043873,-9.069449,2.1533525,-0.18467529,0.26499215,-0.31978148,-0.89073765,-8.489827,5.2584853,-0.65272194,1.9461086,-3.2867506,0.0054430775,0
1.0000000000000007,15.681464984634458,2.6124860003707338,-3.5884468927594884,-1.6359869625506105,12.8054085,1.1071557,-0.85278124,-2.2966368,8.958706,-9.016345,2.1468446,-0.19279312,0.24826504,-0.32559237,-0.8917312,-8.542653,5.3626165,-0.64857507,2.0893507,-3.3855293,-0.068730354,0
1.0100000000000007,15.681464984634458,2.6124860003707338,-3.5884468927594884,-1.6359869625506105,12.8054085,1.1071557,-0.85278124,-2.2966368,8.873037,-8.962187,2.140391,-0.20141567,0.2311693,-0.331617,-0.89220077,-8.59016,5.469192,-0.6419252,2.1707606,-3.4172864,-0.1456361,0
1.0200000000000007,15.681464984634458,2.6124860003707338,-3.5884468927594884,-1.6359869625506105,12.8054085,1.1071557,-0.85278124,-2.2966368,8.786924,-8.906957,2.1340106,-0.21042533,0.21389748,-0.33772355,-0.8921387,-8.631595,5.5770535,-0.6340214,2.2394807,-3.4440916,-0.21876803,0
1.0300000000000007,15.681464984634458,2.6124860003707338,-3.5884468927594884,-1.6359869625506105,12.8054085,1.1071557,-0.85278124,-2.2966368,8.700426,-8.850641,2.1277144,-0.21977347,0.19647922,-0.343867,-0.891544,-8.666794,5.6860824,-0.6250638,2.2974901,-3.4667158,-0.28831136,0
1.0400000000000007,15.681464984634458,2.6124860003707338,-3.5884468927594884,-1.6359869625506105,12.346398,0.8701274,-0.25538173,-2.2329173,8.613608,-8.79323,2.121512,-0.22941677,0.17894086,-0.35000947,-0.89041626,-8.695621,5.7961354,-0.61525273,2.3464596,-3.4858098,-0.35444218,0
1.0500000000000007,15.681464984634458,2.6124860003707338,-3.5884468927594884,-1.6359869625506105,12.346398,0.8701274,-0.25538173,-2.2329173,8.526535,-8.7347145,2.1154113,-0.23931636,0.16130605,-0.35611904,-0.8887558,-8.717958,5.9070506,-0.6047883,2.3877988,-3.5019236,-0.41732797,0
1.0600000000000007,15.681464984634458,2.6124860003707338,-3.5884468927594884,-1.6359869625506105,12.346398,0.8701274,-0.25538173,-2.2329173,8.439271,-8.675086,2.1094174,-0.24943706,0.143596,-0.36216894,-0.8865633,-8.733708,6.0186486,-0.5938695,2.4226978,-3.5155206,-0.47712794,0
1.0700000000000007,15.681464984634458,2.6124860003707338,-3.5884468927594884,-1.6359869625506105,12.346398,0.8701274,-0.25538173,-2.2329173,8.351882,-8.614339,2.1035345,-0.259747,0.12582986,-0.3681366,-0.8838401,-8.742792,6.130736,-0.5826938,2.452161,-3.5269933,-0.5339935,0
1.0800000000000007,15.107295021914746,1.8860358131064725,-2.8945636554656633,-1.6015899725843095,11.63866,-0.7011414,0.34667954,-2.326971,8.264437,-8.55247,2.0977638,-0.27021688,0.10802507,-0.37400302,-0.8805877,-8.745152,6.243106,-0.5714566,2.4770353,-3.5366728,-0.5880686,0
1.0900000000000007,15.107295021914746,1.8860358131064725,-2.8945636554656633,-1.6015899725843095,11.63866,-0.7011414,0.34667954,-2.326971,8.177001,-8.489499,2.092085,-0.28068343,0.090520315,-0.37957516,-0.8768951,-8.740937,6.3514223,-0.56434464,2.384796,-3.4365785,-0.63780236,0
1.1000000000000008,15.107295021914746,1.8860358131064725,-2.8945636554656633,-1.6015899725843095,11.63866,-0.7011414,0.34667954,-2.326971,8.089641,-8.425445,2.086476,-0.2910236,0.07358968,-0.38471234,-0.8728606,-8.730385,6.4595675,-0.55750036,2.3069463,-3.3520906,-0.68509567,0
1.1100000000000008,15.107295021914746,1.8860358131064725,-2.8945636554656633,-1.6015899725843095,11.63866,-0.7011414,0.34667954,-2.326971,8.002415,-8.36031,2.0809338,-0.30126518,0.0571597,-0.38946894,-0.86849606,-8.713689,6.5673175,-0.55104744,2.241241,-3.280776,-0.7300683,0
1.1200000000000008,14.3766259687942,0.7616066835828839,-2.1258211681307317,-1.440476206833349,11.721962,-1.1862501,0.89148337,-2.055289,7.9153867,-8.2941,2.0754535,-0.31142908,0.041167606,-0.3938902,-0.86380965,-8.691024,6.6744647,-0.54509914,2.1857858,-3.2205813,-0.7728342,0
1.1300000000000008,14.3766259687942,0.7616066835828839,-2.1258211681307317,-1.440476206833349,11.721962,-1.1862501,0.89148337,-2.055289,7.8286076,-8.226849,2.0700047,-0.32137778,0.02595931,-0.39772588,-0.8589854,-8.6639595,6.775666,-0.5447502,1.9637063,-3.0497844,-0.8055956,0
1.1400000000000008,14.3766259687942,0.7616066835828839,-2.1258211681307317,-1.440476206833349,11.721962,-1.1862501,0.89148337,-2.055289,7.742125,-8.158589,2.0645566,-0.33101323,0.011808344,-0.4007944,-0.8541979,-8.631751,6.8759103,-0.5449702,1.7762558,-2.905631,-0.8367493,0
1.1500000000000008,14.3766259687942,0.7616066835828839,-2.1258211681307317,-1.440476206833349,11.721962,-1.1862501,0.89148337,-2.055289,7.6559887,-8.089334,2.0591035,-0.34040028,-0.0014338433,-0.40322024,-0.8494342,-8.594766,6.9750266,-0.54572994,1.6180342,-2.7839653,-0.8663744,0
1.1600000000000008,13.876839579930913,-0.5769410004212298,-1.1143773858025756,-1.1218513765139018,12.409071,-1.776076,0.5574022,-1.5926062,7.5702453,-8.0190935,2.0536401,-0.34959042,-0.013894487,-0.405106,-0.8446787,-8.553325,7.0728726,-0.5470002,1.4844832,-2.6812804,-0.89454573,0
1.1700000000000008,13.876839579930913,-0.5769410004212298,-1.1143773858025756,-1.1218513765139018,12.409071,-1.776076,0.5574022,-1.5926062,7.484929,-7.947898,2.048145,-0.3584385,-0.025168194,-0.40622944,-0.84015805,-8.509325,7.1659737,-0.55208653,1.1631298,-2.4367442,-0.9056997,0
1.1800000000000008,13.876839579930913,-0.5769410004212298,-1.1143773858025756,-1.1218513765139018,12.409071,-1.776076,0.5574022,-1.5926062,7.4000707,-7.8757787,2.0425975,-0.36683902,-0.034940194,-0.40643206,-0.8360746,-8.461805,7.2576466,-0.5574844,0.8918729,-2.2303681,-0.9163063,0
1.1900000000000008,13.876839579930913,-0.5769410004212298,-1.1143773858025756,-1.1218513765139018,12.409071,-1.776076,0.5574022,-1.5926062,7.3157034,-7.8027506,2.036995,-0.3748793,-0.04343427,-0.4058735,-0.83237314,-8.411247,7.3478355,-0.56303334,0.66290236,-2.056198,-0.9263925,0
1.2000000000000008,13.799186423277567,-1.8755812841002768,-0.08903568988192889,-0.6671648686516115,12.726454,-2.3325026,0.99789125,-0.7972251,7.231855,-7.728828,2.0313368,-0.3826288,-0.050840892,-0.40468407,-0.8289997,-8.358055,7.4365053,-0.5685901,0.46962607,-1.9092079,-0.9359837,0
1.2100000000000009,13.799186423277567,-1.8755812841002768,-0.08903568988192889,-0.6671648686516115,12.726454,-2.3325026,0.99789125,-0.7972251,7.148548,-7.654028,2.025621,-0.38995916,-0.056804918,-0.4026966,-0.8261597,-8.302919,7.523153,-0.57452977,0.10407931,-1.6251292,-0.92279273,0
1.2200000000000009,13.799186423277567,-1.8755812841002768,-0.08903568988192889,-0.6671648686516115,12.726454,-2.3325026,0.99789125,-0.7972251,7.065802,-7.5783696,2.0198472,-0.3967707,-0.06105489,-0.3997895,-0.8240224,-8.246075,7.6083016,-0.58011097,-0.20449221,-1.3853924,-0.910249,0
1.2300000000000009,13.799186423277567,-1.8755812841002768,-0.08903568988192889,-0.6671648686516115,12.726454,-2.3325026,0.99789125,-0.7972251,6.9836307,-7.501867,2.0140207,-0.40314937,-0.06385342,-0.39611802,-0.8224859,-8.188039,7.6919975,-0.58510715,-0.4649686,-1.1830755,-0.8983208,0
1.2400000000000009,13.799186423277567,-1.8755812841002768,-0.08903568988192889,-0.6671648686516115,13.827772,-3.136763,1.2102381,-0.28921732,6.9020433,-7.4245343,2.008148,-0.4091632,-0.06542286,-0.39180803,-0.8214567,-8.1292515,7.7742906,-0.5893267,-0.6848454,-1.012337,-0.88697785,0
1.2500000000000009,13.799186423277567,-1.8755812841002768,-0.08903568988192889,-0.6671648686516115,13.827772,-3.136763,1.2102381,-0.28921732,6.821047,-7.3463855,2.0022376,-0.41486648,-0.06595143,-0.38696223,-0.8208506,-8.070088,7.855228,-0.5926099,-0.8704505,-0.86824757,-0.87619156,0
1.260000000000001,13.799186423277567,-1.8755812841002768,-0.08903568988192889,-0.6671648686516115,13.827772,-3.136763,1.2102381,-0.28921732,6.740642,-7.2674336,1.9962995,-0.4203026,-0.065598495,-0.3816648,-0.82059354,-8.010866,7.9348545,-0.5948259,-1.0271257,-0.74664736,-0.86593455,0
1.270000000000001,13.799186423277567,-1.8755812841002768,-0.08903568988192889,-0.6671648686516115,13.827772,-3.136763,1.2102381,-0.28921732,6.660829,-7.1876926,1.9903451,-0.42550656,-0.06449902,-0.37598512,-0.8206208,-7.951858,8.01321,-0.5958697,-1.1593801,-0.644026,-0.8561809,0
1.280000000000001,14.265408935566887,-2.853051747022368,0.8161905549932422,-0.08027004182593397,14.431398,-3.4669242,1.7253796,0.025836606,6.581604,-7.107174,1.9843864,-0.43050662,-0.062767304,-0.36998042,-0.8208764,-7.8933005,8.09033,-0.5956587,-1.2710197,-0.55742097,-0.84690577,1
1.290000000000001,14.265408935566887,-2.853051747022368,0.8161905549932422,-0.08027004182593397,14.431398,-3.4669242,1.7253796,0.025836606,6.502974,-7.0258727,1.9784594,-0.43502697,-0.059660234,-0.36348367,-0.8216271,-7.8328,8.169742,-0.58954865,-1.6132672,-0.20127511,-0.80408007,1
1.300000000000001,14.265408935566887,-2.853051747022368,0.8161905549932422,-0.08027004182593397,14.431398,-3.4669242,1.7253796,0.025836606,6.424944,-6.9437823,1.9726009,-0.43883792,-0.054593593,-0.35636312,-0.82307076,-7.7735977,8.248075,-0.5818888,-1.9021888,0.09928669,-0.7633558,1
1.310000000000001,14.265408935566887,-2.853051747022368,0.8161905549932422,-0.08027004182593397,14.431398,-3.4669242,1.7253796,0.025836606,6.347496,-6.8609138,1.9668274,-0.44201884,-0.047871113,-0.34870672,-0.82506406,-7.716284,8.325502,-0.5725372,-2.1460912,0.3529424,-0.7246299,1
1.320000000000001,14.424801894355339,-3.5541792487388735,1.1828917865885282,0.5016290123512703,14.810713,-4.02259,2.2451549,0.45802847,6.27061,-6.777275,1.9611562,-0.44463262,-0.03974988,-0.34058538,-0.8274797,-7.6613693,8.402166,-0.5614012,-2.351987,0.56701416,-0.6878043,0
1.330000000000001,14.424801894355339,-3.5541792487388735,1.1828917865885282,0.5016290123512703,14.810713,-4.02259,2.2451549,0.45802847,6.1942587,-6.6928735,1.9556055,-0.44675583,-0.030632013,-0.33192936,-0.83023685,-7.6093144,8.478131,-0.5484785,-2.5394502,0.66304773,-0.62943846,0
1.340000000000001,14.424801894355339,-3.5541792487388735,1.1828917865885282,0.5016290123512703,14.810713,-4.02259,2.2451549,0.45802847,6.118412,-6.6077156,1.9501933,-0.44844136,-0.02085125,-0.32268566,-0.8332701,-7.5604343,8.553433,-0.53367835,-2.6976902,0.74408466,-0.57393664,0
1.350000000000001,14.424801894355339,-3.5541792487388735,1.1828917865885282,0.5016290123512703,14.810713,-4.02259,2.2451549,0.45802847,6.0430374,-6.521807,1.9449384,-0.449705,-0.010516718,-0.31293115,-0.83649766,-7.515014,8.628041,-0.516988,-2.8312616,0.8124691,-0.52115834,0
1.360000000000001,14.533970066196494,-3.85082036148589,1.1386019113149934,0.9790882116787752,12.868803,-4.3176146,2.0486524,1.1733876,5.968099,-6.4351573,1.93986,-0.45056096,0.00027892017,-0.30273157,-0.8398499,-7.4733057,8.701911,-0.49842775,-2.944009,0.8701786,-0.4709699,0
1.370000000000001,14.533970066196494,-3.85082036148589,1.1386019113149934,0.9790882116787752,12.868803,-4.3176146,2.0486524,1.1733876,5.8935595,-6.3477693,1.9349806,-0.45097712,0.011477781,-0.2920352,-0.8433284,-7.4352493,8.775541,-0.47714546,-3.0854552,0.9119396,-0.3998151,0
1.380000000000001,14.533970066196494,-3.85082036148589,1.1386019113149934,0.9790882116787752,12.868803,-4.3176146,2.0486524,1.1733876,5.8193793,-6.2596493,1.9303231,-0.45091885,0.023027586,-0.28080416,-0.84692997,-7.401389,8.848289,-0.45407113,-3.2048461,0.94717765,-0.3321519,0
1.390000000000001,14.533970066196494,-3.85082036148589,1.1386019113149934,0.9790882116787752,12.868803,-4.3176146,2.0486524,1.1733876,5.745517,-6.170807,1.9259052,-0.4503961,0.034863055,-0.26910964,-0.8505924,-7.3719354,8.920052,-0.42927215,-3.30562,0.9769137,-0.26780894,0
1.400000000000001,14.511003485100023,-3.7961692626933443,0.7525011123033178,1.3175124096838466,15.33724,-4.3316746,0.94914776,1.295331,5.671925,-6.0812526,1.9217434,-0.4494191,0.04692871,-0.25701308,-0.85426223,-7.34707,8.99073,-0.40284142,-3.3906791,1.0020086,-0.20662335,1
1.410000000000001,14.511003485100023,-3.7961692626933443,0.7525011123033178,1.3175124096838466,15.33724,-4.3316746,0.94914776,1.295331,5.5985646,-5.990978,1.9178884,-0.44797355,0.059188865,-0.24437045,-0.85796213,-7.325845,9.06405,-0.36792058,-3.5374756,0.9936151,-0.13292204,1
1.420000000000001,14.511003485100023,-3.7961692626933443,0.7525011123033178,1.3175124096838466,15.33724,-4.3316746,0.94914776,1.295331,5.52539,-5.8999767,1.9143901,-0.44603813,0.07161049,-0.23107003,-0.8617008,-7.3098226,9.1359215,-0.33149084,-3.6613762,0.98652405,-0.06283726,1
1.430000000000001,14.511003485100023,-3.7961692626933443,0.7525011123033178,1.3175124096838466,15.33724,-4.3316746,0.94914776,1.295331,5.4523497,-5.8082647,1.9112633,-0.44361487,0.08415344,-0.2172055,-0.86541635,-7.299176,9.206148,-0.29366788,-3.7659516,0.98053616,0.0038084574,1
1.440000000000001,14.511003485100023,-3.7961692626933443,0.7525011123033178,1.3175124096838466,15.619762,-4.1611643,0.5125049,1.4056135,5.379388,-5.71586,1.9085212,-0.44070825,0.096783474,-0.20285769,-0.86905557,-7.2940483,9.274542,-0.2545958,-3.854216,0.97548205,0.06718383,0
1.450000000000001,14.511003485100023,-3.7961692626933443,0.7525011123033178,1.3175124096838466,15.619762,-4.1611643,0.5125049,1.4056135,5.306449,-5.622799,1.9061381,-0.43736067,0.10930833,-0.18824941,-0.8725417,-7.294512,9.337346,-0.22189151,-3.8452003,0.9405549,0.12853783,0
1.460000000000001,14.511003485100023,-3.7961692626933443,0.7525011123033178,1.3175124096838466,15.619762,-4.1611643,0.5125049,1.4056135,5.233479,-5.52912,1.9040864,-0.43361536,0.12157568,-0.17356586,-0.8758262,-7.300279,9.398103,-0.18834919,-3.837586,0.9110827,0.18688115,0
1.470000000000001,14.511003485100023,-3.7961692626933443,0.7525011123033178,1.3175124096838466,15.619762,-4.1611643,0.5125049,1.4056135,5.160425,-5.4348445,1.9023734,-0.42947966,0.13361233,-0.1588211,-0.8789029,-7.3113027,9.456685,-0.15415789,-3.831156,0.88621414,0.24236156,0
1.480000000000001,14.09121395042835,-3.4458946544731313,0.11116444069334373,1.491053126548001,15.580904,-3.5488112,-0.8314175,1.8534538,5.0872355,-5.3399944,1.9010049,-0.42496172,0.14544092,-0.14402768,-0.88176525,-7.327532,9.512971,-0.11950644,-3.825726,0.8652309,0.29511952,0
1.490000000000001,14.09121395042835,-3.4458946544731313,0.11116444069334373,1.491053126548001,15.580904,-3.5488112,-0.8314175,1.8534538,5.01386,-5.2446012,1.8999652,-0.42010888,0.15679194,-0.12921557,-0.88443625,-7.348274,9.565279,-0.08842633,-3.7664979,0.74750173,0.35380435,0
1.500000000000001,14.09121395042835,-3.4458946544731313,0.11116444069334373,1.491053126548001,15.580904,-3.5488112,-0.8314175,1.8534538,4.9402533,-5.1486974,1.8992368,-0.41495946,0.16745429,-0.11441356,-0.88694793,-7.3738317,9.61509,-0.057222094,-3.716501,0.6481416,0.40960947,0
1.5100000000000011,14.09121395042835,-3.4458946544731313,0.11116444069334373,1.491053126548001,15.580904,-3.5488112,-0.8314175,1.8534538,4.866368,-5.0523086,1.8988206,-0.4095101,0.1775244,-0.099630095,-0.889303,-7.4040165,9.662261,-0.026024498,-3.6742973,0.5642844,0.46267623,0
1.5200000000000011,13.567727339673711,-2.8364774228083607,-0.8777888568151841,1.5001834981546096,15.752907,-3.2055526,-1.6324805,1.9741799,4.792158,-4.955462,1.8987159,-0.4037599,0.1870839,-0.08487217,-0.8915009,-7.4386554,9.706661,0.00503785,-3.638673,0.49351147,0.513139,0
1.5300000000000011,13.567727339673711,-2.8364774228083607,-0.8777888568151841,1.5001834981546096,15.752907,-3.2055526,-1.6324805,1.9741799,4.7175875,-4.8581934,1.8988965,-0.39778838,0.19575132,-0.07020484,-0.89359766,-7.4761167,9.746624,0.031059094,-3.5135088,0.27958846,0.56157357,0
1.5400000000000011,13.567727339673711,-2.8364774228083607,-0.8777888568151841,1.5001834981546096,15.752907,-3.2055526,-1.6324805,1.9741799,4.6426225,-4.76054,1.8993359,-0.39166087,0.20323142,-0.055684105,-0.8956549,-7.517375,9.783655,0.056785755,-3.4078636,0.099032216,0.60763144,0
1.5500000000000012,13.567727339673711,-2.8364774228083607,-0.8777888568151841,1.5001834981546096,15.752907,-3.2055526,-1.6324805,1.9741799,4.567228,-4.662531,1.900031,-0.38535982,0.2097038,-0.04130202,-0.8976725,-7.562105,9.817619,0.08218652,-3.3186948,-0.053362083,0.65142924,0
1.5600000000000012,13.326707690489528,-2.1108717809411752,-1.6637416121063984,1.3642801990440578,15.233675,-2.7846036,-2.4935088,1.6319021,4.4913697,-4.564198,1.9009783,-0.37887186,0.21531998,-0.02705076,-0.89964503,-7.6100197,9.848397,0.10722713,-3.243434,-0.18198726,0.6930779,0
1.5700000000000012,13.326707690489528,-2.1108717809411752,-1.6637416121063984,1.3642801990440578,15.233675,-2.7846036,-2.4935088,1.6319021,4.4150224,-4.4655766,1.9021631,-0.3722736,0.21981628,-0.013062391,-0.9016219,-7.659938,9.875402,0.12969878,-3.0666988,-0.41305238,0.726014,0
1.5800000000000012,13.326707690489528,-2.1108717809411752,-1.6637416121063984,1.3642801990440578,15.233675,-2.7846036,-2.4935088,1.6319021,4.3381624,-4.3667016,1.903571,-0.3656291,0.22299385,0.0005570147,-0.9036527,-7.712333,9.899099,0.15181509,-2.9175336,-0.60808593,0.75733393,0
1.5900000000000012,13.326707690489528,-2.1108717809411752,-1.6637416121063984,1.3642801990440578,15.233675,-2.7846036,-2.4935088,1.6319021,4.2607684,-4.2676063,1.9051983,-0.35891277,0.22505707,0.013850494,-0.9057255,-7.7668304,9.919421,0.17361468,-2.791639,-0.772707,0.787117,0
1.6000000000000012,13.149963349894767,-1.3542160706849076,-2.1446958457562944,1.1240712587430801,15.422174,-2.1441708,-3.556949,1.8453099,4.1828203,-4.1683245,1.9070424,-0.35210398,0.22617781,0.026855677,-0.90782416,-7.8231044,9.936313,0.19512573,-2.6853857,-0.9116585,0.81543857,0
1.6100000000000012,13.149963349894767,-1.3542160706849076,-2.1446958457562944,1.1240712587430801,15.422174,-2.1441708,-3.556949,1.8453099,4.104305,-4.0688925,1.9090921,-0.34527698,0.22621949,0.039404213,-0.90997547,-7.880085,9.949562,0.2147914,-2.4776776,-1.1038643,0.8305833,0
1.6200000000000012,13.149963349894767,-1.3542160706849076,-2.1446958457562944,1.1240712587430801,15.422174,-2.1441708,-3.556949,1.8453099,4.025214,-3.9693446,1.9113375,-0.3384947,0.22508392,0.05136426,-0.91220605,-7.938151,9.959398,0.23426196,-2.3023748,-1.2661083,0.8449848,0
1.6300000000000012,13.149963349894767,-1.3542160706849076,-2.1446958457562944,1.1240712587430801,15.422174,-2.1441708,-3.556949,1.8453099,3.9455392,-3.8697157,1.913777,-0.33172715,0.22295515,0.06281601,-0.9144954,-7.996946,9.965847,0.25360462,-2.1544223,-1.4030616,0.8586797,0
1.6400000000000012,13.149963349894767,-1.3542160706849076,-2.1446958457562944,1.1240712587430801,15.540947,-1.8425065,-3.8998778,1.822693,3.8652737,-3.7700393,1.9164094,-0.3249499,0.21998763,0.07382813,-0.9168217,-8.056164,9.968934,0.27287146,-2.0295532,-1.5186666,0.87170255,0
1.6500000000000012,13.149963349894767,-1.3542160706849076,-2.1446958457562944,1.1240712587430801,15.540947,-1.8425065,-3.8998778,1.822693,3.7844152,-3.6703486,1.9192343,-0.31814328,0.21631098,0.084459394,-0.91916305,-8.115537,9.968687,0.29210028,-1.9241664,-1.6162512,0.8840864,0
1.6600000000000013,13.149963349894767,-1.3542160706849076,-2.1446958457562944,1.1240712587430801,15.540947,-1.8425065,-3.8998778,1.822693,3.7029634,-3.570677,1.9222513,-0.3112918,0.21203415,0.094759986,-0.92149836,-8.1748295,9.965133,0.3113157,-1.8352226,-1.6986247,0.89586246,0
1.6700000000000013,13.149963349894767,-1.3542160706849076,-2.1446958457562944,1.1240712587430801,15.540947,-1.8425065,-3.8998778,1.822693,3.6209197,-3.4710572,1.9254606,-0.3043835,0.20724876,0.10477275,-0.9238079,-8.233837,9.958302,0.33053043,-1.7601564,-1.7681583,0.90706074,0
1.6800000000000013,13.029791834128648,-0.7285037600308248,-2.3160773801743098,0.8586668026787025,15.939598,-1.6392983,-3.8813403,1.377349,3.5382884,-3.3715222,1.928862,-0.29740927,0.20203197,0.11453421,-0.9260737,-8.292375,9.948224,0.34974676,-1.6968029,-1.8268536,0.91770947,0
1.6900000000000013,13.029791834128648,-0.7285037600308248,-2.3160773801743098,0.8586668026787025,15.939598,-1.6392983,-3.8813403,1.377349,3.4550772,-3.2721033,1.9324502,-0.2904353,0.19630776,0.12387028,-0.92831373,-8.349738,9.9350605,0.3678917,-1.5457553,-1.9030547,0.9148122,0
1.7000000000000013,13.029791834128648,-0.7285037600308248,-2.3160773801743098,0.8586668026787025,15.939598,-1.6392983,-3.8813403,1.377349,3.3712964,-3.1728315,1.9362199,-0.28351787,0.19002087,0.13264489,-0.93054533,-8.406249,9.918813,0.38606393,-1.4182705,-1.9673868,0.91205716,0
1.7100000000000013,13.029791834128648,-0.7285037600308248,-2.3160773801743098,0.8586668026787025,15.939598,-1.6392983,-3.8813403,1.377349,3.2869558,-3.0737371,1.9401717,-0.27663764,0.18325853,0.14093812,-0.93275076,-8.461702,9.899584,0.404291,-1.3106731,-2.0216987,0.90943724,0
1.7200000000000013,12.574350207372484,-0.18134118318323003,-2.3847270211625795,0.5492575323415765,15.263231,-1.0807163,-3.938212,0.8812326,3.202067,-2.9748497,1.9443059,-0.2697791,0.17609397,0.14881788,-0.93491334,-8.515918,9.877469,0.4225889,-1.2198602,-2.067551,0.90694594,0
1.7300000000000013,12.574350207372484,-0.18134118318323003,-2.3847270211625795,0.5492575323415765,15.263231,-1.0807163,-3.938212,0.8812326,3.1166518,-2.876193,1.9486034,-0.26299962,0.16849883,0.15615094,-0.9370463,-8.566883,9.8534355,0.43689716,-1.0578988,-2.1169064,0.88939404,0
1.7400000000000013,12.574350207372484,-0.18134118318323003,-2.3847270211625795,0.5492575323415765,15.263231,-1.0807163,-3.938212,0.8812326,3.0307343,-2.7777898,1.9530443,-0.25634858,0.16045454,0.16283521,-0.9391613,-8.616317,9.826848,0.4513148,-0.9211995,-2.1585839,0.87270343,0
1.7500000000000013,12.574350207372484,-0.18134118318323003,-2.3847270211625795,0.5492575323415765,15.263231,-1.0807163,-3.938212,0.8812326,2.9443314,-2.6796644,1.9576302,-0.24980359,0.15203047,0.16896573,-0.94124126,-8.664049,9.79785,0.46587053,-0.8058216,-2.1937768,0.8568318,0
1.7600000000000013,12.166962939700715,0.2791494879421548,-2.0498348156009745,0.2488730994895866,15.854928,-1.1401964,-3.856854,1.0202521,2.85746,-2.5818408,1.9623622,-0.24334618,0.14328471,0.1746228,-0.94327015,-8.709938,9.766567,0.48058137,-0.7084396,-2.223494,0.84173906,0
1.7700000000000014,12.166962939700715,0.2791494879421548,-2.0498348156009745,0.2488730994895866,15.854928,-1.1401964,-3.856854,1.0202521,2.7701466,-2.4843354,1.9672239,-0.23704614,0.13434182,0.17967364,-0.9452398,-8.752438,9.734212,0.49179652,-0.5544821,-2.1963172,0.8126469,0
1.7800000000000014,12.166962939700715,0.2791494879421548,-2.0498348156009745,0.2488730994895866,15.854928,-1.1401964,-3.856854,1.0202521,2.6824179,-2.3871632,1.9721987,-0.23096353,0.12530409,0.18401851,-0.9471491,-8.792941,9.699948,0.5031876,-0.4245289,-2.1733968,0.7849824,0
1.7900000000000014,12.166962939700715,0.2791494879421548,-2.0498348156009745,0.2488730994895866,15.854928,-1.1401964,-3.856854,1.0202521,2.5942948,-2.2903423,1.9772884,-0.22507122,0.11618587,0.18776438,-0.94899297,-8.831378,9.663957,0.5147697,-0.31483746,-2.1540658,0.75867534,0
1.8000000000000014,11.821895757409749,0.5465614633562912,-1.5430719162825257,-0.011664941124758677,13.408818,-0.3330291,-2.9488325,0.0051034885,2.5057979,-2.1938896,1.9824947,-0.21934614,0.106998816,0.19100137,-0.9507662,-8.867684,9.626394,0.52655053,-0.22224848,-2.1377616,0.7336592,0
1.8100000000000014,11.821895757409749,0.5465614633562912,-1.5430719162825257,-0.011664941124758677,13.408818,-0.3330291,-2.9488325,0.0051034885,2.4169536,-2.097814,1.9878044,-0.21384975,0.09791615,0.19366325,-0.9524572,-8.900847,9.588514,0.5354107,-0.10244632,-2.0449605,0.6970859,0
1.8200000000000014,11.821895757409749,0.5465614633562912,-1.5430719162825257,-0.011664941124758677,13.408818,-0.3330291,-2.9488325,0.0051034885,2.327788,-2.0021236,1.9932036,-0.20863488,0.089076035,0.19570373,-0.9540631,-8.931903,9.549431,0.54447085,-0.0013141837,-1.9666452,0.6623073,0
1.8300000000000014,11.821895757409749,0.5465614633562912,-1.5430719162825257,-0.011664941124758677,13.408818,-0.3330291,-2.9488325,0.0051034885,2.2383225,-1.9068291,1.9986944,-0.20367134,0.08043963,0.19721921,-0.95558965,-8.960871,9.509316,0.55373514,0.08405706,-1.9005541,0.6292353,0
1.8400000000000014,11.821895757409749,0.5465614633562912,-1.5430719162825257,-0.011664941124758677,13.037255,-0.17364939,-2.5805168,-0.20318805,2.1485777,-1.8119404,2.004279,-0.19893304,0.07197375,0.19829063,-0.95704013,-8.98777,9.468323,0.5632048,0.15612367,-1.8447785,0.5977862,0
1.8500000000000014,11.821895757409749,0.5465614633562912,-1.5430719162825257,-0.011664941124758677,13.037255,-0.17364939,-2.5805168,-0.20318805,2.058574,-1.7174654,2.009959,-0.19439743,0.063650146,0.198986,-0.95841664,-9.012615,9.426575,0.5728783,0.2169588,-1.797708,0.5678802,0
1.8600000000000014,11.821895757409749,0.5465614633562912,-1.5430719162825257,-0.011664941124758677,13.037255,-0.17364939,-2.5805168,-0.20318805,1.9683322,-1.6234112,2.0157373,-0.19004504,0.055444837,0.19936241,-0.9597203,-9.035422,9.384183,0.58275145,0.26831275,-1.7579838,0.5394418,0
1.8700000000000014,11.821895757409749,0.5465614633562912,-1.5430719162825257,-0.011664941124758677,13.037255,-0.17364939,-2.5805168,-0.20318805,1.8778723,-1.5297836,2.021615,-0.18585888,0.047337506,0.19946785,-0.96095157,-9.056203,9.341245,0.5928172,0.31166342,-1.7244587,0.51239884,0
1.8800000000000014,11.43236179509835,0.619941707900954,-1.0326241943567578,-0.2198662464025824,12.430059,-0.034725264,-2.297861,-0.23085104,1.7872148,-1.4365878,2.027594,-0.18182418,0.039311014,0.19934264,-0.96211064,-9.074969,9.297843,0.6030661,0.3482578,-1.6961651,0.4866829,0
1.8900000000000015,11.43236179509835,0.619941707900954,-1.0326241943567578,-0.2198662464025824,12.430059,-0.034725264,-2.297861,-0.23085104,1.6963825,-1.3438208,2.0336585,-0.17799477,0.031537153,0.19895668,-0.9631922,-9.091187,9.255499,0.6099114,0.390558,-1.5926818,0.4520123,0
1.9000000000000015,11.43236179509835,0.619941707900954,-1.0326241943567578,-0.2198662464025824,12.430059,-0.034725264,-2.297861,-0.23085104,1.6053976,-1.2514788,2.0397925,-0.1744162,0.024151154,0.19828945,-0.9641975,-9.105545,9.212877,0.6169153,0.42627224,-1.5053397,0.41904303,0
1.9100000000000015,11.43236179509835,0.619941707900954,-1.0326241943567578,-0.2198662464025824,12.430059,-0.034725264,-2.297861,-0.23085104,1.5142778,-1.1595639,2.0459974,-0.17106482,0.01709036,0.19738457,-0.9651341,-9.118119,9.170068,0.62407154,0.45642555,-1.4316211,0.3876916,0
1.9200000000000015,11.022720713047823,0.5585605671025102,-0.6263270275040571,-0.3827572089317559,12.118671,0.11158864,-1.8442761,-0.38781866,1.423041,-1.0680777,2.0522745,-0.16792002,0.010301863,0.19627848,-0.9660079,-9.128977,9.127149,0.6313739,0.48188332,-1.3694005,0.35787857,0
1.9300000000000015,11.022720713047823,0.5585605671025102,-0.6263270275040571,-0.3827572089317559,12.118671,0.11158864,-1.8442761,-0.38781866,1.3317057,-0.97701335,2.0586064,-0.1650149,0.0038983077,0.19499867,-0.9668144,-9.137852,9.085725,0.63503397,0.49378416,-1.2535275,0.32153535,0
1.9400000000000015,11.022720713047823,0.5585605671025102,-0.6263270275040571,-0.3827572089317559,12.118671,0.11158864,-1.8442761,-0.38781866,1.2402892,-0.8863632,2.0649757,-0.16237734,-0.002033755,0.19356921,-0.9675537,-9.145232,9.044322,0.6388223,0.5038394,-1.1557252,0.2869755,0
1.9500000000000015,11.022720713047823,0.5585605671025102,-0.6263270275040571,-0.3827572089317559,12.118671,0.11158864,-1.8442761,-0.38781866,1.1488059,-0.7961267,2.0713835,-0.15998304,-0.007570616,0.19201347,-0.9682347,-9.151218,9.002997,0.6427338,0.5123345,-1.0731753,0.25411156,0
1.9600000000000015,10.640385694854453,0.4347080905378352,-0.11582575147030795,-0.48010790208804327,12.159708,-0.23704918,-1.5862199,-0.617813,1.0572693,-0.7063029,2.0778308,-0.15781061,-0.012776587,0.19035077,-0.9688647,-9.155896,8.961799,0.6467645,0.51951146,-1.003499,0.22286022,0
1.9700000000000015,10.640385694854453,0.4347080905378352,-0.11582575147030795,-0.48010790208804327,12.159708,-0.23704918,-1.5862199,-0.617813,0.96569276,-0.6168831,2.0843015,-0.15589246,-0.017502382,0.18861313,-0.96944106,-9.159226,8.922188,0.6473642,0.5062466,-0.8650803,0.18836537,0
1.9800000000000015,10.640385694854453,0.4347080905378352,-0.11582575147030795,-0.48010790208804327,12.159708,-0.23704918,-1.5862199,-0.617813,0.87408835,-0.52785844,2.0907788,-0.15425447,-0.021632709,0.18682745,-0.9699653,-9.161496,8.882774,0.6480729,0.49505982,-0.7482465,0.15556318,0
1.9900000000000015,10.640385694854453,0.4347080905378352,-0.11582575147030795,-0.48010790208804327,12.159708,-0.23704918,-1.5862199,-0.617813,0.782466,-0.4392268,2.0972638,-0.15286995,-0.025263267,0.18500139,-0.9704465,-9.16283,8.84359,0.6488897,0.4856247,-0.6496316,0.12437062,0
2.0000000000000013,,,,,12.251302,-0.24522813,-1.1009021,-0.70115244,0.6908345,-0.35098574,2.1037574,-0.15171549,-0.02847471,0.18314111,-0.9708915,-9.163335,8.804661,0.6498151,0.47766644,-0.5663948,0.09470867,0
2.010000000000001,,,,,12.251302,-0.24522813,-1.1009021,-0.70115244,0.5992018,-0.2631268,2.1102457,-0.15080851,-0.03115946,0.18127169,-0.9713011,-9.1631155,8.767172,0.64786583,0.45226794,-0.42825526,0.0645656,0
2.020000000000001,,,,,12.251302,-0.24522813,-1.1009021,-0.70115244,0.5075742,-0.17564131,2.116715,-0.15016165,-0.033235755,0.17941348,-0.9716775,-9.162314,8.729971,0.6460253,0.43083662,-0.31165692,0.035901647,0
2.0300000000000007,,,,,12.251302,-0.24522813,-1.1009021,-0.70115244,0.41595703,-0.08852633,2.1231666,-0.14974904,-0.034800954,0.17756458,-0.97202593,-9.161055,8.693075,0.6442969,0.4127523,-0.21324077,0.008644268,0
2.0400000000000005,,,,,12.251302,-0.24522813,-1.1009021,-0.70115244,0.32435432,-0.0017787293,2.1296012,-0.1495481,-0.03593708,0.17572312,-0.97235006,-9.159443,8.656495,0.642684,0.39749137,-0.1301716,-0.017275594,0
2.0500000000000003,,,,,12.803724,-0.4875074,-0.74446386,-0.9129014,0.2327691,0.0846047,2.1360204,-0.14953907,-0.036713224,0.17388748,-0.9726524,-9.157568,8.620244,0.64119005,0.3846132,-0.060056172,-0.041923553,1
2.06,,,,,12.803724,-0.4875074,-0.74446386,-0.9129014,0.14120612,0.17058396,2.1425416,-0.14969006,-0.03756216,0.17243044,-0.9728561,-9.15499,8.575663,0.6630875,0.24859904,-0.16679266,-0.08466268,1
2.07,,,,,12.803724,-0.4875074,-0.74446386,-0.9129014,0.049670294,0.2561188,2.1492825,-0.14998223,-0.038830906,0.1716473,-0.9728998,-9.1521225,8.531333,0.68507123,0.13379204,-0.25687748,-0.12530458,1
2.0799999999999996,,,,,12.803724,-0.4875074,-0.74446386,-0.9129014,-0.041835107,0.34121087,2.156243,-0.15041618,-0.040457502,0.17143191,-0.9728045,-9.148897,8.487085,0.70707655,0.03688635,-0.33290946,-0.16395217,1
2.0899999999999994,,,,,11.240859,-0.69709045,-1.3411473,-0.6396791,-0.13330624,0.42586032,2.1634238,-0.15099098,-0.042389438,0.17169453,-0.97258687,-9.145259,8.44278,0.7290485,-0.04490868,-0.39708155,-0.20070331,1
2.099999999999999,,,,,11.240859,-0.69709045,-1.3411473,-0.6396791,-0.22474115,0.510093,2.1707504,-0.15163425,-0.044795915,0.17247829,-0.9722402,-9.14165,8.403718,0.7362901,-0.14664291,-0.5442929,-0.22224398,1
2.109999999999999,,,,,11.240859,-0.69709045,-1.3411473,-0.6396791,-0.31613746,0.59393364,2.178149,-0.15228239,-0.047807496,0.17381337,-0.97175753,-9.137529,8.364358,0.7434014,-0.23251164,-0.66854674,-0.24272765,1
2.1199999999999988,,,,,11.240859,-0.69709045,-1.3411473,-0.6396791,-0.40748954,0.67737865,2.185618,-0.15294497,-0.05133103,0.17561209,-0.9711501,-9.132789,8.324571,0.7503257,-0.30498883,-0.7734231,-0.26220617,1
2.1299999999999986,,,,,10.768317,-0.60291296,-1.392367,-0.51312125,-0.49879077,0.7604232,2.1931548,-0.15362927,-0.05528778,0.17780013,-0.9704265,-9.127343,8.284248,0.7570116,-0.3661623,-0.86194456,-0.28072888,1
2.1399999999999983,,,,,10.768317,-0.60291296,-1.392367,-0.51312125,-0.59003496,0.84307,2.200735,-0.15431973,-0.05963409,0.18028201,-0.96960133,-9.121381,8.245024,0.75901896,-0.40310544,-0.944654,-0.29213244,1
2.149999999999998,,,,,10.768317,-0.60291296,-1.392367,-0.51312125,-0.6812156,0.92532134,2.208334,-0.15500127,-0.0643314,0.18297891,-0.96868676,-9.114605,8.205139,0.76071316,-0.43428567,-1.0144657,-0.30297643,1
2.159999999999998,,,,,10.768317,-0.60291296,-1.392367,-0.51312125,-0.7723241,1.0071703,2.215948,-0.15567943,-0.06932513,0.18585514,-0.96768546,-9.1069565,8.164545,0.7620574,-0.46060178,-1.073391,-0.31328827,1
2.1699999999999977,,,,,9.806091,-0.87647444,-0.99636513,-0.29953322,-0.8633515,1.0886097,2.2235737,-0.1563586,-0.074569106,0.1888804,-0.96659964,-9.098388,8.1232,0.76301646,-0.48281243,-1.1231275,-0.32309413,1
2.1799999999999975,,,,,9.806091,-0.87647444,-0.99636513,-0.29953322,-0.9542928,1.1696506,2.2311628,-0.15705515,-0.07984906,0.19211209,-0.96542746,-9.089719,8.084832,0.75474197,-0.544199,-1.1033463,-0.32193798,1
