time-since-start [s],throttle_mpc,roll_mpc,pitch_mpc,yaw_mpc,throttle_nw,roll_nw,pitch_nw,yaw_nw,position_x [m],position_y [m],position_z [m],rotation_w [quaternion],rotation_x [quaternion],rotation_y [quaternion],rotation_z [quaternion],velocity_x [m/s],velocity_y [m/s],velocity_z [m/s],omega_x [rad/s],omega_y [rad/s],omega_z [rad/s],network_used
0.0,9.056360699912675,5.999999669998201,-5.999999917673724,-4.477015763979557,8.827406,1.2698375,-3.62673,-1.4656593,18.534008,-9.471707,2.1169748,0.02284832,0.38699266,-0.2633276,-0.8833873,-10.956827,-4.328376,0.55791456,1.4621272,-0.13551906,-0.22049215,0
0.01,9.056360699912675,5.999999669998201,-5.999999917673724,-4.477015763979557,12.472796,-1.0890967,-4.7493277,-0.9353796,18.423876,-9.5146265,2.1225185,0.018476753,0.38655558,-0.26914677,-0.881926,-11.069297,-4.255103,0.5504596,1.425974,-0.3064289,-0.36285618,0
0.02,9.056360699912675,5.999999669998201,-5.999999917673724,-4.477015763979557,12.472796,-1.0890967,-4.7493277,-0.9353796,18.312632,-9.556807,2.1279767,0.013297529,0.38553283,-0.27460572,-0.8807834,-11.1793785,-4.1808577,0.54084647,1.4205424,-0.47579792,-0.5004788,0
0.03,9.056360699912675,5.999999669998201,-5.999999917673724,-4.477015763979557,12.472796,-1.0890967,-4.7493277,-0.9353796,18.2003,-9.59824,2.1333287,0.0072739897,0.3839284,-0.2798331,-0.87990886,-11.286853,-4.105685,0.52925384,1.4414314,-0.6442616,-0.63362753,0
0.04,9.056360699912675,5.999999669998201,-5.999999917673724,-4.477015763979557,9.349022,-1.125159,-6.6867666,-1.0820123,18.086906,-9.638916,2.1385555,0.00037597725,0.3817404,-0.28493738,-0.8792525,-11.391509,-4.0295987,0.5158376,1.4848367,-0.8122646,-0.76254857,0
0.05,9.056360699912675,5.999999669998201,-5.999999917673724,-4.477015763979557,9.349022,-1.125159,-6.6867666,-1.0820123,17.97248,-9.678827,2.1436396,-0.0074207583,0.37896198,-0.29000917,-0.87876475,-11.493138,-3.9525895,0.50073403,1.5474653,-0.98010015,-0.88746893,0
0.060000000000000005,9.056360699912675,5.999999669998201,-5.999999917673724,-4.477015763979557,9.349022,-1.125159,-6.6867666,-1.0820123,17.857056,-9.717964,2.1485646,-0.01613505,0.37558237,-0.29512355,-0.8783961,-11.591536,-3.8746347,0.484062,1.626465,-1.1479414,-1.008598,0
0.07,9.056360699912675,5.999999669998201,-5.999999917673724,-4.477015763979557,9.349022,-1.125159,-6.6867666,-1.0820123,17.740664,-9.756316,2.1533158,-0.025780732,0.37158754,-0.3003417,-0.8780962,-11.6865,-3.7957044,0.46592543,1.7193621,-1.3158675,-1.1261287,0
0.08,10.924097415457789,5.999999807447206,-5.999999947428934,-4.386911859796393,9.891904,-0.57918006,-5.961932,-1.1813256,17.623339,-9.793875,2.1578784,-0.036366962,0.36696082,-0.3057125,-0.8778138,-11.777827,-3.7157676,0.44641516,1.8240107,-1.4838862,-1.2402395,0
0.09,10.924097415457789,5.999999807447206,-5.999999947428934,-4.386911859796393,9.891904,-0.57918006,-5.961932,-1.1813256,17.505081,-9.830592,2.162274,-0.04800824,0.36153713,-0.31140566,-0.87750363,-11.873088,-3.6275861,0.4324863,2.0015116,-1.7150295,-1.3523029,0
0.09999999999999999,10.924097415457789,5.999999807447206,-5.999999947428934,-4.386911859796393,9.891904,-0.57918006,-5.961932,-1.1813256,17.385893,-9.866423,2.1665227,-0.06080457,0.35516003,-0.3175619,-0.87710804,-11.963714,-3.538331,0.41709682,2.1824048,-1.9412509,-1.4616477,0
0.10999999999999999,10.924097415457789,5.999999807447206,-5.999999947428934,-4.386911859796393,9.891904,-0.57918006,-5.961932,-1.1813256,17.265823,-9.901355,2.1706107,-0.07473722,0.34782228,-0.32417232,-0.87655365,-12.049417,-3.4479172,0.40033603,2.3657255,-2.1628795,-1.5683681,0
0.11999999999999998,10.924097415457789,5.999999807447206,-5.999999947428934,-4.386911859796393,9.891904,-0.57918006,-5.961932,-1.1813256,17.144922,-9.935378,2.1745248,-0.08978397,0.33951402,-0.33122113,-0.8757635,-12.129916,-3.3562977,0.3822771,2.5506496,-2.3801825,-1.6725527,0
0.12999999999999998,14.038969358689371,5.999999896006177,-5.999999970613872,-4.101085973352658,10.778549,0.28961653,-6.364117,-1.3693918,17.023243,-9.968478,2.178252,-0.105918854,0.33022338,-0.33868632,-0.8746572,-12.204936,-3.263466,0.3629779,2.736474,-2.5933785,-1.7742856,0
0.13999999999999999,14.038969358689371,5.999999896006177,-5.999999970613872,-4.101085973352658,10.778549,0.28961653,-6.364117,-1.3693918,16.900793,-10.000579,2.1818337,-0.12331449,0.31962284,-0.3467798,-0.8731429,-12.283696,-3.156529,0.3531428,3.0464783,-2.926816,-1.8706985,0
0.15,14.038969358689371,5.999999896006177,-5.999999970613872,-4.101085973352658,10.778549,0.28961653,-6.364117,-1.3693918,16.777592,-10.031605,2.1853094,-0.1421144,0.3074056,-0.3556639,-0.87109613,-12.355191,-3.048558,0.34172702,3.3459458,-3.2461064,-1.9657627,0
0.16,17.69078612332582,5.999999933835105,-5.999999981292327,-3.385279995959642,11.286465,0.6012456,-7.4987154,-1.0900735,16.653713,-10.061546,2.188663,-0.1622424,0.29358864,-0.36523518,-0.8683815,-12.418979,-2.9395785,0.32878405,3.6354012,-3.5523322,-2.0594444,0
0.17,17.69078612332582,5.999999933835105,-5.999999981292327,-3.385279995959642,11.286465,0.6012456,-7.4987154,-1.0900735,16.529188,-10.090293,2.1919568,-0.18371654,0.27791065,-0.37557316,-0.8648461,-12.485072,-2.8090305,0.33007398,4.003481,-3.9347072,-2.1245036,0
0.18000000000000002,17.69078612332582,5.999999933835105,-5.999999981292327,-3.385279995959642,11.286465,0.6012456,-7.4987154,-1.0900735,16.404045,-10.117715,2.1952658,-0.20643033,0.26027113,-0.38662708,-0.8603285,-12.542159,-2.6746266,0.33179793,4.3142204,-4.2573915,-2.1863704,0
0.19000000000000003,17.69078612332582,5.999999933835105,-5.999999981292327,-3.385279995959642,11.286465,0.6012456,-7.4987154,-1.0900735,16.27838,-10.143774,2.1985939,-0.23013502,0.24090768,-0.39812574,-0.85469145,-12.589256,-2.5366488,0.33385235,4.576556,-4.529699,-2.2452013,0
0.20000000000000004,20.99999210289123,5.999999947486805,-5.999999984039839,-2.8587176669755796,13.006356,2.536734,-6.539522,-1.6974586,16.152298,-10.168437,2.2019434,-0.25460657,0.22003166,-0.40983668,-0.8478182,-12.625491,-2.3955572,0.33608204,4.7980328,-4.75949,-2.3011453,0
0.21000000000000005,20.99999210289123,5.999999947486805,-5.999999984039839,-2.8587176669755796,13.006356,2.536734,-6.539522,-1.6974586,16.025887,-10.191542,2.2054095,-0.27958733,0.19780622,-0.42157543,-0.8396297,-12.654719,-2.22511,0.35705033,4.9851003,-4.953316,-2.3285055,0
0.22000000000000006,20.99999210289123,5.999999947486805,-5.999999984039839,-2.8587176669755796,13.006356,2.536734,-6.539522,-1.6974586,15.899255,-10.212932,2.2090838,-0.30484313,0.17437802,-0.43318447,-0.83006895,-12.66942,-2.0525901,0.37770775,5.1430387,-5.116873,-2.3545232,0
0.23000000000000007,20.99999210289123,5.999999947486805,-5.999999984039839,-2.8587176669755796,13.006356,2.536734,-6.539522,-1.6974586,15.772551,-10.23259,2.2129617,-0.33021352,0.14990625,-0.4445161,-0.81908053,-12.6690035,-1.8790182,0.3977349,5.2763853,-5.2548857,-2.379264,0
0.24000000000000007,20.99999210289123,5.999999947486805,-5.999999984039839,-2.8587176669755796,14.538395,2.0327656,-5.5616794,-1.6409589,15.645928,-10.250512,2.2170353,-0.35555246,0.124537386,-0.45544422,-0.8066249,-12.653041,-1.7055193,0.4167835,5.38897,-5.371343,-2.402791,0
0.25000000000000006,20.99999210289123,5.999999947486805,-5.999999984039839,-2.8587176669755796,14.538395,2.0327656,-5.5616794,-1.6409589,15.519545,-10.266705,2.2212927,-0.38072672,0.09840704,-0.46586132,-0.792677,-12.621261,-1.5332992,0.43448496,5.4840264,-5.4696107,-2.4251635,0
0.26000000000000006,20.99999210289123,5.999999947486805,-5.999999984039839,-2.8587176669755796,14.538395,2.0327656,-5.5616794,-1.6409589,15.3935585,-10.281187,2.225719,-0.40561426,0.07164127,-0.4756758,-0.7772242,-12.573555,-1.3636215,0.45045805,5.564285,-5.552529,-2.4464383,0
0.2700000000000001,20.99999210289123,5.999999947486805,-5.999999984039839,-2.8587176669755796,14.538395,2.0327656,-5.5616794,-1.6409589,15.268128,-10.293991,2.230295,-0.43010324,0.04435774,-0.4848098,-0.76026535,-12.509976,-1.1977859,0.46431676,5.632049,-5.6224937,-2.4666688,0
0.2800000000000001,20.99999951094492,4.4833982549312354,-5.999997918794846,-1.1267213628961295,13.749441,0.3301384,-4.3443837,-0.70801866,15.143413,-10.305161,2.2349968,-0.45409092,0.016666682,-0.49319732,-0.7418089,-12.4307375,-1.0371073,0.47567677,5.689265,-5.6815286,-2.4859068,0
0.2900000000000001,20.99999951094492,4.4833982549312354,-5.999997918794846,-1.1267213628961295,13.749441,0.3301384,-4.3443837,-0.70801866,15.019566,-10.314755,2.2397983,-0.477326,-0.011153333,-0.50034577,-0.7222811,-12.336243,-0.8829013,0.48420307,5.5013804,-5.7306504,-2.4192114,0
0.3000000000000001,20.99999951094492,4.4833982549312354,-5.999997918794846,-1.1267213628961295,13.749441,0.3301384,-4.3443837,-0.70801866,14.896737,-10.322845,2.2446706,-0.49962527,-0.03886854,-0.50589556,-0.70209247,-12.227257,-0.7364587,0.4898093,5.342799,-5.7721844,-2.3557885,0
0.3100000000000001,20.99999951094492,4.4833982549312354,-5.999997918794846,-1.1267213628961295,13.749441,0.3301384,-4.3443837,-0.70801866,14.775068,-10.329515,2.2495844,-0.5209897,-0.0664452,-0.5099729,-0.68123615,-12.104692,-0.5989717,0.49247754,5.20895,-5.807301,-2.2954779,0
0.3200000000000001,20.7008493529684,2.531702599596751,-3.9993349518889527,-0.4389028745347853,14.534559,-1.4111465,-3.7661433,-0.17278348,14.654688,-10.33486,2.25451,-0.5414153,-0.09385195,-0.5126837,-0.65970975,-11.969517,-0.47152108,0.49216884,5.095974,-5.8369923,-2.2381268,0
0.3300000000000001,20.7008493529684,2.531702599596751,-3.9993349518889527,-0.4389028745347853,14.534559,-1.4111465,-3.7661433,-0.17278348,14.535708,-10.338992,2.2594106,-0.5605234,-0.12015519,-0.51405436,-0.63806313,-11.824905,-0.35666883,0.48750293,4.6968155,-5.5495567,-2.1498382,0
0.34000000000000014,20.7008493529684,2.531702599596751,-3.9993349518889527,-0.4389028745347853,14.534559,-1.4111465,-3.7661433,-0.17278348,14.418224,-10.342032,2.26425,-0.5780899,-0.14463522,-0.51420045,-0.61683947,-11.670396,-0.25295356,0.47998673,4.3597975,-5.307089,-2.0658822,0
0.35000000000000014,20.7008493529684,2.531702599596751,-3.9993349518889527,-0.4389028745347853,14.534559,-1.4111465,-3.7661433,-0.17278348,14.30233,-10.34409,2.269001,-0.59430903,-0.16755618,-0.5133115,-0.5960145,-11.507428,-0.16047527,0.46978593,4.075248,-5.1025496,-1.986046,0
0.36000000000000015,17.96682423672739,0.46203172661017083,-1.6452743736662474,0.4321671627632537,14.795851,-2.7871866,-2.454989,0.5089797,14.188101,-10.345281,2.273637,-0.60933864,-0.18914354,-0.5115361,-0.5755539,-11.337267,-0.07926275,0.4570579,3.835,-4.9300027,-1.9101272,0
0.37000000000000016,17.96682423672739,0.46203172661017083,-1.6452743736662474,0.4321671627632537,14.795851,-2.7871866,-2.454989,0.5089797,14.075489,-10.345761,2.2780788,-0.6229417,-0.20860438,-0.5090915,-0.55610627,-11.184355,-0.018451013,0.4310107,3.3099587,-4.416847,-1.7951902,0
0.38000000000000017,17.96682423672739,0.46203172661017083,-1.6452743736662474,0.4321671627632537,14.795851,-2.7871866,-2.454989,0.5089797,13.964428,-10.34568,2.2822511,-0.6350063,-0.22535715,-0.5062229,-0.53825635,-11.027343,0.033320107,0.40320036,2.8666174,-3.9838974,-1.6858932,0
0.3900000000000002,17.96682423672739,0.46203172661017083,-1.6452743736662474,0.4321671627632537,14.795851,-2.7871866,-2.454989,0.5089797,13.854953,-10.345123,2.2861378,-0.6458048,-0.23986045,-0.5030562,-0.52186006,-10.867204,0.076823644,0.3739353,2.492271,-3.618609,-1.5819592,0
0.4000000000000002,15.987360847401,-1.1432804970741457,0.447194297989749,0.972545809602035,14.642018,-2.954598,-0.8019499,1.6278116,13.747091,-10.34417,2.289726,-0.65555215,-0.25249845,-0.49967706,-0.50677323,-10.704701,0.11276284,0.3434934,2.176188,-3.3104014,-1.4831254,0
0.4100000000000002,15.987360847401,-1.1432804970741457,0.447194297989749,0.972545809602035,14.642018,-2.954598,-0.8019499,1.6278116,13.640774,-10.342907,2.2929678,-0.6641404,-0.26278558,-0.4963619,-0.49344343,-10.558551,0.13864253,0.3047833,1.6593014,-2.7237742,-1.3626249,0
0.4200000000000002,15.987360847401,-1.1432804970741457,0.447194297989749,0.972545809602035,14.642018,-2.954598,-0.8019499,1.6278116,13.535924,-10.341413,2.2958198,-0.67152077,-0.2703733,-0.4933575,-0.48224148,-10.41137,0.1593933,0.26554856,1.2228479,-2.2287827,-1.2480375,0
0.4300000000000002,15.987360847401,-1.1432804970741457,0.447194297989749,0.972545809602035,14.642018,-2.954598,-0.8019499,1.6278116,13.4325485,-10.339733,2.2982779,-0.67791384,-0.27573526,-0.4906608,-0.472922,-10.263566,0.17600077,0.2260698,0.85432094,-1.8111038,-1.1390729,0
0.4400000000000002,15.987360847401,-1.1432804970741457,0.447194297989749,0.972545809602035,13.657829,-3.2302394,2.2133424,1.922311,13.330652,-10.337905,2.3003411,-0.6834886,-0.27926272,-0.48825097,-0.4652601,-10.115425,0.18931346,0.18658718,0.5431571,-1.4586546,-1.0354553,0
0.45000000000000023,15.987360847401,-1.1432804970741457,0.447194297989749,0.972545809602035,13.657829,-3.2302394,2.2133424,1.922311,13.23024,-10.335957,2.3020105,-0.6883755,-0.28127936,-0.48609793,-0.45905358,-9.967154,0.20005801,0.14730333,0.28043413,-1.1612425,-0.93692213,0
0.46000000000000024,15.987360847401,-1.1432804970741457,0.447194297989749,0.972545809602035,13.657829,-3.2302394,2.2133424,1.922311,13.1313095,-10.33391,2.3032885,-0.6926762,-0.28205302,-0.48416758,-0.45412305,-9.8189,0.20885457,0.10838738,0.05861603,-0.91026795,-0.843224,0
0.47000000000000025,15.987360847401,-1.1432804970741457,0.447194297989749,0.972545809602035,13.657829,-3.2302394,2.2133424,1.922311,13.033861,-10.331783,2.30418,-0.696471,-0.28180572,-0.48242518,-0.4503108,-9.670773,0.21623111,0.069979206,-0.12866166,-0.69847643,-0.75412357,0
0.48000000000000026,16.461258697977467,-4.170678564474892,3.3438562637507268,2.864355583759633,14.11833,-3.5408816,3.81282,0.71620977,12.937893,-10.329588,2.3046901,-0.6998238,-0.2807216,-0.48083746,-0.447479,-9.522852,0.22263637,0.032193594,-0.28677395,-0.5197475,-0.6693954,0
0.49000000000000027,16.461258697977467,-4.170678564474892,3.3438562637507268,2.864355583759633,14.11833,-3.5408816,3.81282,0.71620977,12.843471,-10.32733,2.304854,-0.7024707,-0.2776889,-0.4795906,-0.446561,-9.362403,0.22907828,0.00045876484,-0.8902557,0.0849036,-0.50449,0
0.5000000000000002,16.461258697977467,-4.170678564474892,3.3438562637507268,2.864355583759633,14.11833,-3.5408816,3.81282,0.71620977,12.75063,-10.325005,2.3046975,-0.7041675,-0.27184752,-0.4788214,-0.44830492,-9.206423,0.23598243,-0.03179971,-1.3983928,0.59649277,-0.34366876,0
0.5100000000000002,16.461258697977467,-4.170678564474892,3.3438562637507268,2.864355583759633,14.11833,-3.5408816,3.81282,0.71620977,12.659327,-10.322604,2.3042173,-0.7049731,-0.2636687,-0.47841543,-0.45233902,-9.054763,0.24450013,-0.064174086,-1.8282973,1.0272926,-0.18707538,0
0.5200000000000002,18.63472494937014,-5.999997786119337,5.7697772002321335,3.5219525220320786,13.562557,-3.8064027,5.1443696,0.5048417,12.56953,-10.3201065,2.3034186,-0.70493305,-0.25353497,-0.4782464,-0.45833388,-8.904836,0.25571588,-0.09525014,-2.19368,1.3883917,-0.03734078,0
0.5300000000000002,18.63472494937014,-5.999997786119337,5.7697772002321335,3.5219525220320786,13.562557,-3.8064027,5.1443696,0.5048417,12.481333,-10.317468,2.3023677,-0.7037833,-0.24082017,-0.4784749,-0.46664402,-8.735049,0.27266943,-0.1147383,-2.803083,2.0557702,0.13589972,0
0.5400000000000003,18.63472494937014,-5.999997786119337,5.7697772002321335,3.5219525220320786,13.562557,-3.8064027,5.1443696,0.5048417,12.394816,-10.314634,2.3011296,-0.70119447,-0.22504584,-0.47926486,-0.47747883,-8.568399,0.29502472,-0.13251519,-3.3020384,2.6345034,0.3020482,0
0.5500000000000003,18.63472494937014,-5.999997786119337,5.7697772002321335,3.5219525220320786,13.562557,-3.8064027,5.1443696,0.5048417,12.309957,-10.311543,2.2997258,-0.6971456,-0.2066796,-0.48042887,-0.490367,-8.404065,0.32427627,-0.14780004,-3.7231987,3.122984,0.46004987,0
0.5600000000000003,18.611073304286837,-5.999999570084491,5.999998909120763,3.7759773830681023,14.470516,-4.950174,5.982938,1.443354,12.226727,-10.308122,2.298182,-0.691626,-0.18610924,-0.48176458,-0.5048959,-8.242682,0.3615302,-0.160542,-4.0787315,3.535246,0.61029834,0
0.5700000000000003,18.611073304286837,-5.999999570084491,5.999998909120763,3.7759773830681023,14.470516,-4.950174,5.982938,1.443354,12.14509,-10.304283,2.2965229,-0.6845576,-0.16363524,-0.48315248,-0.5207383,-8.085182,0.40760255,-0.17089306,-4.3788996,3.9190621,0.76563907,0
0.5800000000000003,18.611073304286837,-5.999999570084491,5.999998909120763,3.7759773830681023,14.470516,-4.950174,5.982938,1.443354,12.065007,-10.299936,2.2947721,-0.6758684,-0.13952035,-0.48448282,-0.5375989,-7.9321704,0.46323088,-0.1788816,-4.632278,4.243012,0.91335726,0
0.5900000000000003,18.611073304286837,-5.999999570084491,5.999998909120763,3.7759773830681023,14.470516,-4.950174,5.982938,1.443354,11.986428,-10.294983,2.2929528,-0.66555375,-0.11402631,-0.48560634,-0.5551783,-7.784522,0.52890414,-0.1847147,-4.846148,4.5164433,1.0538268,0
0.6000000000000003,20.220895198582234,-5.999999350227144,5.999975259867961,3.822771819136391,16.150625,-5.624363,5.8275757,2.0000012,11.909294,-10.289322,2.2910845,-0.6536133,-0.087384716,-0.48639756,-0.5732112,-7.643165,0.6049071,-0.18865259,-5.026661,4.7472425,1.1874034,0
0.6100000000000003,20.220895198582234,-5.999999350227144,5.999975259867961,3.822771819136391,16.150625,-5.624363,5.8275757,2.0000012,11.833598,-10.282812,2.2892265,-0.64005005,-0.059804954,-0.48675206,-0.5914659,-7.4974527,0.69880825,-0.18271744,-5.179019,4.9420524,1.3167217,0
0.6200000000000003,20.220895198582234,-5.999999350227144,5.999975259867961,3.822771819136391,16.150625,-5.624363,5.8275757,2.0000012,11.7593155,-10.275307,2.2874348,-0.6248734,-0.031475168,-0.48658422,-0.60973644,-7.3606615,0.8039379,-0.17542416,-5.3076,5.106499,1.4396943,0
0.6300000000000003,20.220895198582234,-5.999999350227144,5.999975259867961,3.822771819136391,16.150625,-5.624363,5.8275757,2.0000012,11.686351,-10.266696,2.2857213,-0.6081034,-0.0025627036,-0.48582542,-0.62783563,-7.233831,0.9200166,-0.16717316,-5.416109,5.245322,1.5566326,0
0.6400000000000003,20.220895198582234,-5.999999350227144,5.999975259867961,3.822771819136391,16.927631,-6.31563,5.745078,2.429102,11.6146,-10.256871,2.2840931,-0.5897666,0.026780427,-0.48442116,-0.64559615,-7.1179705,1.0465932,-0.15838702,-5.5076737,5.362519,1.6678327,0
0.6500000000000004,20.220895198582234,-5.999999350227144,5.999975259867961,3.822771819136391,16.927631,-6.31563,5.745078,2.429102,11.54395,-10.245731,2.282554,-0.56989634,0.056415472,-0.48232895,-0.66286826,-7.0140424,1.1830581,-0.14950277,-5.5849357,5.461461,1.7735763,0
0.6600000000000004,20.220895198582234,-5.999999350227144,5.999975259867961,3.822771819136391,16.927631,-6.31563,5.745078,2.429102,11.474276,-10.23318,2.2811022,-0.54853165,0.08621521,-0.47951666,-0.6795173,-6.9229465,1.3286561,-0.14096482,-5.6501245,5.5449963,1.8741308,0
0.6700000000000004,20.220895198582234,-5.999999350227144,5.999975259867961,3.822771819136391,16.927631,-6.31563,5.745078,2.429102,11.405444,-10.2191305,2.279732,-0.525717,0.11606254,-0.47596094,-0.6954224,-6.845507,1.4825,-0.13321833,-5.705124,5.6155276,1.9697512,0
0.6800000000000004,19.32906907254782,-5.911632241246232,3.701593953550728,1.5594319645749604,17.587116,-6.643224,5.6438355,2.7166378,11.337315,-10.2035055,2.2784333,-0.501502,0.14584921,-0.4716459,-0.7104745,-6.782457,1.6435843,-0.1267031,-5.751522,5.6750817,2.0606794,0
0.6900000000000004,19.32906907254782,-5.911632241246232,3.701593953550728,1.5594319645749604,17.587116,-6.643224,5.6438355,2.7166378,11.2697315,-10.1862755,2.2771697,-0.4765882,0.17493407,-0.46610135,-0.7245767,-6.736507,1.8033822,-0.1263357,-5.7759924,5.3673773,2.036083,0
0.7000000000000004,19.32906907254782,-5.911632241246232,3.701593953550728,1.5594319645749604,17.587116,-6.643224,5.6438355,2.7166378,11.202535,-10.167423,2.2759013,-0.45161033,0.202814,-0.45900545,-0.7377186,-6.7050977,1.9676012,-0.12753901,-5.796723,5.1076603,2.0126936,0
0.7100000000000004,19.32906907254782,-5.911632241246232,3.701593953550728,1.5594319645749604,17.587116,-6.643224,5.6438355,2.7166378,11.135579,-10.146914,2.2746136,-0.42652538,0.22958566,-0.45054382,-0.74991786,-6.6882687,2.1348252,-0.13026108,-5.814285,4.888447,1.9904519,0
0.7200000000000004,17.22456240615686,-4.170756723989207,1.7173482315806197,0.8675207682254191,17.908499,-6.1061325,4.1329513,1.5203749,11.06872,-10.124721,2.2732909,-0.40129966,0.25533122,-0.44087103,-0.76118153,-6.6859746,2.30372,-0.13447843,-5.829161,4.7034187,1.9693016,0
0.7300000000000004,17.22456240615686,-4.170756723989207,1.7173482315806197,0.8675207682254191,17.908499,-6.1061325,4.1329513,1.5203749,11.001816,-10.100929,2.2718682,-0.37651443,0.27928346,-0.43032703,-0.77139896,-6.6966953,2.4545844,-0.15023066,-5.5697865,4.2382717,1.9152368,0
0.7400000000000004,17.22456240615686,-4.170756723989207,1.7173482315806197,0.8675207682254191,17.908499,-6.1061325,4.1329513,1.5203749,10.934744,-10.075632,2.270282,-0.35268837,0.3008816,-0.41925374,-0.78058153,-6.7194963,2.6047506,-0.16716486,-5.3509893,3.8455873,1.863825,0
0.7500000000000004,17.22456240615686,-4.170756723989207,1.7173482315806197,0.8675207682254191,17.908499,-6.1061325,4.1329513,1.5203749,10.867387,-10.0488405,2.2685215,-0.32970282,0.32046685,-0.40775892,-0.78887874,-6.753576,2.7533216,-0.18511422,-5.1664176,3.5140781,1.814936,0
0.7600000000000005,15.358544556357826,-2.042655185043148,-0.31583048913786144,0.22911617736436685,18.676674,-5.0186615,2.317218,1.0176128,10.799637,-10.020575,2.2665772,-0.30744898,0.33832693,-0.39592075,-0.79640234,-6.7981963,2.8995483,-0.20392644,-5.0107155,3.234215,1.768446,0
0.7700000000000005,15.358544556357826,-2.042655185043148,-0.31583048913786144,0.22911617736436685,18.676674,-5.0186615,2.317218,1.0176128,10.731412,-9.990917,2.2644093,-0.28640464,0.35397485,-0.38415167,-0.80318224,-6.8480244,3.0307896,-0.23004678,-4.590229,2.724385,1.6968015,0
0.7800000000000005,15.358544556357826,-2.042655185043148,-0.31583048913786144,0.22911617736436685,18.676674,-5.0186615,2.317218,1.0176128,10.662656,-9.95998,2.2619686,-0.26708946,0.36692435,-0.37289038,-0.8093099,-6.9044566,3.1559222,-0.25828698,-4.1967783,2.2553637,1.6251972,0
0.7900000000000005,15.358544556357826,-2.042655185043148,-0.31583048913786144,0.22911617736436685,18.676674,-5.0186615,2.317218,1.0176128,10.593302,-9.927811,2.2592425,-0.24937059,0.37752002,-0.36215985,-0.8149437,-6.96745,3.2775207,-0.28688678,-3.860336,1.8549165,1.556691,0
0.8000000000000005,14.328956975331494,-0.043201268297252106,-1.9954438262858893,-0.3290411341837926,15.611741,-3.236597,0.40418538,-0.18490921,10.523287,-9.894441,2.2562308,-0.23304477,0.38615236,-0.35191438,-0.8202029,-7.0362706,3.3958716,-0.31540114,-3.5764618,1.5168298,1.4915466,0
0.8100000000000005,14.328956975331494,-0.043201268297252106,-1.9954438262858893,-0.3290411341837926,15.611741,-3.236597,0.40418538,-0.18490921,10.452552,-9.859893,2.252942,-0.2182472,0.3928003,-0.3423832,-0.8251363,-7.111212,3.5126734,-0.34258047,-3.155364,1.1000376,1.4138997,0
0.8200000000000005,14.328956975331494,-0.043201268297252106,-1.9954438262858893,-0.3290411341837926,15.611741,-3.236597,0.40418538,-0.18490921,10.381056,-9.824208,2.2493746,-0.20519514,0.39733183,-0.33383164,-0.8298065,-7.1883216,3.6233437,-0.37108904,-2.7575958,0.70577854,1.336271,0
0.8300000000000005,14.328956975331494,-0.043201268297252106,-1.9954438262858893,-0.3290411341837926,15.611741,-3.236597,0.40418538,-0.18490921,10.308782,-9.787446,2.2455168,-0.19382274,0.39990455,-0.3262539,-0.8343066,-7.2666492,3.7283912,-0.40065327,-2.3812537,0.33228326,1.2588158,0
0.8400000000000005,14.328956975331494,-0.043201268297252106,-1.9954438262858893,-0.3290411341837926,14.181831,-2.1513407,-0.8983025,-0.74339736,10.235722,-9.749659,2.241359,-0.18406196,0.4006572,-0.3196357,-0.8387062,-7.345453,3.8284204,-0.43096307,-2.0260885,-0.020588227,1.1817962,0
0.8500000000000005,14.328956975331494,-0.043201268297252106,-1.9954438262858893,-0.3290411341837926,14.181831,-2.1513407,-0.8983025,-0.74339736,10.161868,-9.710887,2.2369,-0.17579451,0.39977357,-0.31391695,-0.8430501,-7.4254355,3.925618,-0.46060407,-1.7166365,-0.3282441,1.107659,0
0.8600000000000005,14.328956975331494,-0.043201268297252106,-1.9954438262858893,-0.3290411341837926,14.181831,-2.1513407,-0.8983025,-0.74339736,10.087209,-9.671153,2.2321513,-0.16882627,0.39751664,-0.30897018,-0.84735805,-7.5065475,4.0209365,-0.4889425,-1.4555042,-0.58798724,1.0371597,0
0.8700000000000006,14.328956975331494,-0.043201268297252106,-1.9954438262858893,-0.3290411341837926,14.181831,-2.1513407,-0.8983025,-0.74339736,10.011735,-9.630473,2.2271264,-0.16298106,0.39411506,-0.3046747,-0.851636,-7.588302,4.114621,-0.5158319,-1.235143,-0.80727595,0.9701197,0
0.8800000000000006,14.565908619480101,1.5175340082931266,-3.075207079845334,-0.863629109462701,13.3827305,-0.89560753,-1.7471149,-1.2498225,9.935442,-9.588864,2.2218401,-0.15810846,0.38975778,-0.30092493,-0.85588247,-7.670288,4.206888,-0.5411539,-1.0491842,-0.9924086,0.9063695,0
0.8900000000000006,14.565908619480101,1.5175340082931266,-3.075207079845334,-0.863629109462701,13.3827305,-0.89560753,-1.7471149,-1.2498225,9.858314,-9.546321,2.2163236,-0.15444238,0.3842393,-0.29801354,-0.86005557,-7.7550282,4.301177,-0.56217784,-0.6765077,-1.2892542,0.82202303,0
0.9000000000000006,14.565908619480101,1.5175340082931266,-3.075207079845334,-0.863629109462701,13.3827305,-0.89560753,-1.7471149,-1.2498225,9.780349,-9.502849,2.210598,-0.15224667,0.37729618,-0.29624084,-0.8641237,-7.8376174,4.392936,-0.58275294,-0.33544296,-1.5664113,0.7394161,0
0.9100000000000006,14.565908619480101,1.5175340082931266,-3.075207079845334,-0.863629109462701,13.3827305,-0.89560753,-1.7471149,-1.2498225,9.701565,-9.458463,2.204675,-0.15136106,0.36909682,-0.29545775,-0.8680795,-7.9189215,4.4841022,-0.6015145,-0.04645069,-1.8015648,0.6607542,0
0.9200000000000006,15.011962398632837,2.5208030992729977,-3.769132483540568,-1.2505051987305777,13.02548,0.07975142,-1.7344875,-1.8068472,9.621976,-9.413167,2.198574,-0.15160497,0.35983652,-0.29549566,-0.8719036,-7.9985285,4.575059,-0.6183404,0.1974403,-2.0000927,0.5859523,0
0.9300000000000006,15.011962398632837,2.5208030992729977,-3.769132483540568,-1.2505051987305777,13.02548,0.07975142,-1.7344875,-1.8068472,9.541587,-9.366944,2.1923306,-0.15306924,0.34941766,-0.29647976,-0.8755437,-8.078759,4.669308,-0.63024247,0.5526495,-2.26878,0.49649248,0
0.9400000000000006,15.011962398632837,2.5208030992729977,-3.769132483540568,-1.2505051987305777,13.02548,0.07975142,-1.7344875,-1.8068472,9.460411,-9.319781,2.1859753,-0.15585256,0.3377166,-0.2985305,-0.8789407,-8.155874,4.763501,-0.64050215,0.8595183,-2.502707,0.41076678,0
0.9500000000000006,15.011962398632837,2.5208030992729977,-3.769132483540568,-1.2505051987305777,13.02548,0.07975142,-1.7344875,-1.8068472,9.37848,-9.271673,2.1795275,-0.15977359,0.32491428,-0.30145922,-0.8820573,-8.229725,4.8583817,-0.6487224,1.1185046,-2.7001948,0.32924768,0
0.9600000000000006,15.521336545391344,2.865669857562061,-3.9195121146020755,-1.506132227287946,13.174274,0.8955211,-1.0530876,-1.9443752,9.295829,-9.22261,2.173008,-0.1646719,0.31117016,-0.30509913,-0.8848562,-8.299843,4.9541736,-0.65494263,1.3370836,-2.8669152,0.25172877,0
0.9700000000000006,15.521336545391344,2.865669857562061,-3.9195121146020755,-1.506132227287946,13.174274,0.8955211,-1.0530876,-1.9443752,9.212485,-9.172568,2.1664515,-0.17049886,0.29655218,-0.30940998,-0.8872723,-8.36804,5.054326,-0.6560486,1.5753227,-3.031116,0.16547005,0
0.9800000000000006,15.521336545391344,2.865669857562061,-3.9195121146020755,-1.506132227287946,13.174274,0.8955211,-1.0530876,-1.9443752,9.128484,-9.121519,2.1598935,-0.17720814,0.281121,-0.3143491,-0.8892427,-8.431502,5.155733,-0.6552641,1.7763976,-3.1697338,0.083444044,0
0.9900000000000007,15.521336545391344,2.865669857562061,-3.9195121146020755,-1.506132227287946,13.174274,0.8955211,-1.0530876,-1.9443752,9.043873,-9.069449,2.1533525,-0.18467529,0.26499215,-0.31978148,-0.89073765,-8.489827,5.2584853,-0.65272194,1.9461086,-3.2867506,0.0054430775,0
1.0000000000000007,15.68146498463446,2.6124860003707315,-3.588446892759486,-1.6359869625506098,12.818758,0.7898008,-0.91101617,-2.2050781,8.958706,-9.016345,2.1468446,-0.19279312,0.24826504,-0.32559237,-0.8917312,-8.542653,5.3626165,-0.64857507,2.0893507,-3.3855293,-0.068730354,0
1.0100000000000007,15.68146498463446,2.6124860003707315,-3.588446892759486,-1.6359869625506098,12.818758,0.7898008,-0.91101617,-2.2050781,8.873037,-8.962187,2.140391,-0.20141567,0.2311693,-0.331617,-0.89220077,-8.59016,5.469192,-0.6419252,2.1707606,-3.4172864,-0.1456361,0
1.0200000000000007,15.68146498463446,2.6124860003707315,-3.588446892759486,-1.6359869625506098,12.818758,0.7898008,-0.91101617,-2.2050781,8.786924,-8.906957,2.1340106,-0.21042533,0.21389748,-0.33772355,-0.8921387,-8.631595,5.5770535,-0.6340214,2.2394807,-3.4440916,-0.21876803,0
1.0300000000000007,15.68146498463446,2.6124860003707315,-3.588446892759486,-1.6359869625506098,12.818758,0.7898008,-0.91101617,-2.2050781,8.700426,-8.850641,2.1277144,-0.21977347,0.19647922,-0.343867,-0.891544,-8.666794,5.6860824,-0.6250638,2.2974901,-3.4667158,-0.28831136,0
1.0400000000000007,15.68146498463446,2.6124860003707315,-3.588446892759486,-1.6359869625506098,12.414543,0.61604494,-0.24610463,-2.1505764,8.613608,-8.79323,2.121512,-0.22941677,0.17894086,-0.35000947,-0.89041626,-8.695621,5.7961354,-0.61525273,2.3464596,-3.4858098,-0.35444218,0
1.0500000000000007,15.68146498463446,2.6124860003707315,-3.588446892759486,-1.6359869625506098,12.414543,0.61604494,-0.24610463,-2.1505764,8.526535,-8.7347145,2.1154113,-0.23931636,0.16130605,-0.35611904,-0.8887558,-8.717958,5.9070506,-0.6047883,2.3877988,-3.5019236,-0.41732797,0
1.0600000000000007,15.68146498463446,2.6124860003707315,-3.588446892759486,-1.6359869625506098,12.414543,0.61604494,-0.24610463,-2.1505764,8.439271,-8.675086,2.1094174,-0.24943706,0.143596,-0.36216894,-0.8865633,-8.733708,6.0186486,-0.5938695,2.4226978,-3.5155206,-0.47712794,0
1.0700000000000007,15.68146498463446,2.6124860003707315,-3.588446892759486,-1.6359869625506098,12.414543,0.61604494,-0.24610463,-2.1505764,8.351882,-8.614339,2.1035345,-0.259747,0.12582986,-0.3681366,-0.8838401,-8.742792,6.130736,-0.5826938,2.452161,-3.5269933,-0.5339935,0
1.0800000000000007,15.107295021914746,1.886035813106472,-2.89456365546566,-1.6015899725843092,11.903146,-0.55833274,0.39113697,-2.213915,8.264437,-8.55247,2.0977638,-0.27021688,0.10802507,-0.37400302,-0.8805877,-8.745152,6.243106,-0.5714566,2.4770353,-3.5366728,-0.5880686,0
1.0900000000000007,15.107295021914746,1.886035813106472,-2.89456365546566,-1.6015899725843092,11.903146,-0.55833274,0.39113697,-2.213915,8.177001,-8.489499,2.092085,-0.28068343,0.090520315,-0.37957516,-0.8768951,-8.740937,6.3514223,-0.56434464,2.384796,-3.4365785,-0.63780236,0
1.1000000000000008,15.107295021914746,1.886035813106472,-2.89456365546566,-1.6015899725843092,11.903146,-0.55833274,0.39113697,-2.213915,8.089641,-8.425445,2.086476,-0.2910236,0.07358968,-0.38471234,-0.8728606,-8.730385,6.4595675,-0.55750036,2.3069463,-3.3520906,-0.68509567,0
1.1100000000000008,15.107295021914746,1.886035813106472,-2.89456365546566,-1.6015899725843092,11.903146,-0.55833274,0.39113697,-2.213915,8.002415,-8.36031,2.0809338,-0.30126518,0.0571597,-0.38946894,-0.86849606,-8.713689,6.5673175,-0.55104744,2.241241,-3.280776,-0.7300683,0
1.1200000000000008,14.3766259687942,0.7616066835828815,-2.125821168130731,-1.4404762068333485,11.830618,-1.008032,0.8940545,-1.9814755,7.9153867,-8.2941,2.0754535,-0.31142908,0.041167606,-0.3938902,-0.86380965,-8.691024,6.6744647,-0.54509914,2.1857858,-3.2205813,-0.7728342,0
1.1300000000000008,14.3766259687942,0.7616066835828815,-2.125821168130731,-1.4404762068333485,11.830618,-1.008032,0.8940545,-1.9814755,7.8286076,-8.226849,2.0700047,-0.32137778,0.02595931,-0.39772588,-0.8589854,-8.6639595,6.775666,-0.5447502,1.9637063,-3.0497844,-0.8055956,0
1.1400000000000008,14.3766259687942,0.7616066835828815,-2.125821168130731,-1.4404762068333485,11.830618,-1.008032,0.8940545,-1.9814755,7.742125,-8.158589,2.0645566,-0.33101323,0.011808344,-0.4007944,-0.8541979,-8.631751,6.8759103,-0.5449702,1.7762558,-2.905631,-0.8367493,0
1.1500000000000008,14.3766259687942,0.7616066835828815,-2.125821168130731,-1.4404762068333485,11.830618,-1.008032,0.8940545,-1.9814755,7.6559887,-8.089334,2.0591035,-0.34040028,-0.0014338433,-0.40322024,-0.8494342,-8.594766,6.9750266,-0.54572994,1.6180342,-2.7839653,-0.8663744,0
1.1600000000000008,13.876839579930913,-0.5769410004212304,-1.1143773858025776,-1.1218513765139013,12.133194,-1.9010828,0.70046955,-1.5614122,7.5702453,-8.0190935,2.0536401,-0.34959042,-0.013894487,-0.405106,-0.8446787,-8.553325,7.0728726,-0.5470002,1.4844832,-2.6812804,-0.89454573,0
1.1700000000000008,13.876839579930913,-0.5769410004212304,-1.1143773858025776,-1.1218513765139013,12.133194,-1.9010828,0.70046955,-1.5614122,7.484929,-7.947898,2.048145,-0.3584385,-0.025168194,-0.40622944,-0.84015805,-8.509325,7.1659737,-0.55208653,1.1631298,-2.4367442,-0.9056997,0
1.1800000000000008,13.876839579930913,-0.5769410004212304,-1.1143773858025776,-1.1218513765139013,12.133194,-1.9010828,0.70046955,-1.5614122,7.4000707,-7.8757787,2.0425975,-0.36683902,-0.034940194,-0.40643206,-0.8360746,-8.461805,7.2576466,-0.5574844,0.8918729,-2.2303681,-0.9163063,0
1.1900000000000008,13.876839579930913,-0.5769410004212304,-1.1143773858025776,-1.1218513765139013,12.133194,-1.9010828,0.70046955,-1.5614122,7.3157034,-7.8027506,2.036995,-0.3748793,-0.04343427,-0.4058735,-0.83237314,-8.411247,7.3478355,-0.56303334,0.66290236,-2.056198,-0.9263925,0
1.2000000000000008,13.799186423277561,-1.875581284100277,-0.0890356898819303,-0.667164868651611,12.550516,-2.5720797,1.184393,-0.8140055,7.231855,-7.728828,2.0313368,-0.3826288,-0.050840892,-0.40468407,-0.8289997,-8.358055,7.4365053,-0.5685901,0.46962607,-1.9092079,-0.9359837,0
1.2100000000000009,13.799186423277561,-1.875581284100277,-0.0890356898819303,-0.667164868651611,12.550516,-2.5720797,1.184393,-0.8140055,7.148548,-7.654028,2.025621,-0.38995916,-0.056804918,-0.4026966,-0.8261597,-8.302919,7.523153,-0.57452977,0.10407931,-1.6251292,-0.92279273,0
1.2200000000000009,13.799186423277561,-1.875581284100277,-0.0890356898819303,-0.667164868651611,12.550516,-2.5720797,1.184393,-0.8140055,7.065802,-7.5783696,2.0198472,-0.3967707,-0.06105489,-0.3997895,-0.8240224,-8.246075,7.6083016,-0.58011097,-0.20449221,-1.3853924,-0.910249,0
1.2300000000000009,13.799186423277561,-1.875581284100277,-0.0890356898819303,-0.667164868651611,12.550516,-2.5720797,1.184393,-0.8140055,6.9836307,-7.501867,2.0140207,-0.40314937,-0.06385342,-0.39611802,-0.8224859,-8.188039,7.6919975,-0.58510715,-0.4649686,-1.1830755,-0.8983208,0
1.2400000000000009,13.799186423277561,-1.875581284100277,-0.0890356898819303,-0.667164868651611,13.62595,-3.3652418,1.3690761,-0.32178852,6.9020433,-7.4245343,2.008148,-0.4091632,-0.06542286,-0.39180803,-0.8214567,-8.1292515,7.7742906,-0.5893267,-0.6848454,-1.012337,-0.88697785,0
1.2500000000000009,13.799186423277561,-1.875581284100277,-0.0890356898819303,-0.667164868651611,13.62595,-3.3652418,1.3690761,-0.32178852,6.821047,-7.3463855,2.0022376,-0.41486648,-0.06595143,-0.38696223,-0.8208506,-8.070088,7.855228,-0.5926099,-0.8704505,-0.86824757,-0.87619156,0
1.260000000000001,13.799186423277561,-1.875581284100277,-0.0890356898819303,-0.667164868651611,13.62595,-3.3652418,1.3690761,-0.32178852,6.740642,-7.2674336,1.9962995,-0.4203026,-0.065598495,-0.3816648,-0.82059354,-8.010866,7.9348545,-0.5948259,-1.0271257,-0.74664736,-0.86593455,0
1.270000000000001,13.799186423277561,-1.875581284100277,-0.0890356898819303,-0.667164868651611,13.62595,-3.3652418,1.3690761,-0.32178852,6.660829,-7.1876926,1.9903451,-0.42550656,-0.06449902,-0.37598512,-0.8206208,-7.951858,8.01321,-0.5958697,-1.1593801,-0.644026,-0.8561809,0
1.280000000000001,14.265408935566894,-2.8530517470223704,0.8161905549932436,-0.08027004182593368,13.85705,-3.7112439,1.9409596,0.0015438991,6.581604,-7.107174,1.9843864,-0.43050662,-0.062767304,-0.36998042,-0.8208764,-7.8933005,8.09033,-0.5956587,-1.2710197,-0.55742097,-0.84690577,0
1.290000000000001,14.265408935566894,-2.8530517470223704,0.8161905549932436,-0.08027004182593368,13.85705,-3.7112439,1.9409596,0.0015438991,6.5029707,-7.0258775,1.9784533,-0.43515676,-0.06006034,-0.36352903,-0.8215092,-7.833471,8.168816,-0.5907525,-1.5176098,-0.34310794,-0.8092867,0
1.300000000000001,14.265408935566894,-2.8530517470223704,0.8161905549932436,-0.08027004182593368,13.85705,-3.7112439,1.9409596,0.0015438991,6.4249306,-6.943802,1.9725765,-0.43933228,-0.056112226,-0.3565355,-0.82263005,-7.7747364,8.246144,-0.5843523,-1.7257719,-0.16224627,-0.7735136,0
1.310000000000001,14.265408935566894,-2.8530517470223704,0.8161905549932436,-0.08027004182593368,13.85705,-3.7112439,1.9409596,0.0015438991,6.3474708,-6.860958,1.9667716,-0.44308174,-0.051116407,-0.3490777,-0.82414174,-7.717493,8.3224,-0.5763494,-1.9014934,-0.00961303,-0.73949593,0
1.320000000000001,14.450631128760577,-3.5678013395751993,1.2064139179473994,0.5049912187038825,14.266599,-3.9951665,2.1982937,0.37846103,6.2705746,-6.777357,1.9610552,-0.44644457,-0.045236588,-0.34121996,-0.82595944,-7.6620812,8.397651,-0.56666934,-2.0498288,0.119198985,-0.7071475,1
1.330000000000001,14.450631128760577,-3.5678013395751993,1.2064139179473994,0.5049912187038825,14.266599,-3.9951665,2.1982937,0.37846103,6.1942215,-6.693008,1.9554442,-0.449237,-0.03796874,-0.33288196,-0.8282109,-7.608838,8.471971,-0.5552496,-2.3530686,0.44349122,-0.65387636,1
1.340000000000001,14.450631128760577,-3.5678013395751993,1.2064139179473994,0.5049912187038825,14.266599,-3.9951665,2.1982937,0.37846103,6.118388,-6.60792,1.9499563,-0.45130125,-0.028919801,-0.3239975,-0.8309727,-7.5583034,8.545495,-0.5420263,-2.6090593,0.7171748,-0.6032193,1
1.350000000000001,14.450631128760577,-3.5678013395751993,1.2064139179473994,0.5049912187038825,14.266599,-3.9951665,2.1982937,0.37846103,6.0430446,-6.5221004,1.94461,-0.4526997,-0.018368132,-0.31463322,-0.8341048,-7.5110254,8.618364,-0.5269573,-2.8251605,0.94815105,-0.5550479,1
1.360000000000001,14.660823048706174,-3.9449799967676826,1.2742555285264894,1.0047035972906602,14.330929,-4.7054734,2.4142723,1.038762,5.968155,-6.4355545,1.9394234,-0.45348227,-0.006550245,-0.3048443,-0.8374844,-7.467482,8.690678,-0.5100491,-3.0075855,1.1430866,-0.5092404,0
1.370000000000001,14.660823048706174,-3.9449799967676826,1.2742555285264894,1.0047035972906602,14.330929,-4.7054734,2.4142723,1.038762,5.8936863,-6.348278,1.9344312,-0.4537372,0.005989897,-0.29452622,-0.8410352,-7.426985,8.764465,-0.4881182,-3.1538212,1.1634384,-0.43495074,0
1.380000000000001,14.660823048706174,-3.9449799967676826,1.2742555285264894,1.0047035972906602,14.330929,-4.7054734,2.4142723,1.038762,5.8196,-6.2602673,1.9296672,-0.45352584,0.01880544,-0.28360263,-0.84470665,-7.391006,8.8376465,-0.46439064,-3.2772515,1.1806046,-0.36430648,0
1.390000000000001,14.660823048706174,-3.9449799967676826,1.2742555285264894,1.0047035972906602,14.330929,-4.7054734,2.4142723,1.038762,5.74585,-6.171528,1.9251492,-0.45285165,0.031841613,-0.27215487,-0.8484352,-7.359751,8.910095,-0.43893483,-3.3814323,1.1950864,-0.29712874,0
1.400000000000001,14.630198045562786,-3.8865202234353378,0.7966092780621142,1.3383949563615136,14.993976,-4.8907714,1.2301034,1.5939192,5.672388,-6.082068,1.9208939,-0.4517198,0.045051772,-0.2602531,-0.8521661,-7.3333993,8.981688,-0.4118473,-3.469365,1.2073054,-0.23324747,0
1.410000000000001,14.630198045562786,-3.8865202234353378,0.7966092780621142,1.3383949563615136,14.993976,-4.8907714,1.2301034,1.5939192,5.5991645,-5.9918985,1.916916,-0.4501523,0.058211908,-0.24789394,-0.8558751,-7.312139,9.052138,-0.38350916,-3.5344875,1.1430899,-0.15612651,0
1.420000000000001,14.630198045562786,-3.8865202234353378,0.7966092780621142,1.3383949563615136,14.993976,-4.8907714,1.2301034,1.5939192,5.526128,-5.90103,1.9132286,-0.44816342,0.07114073,-0.23508175,-0.859549,-7.2959895,9.121416,-0.3537743,-3.5894444,1.0888907,-0.08278992,0
1.430000000000001,14.630198045562786,-3.8865202234353378,0.7966092780621142,1.3383949563615136,14.993976,-4.8907714,1.2301034,1.5939192,5.453227,-5.8094754,1.909845,-0.44575027,0.08385945,-0.22188327,-0.86315787,-7.2849927,9.18933,-0.3227671,-3.635823,1.0431466,-0.013051959,0
1.440000000000001,14.630198045562786,-3.8865202234353378,0.7966092780621142,1.3383949563615136,15.5046015,-4.557246,0.59480745,1.5989212,5.3804107,-5.7172494,1.9067771,-0.44291314,0.096386194,-0.20835604,-0.86667454,-7.279181,9.255703,-0.2906257,-3.674963,1.0045409,0.053263925,1
1.450000000000001,14.630198045562786,-3.8865202234353378,0.7966092780621142,1.3383949563615136,15.5046015,-4.557246,0.59480745,1.5989212,5.3076262,-5.6243486,1.904075,-0.43961504,0.108778,-0.19428363,-0.8701489,-7.2785516,9.324216,-0.24965009,-3.8125992,0.9404503,0.12910977,1
1.460000000000001,14.630198045562786,-3.8865202234353378,0.7966092780621142,1.3383949563615136,15.5046015,-4.557246,0.59480745,1.5989212,5.2348204,-5.530772,1.9017873,-0.4358143,0.121077776,-0.17949612,-0.8736055,-7.28354,9.39064,-0.20775265,-3.9287636,0.8863532,0.20123383,1
1.470000000000001,14.630198045562786,-3.8865202234353378,0.7966092780621142,1.3383949563615136,15.5046015,-4.557246,0.59480745,1.5989212,5.1619368,-5.436544,1.8999226,-0.43150955,0.13328071,-0.1641031,-0.8769865,-7.2942324,9.4547,-0.16507581,-4.026807,0.8406941,0.26981872,1
1.480000000000001,14.333569378873364,-3.56008655389629,0.11009636901402484,1.5060654792795598,15.055357,-4.142069,-0.04531589,1.2549111,5.088917,-5.3416877,1.8984878,-0.42670292,0.1453826,-0.14819892,-0.88024145,-7.310687,9.51614,-0.12178841,-4.109556,0.80215913,0.33503816,1
1.490000000000001,14.333569378873364,-3.56008655389629,0.11009636901402484,1.5060654792795598,15.055357,-4.142069,-0.04531589,1.2549111,5.015706,-5.2462397,1.8974676,-0.42149952,0.15708989,-0.1318967,-0.88332534,-7.332273,9.573017,-0.08218454,-4.1146183,0.6698737,0.38017657,1
1.500000000000001,14.333569378873364,-3.56008655389629,0.11009636901402484,1.5060654792795598,15.055357,-4.142069,-0.04531589,1.2549111,4.942252,-5.150238,1.8968449,-0.41599387,0.16817172,-0.11529414,-0.88621336,-7.3593493,9.62686,-0.042330656,-4.118888,0.5582239,0.42310002,1
1.5100000000000011,14.333569378873364,-3.56008655389629,0.11009636901402484,1.5060654792795598,15.055357,-4.142069,-0.04531589,1.2549111,4.8685007,-5.0537143,1.8966212,-0.41017735,0.17870909,-0.09844534,-0.88889015,-7.39176,9.677428,-0.0023882603,-4.1224895,0.46399155,0.46391723,1
1.5200000000000011,13.547447841206992,-2.908672186616916,-0.8698492603779161,1.5152113811086076,14.562714,-3.6514244,-0.47321716,1.2264215,4.7943997,-4.956702,1.896797,-0.4040451,0.18877058,-0.08139662,-0.8913402,-7.4293528,9.724509,0.03747322,-4.125529,0.38446,0.5027315,0
1.5300000000000011,13.547447841206992,-2.908672186616916,-0.8698492603779161,1.5152113811086076,14.562714,-3.6514244,-0.47321716,1.2264215,4.7199183,-4.8592596,1.8973011,-0.3976894,0.19792023,-0.064502314,-0.89359367,-7.467674,9.763573,0.06329443,-3.9357033,0.18878557,0.5524141,0
1.5400000000000011,13.547447841206992,-2.908672186616916,-0.8698492603779161,1.5152113811086076,14.562714,-3.6514244,-0.47321716,1.2264215,4.6450324,-4.761443,1.8980619,-0.39119053,0.20582421,-0.048052326,-0.89571023,-7.510131,9.799223,0.088797055,-3.77548,0.02363307,0.59965885,0
1.5500000000000012,13.547447841206992,-2.908672186616916,-0.8698492603779161,1.5152113811086076,14.562714,-3.6514244,-0.47321716,1.2264215,4.5697026,-4.663287,1.8990756,-0.38453045,0.21267301,-0.03199484,-0.8977095,-7.556342,9.831379,0.11391181,-3.6402445,-0.115759134,0.64458525,0
1.5600000000000012,13.171249393574051,-2.008500723668875,-1.6473327528949766,1.3689141705939893,16.244171,-3.0183291,-3.0812876,1.8051046,4.493893,-4.5648274,1.9003384,-0.37769493,0.21862711,-0.016284611,-0.8996016,-7.6059704,9.859975,0.13857482,-3.5261004,-0.23340952,0.6873071,0
1.5700000000000012,13.171249393574051,-2.008500723668875,-1.6473327528949766,1.3689141705939893,16.244171,-3.0183291,-3.0812876,1.8051046,4.417579,-4.466104,1.9018284,-0.37077385,0.22340755,-0.0010860725,-0.9014511,-7.6572304,9.884263,0.15934065,-3.2893233,-0.45387614,0.7207538,0
1.5800000000000012,13.171249393574051,-2.008500723668875,-1.6473327528949766,1.3689141705939893,16.244171,-3.0183291,-3.0812876,1.8051046,4.3407397,-4.367155,1.9035236,-0.36384302,0.22680505,0.0134709375,-0.9033248,-7.711076,9.905013,0.17963341,-3.0894794,-0.63996553,0.7525592,0
1.5900000000000012,13.171249393574051,-2.008500723668875,-1.6473327528949766,1.3689141705939893,16.244171,-3.0183291,-3.0812876,1.8051046,4.2633505,-4.268016,1.9054195,-0.35687336,0.22903702,0.0274706,-0.9052227,-7.7670913,9.9222145,0.19948804,-2.9208086,-0.79703915,0.7828039,0
1.6000000000000012,13.00428982531958,-1.119089081469308,-2.1271278673852527,1.110104019019976,15.826491,-2.3011923,-3.5479515,1.7124637,4.185392,-4.1687226,1.9075118,-0.34984082,0.23028593,0.04098554,-0.90713793,-7.8249164,9.935863,0.21893333,-2.7784495,-0.9296219,0.8115645,0
1.6100000000000012,13.00428982531958,-1.119089081469308,-2.1271278673852527,1.110104019019976,15.826491,-2.3011923,-3.5479515,1.7124637,4.1068516,-4.0693116,1.9097893,-0.3428294,0.23040622,0.053829234,-0.9091109,-7.883468,9.94584,0.23651479,-2.5195642,-1.1162598,0.82621396,0
1.6200000000000012,13.00428982531958,-1.119089081469308,-2.1271278673852527,1.110104019019976,15.826491,-2.3011923,-3.5479515,1.7124637,4.0277195,-3.9698179,1.9122411,-0.3359103,0.22929358,0.065857366,-0.91118103,-7.943081,9.952378,0.25379992,-2.3010645,-1.2738076,0.8401445,0
1.6300000000000012,13.00428982531958,-1.119089081469308,-2.1271278673852527,1.110104019019976,15.826491,-2.3011923,-3.5479515,1.7124637,3.9479876,-3.8702755,1.9148647,-0.32904804,0.2271435,0.07718526,-0.91333175,-8.003375,9.955553,0.27087298,-2.116651,-1.4068,0.8533915,0
1.6400000000000012,13.00428982531958,-1.119089081469308,-2.1271278673852527,1.110104019019976,15.868531,-1.7854553,-3.8556523,1.5945328,3.8676505,-3.770718,1.9176581,-0.32221323,0.22411951,0.08791135,-0.9155435,-8.064024,9.955432,0.28780368,-1.9610069,-1.5190644,0.8659885,0
1.6500000000000012,13.00428982531958,-1.119089081469308,-2.1271278673852527,1.110104019019976,15.868531,-1.7854553,-3.8556523,1.5945328,3.7867067,-3.671178,1.9206204,-0.31538177,0.22035863,0.098119594,-0.9177953,-8.124745,9.952077,0.3046472,-1.8296443,-1.6138319,0.87796736,0
1.6600000000000013,13.00428982531958,-1.119089081469308,-2.1271278673852527,1.110104019019976,15.868531,-1.7854553,-3.8556523,1.5945328,3.705156,-3.5716875,1.9237509,-0.30853415,0.21597566,0.10788153,-0.9200663,-8.185295,9.945548,0.32144517,-1.7187753,-1.6938297,0.8893584,0
1.6700000000000013,13.00428982531958,-1.119089081469308,-2.1271278673852527,1.110104019019976,15.868531,-1.7854553,-3.8556523,1.5945328,3.623002,-3.4722776,1.9270492,-0.30165493,0.21106696,0.11725808,-0.9223366,-8.245459,9.935903,0.3382265,-1.6252031,-1.7613597,0.9001905,0
1.6800000000000013,12.912604352824944,-0.43874021681298614,-2.3031161303929113,0.8277602965671242,16.458725,-1.6938838,-4.14643,1.6248044,3.540249,-3.3729799,1.9305153,-0.29473215,0.20571344,0.12630108,-0.92458755,-8.305048,9.923192,0.355009,-1.5462295,-1.8183651,0.910491,0
1.6900000000000013,12.912604352824944,-0.43874021681298614,-2.3031161303929113,0.8277602965671242,16.458725,-1.6938838,-4.14643,1.6248044,3.4569058,-3.273824,1.9341453,-0.28783557,0.19983418,0.13483049,-0.9268424,-8.36347,9.907587,0.37099725,-1.3734776,-1.8938557,0.9064314,0
1.7000000000000013,12.912604352824944,-0.43874021681298614,-2.3031161303929113,0.8277602965671242,16.458725,-1.6938838,-4.14643,1.6248044,3.372983,-3.1748383,1.9379355,-0.28102413,0.19337004,0.14270625,-0.92912185,-8.420928,9.889112,0.38704652,-1.227673,-1.9575905,0.902571,0
1.7100000000000013,12.912604352824944,-0.43874021681298614,-2.3031161303929113,0.8277602965671242,16.458725,-1.6938838,-4.14643,1.6248044,3.2884912,-3.0760512,1.9418865,-0.27427495,0.18641245,0.15002304,-0.93140525,-8.477214,9.867893,0.40320277,-1.1046127,-2.0114,0.89890003,0
1.7200000000000013,12.492897721692675,0.10223734614577495,-2.379344538107264,0.5069170617982244,15.771292,-1.1642634,-4.122883,1.185125,3.203443,-2.9774895,1.946,-0.2675693,0.17903796,0.15686116,-0.9336732,-8.532145,9.844041,0.41949844,-1.0007483,-2.05683,0.89540917,0
1.7300000000000013,12.492897721692675,0.10223734614577495,-2.379344538107264,0.5069170617982244,15.771292,-1.1642634,-4.122883,1.185125,3.117862,-2.8791747,1.9502585,-0.26096267,0.1712187,0.16310148,-0.9359377,-8.58382,9.8185215,0.4322358,-0.8287352,-2.1070151,0.8763457,0
1.7400000000000013,12.492897721692675,0.10223734614577495,-2.379344538107264,0.5069170617982244,15.771292,-1.1642634,-4.122883,1.185125,3.0317721,-2.7811267,1.9546454,-0.25450256,0.16293631,0.16865352,-0.9382084,-8.633849,9.790708,0.445177,-0.68355167,-2.1493936,0.8582177,0
1.7500000000000013,12.492897721692675,0.10223734614577495,-2.379344538107264,0.5069170617982244,15.771292,-1.1642634,-4.122883,1.185125,2.945191,-2.6833677,1.9591628,-0.24816443,0.1542623,0.17361854,-0.9404642,-8.682066,9.760751,0.45836234,-0.56101286,-2.1851795,0.8409793,0
1.7600000000000013,12.1161805260918,0.5085700874262878,-2.053445339508123,0.20430780853985836,15.563737,-0.8702579,-3.762579,0.8182179,2.8581371,-2.5859184,1.9638135,-0.24192788,0.14525653,0.1780822,-0.942686,-8.728327,9.728785,0.47181854,-0.45758632,-2.2153978,0.8245868,0
1.7700000000000014,12.1161805260918,0.5085700874262878,-2.053445339508123,0.20430780853985836,15.563737,-0.8702579,-3.762579,0.8182179,2.7706382,-2.4887931,1.9685835,-0.2358582,0.13604686,0.18193781,-0.94485956,-8.771176,9.695961,0.48218995,-0.30697188,-2.1900544,0.7941495,0
1.7800000000000014,12.1161805260918,0.5085700874262878,-2.053445339508123,0.20430780853985836,15.563737,-0.8702579,-3.762579,0.8182179,2.6827211,-2.3920047,1.9734584,-0.23001179,0.12673794,0.18510644,-0.9469775,-8.811925,9.661492,0.4928608,-0.17984056,-2.168681,0.76520574,0
1.7900000000000014,12.1161805260918,0.5085700874262878,-2.053445339508123,0.20430780853985836,15.563737,-0.8702579,-3.762579,0.8182179,2.5944073,-2.2955685,1.9784417,-0.22436085,0.117344484,0.18769199,-0.94903266,-8.850501,9.625553,0.50384736,-0.07253087,-2.150655,0.7376823,0
1.8000000000000014,11.788644571785794,0.6897485711482638,-1.5555883050287826,-0.05005435319761917,14.006493,-0.6022261,-3.3536668,0.44296852,2.5057187,-2.1994982,1.9835366,-0.21888183,0.10787847,0.18978196,-0.9510177,-8.886846,9.588297,0.5151579,0.018047689,-2.1354518,0.71150947,0
1.8100000000000014,11.788644571785794,0.6897485711482638,-1.5555883050287826,-0.05005435319761917,14.006493,-0.6022261,-3.3536668,0.44296852,2.4166827,-2.1038013,1.9887313,-0.21363051,0.098517865,0.19134155,-0.95291317,-8.919997,9.550906,0.5238269,0.12270712,-2.0449767,0.6741393,0
1.8200000000000014,11.788644571785794,0.6897485711482638,-1.5555883050287826,-0.05005435319761917,14.006493,-0.6022261,-3.3536668,0.44296852,2.3273263,-2.0084832,1.9940141,-0.20865512,0.0894045,0.19234912,-0.95470965,-8.950949,9.512541,0.5328105,0.21105768,-1.9686229,0.638603,0
1.8300000000000014,11.788644571785794,0.6897485711482638,-1.5555883050287826,-0.05005435319761917,14.006493,-0.6022261,-3.3536668,0.44296852,2.2376711,-1.9135531,1.9993885,-0.20392653,0.08049851,0.19289006,-0.95641315,-8.979724,9.473359,0.542105,0.28564045,-1.9041857,0.60481036,0
1.8400000000000014,11.788644571785794,0.6897485711482638,-1.5555883050287826,-0.05005435319761917,13.57644,-0.47968632,-2.8920913,0.20217957,2.1477392,-1.8190182,2.0048573,-0.19941959,0.07176595,0.193036,-0.9580278,-9.006347,9.433498,0.5517046,0.34860075,-1.8498046,0.57267594,0
1.8500000000000014,11.788644571785794,0.6897485711482638,-1.5555883050287826,-0.05005435319761917,13.57644,-0.47968632,-2.8920913,0.20217957,2.0575516,-1.724885,2.010424,-0.19511259,0.06317801,0.19284713,-0.9595562,-9.030836,9.393077,0.56160086,0.40174946,-1.8039098,0.5421183,0
1.8600000000000014,11.788644571785794,0.6897485711482638,-1.5555883050287826,-0.05005435319761917,13.57644,-0.47968632,-2.8920913,0.20217957,1.9671296,-1.6311584,2.0160906,-0.19098668,0.054710288,0.19237399,-0.9610004,-9.053209,9.352197,0.57178324,0.4466156,-1.7651768,0.5130602,0
1.8700000000000014,11.788644571785794,0.6897485711482638,-1.5555883050287826,-0.05005435319761917,13.57644,-0.47968632,-2.8920913,0.20217957,1.8764944,-1.5378424,2.0218604,-0.18702544,0.046342157,0.19165902,-0.9623613,-9.0734825,9.310947,0.58223873,0.48448992,-1.7324877,0.485428,0
1.8800000000000014,11.407647616875247,0.6711034962002503,-1.0510795045296892,-0.24519772424994823,12.817496,-0.18716557,-2.0237865,-0.2755035,1.7856671,-1.4449403,2.027736,-0.18321456,0.03805626,0.19073786,-0.9636399,-9.091668,9.269405,0.5929525,0.51646197,-1.7048991,0.45915172,0
1.8900000000000015,11.407647616875247,0.6711034962002503,-1.0510795045296892,-0.24519772424994823,12.817496,-0.18716557,-2.0237865,-0.2755035,1.6946709,-1.3524482,2.0337026,-0.17960314,0.030029465,0.18961208,-0.9648248,-9.107265,9.228993,0.60038286,0.5405116,-1.6029412,0.42458907,0
1.9000000000000015,11.407647616875247,0.6711034962002503,-1.0510795045296892,-0.24519772424994823,12.817496,-0.18716557,-2.0237865,-0.2755035,1.6035284,-1.260361,2.0397444,-0.17623292,0.022400992,0.18828586,-0.9659127,-9.120937,9.188449,0.6080291,0.56082094,-1.516885,0.39172247,0
1.9100000000000015,11.407647616875247,0.6711034962002503,-1.0510795045296892,-0.24519772424994823,12.817496,-0.18716557,-2.0237865,-0.2755035,1.5122584,-1.1686795,2.0458639,-0.17308193,0.015106635,0.18679015,-0.966914,-9.132765,9.147845,0.61587524,0.5779714,-1.4442502,0.36046863,0
1.9200000000000015,11.002309084238693,0.5180357333082398,-0.6472282046662088,-0.3892293980131837,12.526745,-0.14511879,-1.6296055,-0.36793408,1.4208791,-1.077404,2.0520625,-0.1701309,0.00809221,0.18515068,-0.96783674,-9.142818,9.107246,0.6239064,0.592454,-1.3829436,0.33074838,0
1.9300000000000015,11.002309084238693,0.5180357333082398,-0.6472282046662088,-0.3892293980131837,12.526745,-0.14511879,-1.6296055,-0.36793408,1.3294095,-0.9865272,2.0583236,-0.16740963,0.0014755795,0.18342118,-0.968673,-9.15087,9.068148,0.6283308,0.5807946,-1.2682252,0.29541886,0
1.9400000000000015,11.002309084238693,0.5180357333082398,-0.6472282046662088,-0.3892293980131837,12.526745,-0.14511879,-1.6296055,-0.36793408,1.2378671,-0.8960408,2.0646293,-0.16494343,-0.0046526184,0.18164612,-0.9694202,-9.157383,9.02915,0.63290334,0.5709629,-1.1713955,0.26182297,0
1.9500000000000015,11.002309084238693,0.5180357333082398,-0.6472282046662088,-0.3892293980131837,12.526745,-0.14511879,-1.6296055,-0.36793408,1.1462668,-0.80594367,2.070982,-0.16270985,-0.010371149,0.1798326,-0.9700912,-9.162461,8.99029,0.637609,0.5626724,-1.089665,0.22987562,0
1.9600000000000015,10.622147657640133,0.3172023797535179,-0.1342840505911542,-0.4655461170665229,12.545881,-0.15554388,-1.3187331,-0.561025,1.0546224,-0.7162343,2.077382,-0.16068907,-0.015746398,0.17798622,-0.970696,-9.166195,8.951597,0.64243585,0.55568075,-1.0206792,0.19949596,0
1.9700000000000015,10.622147657640133,0.3172023797535179,-0.1342840505911542,-0.4655461170665229,12.545881,-0.15554388,-1.3187331,-0.561025,0.9629476,-0.6269043,2.0838132,-0.15891057,-0.020623818,0.1761567,-0.971231,-9.168586,8.914429,0.643813,0.5184534,-0.8824622,0.16686215,0
1.9800000000000015,10.622147657640133,0.3172023797535179,-0.1342840505911542,-0.4655461170665229,12.545881,-0.15554388,-1.3187331,-0.561025,0.87125444,-0.53794503,2.0902586,-0.15739787,-0.024884026,0.17438434,-0.9716973,-9.169893,8.877464,0.64528644,0.4870401,-0.7657976,0.13582969,0
1.9900000000000015,10.622147657640133,0.3172023797535179,-0.1342840505911542,-0.4655461170665229,12.545881,-0.15554388,-1.3187331,-0.561025,0.779553,-0.44935426,2.096719,-0.15612607,-0.028625915,0.17266044,-0.9721072,-9.17025,8.840717,0.646848,0.46053237,-0.66732484,0.10631999,0
2.0000000000000013,,,,,11.588082,-0.44636613,-0.7586953,-0.48530492,0.6878523,-0.36112988,2.1031957,-0.15507321,-0.031932812,0.1709773,-0.97247016,-9.169765,8.804197,0.6484925,0.4381636,-0.584207,0.07825833,0
2.010000000000001,,,,,11.588082,-0.44636613,-0.7586953,-0.48530492,0.59616005,-0.27326408,2.1096742,-0.15425491,-0.034692798,0.1693653,-0.97278774,-9.168579,8.768997,0.6472326,0.3934409,-0.4450129,0.050563414,0
2.020000000000001,,,,,11.588082,-0.44636613,-0.7586953,-0.48530492,0.5044827,-0.18574914,2.1161406,-0.15368219,-0.03682077,0.1678484,-0.9730631,-9.166811,8.734026,0.6460473,0.3556984,-0.3275241,0.0242275,0
2.0300000000000007,,,,,11.588082,-0.44636613,-0.7586953,-0.48530492,0.41282535,-0.09858276,2.1225955,-0.15333061,-0.038417526,0.16641162,-0.97330356,-9.164593,8.699286,0.644936,0.32384598,-0.22835606,-0.00081610493,0
2.0400000000000005,,,,,11.588082,-0.44636613,-0.7586953,-0.48530492,0.321192,-0.011762621,2.1290395,-0.15317884,-0.03956802,0.16504215,-0.9735145,-9.162033,8.664779,0.6438993,0.29696393,-0.14465201,-0.024630807,0
2.0500000000000003,,,,,11.504055,-0.6281968,-0.4721426,-0.53907895,0.22958554,0.07471361,2.1354735,-0.15320815,-0.040343802,0.16372901,-0.9736997,-9.1592245,8.630504,0.6429381,0.27427635,-0.07400067,-0.047276925,1
2.06,,,,,11.504055,-0.6281968,-0.4721426,-0.53907895,0.13800982,0.16082838,2.141955,-0.15337011,-0.041062582,0.16281436,-0.9737975,-9.1558895,8.59248,0.6533616,0.13353217,-0.13608848,-0.071409784,1
2.07,,,,,11.504055,-0.6281968,-0.4721426,-0.53907895,0.046468414,0.24656361,2.148541,-0.15362655,-0.041979283,0.16256891,-0.973759,-9.152359,8.55457,0.6638193,0.014735738,-0.1884907,-0.094358444,1
2.0799999999999996,,,,,11.504055,-0.6281968,-0.4721426,-0.53907895,-0.04503665,0.3319197,2.1552312,-0.15397553,-0.043064896,0.16288772,-0.9736032,-9.14862,8.516633,0.67426,-0.08553528,-0.23271875,-0.116181,1
2.0899999999999994,,,,,11.088909,-0.78240186,-0.9448953,-0.50263655,-0.13650322,0.41689575,2.1620257,-0.15441453,-0.044294816,0.16368201,-0.9733452,-9.144658,8.478546,0.68464035,-0.17016949,-0.27004805,-0.13693273,1
2.099999999999999,,,,,11.088909,-0.78240186,-0.9448953,-0.50263655,-0.22792976,0.5014967,2.1689038,-0.15490799,-0.04582202,0.16496623,-0.97297925,-9.140609,8.441586,0.69100976,-0.2656605,-0.3752786,-0.15487793,1
2.109999999999999,,,,,11.088909,-0.78240186,-0.9448953,-0.50263655,-0.3193144,0.58572626,2.1758451,-0.15542594,-0.047766313,0.16674781,-0.9724993,-9.136269,8.404259,0.697237,-0.34626016,-0.46409804,-0.17194256,1
2.1199999999999988,,,,,11.088909,-0.78240186,-0.9448953,-0.50263655,-0.41065386,0.6695803,2.182848,-0.15597297,-0.050063748,0.16894794,-0.9719163,-9.131571,8.366454,0.70327663,-0.41429037,-0.5390661,-0.18816979,1
2.1299999999999986,,,,,10.806384,-0.76834995,-1.0020032,-0.48545632,-0.50194436,0.7530534,2.1899102,-0.15655237,-0.052660283,0.17149991,-0.9712388,-9.126461,8.328079,0.7090879,-0.47171098,-0.6023433,-0.20360076,1
2.1399999999999983,,,,,10.806384,-0.76834995,-1.0020032,-0.48545632,-0.59318215,0.8361446,2.1970158,-0.1571601,-0.055532955,0.17434557,-0.9704737,-9.121035,8.2900505,0.7119933,-0.5179859,-0.6646592,-0.21743149,1
2.149999999999998,,,,,10.806384,-0.76834995,-1.0020032,-0.48545632,-0.6843633,0.91885203,2.2041488,-0.15779218,-0.058661066,0.1774358,-0.96962667,-9.115118,8.251326,0.7146064,-0.5570437,-0.71725744,-0.23058353,1
2.159999999999998,,,,,10.806384,-0.76834995,-1.0020032,-0.48545632,-0.77548265,1.0011685,2.2113066,-0.15845057,-0.06200552,0.18073075,-0.9687022,-9.108672,8.211853,0.716896,-0.5900096,-0.7616537,-0.24309021,1
2.1699999999999977,,,,,10.281689,-0.87237924,-0.62024885,-0.25443444,-0.86653477,1.0830863,2.2184854,-0.15913665,-0.06553327,0.18419671,-0.9677041,-9.101664,8.171588,0.71883255,-0.6178339,-0.7991268,-0.2549832,1
2.1799999999999975,,,,,10.281689,-0.87237924,-0.62024885,-0.25443444,-0.9575158,1.1646073,2.2256575,-0.15985471,-0.06905668,0.18782304,-0.96664315,-9.094444,8.132488,0.7155503,-0.65752536,-0.7712243,-0.25495625,1
