time-since-start [s],throttle_mpc,roll_mpc,pitch_mpc,yaw_mpc,throttle_nw,roll_nw,pitch_nw,yaw_nw,position_x [m],position_y [m],position_z [m],rotation_w [quaternion],rotation_x [quaternion],rotation_y [quaternion],rotation_z [quaternion],velocity_x [m/s],velocity_y [m/s],velocity_z [m/s],omega_x [rad/s],omega_y [rad/s],omega_z [rad/s],network_used
0.0,9.935194881791345,5.99999963400994,-5.999999800172053,0.4985217004995829,-1.4229945,-5.610253,-34.273632,-146.58641,20.305317,-9.452741,2.086359,0.10028975,-0.4267334,0.23831467,0.8666295,-10.124943,-4.4187036,0.87403905,1.4755762,-0.12713674,-0.307928,0
0.01,9.935194881791345,5.99999963400994,-5.999999800172053,0.4985217004995829,-7.1080356,-26.663395,-74.22181,-230.94621,20.20373,-9.496674,2.0948713,0.1179851,-0.39675537,0.26214612,0.8717477,-10.191407,-4.367196,0.82880485,5.9999995,-6.0,0.4985217,0
0.02,9.935194881791345,5.99999963400994,-5.999999800172053,0.4985217004995829,-7.1080356,-26.663395,-74.22181,-230.94621,20.101511,-9.540066,2.1029432,0.1354674,-0.36606088,0.28550413,0.8752915,-10.251546,-4.310656,0.78594816,5.9999995,-6.0,0.4985217,0
0.03,9.935194881791345,5.99999963400994,-5.999999800172053,0.4985217004995829,-7.1080356,-26.663395,-74.22181,-230.94621,19.998722,-9.58287,2.1105967,0.15270504,-0.33470526,0.30834654,0.8772548,-10.304934,-4.2494655,0.7450382,5.9999995,-6.0,0.4985217,0
0.04,9.935194881791345,5.99999963400994,-5.999999800172053,0.4985217004995829,14.506686,-1.1394866,-23.73286,-80.25454,19.895435,-9.625041,2.117849,0.16966692,-0.3027452,0.33063212,0.87763363,-10.351194,-4.18404,0.70563024,5.9999995,-6.0,0.4985217,0
0.05,9.935194881791345,5.99999963400994,-5.999999800172053,0.4985217004995829,14.506686,-1.1394866,-23.73286,-80.25454,19.791725,-9.666538,2.124713,0.18632236,-0.27023837,0.35232055,0.8764276,-10.390001,-4.114826,0.66726863,5.9999995,-6.0,0.4985217,0
0.060000000000000005,9.935194881791345,5.99999963400994,-5.999999800172053,0.4985217004995829,14.506686,-1.1394866,-23.73286,-80.25454,19.687662,-9.707326,2.1311965,0.20264132,-0.23724353,0.37337276,0.87363875,-10.421085,-4.042298,0.62949026,5.9999995,-6.0,0.4985217,0
0.07,9.935194881791345,5.99999963400994,-5.999999800172053,0.4985217004995829,14.506686,-1.1394866,-23.73286,-80.25454,19.58333,-9.747374,2.137303,0.21859433,-0.20382023,0.39375064,0.86927223,-10.44423,-3.9669526,0.5918277,5.9999995,-6.0,0.4985217,0
0.08,16.42047962633628,5.999998693641533,-5.999999624914446,0.01744174140512838,15.991019,0.73568517,-2.2840672,-1.1973696,19.478807,-9.786655,2.1430316,0.23415256,-0.17002884,0.41341743,0.86333585,-10.459275,-3.8893082,0.5538128,5.9999995,-6.0,0.4985217,0
0.09,16.42047962633628,5.999998693641533,-5.999999624914446,0.01744174140512838,15.991019,0.73568517,-2.2840672,-1.1973696,19.374147,-9.824894,2.1485705,0.25136474,-0.13692501,0.43193007,0.8552799,-10.470593,-3.7580688,0.5536728,5.9999986,-5.9999995,0.017441742,0
0.09999999999999999,16.42047962633628,5.999998693641533,-5.999999624914446,0.01744174140512838,15.991019,0.73568517,-2.2840672,-1.1973696,19.269444,-9.86181,2.1540983,0.2681245,-0.10357475,0.4496653,0.8456847,-10.468283,-3.6248512,0.5514673,5.9999986,-5.9999995,0.017441742,0
0.10999999999999999,16.42047962633628,5.999998693641533,-5.999999624914446,0.01744174140512838,15.991019,0.73568517,-2.2840672,-1.1973696,19.16483,-9.8973875,2.159591,0.28440168,-0.070038095,0.4665913,0.8345675,-10.45236,-3.4906125,0.5465044,5.9999986,-5.9999995,0.017441742,0
0.11999999999999998,16.42047962633628,5.999998693641533,-5.999999624914446,0.01744174140512838,15.991019,0.73568517,-2.2840672,-1.1973696,19.060442,-9.931621,2.165017,0.30016705,-0.036375392,0.48267758,0.82194823,-10.422942,-3.3563175,0.5381119,5.9999986,-5.9999995,0.017441742,0
0.12999999999999998,19.61942041023847,2.6382139194111627,-5.999997028799866,0.2512016545350626,17.387985,-0.481813,-0.3283122,-1.1256771,18.956419,-9.964516,2.1703389,0.31539223,-0.002647221,0.49789515,0.80784965,-10.38024,-3.222931,0.5256425,5.9999986,-5.9999995,0.017441742,0
0.13999999999999999,19.61942041023847,2.6382139194111627,-5.999997028799866,0.2512016545350626,17.387985,-0.481813,-0.3283122,-1.1256771,18.852934,-9.995959,2.1755989,0.32917723,0.0263702,0.4988252,0.8013241,-10.314961,-3.0664926,0.52625865,2.6382139,-5.999997,0.25120166,0
0.15,19.61942041023847,2.6382139194111627,-5.999997028799866,0.2512016545350626,17.387985,-0.481813,-0.3283122,-1.1256771,18.75016,-10.025863,2.1808612,0.3426082,0.05535926,0.4992187,0.7939368,-10.237849,-2.9150133,0.5260719,2.6382139,-5.999997,0.25120166,0
0.16,18.644590143521093,-0.18217030995367553,-1.9117386253373876,0.0057597841840294674,17.78593,-2.8421881,1.3904144,-1.2452217,18.648216,-10.054278,2.186116,0.35567072,0.084288776,0.4990753,0.78569555,-10.149231,-2.769128,0.524634,2.6382139,-5.999997,0.25120166,0
0.17,18.644590143521093,-0.18217030995367553,-1.9117386253373876,0.0057597841840294674,17.78593,-2.8421881,1.3904144,-1.2452217,18.54718,-10.081298,2.1913276,0.3604789,0.09148541,0.49493456,0.78531843,-10.057431,-2.6349847,0.5178535,-0.18217032,-1.9117386,0.005759784,0
0.18000000000000002,18.644590143521093,-0.18217030995367553,-1.9117386253373876,0.0057597841840294674,17.78593,-2.8421881,1.3904144,-1.2452217,18.447073,-10.106987,2.1964765,0.36525384,0.09867361,0.49074814,0.784869,-9.963209,-2.503261,0.51212335,-0.18217032,-1.9117386,0.005759784,0
0.19000000000000003,18.644590143521093,-0.18217030995367553,-1.9117386253373876,0.0057597841840294674,17.78593,-2.8421881,1.3904144,-1.2452217,18.347923,-10.131371,2.2015731,0.3699951,0.105852716,0.48651648,0.7843471,-9.866601,-2.3740056,0.50740933,-0.18217032,-1.9117386,0.005759784,0
0.20000000000000004,17.15146091579762,-0.8988021847954674,0.3714020238481578,-0.13183181638423738,17.735983,-3.5135708,4.696614,-1.4899105,18.24975,-10.154474,2.2066278,0.37470224,0.11302207,0.48224,0.783753,-9.767642,-2.247266,0.5036769,-0.18217032,-1.9117386,0.005759784,0
0.21000000000000005,17.15146091579762,-0.8988021847954674,0.3714020238481578,-0.13183181638423738,17.735983,-3.5135708,4.696614,-1.4899105,18.152534,-10.176371,2.2116122,0.37482676,0.10956349,0.47948232,0.78587365,-9.675715,-2.1321247,0.49337727,-0.89880216,0.37140203,-0.13183181,0
0.22000000000000006,17.15146091579762,-0.8988021847954674,0.3714020238481578,-0.13183181638423738,17.735983,-3.5135708,4.696614,-1.4899105,18.056232,-10.197116,2.2164993,0.3749422,0.10610228,0.4767131,0.7879753,-9.584976,-2.0169392,0.48424792,-0.89880216,0.37140203,-0.13183181,0
0.23000000000000007,17.15146091579762,-0.8988021847954674,0.3714020238481578,-0.13183181638423738,17.735983,-3.5135708,4.696614,-1.4899105,17.960833,-10.21671,2.221301,0.37504867,0.10263852,0.47393242,0.79005814,-9.495434,-1.9017192,0.47627938,-0.89880216,0.37140203,-0.13183181,0
0.24000000000000007,17.15146091579762,-0.8988021847954674,0.3714020238481578,-0.13183181638423738,16.823524,-3.2063885,4.874456,-1.3126867,17.866323,-10.23515,2.226029,0.37514612,0.09917228,0.4711403,0.7921219,-9.407099,-1.786474,0.46946198,-0.89880216,0.37140203,-0.13183181,0
0.25000000000000006,17.15146091579762,-0.8988021847954674,0.3714020238481578,-0.13183181638423738,16.823524,-3.2063885,4.874456,-1.3126867,17.772688,-10.252439,2.2306943,0.3752345,0.095703654,0.46833685,0.79416656,-9.319979,-1.6712128,0.46378607,-0.89880216,0.37140203,-0.13183181,0
0.26000000000000006,17.15146091579762,-0.8988021847954674,0.3714020238481578,-0.13183181638423738,16.823524,-3.2063885,4.874456,-1.3126867,17.67992,-10.268575,2.2353086,0.37531385,0.09223272,0.46552214,0.79619217,-9.234086,-1.555945,0.45924178,-0.89880216,0.37140203,-0.13183181,0
0.2700000000000001,17.15146091579762,-0.8988021847954674,0.3714020238481578,-0.13183181638423738,16.823524,-3.2063885,4.874456,-1.3126867,17.588003,-10.283558,2.2398832,0.37538412,0.088759564,0.46269622,0.79819846,-9.149426,-1.4406797,0.4558192,-0.89880216,0.37140203,-0.13183181,0
0.2800000000000001,15.603311497701284,-1.4482494255310812,2.1079369867697375,-0.31857587309709945,15.954894,-2.9974625,4.6706996,-1.2105334,17.496925,-10.297388,2.2444289,0.3754454,0.08528427,0.45985916,0.8001856,-9.066011,-1.3254263,0.45350826,-0.89880216,0.37140203,-0.13183181,0
0.2900000000000001,15.603311497701284,-1.4482494255310812,2.1079369867697375,-0.31857587309709945,15.954894,-2.9974625,4.6706996,-1.2105334,17.406637,-10.310116,2.2489135,0.3724597,0.07339262,0.4581196,0.80374986,-8.992152,-1.2200056,0.44359174,-1.4482495,2.107937,-0.31857586,0
0.3000000000000001,15.603311497701284,-1.4482494255310812,2.1079369867697375,-0.31857587309709945,15.954894,-2.9974625,4.6706996,-1.2105334,17.317072,-10.321781,2.2533042,0.36941218,0.06148878,0.45630398,0.80718064,-8.921828,-1.1130711,0.434737,-1.4482495,2.107937,-0.31857586,0
0.3100000000000001,15.603311497701284,-1.4482494255310812,2.1079369867697375,-0.31857587309709945,15.954894,-2.9974625,4.6706996,-1.2105334,17.22819,-10.332372,2.2576118,0.36630332,0.049574733,0.45441258,0.8104774,-8.855087,-1.0046848,0.4268757,-1.4482495,2.107937,-0.31857586,0
0.3200000000000001,14.42955838039156,-1.9889329766579928,3.749183122759608,-0.46006554678528433,15.050138,-3.3167915,5.090555,-1.3261818,17.139957,-10.34187,2.2618454,0.3631336,0.03765245,0.45244575,0.8136395,-8.791969,-0.8949096,0.41993892,-1.4482495,2.107937,-0.31857586,0
0.3300000000000001,14.42955838039156,-1.9889329766579928,3.749183122759608,-0.46006554678528433,15.050138,-3.3167915,5.090555,-1.3261818,17.052313,-10.350306,2.265979,0.35681593,0.017740956,0.45114532,0.8178237,-8.73781,-0.7917194,0.40690893,-1.988933,3.7491832,-0.46006554,0
0.34000000000000014,14.42955838039156,-1.9889329766579928,3.749183122759608,-0.46006554678528433,15.050138,-3.3167915,5.090555,-1.3261818,16.965181,-10.357697,2.2699854,0.3503357,-0.0021786247,0.44963932,0.8216354,-8.689299,-0.68623495,0.39447027,-1.988933,3.7491832,-0.46006554,0
0.35000000000000014,14.42955838039156,-1.9889329766579928,3.749183122759608,-0.46006554678528433,15.050138,-3.3167915,5.090555,-1.3261818,16.878508,-10.364022,2.2738698,0.34369582,-0.022097215,0.4479285,0.82507277,-8.646515,-0.5786299,0.38244614,-1.988933,3.7491832,-0.46006554,0
0.36000000000000015,13.846532581307432,-2.0640154667500554,3.6675099815131564,-0.6250656766761071,14.224911,-3.2418904,4.5527935,-1.7324429,16.792233,-10.369263,2.2776353,0.3368994,-0.04200574,0.44601357,0.8281342,-8.609533,-0.4690819,0.37065896,-1.988933,3.7491832,-0.46006554,0
0.37000000000000016,13.846532581307432,-2.0640154667500554,3.6675099815131564,-0.6250656766761071,14.224911,-3.2418904,4.5527935,-1.7324429,16.706293,-10.373421,2.281266,0.3307995,-0.062051445,0.44341308,0.83072627,-8.579663,-0.3623051,0.3554837,-2.0640154,3.66751,-0.6250657,0
0.38000000000000017,13.846532581307432,-2.0640154667500554,3.6675099815131564,-0.6250656766761071,14.224911,-3.2418904,4.5527935,-1.7324429,16.620623,-10.376504,2.284745,0.32454994,-0.08206907,0.44061193,0.8329424,-8.555444,-0.2541044,0.3403053,-2.0640154,3.66751,-0.6250657,0
0.3900000000000002,13.846532581307432,-2.0640154667500554,3.6675099815131564,-0.6250656766761071,14.224911,-3.2418904,4.5527935,-1.7324429,16.535166,-10.378498,2.2880714,0.31815353,-0.102049544,0.4376114,0.8347817,-8.53691,-0.14465027,0.32494774,-2.0640154,3.66751,-0.6250657,0
0.4000000000000002,13.622447974453431,-1.879709296378653,2.6266079110695206,-0.763160964032521,13.386389,-3.142437,3.2273643,-1.7510045,16.449867,-10.379393,2.2912426,0.31161314,-0.12198385,0.43441284,0.8362432,-8.524092,-0.034115404,0.30923536,-2.0640154,3.66751,-0.6250657,0
0.4100000000000002,13.622447974453431,-1.879709296378653,2.6266079110695206,-0.763160964032521,13.386389,-3.142437,3.2273643,-1.7510045,16.364668,-10.379187,2.294248,0.30790973,-0.13753511,0.43012074,0.83741975,-8.516646,0.07535014,0.29186618,-1.8797092,2.626608,-0.76316094,0
0.4200000000000002,13.622447974453431,-1.879709296378653,2.6266079110695206,-0.763160964032521,13.386389,-3.142437,3.2273643,-1.7510045,16.27952,-10.377886,2.2970796,0.30412152,-0.15304849,0.4257102,0.8383658,-8.513589,0.18512173,0.2743667,-1.8797092,2.626608,-0.76316094,0
0.4300000000000002,13.622447974453431,-1.879709296378653,2.6266079110695206,-0.763160964032521,13.386389,-3.142437,3.2273643,-1.7510045,16.194382,-10.375485,2.2997348,0.30024958,-0.16851972,0.42118242,0.8390809,-8.514918,0.29510462,0.2566258,-1.8797092,2.626608,-0.76316094,0
0.4400000000000002,13.622447974453431,-1.879709296378653,2.6266079110695206,-0.763160964032521,12.91559,-3.096252,2.382842,-1.6675719,16.109207,-10.371984,2.3022108,0.29629496,-0.18394455,0.41653866,0.83956504,-8.520631,0.40520388,0.23853268,-1.8797092,2.626608,-0.76316094,0
0.45000000000000023,13.622447974453431,-1.879709296378653,2.6266079110695206,-0.763160964032521,12.91559,-3.096252,2.382842,-1.6675719,16.023954,-10.367381,2.3045037,0.2922587,-0.19931874,0.41178018,0.8398179,-8.53072,0.5153245,0.21997686,-1.8797092,2.626608,-0.76316094,0
0.46000000000000024,13.622447974453431,-1.879709296378653,2.6266079110695206,-0.763160964032521,12.91559,-3.096252,2.382842,-1.6675719,15.93858,-10.361678,2.3066082,0.28814203,-0.21463804,0.40690833,0.8398396,-8.545171,0.6253712,0.2008484,-1.8797092,2.626608,-0.76316094,0
0.47000000000000025,13.622447974453431,-1.879709296378653,2.6266079110695206,-0.763160964032521,12.91559,-3.096252,2.382842,-1.6675719,15.853038,-10.3548765,2.3085182,0.28394598,-0.22989821,0.40192443,0.83962995,-8.563965,0.73524904,0.18103796,-1.8797092,2.626608,-0.76316094,0
0.48000000000000026,13.544737530579571,-1.5572848171510105,1.4406347172920821,-0.7962983668290229,13.020498,-3.0622306,1.5413973,-1.616694,15.767286,-10.346976,2.3102262,0.27967173,-0.2450951,0.39682987,0.8391891,-8.587077,0.8448633,0.16043702,-1.8797092,2.626608,-0.76316094,0
0.49000000000000027,13.544737530579571,-1.5572848171510105,1.4406347172920821,-0.7962983668290229,13.020498,-3.0622306,1.5413973,-1.616694,15.681285,-10.337984,2.3117225,0.27822816,-0.25488162,0.39130893,0.8393461,-8.613784,0.95342326,0.13880157,-1.5572848,1.4406347,-0.7962984,0
0.5000000000000002,13.544737530579571,-1.5572848171510105,1.4406347172920821,-0.7962983668290229,13.020498,-3.0622306,1.5413973,-1.616694,15.595001,-10.327909,2.3130019,0.2767489,-0.26463538,0.38573778,0.83939534,-8.643294,1.0613731,0.116999395,-1.5572848,1.4406347,-0.7962984,0
0.5100000000000002,13.544737530579571,-1.5572848171510105,1.4406347172920821,-0.7962983668290229,13.020498,-3.0622306,1.5413973,-1.616694,15.508409,-10.316758,2.314062,0.27523413,-0.2743552,0.3801171,0.8393368,-8.675595,1.1686771,0.09497732,-1.5572848,1.4406347,-0.7962984,0
0.5200000000000002,13.570912243604255,-1.1056006292082046,0.21264629882503533,-0.8041486728488109,13.288043,-2.7646484,0.6677172,-1.5213816,15.421479,-10.304537,2.3149009,0.27368405,-0.2840398,0.37444758,0.8391706,-8.710674,1.2752998,0.07268228,-1.5572848,1.4406347,-0.7962984,0
0.5300000000000002,13.570912243604255,-1.1056006292082046,0.21264629882503533,-0.8041486728488109,13.288043,-2.7646484,0.6677172,-1.5213816,15.334187,-10.291252,2.3155165,0.27508327,-0.2879437,0.36894867,0.83981806,-8.748007,1.3813907,0.050528202,-1.1056006,0.2126463,-0.8041487,0
0.5400000000000003,13.570912243604255,-1.1056006292082046,0.21264629882503533,-0.8041486728488109,13.288043,-2.7646484,0.6677172,-1.5213816,15.246514,-10.276911,2.315913,0.27646935,-0.2918338,0.3634321,0.8404253,-8.786548,1.4866899,0.028870467,-1.1056006,0.2126463,-0.8041487,0
0.5500000000000003,13.570912243604255,-1.1056006292082046,0.21264629882503533,-0.8041486728488109,13.288043,-2.7646484,0.6677172,-1.5213816,15.158452,-10.26152,2.3160954,0.27784216,-0.29570994,0.35789818,0.84099233,-8.8263,1.5911885,0.007690001,-1.1056006,0.2126463,-0.8041487,0
0.5600000000000003,13.55343742909272,-0.7071699867042698,-0.5575236296993273,-0.7496614040729299,13.464453,-2.3529754,0.37196815,-1.4719349,15.069985,-10.2450905,2.3160682,0.27920175,-0.29957193,0.3523471,0.8415191,-8.867264,1.6948776,-0.01303234,-1.1056006,0.2126463,-0.8041487,0
0.5700000000000003,13.55343742909272,-0.7071699867042698,-0.5575236296993273,-0.7496614040729299,13.464453,-2.3529754,0.37196815,-1.4719349,14.981104,-10.227627,2.3158362,0.2822742,-0.29952887,0.34746438,0.8425391,-8.908989,1.7976353,-0.0332267,-0.70717,-0.5575236,-0.7496614,0
0.5800000000000003,13.55343742909272,-0.7071699867042698,-0.5575236296993273,-0.7496614040729299,13.464453,-2.3529754,0.37196815,-1.4719349,14.891805,-10.20914,2.3154068,0.2853369,-0.29947552,0.34256974,0.8435301,-8.95087,1.8996179,-0.052491207,-0.70717,-0.5575236,-0.7496614,0
0.5900000000000003,13.55343742909272,-0.7071699867042698,-0.5575236296993273,-0.7496614040729299,13.464453,-2.3529754,0.37196815,-1.4719349,14.802086,-10.189637,2.3147893,0.28838986,-0.29941192,0.33766335,0.8444922,-8.99291,2.0008154,-0.07083496,-0.70717,-0.5575236,-0.7496614,0
0.6000000000000003,13.605928955609798,-0.43831708557889953,-0.5950659106088795,-0.6860256953241916,13.438184,-1.9435678,0.09461935,-1.3058339,14.7119465,-10.1691265,2.3139932,0.29143292,-0.299338,0.33274537,0.8454253,-9.035118,2.1012185,-0.08826716,-0.70717,-0.5575236,-0.7496614,0
0.6100000000000003,13.605928955609798,-0.43831708557889953,-0.5950659106088795,-0.6860256953241916,13.438184,-1.9435678,0.09461935,-1.3058339,14.621383,-10.147614,2.3130288,0.2946631,-0.29859883,0.32899448,0.84603477,-9.077552,2.2012813,-0.10452061,-0.4383171,-0.5950659,-0.6860257,0
0.6200000000000003,13.605928955609798,-0.43831708557889953,-0.5950659106088795,-0.6860256953241916,13.438184,-1.9435678,0.09461935,-1.3058339,14.5303955,-10.125103,2.3119056,0.2978858,-0.2978521,0.32523522,0.8466227,-9.119874,2.300737,-0.11998033,-0.4383171,-0.5950659,-0.6860257,0
0.6300000000000003,13.605928955609798,-0.43831708557889953,-0.5950659106088795,-0.6860256953241916,13.438184,-1.9435678,0.09461935,-1.3058339,14.438986,-10.101601,2.3106318,0.30110097,-0.29709774,0.32146767,0.8471892,-9.16209,2.3995774,-0.13465159,-0.4383171,-0.5950659,-0.6860257,0
0.6400000000000003,13.605928955609798,-0.43831708557889953,-0.5950659106088795,-0.6860256953241916,13.289283,-1.6584027,-0.07307908,-1.0633578,14.347155,-10.077113,2.309215,0.30430844,-0.29633588,0.31769192,0.8477341,-9.204205,2.4977953,-0.14853972,-0.4383171,-0.5950659,-0.6860257,0
0.6500000000000004,13.605928955609798,-0.43831708557889953,-0.5950659106088795,-0.6860256953241916,13.289283,-1.6584027,-0.07307908,-1.0633578,14.254902,-10.051646,2.3076637,0.3075082,-0.29556647,0.31390816,0.8482574,-9.246221,2.5953834,-0.16165017,-0.4383171,-0.5950659,-0.6860257,0
0.6600000000000004,13.605928955609798,-0.43831708557889953,-0.5950659106088795,-0.6860256953241916,13.289283,-1.6584027,-0.07307908,-1.0633578,14.16223,-10.0252075,2.3059847,0.31070015,-0.29478955,0.31011638,0.84875923,-9.288144,2.6923344,-0.17398846,-0.4383171,-0.5950659,-0.6860257,0
0.6700000000000004,13.605928955609798,-0.43831708557889953,-0.5950659106088795,-0.6860256953241916,13.289283,-1.6584027,-0.07307908,-1.0633578,14.0691395,-9.997802,2.3041863,0.3138842,-0.29400513,0.30631673,0.8492394,-9.329977,2.7886407,-0.18556017,-0.4383171,-0.5950659,-0.6860257,0
0.6800000000000004,13.621977165037483,-0.2569309297733991,-0.5255874425103103,-0.6280151505048355,13.182084,-1.3707111,-0.21909663,-0.82315445,13.975631,-9.969437,2.3022764,0.31706023,-0.29321325,0.3025093,0.84969807,-9.371725,2.884295,-0.19637096,-0.4383171,-0.5950659,-0.6860257,0
0.6900000000000004,13.621977165037483,-0.2569309297733991,-0.5255874425103103,-0.6280151505048355,13.182084,-1.3707111,-0.21909663,-0.82315445,13.881705,-9.940118,2.3002622,0.32014373,-0.2923348,0.29966104,0.8498538,-9.413396,2.9794724,-0.20637734,-0.25693092,-0.52558744,-0.62801516,0
0.7000000000000004,13.621977165037483,-0.2569309297733991,-0.5255874425103103,-0.6280151505048355,13.182084,-1.3707111,-0.21909663,-0.82315445,13.787364,-9.909848,2.2981508,0.3232213,-0.29145098,0.29680723,0.8499939,-9.454872,3.074171,-0.21577747,-0.25693092,-0.52558744,-0.62801516,0
0.7100000000000004,13.621977165037483,-0.2569309297733991,-0.5255874425103103,-0.6280151505048355,13.182084,-1.3707111,-0.21909663,-0.82315445,13.692609,-9.878634,2.2959485,0.32629293,-0.2905618,0.293948,0.85011834,-9.496157,3.1683857,-0.22457448,-0.25693092,-0.52558744,-0.62801516,0
0.7200000000000004,13.594192166922674,-0.041327390513864214,-0.4849498572249122,-0.5699197693987532,12.98413,-1.0945132,-0.3081989,-0.5680519,13.597442,-9.846481,2.2936614,0.32935855,-0.28966725,0.2910833,0.8502271,-9.537251,3.2621112,-0.23277147,-0.25693092,-0.52558744,-0.62801516,0
0.7300000000000004,13.594192166922674,-0.041327390513864214,-0.4849498572249122,-0.5699197693987532,12.98413,-1.0945132,-0.3081989,-0.5680519,13.501864,-9.813395,2.291294,0.33242497,-0.28850114,0.28928152,0.8500451,-9.57801,3.3552275,-0.24060367,-0.04132739,-0.48494986,-0.56991976,0
0.7400000000000004,13.594192166922674,-0.041327390513864214,-0.4849498572249122,-0.5699197693987532,12.98413,-1.0945132,-0.3081989,-0.5680519,13.405883,-9.779378,2.2888508,0.33548674,-0.28733099,0.28747568,0.84985113,-9.618404,3.4480474,-0.24796873,-0.04132739,-0.48494986,-0.56991976,0
0.7500000000000004,13.594192166922674,-0.041327390513864214,-0.4849498572249122,-0.5699197693987532,12.98413,-1.0945132,-0.3081989,-0.5680519,13.309498,-9.744434,2.2863362,0.33854377,-0.28615683,0.28566578,0.84964526,-9.658439,3.5405667,-0.25486788,-0.04132739,-0.48494986,-0.56991976,0
0.7600000000000005,13.577072997564755,0.11871977242159051,-0.5213730178115683,-0.5231056242721126,12.775651,-0.8824386,-0.46002606,-0.39880195,13.212715,-9.708567,2.283755,0.34159613,-0.28497863,0.2838519,0.84942746,-9.698113,3.632781,-0.2613024,-0.04132739,-0.48494986,-0.56991976,0
0.7700000000000005,13.577072997564755,0.11871977242159051,-0.5213730178115683,-0.5231056242721126,12.775651,-0.8824386,-0.46002606,-0.39880195,13.115538,-9.67178,2.2811115,0.34472454,-0.28330192,0.28271827,0.8491025,-9.73731,3.7246115,-0.2674004,0.11871977,-0.52137303,-0.5231056,0
0.7800000000000005,13.577072997564755,0.11871977242159051,-0.5213730178115683,-0.5231056242721126,12.775651,-0.8824386,-0.46002606,-0.39880195,13.017971,-9.634075,2.2784085,0.34784815,-0.28162128,0.2815807,0.8487656,-9.775961,3.8162386,-0.2730657,0.11871977,-0.52137303,-0.5231056,0
0.7900000000000005,13.577072997564755,0.11871977242159051,-0.5213730178115683,-0.5231056242721126,12.775651,-0.8824386,-0.46002606,-0.39880195,12.920019,-9.595455,2.2756515,0.3509669,-0.2799367,0.28043917,0.8484169,-9.814067,3.9076579,-0.27829924,0.11871977,-0.52137303,-0.5231056,0
0.8000000000000005,13.500998888530908,0.20354281291289375,-0.5650006318044768,-0.4795416056861355,12.942832,-0.5842914,-0.39106557,-0.2976322,12.821691,-9.5559225,2.272844,0.35408074,-0.27824822,0.27929372,0.8480563,-9.851628,3.9988632,-0.2831021,0.11871977,-0.52137303,-0.5231056,1
0.8100000000000005,13.500998888530908,0.20354281291289375,-0.5650006318044768,-0.4795416056861355,12.942832,-0.5842914,-0.39106557,-0.2976322,12.722997,-9.515501,2.2699692,0.35507342,-0.27803805,0.27570772,0.8488833,-9.887214,4.0854254,-0.29180214,-0.5842914,-0.39106557,-0.2976322,1
0.8200000000000005,13.500998888530908,0.20354281291289375,-0.5650006318044768,-0.4795416056861355,12.942832,-0.5842914,-0.39106557,-0.2976322,12.623946,-9.474216,2.26701,0.35606092,-0.27782384,0.27211767,0.8496978,-9.92307,4.17131,-0.2999588,-0.5842914,-0.39106557,-0.2976322,1
0.8300000000000005,13.500998888530908,0.20354281291289375,-0.5650006318044768,-0.4795416056861355,12.942832,-0.5842914,-0.39106557,-0.2976322,12.524534,-9.432076,2.2639718,0.35704327,-0.27760556,0.2685237,0.8505,-9.959199,4.2565126,-0.30757764,-0.5842914,-0.39106557,-0.2976322,1
0.8400000000000005,13.500998888530908,0.20354281291289375,-0.5650006318044768,-0.4795416056861355,13.202821,-0.31879127,-0.4734464,-0.20050758,12.424761,-9.389089,2.2608602,0.35802037,-0.27738324,0.26492578,0.85128975,-9.995601,4.341029,-0.31466419,-0.5842914,-0.39106557,-0.2976322,1
0.8500000000000005,13.500998888530908,0.20354281291289375,-0.5650006318044768,-0.4795416056861355,13.202821,-0.31879127,-0.4734464,-0.20050758,12.324618,-9.34525,2.2576895,0.3590572,-0.27620304,0.26244202,0.85200584,-10.032889,4.4266005,-0.3193912,-0.31879127,-0.4734464,-0.20050758,1
0.8600000000000005,13.500998888530908,0.20354281291289375,-0.5650006318044768,-0.4795416056861355,13.202821,-0.31879127,-0.4734464,-0.20050758,12.224103,-9.300558,2.2544742,0.3600907,-0.2750203,0.25995585,0.8527142,-10.0701275,4.511626,-0.323601,-0.31879127,-0.4734464,-0.20050758,1
0.8700000000000006,13.500998888530908,0.20354281291289375,-0.5650006318044768,-0.4795416056861355,13.202821,-0.31879127,-0.4734464,-0.20050758,12.123216,-9.255018,2.2512195,0.36112097,-0.27383506,0.2574673,0.85341465,-10.107316,4.596102,-0.32729697,-0.31879127,-0.4734464,-0.20050758,1
0.8800000000000006,13.57448976657971,0.6264900100973008,-0.7493483499879859,-0.46519172361228794,13.361804,0.123426795,-0.50249815,-0.16639256,12.021956,-9.208637,2.2479305,0.3621479,-0.27264732,0.25497645,0.8541073,-10.144455,4.6800265,-0.33048242,-0.31879127,-0.4734464,-0.20050758,1
0.8900000000000006,13.57448976657971,0.6264900100973008,-0.7493483499879859,-0.46519172361228794,13.361804,0.123426795,-0.50249815,-0.16639256,11.920325,-9.161414,2.2446175,0.36366603,-0.27048904,0.25436586,0.85433054,-10.181815,4.764528,-0.3320548,0.123426795,-0.50249815,-0.16639256,1
0.9000000000000006,13.57448976657971,0.6264900100973008,-0.7493483499879859,-0.46519172361228794,13.361804,0.123426795,-0.50249815,-0.16639256,11.818322,-9.113347,2.2412906,0.36518148,-0.26832873,0.2537534,0.85454744,-10.218654,4.8488045,-0.3332316,0.123426795,-0.50249815,-0.16639256,1
0.9100000000000006,13.57448976657971,0.6264900100973008,-0.7493483499879859,-0.46519172361228794,13.361804,0.123426795,-0.50249815,-0.16639256,11.715954,-9.064438,2.237954,0.3666942,-0.26616645,0.2531391,0.854758,-10.2549715,4.9328537,-0.33401498,0.123426795,-0.50249815,-0.16639256,1
0.9200000000000006,13.518080792287682,0.9551576050670555,-0.8943956419085317,-0.46159895160969366,13.513598,0.47455513,-0.48826912,-0.16125292,11.613224,-9.014689,2.2346117,0.36820427,-0.2640022,0.25252292,0.85496235,-10.290769,5.016672,-0.33440712,0.123426795,-0.50249815,-0.16639256,1
0.9300000000000006,13.518080792287682,0.9551576050670555,-0.8943956419085317,-0.46159895160969366,13.513598,0.47455513,-0.48826912,-0.16125292,11.5101385,-8.964099,2.2312727,0.37013426,-0.26124328,0.2534382,0.8547057,-10.326313,5.101317,-0.33334276,0.47455513,-0.48826912,-0.16125292,1
0.9400000000000006,13.518080792287682,0.9551576050670555,-0.8943956419085317,-0.46159895160969366,13.513598,0.47455513,-0.48826912,-0.16125292,11.406702,-8.912662,2.2279458,0.37205973,-0.25848117,0.2543504,0.85443854,-10.360978,5.186015,-0.3320133,0.47455513,-0.48826912,-0.16125292,1
0.9500000000000006,13.518080792287682,0.9551576050670555,-0.8943956419085317,-0.46159895160969366,13.513598,0.47455513,-0.48826912,-0.16125292,11.302923,-8.860377,2.2246337,0.3739806,-0.25571588,0.25525948,0.8541609,-10.394762,5.2707624,-0.33042243,0.47455513,-0.48826912,-0.16125292,1
0.9600000000000006,13.43050720692441,1.0263044769531862,-0.9647049346572459,-0.45710484184791583,13.46108,0.65761167,-0.591149,-0.1704996,11.198811,-8.807246,2.2213385,0.37589693,-0.25294745,0.25616547,0.8538728,-10.427664,5.355553,-0.32857385,0.47455513,-0.48826912,-0.16125292,1
0.9700000000000006,13.43050720692441,1.0263044769531862,-0.9647049346572459,-0.45710484184791583,13.46108,0.65761167,-0.591149,-0.1704996,11.094374,-8.753268,2.2180612,0.37820995,-0.24940348,0.25764373,0.85344905,-10.4594555,5.440079,-0.32685146,0.65761167,-0.591149,-0.1704996,1
0.9800000000000006,13.43050720692441,1.0263044769531862,-0.9647049346572459,-0.45710484184791583,13.46108,0.65761167,-0.591149,-0.1704996,10.989626,-8.698444,2.2148023,0.38051522,-0.24585447,0.25911674,0.853008,-10.490093,5.524709,-0.3248567,0.65761167,-0.591149,-0.1704996,1
0.9900000000000007,13.43050720692441,1.0263044769531862,-0.9647049346572459,-0.45710484184791583,13.46108,0.65761167,-0.591149,-0.1704996,10.884577,-8.642775,2.2115645,0.3828128,-0.24230045,0.2605845,0.8525497,-10.519574,5.6094356,-0.32259616,0.65761167,-0.591149,-0.1704996,1
1.0000000000000007,13.222975486642046,0.9832479211037805,-1.129510751807316,-0.4468458480276382,13.475898,0.7647975,-0.6131573,-0.15265933,10.779238,-8.586256,2.2083511,0.38510263,-0.23874152,0.26204702,0.852074,-10.547898,5.6942496,-0.32007635,0.65761167,-0.591149,-0.1704996,1
1.0100000000000007,13.222975486642046,0.9832479211037805,-1.129510751807316,-0.4468458480276382,13.475898,0.7647975,-0.6131573,-0.15265933,10.673621,-8.528889,2.2051644,0.3874646,-0.23485371,0.26393923,0.85149944,-10.575042,5.779261,-0.31720048,0.7647975,-0.6131573,-0.15265933,1
1.0200000000000007,13.222975486642046,0.9832479211037805,-1.129510751807316,-0.4468458480276382,13.475898,0.7647975,-0.6131573,-0.15265933,10.56774,-8.470671,2.2020078,0.3898171,-0.23096012,0.26582494,0.85090387,-10.600892,5.8644085,-0.31409982,0.7647975,-0.6131573,-0.15265933,1
1.0300000000000007,13.222975486642046,0.9832479211037805,-1.129510751807316,-0.4468458480276382,13.475898,0.7647975,-0.6131573,-0.15265933,10.461608,-8.4116,2.1988833,0.3921599,-0.22706085,0.26770413,0.8502874,-10.625445,5.949682,-0.3107827,0.7647975,-0.6131573,-0.15265933,1
1.0400000000000007,13.222975486642046,0.9832479211037805,-1.129510751807316,-0.4468458480276382,13.546082,0.8162547,-0.5725529,-0.12791854,10.355237,-8.351675,2.195793,0.3944931,-0.223156,0.26957673,0.8496501,-10.648698,6.035073,-0.30725765,0.7647975,-0.6131573,-0.15265933,1
1.0500000000000007,13.222975486642046,0.9832479211037805,-1.129510751807316,-0.4468458480276382,13.546082,0.8162547,-0.5725529,-0.12791854,10.248639,-8.2908945,2.1927416,0.39671403,-0.21928324,0.2717689,0.84892565,-10.670754,6.1210403,-0.3030224,0.8162547,-0.5725529,-0.12791854,1
1.0600000000000007,13.222975486642046,0.9832479211037805,-1.129510751807316,-0.4468458480276382,13.546082,0.8162547,-0.5725529,-0.12791854,10.141828,-8.229254,2.1897333,0.39892495,-0.21540491,0.27395418,0.84817976,-10.691478,6.2071733,-0.29864788,0.8162547,-0.5725529,-0.12791854,1
1.0700000000000007,13.222975486642046,0.9832479211037805,-1.129510751807316,-0.4468458480276382,13.546082,0.8162547,-0.5725529,-0.12791854,10.034814,-8.16675,2.1867692,0.4011258,-0.21152118,0.27613255,0.84741247,-10.710866,6.2934628,-0.2941431,0.8162547,-0.5725529,-0.12791854,1
1.0800000000000007,13.05814435346715,0.753549313033766,-1.0647408820318967,-0.4342851508959478,13.595889,0.7940807,-0.42827716,-0.10509814,9.927614,-8.103383,2.183851,0.4033165,-0.2076321,0.27830395,0.8466238,-10.728918,6.3798976,-0.2895172,0.8162547,-0.5725529,-0.12791854,1
1.0900000000000007,13.05814435346715,0.753549313033766,-1.0647408820318967,-0.4342851508959478,13.595889,0.7940807,-0.42827716,-0.10509814,9.82024,-8.039149,2.1809812,0.4051776,-0.20436195,0.28068975,0.84574276,-10.745743,6.466823,-0.2844399,0.7940807,-0.42827716,-0.10509814,1
1.1000000000000008,13.05814435346715,0.753549313033766,-1.0647408820318967,-0.4342851508959478,13.595889,0.7940807,-0.42827716,-0.10509814,9.712704,-7.9740453,2.178162,0.40703028,-0.20108756,0.28306976,0.8448443,-10.761362,6.5539722,-0.2793617,0.7940807,-0.42827716,-0.10509814,1
1.1100000000000008,13.05814435346715,0.753549313033766,-1.0647408820318967,-0.4342851508959478,13.595889,0.7940807,-0.42827716,-0.10509814,9.605018,-7.908069,2.1753938,0.4088746,-0.19780904,0.2854439,0.8439284,-10.775775,6.6413374,-0.27429017,0.7940807,-0.42827716,-0.10509814,1
1.1200000000000008,12.701077025063968,0.4911223384915296,-1.4862879267623983,-0.4146298542594524,13.507322,0.6988521,-0.3156552,-0.09236175,9.497193,-7.841218,2.172676,0.41071048,-0.19452645,0.28781217,0.8429951,-10.788979,6.72891,-0.2692329,0.7940807,-0.42827716,-0.10509814,0
1.1300000000000008,12.701077025063968,0.4911223384915296,-1.4862879267623983,-0.4146298542594524,13.507322,0.6988521,-0.3156552,-0.09236175,9.389248,-7.7735195,2.169976,0.41506118,-0.18784362,0.28641737,0.8428549,-10.800003,6.810539,-0.27065527,0.49112234,-1.486288,-0.41462985,0
1.1400000000000008,12.701077025063968,0.4911223384915296,-1.4862879267623983,-0.4146298542594524,13.507322,0.6988521,-0.3156552,-0.09236175,9.2812,-7.7050095,2.167266,0.41938466,-0.18114845,0.28500378,0.8426594,-10.809421,6.89136,-0.27123252,0.49112234,-1.486288,-0.41462985,0
1.1500000000000008,12.701077025063968,0.4911223384915296,-1.4862879267623983,-0.4146298542594524,13.507322,0.6988521,-0.3156552,-0.09236175,9.173066,-7.6356955,2.1645544,0.4236806,-0.17444143,0.28357154,0.8424086,-10.817231,6.9713483,-0.2709845,0.49112234,-1.486288,-0.41462985,0
1.1600000000000008,12.504681277280067,0.19858697058346622,-1.0859761122367706,-0.3612837821845692,13.219923,0.56625295,-0.5380995,-0.12434874,9.064862,-7.5655856,2.1618495,0.4279488,-0.16772297,0.2821207,0.8421027,-10.82344,7.050478,-0.26993138,0.49112234,-1.486288,-0.41462985,1
1.1700000000000008,12.504681277280067,0.19858697058346622,-1.0859761122367706,-0.3612837821845692,13.219923,0.56625295,-0.5380995,-0.12434874,8.956601,-7.494672,2.1591785,0.42970297,-0.16441977,0.28324702,0.8414826,-10.828478,7.132236,-0.2642679,0.56625295,-0.5380995,-0.12434874,1
1.1800000000000008,12.504681277280067,0.19858697058346622,-1.0859761122367706,-0.3612837821845692,13.219923,0.56625295,-0.5380995,-0.12434874,8.848295,-7.422941,2.1565647,0.43145037,-0.16111399,0.28436893,0.8408493,-10.832497,7.213898,-0.2584848,0.56625295,-0.5380995,-0.12434874,1
1.1900000000000008,12.504681277280067,0.19858697058346622,-1.0859761122367706,-0.3612837821845692,13.219923,0.56625295,-0.5380995,-0.12434874,8.739954,-7.3503942,2.1540093,0.43319103,-0.1578057,0.2854864,0.8402028,-10.835493,7.2954593,-0.25258762,0.56625295,-0.5380995,-0.12434874,1
1.2000000000000008,12.112330229210835,-0.10135009983312505,-1.3457451547292438,-0.31032096133175785,13.232529,0.4076622,-0.24611977,-0.09445021,8.631589,-7.2770324,2.1515133,0.43492493,-0.15449493,0.28659937,0.83954316,-10.837467,7.3769126,-0.24658193,0.56625295,-0.5380995,-0.12434874,0
1.2100000000000009,12.112330229210835,-0.10135009983312505,-1.3457451547292438,-0.31032096133175785,13.232529,0.4076622,-0.24611977,-0.09445021,8.523209,-7.2028913,2.1490352,0.4380673,-0.1495073,0.2830009,0.840033,-10.838379,7.451063,-0.2489135,-0.1013501,-1.3457452,-0.31032097,0
1.2200000000000009,12.112330229210835,-0.10135009983312505,-1.3457451547292438,-0.31032096133175785,13.232529,0.4076622,-0.24611977,-0.09445021,8.4148245,-7.128015,2.146538,0.44118863,-0.1445125,0.27938884,0.84048253,-10.83846,7.524098,-0.25038722,-0.1013501,-1.3457452,-0.31032097,0
1.2300000000000009,12.112330229210835,-0.10135009983312505,-1.3457451547292438,-0.31032096133175785,13.232529,0.4076622,-0.24611977,-0.09445021,8.306443,-7.052414,2.14403,0.44428885,-0.13951078,0.2757634,0.8408918,-10.837713,7.5960016,-0.25101912,-0.1013501,-1.3457452,-0.31032097,0
1.2400000000000009,12.112330229210835,-0.10135009983312505,-1.3457451547292438,-0.31032096133175785,12.924605,0.22467184,-0.28719804,-0.08973823,8.198073,-6.976099,2.1415203,0.44736773,-0.13450237,0.2721247,0.84126073,-10.836144,7.666759,-0.25082543,-0.1013501,-1.3457452,-0.31032097,0
1.2500000000000009,12.112330229210835,-0.10135009983312505,-1.3457451547292438,-0.31032096133175785,12.924605,0.22467184,-0.28719804,-0.08973823,8.089723,-6.8990827,2.1390166,0.45042515,-0.12948751,0.26847303,0.84158933,-10.833758,7.736355,-0.24982251,-0.1013501,-1.3457452,-0.31032097,0
1.260000000000001,12.112330229210835,-0.10135009983312505,-1.3457451547292438,-0.31032096133175785,12.924605,0.22467184,-0.28719804,-0.08973823,7.9814005,-6.821376,2.1365268,0.453461,-0.12446645,0.26480848,0.84187764,-10.83056,7.8047743,-0.24802689,-0.1013501,-1.3457452,-0.31032097,0
1.270000000000001,12.112330229210835,-0.10135009983312505,-1.3457451547292438,-0.31032096133175785,12.924605,0.22467184,-0.28719804,-0.08973823,7.873114,-6.7429914,2.1340585,0.4564751,-0.11943941,0.26113117,0.84212554,-10.826552,7.8720036,-0.24545524,-0.1013501,-1.3457452,-0.31032097,0
1.280000000000001,12.022467540553876,-0.14799617709304566,-0.7382167945201791,-0.22961701277363789,12.741746,0.25921744,-0.45365426,-0.09278029,7.7648726,-6.6639404,2.1316197,0.45946738,-0.114406645,0.2574414,0.8423331,-10.821742,7.938029,-0.24212438,-0.1013501,-1.3457452,-0.31032097,1
1.290000000000001,12.022467540553876,-0.14799617709304566,-0.7382167945201791,-0.22961701277363789,12.741746,0.25921744,-0.45365426,-0.09278029,7.656684,-6.584217,2.129244,0.46058875,-0.112019524,0.25743696,0.8420428,-10.815934,8.006585,-0.23297982,0.25921744,-0.45365426,-0.09278029,1
1.300000000000001,12.022467540553876,-0.14799617709304566,-0.7382167945201791,-0.22961701277363789,12.741746,0.25921744,-0.45365426,-0.09278029,7.5485563,-6.50381,2.1269605,0.46170688,-0.10963161,0.2574307,0.8417466,-10.809532,8.074874,-0.22369792,0.25921744,-0.45365426,-0.09278029,1
1.310000000000001,12.022467540553876,-0.14799617709304566,-0.7382167945201791,-0.22961701277363789,12.741746,0.25921744,-0.45365426,-0.09278029,7.440495,-6.422721,2.1247706,0.46282175,-0.107242934,0.25742263,0.8414445,-10.802538,8.142892,-0.21428129,0.25921744,-0.45365426,-0.09278029,1
1.320000000000001,11.73243290125929,-0.2627737842324364,-0.45392171703737694,-0.15331014091713555,12.863007,0.12272182,-0.5440284,-0.05726026,7.3325067,-6.340953,2.1226757,0.46393338,-0.104853496,0.25741273,0.84113646,-10.7949505,8.210637,-0.20473258,0.25921744,-0.45365426,-0.09278029,0
1.330000000000001,11.73243290125929,-0.2627737842324364,-0.45392171703737694,-0.15331014091713555,12.863007,0.12272182,-0.5440284,-0.05726026,7.2245936,-6.258536,2.1206343,0.4650229,-0.10375093,0.25517327,0.8413539,-10.787611,8.272662,-0.20351471,-0.26277378,-0.4539217,-0.15331014,0
1.340000000000001,11.73243290125929,-0.2627737842324364,-0.45392171703737694,-0.15331014091713555,12.863007,0.12272182,-0.5440284,-0.05726026,7.1167545,-6.1755013,2.1186068,0.46610892,-0.10264759,0.2529319,0.841565,-10.780237,8.334164,-0.20197453,-0.26277378,-0.4539217,-0.15331014,0
1.350000000000001,11.73243290125929,-0.2627737842324364,-0.45392171703737694,-0.15331014091713555,12.863007,0.12272182,-0.5440284,-0.05726026,7.008989,-6.0918546,2.116596,0.46719146,-0.10154348,0.25068867,0.8417699,-10.772833,8.39514,-0.20011467,-0.26277378,-0.4539217,-0.15331014,0
1.360000000000001,11.498077200965607,-0.38654981152110024,-0.47139050406858074,-0.08502264063392735,12.568271,-0.08507067,-0.44296,-0.035772733,6.9012976,-6.007601,2.1146054,0.46827054,-0.1004386,0.2484436,0.8419685,-10.765398,8.455589,-0.19793782,-0.26277378,-0.4539217,-0.15331014,0
1.370000000000001,11.498077200965607,-0.38654981152110024,-0.47139050406858074,-0.08502264063392735,12.568271,-0.08507067,-0.44296,-0.035772733,6.79368,-5.9227514,2.1126282,0.4690177,-0.099464305,0.24566872,0.8424823,-10.7581215,8.514284,-0.19743575,-0.3865498,-0.47139052,-0.08502264,0
1.380000000000001,11.498077200965607,-0.38654981152110024,-0.47139050406858074,-0.08502264063392735,12.568271,-0.08507067,-0.44296,-0.035772733,6.686135,-5.8373175,2.110658,0.46976042,-0.09848908,0.24289152,0.8429882,-10.750925,8.572384,-0.19657497,-0.3865498,-0.47139052,-0.08502264,0
1.390000000000001,11.498077200965607,-0.38654981152110024,-0.47139050406858074,-0.08502264063392735,12.568271,-0.08507067,-0.44296,-0.035772733,6.5786614,-5.7513056,2.108698,0.47049868,-0.09751292,0.240112,0.8434861,-10.74381,8.629884,-0.19535917,-0.3865498,-0.47139052,-0.08502264,0
1.400000000000001,11.353941728227209,-0.3498485950964688,-0.5265791422897966,-0.013175184126768665,12.506369,-0.14252646,-1.0334369,-0.026718095,6.4712586,-5.6647215,2.1067517,0.4712325,-0.09653584,0.23733023,0.84397596,-10.736775,8.686784,-0.19379203,-0.3865498,-0.47139052,-0.08502264,0
1.410000000000001,11.353941728227209,-0.3498485950964688,-0.5265791422897966,-0.013175184126768665,12.506369,-0.14252646,-1.0334369,-0.026718095,6.3639255,-5.5775757,2.104817,0.47174177,-0.09515319,0.23460566,0.84461004,-10.729885,8.742362,-0.19312678,-0.3498486,-0.52657914,-0.013175184,0
1.420000000000001,11.353941728227209,-0.3498485950964688,-0.5265791422897966,-0.013175184126768665,12.506369,-0.14252646,-1.0334369,-0.026718095,6.256661,-5.4898767,2.1028905,0.47224626,-0.09376959,0.23187874,0.84523565,-10.723009,8.797315,-0.19211087,-0.3498486,-0.52657914,-0.013175184,0
1.430000000000001,11.353941728227209,-0.3498485950964688,-0.5265791422897966,-0.013175184126768665,12.506369,-0.14252646,-1.0334369,-0.026718095,6.149465,-5.4016314,2.100976,0.4727461,-0.09238505,0.22914952,0.8458528,-10.7161455,8.85164,-0.1907482,-0.3498486,-0.52657914,-0.013175184,0
1.440000000000001,11.353941728227209,-0.3498485950964688,-0.5265791422897966,-0.013175184126768665,12.504974,-0.15573898,-1.2596794,0.06862089,6.042338,-5.312846,2.0990767,0.47324118,-0.090999596,0.22641799,0.84646153,-10.709296,8.905334,-0.18904278,-0.3498486,-0.52657914,-0.013175184,0
1.450000000000001,11.353941728227209,-0.3498485950964688,-0.5265791422897966,-0.013175184126768665,12.504974,-0.15573898,-1.2596794,0.06862089,5.9352794,-5.223527,2.097196,0.4737315,-0.08961323,0.2236842,0.84706175,-10.702462,8.958397,-0.18699859,-0.3498486,-0.52657914,-0.013175184,0
1.460000000000001,11.353941728227209,-0.3498485950964688,-0.5265791422897966,-0.013175184126768665,12.504974,-0.15573898,-1.2596794,0.06862089,5.8282895,-5.133681,2.0953376,0.47421715,-0.08822596,0.22094819,0.84765357,-10.695643,9.010824,-0.18461962,-0.3498486,-0.52657914,-0.013175184,0
1.470000000000001,11.353941728227209,-0.3498485950964688,-0.5265791422897966,-0.013175184126768665,12.504974,-0.15573898,-1.2596794,0.06862089,5.7213664,-5.043313,2.093505,0.47469804,-0.08683782,0.21820997,0.84823686,-10.68884,9.062614,-0.1819099,-0.3498486,-0.52657914,-0.013175184,0
1.480000000000001,11.25988101936792,-0.3499126740920435,-0.3610889589442964,0.04726526782518666,12.382148,-0.10367042,-1.3275882,0.06084642,5.614512,-4.9524307,2.0917006,0.47517416,-0.08544881,0.21546955,0.8488117,-10.682052,9.113766,-0.17887346,-0.3498486,-0.52657914,-0.013175184,0
1.490000000000001,11.25988101936792,-0.3499126740920435,-0.3610889589442964,0.04726526782518666,12.382148,-0.10367042,-1.3275882,0.06084642,5.507725,-4.861042,2.089924,0.47521156,-0.08469648,0.21314612,0.8494525,-10.675371,9.163912,-0.17637911,-0.34991267,-0.36108896,0.04726527,0
1.500000000000001,11.25988101936792,-0.3499126740920435,-0.3610889589442964,0.04726526782518666,12.382148,-0.10367042,-1.3275882,0.06084642,5.401004,-4.7691545,2.0881739,0.47524595,-0.08394361,0.21082132,0.85008794,-10.668806,9.213564,-0.1736326,-0.34991267,-0.36108896,0.04726527,0
1.5100000000000011,11.25988101936792,-0.3499126740920435,-0.3610889589442964,0.04726526782518666,12.382148,-0.10367042,-1.3275882,0.06084642,5.294348,-4.6767726,2.0864525,0.4752773,-0.08319021,0.20849517,0.85071796,-10.662356,9.262722,-0.1706365,-0.34991267,-0.36108896,0.04726527,0
1.5200000000000011,11.116928465295155,-0.33118996360255176,-0.5560691197209793,0.11583735706422792,12.614735,-0.18918175,-1.8500782,0.14819217,5.187756,-4.583902,2.084762,0.47530562,-0.08243628,0.2061677,0.85134256,-10.656022,9.311383,-0.16739334,-0.34991267,-0.36108896,0.04726527,0
1.5300000000000011,11.116928465295155,-0.33118996360255176,-0.5560691197209793,0.11583735706422792,12.614735,-0.18918175,-1.8500782,0.14819217,5.081227,-4.49055,2.0830991,0.47524667,-0.08073648,0.20348305,0.8521838,-10.649831,9.358876,-0.1651704,-0.33118996,-0.55606914,0.11583736,0
1.5400000000000011,11.116928465295155,-0.33118996360255176,-0.5560691197209793,0.11583735706422792,12.614735,-0.18918175,-1.8500782,0.14819217,4.9747596,-4.3967266,2.0814598,0.4751826,-0.07903581,0.20079619,0.85301596,-10.64362,9.405717,-0.16264285,-0.33118996,-0.55606914,0.11583736,0
1.5500000000000012,11.116928465295155,-0.33118996360255176,-0.5560691197209793,0.11583735706422792,12.614735,-0.18918175,-1.8500782,0.14819217,4.8683543,-4.3024383,2.079847,0.47511336,-0.07733429,0.19810715,0.85383886,-10.637386,9.451903,-0.159815,-0.33118996,-0.55606914,0.11583736,0
1.5600000000000012,11.016522853067158,-0.3668961616913258,-0.2972359378822935,0.17201084515673365,12.588131,-0.1963,-1.9852146,0.23102856,4.762012,-4.207691,2.0782642,0.475039,-0.07563194,0.19541597,0.85465246,-10.631132,9.497434,-0.1566911,-0.33118996,-0.55606914,0.11583736,0
1.5700000000000012,11.016522853067158,-0.3668961616913258,-0.2972359378822935,0.17201084515673365,12.588131,-0.1963,-1.9852146,0.23102856,4.655731,-4.112494,2.0767095,0.47445413,-0.07506492,0.19320658,0.85552925,-10.624982,9.541981,-0.15422189,-0.36689615,-0.29723594,0.17201084,0
1.5800000000000012,11.016522853067158,-0.3668961616913258,-0.2972359378822935,0.17201084515673365,12.588131,-0.1963,-1.9852146,0.23102856,4.549511,-4.016854,2.0751803,0.47386625,-0.074497424,0.19099595,0.8564006,-10.618996,9.586079,-0.15154548,-0.36689615,-0.29723594,0.17201084,0
1.5900000000000012,11.016522853067158,-0.3668961616913258,-0.2972359378822935,0.17201084515673365,12.588131,-0.1963,-1.9852146,0.23102856,4.4433503,-3.9207745,2.0736792,0.4732754,-0.07392945,0.18878411,0.8572666,-10.613172,9.629726,-0.14866406,-0.36689615,-0.29723594,0.17201084,0
1.6000000000000012,10.887483135493795,-0.41739402172973067,-0.4786760334894002,0.23560691475019008,12.652543,-0.2642022,-2.291894,0.2835453,4.337247,-3.8242607,2.0722077,0.47268155,-0.07336102,0.18657108,0.8581271,-10.607511,9.672924,-0.14557981,-0.36689615,-0.29723594,0.17201084,0
1.6100000000000012,10.887483135493795,-0.41739402172973067,-0.4786760334894002,0.23560691475019008,12.652543,-0.2642022,-2.291894,0.2835453,4.2311993,-3.72732,2.0707624,0.47196138,-0.07207345,0.18373422,0.859244,-10.602053,9.715101,-0.14345509,-0.417394,-0.47867602,0.23560691,0
1.6200000000000012,10.887483135493795,-0.41739402172973067,-0.4786760334894002,0.23560691475019008,12.652543,-0.2642022,-2.291894,0.2835453,4.125205,-3.6299608,2.0693398,0.47123578,-0.07078507,0.18089528,0.860351,-10.596691,9.756648,-0.14106235,-0.417394,-0.47867602,0.23560691,0
1.6300000000000012,10.887483135493795,-0.41739402172973067,-0.4786760334894002,0.23560691475019008,12.652543,-0.2642022,-2.291894,0.2835453,4.019264,-3.5321891,2.0679421,0.4705048,-0.06949587,0.17805427,0.86144817,-10.591426,9.797563,-0.13840564,-0.417394,-0.47867602,0.23560691,0
1.6400000000000012,10.887483135493795,-0.41739402172973067,-0.4786760334894002,0.23560691475019008,12.658497,-0.2959649,-2.4937913,0.3582086,3.9133759,-3.4340115,2.0665724,0.4697684,-0.06820588,0.17521122,0.8625354,-10.586255,9.837844,-0.13548902,-0.417394,-0.47867602,0.23560691,0
1.6500000000000012,10.887483135493795,-0.41739402172973067,-0.4786760334894002,0.23560691475019008,12.658497,-0.2959649,-2.4937913,0.3582086,3.8075387,-3.3354342,2.065233,0.46902663,-0.0669151,0.17236614,0.8636128,-10.581178,9.877489,-0.13231654,-0.417394,-0.47867602,0.23560691,0
1.6600000000000013,10.887483135493795,-0.41739402172973067,-0.4786760334894002,0.23560691475019008,12.658497,-0.2959649,-2.4937913,0.3582086,3.701752,-3.236464,2.063927,0.46827945,-0.06562356,0.1695191,0.86468023,-10.576192,9.916498,-0.1288923,-0.417394,-0.47867602,0.23560691,0
1.6700000000000013,10.887483135493795,-0.41739402172973067,-0.4786760334894002,0.23560691475019008,12.658497,-0.2959649,-2.4937913,0.3582086,3.5960147,-3.1371067,2.0626562,0.4675269,-0.06433126,0.16667011,0.86573774,-10.571296,9.954866,-0.12522037,-0.417394,-0.47867602,0.23560691,0
1.6800000000000013,10.815108290480442,-0.49152420917861883,-0.4463906531470299,0.29074460995506163,12.632099,-0.27947912,-2.5849388,0.40631142,3.490326,-3.037369,2.0614233,0.466769,-0.06303823,0.16381922,0.86678535,-10.566488,9.992594,-0.12130485,-0.417394,-0.47867602,0.23560691,0
1.6900000000000013,10.815108290480442,-0.49152420917861883,-0.4463906531470299,0.29074460995506163,12.632099,-0.27947912,-2.5849388,0.40631142,3.3846846,-2.9372582,2.0602274,0.46571657,-0.062012188,0.16073775,0.8680015,-10.561831,10.029428,-0.11782628,-0.49152422,-0.44639066,0.2907446,0
1.7000000000000013,10.815108290480442,-0.49152420917861883,-0.4463906531470299,0.29074460995506163,12.632099,-0.27947912,-2.5849388,0.40631142,3.2790887,-2.8367827,2.0590677,0.46465805,-0.06098533,0.15765418,0.86920625,-10.557346,10.065608,-0.11410529,-0.49152422,-0.44639066,0.2907446,0
1.7100000000000013,10.815108290480442,-0.49152420917861883,-0.4463906531470299,0.29074460995506163,12.632099,-0.27947912,-2.5849388,0.40631142,3.173537,-2.7359486,2.0579464,0.46359342,-0.059957672,0.15456854,0.87039953,-10.55303,10.101132,-0.11014628,-0.49152422,-0.44639066,0.2907446,0
1.7200000000000013,10.692371958013181,-0.6061922812786245,-0.4085092241840057,0.35966953592544976,12.880337,-0.35720637,-2.964475,0.46326384,3.0680277,-2.6347625,2.0568655,0.4625227,-0.05892923,0.15148087,0.8715814,-10.548882,10.135998,-0.10595364,-0.49152422,-0.44639066,0.2907446,0
1.7300000000000013,10.692371958013181,-0.6061922812786245,-0.4085092241840057,0.35966953592544976,12.880337,-0.35720637,-2.964475,0.46326384,2.9625587,-2.5332332,2.0558221,0.46108228,-0.058277972,0.14799915,0.8729854,-10.54499,10.169802,-0.10268944,-0.6061923,-0.40850922,0.35966954,0
1.7400000000000013,10.692371958013181,-0.6061922812786245,-0.4085092241840057,0.35966953592544976,12.880337,-0.35720637,-2.964475,0.46326384,2.8571272,-2.431369,2.0548127,0.45963416,-0.05762575,0.14451496,0.874375,-10.541383,10.202919,-0.09918787,-0.6061923,-0.40850922,0.35966954,0
1.7500000000000013,10.692371958013181,-0.6061922812786245,-0.4085092241840057,0.35966953592544976,12.880337,-0.35720637,-2.964475,0.46326384,2.7517302,-2.3291771,2.0538392,0.45817843,-0.05697257,0.14102839,0.87575006,-10.538058,10.235345,-0.09545415,-0.6061923,-0.40850922,0.35966954,0
1.7600000000000013,10.608855927402871,-0.7399318766092495,-0.5262097772529185,0.4217561101697343,12.743001,-0.32515126,-2.8512135,0.5231093,2.6463654,-2.2266645,2.0529041,0.45671514,-0.056318443,0.13753946,0.8771106,-10.535015,10.267077,-0.091493465,-0.6061923,-0.40850922,0.35966954,0
1.7700000000000014,10.608855927402871,-0.7399318766092495,-0.5262097772529185,0.4217561101697343,12.743001,-0.32515126,-2.8512135,0.5231093,2.5410292,-2.1238396,2.0520062,0.4550133,-0.05540967,0.13320987,0.8787198,-10.532288,10.297807,-0.08808968,-0.7399319,-0.5262098,0.42175612,0
1.7800000000000014,10.608855927402871,-0.7399318766092495,-0.5262097772529185,0.4217561101697343,12.743001,-0.32515126,-2.8512135,0.5231093,2.4357185,-2.0207114,2.0511434,0.45330006,-0.054499514,0.12887694,0.8803069,-10.529877,10.327666,-0.08441866,-0.7399319,-0.5262098,0.42175612,0
1.7900000000000014,10.608855927402871,-0.7399318766092495,-0.5262097772529185,0.4217561101697343,12.743001,-0.32515126,-2.8512135,0.5231093,2.3304305,-1.917289,2.0503187,0.45157546,-0.053587988,0.12454078,0.881872,-10.527778,10.356651,-0.08048852,-0.7399319,-0.5262098,0.42175612,0
1.8000000000000014,10.512239449091192,-0.8432274170448931,-0.6390883959960049,0.4983454549004779,12.788006,-0.42671055,-3.0938518,0.5792526,2.225162,-1.8135813,2.0495343,0.44983956,-0.052675117,0.120201506,0.8834149,-10.525988,10.38476,-0.07630737,-0.7399319,-0.5262098,0.42175612,0
1.8100000000000014,10.512239449091192,-0.8432274170448931,-0.6390883959960049,0.4983454549004779,12.788006,-0.42671055,-3.0938518,0.5792526,2.1199098,-1.7095984,2.0487885,0.44779265,-0.051448397,0.1151687,0.8851958,-10.524522,10.411681,-0.07280171,-0.84322745,-0.6390884,0.49834546,0
1.8200000000000014,10.512239449091192,-0.8432274170448931,-0.6390883959960049,0.4983454549004779,12.788006,-0.42671055,-3.0938518,0.5792526,2.0146704,-1.6053513,2.048079,0.44573045,-0.050219923,0.11013195,0.8869464,-10.523372,10.437571,-0.069024295,-0.84322745,-0.6390884,0.49834546,0
1.8300000000000014,10.512239449091192,-0.8432274170448931,-0.6390883959960049,0.4983454549004779,12.788006,-0.42671055,-3.0938518,0.5792526,1.9094411,-1.5008504,2.0474086,0.443653,-0.048989728,0.10509144,0.8886666,-10.5225315,10.462423,-0.06498619,-0.84322745,-0.6390884,0.49834546,0
1.8400000000000014,10.512239449091192,-0.8432274170448931,-0.6390883959960049,0.4983454549004779,12.780522,-0.4527765,-3.1239815,0.64178586,1.8042186,-1.3961064,2.0467799,0.44156036,-0.047757857,0.10004733,0.89035654,-10.521996,10.486238,-0.060698524,-0.84322745,-0.6390884,0.49834546,0
1.8500000000000014,10.512239449091192,-0.8432274170448931,-0.6390883959960049,0.4983454549004779,12.780522,-0.4527765,-3.1239815,0.64178586,1.6990001,-1.2911294,2.0461953,0.43945265,-0.046524353,0.0949998,0.89201593,-10.521759,10.509007,-0.05617244,-0.84322745,-0.6390884,0.49834546,0
1.8600000000000014,10.512239449091192,-0.8432274170448931,-0.6390883959960049,0.4983454549004779,12.780522,-0.4527765,-3.1239815,0.64178586,1.5937825,-1.1859299,2.045657,0.4373299,-0.04528926,0.08994902,0.8936448,-10.521817,10.530729,-0.051419113,-0.84322745,-0.6390884,0.49834546,0
1.8700000000000014,10.512239449091192,-0.8432274170448931,-0.6390883959960049,0.4983454549004779,12.780522,-0.4527765,-3.1239815,0.64178586,1.4885628,-1.0805184,2.0451672,0.4351922,-0.044052616,0.084895164,0.89524317,-10.522163,10.551399,-0.04644975,-0.84322745,-0.6390884,0.49834546,0
1.8800000000000014,10.470502806306458,-0.969974323949438,-0.3520456679795978,0.5445641439053743,12.828525,-0.5453157,-3.116702,0.6256834,1.3833383,-0.9749055,2.0447285,0.4330396,-0.04281447,0.0798384,0.89681095,-10.522793,10.571012,-0.041275606,-0.84322745,-0.6390884,0.49834546,0
1.8900000000000015,10.470502806306458,-0.969974323949438,-0.3520456679795978,0.5445641439053743,12.828525,-0.5453157,-3.116702,0.6256834,1.2781057,-0.86910206,2.0443401,0.43052328,-0.043117948,0.07484198,0.89843744,-10.523806,10.589547,-0.03632981,-0.96997434,-0.35204566,0.5445641,0
1.9000000000000015,10.470502806306458,-0.969974323949438,-0.3520456679795978,0.5445641439053743,12.828525,-0.5453157,-3.116702,0.6256834,1.1728601,-0.7631178,2.0440023,0.4279923,-0.04341996,0.069843024,0.9000332,-10.525381,10.607174,-0.031231532,-0.96997434,-0.35204566,0.5445641,0
1.9100000000000015,10.470502806306458,-0.969974323949438,-0.3520456679795978,0.5445641439053743,12.828525,-0.5453157,-3.116702,0.6256834,1.0675961,-0.65696186,2.0437162,0.42544678,-0.043720495,0.06484168,0.9015984,-10.527513,10.623886,-0.025991164,-0.96997434,-0.35204566,0.5445641,0
1.9200000000000015,10.410969198368816,-1.0711108949584278,-0.8204101974653987,0.6405382770060992,12.74055,-0.60732114,-2.8210232,0.5643476,0.962308,-0.5506433,2.043483,0.42288676,-0.04401954,0.05983813,0.90313286,-10.530197,10.639678,-0.020619133,-0.96997434,-0.35204566,0.5445641,0
1.9300000000000015,10.410969198368816,-1.0711108949584278,-0.8204101974653987,0.6405382770060992,12.74055,-0.60732114,-2.8210232,0.5643476,0.85699064,-0.44417238,2.0433013,0.41999224,-0.042386778,0.053406022,0.9049631,-10.533321,10.654298,-0.015689159,-1.0711108,-0.8204102,0.6405383,0
1.9400000000000015,10.410969198368816,-1.0711108949584278,-0.8204101974653987,0.6405382770060992,12.74055,-0.60732114,-2.8210232,0.5643476,0.7516405,-0.33756202,2.0431697,0.4170743,-0.040751655,0.046970934,0.90674275,-10.53675,10.667558,-0.010584977,-1.0711108,-0.8204102,0.6405383,0
1.9500000000000015,10.410969198368816,-1.0711108949584278,-0.8204101974653987,0.6405382770060992,12.74055,-0.60732114,-2.8210232,0.5643476,0.6462546,-0.2308259,2.04309,0.4141331,-0.039114255,0.04053323,0.9084719,-10.540475,10.679452,-0.005324846,-1.0711108,-0.8204102,0.6405383,0
1.9600000000000015,10.4010629634526,-1.1948833156744882,-0.5741704531847246,0.6866870873118182,12.563612,-0.84555167,-2.3880181,0.5510684,0.5408301,-0.123977676,2.0430636,0.4111688,-0.03747468,0.034093264,0.9101504,-10.544483,10.689979,7.29484e-05,-1.0711108,-0.8204102,0.6405383,0
1.9700000000000015,10.4010629634526,-1.1948833156744882,-0.5741704531847246,0.6866870873118182,12.563612,-0.84555167,-2.3880181,0.5510684,0.43536374,-0.017030977,2.0430913,0.4079064,-0.037200164,0.027603019,0.911848,-10.548864,10.6991625,0.005483851,-1.1948833,-0.5741705,0.6866871,0
1.9800000000000015,10.4010629634526,-1.1948833156744882,-0.5741704531847246,0.6866870873118182,12.563612,-0.84555167,-2.3880181,0.5510684,0.32985094,0.09000122,2.0431736,0.4046213,-0.03692358,0.021111235,0.9134948,-10.553776,10.707078,0.010975745,-1.1948833,-0.5741705,0.6866871,0
1.9900000000000015,10.4010629634526,-1.1948833156744882,-0.5741704531847246,0.6866870873118182,12.563612,-0.84555167,-2.3880181,0.5510684,0.2242864,0.19710618,2.0433109,0.40131366,-0.036644936,0.014618276,0.91509074,-10.55921,10.713718,0.016531117,-1.1948833,-0.5741705,0.6866871,0
2.0000000000000013,10.408615003800122,-1.226272177137533,-0.9806825574610208,0.7647993488196034,12.5720005,-0.9531296,-1.9517442,0.60201466,0.11866498,0.30427116,2.0435042,0.39798364,-0.03636425,0.008124501,0.9166357,-10.565155,10.719079,0.022132438,-1.1948833,-0.5741705,0.6866871,0
2.010000000000001,10.408615003800122,-1.226272177137533,-0.9806825574610208,0.7647993488196034,12.5720005,-0.9531296,-1.9517442,0.60201466,0.012981836,0.411483,2.0437539,0.39428017,-0.034277357,0.0006916402,0.9183507,-10.571508,10.723035,0.027848125,-1.2262722,-0.98068255,0.76479936,0
2.020000000000001,10.408615003800122,-1.226272177137533,-0.9806825574610208,0.7647993488196034,12.5720005,-0.9531296,-1.9517442,0.60201466,-0.09276597,0.5187263,2.0440614,0.39054662,-0.032187853,-0.006741273,0.91999567,-10.578087,10.725373,0.03359885,-1.2262722,-0.98068255,0.76479936,0
2.0300000000000007,10.408615003800122,-1.226272177137533,-0.9806825574610208,0.7647993488196034,12.5720005,-0.9531296,-1.9517442,0.60201466,-0.19858064,0.62598485,2.0444262,0.3867833,-0.030095894,-0.014173672,0.92157054,-10.584877,10.726091,0.03935983,-1.2262722,-0.98068255,0.76479936,0
2.0400000000000005,10.408615003800122,-1.226272177137533,-0.9806825574610208,0.7647993488196034,12.5720005,-0.9531296,-1.9517442,0.60201466,-0.3044642,0.7332425,2.0448482,0.38299048,-0.02800164,-0.02160499,0.92307514,-10.591864,10.725186,0.045106277,-1.2262722,-0.98068255,0.76479936,0
2.0500000000000003,10.408615003800122,-1.226272177137533,-0.9806825574610208,0.7647993488196034,12.622965,-0.9818738,-1.6126704,0.6691805,-0.4104185,0.840483,2.0453274,0.37916845,-0.025905252,-0.02903466,0.9245093,-10.599033,10.722659,0.050813418,-1.2262722,-0.98068255,0.76479936,0
2.06,10.408615003800122,-1.226272177137533,-0.9806825574610208,0.7647993488196034,12.622965,-0.9818738,-1.6126704,0.6691805,-0.51644546,0.9476901,2.0458639,0.37531754,-0.023806885,-0.036462113,0.92587304,-10.606373,10.718507,0.056456476,-1.2262722,-0.98068255,0.76479936,0
2.07,10.408615003800122,-1.226272177137533,-0.9806825574610208,0.7647993488196034,12.622965,-0.9818738,-1.6126704,0.6691805,-0.62254655,1.0548476,2.0464563,0.371438,-0.021706706,-0.043886792,0.9271661,-10.613867,10.712729,0.0620107,-1.2262722,-0.98068255,0.76479936,0
2.0799999999999996,10.408615003800122,-1.226272177137533,-0.9806825574610208,0.7647993488196034,12.622965,-0.9818738,-1.6126704,0.6691805,-0.7287233,1.1619391,2.0471036,0.36753014,-0.01960487,-0.051308125,0.9283885,-10.621501,10.705328,0.06745136,-1.2262722,-0.98068255,0.76479936,0
2.0899999999999994,10.487382061558481,-1.216769175410539,-1.4637091992413516,0.8688885212762526,12.48577,-0.8972907,-1.1720966,0.7164036,-0.83497703,1.2689486,2.0478046,0.36359423,-0.017501539,-0.058725543,0.92954004,-10.62926,10.696303,0.07275377,-1.2262722,-0.98068255,0.76479936,0
2.099999999999999,10.487382061558481,-1.216769175410539,-1.4637091992413516,0.8688885212762526,12.48577,-0.8972907,-1.1720966,0.7164036,-0.9413088,1.3758588,2.0485618,0.35899985,-0.01316496,-0.0669623,0.93083954,-10.637049,10.685449,0.07867184,-1.2167692,-1.4637092,0.8688885,0
2.109999999999999,10.487382061558481,-1.216769175410539,-1.4637091992413516,0.8688885212762526,12.48577,-0.8972907,-1.1720966,0.7164036,-1.0477171,1.4826508,2.0493774,0.35436618,-0.008826939,-0.07519173,0.93203723,-10.644551,10.67263,0.084387116,-1.2167692,-1.4637092,0.8688885,0
