time-since-start [s],throttle_mpc,roll_mpc,pitch_mpc,yaw_mpc,throttle_nw,roll_nw,pitch_nw,yaw_nw,position_x [m],position_y [m],position_z [m],rotation_w [quaternion],rotation_x [quaternion],rotation_y [quaternion],rotation_z [quaternion],velocity_x [m/s],velocity_y [m/s],velocity_z [m/s],omega_x [rad/s],omega_y [rad/s],omega_z [rad/s],network_used
0.0,7.628857501570857,-0.6878014517316768,-5.444545841173623,0.1277681677573205,10.1830845,-0.8638358,-0.0888498,-0.3708711,13.21693,-12.155018,1.0673448,0.28637874,-0.44752774,0.21027036,0.8206659,-1.4196247,1.4252394,0.20125002,0.025093222,0.070338935,-0.013706389,0
0.01,7.628857501570857,-0.6878014517316768,-5.444545841173623,0.1277681677573205,10.52305,-1.0058384,-0.26190165,-0.12268278,13.202483,-12.14052,1.0690755,0.28678304,-0.44614002,0.20973723,0.8214164,-1.4694211,1.474021,0.14465159,-0.036119588,-0.7397349,-0.011259533,0
0.02,7.628857501570857,-0.6878014517316768,-5.444545841173623,0.1277681677573205,10.52305,-1.0058384,-0.26190165,-0.12268278,13.187549,-12.125545,1.0702336,0.28780198,-0.44171438,0.20781328,0.82393694,-1.5170469,1.5207161,0.08683463,-0.12118332,-1.4568812,-0.0059450353,0
0.03,7.628857501570857,-0.6878014517316768,-5.444545841173623,0.1277681677573205,10.52305,-1.0058384,-0.26190165,-0.12268278,13.172147,-12.11011,1.0708122,0.2892792,-0.4346226,0.20455728,0.8279959,-1.5632684,1.5660676,0.029066097,-0.20954075,-2.0787556,0.00061631226,0
0.04,7.628857501570857,-0.6878014517316768,-5.444545841173623,0.1277681677573205,10.095048,-0.9652363,-0.52361965,-0.17500058,13.156285,-12.094225,1.0708194,0.29110664,-0.42522585,0.20012887,0.8332997,-1.6088969,1.6108478,-0.027410809,-0.2841146,-2.6036499,0.00685569,0
0.05,7.628857501570857,-0.6878014517316768,-5.444545841173623,0.1277681677573205,10.095048,-0.9652363,-0.52361965,-0.17500058,13.139972,-12.077896,1.0702697,0.29319623,-0.4138384,0.19469056,0.839565,-1.6537578,1.6548641,-0.08227134,-0.34705582,-3.0466876,0.012788895,0
0.060000000000000005,7.628857501570857,-0.6878014517316768,-5.444545841173623,0.1277681677573205,10.095048,-0.9652363,-0.52361965,-0.17500058,13.123214,-12.0611315,1.0691805,0.29546973,-0.40072244,0.18837813,0.8465417,-1.6976844,1.6979343,-0.13526149,-0.40017942,-3.4206343,0.018430956,0
0.07,7.628857501570857,-0.6878014517316768,-5.444545841173623,0.1277681677573205,10.095048,-0.9652363,-0.52361965,-0.17500058,13.106021,-12.0439415,1.0675716,0.2978587,-0.38609916,0.18130606,0.8540116,-1.7405142,1.7398846,-0.18619005,-0.44501707,-3.7362645,0.023796165,0
0.08,10.24411966506886,-0.593495541136206,-4.897168173707691,0.11661809703348126,12.259622,-1.1036307,-0.83620787,0.20796141,13.0884075,-12.02634,1.0654643,0.3003037,-0.37015665,0.17357168,0.86178577,-1.7820894,1.7805479,-0.23492146,-0.48286176,-4.002672,0.0288981,0
0.09,10.24411966506886,-0.593495541136206,-4.897168173707691,0.11661809703348126,12.259622,-1.1036307,-0.83620787,0.20796141,13.070314,-12.008269,1.0629689,0.30273226,-0.35323554,0.16535683,0.86961776,-1.8360301,1.8332125,-0.26366964,-0.50010085,-4.1421704,0.033202544,0
0.09999999999999999,10.24411966506886,-0.593495541136206,-4.897168173707691,0.11661809703348126,12.259622,-1.1036307,-0.83620787,0.20796141,13.051693,-11.989683,1.0602013,0.3050891,-0.33562362,0.15681438,0.87731797,-1.8879138,1.8837682,-0.28934774,-0.5146519,-4.259914,0.03729575,0
0.10999999999999999,10.24411966506886,-0.593495541136206,-4.897168173707691,0.11661809703348126,12.259622,-1.1036307,-0.83620787,0.20796141,13.032563,-11.970603,1.0571922,0.3073506,-0.31739965,0.14798264,0.88481313,-1.9375863,1.9320631,-0.31199646,-0.5269342,-4.3592954,0.04118814,0
0.11999999999999998,10.24411966506886,-0.593495541136206,-4.897168173707691,0.11661809703348126,12.259622,-1.1036307,-0.83620787,0.20796141,13.01295,-11.951051,1.0539714,0.30949706,-0.298633,0.13889524,0.89204144,-1.9848996,1.9779527,-0.33168602,-0.5373015,-4.4431777,0.04488951,0
0.12999999999999998,13.059702852835818,-0.2509813933110917,-3.083445495317549,-0.044615800614311606,12.590616,-1.0992136,0.041795474,0.18174717,12.992876,-11.931052,1.0505682,0.3115119,-0.27938512,0.12958182,0.898951,-2.0297122,2.0213,-0.3485127,-0.5460525,-4.513979,0.048409246,0
0.13999999999999999,13.059702852835818,-0.2509813933110917,-3.083445495317549,-0.044615800614311606,12.590616,-1.0992136,0.041795474,0.18174717,12.972306,-11.910577,1.0471253,0.31334838,-0.26032734,0.120414615,0.9052861,-2.0835063,2.0731838,-0.33952773,-0.50005615,-4.290885,0.043844484,0
0.15,13.059702852835818,-0.2509813933110917,-3.083445495317549,-0.044615800614311606,12.590616,-1.0992136,0.041795474,0.18174717,12.951217,-11.889601,1.0437883,0.31498992,-0.24201286,0.11169821,0.91089773,-2.1339622,2.1217217,-0.3273941,-0.46123022,-4.102583,0.039503712,0
0.16,14.850609191395433,0.061318358430553645,-0.6248546517894926,-0.0745501833088464,14.993927,-1.1033423,1.0756776,0.41690835,12.929639,-11.8681555,1.0405871,0.31646267,-0.22432987,0.10336437,0.91588396,-2.1811235,2.1669965,-0.3124481,-0.42845672,-3.9436471,0.035375934,0
0.17,14.850609191395433,0.061318358430553645,-0.6248546517894926,-0.0745501833088464,14.993927,-1.1033423,1.0756776,0.41690835,12.907575,-11.846243,1.037627,0.31772286,-0.2080483,0.09578146,0.92010546,-2.2310915,2.2148926,-0.27916783,-0.35210052,-3.4260802,0.029981826,0
0.18000000000000002,14.850609191395433,0.061318358430553645,-0.6248546517894926,-0.0745501833088464,14.993927,-1.1033423,1.0756776,0.41690835,12.885029,-11.823869,1.0350119,0.3187569,-0.19378532,0.089243725,0.92351335,-2.277714,2.2595522,-0.24353655,-0.28764668,-2.9892287,0.024852421,0
0.19000000000000003,14.850609191395433,0.061318358430553645,-0.6248546517894926,-0.0745501833088464,14.993927,-1.1033423,1.0756776,0.41690835,12.862031,-11.801062,1.0327629,0.3196195,-0.1812414,0.08359499,0.9262866,-2.321353,2.3013682,-0.2059911,-0.23324016,-2.6205041,0.019974714,0
0.20000000000000004,16.035770701637563,0.2795112455069194,1.2110276786509218,-0.09406239287577055,15.276524,-0.85758686,2.0477262,0.28663287,12.838611,-11.77785,1.0308974,0.32035178,-0.17015862,0.07870117,0.92856175,-2.3623264,2.340684,-0.16687436,-0.18731488,-2.3092825,0.015336347,0
0.21000000000000005,16.035770701637563,0.2795112455069194,1.2110276786509218,-0.09406239287577055,15.276524,-0.85758686,2.0477262,0.28663287,12.814776,-11.754242,1.0294849,0.32094657,-0.16097179,0.07476416,0.930318,-2.404025,2.3807926,-0.11542092,-0.11452532,-1.7602912,0.0099681225,0
0.22000000000000006,16.035770701637563,0.2795112455069194,1.2110276786509218,-0.09406239287577055,15.276524,-0.85758686,2.0477262,0.28663287,12.790538,-11.730242,1.0285923,0.32140496,-0.15401568,0.07193882,0.93155926,-2.4436703,2.4190648,-0.062930174,-0.053082995,-1.2969153,0.004863321,0
0.23000000000000007,16.035770701637563,0.2795112455069194,1.2110276786509218,-0.09406239287577055,15.276524,-0.85758686,2.0477262,0.28663287,12.765909,-11.705866,1.0282286,0.32176262,-0.14894924,0.0700548,0.93240285,-2.4817545,2.456007,-0.009705425,-0.0012193769,-0.90580285,9.014853e-06,0
0.24000000000000007,16.035770701637563,0.2795112455069194,1.2110276786509218,-0.09406239287577055,15.223617,-0.5803268,2.447484,0.25142744,12.740906,-11.681125,1.0284,0.32204485,-0.14548185,0.068967015,0.93293387,-2.5186992,2.4920516,0.044017937,0.04255877,-0.5756843,-0.0046070926,0
0.25000000000000006,16.035770701637563,0.2795112455069194,1.2110276786509218,-0.09406239287577055,15.223617,-0.5803268,2.447484,0.25142744,12.715537,-11.656027,1.0291102,0.3222697,-0.14336647,0.0685522,0.9332142,-2.5548635,2.5275671,0.09805388,0.079511315,-0.29704788,-0.008996681,0
0.26000000000000006,16.035770701637563,0.2795112455069194,1.2110276786509218,-0.09406239287577055,15.223617,-0.5803268,2.447484,0.25142744,12.68981,-11.630574,1.0303617,0.32245013,-0.14239344,0.0687058,0.93328947,-2.590552,2.5628655,0.15225264,0.11070241,-0.06186489,-0.013170883,0
0.2700000000000001,16.035770701637563,0.2795112455069194,1.2110276786509218,-0.09406239287577055,15.223617,-0.5803268,2.447484,0.25142744,12.663727,-11.60477,1.0321554,0.32259545,-0.14238508,0.06933916,0.9331937,-2.626023,2.5982118,0.20649122,0.1370301,0.1366414,-0.01714025,0
0.2800000000000001,16.71541912256399,0.44123418562178957,2.6462346545459288,-0.10555928667202714,15.898773,-0.004488491,2.4514327,0.38669398,12.637289,-11.578609,1.0344914,0.32271242,-0.14319092,0.07037727,0.93295217,-2.6614945,2.6338289,0.2606665,0.15925254,0.3041907,-0.020914843,0
0.2900000000000001,16.71541912256399,0.44123418562178957,2.6462346545459288,-0.10555928667202714,15.898773,-0.004488491,2.4514327,0.38669398,12.610489,-11.552083,1.0374006,0.32277566,-0.14519854,0.07200207,0.93249595,-2.69869,2.6714635,0.32112426,0.20323396,0.66942996,-0.025068352,0
0.3000000000000001,16.71541912256399,0.44123418562178957,2.6462346545459288,-0.10555928667202714,15.898773,-0.004488491,2.4514327,0.38669398,12.583314,-11.525176,1.0409126,0.32276213,-0.14870708,0.07435394,0.9317629,-2.7364595,2.70996,0.3812388,0.24035744,0.97771025,-0.029018072,0
0.3100000000000001,16.71541912256399,0.44123418562178957,2.6462346545459288,-0.10555928667202714,15.898773,-0.004488491,2.4514327,0.38669398,12.555757,-11.497878,1.0450234,0.32267833,-0.15347941,0.07731783,0.9307763,-2.7751553,2.7496724,0.44082776,0.27169207,1.2379143,-0.03277398,0
0.3200000000000001,17.522494591254052,0.51672781697265,3.5438794851669138,-0.1016389187745294,16.82839,0.111814834,2.6670325,0.48063365,12.527806,-11.470178,1.0497268,0.32252818,-0.15931451,0.080796145,0.92955166,-2.8150713,2.7908955,0.499723,0.2981401,1.4575397,-0.036345582,0
0.3300000000000001,17.522494591254052,0.51672781697265,3.5438794851669138,-0.1016389187745294,16.82839,0.111814834,2.6670325,0.48063365,12.499439,-11.442045,1.0550528,0.3222885,-0.16636568,0.08484995,0.9280371,-2.8584676,2.8359668,0.5652949,0.3322402,1.7829018,-0.039549544,0
0.34000000000000014,17.522494591254052,0.51672781697265,3.5438794851669138,-0.1016389187745294,16.82839,0.111814834,2.6670325,0.48063365,12.47063,-11.413451,1.061029,0.32193604,-0.17474282,0.08952207,0.9261791,-2.903753,2.8832245,0.6297336,0.361022,2.0575237,-0.04259629,0
0.35000000000000014,17.522494591254052,0.51672781697265,3.5438794851669138,-0.1016389187745294,16.82839,0.111814834,2.6670325,0.48063365,12.441357,-11.384373,1.0676427,0.32147244,-0.18422958,0.094711095,0.923983,-2.951239,2.9329722,0.6927945,0.3853149,2.2893188,-0.04549354,0
0.36000000000000015,17.79598078431267,0.507317604811161,3.7360372990805177,-0.08606799221020066,16.654226,0.20443508,3.1792436,0.6937547,12.411595,-11.354783,1.0748792,0.3208983,-0.19464211,0.100330755,0.92145115,-3.001179,2.9854555,0.7542374,0.405819,2.4849653,-0.048248608,0
0.37000000000000016,17.79598078431267,0.507317604811161,3.7360372990805177,-0.08606799221020066,16.654226,0.20443508,3.1792436,0.6937547,12.381318,-11.324649,1.0827333,0.32020327,-0.20589581,0.106329106,0.91856986,-3.0545979,3.041737,0.8162836,0.42165697,2.6800683,-0.050104417,0
0.38000000000000017,17.79598078431267,0.507317604811161,3.7360372990805177,-0.08606799221020066,16.654226,0.20443508,3.1792436,0.6937547,12.3504925,-11.293937,1.0911974,0.31937742,-0.21791364,0.1126603,0.91532457,-3.1109042,3.101172,0.8761862,0.43502432,2.8447452,-0.05186916,0
0.3900000000000002,17.79598078431267,0.507317604811161,3.7360372990805177,-0.08606799221020066,16.654226,0.20443508,3.1792436,0.6937547,12.31909,-11.262614,1.1002487,0.3184215,-0.23056105,0.11926451,0.9117154,-3.1702495,3.1638973,0.93368566,0.4463063,2.9837408,-0.053547304,0
0.4000000000000002,17.2666267756022,0.3828842267903925,3.2210058042133567,-0.06671772741880051,17.778044,0.9401582,2.6213636,1.0268517,12.287077,-11.230648,1.1098619,0.3173365,-0.24372338,0.12609059,0.9077429,-3.2327447,3.2300112,0.9885257,0.4558283,3.1010602,-0.055143114,0
0.4100000000000002,17.2666267756022,0.3828842267903925,3.2210058042133567,-0.06671772741880051,17.778044,0.9401582,2.6213636,1.0268517,12.254434,-11.198012,1.1199868,0.316136,-0.25713205,0.13298523,0.90346867,-3.2965014,3.297499,1.0359999,0.44445458,3.1197655,-0.055711076,0
0.4200000000000002,17.2666267756022,0.3828842267903925,3.2210058042133567,-0.06671772741880051,17.778044,0.9401582,2.6213636,1.0268517,12.221137,-11.164686,1.1305716,0.31483462,-0.27057153,0.13982607,0.89895403,-3.3633685,3.3682902,1.0804787,0.43485427,3.1355543,-0.056251187,0
0.4300000000000002,17.2666267756022,0.3828842267903925,3.2210058042133567,-0.06671772741880051,17.778044,0.9401582,2.6213636,1.0268517,12.187156,-11.130635,1.1415856,0.3134347,-0.28402275,0.14661431,0.8941999,-3.4333067,3.4423172,1.1218058,0.42675093,3.1488807,-0.05676479,0
0.4400000000000002,17.2666267756022,0.3828842267903925,3.2210058042133567,-0.06671772741880051,17.158834,0.8495482,2.319769,1.0872163,12.15246,-11.095828,1.1529964,0.31193832,-0.29746914,0.15335073,0.8892073,-3.5062678,3.5195086,1.1598285,0.41991153,3.1601288,-0.05725318,0
0.45000000000000023,17.2666267756022,0.3828842267903925,3.2210058042133567,-0.06671772741880051,17.158834,0.8495482,2.319769,1.0872163,12.117021,-11.060234,1.1647702,0.31034753,-0.31089616,0.16003563,0.8839774,-3.5821965,3.5997884,1.1943983,0.4141386,3.1696227,-0.0577176,0
0.46000000000000024,17.2666267756022,0.3828842267903925,3.2210058042133567,-0.06671772741880051,17.158834,0.8495482,2.319769,1.0872163,12.080807,-11.023822,1.1768719,0.30866423,-0.32429087,0.166669,0.8785116,-3.6610303,3.683077,1.22537,0.40926546,3.177636,-0.05815922,0
0.47000000000000025,17.2666267756022,0.3828842267903925,3.2210058042133567,-0.06671772741880051,17.158834,0.8495482,2.319769,1.0872163,12.04379,-10.986563,1.1892648,0.30689016,-0.33764207,0.17325057,0.8728115,-3.7426996,3.7692914,1.2526032,0.40515244,3.1843994,-0.05857919,0
0.48000000000000026,16.316310169720396,0.17707331968110435,2.1634153324280976,-0.04964452177317096,17.018658,1.0228143,1.9145089,0.92087305,12.005942,-10.948426,1.2019107,0.30502704,-0.35093957,0.17977986,0.8668786,-3.8271308,3.8583446,1.2759614,0.40168068,3.1901083,-0.05897857,1
0.49000000000000027,16.316310169720396,0.17707331968110435,2.1634153324280976,-0.04964452177317096,17.018658,1.0228143,1.9145089,0.92087305,11.967244,-10.909391,1.2147619,0.30315837,-0.3636239,0.1863626,0.8608956,-3.9129584,3.948827,1.2936531,0.49844438,2.991191,-0.010896967,1
0.5000000000000002,16.316310169720396,0.17707331968110435,2.1634153324280976,-0.04964452177317096,17.018658,1.0228143,1.9145089,0.92087305,11.927676,-10.86944,1.2277704,0.30135,-0.37525797,0.19309348,0.85503453,-4.001086,4.0419226,1.307482,0.5801338,2.8233,0.03482525,1
0.5100000000000002,16.316310169720396,0.17707331968110435,2.1634153324280976,-0.04964452177317096,17.018658,1.0228143,1.9145089,0.92087305,11.887216,-10.828544,1.2408985,0.2995781,-0.38599727,0.19995643,0.84927964,-4.091183,4.137543,1.3175523,0.6490966,2.6815941,0.078303866,1
0.5200000000000002,15.214795990163344,-0.12282270810738932,0.8250439677256248,-0.04505303769048391,16.078907,1.0541077,1.0813894,1.1618372,11.845845,-10.78668,1.2541088,0.2978215,-0.39597183,0.20693724,0.8436142,-4.1829677,4.2356095,1.3239526,0.7073146,2.5619895,0.11964898,0
0.5300000000000002,15.214795990163344,-0.12282270810738932,0.8250439677256248,-0.04505303769048391,16.078907,1.0541077,1.0813894,1.1618372,11.803599,-10.743876,1.2673115,0.296072,-0.40508658,0.21346124,0.83826,-4.2663236,4.325371,1.3160887,0.57788837,2.291101,0.111567,0
0.5400000000000003,15.214795990163344,-0.12282270810738932,0.8250439677256248,-0.04505303769048391,16.078907,1.0541077,1.0813894,1.1618372,11.760514,-10.700166,1.2804205,0.2943386,-0.41328436,0.21907113,0.83340746,-4.3508377,4.4169483,1.3052751,0.46863988,2.06246,0.10388161,0
0.5500000000000003,15.214795990163344,-0.12282270810738932,0.8250439677256248,-0.04505303769048391,16.078907,1.0541077,1.0813894,1.1618372,11.716579,-10.655532,1.2934078,0.29262587,-0.4207151,0.22391239,0.82899433,-4.436408,4.5100546,1.2917747,0.37642354,1.8694775,0.096573345,0
0.5600000000000003,13.543325744976213,-0.5682997438882648,-0.5254466871861042,-0.08862169543772809,13.369753,0.49324283,0.0018205456,0.9978105,11.671783,-10.609961,1.3062476,0.2909361,-0.42750338,0.22810663,0.8249629,-4.522953,4.604452,1.275817,0.29858446,1.7065923,0.0896237,0
0.5700000000000003,13.543325744976213,-0.5682997438882648,-0.5254466871861042,-0.08862169543772809,13.369753,0.49324283,0.0018205456,0.9978105,11.626165,-10.563492,1.3188725,0.2893228,-0.4333622,0.23145032,0.821535,-4.600793,4.689437,1.2488532,0.16342248,1.3584981,0.08087714,0
0.5800000000000003,13.543325744976213,-0.5682997438882648,-0.5254466871861042,-0.08862169543772809,13.369753,0.49324283,0.0018205456,0.9978105,11.579765,-10.51617,1.3312192,0.28783172,-0.43807447,0.23379028,0.8188927,-4.6793385,4.775125,1.220252,0.04933225,1.0646915,0.07255978,0
0.5900000000000003,13.543325744976213,-0.5682997438882648,-0.5254466871861042,-0.08862169543772809,13.369753,0.49324283,0.0018205456,0.9978105,11.5325775,-10.467988,1.343273,0.2864515,-0.4418277,0.23528679,0.8169293,-4.7585,4.8612766,1.1903684,-0.04697112,0.8167061,0.06465056,0
0.6000000000000003,12.575004951205305,-0.9104752320834903,-1.645769426641098,-0.10470607613000785,14.774725,-0.30798724,-2.7280164,1.590587,11.484594,-10.418943,1.355023,0.28517047,-0.44477734,0.23607348,0.8155488,-4.838206,4.947695,1.159507,-0.12826006,0.60739535,0.057129454,0
0.6100000000000003,12.575004951205305,-0.9104752320834903,-1.645769426641098,-0.10470607613000785,14.774725,-0.30798724,-2.7280164,1.590587,11.435841,-10.369065,1.366437,0.28402415,-0.44672677,0.23602186,0.81489795,-4.9126596,5.0280185,1.1231945,-0.25023153,0.25601235,0.049188133,0
0.6200000000000003,12.575004951205305,-0.9104752320834903,-1.645769426641098,-0.10470607613000785,14.774725,-0.30798724,-2.7280164,1.590587,11.386339,-10.318383,1.3774861,0.28303912,-0.4475258,0.23503567,0.8150873,-4.9874787,5.108224,1.0865937,-0.3531868,-0.04057101,0.041636497,0
0.6300000000000003,12.575004951205305,-0.9104752320834903,-1.645769426641098,-0.10470607613000785,14.774725,-0.30798724,-2.7280164,1.590587,11.336089,-10.266901,1.3881693,0.2821918,-0.44735393,0.23325998,0.815985,-5.0625844,5.1881175,1.050051,-0.4400901,-0.29090104,0.03445543,0
0.6400000000000003,12.575004951205305,-0.9104752320834903,-1.645769426641098,-0.10470607613000785,15.750164,-1.7624927,-4.2125363,2.3948507,11.285087,-10.214622,1.3984885,0.28146088,-0.44636026,0.23081578,0.8174753,-5.1379075,5.2675343,1.0138574,-0.51344395,-0.5021913,0.027626723,0
0.6500000000000004,12.575004951205305,-0.9104752320834903,-1.645769426641098,-0.10470607613000785,15.750164,-1.7624927,-4.2125363,2.3948507,11.233331,-10.161552,1.4084486,0.28082725,-0.44466898,0.22780433,0.81945735,-5.213388,5.346334,0.9782572,-0.57536036,-0.6805303,0.02113311,0
0.6600000000000004,12.575004951205305,-0.9104752320834903,-1.645769426641098,-0.10470607613000785,15.750164,-1.7624927,-4.2125363,2.3948507,11.1808195,-10.107698,1.4180564,0.28027424,-0.44238383,0.22431052,0.82184386,-5.288973,5.4243946,0.9434538,-0.6276224,-0.8310571,0.014958139,0
0.6700000000000004,12.575004951205305,-0.9104752320834903,-1.645769426641098,-0.10470607613000785,15.750164,-1.7624927,-4.2125363,2.3948507,11.127551,-10.053068,1.427321,0.2797874,-0.43959188,0.22040567,0.8245598,-5.3646126,5.501609,0.9096156,-0.67173564,-0.9581089,0.00908618,0
0.6800000000000004,12.290450707940098,-1.1109746326720804,-2.400143111122315,-0.10739381885862676,14.188194,-1.6907773,-4.0509477,1.4505563,11.073526,-9.997671,1.4362525,0.27935424,-0.43636614,0.21614987,0.82754123,-5.4402604,5.577882,0.8768811,-0.70897007,-1.0653466,0.0035023629,0
0.6900000000000004,12.290450707940098,-1.1109746326720804,-2.400143111122315,-0.10739381885862676,14.188194,-1.6907773,-4.0509477,1.4505563,11.018754,-9.941524,1.4448553,0.27899387,-0.43253985,0.2114426,0.830881,-5.514158,5.6514187,0.84387094,-0.7716665,-1.2735046,-0.0019393328,0
0.7000000000000004,12.290450707940098,-1.1109746326720804,-2.400143111122315,-0.10739381885862676,14.188194,-1.6907773,-4.0509477,1.4505563,10.9632435,-9.884646,1.4531347,0.27871794,-0.42798015,0.20620541,0.8346425,-5.5879436,5.7238193,0.8122473,-0.8245865,-1.4492003,-0.0071140146,0
0.7100000000000004,12.290450707940098,-1.1109746326720804,-2.400143111122315,-0.10739381885862676,14.188194,-1.6907773,-4.0509477,1.4505563,10.906996,-9.827051,1.4611056,0.27850622,-0.42278942,0.20051473,0.83873516,-5.661538,5.794952,0.78218555,-0.86925447,-1.5974963,-0.012034776,0
0.7200000000000004,13.186005304609207,-1.1824667861115197,-2.7786340116132635,-0.09839286659599758,15.746695,-2.1589992,-4.311769,1.525951,10.850013,-9.768752,1.4687843,0.2783416,-0.41705373,0.19443506,0.84308165,-5.7348657,5.864698,0.75382555,-0.9069567,-1.7226655,-0.016714068,0
0.7300000000000004,13.186005304609207,-1.1824667861115197,-2.7786340116132635,-0.09839286659599758,15.746695,-2.1589992,-4.311769,1.525951,10.792273,-9.709739,1.4762144,0.2782256,-0.41072536,0.18795498,0.8476837,-5.8131685,5.937919,0.73249733,-0.949929,-1.8873402,-0.020722069,0
0.7400000000000004,13.186005304609207,-1.1824667861115197,-2.7786340116132635,-0.09839286659599758,15.746695,-2.1589992,-4.311769,1.525951,10.733751,-9.65,1.4834414,0.27815646,-0.40376785,0.18106766,0.85253423,-5.8910046,6.0093985,0.7132556,-0.9862001,-2.026334,-0.0245334,0
0.7500000000000004,13.186005304609207,-1.1824667861115197,-2.7786340116132635,-0.09839286659599758,15.746695,-2.1589992,-4.311769,1.525951,10.674455,-9.589557,1.490487,0.27811632,-0.39626396,0.17382982,0.8575599,-5.968273,6.079004,0.69621694,-1.0168146,-2.1436522,-0.028157696,0
0.7600000000000005,14.132319160475106,-1.145821844138719,-2.8030569286885996,-0.07236760181156159,16.588167,-2.4297256,-3.9927392,2.0922194,10.614388,-9.528427,1.4973736,0.2780903,-0.3882839,0.16628975,0.8626985,-6.044877,6.146613,0.6814661,-1.0426546,-2.2426744,-0.03160416,0
0.7700000000000005,14.132319160475106,-1.145821844138719,-2.8030569286885996,-0.07236760181156159,16.588167,-2.4297256,-3.9927392,2.0922194,10.553533,-9.466608,1.5041549,0.27807045,-0.37987447,0.15849973,0.8678995,-6.126164,6.2168155,0.6752105,-1.0587482,-2.3300638,-0.033604443,0
0.7800000000000005,14.132319160475106,-1.145821844138719,-2.8030569286885996,-0.07236760181156159,16.588167,-2.4297256,-3.9927392,2.0922194,10.491868,-9.4040985,1.5108865,0.2780492,-0.3710762,0.15050408,0.8731203,-6.206533,6.2846484,0.6715068,-1.0723321,-2.4038255,-0.03550657,0
0.7900000000000005,14.132319160475106,-1.145821844138719,-2.8030569286885996,-0.07236760181156159,16.588167,-2.4297256,-3.9927392,2.0922194,10.429406,-9.340922,1.517594,0.27801585,-0.36193627,0.1423301,0.8783228,-6.2858834,6.3500123,0.6703721,-1.0837972,-2.4660838,-0.03731534,0
0.8000000000000005,14.207464805787918,-0.9613104451287354,-2.495067821461528,-0.06350667012935882,15.819603,-1.8897536,-3.024542,1.7299509,10.366155,-9.277105,1.5243028,0.27796158,-0.35249516,0.13400118,0.88347477,-6.3641186,6.4128118,0.67180395,-1.093474,-2.5186331,-0.03903537,0
0.8100000000000005,14.207464805787918,-0.9613104451287354,-2.495067821461528,-0.06350667012935882,15.819603,-1.8897536,-3.024542,1.7299509,10.302125,-9.212672,1.5310414,0.2778881,-0.3428765,0.12563771,0.88849795,-6.4415565,6.4732857,0.6763205,-1.0728651,-2.5149574,-0.04023619,0
0.8200000000000005,14.207464805787918,-0.9613104451287354,-2.495067821461528,-0.06350667012935882,15.819603,-1.8897536,-3.024542,1.7299509,10.237329,-9.147648,1.5378377,0.27779827,-0.33318314,0.11733767,0.89333564,-6.517707,6.5310655,0.6833237,-1.0554701,-2.5118556,-0.041378073,0
0.8300000000000005,14.207464805787918,-0.9613104451287354,-2.495067821461528,-0.06350667012935882,15.819603,-1.8897536,-3.024542,1.7299509,10.171776,-9.08206,1.5447162,0.2776868,-0.32341912,0.10908941,0.8979917,-6.5925016,6.5861287,0.692731,-1.0407876,-2.509237,-0.04246394,0
0.8400000000000005,14.207464805787918,-0.9613104451287354,-2.495067821461528,-0.06350667012935882,15.30236,-1.4648305,-2.440033,1.3334414,10.105484,-9.015935,1.5517005,0.27754942,-0.31358805,0.10088328,0.90246934,-6.665877,6.638453,0.7044596,-1.0283948,-2.5070271,-0.04349652,0
0.8500000000000005,14.207464805787918,-0.9613104451287354,-2.495067821461528,-0.06350667012935882,15.30236,-1.4648305,-2.440033,1.3334414,10.0384655,-8.949301,1.5588132,0.2773825,-0.30369326,0.092711315,0.90677094,-6.737771,6.688015,0.7184258,-1.0179347,-2.5051618,-0.04447843,0
0.8600000000000005,14.207464805787918,-0.9613104451287354,-2.495067821461528,-0.06350667012935882,15.30236,-1.4648305,-2.440033,1.3334414,9.970736,-8.882184,1.5660764,0.277183,-0.2937378,0.08456694,0.91089827,-6.808127,6.7347913,0.73454535,-1.0091056,-2.5035872,-0.04541216,0
0.8700000000000006,14.207464805787918,-0.9613104451287354,-2.495067821461528,-0.06350667012935882,15.30236,-1.4648305,-2.440033,1.3334414,9.902309,-8.814613,1.5735111,0.27694845,-0.28372455,0.07644482,0.91485286,-6.8768883,6.7787576,0.7527331,-1.0016532,-2.5022583,-0.046300046,0
0.8800000000000006,13.648922961908335,-0.7149124800336322,-2.0299586471984035,-0.05391153015217992,15.700628,-1.0337057,-2.567082,1.8446878,9.833203,-8.746618,1.5811378,0.27667686,-0.27365616,0.06834063,0.91863567,-6.9440017,6.819892,0.77290314,-0.99536306,-2.5011368,-0.047144383,0
0.8900000000000006,13.648922961908335,-0.7149124800336322,-2.0299586471984035,-0.05391153015217992,15.700628,-1.0337057,-2.567082,1.8446878,9.763447,-8.678233,1.5889521,0.2763803,-0.26367956,0.060393546,0.92219275,-7.00685,6.8566766,0.7902386,-0.9516251,-2.4276578,-0.047476456,0
0.9000000000000006,13.648922961908335,-0.7149124800336322,-2.0299586471984035,-0.05391153015217992,15.700628,-1.0337057,-2.567082,1.8446878,9.69307,-8.609493,1.5969483,0.2760708,-0.25391418,0.05271467,0.925491,-7.0680547,6.890777,0.8092684,-0.9147085,-2.3656378,-0.047792234,0
0.9100000000000006,13.648922961908335,-0.7149124800336322,-2.0299586471984035,-0.05391153015217992,15.700628,-1.0337057,-2.567082,1.8446878,9.62209,-8.540427,1.6051427,0.27574638,-0.2443251,0.045262795,0.92855823,-7.1276116,6.9222555,0.8298717,-0.8835494,-2.3132896,-0.048092503,0
0.9200000000000006,12.13091688614761,-0.4130145072348302,-1.3888463349885407,-0.053143682988323636,13.961996,-0.23300043,-2.4743996,1.3563834,9.550523,-8.471059,1.6135507,0.27540508,-0.23488264,0.038003076,0.93141717,-7.1855135,6.9511623,0.85193914,-0.85724956,-2.2691052,-0.04837805,0
0.9300000000000006,12.13091688614761,-0.4130145072348302,-1.3888463349885407,-0.053143682988323636,13.961996,-0.23300043,-2.4743996,1.3563834,9.478416,-8.401428,1.6221187,0.27506456,-0.22576803,0.031089438,0.93402445,-7.2355037,6.97462,0.86184824,-0.7879675,-2.1318314,-0.048611905,0
0.9400000000000006,12.13091688614761,-0.4130145072348302,-1.3888463349885407,-0.053143682988323636,13.961996,-0.23300043,-2.4743996,1.3563834,9.405817,-8.3315735,1.6307913,0.27474177,-0.21712624,0.024642814,0.93635774,-7.284061,6.9959574,0.87284577,-0.7294904,-2.015965,-0.048834275,0
0.9500000000000006,12.13091688614761,-0.4130145072348302,-1.3888463349885407,-0.053143682988323636,13.961996,-0.23300043,-2.4743996,1.3563834,9.332741,-8.261516,1.6395789,0.27443358,-0.20888454,0.018591372,0.9384603,-7.3312316,7.015297,0.8848201,-0.6801332,-1.9181677,-0.049045738,0
0.9600000000000006,10.728129055565466,-0.14293805850651242,-0.8841892793907994,-0.05925701024959087,13.208099,-0.062303923,-2.1207857,1.1890851,9.259197,-8.191275,1.6484908,0.27413687,-0.20098099,0.012874273,0.94036686,-7.3770547,7.0327425,0.8976766,-0.63847387,-1.8356216,-0.049246825,0
0.9700000000000006,10.728129055565466,-0.14293805850651242,-0.8841892793907994,-0.05925701024959087,13.208099,-0.062303923,-2.1207857,1.1890851,9.185228,-8.120876,1.6574707,0.2738691,-0.19352362,0.0075969407,0.94206506,-7.416423,7.046583,0.8984076,-0.5611911,-1.6872485,-0.049738023,0
0.9800000000000006,10.728129055565466,-0.14293805850651242,-0.8841892793907994,-0.05925701024959087,13.208099,-0.062303923,-2.1207857,1.1890851,9.110871,-8.050347,1.666461,0.2736454,-0.18659641,0.0028403127,0.94355285,-7.454692,7.0589647,0.8997622,-0.49596125,-1.5620139,-0.050205123,0
0.9900000000000007,10.728129055565466,-0.14293805850651242,-0.8841892793907994,-0.05925701024959087,13.208099,-0.062303923,-2.1207857,1.1890851,9.036138,-7.979702,1.6754677,0.2734597,-0.18011802,-0.0014762125,0.9448678,-7.49192,7.070014,0.90166736,-0.44090444,-1.4563092,-0.050649296,0
1.0000000000000007,9.951025797774276,0.07393213948204265,-0.4096488057258787,-0.06874685422632709,12.129805,0.15726897,-1.2052753,0.7299716,8.961036,-7.9089518,1.684496,0.27330646,-0.17401928,-0.005420808,0.9460399,-7.528158,7.0798397,0.9040626,-0.3944341,-1.3670889,-0.05107168,0
1.0100000000000007,9.951025797774276,0.07393213948204265,-0.4096488057258787,-0.06874685422632709,12.129805,0.15726897,-1.2052753,0.7299716,8.88559,-7.8381124,1.6935139,0.27319825,-0.16839765,-0.008917288,0.9470615,-7.5608993,7.0879107,0.8995845,-0.32138833,-1.2177789,-0.051939007,0
1.0200000000000007,9.951025797774276,0.07393213948204265,-0.4096488057258787,-0.06874685422632709,12.129805,0.15726897,-1.2052753,0.7299716,8.80982,-7.7671967,1.7024889,0.27314585,-0.16332786,-0.011908298,0.94793123,-7.5928326,7.095061,0.89545953,-0.2597346,-1.0917534,-0.052763786,0
1.0300000000000007,9.951025797774276,0.07393213948204265,-0.4096488057258787,-0.06874685422632709,12.129805,0.15726897,-1.2052753,0.7299716,8.733736,-7.6962137,1.7114241,0.27314177,-0.15872486,-0.014472432,0.9486783,-7.624024,7.1014094,0.89164096,-0.2076964,-0.9853812,-0.053548075,0
1.0400000000000007,9.951025797774276,0.07393213948204265,-0.4096488057258787,-0.06874685422632709,12.654482,0.23334053,-1.5137138,0.82251877,8.657343,-7.6251707,1.7203227,0.27317944,-0.15451653,-0.016676085,0.94932586,-7.6545296,7.107056,0.888091,-0.16377391,-0.89559734,-0.05429389,0
1.0500000000000007,9.951025797774276,0.07393213948204265,-0.4096488057258787,-0.06874685422632709,12.654482,0.23334053,-1.5137138,0.82251877,8.580648,-7.5540743,1.729187,0.2732529,-0.15064177,-0.018575342,0.949892,-7.684397,7.1120872,0.88477933,-0.12670156,-0.81981516,-0.05500309,0
1.0600000000000007,9.951025797774276,0.07393213948204265,-0.4096488057258787,-0.06874685422632709,12.654482,0.23334053,-1.5137138,0.82251877,8.503658,-7.48293,1.7380191,0.2733571,-0.14704886,-0.020217573,0.95039135,-7.7136683,7.1165743,0.88168114,-0.09541104,-0.7558508,-0.055677507,0
1.0700000000000007,9.951025797774276,0.07393213948204265,-0.4096488057258787,-0.06874685422632709,12.654482,0.23334053,-1.5137138,0.82251877,8.426378,-7.411744,1.7468213,0.2734875,-0.14369398,-0.021642778,0.95083547,-7.742376,7.1205773,0.87877613,-0.0690004,-0.7018617,-0.056318812,0
1.0800000000000007,9.755490219870158,0.22220717349126462,-0.12140872512205693,-0.08442847367460402,11.260735,0.40659967,-0.90493786,0.5537353,8.348814,-7.34052,1.7555952,0.2736403,-0.14054014,-0.022884736,0.95123374,-7.77055,7.124148,0.8760476,-0.046708908,-0.65629196,-0.056928657,0
1.0900000000000007,9.755490219870158,0.22220717349126462,-0.12140872512205693,-0.08442847367460402,11.260735,0.40659967,-0.90493786,0.5537353,8.270972,-7.2692633,1.7643332,0.273825,-0.1376495,-0.023884218,0.9515786,-7.7976747,7.1272717,0.8716034,-0.004768963,-0.57287884,-0.058278076,0
1.1000000000000008,9.755490219870158,0.22220717349126462,-0.12140872512205693,-0.08442847367460402,11.260735,0.40659967,-0.90493786,0.5537353,8.1928625,-7.1979766,1.7730277,0.27404937,-0.13506985,-0.024595775,0.9518655,-7.824342,7.130087,0.86730033,0.030630104,-0.50247365,-0.059561286,0
1.1100000000000008,9.755490219870158,0.22220717349126462,-0.12140872512205693,-0.08442847367460402,11.260735,0.40659967,-0.90493786,0.5537353,8.114488,-7.1266627,1.7816797,0.2743079,-0.1327528,-0.025064278,0.95210475,-7.85059,7.13266,0.86312234,0.06050839,-0.44304803,-0.060781527,0
1.1200000000000008,10.028179206801864,0.36553295590198087,0.3371462951145096,-0.10662592673229304,11.204351,0.33050117,-0.44160798,0.56005895,8.035853,-7.055324,1.7902905,0.27459586,-0.13065748,-0.025327614,0.9523046,-7.876452,7.135047,0.8590564,0.08572684,-0.39288962,-0.061941896,0
1.1300000000000008,10.028179206801864,0.36553295590198087,0.3371462951145096,-0.10662592673229304,11.204351,0.33050117,-0.44160798,0.56005895,7.956958,-6.9839616,1.7988743,0.27492377,-0.12890828,-0.025313087,0.9524487,-7.902673,7.1373653,0.85772157,0.12936677,-0.27904287,-0.06413455,0
1.1400000000000008,10.028179206801864,0.36553295590198087,0.3371462951145096,-0.10662592673229304,11.204351,0.33050117,-0.44160798,0.56005895,7.877801,-6.912576,1.8074452,0.27530032,-0.12760207,-0.02496472,0.952525,-7.9285893,7.1396327,0.85647,0.16620049,-0.18295015,-0.06621963,0
1.1500000000000008,10.028179206801864,0.36553295590198087,0.3371462951145096,-0.10662592673229304,11.204351,0.33050117,-0.44160798,0.56005895,7.7983866,-6.841168,1.8160039,0.27571878,-0.12666978,-0.024334546,0.9525447,-7.954262,7.141933,0.85528255,0.19728968,-0.10184293,-0.0682024,0
1.1600000000000008,10.138414569180163,0.41619839121374946,0.4054853023313084,-0.1411750010311107,11.641682,0.22357276,0.043306094,0.7786558,7.7187166,-6.769737,1.8245512,0.27617326,-0.12605302,-0.023466485,0.95251656,-7.9797416,7.144338,0.8541433,0.22353007,-0.033384256,-0.070087835,0
1.1700000000000008,10.138414569180163,0.41619839121374946,0.4054853023313084,-0.1411750010311107,11.641682,0.22357276,0.043306094,0.7786558,7.638791,-6.6982803,1.8330925,0.276666,-0.12572283,-0.022371285,0.95244354,-8.005352,7.146938,0.85410506,0.2535797,0.03505528,-0.0735761,0
1.1800000000000008,10.138414569180163,0.41619839121374946,0.4054853023313084,-0.1411750010311107,11.641682,0.22357276,0.043306094,0.7786558,7.55861,-6.626797,1.8416336,0.27719882,-0.12565362,-0.021059442,0.95232767,-8.030851,7.1497655,0.8540892,0.27894285,0.092821725,-0.076893196,0
1.1900000000000008,10.138414569180163,0.41619839121374946,0.4054853023313084,-0.1411750010311107,11.641682,0.22357276,0.043306094,0.7786558,7.4781747,-6.5552845,1.8501743,0.27776667,-0.12580448,-0.01956483,0.9521741,-8.056276,7.152875,0.8540844,0.3003505,0.14157982,-0.080047525,0
1.2000000000000008,10.107462990713847,0.4314321402949508,0.2998043422960029,-0.17811669332283847,10.908915,0.11614547,-0.016036052,0.661557,7.397485,-6.483739,1.8587149,0.2783651,-0.12614089,-0.017916039,0.9519872,-8.081655,7.156313,0.8540807,0.31841958,0.18273413,-0.08304708,1
1.2100000000000009,10.107462990713847,0.4314321402949508,0.2998043422960029,-0.17811669332283847,10.908915,0.11614547,-0.016036052,0.661557,7.3165317,-6.4121556,1.867293,0.27887788,-0.1265083,-0.016285997,0.9518176,-8.108933,7.1603975,0.861525,0.2868696,0.15174457,-0.046509147,1
1.2200000000000009,10.107462990713847,0.4314321402949508,0.2998043422960029,-0.17811669332283847,10.908915,0.11614547,-0.016036052,0.661557,7.2353063,-6.34053,1.8759454,0.27919966,-0.12678306,-0.014811249,0.95171076,-8.136184,7.16484,0.8689623,0.26024148,0.12558587,-0.011764131,1
1.2300000000000009,10.107462990713847,0.4314321402949508,0.2998043422960029,-0.17811669332283847,10.908915,0.11614547,-0.016036052,0.661557,7.153808,-6.268858,1.8846723,0.2793423,-0.12697977,-0.013465153,0.9516627,-8.163396,7.1696014,0.87639546,0.23776731,0.10350529,0.021275934,1
1.2400000000000009,10.107462990713847,0.4314321402949508,0.2998043422960029,-0.17811669332283847,10.792884,0.14280376,-0.15438189,0.7513835,7.072038,-6.197137,1.8934735,0.2793166,-0.12711065,-0.012225324,0.9516695,-8.190564,7.1746464,0.8838269,0.21879895,0.08486716,0.052694708,1
1.2500000000000009,10.107462990713847,0.4314321402949508,0.2998043422960029,-0.17811669332283847,10.792884,0.14280376,-0.15438189,0.7513835,6.9899983,-6.1253643,1.9023434,0.27912268,-0.12713043,-0.011076879,0.9517378,-8.217391,7.179888,0.8901369,0.20694767,0.047560792,0.08697956,1
1.260000000000001,10.107462990713847,0.4314321402949508,0.2998043422960029,-0.17811669332283847,10.792884,0.14280376,-0.15438189,0.7513835,6.9076905,-6.0535383,1.9112762,0.27876043,-0.12700379,-0.010006942,0.9518727,-8.244145,7.1853504,0.89645445,0.19694598,0.016071567,0.11958206,1
1.270000000000001,10.107462990713847,0.4314321402949508,0.2998043422960029,-0.17811669332283847,10.792884,0.14280376,-0.15438189,0.7513835,6.8251157,-5.9816566,1.9202725,0.2782392,-0.12675354,-0.00900097,0.9520686,-8.270804,7.1910048,0.90278614,0.18850474,-0.010507393,0.15058474,1
1.280000000000001,9.544541665791696,0.4319494442056364,0.00016228730436099702,-0.24390327324805816,10.77134,0.3734915,-0.54552245,0.5221853,6.7422748,-5.9097176,1.929332,0.27756757,-0.12639886,-0.008046807,0.9523203,-8.297349,7.196828,0.9091376,0.18138053,-0.03294173,0.18006612,0
1.290000000000001,9.544541665791696,0.4319494442056364,0.00016228730436099702,-0.24390327324805816,10.77134,0.3734915,-0.54552245,0.5221853,6.6591845,-5.8377233,1.9383948,0.27688593,-0.12598182,-0.0070224963,0.95258206,-8.320707,7.202115,0.9034294,0.22045565,-0.027777605,0.15926182,0
1.300000000000001,9.544541665791696,0.4319494442056364,0.00016228730436099702,-0.24390327324805816,10.77134,0.3734915,-0.54552245,0.5221853,6.575861,-5.765675,1.9474007,0.27632323,-0.1255367,-0.005833163,0.9528122,-8.343937,7.2075624,0.8977447,0.25343722,-0.023420166,0.13947839,0
1.310000000000001,9.544541665791696,0.4319494442056364,0.00016228730436099702,-0.24390327324805816,10.77134,0.3734915,-0.54552245,0.5221853,6.492306,-5.6935716,1.9563498,0.275871,-0.1250679,-0.004505842,0.9530121,-8.3670225,7.213198,0.89208466,0.28127557,-0.01974342,0.12066573,0
1.320000000000001,8.835101100143355,0.48417202082658267,-0.23022143829813835,-0.3592813041886616,10.109388,0.5619923,-0.70579505,0.312345,6.408521,-5.6214104,1.9652425,0.27552164,-0.12457919,-0.0030632848,0.9531829,-8.389953,7.2190485,0.88644975,0.30477256,-0.016640903,0.10277622,0
1.330000000000001,8.835101100143355,0.48417202082658267,-0.23022143829813835,-0.3592813041886616,10.109388,0.5619923,-0.70579505,0.312345,6.3245163,-5.549192,1.9740446,0.2752842,-0.12398002,-0.0015318769,0.95333326,-8.411023,7.224681,0.8739664,0.3327513,-0.049951643,0.08010293,0
1.340000000000001,8.835101100143355,0.48417202082658267,-0.23022143829813835,-0.3592813041886616,10.109388,0.5619923,-0.70579505,0.312345,6.240301,-5.476916,1.9827219,0.27516702,-0.12319881,6.633374e-05,0.9534695,-8.431908,7.230539,0.8615134,0.35636568,-0.078068286,0.058542218,0
1.350000000000001,8.835101100143355,0.48417202082658267,-0.23022143829813835,-0.3592813041886616,10.109388,0.5619923,-0.70579505,0.312345,6.155879,-5.4045796,1.991275,0.27516258,-0.12226398,0.0017195669,0.95358956,-8.452575,7.236627,0.8490971,0.3762966,-0.10180076,0.0380395,0
1.360000000000001,8.17813497815349,0.47905019835886914,-0.6537754111783333,-0.45985615486232856,9.176052,0.8830199,-1.4324384,0.056474414,6.071251,-5.332182,1.999704,0.2752638,-0.121199526,0.0034179522,0.95369166,-8.472997,7.24295,0.8367224,0.39311874,-0.12183239,0.018542841,1
1.370000000000001,8.17813497815349,0.47905019835886914,-0.6537754111783333,-0.45985615486232856,9.176052,0.8830199,-1.4324384,0.056474414,5.986416,-5.259719,2.0080261,0.27543622,-0.11952265,0.005179224,0.95384556,-8.49391,7.249759,0.8277081,0.46952146,-0.32621923,0.020404166,1
1.380000000000001,8.17813497815349,0.47905019835886914,-0.6537754111783333,-0.45985615486232856,9.176052,0.8830199,-1.4324384,0.056474414,5.901374,-5.1871862,2.0162585,0.27564454,-0.1168512,0.0070178076,0.95410454,-8.514376,7.256782,0.8187811,0.5340092,-0.49873197,0.022174137,1
1.390000000000001,8.17813497815349,0.47905019835886914,-0.6537754111783333,-0.45985615486232856,9.176052,0.8830199,-1.4324384,0.056474414,5.8161306,-5.1145825,2.0244024,0.2758811,-0.11333926,0.008921592,0.9544438,-8.534228,7.263984,0.8099782,0.5884398,-0.6443416,0.023857256,1
1.400000000000001,7.43697011284547,0.4397797732888229,-0.8596912465091464,-0.5510178501290894,9.118115,0.52458626,-1.800328,-0.104031354,5.730692,-5.041906,2.0324588,0.27613896,-0.10911675,0.010880321,0.9548409,-8.553327,7.271338,0.80132717,0.6343822,-0.7672435,0.025457792,0
1.410000000000001,7.43697011284547,0.4397797732888229,-0.8596912465091464,-0.5510178501290894,9.118115,0.52458626,-1.800328,-0.104031354,5.645084,-4.9691615,2.0403445,0.276462,-0.104562156,0.012771106,0.9552336,-8.568107,7.2773995,0.77586055,0.60401994,-0.7816724,-0.0028300444,0
1.420000000000001,7.43697011284547,0.4397797732888229,-0.8596912465091464,-0.5510178501290894,9.118115,0.52458626,-1.800328,-0.104031354,5.559332,-4.896356,2.0479763,0.27689624,-0.099981986,0.014495399,0.95557344,-8.58217,7.28354,0.7505298,0.5783929,-0.7938496,-0.02972977,0
1.430000000000001,7.43697011284547,0.4397797732888229,-0.8596912465091464,-0.5510178501290894,9.118115,0.52458626,-1.800328,-0.104031354,5.473443,-4.8234897,2.0553558,0.27743816,-0.09538041,0.016078074,0.9558613,-8.595515,7.289736,0.72532934,0.5567627,-0.8041263,-0.055309523,0
1.440000000000001,7.43697011284547,0.4397797732888229,-0.8596912465091464,-0.5510178501290894,8.560852,0.26672623,-1.7336144,-0.31130537,5.3874245,-4.750561,2.0624835,0.2780839,-0.09076098,0.017540244,0.95609766,-8.608144,7.2959685,0.7002531,0.53850603,-0.81279963,-0.07963407,0
1.450000000000001,7.43697011284547,0.4397797732888229,-0.8596912465091464,-0.5510178501290894,8.560852,0.26672623,-1.7336144,-0.31130537,5.3012834,-4.6775703,2.0693612,0.2788295,-0.08612666,0.018899847,0.9562833,-8.620057,7.3022223,0.67529523,0.5230971,-0.8201194,-0.10276501,0
1.460000000000001,7.43697011284547,0.4397797732888229,-0.8596912465091464,-0.5510178501290894,8.560852,0.26672623,-1.7336144,-0.31130537,5.215027,-4.604517,2.0759897,0.27967075,-0.08147998,0.020172112,0.9564188,-8.631255,7.308483,0.6504496,0.51009154,-0.826297,-0.124760896,0
1.470000000000001,7.43697011284547,0.4397797732888229,-0.8596912465091464,-0.5510178501290894,8.560852,0.26672623,-1.7336144,-0.31130537,5.128661,-4.5314007,2.0823703,0.2806036,-0.07682306,0.02136999,0.956505,-8.64174,7.3147383,0.62571007,0.49911472,-0.8315107,-0.14567746,0
1.480000000000001,7.2062114274241775,0.37842383907032134,-0.9388570787367878,-0.6315537275375798,8.204521,0.4813792,-1.9944494,-0.34202316,5.0421944,-4.458222,2.088504,0.28162384,-0.0721577,0.022504492,0.95654243,-8.65151,7.3209777,0.6010705,0.4898501,-0.83591104,-0.16556764,0
1.490000000000001,7.2062114274241775,0.37842383907032134,-0.9388570787367878,-0.6315537275375798,8.204521,0.4813792,-1.9944494,-0.34202316,4.955635,-4.3849816,2.0943804,0.28273594,-0.06746227,0.023551852,0.9565318,-8.660284,7.326997,0.5742425,0.47245878,-0.8519706,-0.1884337,0
1.500000000000001,7.2062114274241775,0.37842383907032134,-0.9388570787367878,-0.6315537275375798,8.204521,0.4813792,-1.9944494,-0.34202316,4.8689914,-4.311682,2.099989,0.2839441,-0.062719755,0.024493704,0.956473,-8.668363,7.3329744,0.5475,0.4577801,-0.8655252,-0.21017773,0
1.5100000000000011,7.2062114274241775,0.37842383907032134,-0.9388570787367878,-0.6315537275375798,8.204521,0.4813792,-1.9944494,-0.34202316,4.7822704,-4.2383227,2.1053305,0.28524384,-0.057937797,0.025346009,0.9563656,-8.675744,7.3388934,0.52083796,0.4453912,-0.8769655,-0.23085476,0
1.5200000000000011,7.048469325449043,0.40993771384417393,-0.8700588865283633,-0.7238140370483567,8.003215,0.3605604,-1.9554493,-0.42510727,4.6954794,-4.1649046,2.1104057,0.28663072,-0.053122845,0.026122317,0.95620954,-8.682424,7.344739,0.49425092,0.43493485,-0.8866215,-0.2505172,0
1.5300000000000011,7.048469325449043,0.40993771384417393,-0.8700588865283633,-0.7238140370483567,8.003215,0.3605604,-1.9554493,-0.42510727,4.6086254,-4.091429,2.1152077,0.2881113,-0.048303336,0.026853504,0.9559999,-8.68827,7.350374,0.4661659,0.4310237,-0.88404435,-0.273742,0
1.5400000000000011,7.048469325449043,0.40993771384417393,-0.8700588865283633,-0.7238140370483567,8.003215,0.3605604,-1.9554493,-0.42510727,4.5217166,-4.0178976,2.119729,0.28969145,-0.043502126,0.02756473,0.9557327,-8.693433,7.3559213,0.4381418,0.42772305,-0.8818689,-0.29582715,0
1.5500000000000012,7.048469325449043,0.40993771384417393,-0.8700588865283633,-0.7238140370483567,8.003215,0.3605604,-1.9554493,-0.42510727,4.434759,-3.944311,2.1239707,0.291366,-0.0387167,0.028258936,0.9554092,-8.697912,7.3613763,0.41017184,0.42493775,-0.8800324,-0.3168286,0
1.5600000000000012,7.348502109828858,0.5163558095864736,-0.7190119626893651,-0.8052174772090747,8.284208,-0.18927857,-1.630814,-0.41013092,4.34776,-3.87067,2.1279328,0.29312998,-0.03394495,0.02893865,0.95503074,-8.701712,7.3667364,0.38224941,0.42258734,-0.8784821,-0.33679947,1
1.5700000000000012,7.348502109828858,0.5163558095864736,-0.7190119626893651,-0.8052174772090747,8.284208,-0.18927857,-1.630814,-0.41013092,4.2607236,-3.7969718,2.1316774,0.2949425,-0.02896373,0.029288856,0.954626,-8.705375,7.372906,0.36667985,0.32713917,-0.9957878,-0.34039786,1
1.5800000000000012,7.348502109828858,0.5163558095864736,-0.7190119626893651,-0.8052174772090747,8.284208,-0.18927857,-1.630814,-0.41013092,4.1736555,-3.723213,2.1352665,0.2967658,-0.023596503,0.029059425,0.95421565,-8.708209,7.378853,0.35115924,0.24657965,-1.0948025,-0.3438197,1
1.5900000000000012,7.348502109828858,0.5163558095864736,-0.7190119626893651,-0.8052174772090747,8.284208,-0.18927857,-1.630814,-0.41013092,4.086563,-3.6493962,2.1387007,0.29859924,-0.017904297,0.028339874,0.95378906,-8.710185,7.384468,0.33568674,0.17858662,-1.1783783,-0.3470736,1
1.6000000000000012,7.5363754422828,0.7257679977291951,-0.20272944824831782,-0.885943623509596,7.7222824,0.1979002,-1.2159828,-0.36766124,3.9994552,-3.575525,2.1419804,0.3004416,-0.011938546,0.027205877,0.9533368,-8.711277,7.3896604,0.32025814,0.12119988,-1.2489227,-0.35016787,0
1.6100000000000012,7.5363754422828,0.7257679977291951,-0.20272944824831782,-0.885943623509596,7.7222824,0.1979002,-1.2159828,-0.36766124,3.912341,-3.5016065,2.1450684,0.30233625,-0.006178644,0.02624205,0.9528194,-8.711459,7.3939505,0.297399,0.21550058,-1.0857946,-0.37645856,0
1.6200000000000012,7.5363754422828,0.7257679977291951,-0.20272944824831782,-0.885943623509596,7.7222824,0.1979002,-1.2159828,-0.36766124,3.825229,-3.4276474,2.1479285,0.3043257,-0.0010057335,0.02591664,0.95221424,-8.710871,7.3978863,0.27455726,0.29509467,-0.94810534,-0.40145916,0
1.6300000000000012,7.5363754422828,0.7257679977291951,-0.20272944824831782,-0.885943623509596,7.7222824,0.1979002,-1.2159828,-0.36766124,3.7381263,-3.35365,2.1505597,0.30640644,0.0036723567,0.026131686,0.9515343,-8.709564,7.401574,0.2517191,0.36227545,-0.83188754,-0.42523295,0
1.6400000000000012,7.5363754422828,0.7257679977291951,-0.20272944824831782,-0.885943623509596,7.768505,0.037646748,-0.6141245,-0.5196299,3.65104,-3.2796166,2.152963,0.30857468,0.007933311,0.026804304,0.9507886,-8.707584,7.4051065,0.2288737,0.41897827,-0.73379254,-0.44784015,1
1.6500000000000012,7.5363754422828,0.7257679977291951,-0.20272944824831782,-0.885943623509596,7.768505,0.037646748,-0.6141245,-0.5196299,3.5639772,-3.2055476,2.1551487,0.31079054,0.011915029,0.027551273,0.9500037,-8.704888,7.408656,0.20833051,0.3595136,-0.71511406,-0.4513629,1
1.6600000000000013,7.5363754422828,0.7257679977291951,-0.20272944824831782,-0.885943623509596,7.768505,0.037646748,-0.6141245,-0.5196299,3.4769447,-3.1314437,2.1571295,0.31301698,0.015729412,0.028064702,0.9492018,-8.701572,7.412105,0.1877679,0.30932185,-0.69935083,-0.45471278,1
1.6700000000000013,7.5363754422828,0.7257679977291951,-0.20272944824831782,-0.885943623509596,7.768505,0.037646748,-0.6141245,-0.5196299,3.389948,-3.057306,2.1589043,0.3152543,0.01940195,0.028381372,0.9483837,-8.697673,7.415427,0.1671837,0.26695675,-0.6860479,-0.4578983,1
1.6800000000000013,7.816863026811366,0.9405550404657853,0.3754888308557011,-0.9523406543899602,8.261248,-0.00948336,-0.43733218,-0.5639791,3.302993,-2.9831357,2.160473,0.31750247,0.022954235,0.028532274,0.94754946,-8.69322,7.418599,0.14657596,0.23119807,-0.67482114,-0.4609275,1
1.6900000000000013,7.816863026811366,0.9405550404657853,0.3754888308557011,-0.9523406543899602,8.261248,-0.00948336,-0.43733218,-0.5639791,3.2160869,-2.9089336,2.1618602,0.31976485,0.026331365,0.028548338,0.9467,-8.687925,7.421792,0.13085653,0.19367284,-0.63777417,-0.46598426,1
1.7000000000000013,7.816863026811366,0.9405550404657853,0.3754888308557011,-0.9523406543899602,8.261248,-0.00948336,-0.43733218,-0.5639791,3.1292365,-2.8347006,2.1630902,0.3220449,0.029490843,0.02845564,0.94583637,-8.68211,7.4247932,0.1151092,0.1619983,-0.60650647,-0.4707929,1
1.7100000000000013,7.816863026811366,0.9405550404657853,0.3754888308557011,-0.9523406543899602,8.261248,-0.00948336,-0.43733218,-0.5639791,3.0424466,-2.7604387,2.1641624,0.32434243,0.03246625,0.028271688,0.9449589,-8.675811,7.427595,0.09933342,0.13526203,-0.580116,-0.47536558,1
1.7200000000000013,8.099500200859534,1.190492354874927,1.0884849674527208,-0.9775367550471616,8.441847,0.080861904,-0.20235015,-0.588787,2.9557219,-2.6861498,2.1650767,0.32665682,0.03528597,0.028011197,0.94406796,-8.669063,7.4301915,0.08352876,0.11269458,-0.55784225,-0.4797139,0
1.7300000000000013,8.099500200859534,1.190492354874927,1.0884849674527208,-0.9775367550471616,8.441847,0.080861904,-0.20235015,-0.588787,2.869066,-2.611836,2.165825,0.32900155,0.0375537,0.02834165,0.943156,-8.66204,7.432557,0.066083916,0.2808517,-0.30115524,-0.5041422,0
1.7400000000000013,8.099500200859534,1.190492354874927,1.0884849674527208,-0.9775367550471616,8.441847,0.080861904,-0.20235015,-0.588787,2.7824821,-2.5374987,2.1663983,0.3313925,0.038958434,0.029794164,0.9422167,-8.6546755,7.434918,0.048608743,0.42277944,-0.084494546,-0.5273718,0
1.7500000000000013,8.099500200859534,1.190492354874927,1.0884849674527208,-0.9775367550471616,8.441847,0.080861904,-0.20235015,-0.588787,2.6959734,-2.463137,2.166797,0.33383116,0.039636586,0.032196052,0.941248,-8.647037,7.437477,0.031101957,0.54256785,0.098382145,-0.5494615,0
1.7600000000000013,8.509144483693166,1.3521949909480984,1.5215290253753204,-0.9453694741006113,8.989812,0.5191208,0.29572216,-0.7197501,2.6095421,-2.388748,2.16702,0.33631724,0.03970275,0.03540111,0.94024456,-8.639177,7.4404054,0.013561372,0.64367,0.25274327,-0.5704673,0
1.7700000000000014,8.509144483693166,1.3521949909480984,1.5215290253753204,-0.9453694741006113,8.989812,0.5191208,0.29572216,-0.7197501,2.5231926,-2.3143263,2.1670883,0.33883652,0.03911233,0.03940465,0.939205,-8.630737,7.444028,5.5615325e-05,0.75424284,0.4505598,-0.5888639,0
1.7800000000000014,8.509144483693166,1.3521949909480984,1.5215290253753204,-0.9453694741006113,8.989812,0.5191208,0.29572216,-0.7197501,2.436928,-2.2398648,2.167021,0.3413749,0.037834942,0.044196524,0.93812424,-8.622179,7.4483647,-0.013496027,0.84756416,0.6175316,-0.60635775,0
1.7900000000000014,8.509144483693166,1.3521949909480984,1.5215290253753204,-0.9453694741006113,8.989812,0.5191208,0.29572216,-0.7197501,2.3507493,-2.165356,2.1668181,0.34393066,0.035978355,0.049654823,0.9369901,-8.613553,7.453571,-0.027103456,0.92632467,0.75846845,-0.6229932,0
1.8000000000000014,9.222989157866813,1.2583826496539032,1.86598387012288,-0.8176461348264101,9.372074,0.60063624,0.5875631,-0.8118224,2.264657,-2.0907898,2.1664786,0.34650162,0.033633217,0.055676144,0.9357907,-8.604909,7.459776,-0.040780574,0.9927961,0.87743026,-0.6388123,0
1.8100000000000014,9.222989157866813,1.2583826496539032,1.86598387012288,-0.8176461348264101,9.372074,0.60063624,0.5875631,-0.8118224,2.1786547,-2.0161533,2.1660376,0.34906375,0.03073471,0.062185,0.93452746,-8.595562,7.467707,-0.047469687,1.0342841,1.0315715,-0.64758766,0
1.8200000000000014,9.222989157866813,1.2583826496539032,1.86598387012288,-0.8176461348264101,9.372074,0.60063624,0.5875631,-0.8118224,2.0927455,-1.941431,2.165529,0.35159376,0.027235564,0.069116965,0.93319964,-8.586306,7.476962,-0.05427428,1.0692931,1.1616771,-0.6559325,0
1.8300000000000014,9.222989157866813,1.2583826496539032,1.86598387012288,-0.8176461348264101,9.372074,0.60063624,0.5875631,-0.8118224,2.0069282,-1.8666091,2.1649518,0.3540904,0.023229718,0.076405615,0.93179464,-8.577202,7.4876432,-0.06121947,1.0988351,1.2714951,-0.66386783,0
1.8400000000000014,9.222989157866813,1.2583826496539032,1.86598387012288,-0.8176461348264101,9.944097,0.6368959,0.84671277,-0.71897924,1.921201,-1.7916727,2.1643043,0.35655257,0.018796422,0.08399437,0.93030137,-8.568302,7.4998393,-0.06833467,1.1237632,1.364189,-0.6714138,0
1.8500000000000014,9.222989157866813,1.2583826496539032,1.86598387012288,-0.8176461348264101,9.944097,0.6368959,0.84671277,-0.71897924,1.8355615,-1.7166066,2.1635845,0.35897923,0.0140025625,0.09183496,0.9287103,-8.559651,7.5136228,-0.07565297,1.1447979,1.4424291,-0.6785894,0
1.8600000000000014,9.222989157866813,1.2583826496539032,1.86598387012288,-0.8176461348264101,9.944097,0.6368959,0.84671277,-0.71897924,1.750007,-1.6413944,2.1627903,0.36136952,0.008904626,0.099886216,0.9270136,-8.551281,7.5290546,-0.08321057,1.1625472,1.5084691,-0.68541294,0
1.8700000000000014,9.222989157866813,1.2583826496539032,1.86598387012288,-0.8176461348264101,9.944097,0.6368959,0.84671277,-0.71897924,1.6645348,-1.5660195,2.161919,0.36372262,0.0035503404,0.10811296,0.92520463,-8.543219,7.546186,-0.091046266,1.1775243,1.5642117,-0.6919016,0
1.8800000000000014,10.157575787828858,0.944593593104445,1.9537842245957724,-0.623846377394348,11.087023,0.29626015,0.7342418,-0.5036161,1.5791415,-1.4904647,2.1609683,0.3660379,-0.0020199316,0.11648514,0.923278,-8.535486,7.565057,-0.09920091,1.1901618,1.6112624,-0.69807196,0
1.8900000000000015,10.157575787828858,0.944593593104445,1.9537842245957724,-0.623846377394348,11.087023,0.29626015,0.7342418,-0.5036161,1.4938277,-1.414702,2.1599793,0.3682881,-0.0078477245,0.12487421,0.9212532,-8.527352,7.58779,-0.09863816,1.151886,1.6646987,-0.6944297,0
1.9000000000000015,10.157575787828858,0.944593593104445,1.9537842245957724,-0.623846377394348,11.087023,0.29626015,0.7342418,-0.5036161,1.4085929,-1.3387022,2.158994,0.37044778,-0.013963677,0.1331774,0.9191496,-8.519648,7.6124835,-0.09851307,1.1195754,1.7097987,-0.6909662,0
1.9100000000000015,10.157575787828858,0.944593593104445,1.9537842245957724,-0.623846377394348,11.087023,0.29626015,0.7342418,-0.5036161,1.3234329,-1.2624457,2.1580074,0.3725192,-0.020321487,0.14140555,0.9169622,-8.512416,7.6391377,-0.09886556,1.0923004,1.7478628,-0.6876726,0
1.9200000000000015,11.316151705018138,0.4591530147432274,1.8868448941376048,-0.3708318255310876,11.950617,-0.07605889,0.58138937,-0.21324511,1.2383429,-1.1859128,2.1570148,0.37450472,-0.02688191,0.1495675,0.91468674,-8.505697,7.667752,-0.099737026,1.0692763,1.7799886,-0.6845406,0
1.9300000000000015,11.316151705018138,0.4591530147432274,1.8868448941376048,-0.3708318255310876,11.950617,-0.07605889,0.58138937,-0.21324511,1.1533207,-1.1090667,2.1560662,0.37637678,-0.03365543,0.15748388,0.91236246,-8.498822,7.7018027,-0.09014129,0.97411734,1.7967051,-0.66914684,0
1.9400000000000015,11.316151705018138,0.4591530147432274,1.8868448941376048,-0.3708318255310876,11.950617,-0.07605889,0.58138937,-0.21324511,1.068364,-1.0318695,2.15521,0.37811008,-0.0406481,0.16501412,0.91002715,-8.4926195,7.7379727,-0.08119746,0.89379776,1.8108059,-0.6545085,0
1.9500000000000015,11.316151705018138,0.4591530147432274,1.8868448941376048,-0.3708318255310876,11.950617,-0.07605889,0.58138937,-0.21324511,0.9834658,-0.9543003,2.1544402,0.37971014,-0.0478231,0.17221694,0.9076745,-8.487157,7.7762,-0.07293052,0.8260037,1.8227006,-0.6405884,0
1.9600000000000015,11.846866440067727,-0.22363454513187267,1.2842305846185633,-0.07881152813596295,13.194019,-0.5583577,0.11977337,0.11783376,0.8986182,-0.8763387,2.1537495,0.3811824,-0.055149183,0.17914169,0.9052985,-8.482486,7.816432,-0.06536733,0.7687819,1.8327345,-0.62735134,0
1.9700000000000015,11.846866440067727,-0.22363454513187267,1.2842305846185633,-0.07881152813596295,13.194019,-0.5583577,0.11977337,0.11783376,0.81381416,-0.7979552,2.1531553,0.38252825,-0.062479693,0.18549304,0.90297246,-8.478472,7.860583,-0.05360811,0.6139494,1.7472696,-0.60043436,0
1.9800000000000015,11.846866440067727,-0.22363454513187267,1.2842305846185633,-0.07881152813596295,13.194019,-0.5583577,0.11977337,0.11783376,0.7290456,-0.7191207,2.152675,0.38374773,-0.0696973,0.19104145,0.9007673,-8.47538,7.906605,-0.042589568,0.48327243,1.6751182,-0.5748382,0
1.9900000000000015,11.846866440067727,-0.22363454513187267,1.2842305846185633,-0.07881152813596295,13.194019,-0.5583577,0.11977337,0.11783376,0.64430326,-0.6398173,2.152301,0.38484392,-0.07681684,0.19591361,0.8986717,-8.473252,7.954329,-0.03228149,0.3729822,1.6142068,-0.55049807,0
2.0000000000000013,,,,,13.172981,-1.2971681,-0.31180075,0.67302245,0.5595771,-0.56002873,2.1520267,0.38582006,-0.08385066,0.20021619,0.89667386,-8.472124,8.003613,-0.02265853,0.27989805,1.5627848,-0.5273523,1
2.010000000000001,,,,,13.172981,-1.2971681,-0.31180075,0.67302245,0.4748573,-0.47971186,2.1519055,0.3866892,-0.090384446,0.20341593,0.8949428,-8.472009,8.059977,-0.0016971417,0.033805702,1.2705306,-0.46844956,1
2.020000000000001,,,,,13.172981,-1.2971681,-0.31180075,0.67302245,0.39013305,-0.39882514,2.151991,0.38745436,-0.09609005,0.20509924,0.8936323,-8.473011,8.117524,0.018692723,-0.17387201,1.0238245,-0.4124372,1
2.0300000000000007,,,,,13.172981,-1.2971681,-0.31180075,0.67302245,0.3053933,-0.31735867,2.152278,0.38810417,-0.10109249,0.20550892,0.89270383,-8.475102,8.17586,0.038681783,-0.34913397,0.8155696,-0.35917336,1
2.0400000000000005,,,,,13.172981,-1.2971681,-0.31180075,0.67302245,0.22062731,-0.23530631,2.1527636,0.38862854,-0.105496824,0.20484863,0.8921177,-8.478264,8.234655,0.05841924,-0.49704203,0.6397753,-0.3085232,1
2.0500000000000003,,,,,13.363054,-1.895258,-1.0681506,1.1093992,0.1358244,-0.15266493,2.153446,0.38901913,-0.1093915,0.20328932,0.8918351,-8.482479,8.2936325,0.07803322,-0.6218668,0.49138334,-0.26035848,1
2.06,,,,,13.363054,-1.895258,-1.0681506,1.1093992,0.050973773,-0.06942965,2.1543329,0.38925612,-0.11266337,0.20064916,0.8919223,-8.487809,8.353387,0.09934064,-0.82050407,0.24817288,-0.19314408,1
2.07,,,,,13.363054,-1.895258,-1.0681506,1.1093992,-0.033935353,0.014401384,2.1554334,0.3893148,-0.11522503,0.1967916,0.89242876,-8.494177,8.412728,0.12080254,-0.98813945,0.04287325,-0.12922792,1
2.0799999999999996,,,,,13.363054,-1.895258,-1.0681506,1.1093992,-0.11891326,0.09882237,2.15675,0.3891827,-0.11717985,0.19190927,0.8932947,-8.501562,8.471331,0.14256996,-1.129614,-0.13042292,-0.06844813,1
2.0899999999999994,,,,,14.461321,-2.5380666,-2.1926918,1.9909347,-0.20397006,0.1838245,2.1582863,0.38885003,-0.11861515,0.1861639,0.89446515,-8.509951,8.5289135,0.16476433,-1.2490122,-0.27670246,-0.010650819,1
2.099999999999999,,,,,14.461321,-2.5380666,-2.1926918,1.9909347,-0.28912,0.26942277,2.1601036,0.38826427,-0.11930293,0.17935069,0.8960188,-8.520165,8.590295,0.19838789,-1.4392731,-0.5648556,0.08658254,1
2.109999999999999,,,,,14.461321,-2.5380666,-2.1926918,1.9909347,-0.37437657,0.35562298,2.1622539,0.38736296,-0.119029365,0.1712328,0.8980312,-8.531306,8.649428,0.23178525,-1.610566,-0.81882286,0.18002963,1
2.1199999999999988,,,,,14.461321,-2.5380666,-2.1926918,1.9909347,-0.45974925,0.44240373,2.1647425,0.38612697,-0.117924094,0.16199505,0.90041995,-8.543375,8.706347,0.2660747,-1.755125,-1.033195,0.26889125,1
2.1299999999999986,,,,,15.363284,-2.9926913,-3.4422798,2.9386108,-0.545247,0.52974105,2.167579,0.3845417,-0.11610511,0.1518119,0.90310526,-8.556308,8.760683,0.30136383,-1.8771262,-1.2141421,0.3533924,1
2.1399999999999983,,,,,15.363284,-2.9926913,-3.4422798,2.9386108,-0.6308859,0.61763704,2.17085,0.38255247,-0.113379195,0.14074196,0.9060845,-8.571545,8.817802,0.3526154,-1.9784238,-1.4893022,0.47374377,1
2.149999999999998,,,,,15.363284,-2.9926913,-3.4422798,2.9386108,-0.7166793,0.7060812,2.1746259,0.38009182,-0.109541185,0.12870772,0.90937555,-8.587186,8.87028,0.40234298,-2.0949528,-1.7526325,0.5909664,1
2.159999999999998,,,,,15.363284,-2.9926913,-3.4422798,2.9386108,-0.80263025,0.79502577,2.1788917,0.37712947,-0.10466767,0.11566214,0.91292876,-8.603028,8.917838,0.45059896,-2.223913,-2.0055509,0.7051759,1
2.1699999999999977,,,,,15.146924,-2.9613736,-3.5072038,2.820032,-0.8887406,0.88442206,2.1836395,0.3736394,-0.09884458,0.10161545,0.91667676,-8.61908,8.960716,0.49914512,-2.343542,-2.22983,0.8147711,1
