time-since-start [s],throttle_mpc,roll_mpc,pitch_mpc,yaw_mpc,throttle_nw,roll_nw,pitch_nw,yaw_nw,position_x [m],position_y [m],position_z [m],rotation_w [quaternion],rotation_x [quaternion],rotation_y [quaternion],rotation_z [quaternion],velocity_x [m/s],velocity_y [m/s],velocity_z [m/s],omega_x [rad/s],omega_y [rad/s],omega_z [rad/s],network_used
0.0,9.795976763270277,5.999999669514339,-5.99999992395478,-4.783314414118948,8.166517,1.2311682,-3.3018188,-1.700107,20.15574,-8.777501,2.0057964,-0.109633654,-0.453784,0.273556,0.8409683,-9.820533,-6.597431,0.22611356,1.7295816,-0.4094239,-0.36768043,0
0.01,9.795976763270277,5.999999669514339,-5.99999992395478,-4.783314414118948,13.830086,-0.7688485,-5.010309,-1.3445679,20.056845,-8.84317,2.0079339,-0.10325081,-0.45327452,0.279937,0.83995044,-9.9582615,-6.5359926,0.2010984,1.6702329,-0.55619407,-0.51951075,0
0.02,9.795976763270277,5.999999669514339,-5.99999992395478,-4.783314414118948,13.830086,-0.7688485,-5.010309,-1.3445679,19.956583,-8.9082155,2.0098114,-0.096121386,-0.45229366,0.28585586,0.8393316,-10.0933275,-6.4727583,0.17411639,1.6447245,-0.7046849,-0.6660902,0
0.03,9.795976763270277,5.999999669514339,-5.99999992395478,-4.783314414118948,13.830086,-0.7688485,-5.010309,-1.3445679,19.854988,-8.97262,2.0114102,-0.088188834,-0.45084465,0.29144996,0.8390583,-10.225525,-6.407781,0.14536095,1.6483405,-0.85519737,-0.80772674,0
0.04,9.795976763270277,5.999999669514339,-5.99999992395478,-4.783314414118948,11.460383,-0.60789996,-6.4009013,-2.4207923,19.752085,-9.036366,2.0127132,-0.07940497,-0.44892332,0.29683587,0.8390776,-10.354654,-6.3410788,0.1150013,1.6769923,-1.0078745,-0.94470334,0
0.05,9.795976763270277,5.999999669514339,-5.99999992395478,-4.783314414118948,11.460383,-0.60789996,-6.4009013,-2.4207923,19.647905,-9.099437,2.0137053,-0.069729194,-0.44651926,0.30211148,0.8393372,-10.48052,-6.272643,0.083186164,1.7271307,-1.1627369,-1.0772805,0
0.060000000000000005,9.795976763270277,5.999999669514339,-5.99999992395478,-4.783314414118948,11.460383,-0.60789996,-6.4009013,-2.4207923,19.542484,-9.161815,2.0143723,-0.059127785,-0.443617,0.30735844,0.83978486,-10.602926,-6.2024493,0.050047133,1.7956712,-1.319713,-1.205698,0
0.07,9.795976763270277,5.999999669514339,-5.99999992395478,-4.783314414118948,11.460383,-0.60789996,-6.4009013,-2.4207923,19.43586,-9.22348,2.0147018,-0.047573432,-0.4401968,0.31264383,0.8403674,-10.721677,-6.130462,0.015701469,1.8799311,-1.4786617,-1.3301766,0
0.08,12.064796643456873,5.9999998432981405,-5.999999958635176,-4.498256197666649,10.965671,-0.20173891,-6.803489,-2.6768339,19.328066,-9.284418,2.0146825,-0.035044692,-0.43623555,0.31802154,0.84103066,-10.8365755,-6.0566444,-0.019745372,1.9775746,-1.6393911,-1.45092,0
0.09,12.064796643456873,5.9999998432981405,-5.999999958635176,-4.498256197666649,10.965671,-0.20173891,-6.803489,-2.6768339,19.219093,-9.344574,2.0143309,-0.021342983,-0.43149373,0.32376158,0.84174573,-10.957163,-5.9742813,-0.05077012,2.1875377,-1.9028393,-1.5631561,0
0.09999999999999999,12.064796643456873,5.9999998432981405,-5.999999958635176,-4.498256197666649,10.965671,-0.20173891,-6.803489,-2.6768339,19.10894,-9.403897,2.013663,-0.006294323,-0.42574397,0.33008748,0.8424634,-11.072672,-5.8899465,-0.08296074,2.3982966,-2.158797,-1.6728858,0
0.10999999999999999,12.064796643456873,5.9999998432981405,-5.999999958635176,-4.498256197666649,10.965671,-0.20173891,-6.803489,-2.6768339,18.997658,-9.462366,2.0126681,0.010078701,-0.41897574,0.33696926,0.8430951,-11.182794,-5.803476,-0.11619185,2.6091275,-2.4078288,-1.7801781,0
0.11999999999999998,12.064796643456873,5.9999998432981405,-5.999999958635176,-4.498256197666649,10.965671,-0.20173891,-6.803489,-2.6768339,18.885302,-9.519959,2.011336,0.027749993,-0.41117424,0.34437105,0.84354854,-11.287215,-5.714762,-0.15035298,2.8194244,-2.6504161,-1.885099,0
0.12999999999999998,15.791587754463505,5.999999921855816,-5.999999981058159,-3.8850808044500367,11.316205,0.9221141,-7.1608057,-2.3880136,18.77193,-9.576653,2.0096583,0.046689514,-0.40232143,0.3522514,0.84372765,-11.385621,-5.623753,-0.18534765,3.0286794,-2.8869708,-1.9877124,0
0.13999999999999999,15.791587754463505,5.999999921855816,-5.999999981058159,-3.8850808044500367,11.316205,0.9221141,-7.1608057,-2.3880136,18.657545,-9.632363,2.0076687,0.06718956,-0.39195675,0.36094695,0.84354764,-11.489972,-5.5179505,-0.2127501,3.4224951,-3.3043156,-2.0746279,0
0.15,15.791587754463505,5.999999921855816,-5.999999981058159,-3.8850808044500367,11.316205,0.9221141,-7.1608057,-2.3880136,18.542158,-9.687004,2.0053995,0.08949555,-0.37964293,0.37071404,0.8428717,-11.58603,-5.409929,-0.24122764,3.7977388,-3.6994522,-2.1611104,0
0.16,19.640230648568977,5.999999945982879,-5.999999986490162,-3.1941690921640835,12.886217,1.6008428,-7.0138774,-1.8628515,18.425854,-9.740551,2.0028424,0.11348115,-0.36541325,0.38136986,0.84151775,-11.67402,-5.298615,-0.27002937,4.140337,-4.0588155,-2.2456954,0
0.17,19.640230648568977,5.999999945982879,-5.999999986490162,-3.1941690921640835,12.886217,1.6008428,-7.0138774,-1.8628515,18.308605,-9.792819,2.000087,0.13883853,-0.34938675,0.3926777,0.83931935,-11.7741375,-5.153935,-0.28091118,4.429775,-4.3620996,-2.2922373,0
0.18000000000000002,19.640230648568977,5.999999945982879,-5.999999986490162,-3.1941690921640835,12.886217,1.6008428,-7.0138774,-1.8628515,18.190407,-9.843609,1.997228,0.16524655,-0.33171204,0.4044002,0.8361346,-11.863836,-5.003197,-0.29072884,4.6741366,-4.618028,-2.3364952,0
0.19000000000000003,19.640230648568977,5.999999945982879,-5.999999986490162,-3.1941690921640835,12.886217,1.6008428,-7.0138774,-1.8628515,18.071367,-9.892863,1.9942762,0.19248267,-0.31255293,0.4163059,0.83183557,-11.942088,-4.8468065,-0.29950276,4.8804436,-4.8339934,-2.3785818,0
0.20000000000000004,20.99999970451609,5.9194734227029295,-5.999999803450998,-3.1600163774850003,15.858395,1.8794197,-5.880907,-1.2115341,17.951607,-9.940527,1.9912416,0.22034514,-0.29205889,0.4281968,0.8263154,-12.007958,-4.6853595,-0.3072962,5.054625,-5.016233,-2.418603,0
0.21000000000000005,20.99999970451609,5.9194734227029295,-5.999999803450998,-3.1600163774850003,15.858395,1.8794197,-5.880907,-1.2115341,17.831234,-9.986497,1.988165,0.24863753,-0.27037328,0.43987852,0.81950265,-12.06427,-4.5081453,-0.30789542,5.189133,-5.169986,-2.4549844,0
0.22000000000000006,20.99999970451609,5.9194734227029295,-5.999999803450998,-3.1600163774850003,15.858395,1.8794197,-5.880907,-1.2115341,17.710373,-10.030676,1.9850866,0.27718264,-0.24763,0.45118815,0.8113436,-12.105716,-4.3273187,-0.30768424,5.302703,-5.299727,-2.4895806,0
0.23000000000000007,20.99999970451609,5.9194734227029295,-5.999999803450998,-3.1600163774850003,15.858395,1.8794197,-5.880907,-1.2115341,17.589174,-10.073034,1.9820136,0.30583075,-0.22394843,0.46201146,0.8017856,-12.131688,-4.143982,-0.3068217,5.398595,-5.4092054,-2.522479,0
0.24000000000000007,20.99999970451609,5.9194734227029295,-5.999999803450998,-3.1600163774850003,15.837366,0.43628043,-4.6207323,-0.8138479,17.467794,-10.113552,1.9789518,0.33444378,-0.19944046,0.47225124,0.79079056,-12.141721,-3.9593391,-0.305493,5.479562,-5.5015845,-2.5537632,0
0.25000000000000006,20.99999970451609,5.9194734227029295,-5.999999803450998,-3.1600163774850003,15.837366,0.43628043,-4.6207323,-0.8138479,17.346395,-10.152221,1.9759046,0.36289382,-0.17421147,0.48182496,0.7783336,-12.135491,-3.7746708,-0.3039044,5.5479283,-5.5795336,-2.583512,0
0.26000000000000006,20.99999970451609,5.9194734227029295,-5.999999803450998,-3.1600163774850003,15.837366,0.43628043,-4.6207323,-0.8138479,17.225142,-10.189049,1.9728738,0.39106223,-0.148361,0.4906626,0.76440156,-12.112827,-3.5913146,-0.30227837,5.605656,-5.6453056,-2.6118014,0
0.2700000000000001,20.99999970451609,5.9194734227029295,-5.999999803450998,-3.1600163774850003,15.837366,0.43628043,-4.6207323,-0.8138479,17.104195,-10.224056,1.9698584,0.41883856,-0.121983476,0.49870506,0.7489912,-12.073708,-3.4106445,-0.30084905,5.654402,-5.7008023,-2.6387024,0
0.2800000000000001,20.999999003951256,3.4749190070923395,-5.004214798453311,-0.6318909431066846,16.236012,-0.86922294,-4.030714,-0.7253758,16.983723,-10.257276,1.9668553,0.44612002,-0.095168754,0.50590247,0.7321084,-12.018264,-3.2340527,-0.299858,5.6955633,-5.7476277,-2.6642835,0
0.2900000000000001,20.999999003951256,3.4749190070923395,-5.004214798453311,-0.6318909431066846,16.236012,-0.86922294,-4.030714,-0.7253758,16.863884,-10.288756,1.9638591,0.47230875,-0.06858158,0.51172817,0.71439165,-11.946864,-3.0629137,-0.2995117,5.349824,-5.630744,-2.5645533,0
0.3000000000000001,20.999999003951256,3.4749190070923395,-5.004214798453311,-0.6318909431066846,16.236012,-0.86922294,-4.030714,-0.7253758,16.744835,-10.318558,1.960863,0.49697456,-0.04276405,0.51584697,0.6964838,-11.860505,-2.898436,-0.29979086,5.05794,-5.5322356,-2.4697168,0
0.3100000000000001,20.999999003951256,3.4749190070923395,-5.004214798453311,-0.6318909431066846,16.236012,-0.86922294,-4.030714,-0.7253758,16.62672,-10.346752,1.9578613,0.5202521,-0.01762268,0.51847047,0.6783921,-11.760343,-2.7416387,-0.30061284,4.8115225,-5.449211,-2.379534,0
0.3200000000000001,20.371475147202222,1.450661318392578,-2.7865454785642076,0.2130275892173984,16.031717,-2.5677161,-2.3440645,0.3027424,16.50967,-10.373421,1.954849,0.5422514,0.0069248616,0.51977164,0.6601161,-11.647482,-2.5933974,-0.3019182,4.603489,-5.3792334,-2.2937765,0
0.3300000000000001,20.371475147202222,1.450661318392578,-2.7865454785642076,0.2130275892173984,16.031717,-2.5677161,-2.3440645,0.3027424,16.393791,-10.398673,1.9518071,0.5625593,0.029979235,0.51986414,0.6421602,-11.526793,-2.4585574,-0.30654687,4.112813,-4.97384,-2.1707668,0
0.34000000000000014,20.371475147202222,1.450661318392578,-2.7865454785642076,0.2130275892173984,16.031717,-2.5677161,-2.3440645,0.3027424,16.279167,-10.422623,1.948717,0.58092505,0.050844908,0.5189307,0.6250216,-11.396394,-2.3328106,-0.31152678,3.6984897,-4.631863,-2.0537934,0
0.35000000000000014,20.371475147202222,1.450661318392578,-2.7865454785642076,0.2130275892173984,16.031717,-2.5677161,-2.3440645,0.3027424,16.165892,-10.445359,1.9455757,0.5976409,0.06986712,0.51717645,0.6086647,-11.257723,-2.2160392,-0.31676227,3.3486433,-4.3433743,-1.9425598,0
0.36000000000000015,18.8697873705718,-0.40720970053932576,-0.6165072608195584,1.0634053067049725,15.845996,-3.707631,-0.28591052,0.5504688,16.054039,-10.466973,1.9423813,0.61294484,0.08734185,0.5147571,0.59303904,-11.111989,-2.1080678,-0.3221574,3.0532453,-4.100003,-1.8367846,0
0.37000000000000016,18.8697873705718,-0.40720970053932576,-0.6165072608195584,1.0634053067049725,15.845996,-3.707631,-0.28591052,0.5504688,15.943617,-10.487587,1.9390982,0.62660354,0.10260735,0.51189137,0.57862514,-10.9714575,-2.0159419,-0.33444393,2.5145724,-3.5558727,-1.6944714,0
0.38000000000000017,18.8697873705718,-0.40720970053932576,-0.6165072608195584,1.0634053067049725,15.845996,-3.707631,-0.28591052,0.5504688,15.834623,-10.507317,1.9356927,0.6384877,0.1151712,0.5088042,0.56585103,-10.826523,-1.93097,-0.3466616,2.0597038,-3.0967946,-1.5591415,0
0.3900000000000002,18.8697873705718,-0.40720970053932576,-0.6165072608195584,1.0634053067049725,15.845996,-3.707631,-0.28591052,0.5504688,15.7270975,-10.526228,1.9321657,0.6489024,0.12549303,0.50559473,0.554573,-10.6781845,-1.8523077,-0.35867146,1.6756122,-2.709463,-1.4304523,0
0.4000000000000002,19.026655920164956,-3.5537310333438596,2.4578401090532043,3.0992526813567394,16.011219,-4.014636,1.5721074,1.2477349,15.621069,-10.54438,1.9285203,0.65809005,0.1339592,0.50232583,0.5446478,-10.527227,-1.7791888,-0.37034285,1.351293,-2.382656,-1.308078,0
0.4100000000000002,19.026655920164956,-3.5537310333438596,2.4578401090532043,3.0992526813567394,16.011219,-4.014636,1.5721074,1.2477349,15.516646,-10.561788,1.9248097,0.6657069,0.13949788,0.49912664,0.53688675,-10.357686,-1.7033432,-0.37206513,0.58146286,-1.6327964,-1.1094769,0
0.4200000000000002,19.026655920164956,-3.5537310333438596,2.4578401090532043,3.0992526813567394,16.011219,-4.014636,1.5721074,1.2477349,15.413905,-10.578466,1.9210737,0.6714866,0.14130269,0.49614075,0.5319621,-10.191257,-1.6329222,-0.37536174,-0.06431286,-0.9958857,-0.9157943,0
0.4300000000000002,19.026655920164956,-3.5537310333438596,2.4578401090532043,3.0992526813567394,16.011219,-4.014636,1.5721074,1.2477349,15.312808,-10.594459,1.9172981,0.67568445,0.14002301,0.4933902,0.52953774,-10.028795,-1.5660957,-0.37992874,-0.6065423,-0.45546547,-0.7269086,0
0.4400000000000002,19.026655920164956,-3.5537310333438596,2.4578401090532043,3.0992526813567394,15.883811,-5.2967005,4.169601,1.6257626,15.213313,-10.609795,1.9134715,0.67848706,0.1361985,0.49085855,0.5293044,-9.870905,-1.5013818,-0.3855441,-1.0623949,0.0024948567,-0.54270095,0
0.45000000000000023,19.026655920164956,-3.5537310333438596,2.4578401090532043,3.0992526813567394,15.883811,-5.2967005,4.169601,1.6257626,15.1153755,-10.624489,1.9095855,0.6800375,0.13027664,0.48849934,0.5309852,-9.717072,-1.437198,-0.3914782,-1.4497626,0.38643694,-0.36417657,0
0.46000000000000024,19.026655920164956,-3.5537310333438596,2.4578401090532043,3.0992526813567394,15.883811,-5.2967005,4.169601,1.6257626,15.018966,-10.638533,1.9056469,0.68045676,0.1226225,0.48624557,0.5343291,-9.565012,-1.3714682,-0.39599326,-1.7778753,0.70935416,-0.1942251,0
0.47000000000000025,19.026655920164956,-3.5537310333438596,2.4578401090532043,3.0992526813567394,15.883811,-5.2967005,4.169601,1.6257626,14.924067,-10.651908,1.901671,0.67983294,0.11353948,0.48404902,0.5391035,-9.41501,-1.3033454,-0.39891246,-2.0548863,0.98184985,-0.03261321,0
0.48000000000000026,20.799066211907064,-5.761244857079411,4.480535944803349,3.3442306938691506,16.23597,-4.149503,5.1979,1.2858492,14.830657,-10.664589,1.8976742,0.67823416,0.10328142,0.48186523,0.5451031,-9.267488,-1.2321925,-0.40019384,-2.2887456,1.2118067,0.12106836,0
0.49000000000000027,20.799066211907064,-5.761244857079411,4.480535944803349,3.3442306938691506,16.23597,-4.149503,5.1979,1.2858492,14.738775,-10.676505,1.8937186,0.6753889,0.091033064,0.47971034,0.5526672,-9.109419,-1.1504446,-0.39064083,-2.8304944,1.7212317,0.27922982,0
0.5000000000000002,20.799066211907064,-5.761244857079411,4.480535944803349,3.3442306938691506,16.23597,-4.149503,5.1979,1.2858492,14.648455,-10.687579,1.8898678,0.6710336,0.07615201,0.47755805,0.56200826,-8.955367,-1.0636805,-0.37921435,-3.28783,2.151141,0.42963028,0
0.5100000000000002,20.799066211907064,-5.761244857079411,4.480535944803349,3.3442306938691506,16.23597,-4.149503,5.1979,1.2858492,14.559651,-10.697757,1.8861407,0.6652208,0.059069145,0.47530845,0.5727777,-8.806253,-0.97090423,-0.36590472,-3.6738915,2.5139604,0.5726506,0
0.5200000000000002,20.999997981144844,-5.999998820729261,5.2816177329291225,4.046140611313036,17.462902,-4.2660956,5.768177,1.6662081,14.47231,-10.706973,1.8825558,0.65798616,0.0401515,0.47287208,0.584666,-8.662985,-0.87137103,-0.35077885,-3.999776,2.8201723,0.70865285,0
0.5300000000000002,20.999997981144844,-5.999998820729261,5.2816177329291225,4.046140611313036,17.462902,-4.2660956,5.768177,1.6662081,14.386375,-10.715154,1.8791364,0.6491548,0.019503193,0.47031954,0.5975095,-8.525148,-0.7635056,-0.3328737,-4.3122263,3.203431,0.87242436,0
0.5400000000000003,20.999997981144844,-5.999998820729261,5.2816177329291225,4.046140611313036,17.462902,-4.2660956,5.768177,1.6662081,14.30178,-10.722217,1.8759032,0.63856584,-0.0027693687,0.4676898,0.6111404,-8.395098,-0.6477862,-0.3135625,-4.5759735,3.52691,1.0281595,0
0.5500000000000003,20.999997981144844,-5.999998820729261,5.2816177329291225,4.046140611313036,17.462902,-4.2660956,5.768177,1.6662081,14.218443,-10.728083,1.8728688,0.62626547,-0.026367586,0.4648694,0.62529445,-8.273815,-0.5239136,-0.29319715,-4.798598,3.7999446,1.1762527,0
0.5600000000000003,20.999997443189237,-5.999998612792366,4.524582777589318,3.381597214457615,17.558605,-5.473021,5.566868,2.338195,14.13627,-10.732667,1.8700417,0.61229587,-0.0510304,0.4617639,0.6397375,-8.162261,-0.39181504,-0.2721671,-4.986501,4.0304103,1.3170788,0
0.5700000000000003,20.999997443189237,-5.999998612792366,4.524582777589318,3.381597214457615,17.558605,-5.473021,5.566868,2.338195,14.0551605,-10.735891,1.8674264,0.59689426,-0.07637108,0.45810977,0.6542327,-8.061353,-0.25164413,-0.25087285,-5.144892,4.1070013,1.4183851,0
0.5800000000000003,20.999997443189237,-5.999998612792366,4.524582777589318,3.381597214457615,17.558605,-5.473021,5.566868,2.338195,13.975003,-10.737675,1.8650241,0.5802769,-0.102064125,0.45370847,0.66858846,-7.9719143,-0.1038499,-0.2296315,-5.278567,4.1716685,1.5147206,0
0.5900000000000003,20.999997443189237,-5.999998612792366,4.524582777589318,3.381597214457615,17.558605,-5.473021,5.566868,2.338195,13.89568,-10.737945,1.8628327,0.5624588,-0.1279783,0.44857782,0.682671,-7.8946877,0.050950695,-0.20874839,-5.3913803,4.2262726,1.6063287,0
0.6000000000000003,20.592092977116867,-5.427605007322001,2.8587939092417183,2.108939332678549,18.625427,-5.2000833,5.775036,2.3821018,13.817066,-10.736634,1.8608469,0.5434615,-0.153997,0.4427368,0.69636106,-7.83034,0.21203569,-0.18854955,-5.486585,4.2723827,1.6934417,0
0.6100000000000003,20.592092977116867,-5.427605007322001,2.8587939092417183,2.108939332678549,18.625427,-5.2000833,5.775036,2.3821018,13.739022,-10.733701,1.8590468,0.5237608,-0.17949784,0.43598968,0.70948446,-7.780403,0.37531984,-0.1716182,-5.477198,4.051872,1.7138304,0
0.6200000000000003,20.592092977116867,-5.427605007322001,2.8587939092417183,2.108939332678549,18.625427,-5.2000833,5.775036,2.3821018,13.661412,-10.729114,1.8574108,0.5037928,-0.20399216,0.4282209,0.72194666,-7.743828,0.54284453,-0.15576218,-5.4693055,3.8657515,1.7332184,0
0.6300000000000003,20.592092977116867,-5.427605007322001,2.8587939092417183,2.108939332678549,18.625427,-5.2000833,5.775036,2.3821018,13.584101,-10.722834,1.8559277,0.48352754,-0.227566,0.41955316,0.73375076,-7.7206635,0.7134941,-0.14103091,-5.46267,3.708659,1.7516551,0
0.6400000000000003,20.592092977116867,-5.427605007322001,2.8587939092417183,2.108939332678549,19.262829,-5.2236266,4.952263,1.8814076,13.506954,-10.714836,1.8545861,0.46294215,-0.25029203,0.41008878,0.74489325,-7.7109046,0.8862085,-0.12749027,-5.457091,3.5760667,1.7691872,0
0.6500000000000004,20.592092977116867,-5.427605007322001,2.8587939092417183,2.108939332678549,19.262829,-5.2236266,4.952263,1.8814076,13.429838,-10.705105,1.8533736,0.4420206,-0.27223116,0.39991352,0.75536585,-7.714494,1.0599757,-0.11522048,-5.452401,3.4641547,1.785859,0
0.6600000000000004,20.592092977116867,-5.427605007322001,2.8587939092417183,2.108939332678549,19.262829,-5.2236266,4.952263,1.8814076,13.352619,-10.693635,1.8522772,0.4207529,-0.2934339,0.3890996,0.7651571,-7.7313275,1.233826,-0.10431381,-5.448459,3.369697,1.8017126,0
0.6700000000000004,20.592092977116867,-5.427605007322001,2.8587939092417183,2.108939332678549,19.262829,-5.2236266,4.952263,1.8814076,13.2751665,-10.680431,1.8512825,0.3991346,-0.3139418,0.37770826,0.7742538,-7.7612524,1.4068267,-0.0948722,-5.4451456,3.2899725,1.8167883,0
0.6800000000000004,19.2372320648571,-3.878651903029625,1.340831857881016,1.458286819961802,21.12853,-4.995498,4.182938,1.5445818,13.1973505,-10.665505,1.8503743,0.37716588,-0.33378848,0.36579174,0.7826416,-7.804072,1.5780796,-0.08700504,-5.4423614,3.2226827,1.8311242,0
0.6900000000000004,19.2372320648571,-3.878651903029625,1.340831857881016,1.458286819961802,21.12853,-4.995498,4.182938,1.5445818,13.119061,-10.648933,1.8495022,0.35535136,-0.35233033,0.3536372,0.79027194,-7.855824,1.7356318,-0.0876626,-5.1981173,2.9295626,1.8128289,0
0.7000000000000004,19.2372320648571,-3.878651903029625,1.340831857881016,1.458286819961802,21.12853,-4.995498,4.182938,1.5445818,13.040198,-10.630802,1.848616,0.33413312,-0.36909574,0.3415139,0.79717743,-7.91861,1.8900578,-0.0898053,-4.9920244,2.6821005,1.7954314,0
0.7100000000000004,19.2372320648571,-3.878651903029625,1.340831857881016,1.458286819961802,21.12853,-4.995498,4.182938,1.5445818,12.960655,-10.611144,1.8477014,0.31342497,-0.3843393,0.32943118,0.8034447,-7.9916344,2.0407846,-0.09331653,-4.818124,2.4731858,1.7788876,0
0.7200000000000004,17.03504372589758,-1.8428102077571094,-0.3481636528905882,0.8774473509489223,20.133844,-4.008191,2.2639942,0.7258142,12.880333,-10.590001,1.8467454,0.2931503,-0.3982739,0.31738997,0.8091382,-8.0741825,2.1873274,-0.098088905,-4.671386,2.2968137,1.7631557,0
0.7300000000000004,17.03504372589758,-1.8428102077571094,-0.3481636528905882,0.8774473509489223,20.133844,-4.008191,2.2639942,0.7258142,12.799192,-10.567495,1.845683,0.2738451,-0.41032594,0.3058301,0.81431544,-8.155068,2.3130507,-0.11455076,-4.2297444,1.8849581,1.7196938,0
0.7400000000000004,17.03504372589758,-1.8428102077571094,-0.3481636528905882,0.8774473509489223,20.133844,-4.008191,2.2639942,0.7258142,12.717209,-10.543754,1.8444518,0.25595674,-0.42009148,0.29512915,0.8190899,-8.242768,2.434628,-0.13176605,-3.857072,1.5372256,1.6783645,0
0.7500000000000004,17.03504372589758,-1.8428102077571094,-0.3481636528905882,0.8774473509489223,20.133844,-4.008191,2.2639942,0.7258142,12.634317,-10.518817,1.843046,0.23929626,-0.42795533,0.285188,0.8235652,-8.336326,2.5520852,-0.14945142,-3.5425959,1.2436349,1.6390634,0
0.7600000000000005,15.980339441117582,0.23314984048131507,-1.8472056236795942,0.28201693792718974,15.965244,-2.5242548,-0.015727194,-0.34696922,12.550465,-10.492725,1.8414619,0.2236967,-0.43423465,0.27591163,0.8278122,-8.434936,2.6654894,-0.16735278,-3.277226,0.9957582,1.6016906,0
0.7700000000000005,15.980339441117582,0.23314984048131507,-1.8472056236795942,0.28201693792718974,15.965244,-2.5242548,-0.015727194,-0.34696922,12.465634,-10.465552,1.8396747,0.20959477,-0.43854594,0.26773572,0.8319046,-8.531602,2.7683141,-0.19010422,-2.7311156,0.5549004,1.5371038,0
0.7800000000000005,15.980339441117582,0.23314984048131507,-1.8472056236795942,0.28201693792718974,15.965244,-2.5242548,-0.015727194,-0.34696922,12.379823,-10.437369,1.8376608,0.19735207,-0.44060588,0.26102108,0.83593464,-8.631303,2.8677053,-0.21259463,-2.2684577,0.18084812,1.4755163,0
0.7900000000000005,15.980339441117582,0.23314984048131507,-1.8472056236795942,0.28201693792718974,15.965244,-2.5242548,-0.015727194,-0.34696922,12.293001,-10.408209,1.8354251,0.1867104,-0.44080314,0.25556377,0.8399519,-8.733296,2.964221,-0.23441681,-1.8780342,-0.13497823,1.4169511,0
0.8000000000000005,15.866203364339649,1.9063317284400012,-2.9161618867323784,-0.3053046461356523,15.113009,-1.0382546,-1.4488655,-0.7267078,12.205152,-10.378094,1.8329757,0.17744535,-0.43945536,0.25118098,0.8439789,-8.836879,3.0582662,-0.25529876,-1.548564,-0.40163836,1.3612596,0
0.8100000000000005,15.866203364339649,1.9063317284400012,-2.9161618867323784,-0.3053046461356523,15.113009,-1.0382546,-1.4488655,-0.7267078,12.116253,-10.347043,1.8303286,0.16975856,-0.43645188,0.24811572,0.8480156,-8.942432,3.1511207,-0.2742591,-1.0366852,-0.7660721,1.281949,0
0.8200000000000005,15.866203364339649,1.9063317284400012,-2.9161618867323784,-0.3053046461356523,15.113009,-1.0382546,-1.4488655,-0.7267078,12.026308,-10.315082,1.8274906,0.16389641,-0.43159723,0.24662894,0.85207754,-9.046491,3.2409256,-0.29310742,-0.577513,-1.100949,1.2040634,0
0.8300000000000005,15.866203364339649,1.9063317284400012,-2.9161618867323784,-0.3053046461356523,15.113009,-1.0382546,-1.4488655,-0.7267078,11.935324,-10.2822275,1.8244722,0.1596372,-0.42514417,0.24650592,0.85615623,-9.150086,3.3297849,-0.31030548,-0.19000316,-1.3837166,1.1299982,0
0.8400000000000005,15.866203364339649,1.9063317284400012,-2.9161618867323784,-0.3053046461356523,13.86174,-0.31758076,-2.2964506,-1.1428498,11.843308,-10.2484865,1.8212909,0.15675288,-0.4173471,0.24752712,0.8602212,-9.252615,3.4181921,-0.3256695,0.137021,-1.6224654,1.0595676,0
0.8500000000000005,15.866203364339649,1.9063317284400012,-2.9161618867323784,-0.3053046461356523,13.86174,-0.31758076,-2.2964506,-1.1428498,11.750277,-10.213863,1.8179655,0.15504903,-0.40841487,0.24950293,0.86423707,-9.353556,3.5065646,-0.33906654,0.41300392,-1.8240438,0.99259293,0
0.8600000000000005,15.866203364339649,1.9063317284400012,-2.9161618867323784,-0.3053046461356523,13.86174,-0.31758076,-2.2964506,-1.1428498,11.656245,-10.178355,1.8145164,0.15436007,-0.39852002,0.25227034,0.86816746,-9.452454,3.5952492,-0.3504077,0.6459152,-1.9942346,0.92890465,0
0.8700000000000006,15.866203364339649,1.9063317284400012,-2.9161618867323784,-0.3053046461356523,13.86174,-0.31758076,-2.2964506,-1.1428498,11.561235,-10.141957,1.8109646,0.15454507,-0.38780618,0.25568986,0.87197775,-9.548913,3.6845312,-0.35964236,0.8424791,-2.1379225,0.8683417,0
0.8800000000000006,15.994653602811185,2.827704620610667,-3.351476239780664,-0.7246942857354107,13.550741,-0.056656674,-2.376517,-1.1512529,11.465276,-10.104663,1.807331,0.15548408,-0.37639332,0.2596423,0.8756363,-9.642581,3.7746403,-0.36675304,1.0083704,-2.2592323,0.8107505,0
0.8900000000000006,15.994653602811185,2.827704620610667,-3.351476239780664,-0.7246942857354107,13.550741,-0.056656674,-2.376517,-1.1512529,11.368391,-10.066458,1.8036405,0.15730278,-0.3641849,0.26430243,0.87907314,-9.733858,3.8665159,-0.37099677,1.2920656,-2.4294798,0.7354058,0
0.9000000000000006,15.994653602811185,2.827704620610667,-3.351476239780664,-0.7246942857354107,13.550741,-0.056656674,-2.376517,-1.1512529,11.270611,-10.0273285,1.7999182,0.16009508,-0.35110614,0.26979887,0.88221467,-9.821562,3.9596999,-0.37314847,1.5314968,-2.5732212,0.6637583,0
0.9100000000000006,15.994653602811185,2.827704620610667,-3.351476239780664,-0.7246942857354107,13.550741,-0.056656674,-2.376517,-1.1512529,11.171973,-9.987259,1.7961844,0.16372328,-0.33727965,0.27597478,0.8850283,-9.9052725,4.054437,-0.37327716,1.7335728,-2.694579,0.5956265,0
0.9200000000000006,16.293753044013368,3.2513081293830854,-3.4656528727557556,-1.1378877638635316,13.154892,0.26873964,-2.6652324,-1.4564327,11.07252,-9.946233,1.7924592,0.16806982,-0.32280928,0.28269655,0.8874849,-9.984612,4.1509066,-0.37147963,1.9041239,-2.7970355,0.530838,0
0.9300000000000006,16.293753044013368,3.2513081293830854,-3.4656528727557556,-1.1378877638635316,13.154892,0.26873964,-2.6652324,-1.4564327,10.97229,-9.904224,1.7887707,0.1731462,-0.30772844,0.28997642,0.8895152,-10.06063,4.251076,-0.36597732,2.1140978,-2.9013455,0.44895318,0
0.9400000000000006,16.293753044013368,3.2513081293830854,-3.4656528727557556,-1.1378877638635316,13.154892,0.26873964,-2.6652324,-1.4564327,10.8713255,-9.861204,1.7851455,0.17895773,-0.2920689,0.29781452,0.89105356,-10.131472,4.3532734,-0.3588012,2.2913196,-2.9894133,0.37108645,0
0.9500000000000006,16.293753044013368,3.2513081293830854,-3.4656528727557556,-1.1378877638635316,13.154892,0.26873964,-2.6652324,-1.4564327,10.769679,-9.817151,1.7815998,0.18540248,-0.27591127,0.3060889,0.89208096,-10.19679,4.4575844,-0.35013837,2.4408996,-3.0637639,0.29704064,0
0.9600000000000006,16.4990565319168,3.127419061125855,-3.1487138512088344,-1.3963292914163292,13.040662,0.77401036,-2.2008257,-1.6178511,10.667411,-9.772045,1.7781472,0.19239256,-0.25932533,0.31469595,0.89258164,-10.25627,4.5640416,-0.34019133,2.5671513,-3.1265314,0.2266283,0
0.9700000000000006,16.4990565319168,3.127419061125855,-3.1487138512088344,-1.3963292914163292,13.040662,0.77401036,-2.2008257,-1.6178511,10.564572,-9.725857,1.7748065,0.19982779,-0.24250518,0.32352042,0.8925215,-10.310317,4.673995,-0.32780346,2.654363,-3.1301155,0.1469893,0
0.9800000000000006,16.4990565319168,3.127419061125855,-3.1487138512088344,-1.3963292914163292,13.040662,0.77401036,-2.2008257,-1.6178511,10.4612255,-9.678558,1.7715939,0.20762818,-0.22561368,0.33246905,0.89188194,-10.35799,4.7860374,-0.31458458,2.7279813,-3.1331434,0.07125819,0
0.9900000000000007,16.4990565319168,3.127419061125855,-3.1487138512088344,-1.3963292914163292,13.040662,0.77401036,-2.2008257,-1.6178511,10.357435,-9.630129,1.7685167,0.21574949,-0.20866495,0.34148997,0.89067155,-10.399143,4.9000707,-0.30078748,2.7901263,-3.1356995,-0.000756748,0
1.0000000000000007,16.16182304167107,2.4474602058736883,-2.6236668627097908,-1.4871538551081684,12.713334,0.5023455,-1.3702382,-1.8463525,10.253265,-9.580549,1.7655793,0.22415234,-0.19167216,0.35053927,0.8888981,-10.433646,5.0159698,-0.28665978,2.8425868,-3.137856,-0.069237895,0
1.0100000000000007,16.16182304167107,2.4474602058736883,-2.6236668627097908,-1.4871538551081684,12.713334,0.5023455,-1.3702382,-1.8463525,10.1487875,-9.529815,1.7627724,0.23268753,-0.17490089,0.35938528,0.88662755,-10.460845,5.1311736,-0.274736,2.7808318,-3.0577922,-0.13881545,0
1.0200000000000007,16.16182304167107,2.4474602058736883,-2.6236668627097908,-1.4871538551081684,12.713334,0.5023455,-1.3702382,-1.8463525,10.04407,-9.4779215,1.7600844,0.24124192,-0.15856919,0.36785194,0.88393617,-10.4815035,5.2478356,-0.2629264,2.7287195,-2.9902039,-0.2049788,0
1.0300000000000007,16.16182304167107,2.4474602058736883,-2.6236668627097908,-1.4871538551081684,12.713334,0.5023455,-1.3702382,-1.8463525,9.939179,-9.424855,1.757513,0.24982995,-0.14262351,0.37597927,0.8808423,-10.495728,5.3657317,-0.25141218,2.6847446,-2.9331467,-0.2678955,0
1.0400000000000007,16.16182304167107,2.4474602058736883,-2.6236668627097908,-1.4871538551081684,12.717863,-0.12501724,-0.74287957,-1.7657841,9.834178,-9.370603,1.7550547,0.25846145,-0.12701815,0.38380077,0.87736034,-10.503609,5.484648,-0.24036022,2.6476362,-2.8849804,-0.3277248,0
1.0500000000000007,16.16182304167107,2.4474602058736883,-2.6236668627097908,-1.4871538551081684,12.717863,-0.12501724,-0.74287957,-1.7657841,9.729129,-9.315158,1.7527038,0.26714236,-0.11171413,0.39134446,0.87350136,-10.505232,5.604377,-0.2299254,2.6163218,-2.8443196,-0.3846183,0
1.0600000000000007,16.16182304167107,2.4474602058736883,-2.6236668627097908,-1.4871538551081684,12.717863,-0.12501724,-0.74287957,-1.7657841,9.624095,-9.258512,1.7504535,0.27587548,-0.09667832,0.39863363,0.86927414,-10.500676,5.7247167,-0.22025262,2.5898976,-2.8099935,-0.43872005,0
1.0700000000000007,16.16182304167107,2.4474602058736883,-2.6236668627097908,-1.4871538551081684,12.717863,-0.12501724,-0.74287957,-1.7657841,9.519137,-9.20066,1.7482955,0.2846612,-0.08188263,0.40568757,0.8646855,-10.490016,5.845472,-0.2114782,2.5675995,-2.7810156,-0.490167,0
1.0800000000000007,16.06292603849188,1.5223881431829624,-1.8884442934602492,-1.452677888488352,12.726877,-0.91800195,-1.0898186,-1.5901777,9.414317,-9.141601,1.7462202,0.29349765,-0.067303315,0.4125224,0.85974115,-10.473323,5.966448,-0.20373099,2.5487838,-2.7565525,-0.53908944,0
1.0900000000000007,16.06292603849188,1.5223881431829624,-1.8884442934602492,-1.452677888488352,12.726877,-0.91800195,-1.0898186,-1.5901777,9.309691,-9.081334,1.7442136,0.3022342,-0.053281143,0.4189237,0.8545868,-10.450837,6.0867114,-0.19776326,2.3886886,-2.6211853,-0.58391947,0
1.1000000000000008,16.06292603849188,1.5223881431829624,-1.8884442934602492,-1.452677888488352,12.726877,-0.91800195,-1.0898186,-1.5901777,9.205319,-9.019867,1.7422608,0.31075954,-0.040087774,0.42473644,0.84936476,-10.422734,6.206803,-0.19296756,2.2535632,-2.506926,-0.62654966,0
1.1100000000000008,16.06292603849188,1.5223881431829624,-1.8884442934602492,-1.452677888488352,12.726877,-0.91800195,-1.0898186,-1.5901777,9.101255,-8.9572,1.7403501,0.31912172,-0.027610278,0.43005097,0.8440706,-10.389323,6.3265433,-0.18935497,2.1395123,-2.4104843,-0.66708803,0
1.1200000000000008,15.257707948944704,0.3009226974519881,-1.274322895010061,-1.2465421951026643,13.159007,-1.7629639,-0.47319737,-1.5563134,8.997551,-8.893338,1.7384696,0.32735884,-0.015752027,0.43494195,0.8386975,-10.350868,6.445775,-0.18693274,2.0432487,-2.3290823,-0.70563716,0
1.1300000000000008,15.257707948944704,0.3009226974519881,-1.274322895010061,-1.2465421951026643,13.159007,-1.7629639,-0.47319737,-1.5563134,8.894244,-8.828317,1.7365824,0.33536807,-0.004786521,0.43914583,0.8334604,-10.309799,6.558409,-0.19066645,1.7715716,-2.164499,-0.7321795,0
1.1400000000000008,15.257707948944704,0.3009226974519881,-1.274322895010061,-1.2465421951026643,13.159007,-1.7629639,-0.47319737,-1.5563134,8.791369,-8.762173,1.7346529,0.34307605,0.005073375,0.44246888,0.82854944,-10.264588,6.670283,-0.19539234,1.5422574,-2.0255928,-0.75741947,0
1.1500000000000008,15.257707948944704,0.3009226974519881,-1.274322895010061,-1.2465421951026643,13.159007,-1.7629639,-0.47319737,-1.5563134,8.688966,-8.694915,1.7326717,0.35054773,0.0139868725,0.4450591,0.82391924,-10.215637,6.7812786,-0.20095873,1.3486999,-1.9083585,-0.7814208,0
1.1600000000000008,14.911062117792959,-1.0003957396044076,-0.6268511455235096,-0.8891156011777948,13.299496,-2.2633061,0.5203567,-1.4229914,8.587069,-8.626552,1.7306314,0.3578347,0.022089928,0.44703835,0.819526,-10.163284,6.8913035,-0.20723026,1.1853229,-1.8094158,-0.8042445,0
1.1700000000000008,14.911062117792959,-1.0003957396044076,-0.6268511455235096,-0.8891156011777948,13.299496,-2.2633061,0.5203567,-1.4229914,8.485704,-8.557105,1.7285148,0.36483988,0.029118672,0.4481751,0.8155874,-10.109113,6.99781,-0.2161392,0.8445534,-1.6248193,-0.8084092,0
1.1800000000000008,14.911062117792959,-1.0003957396044076,-0.6268511455235096,-0.8891156011777948,13.299496,-2.2633061,0.5203567,-1.4229914,8.384895,-8.4866,1.7263074,0.37148958,0.03487127,0.44829804,0.8122857,-10.052383,7.103237,-0.22535543,0.5569128,-1.4690368,-0.8123695,0
1.1900000000000008,14.911062117792959,-1.0003957396044076,-0.6268511455235096,-0.8891156011777948,13.299496,-2.2633061,0.5203567,-1.4229914,8.284664,-8.415045,1.7240075,0.37785032,0.03953912,0.44757742,0.80953074,-9.993542,7.207546,-0.23462473,0.31411767,-1.3375708,-0.8161355,0
1.2000000000000008,14.700320929679666,-2.0923417868212306,-0.17841766627012254,-0.44370726512882125,13.782045,-2.556665,0.95903546,-0.7971277,8.18503,-8.342452,1.7216154,0.38397497,0.04328488,0.44615287,0.8072404,-9.932964,7.3107142,-0.24372828,0.109176084,-1.2266259,-0.8197167,0
1.2100000000000009,14.700320929679666,-2.0923417868212306,-0.17841766627012254,-0.44370726512882125,13.782045,-2.556665,0.95903546,-0.7971277,8.086004,-8.268841,1.7191278,0.3898008,0.045957763,0.44385412,0.8055661,-9.87187,7.4112864,-0.25372374,-0.23404913,-1.0629777,-0.8012658,0
1.2200000000000009,14.700320929679666,-2.0923417868212306,-0.17841766627012254,-0.44370726512882125,13.782045,-2.556665,0.95903546,-0.7971277,7.987595,-8.194231,1.7165433,0.3952743,0.047446933,0.440552,0.80462474,-9.8098345,7.510711,-0.26307645,-0.52376604,-0.92488563,-0.7837203,0
1.2300000000000009,14.700320929679666,-2.0923417868212306,-0.17841766627012254,-0.44370726512882125,13.782045,-2.556665,0.95903546,-0.7971277,7.889809,-8.118632,1.7138696,0.40044487,0.04793409,0.43640494,0.804299,-9.747275,7.6089845,-0.27151865,-0.76831645,-0.80835795,-0.76703584,0
1.2400000000000009,14.700320929679666,-2.0923417868212306,-0.17841766627012254,-0.44370726512882125,14.370819,-2.6859946,0.6030598,-0.42602012,7.79265,-8.042057,1.7111168,0.4053515,0.04757318,0.4315437,0.80448556,-9.684549,7.7061057,-0.278829,-0.974741,-0.710026,-0.75117004,1
1.2500000000000009,14.700320929679666,-2.0923417868212306,-0.17841766627012254,-0.44370726512882125,14.370819,-2.6859946,0.6030598,-0.42602012,7.696111,-7.9645257,1.7082871,0.4099002,0.04614725,0.42601234,0.8052116,-9.62339,7.799933,-0.28688568,-1.2415044,-0.5051334,-0.7352148,1
1.260000000000001,14.700320929679666,-2.0923417868212306,-0.17841766627012254,-0.44370726512882125,14.370819,-2.6859946,0.6030598,-0.42602012,7.600181,-7.8860617,1.7053841,0.41401717,0.04349012,0.41985044,0.8064887,-9.5628,7.8927045,-0.29347566,-1.4666859,-0.3322178,-0.7200425,1
1.270000000000001,14.700320929679666,-2.0923417868212306,-0.17841766627012254,-0.44370726512882125,14.370819,-2.6859946,0.6030598,-0.42602012,7.504852,-7.8066745,1.7024231,0.41775668,0.039790913,0.41314992,0.80820984,-9.5031805,7.984489,-0.29844895,-1.6567662,-0.18628807,-0.7056148,1
1.280000000000001,14.511717160309384,-2.8129751206436397,0.09723007228138009,0.005775146242280963,14.170256,-2.5445528,1.023146,-0.43321404,7.410113,-7.7263746,1.6994209,0.4211625,0.035209913,0.40598646,0.8102823,-9.444873,8.07534,-0.30169228,-1.8172166,-0.06313224,-0.691895,1
1.290000000000001,14.511717160309384,-2.8129751206436397,0.09723007228138009,0.005775146242280963,14.170256,-2.5445528,1.023146,-0.43321404,7.3159456,-7.6451774,1.6963886,0.42420134,0.029770287,0.3985398,0.8126087,-9.38897,8.164051,-0.30447915,-1.9305686,0.10630744,-0.6792015,1
1.300000000000001,14.511717160309384,-2.8129751206436397,0.09723007228138009,0.005775146242280963,14.170256,-2.5445528,1.023146,-0.43321404,7.2223277,-7.5630965,1.6933376,0.42685017,0.023497812,0.39095634,0.8151072,-9.33495,8.251973,-0.30546921,-2.0262575,0.24931437,-0.6671308,1
1.310000000000001,14.511717160309384,-2.8129751206436397,0.09723007228138009,0.005775146242280963,14.170256,-2.5445528,1.023146,-0.43321404,7.1292396,-7.4801407,1.6902854,0.4291549,0.01652169,0.3832484,0.8177247,-9.283066,8.3391905,-0.30467469,-2.1070354,0.37001252,-0.65565246,1
1.320000000000001,14.062312081635282,-3.0819947637342504,-0.021417170847013098,0.3675534557979914,13.790466,-2.611763,0.58219725,-0.2261263,7.036659,-7.3963156,1.6872501,0.43115354,0.008951596,0.37542596,0.8204156,-9.2335415,8.425766,-0.30212155,-2.1752257,0.47188193,-0.6447373,1
1.330000000000001,14.062312081635282,-3.0819947637342504,-0.021417170847013098,0.3675534557979914,13.790466,-2.611763,0.58219725,-0.2261263,6.944554,-7.3116393,1.6842352,0.43292248,0.0010235438,0.3673989,0.8231616,-9.187826,8.509432,-0.30058724,-2.2433028,0.48908404,-0.62419593,1
1.340000000000001,14.062312081635282,-3.0819947637342504,-0.021417170847013098,0.3675534557979914,13.790466,-2.611763,0.58219725,-0.2261263,6.8528934,-7.226129,1.681244,0.43451905,-0.0070685023,0.3590963,0.8259497,-9.144721,8.592485,-0.2973916,-2.3007646,0.50359905,-0.60466254,1
1.350000000000001,14.062312081635282,-3.0819947637342504,-0.021417170847013098,0.3675534557979914,13.790466,-2.611763,0.58219725,-0.2261263,6.7616496,-7.139791,1.678293,0.43594697,-0.015295254,0.35055202,0.82875174,-9.104328,8.674883,-0.29255563,-2.3492658,0.51584697,-0.58608764,1
1.360000000000001,13.171070133274114,-3.064072786135788,-0.5046622640442845,0.619741515894958,13.681685,-2.4331155,-0.36447158,0.035081286,6.6707964,-7.052634,1.6753983,0.43720996,-0.023631826,0.34179512,0.8315437,-9.066739,8.75658,-0.28611192,-2.3902044,0.5261825,-0.5684242,1
1.370000000000001,13.171070133274114,-3.064072786135788,-0.5046622640442845,0.619741515894958,13.681685,-2.4331155,-0.36447158,0.035081286,6.5803037,-6.964666,1.6725719,0.43841565,-0.03169951,0.3327454,0.8343064,-9.032293,8.83688,-0.2789342,-2.3969555,0.3872418,-0.5388101,1
1.380000000000001,13.171070133274114,-3.064072786135788,-0.5046622640442845,0.619741515894958,13.681685,-2.4331155,-0.36447158,0.035081286,6.4901414,-6.8759,1.669825,0.4396448,-0.03919468,0.32334274,0.8370338,-9.000652,8.9162855,-0.27020967,-2.402641,0.2699706,-0.510649,1
1.390000000000001,13.171070133274114,-3.064072786135788,-0.5046622640442845,0.619741515894958,13.681685,-2.4331155,-0.36447158,0.035081286,6.4002814,-6.786344,1.6671729,0.44086546,-0.046199482,0.31363705,0.83972317,-8.971748,8.994644,-0.25994727,-2.4074297,0.17098926,-0.48386988,1
1.400000000000001,12.138838553946288,-2.9070454923001985,-1.119811850519654,0.8187403792075926,13.237191,-2.6949508,-1.3704154,0.38270274,6.310697,-6.696011,1.6646311,0.44205153,-0.05278375,0.30367064,0.8423707,-8.945526,9.071821,-0.24816483,-2.4114633,0.087445565,-0.4584048,0
1.410000000000001,12.138838553946288,-2.9070454923001985,-1.119811850519654,0.8187403792075926,13.237191,-2.6949508,-1.3704154,0.38270274,6.2213483,-6.6049547,1.662152,0.44318026,-0.058806658,0.29319063,0.8450871,-8.9246025,9.139125,-0.24743718,-2.4888015,-0.10090406,-0.3957349,0
1.420000000000001,12.138838553946288,-2.9070454923001985,-1.119811850519654,0.8187403792075926,13.237191,-2.6949508,-1.3704154,0.38270274,6.132197,-6.5132327,1.659687,0.4442136,-0.064156115,0.28199747,0.8479597,-8.905978,9.205056,-0.2453342,-2.5540576,-0.2598844,-0.33614025,0
1.430000000000001,12.138838553946288,-2.9070454923001985,-1.119811850519654,0.8187403792075926,13.237191,-2.6949508,-1.3704154,0.38270274,6.0432205,-6.420859,1.6572502,0.44511333,-0.068926126,0.2701964,0.8509507,-8.889618,9.269404,-0.24181695,-2.6091213,-0.3940738,-0.27946994,0
1.440000000000001,12.138838553946288,-2.9070454923001985,-1.119811850519654,0.8187403792075926,13.250345,-2.7999792,-1.8270707,0.5963832,5.9543967,-6.327851,1.6548555,0.44584912,-0.073196836,0.25787666,0.85402596,-8.875495,9.331981,-0.23686872,-2.6555855,-0.507337,-0.22558044,0
1.450000000000001,12.138838553946288,-2.9070454923001985,-1.119811850519654,0.8187403792075926,13.250345,-2.7999792,-1.8270707,0.5963832,5.865703,-6.234226,1.6525176,0.4463974,-0.07703668,0.24511392,0.8571545,-8.863586,9.39262,-0.23049222,-2.6947947,-0.6029363,-0.17433532,0
1.460000000000001,12.138838553946288,-2.9070454923001985,-1.119811850519654,0.8187403792075926,13.250345,-2.7999792,-1.8270707,0.5963832,5.7771173,-6.1400056,1.6502504,0.44674015,-0.08050413,0.23197271,0.8603086,-8.853875,9.451172,-0.22270703,-2.7278826,-0.68362576,-0.12560481,0
1.470000000000001,12.138838553946288,-2.9070454923001985,-1.119811850519654,0.8187403792075926,13.250345,-2.7999792,-1.8270707,0.5963832,5.6886177,-6.045211,1.648068,0.44686398,-0.0836492,0.21850799,0.8634637,-8.846346,9.5075,-0.21354726,-2.755806,-0.75172967,-0.07926552,0
1.480000000000001,11.739266073192008,-2.59051392122234,-1.47993011012062,0.9528528299213666,13.401852,-2.8941514,-2.9287455,0.71582425,5.6001825,-5.949864,1.6459839,0.4467593,-0.086514756,0.2047667,0.86659783,-8.840988,9.561483,-0.20305948,-2.7793717,-0.8092105,-0.03520011,0
1.490000000000001,11.739266073192008,-2.59051392122234,-1.47993011012062,0.9528528299213666,13.401852,-2.8941514,-2.9287455,0.71582425,5.51179,-5.853998,1.6439933,0.4464456,-0.08895258,0.19083622,0.86968684,-8.837884,9.611313,-0.19491649,-2.749893,-0.9138964,0.013283937,0
1.500000000000001,11.739266073192008,-2.59051392122234,-1.47993011012062,0.9528528299213666,13.401852,-2.8941514,-2.9287455,0.71582425,5.423418,-5.757646,1.6420898,0.44593674,-0.09084733,0.17678964,0.87271565,-8.83678,9.658653,-0.18560247,-2.7250073,-1.0022509,0.05938886,0
1.5100000000000011,11.739266073192008,-2.59051392122234,-1.47993011012062,0.9528528299213666,13.401852,-2.8941514,-2.9287455,0.71582425,5.3350477,-5.660834,1.6402851,0.44522002,-0.09227747,0.16264486,0.8756772,-8.83759,9.703402,-0.17518061,-2.7039998,-1.0768212,0.1032314,0
1.5200000000000011,11.654801923907979,-2.112037009056984,-1.5318454961652224,1.0056693993004502,13.783601,-2.5067272,-3.0249138,0.78786385,5.2466598,-5.5635877,1.6385899,0.44428653,-0.0933099,0.14841722,0.8785642,-8.84024,9.745465,-0.16371949,-2.686267,-1.1397575,0.14492257,0
1.5300000000000011,11.654801923907979,-2.112037009056984,-1.5318454961652224,1.0056693993004502,13.783601,-2.5067272,-3.0249138,0.78786385,5.1582365,-5.465935,1.6370101,0.4431462,-0.09389763,0.13427994,0.88134754,-8.84462,9.784486,-0.15208903,-2.5966775,-1.2009668,0.18715966,0
1.5400000000000011,11.654801923907979,-2.112037009056984,-1.5318454961652224,1.0056693993004502,13.783601,-2.5067272,-3.0249138,0.78786385,5.0697618,-5.367907,1.635551,0.44180974,-0.09400765,0.12037275,0.88401186,-8.850632,9.820723,-0.13958491,-2.521059,-1.2526243,0.22732417,0
1.5500000000000012,11.654801923907979,-2.112037009056984,-1.5318454961652224,1.0056693993004502,13.783601,-2.5067272,-3.0249138,0.78786385,4.981219,-5.269531,1.6342211,0.44027343,-0.0937116,0.1066624,0.88656664,-8.858156,9.854151,-0.12629108,-2.4572337,-1.2962204,0.2655178,0
1.5600000000000012,11.736369376258159,-1.4915624851071996,-1.1855905201203456,0.9782625911111102,13.955076,-2.4402983,-1.9482301,0.78251946,4.8925934,-5.170834,1.6330277,0.4385352,-0.09307038,0.09312067,0.8890181,-8.867088,9.884744,-0.11228887,-2.4033625,-1.3330137,0.30183727,0
1.5700000000000012,11.736369376258159,-1.4915624851071996,-1.1855905201203456,0.9782625911111102,13.955076,-2.4402983,-1.9482301,0.78251946,4.8038716,-5.0718446,1.6319814,0.43660948,-0.0921509,0.0800052,0.8913357,-8.8774,9.912687,-0.09687133,-2.2611437,-1.3100443,0.33502966,0
1.5800000000000012,11.736369376258159,-1.4915624851071996,-1.1855905201203456,0.9782625911111102,13.955076,-2.4402983,-1.9482301,0.78251946,4.715041,-4.97259,1.6310921,0.43451533,-0.09101094,0.067519866,0.8935067,-8.88891,9.937837,-0.08091622,-2.1411057,-1.2906537,0.36659327,0
1.5900000000000012,11.736369376258159,-1.4915624851071996,-1.1855905201203456,0.9782625911111102,13.955076,-2.4402983,-1.9482301,0.78251946,4.62609,-4.8730974,1.6303647,0.43225846,-0.08968578,0.05556979,0.89555615,-8.901499,9.960276,-0.06451049,-2.0397887,-1.2742851,0.39660808,0
1.6000000000000012,11.798706489825951,-0.8329907732313526,-0.8507360764799541,0.9053628516398189,14.9636965,-2.4449217,-2.1355953,1.42496,4.537008,-4.7733936,1.6298032,0.42984378,-0.08820508,0.04407443,0.8975028,-8.915066,9.980079,-0.04773046,-1.9542732,-1.2604675,0.42515004,0
1.6100000000000012,11.798706489825951,-0.8329907732313526,-0.8507360764799541,0.9053628516398189,14.9636965,-2.4449217,-2.1355953,1.42496,4.447785,-4.6735044,1.6294141,0.42730272,-0.08660176,0.033258986,0.8993364,-8.929592,9.997412,-0.030033505,-1.7794092,-1.1965493,0.44871423,0
1.6200000000000012,11.798706489825951,-0.8329907732313526,-0.8507360764799541,0.9053628516398189,14.9636965,-2.4449217,-2.1355953,1.42496,4.358413,-4.573454,1.6292033,0.4246667,-0.084904805,0.023298426,0.9010584,-8.944886,10.012317,-0.012097349,-1.6318147,-1.1426008,0.4711221,0
1.6300000000000012,11.798706489825951,-0.8329907732313526,-0.8507360764799541,0.9053628516398189,14.9636965,-2.4449217,-2.1355953,1.42496,4.268885,-4.473266,1.6291728,0.4219394,-0.083131604,0.014061763,0.902695,-8.960833,10.024947,0.0060209003,-1.5072373,-1.0970675,0.49243042,0
1.6400000000000012,11.798706489825951,-0.8329907732313526,-0.8507360764799541,0.9053628516398189,15.007006,-1.9570757,-1.6197718,1.4133266,4.179195,-4.372963,1.6293242,0.41912368,-0.0812964,0.005438037,0.9042657,-8.977335,10.035435,0.024274977,-1.4020872,-1.0586371,0.5126931,0
1.6500000000000012,11.798706489825951,-0.8329907732313526,-0.8507360764799541,0.9053628516398189,15.007006,-1.9570757,-1.6197718,1.4133266,4.0893373,-4.272565,1.6296586,0.4162217,-0.079410896,-0.002666682,0.9057848,-8.994309,10.043889,0.04262669,-1.3133348,-1.0262022,0.5319615,0
1.6600000000000013,11.798706489825951,-0.8329907732313526,-0.8507360764799541,0.9053628516398189,15.007006,-1.9570757,-1.6197718,1.4133266,3.9993079,-4.172092,1.6301769,0.41323555,-0.07748473,-0.010331874,0.9072626,-9.011684,10.0504055,0.061044008,-1.2384228,-0.9988273,0.5502844,0
1.6700000000000013,11.798706489825951,-0.8329907732313526,-0.8507360764799541,0.9053628516398189,15.007006,-1.9570757,-1.6197718,1.4133266,3.9091027,-4.0715632,1.6308796,0.41016698,-0.07552578,-0.017624764,0.9087067,-9.029399,10.055064,0.07949941,-1.1751931,-0.9757234,0.5677082,0
1.6800000000000013,11.821944408789681,-0.2791121806342462,-0.5052086039853165,0.7856250379625066,14.296301,-1.2824463,-0.91656154,0.9173275,3.8187187,-3.9709969,1.6317669,0.40701777,-0.07354056,-0.024602193,0.91012233,-9.0474,10.057934,0.09796887,-1.1218238,-0.95622414,0.584277,0
1.6900000000000013,11.821944408789681,-0.2791121806342462,-0.5052086039853165,0.7856250379625066,14.296301,-1.2824463,-0.91656154,0.9173275,3.7281537,-3.8704104,1.6328403,0.40382352,-0.0715701,-0.031055367,0.9115039,-9.065673,10.059089,0.11666102,-0.9904243,-0.885845,0.5941572,0
1.7000000000000013,11.821944408789681,-0.2791121806342462,-0.5052086039853165,0.7856250379625066,14.296301,-1.2824463,-0.91656154,0.9173275,3.6374047,-3.7698207,1.6341002,0.40061715,-0.069648236,-0.036821794,0.91285187,-9.084117,10.05866,0.13533133,-0.8795136,-0.8264476,0.60355264,0
1.7100000000000013,11.821944408789681,-0.2791121806342462,-0.5052086039853165,0.7856250379625066,14.296301,-1.2824463,-0.91656154,0.9173275,3.5464709,-3.6692424,1.6355467,0.39739624,-0.067769825,-0.042008188,0.91417617,-9.102669,10.056789,0.15397032,-0.7858966,-0.77631843,0.61248696,0
1.7200000000000013,11.818016205763849,0.21955939967010532,-0.22110874042159154,0.6141257557459617,14.232582,-0.87130815,-0.71846074,0.73908126,3.455351,-3.5686893,1.6371794,0.39415842,-0.06593014,-0.046704646,0.91548365,-9.121279,10.053598,0.17257175,-0.7068766,-0.7340115,0.62098294,0
1.7300000000000013,11.818016205763849,0.21955939967010532,-0.22110874042159154,0.6141257557459617,14.232582,-0.87130815,-0.71846074,0.73908126,3.3640451,-3.4681745,1.6389978,0.3909399,-0.06414968,-0.050761208,0.9167734,-9.139891,10.049206,0.19109382,-0.5624319,-0.6539661,0.6206465,0
1.7400000000000013,11.818016205763849,0.21955939967010532,-0.22110874042159154,0.6141257557459617,14.232582,-0.87130815,-0.71846074,0.73908126,3.2725534,-3.367709,1.6410012,0.38777304,-0.06244501,-0.054063357,0.9180464,-9.158454,10.043771,0.20958003,-0.44050816,-0.58641297,0.62032646,0
1.7500000000000013,11.818016205763849,0.21955939967010532,-0.22110874042159154,0.6141257557459617,14.232582,-0.87130815,-0.71846074,0.73908126,3.1808765,-3.267302,1.6431893,0.38465044,-0.060806517,-0.05672899,0.91930836,-9.176912,10.037456,0.22803871,-0.33759415,-0.5294023,0.62002224,0
1.7600000000000013,11.813246469695917,0.6220966918781416,0.2267349775140386,0.44519228476470957,14.368376,-0.6232026,-0.50246567,0.44599345,3.0890157,-3.1669624,1.6455619,0.38156536,-0.059225667,-0.05885754,0.92056257,-9.19522,10.030398,0.24647862,-0.25072598,-0.48128894,0.61973286,0
1.7700000000000014,11.813246469695917,0.6220966918781416,0.2267349775140386,0.44519228476470957,14.368376,-0.6232026,-0.50246567,0.44599345,2.9969728,-3.0666962,1.6481186,0.37855121,-0.057797555,-0.060317613,0.9218024,-9.213333,10.022732,0.2648621,-0.11465654,-0.37081754,0.61116815,0
1.7800000000000014,11.813246469695917,0.6220966918781416,0.2267349775140386,0.44519228476470957,14.368376,-0.6232026,-0.50246567,0.44599345,2.90475,-2.9665089,1.6508592,0.37563738,-0.05659753,-0.06100996,0.9230225,-9.231233,10.014631,0.28324935,0.00020116381,-0.27758366,0.6030236,0
1.7900000000000014,11.813246469695917,0.6220966918781416,0.2267349775140386,0.44519228476470957,14.368376,-0.6232026,-0.50246567,0.44599345,2.812349,-2.8664045,1.6537837,0.3728121,-0.055591762,-0.0610551,0.92422533,-9.248901,10.00628,0.3016541,0.09715342,-0.19889776,0.59527874,0
1.8000000000000014,11.608714251098444,0.8130542034217378,0.39092052419072415,0.3020922537137145,15.7310505,-0.84446007,-1.5595368,1.4614557,2.7197726,-2.7663841,1.6568923,0.37006482,-0.054751307,-0.060554598,0.9254118,-9.266325,9.997828,0.32008848,0.17899154,-0.13248956,0.587914,0
1.8100000000000014,11.608714251098444,0.8130542034217378,0.39092052419072415,0.3020922537137145,15.7310505,-0.84446007,-1.5595368,1.4614557,2.627025,-2.6664474,1.6601754,0.36741072,-0.05408303,-0.059500013,0.9265764,-9.2831955,9.989554,0.33654472,0.2778416,-0.05082886,0.57388866,0
1.8200000000000014,11.608714251098444,0.8130542034217378,0.39092052419072415,0.3020922537137145,15.7310505,-0.84446007,-1.5595368,1.4614557,2.5341096,-2.5665925,1.6636235,0.36486316,-0.053591043,-0.05788918,0.927713,-9.299807,9.981456,0.3530512,0.36128214,0.018089743,0.5605515,0
1.8300000000000014,11.608714251098444,0.8130542034217378,0.39092052419072415,0.3020922537137145,15.7310505,-0.84446007,-1.5595368,1.4614557,2.4410295,-2.4668171,1.6672367,0.36241084,-0.053248696,-0.055809435,0.9288207,-9.316153,9.973658,0.36961672,0.43171504,0.076254405,0.54786885,0
1.8400000000000014,11.608714251098444,0.8130542034217378,0.39092052419072415,0.3020922537137145,15.798412,-0.8256765,-1.8688525,1.5535734,2.3477874,-2.3671181,1.671016,0.3600437,-0.05303328,-0.053334408,0.92989844,-9.332231,9.966273,0.3862476,0.4911682,0.12534377,0.5358085,0
1.8500000000000014,11.608714251098444,0.8130542034217378,0.39092052419072415,0.3020922537137145,15.798412,-0.8256765,-1.8688525,1.5535734,2.254386,-2.2674901,1.6749619,0.35775292,-0.052925482,-0.050526164,0.9309449,-9.348037,9.959394,0.40294757,0.5413528,0.1667737,0.52434,0
1.8600000000000014,11.608714251098444,0.8130542034217378,0.39092052419072415,0.3020922537137145,15.798412,-0.8256765,-1.8688525,1.5535734,2.1608276,-2.1679282,1.6790751,0.35553068,-0.052908864,-0.047437046,0.9319591,-9.36357,9.9531,0.41971818,0.58371407,0.20173953,0.5134342,0
1.8700000000000014,11.608714251098444,0.8130542034217378,0.39092052419072415,0.3020922537137145,15.798412,-0.8256765,-1.8688525,1.5535734,2.0671158,-2.068426,1.6833564,0.35337025,-0.052969463,-0.044111192,0.9329402,-9.378833,9.947457,0.43655902,0.6194712,0.23124999,0.5030636,0
1.8800000000000014,11.183851187760297,0.7595283501856743,0.2536675074046609,0.19608111546071522,14.824226,-0.7984529,-2.1571703,1.4255539,1.9732524,-1.9689766,1.6878066,0.35126564,-0.05309541,-0.040585835,0.93388736,-9.393824,9.942523,0.45346805,0.6496539,0.25615624,0.49320188,0
1.8900000000000015,11.183851187760297,0.7595283501856743,0.2536675074046609,0.19608111546071522,14.824226,-0.7984529,-2.1571703,1.4255539,1.8792431,-1.8695722,1.692405,0.3492205,-0.05323231,-0.03693235,0.93479776,-9.408005,9.938494,0.46623036,0.6667914,0.25576723,0.4786221,0
1.9000000000000015,11.183851187760297,0.7595283501856743,0.2536675074046609,0.19608111546071522,14.824226,-0.7984529,-2.1571703,1.4255539,1.7850933,-1.7702042,1.6971313,0.34723952,-0.053336393,-0.033208903,0.93566906,-9.421917,9.935212,0.47905123,0.6812562,0.255438,0.46475774,0
1.9100000000000015,11.183851187760297,0.7595283501856743,0.2536675074046609,0.19608111546071522,14.824226,-0.7984529,-2.1571703,1.4255539,1.6908058,-1.6708653,1.7019862,0.34531882,-0.05341271,-0.029426714,0.93650174,-9.435554,9.932692,0.4919263,0.69346493,0.25515956,0.4515737,0
1.9200000000000015,10.732795056032442,0.5350881938234113,0.026128093563549035,0.13842545367962492,14.764256,-1.1127657,-2.814149,1.6461762,1.5963832,-1.5715477,1.7069701,0.34345484,-0.053465534,-0.025595265,0.9372964,-9.448909,9.930944,0.5048506,0.7037696,0.25492415,0.4390366,0
1.9300000000000015,10.732795056032442,0.5350881938234113,0.026128093563549035,0.13842545367962492,14.764256,-1.1127657,-2.814149,1.6461762,1.5018313,-1.4722435,1.712061,0.34164393,-0.053443715,-0.02183835,0.93805426,-9.461448,9.930013,0.5133392,0.6774762,0.21922958,0.42428556,0
1.9400000000000015,10.732795056032442,0.5350881938234113,0.026128093563549035,0.13842545367962492,14.764256,-1.1127657,-2.814149,1.6461762,1.4071554,-1.3729451,1.717237,0.33988455,-0.053306725,-0.018254459,0.9387775,-9.473702,9.929796,0.5218647,0.655281,0.18910326,0.4102583,0
1.9500000000000015,10.732795056032442,0.5350881938234113,0.026128093563549035,0.13842545367962492,14.764256,-1.1127657,-2.814149,1.6461762,1.3123583,-1.2736454,1.7224984,0.338176,-0.053072266,-0.014816876,0.93946815,-9.485666,9.930255,0.53042257,0.6365452,0.1636768,0.39691937,0
1.9600000000000015,10.610148180113494,0.179982986432056,-0.005227470696847832,0.16293137353261383,13.857855,-1.0805813,-2.819142,1.3140715,1.2174431,-1.1743377,1.7278454,0.33651724,-0.05275533,-0.011503046,0.9401278,-9.497333,9.931355,0.53900874,0.6207297,0.14221695,0.384235,0
1.9700000000000015,10.610148180113494,0.179982986432056,-0.005227470696847832,0.16293137353261383,13.857855,-1.0805813,-2.819142,1.3140715,1.1224134,-1.0750163,1.7332724,0.33489665,-0.05240461,-0.008431638,0.94075847,-9.50857,9.933046,0.5463998,0.55200213,0.11920203,0.37337556,0
1.9800000000000015,10.610148180113494,0.179982986432056,-0.005227470696847832,0.16293137353261383,13.857855,-1.0805813,-2.819142,1.3140715,1.0272727,-0.97567517,1.7387735,0.33330455,-0.052059136,-0.0056957626,0.94136345,-9.519532,9.935281,0.5538096,0.49399123,0.099779926,0.363049,0
1.9900000000000015,10.610148180113494,0.179982986432056,-0.005227470696847832,0.16293137353261383,13.857855,-1.0805813,-2.819142,1.3140715,0.93202364,-0.8763091,1.7443488,0.3317422,-0.051717732,-0.0032434203,0.9419456,-9.530245,9.937997,0.56123394,0.44502625,0.08338968,0.3532292,0
2.0000000000000013,,,,,14.422761,-1.5745023,-3.2232685,1.6733948,0.8366686,-0.7769138,1.7499981,0.3302103,-0.05137947,-0.0010306914,0.94250727,-9.540729,9.941142,0.5686693,0.40369645,0.06955785,0.3438912,0
2.010000000000001,,,,,14.422761,-1.5745023,-3.2232685,1.6733948,0.7412099,-0.6774851,1.7557207,0.3286885,-0.051025096,0.000775508,0.94305855,-9.550978,9.944656,0.57584935,0.29583612,0.024701495,0.3396822,0
2.020000000000001,,,,,14.422761,-1.5745023,-3.2232685,1.6733948,0.6456497,-0.57801974,1.7615151,0.32715917,-0.050639004,0.002044951,0.94360906,-9.561048,9.948447,0.58303696,0.20479468,-0.013155131,0.33567974,0
2.0300000000000007,,,,,14.422761,-1.5745023,-3.2232685,1.6733948,0.54998946,-0.47851554,1.7673814,0.3256261,-0.050225478,0.0028612702,0.94415915,-9.570969,9.952414,0.59023225,0.12794986,-0.045104504,0.33187366,0
2.0400000000000005,,,,,14.422761,-1.5745023,-3.2232685,1.6733948,0.4542307,-0.3789712,1.7733197,0.32409215,-0.04978821,0.0032950593,0.9447086,-9.580766,9.956468,0.59743583,0.06308769,-0.072068565,0.32825434,0
2.0500000000000003,,,,,15.260658,-2.0697365,-3.7835433,2.1086261,0.35837448,-0.27938613,1.7793301,0.32255948,-0.0493304,0.0034059049,0.94525665,-9.59046,9.960538,0.60464835,0.008339645,-0.09482507,0.32481265,1
2.06,,,,,15.260658,-2.0697365,-3.7835433,2.1086261,0.2623979,-0.17975071,1.7856755,0.32080334,-0.047834612,0.0023251404,0.94593424,-9.604757,9.966462,0.6637974,-0.2598579,-0.6144127,0.4073278,1
2.07,,,,,15.260658,-2.0697365,-3.7835433,2.1086261,0.16628213,-0.08006015,1.7925928,0.318594,-0.044405375,-0.0008045669,0.9468502,-9.618241,9.971449,0.71907544,-0.5274066,-1.0942192,0.48947993,1
2.0799999999999996,,,,,15.260658,-2.0697365,-3.7835433,2.1086261,0.07003616,0.01967279,1.8000531,0.31592798,-0.039242778,-0.0058534434,0.94795316,-9.630804,9.974839,0.7730251,-0.7677213,-1.5137333,0.56893194,1
2.0899999999999994,,,,,15.834491,-2.2613213,-5.0558386,2.1533864,-0.026330156,0.11942895,1.8080536,0.31281462,-0.032599423,-0.012544168,0.94917166,-9.642264,9.975994,0.8270943,-0.9705476,-1.8678315,0.6444851,1
2.099999999999999,,,,,15.834491,-2.2613213,-5.0558386,2.1533864,-0.122806296,0.21918273,1.8166238,0.30924648,-0.024243053,-0.020847509,0.95044416,-9.652705,9.974249,0.88698167,-1.1715217,-2.3651397,0.7185274,1
2.109999999999999,,,,,15.834491,-2.2613213,-5.0558386,2.1533864,-0.21937782,0.3189015,1.8257933,0.30520743,-0.014001692,-0.030724246,0.95168704,-9.661271,9.968892,0.946899,-1.3411522,-2.7848933,0.7889363,1
2.1199999999999988,,,,,15.834491,-2.2613213,-5.0558386,2.1533864,-0.31602383,0.41854608,1.8355615,0.30069408,-0.0021682805,-0.041920222,0.95279634,-9.667536,9.959321,1.0067238,-1.4843339,-3.1391842,0.8558903,1
2.1299999999999986,,,,,16.63528,-2.5969243,-5.5921783,2.3808374,-0.41271934,0.5180718,1.8459269,0.29570422,0.011006516,-0.054219645,0.953676,-9.6711235,9.945046,1.066275,-1.6051964,-3.4382188,0.9195588,1
2.1399999999999983,,,,,16.63528,-2.5969243,-5.5921783,2.3808374,-0.5094362,0.6174248,1.8569251,0.29019925,0.025471075,-0.06763005,0.95423347,-9.6717205,9.92468,1.133265,-1.7594793,-3.774302,0.9912642,1
2.149999999999998,,,,,16.63528,-2.5969243,-5.5921783,2.3808374,-0.60614157,0.71654546,1.8685894,0.2841417,0.041169148,-0.082144186,0.95436925,-9.668783,9.89851,1.1994079,-1.8897156,-4.0579667,1.0594509,1
2.159999999999998,,,,,16.63528,-2.5969243,-5.5921783,2.3808374,-0.7027985,0.8153738,1.8809092,0.27753448,0.05789283,-0.09757104,0.953993,-9.661977,9.866177,1.2643324,-1.9996582,-4.297386,1.1242915,1
2.1699999999999977,,,,,14.628071,-2.3427887,-4.939911,2.4549677,-0.79936683,0.91384685,1.8938705,0.27038333,0.07546128,-0.11374642,0.9530268,-9.651008,9.827421,1.3276198,-2.0924735,-4.49946,1.1859505,1
2.1799999999999975,,,,,14.628071,-2.3427887,-4.939911,2.4549677,-0.89581233,1.0119263,1.9073582,0.26271203,0.0934944,-0.13036336,0.9514444,-9.637486,9.787562,1.3695995,-2.1312716,-4.568265,1.2482215,1
2.1899999999999973,,,,,14.628071,-2.3427887,-4.939911,2.4549677,-0.9921028,1.1095781,1.9212549,0.25455028,0.11167907,-0.14717375,0.94924796,-9.619968,9.74194,1.4093593,-2.164032,-4.6263328,1.3074368,1
