t,px,py,pz,qx,qy,qz,qw,vx,vy,vz,wx,wy,wz,throttle_mpc,roll_mpc,pitch_mpc,yaw_mpc,throttle_nw,roll_nw,pitch_nw,yaw_nw,network_used
-2.0,12.912894,-11.834263,1.0952393,0.46283114,-0.235157,-0.80414927,-0.28953838,-3.2239192,3.3651,0.09970869,0.13888502,0.9221162,0.8751289000000001,6.068986465523037,-2.2214358308352957,-5.999999701118603,1.474179690906781,9.727703,-0.8324853000000001,0.021206002999999998,0.27727458,0
-1.99,12.880389,-11.80033,1.0959464,0.46371028,-0.23829708,-0.8041189999999999,-0.28562206,-3.2767549,3.4212508,0.04140948,0.042526855999999995,0.11383341,0.8802469,6.068986465523037,-2.2214358308352957,-5.999999701118603,1.474179690906781,9.602319999999999,-0.74145484,-1.2316937,-0.1580083,0
-1.98,12.847365,-11.765845,1.0960617,0.46166155,-0.23993119999999998,-0.8059714,-0.28233284,-3.3276312000000003,3.4753509,-0.018565461000000002,-0.073091246,-0.60265046,0.88817626,6.068986465523037,-2.2214358308352957,-5.999999701118603,1.474179690906781,9.602319999999999,-0.74145484,-1.2316937,-0.1580083,0
-1.97,12.813842999999999,-11.730830000000001,1.0955718,0.4570378,-0.24012916,-0.8095187,-0.27952442,-3.3764966,3.5273296999999997,-0.079578176,-0.20270832,-1.2394011,0.8985780999999999,6.068986465523037,-2.2214358308352957,-5.999999701118603,1.474179690906781,9.602319999999999,-0.74145484,-1.2316937,-0.1580083,0
-1.96,12.779841000000001,-11.695307000000001,1.0944684999999998,0.45012686,-0.23895244,-0.8145685,-0.27706623,-3.4233303,3.5771356,-0.14111416,-0.34207508,-1.8067923,0.91114676,6.068986465523037,-2.2214358308352957,-5.999999701118603,1.474179690906781,8.100532000000001,-1.9920224999999998,-1.4357355,0.13798818,0
-1.95,12.745382000000001,-11.659295,1.092749,0.44116467,-0.23645581,-0.8209286,-0.2748432,-3.4681277,3.6247269999999996,-0.20276347,-0.48777926,-2.3137531000000005,0.92560726,6.068986465523037,-2.2214358308352957,-5.999999701118603,1.474179690906781,8.100532000000001,-1.9920224999999998,-1.4357355,0.13798818,0
-1.94,12.710485,-11.622819999999999,1.0904139,0.43034586,-0.23268859,-0.82841027,-0.27275464,-3.5108917,3.6700672999999995,-0.26420468,-0.6370994000000001,-2.7679782000000004,0.9417120999999999,6.068986465523037,-2.2214358308352957,-5.999999701118603,1.474179690906781,8.100532000000001,-1.9920224999999998,-1.4357355,0.13798818,0
-1.93,12.675172,-11.585902,1.0874666000000002,0.41783217,-0.22769581,-0.8368306000000001,-0.27071318,-3.5516262000000003,3.7131220000000003,-0.32519153,-0.78788364,-3.1761065,0.95923877,6.068986465523037,-2.2214358308352957,-5.999999701118603,1.474179690906781,8.100532000000001,-1.9920224999999998,-1.4357355,0.13798818,0
-1.92,12.639461500000001,-11.548567,1.0839124,0.40375924,-0.22151919,-0.84601337,-0.26864332,-3.5903324999999997,3.753857,-0.38554168,-0.93844676,-3.5438712,0.9779875,9.423342393431033,-2.9387204535348936,-5.99999977259044,2.1439361239688406,10.226694,-2.3741972000000002,-1.4498233999999999,0.42675886,0
-1.91,12.603271000000001,-11.510728,1.0798647,0.38834864,-0.21407376,-0.85582346,-0.26631558,-3.6473907999999997,3.8135552,-0.42373058,-1.1691937,-3.8462107000000003,1.0279489,9.423342393431033,-2.9387204535348936,-5.99999977259044,2.1439361239688406,10.226694,-2.3741972000000002,-1.4498233999999999,0.42675886,0
-1.9,12.566523,-11.472309,1.0754433,0.37176916,-0.2052765,-0.8661406999999999,-0.26353288,-3.7016144,3.869783,-0.46029872,-1.3908756000000002,-4.1283345,1.0778661,9.423342393431033,-2.9387204535348936,-5.99999977259044,2.1439361239688406,10.226694,-2.3741972000000002,-1.4498233999999999,0.42675886,0
-1.89,12.529246,-11.433345,1.0706646,0.35405615,-0.19516823,-0.87681764,-0.26027775,-3.7529857000000004,3.922385,-0.4951932,-1.6037962,-4.392284,1.1276423999999998,9.423342393431033,-2.9387204535348936,-5.99999977259044,2.1439361239688406,10.226694,-2.3741972000000002,-1.4498233999999999,0.42675886,0
-1.8800000000000001,12.491472,-11.393874,1.0655454,0.33524176,-0.18378867,-0.8877075999999999,-0.25653458,-3.8015347000000004,3.971283,-0.52831995,-1.8068519,-4.638418,1.1770690000000001,9.423342393431033,-2.9387204535348936,-5.99999977259044,2.1439361239688406,10.226694,-2.3741972000000002,-1.4498233999999999,0.42675886,0
-1.87,12.453223,-11.35393,1.0601087,0.31538638,-0.17122851,-0.8986417,-0.2523002,-3.8480287000000004,4.0171523,-0.55850464,-1.9830536,-4.850952599999999,1.2245133999999998,13.255325539909014,-1.7237352919698554,-5.8319322654287085,0.5575206014082054,11.137478,-2.768511,-1.2290248,0.32218203,0
-1.8599999999999999,12.414428,-11.313455000000001,1.0545301,0.29456365,-0.15803820000000002,-0.9092853999999999,-0.24790397,-3.9105953999999996,4.077389,-0.55648744,-1.9425976999999999,-5.003862000000001,1.1917839,13.255325539909014,-1.7237352919698554,-5.8319322654287085,0.5575206014082054,11.137478,-2.768511,-1.2290248,0.32218203,0
-1.85,12.375022,-11.272399,1.0489941,0.27285832,-0.14467618,-0.91938066,-0.24363189999999998,-3.9699483,4.133141,-0.55001557,-1.9084702,-5.132933599999999,1.1606604999999999,13.255325539909014,-1.7237352919698554,-5.8319322654287085,0.5575206014082054,11.137478,-2.768511,-1.2290248,0.32218203,0
-1.84,12.335041,-11.230808,1.0435442,0.25037750000000003,-0.13115902,-0.9288586,-0.23943760000000003,-4.0256996,4.184275,-0.53928906,-1.8796794,-5.241883799999999,1.1310642,15.026409992562346,-0.5235739506902466,-4.179188170647638,-0.6153435541946605,14.511709,-1.7952424999999999,-1.2397082,-0.04009882,0
-1.83,12.294487,-11.188698,1.0382969000000002,0.22774120000000003,-0.11807372,-0.9374186999999999,-0.23545453,-4.0844264,4.2369145999999995,-0.50950515,-1.6686016,-5.075907,1.0453675,15.026409992562346,-0.5235739506902466,-4.179188170647638,-0.6153435541946605,14.511709,-1.7952424999999999,-1.2397082,-0.04009882,0
-1.82,12.253368,-11.146088,1.0333681000000001,0.20547162,-0.10589513,-0.9448953999999999,-0.23181967,-4.138431,4.2844024,-0.47568530000000003,-1.490393,-4.9358629999999994,0.9638760000000001,15.026409992562346,-0.5235739506902466,-4.179188170647638,-0.6153435541946605,14.511709,-1.7952424999999999,-1.2397082,-0.04009882,0
-1.81,12.211735000000001,-11.103026,1.0287955,0.18352075,-0.09448554,-0.9514094000000001,-0.22850108,-4.187542,4.3269839999999995,-0.43832445,-1.3399361,-4.8176974999999995,0.8863833000000001,15.026409992562346,-0.5235739506902466,-4.179188170647638,-0.6153435541946605,14.511709,-1.7952424999999999,-1.2397082,-0.04009882,0
-1.8,12.169636,-11.059565,1.0246122,0.1618457,-0.08372804,-0.95705736,-0.22547033,-4.2316199999999995,4.3648739999999995,-0.3978733,-1.2129094999999999,-4.7179910000000005,0.8126931,15.239924217068404,-0.029623041005393758,-2.8162038943300085,-1.0948444721196957,14.125774,-1.7206229,0.11970018,-0.30309036,0
-1.79,12.127118,-11.015742,1.0208572,0.14089377,-0.07382685,-0.96181184,-0.22274783,-4.27113,4.3987620000000005,-0.35275334,-1.0288044,-4.4212475,0.7190896999999999,15.239924217068404,-0.029623041005393758,-2.8162038943300085,-1.0948444721196957,14.125774,-1.7206229,0.11970018,-0.30309036,0
-1.7799999999999998,12.084230999999999,-10.971603,1.0175648000000002,0.121024445,-0.06494064,-0.96569926,-0.22036496,-4.305525,4.4284563,-0.30539832,-0.87334293,-4.170818,0.63007945,15.239924217068404,-0.029623041005393758,-2.8162038943300085,-1.0948444721196957,14.125774,-1.7206229,0.11970018,-0.30309036,0
-1.77,12.041025,-10.927187,1.0147554,0.10208134,-0.056915987,-0.9688551999999999,-0.21831053,-4.3349376,4.454310400000001,-0.25622705,-0.74207103,-3.9594712,0.5454369000000001,15.239924217068404,-0.029623041005393758,-2.8162038943300085,-1.0948444721196957,14.125774,-1.7206229,0.11970018,-0.30309036,0
-1.7599999999999998,11.99755,-10.882530000000001,1.0124452,0.083929144,-0.049622804000000006,-0.9713856,-0.21657196,-4.359492299999999,4.476628,-0.20559348,-0.63122743,-3.7811065000000004,0.46494782,15.239924217068404,-0.029623041005393758,-2.8162038943300085,-1.0948444721196957,14.628076,-1.5588444,1.2087940000000001,-0.3587256,0
-1.75,11.953853,-10.8376665,1.0106474,0.06645135,-0.042951033,-0.97337353,-0.21513589,-4.3793044000000005,4.4956684000000005,-0.15380068,-0.53763473,-3.630575,0.38840836,15.239924217068404,-0.029623041005393758,-2.8162038943300085,-1.0948444721196957,14.628076,-1.5588444,1.2087940000000001,-0.3587256,0
-1.7399999999999998,11.909981,-10.792627,1.0093722,0.049548093,-0.036807764,-0.97488415,-0.21398863,-4.394479799999999,4.511655,-0.10111177,-0.45860907,-3.5035322,0.31562470000000004,15.239924217068404,-0.029623041005393758,-2.8162038943300085,-1.0948444721196957,14.628076,-1.5588444,1.2087940000000001,-0.3587256,0
-1.73,11.865978,-10.747442999999999,1.0086275,0.033134053999999996,-0.031114692000000003,-0.9759689,-0.21311651,-4.4051127,4.5247765,-0.047758523,-0.39188448,-3.3963120000000004,0.24641258,15.239924217068404,-0.029623041005393758,-2.8162038943300085,-1.0948444721196957,14.628076,-1.5588444,1.2087940000000001,-0.3587256,0
-1.72,11.821894,-10.702142,1.0084188,0.0171366,-0.025805897999999997,-0.9766686,-0.21250597,-4.41129,4.5351934,0.006051901700000001,-0.33554664,-3.3058207000000004,0.18059672,16.05933183245541,0.4772389446214875,-0.3673010714235994,-1.3186547104694064,15.658028,-0.70311296,1.8961025000000002,0.113074794,0
-1.71,11.777768,-10.656746,1.0087905000000001,0.0024091107999999997,-0.021231992,-0.97700304,-0.21215177,-4.4132447,4.5435057,0.068311825,-0.20898487,-2.8475349999999997,0.10702804,16.05933183245541,0.4772389446214875,-0.3673010714235994,-1.3186547104694064,15.658028,-0.70311296,1.8961025000000002,0.113074794,0
-1.7,11.733642999999999,-10.611279,1.0097854,-0.010375487,-0.017668843,-0.9770416,-0.21206093,-4.4111023000000005,4.5495543,0.13067225,-0.10210906,-2.4607315,0.037069387999999995,16.05933183245541,0.4772389446214875,-0.3673010714235994,-1.3186547104694064,15.658028,-0.70311296,1.8961025000000002,0.113074794,0
-1.69,11.689557,-10.565761,1.0114039000000001,-0.021518508,-0.01496416,-0.97686726,-0.21223438,-4.405368,4.553762,0.19300455,-0.011861235,-2.1342592000000002,-0.029456383,16.05933183245541,0.4772389446214875,-0.3673010714235994,-1.3186547104694064,15.658028,-0.70311296,1.8961025000000002,0.113074794,0
-1.68,11.645545,-10.520209,1.0136452,-0.031275425,-0.012988972,-0.97653735,-0.21266893,-4.396471,4.5564837,0.25522554,0.06434171,-1.8587069999999999,-0.09271771,16.586762662704597,0.8482111337562466,2.00986025302176,-1.3951935451281632,15.791082999999999,-0.32389346,2.7988305,0.04667255,0
-1.67,11.601639,-10.474637,1.0165341,-0.03896525,-0.011982031,-0.9761245999999999,-0.21335207,-4.3844523,4.558109,0.32254740000000004,0.18656832,-1.2554208999999998,-0.15663058,16.586762662704597,0.8482111337562466,2.00986025302176,-1.3951935451281632,15.791082999999999,-0.32389346,2.7988305,0.04667255,0
-1.66,11.557864,-10.429051,1.0200956,-0.044060905,-0.012127569,-0.97570384,-0.21427508,-4.370311,4.559068,0.38970754,0.28977236,-0.74622387,-0.21740726,16.586762662704597,0.8482111337562466,2.00986025302176,-1.3951935451281632,15.791082999999999,-0.32389346,2.7988305,0.04667255,0
-1.65,11.514237,-10.383455999999999,1.0243280000000001,-0.046968552999999996,-0.013250983999999999,-0.97529835,-0.21543397,-4.354759,4.559880000000001,0.45674220000000004,0.37690842,-0.31644046,-0.27520156,16.586762662704597,0.8482111337562466,2.00986025302176,-1.3951935451281632,15.791082999999999,-0.32389346,2.7988305,0.04667255,0
-1.64,11.470772,-10.337852499999999,1.0292301,-0.048030294,-0.015204292,-0.97491074,-0.21682085,-4.3383956,4.5609813,0.5236969,0.45047373,0.046315603,-0.3301599,17.416968937650168,1.091555398786185,3.960646577197109,-1.3693694425661642,15.212598999999999,-0.3265901,3.9872856,-0.015692446000000002,0
-1.63,11.427475,-10.292233,1.034843,-0.04679436,-0.018126553,-0.9745671999999999,-0.21840513,-4.3209405,4.5628652999999995,0.59887916,0.55060196,0.6567137,-0.38115418,17.416968937650168,1.091555398786185,3.960646577197109,-1.3693694425661642,15.212598999999999,-0.3265901,3.9872856,-0.015692446000000002,0
-1.6199999999999999,11.384352,-10.246591,1.0412079,-0.04291709,-0.022121986,-0.9742695,-0.22015435,-4.303994,4.566027,0.6740928,0.6351272,1.1719191,-0.42964622,17.416968937650168,1.091555398786185,3.960646577197109,-1.3693694425661642,15.212598999999999,-0.3265901,3.9872856,-0.015692446000000002,0
-1.6099999999999999,11.341391999999999,-10.200907,1.0483252,-0.03680919,-0.027026863999999998,-0.9739646000000001,-0.22205405,-4.2883153,4.570998,0.74938256,0.7064760999999999,1.6067784999999999,-0.47575870000000003,17.416968937650168,1.091555398786185,3.960646577197109,-1.3693694425661642,15.212598999999999,-0.3265901,3.9872856,-0.015692446000000002,0
-1.5999999999999999,11.298579,-10.155161999999999,1.0561957,-0.028816875,-0.032701448,-0.9735939,-0.22408837,-4.274541,4.5782356,0.82475334,0.76669854,1.9738226000000003,-0.5196085,17.649083166166648,1.0961229729048991,4.789480693249387,-1.2692647268585049,18.140015,0.66272616,4.413517,0.57691467,0
-1.5899999999999999,11.255894,-10.109331,1.064832,-0.018910427,-0.03910221,-0.9731083,-0.22621705,-4.2630777,4.5882716,0.9024816999999999,0.8182778,2.4128857000000004,-0.55639434,17.649083166166648,1.0961229729048991,4.789480693249387,-1.2692647268585049,18.140015,0.66272616,4.413517,0.57691467,0
-1.5799999999999998,11.213307,-10.063385,1.0742453,-0.007082225,-0.046187255999999996,-0.97244596,-0.22839859,-4.2547164,4.601424,0.9801780000000001,0.8618049000000001,2.7834792,-0.5913751,17.649083166166648,1.0961229729048991,4.789480693249387,-1.2692647268585049,18.140015,0.66272616,4.413517,0.57691467,0
-1.5699999999999998,11.170786999999999,-10.01729,1.084435,0.0063672625,-0.053847152999999995,-0.97153324,-0.23061565,-4.25001,4.618071,1.0577126000000001,0.89853394,3.0962806,-0.6246394000000001,17.649083166166648,1.0961229729048991,4.789480693249387,-1.2692647268585049,18.140015,0.66272616,4.413517,0.57691467,0
-1.5599999999999998,11.128294,-9.971011,1.0953985000000002,0.021182556,-0.06198729,-0.9703037,-0.232852,-4.249417,4.63853,1.1349049,0.9295242,3.3603027,-0.65627134,17.649083166166648,1.0961229729048991,4.789480693249387,-1.2692647268585049,18.371151,0.6272323000000001,3.7858894,1.2344042,0
-1.5499999999999998,11.085784,-9.924506,1.1071312,0.03714583,-0.07052561,-0.9686992,-0.23509274,-4.253312,4.663069200000001,1.211529,0.9556703999999999,3.5831523,-0.68635106,17.649083166166648,1.0961229729048991,4.789480693249387,-1.2692647268585049,18.371151,0.6272323000000001,3.7858894,1.2344042,0
-1.5399999999999998,11.043211,-9.877734,1.1196262,0.054070845,-0.07939079,-0.9666700999999999,-0.23732442,-4.261998999999999,4.6919107,1.2873204,0.9777280999999999,3.7712505,-0.71495485,17.649083166166648,1.0961229729048991,4.789480693249387,-1.2692647268585049,18.371151,0.6272323000000001,3.7858894,1.2344042,0
-1.5299999999999998,11.000525999999999,-9.830652,1.1328737,0.071797945,-0.08852059400000001,-0.9641745999999999,-0.23953484,-4.275717,4.725236,1.3619816,0.9963351,3.9300165000000002,-0.74215496,17.649083166166648,1.0961229729048991,4.789480693249387,-1.2692647268585049,18.371151,0.6272323000000001,3.7858894,1.2344042,0
-1.5199999999999998,10.957678999999999,-9.783214,1.1468607,0.090189874,-0.09786066,-0.9611786,-0.24171314,-4.294645,4.7631879999999995,1.4351892,1.01203,4.0640244,-0.7680204,15.940386866432354,0.8696552276968706,4.480021742442958,-1.1301908752487653,17.765581,0.3794696,3.6781976000000003,0.93252045,0
-1.5099999999999998,10.914626,-9.735393,1.161489,0.109029874,-0.10724807,-0.9576816999999999,-0.24383724,-4.3165593,4.8017330000000005,1.4901909,0.9899068999999999,4.1288986,-0.78579223,15.940386866432354,0.8696552276968706,4.480021742442958,-1.1301908752487653,17.765581,0.3794696,3.6781976000000003,0.93252045,0
-1.4999999999999998,10.87133,-9.687165,1.176658,0.12813891,-0.11655132,-0.95369595,-0.24588774,-4.343338,4.844552999999999,1.5432706,0.97122794,4.183655,-0.802692,15.940386866432354,0.8696552276968706,4.480021742442958,-1.1301908752487653,17.765581,0.3794696,3.6781976000000003,0.93252045,0
-1.4899999999999998,10.827742,-9.638487,1.1923468000000002,0.14745772,-0.12576835,-0.94921273,-0.24785925,-4.374986,4.8916245,1.5941290000000001,0.95545626,4.2298717,-0.8187625,15.940386866432354,0.8696552276968706,4.480021742442958,-1.1301908752487653,17.765581,0.3794696,3.6781976000000003,0.93252045,0
-1.4799999999999998,10.783813,-9.589317999999999,1.208532,0.16693434,-0.1348964,-0.94422597,-0.24974717,-4.4114847,4.9429097,1.6424648999999998,0.94213885,4.26888,-0.8340443999999999,12.521151575701143,0.4899077979909336,3.201838786377623,-0.9618355179096254,16.833494,0.99320996,3.913013,0.5640765,0
-1.4699999999999998,10.739539,-9.539675,1.225032,0.18607771,-0.14366531,-0.93885374,-0.25157392,-4.4439106,4.9864497000000005,1.6571854,0.87154007,4.10251,-0.84031516,12.521151575701143,0.4899077979909336,3.201838786377623,-0.9618355179096254,16.833494,0.99320996,3.913013,0.5640765,0
-1.4599999999999997,10.694922,-9.489578999999999,1.2416675,0.20450348,-0.15186545,-0.93323225,-0.25336364,-4.479921,5.033077,1.6695616999999998,0.8119634,3.9620800000000003,-0.84627825,12.521151575701143,0.4899077979909336,3.201838786377623,-0.9618355179096254,16.833494,0.99320996,3.913013,0.5640765,0
-1.4499999999999997,10.649929,-9.439003,1.2584146999999999,0.22231285,-0.15957542,-0.92737794,-0.25511426,-4.519321,5.0826044,1.6794924999999998,0.76168793,3.8435457000000004,-0.8519486999999999,12.521151575701143,0.4899077979909336,3.201838786377623,-0.9618355179096254,16.833494,0.99320996,3.913013,0.5640765,0
-1.4399999999999997,10.604526,-9.3879175,1.2752486,0.23959053,-0.16686153,-0.9213011999999999,-0.25682348,-4.561935,5.1348696,1.6868845000000001,0.7192616999999999,3.7434925999999997,-0.8573409,9.791756800353236,0.08566158964913924,1.5076922566622868,-0.7716405899507877,14.099833499999999,1.4154416,3.2921286,1.5340375,0
-1.4299999999999997,10.55873,-9.336356,1.2920308,0.25582388,-0.17346333,-0.9152158000000001,-0.25854442,-4.597629,5.1777525,1.6692448,0.6202482,3.3948777000000003,-0.8531354999999999,9.791756800353236,0.08566158964913924,1.5076922566622868,-0.7716405899507877,14.099833499999999,1.4154416,3.2921286,1.5340375,0
-1.4199999999999997,10.512566,-9.284355999999999,1.3086267,0.2706225,-0.17918405,-0.9093334999999999,-0.2603261,-4.635461299999999,5.2224345,1.6496255000000002,0.5367081,3.1006202999999997,-0.84913653,9.791756800353236,0.08566158964913924,1.5076922566622868,-0.7716405899507877,14.099833499999999,1.4154416,3.2921286,1.5340375,0
-1.4099999999999997,10.466014,-9.231902,1.3250167,0.28421456,-0.1841606,-0.90364826,-0.26215914,-4.675202,5.2687073,1.6281197,0.46622324,2.8522441,-0.8453338,9.791756800353236,0.08566158964913924,1.5076922566622868,-0.7716405899507877,14.099833499999999,1.4154416,3.2921286,1.5340375,0
-1.3999999999999997,10.419056,-9.178978,1.3411828000000001,0.29679099999999997,-0.18850814,-0.8981461,-0.264034,-4.716661,5.3163953,1.6048145,0.40675320000000004,2.6425955,-0.84171766,7.7823389644664465,-0.3219090510525373,-0.5053508029326131,-0.5621783955158188,11.240013000000001,1.3113059999999999,1.0507544,0.03553882,0
-1.3899999999999997,10.371718,-9.12562,1.3570321,0.30783,-0.19197282,-0.8930952,-0.2660239,-4.7508349999999995,5.3552919999999995,1.5648127,0.29283032,2.15174,-0.82800055,7.7823389644664465,-0.3219090510525373,-0.5053508029326131,-0.5621783955158188,11.240013000000001,1.3113059999999999,1.0507544,0.03553882,0
-1.3799999999999997,10.324036,-9.07187,1.3724751,0.31693667,-0.19436333,-0.8887344000000001,-0.26818976,-4.786023999999999,5.3949940000000005,1.523649,0.19672374,1.7374216,-0.81495655,7.7823389644664465,-0.3219090510525373,-0.5053508029326131,-0.5621783955158188,11.240013000000001,1.3113059999999999,1.0507544,0.03553882,0
-1.3699999999999997,10.275996000000001,-9.017717999999999,1.3875017,0.32442558,-0.1958518,-0.8849961999999999,-0.27050409999999997,-4.822032,5.4353166,1.4815296999999998,0.115646295,1.3877064,-0.8025526999999999,7.7823389644664465,-0.3219090510525373,-0.5053508029326131,-0.5621783955158188,11.240013000000001,1.3113059999999999,1.0507544,0.03553882,0
-1.3599999999999997,10.227591499999999,-8.963161,1.4021031000000002,0.33055848,-0.19658202,-0.8818108,-0.27294123,-4.8587,5.4761086,1.4386371,0.04724712,1.0925213,-0.7907575,7.7823389644664465,-0.3219090510525373,-0.5053508029326131,-0.5621783955158188,10.92914,1.0770715,-0.49249747,-0.06768593,0
-1.3499999999999996,10.178819,-8.908194,1.4162723999999998,0.33555317,-0.19667426,-0.87911075,-0.275478,-4.895899299999999,5.517243,1.3951313,-0.010457081,0.8433636999999998,-0.7795411,7.7823389644664465,-0.3219090510525373,-0.5053508029326131,-0.5621783955158188,10.92914,1.0770715,-0.49249747,-0.06768593,0
-1.3399999999999996,10.129671,-8.852814,1.430004,0.33959135,-0.19622931,-0.876833,-0.27809387,-4.9335265,5.5586157,1.351151,-0.0591389,0.6330566999999999,-0.768875,7.7823389644664465,-0.3219090510525373,-0.5053508029326131,-0.5621783955158188,10.92914,1.0770715,-0.49249747,-0.06768593,0
-1.3299999999999996,10.080147,-8.79702,1.443294,0.34282473,-0.19533181,-0.87492,-0.280771,-4.971496,5.6001389999999995,1.3068153999999998,-0.10020979,0.4555425,-0.7587324000000001,7.7823389644664465,-0.3219090510525373,-0.5053508029326131,-0.5621783955158188,10.92914,1.0770715,-0.49249747,-0.06768593,0
-1.3199999999999996,10.030241,-8.74081,1.4561393999999999,0.34538013,-0.19405289,-0.87332004,-0.28349397,-5.009738,5.6417394,1.2622268,-0.13485970000000003,0.30570793,-0.74908745,6.674854703737035,-0.6083484947330904,-1.8265433279489562,-0.3589260366441306,9.855943,0.4595891,-1.8675752,0.81198335,0
-1.3099999999999996,9.979979,-8.684215,1.4685001,0.3469302,-0.19221054,-0.8722001,-0.28629053,-5.042716,5.6774225,1.2098928999999998,-0.20886208,-0.026782066,-0.7299420999999999,6.674854703737035,-0.6083484947330904,-1.8265433279489562,-0.3589260366441306,9.855943,0.4595891,-1.8675752,0.81198335,0
-1.2999999999999996,9.929386000000001,-8.627262,1.4803374,0.34722054,-0.18966311,-0.87168974,-0.28917736,-5.0757847,5.7130084000000005,1.1575693,-0.27129158,-0.30742747,-0.7117361999999999,6.674854703737035,-0.6083484947330904,-1.8265433279489562,-0.3589260366441306,9.855943,0.4595891,-1.8675752,0.81198335,0
-1.2899999999999996,9.878463,-8.569955,1.491652,0.34644577,-0.18651979,-0.8716927,-0.29212704,-5.108857599999999,5.7483926,1.1053979999999999,-0.3239593,-0.54431194,-0.6944236999999999,6.674854703737035,-0.6083484947330904,-1.8265433279489562,-0.3589260366441306,9.855943,0.4595891,-1.8675752,0.81198335,0
-1.2799999999999996,9.827209,-8.512294,1.5024463,0.34476843,-0.18287219,-0.87212366,-0.29511607,-5.1418633,5.7834864,1.0534974,-0.36839208,-0.744259,-0.67796075,5.866919784001329,-0.7843671108171787,-2.8577248339060226,-0.16891560738232475,8.624680999999999,0.10721610000000001,-2.0260882,0.69718874,0
-1.2699999999999996,9.775644,-8.454303999999999,1.5126989,0.3419979,-0.1786542,-0.8730526,-0.29816106,-5.1711540000000005,5.8144217000000005,0.99689555,-0.42525545,-1.0657012,-0.65372413,5.866919784001329,-0.7843671108171787,-2.8577248339060226,-0.16891560738232475,8.624680999999999,0.10721610000000001,-2.0260882,0.69718874,0
-1.2599999999999996,9.723789,-8.3960085,1.5223838,0.3379614,-0.17376702,-0.8745465,-0.30125773,-5.1998525,5.844513,0.94018334,-0.48135698,-1.3451498,-0.62993443,5.866919784001329,-0.7843671108171787,-2.8577248339060226,-0.16891560738232475,8.624680999999999,0.10721610000000001,-2.0260882,0.69718874,0
-1.2499999999999996,9.671649,-8.337415,1.5315044,0.33283776,-0.16829568,-0.87650144,-0.30437088,-5.2282767,5.8740797,0.8840341,-0.5286848000000001,-1.5810235000000001,-0.6073121,5.866919784001329,-0.7843671108171787,-2.8577248339060226,-0.16891560738232475,8.624680999999999,0.10721610000000001,-2.0260882,0.69718874,0
-1.2399999999999995,9.6192255,-8.278528999999999,1.5400667,0.32678464,-0.16232696,-0.8788188,-0.30747363,-5.2563596,5.903032,0.82853824,-0.56861216,-1.7801164,-0.5857998999999999,5.142107548733785,-0.8842493068781251,-3.428710328186088,0.02622874094537831,9.119295,-0.24213877,-2.432777,0.7075861,0
-1.2299999999999995,9.566535,-8.219369,1.5480589,0.31977576,-0.15590295,-0.8814711,-0.31055954,-5.2815375,5.928733,0.7698501999999999,-0.5978175,-2.0171418,-0.5575736,5.142107548733785,-0.8842493068781251,-3.428710328186088,0.02622874094537831,9.119295,-0.24213877,-2.432777,0.7075861,0
-1.2199999999999995,9.513598,-8.159958999999999,1.5554627,0.31176692,-0.14900504,-0.8844496,-0.31360573,-5.305653599999999,5.953085,0.71086764,-0.6365868,-2.2313359,-0.5294685,5.142107548733785,-0.8842493068781251,-3.428710328186088,0.02622874094537831,9.119295,-0.24213877,-2.432777,0.7075861,0
-1.2099999999999995,9.460424,-8.100311,1.5622774,0.30286586,-0.14163749,-0.88769,-0.31657258,-5.3290169999999994,5.9763927,0.65219986,-0.6752312,-2.4180646,-0.5022002999999999,5.142107548733785,-0.8842493068781251,-3.428710328186088,0.02622874094537831,9.119295,-0.24213877,-2.432777,0.7075861,0
-1.1999999999999995,9.407021,-8.040435,1.5685095,0.29319027,-0.13385747,-0.8911128,-0.3194375,-5.351846,5.998855000000001,0.59432757,-0.7078355,-2.5756755,-0.47627014,4.979409059101316,-0.9718321514808944,-3.7998390924901813,0.2155456633346004,7.8423977,-0.60862464,-2.2439383999999998,1.1322279,0
-1.1899999999999995,9.35339,-7.980337,1.5741678,0.2827502,-0.1257116,-0.89467704,-0.32218420000000003,-5.3741136,6.020422,0.5373178000000001,-0.73166054,-2.74925,-0.44388276,4.979409059101316,-0.9718321514808944,-3.7998390924901813,0.2155456633346004,7.8423977,-0.60862464,-2.2439383999999998,1.1322279,0
-1.1799999999999995,9.299541,-7.920031,1.5792556,0.27153468,-0.11719222,-0.8983598,-0.32478508,-5.395253,6.040536400000001,0.48021254,-0.7637676,-2.907762,-0.41201099999999996,4.979409059101316,-0.9718321514808944,-3.7998390924901813,0.2155456633346004,7.8423977,-0.60862464,-2.2439383999999998,1.1322279,0
-1.1699999999999995,9.245486999999999,-7.859530400000001,1.5837735000000002,0.25962060000000003,-0.10829627,-0.90210956,-0.32721272,-5.415494,6.0594053,0.42350745,-0.79619145,-3.0468884,-0.38121662,4.979409059101316,-0.9718321514808944,-3.7998390924901813,0.2155456633346004,7.8423977,-0.60862464,-2.2439383999999998,1.1322279,0
-1.1599999999999995,9.191234,-7.7988462,1.5877284,0.24709658,-0.09906827,-0.9058642,-0.32945335,-5.43501,6.077170400000001,0.36763049999999997,-0.82355136,-3.1643195,-0.35193333,4.979409059101316,-0.9718321514808944,-3.7998390924901813,0.2155456633346004,7.532957000000001,-0.42946294,-1.700237,0.9361108,0
-1.1499999999999995,9.136789,-7.737991,1.5911288000000001,0.23404391,-0.08955694,-0.90956736,-0.33149812,-5.4537554,6.093767,0.31256998,-0.8466393,-3.2634385,-0.32408696,4.979409059101316,-0.9718321514808944,-3.7998390924901813,0.2155456633346004,7.532957000000001,-0.42946294,-1.700237,0.9361108,0
-1.1399999999999995,9.082161,-7.6769753,1.5939827,0.22053258,-0.07980407,-0.9131712,-0.33334047,-5.4716883,6.1091370000000005,0.25830376,-0.866123,-3.3471007000000004,-0.29760706,4.979409059101316,-0.9718321514808944,-3.7998390924901813,0.2155456633346004,7.532957000000001,-0.42946294,-1.700237,0.9361108,0
-1.1299999999999994,9.027358,-7.615813,1.5962976999999998,0.20662312,-0.06984562400000001,-0.91663545,-0.33497557,-5.4887695,6.123228,0.20480079999999998,-0.8825659,-3.4177165,-0.27242652,4.979409059101316,-0.9718321514808944,-3.7998390924901813,0.2155456633346004,7.532957000000001,-0.42946294,-1.700237,0.9361108,0
-1.1199999999999994,8.972388,-7.5545160000000005,1.5980813999999999,0.19236803,-0.059712615,-0.9199264000000001,-0.33640036,-5.504963,6.1359925,0.15202235,-0.89644325,-3.4773197,-0.24848162,5.24230885669388,-1.0452668194186745,-3.2514720064400806,0.3843985788658039,6.2846364999999995,0.3656937,-1.1716356,0.7233925999999999,0
-1.1099999999999994,8.917257000000001,-7.493094999999999,1.5993527,0.17802425,-0.049482807999999996,-0.9229852,-0.33757672,-5.5210457,6.1479926,0.10234995,-0.91957676,-3.4421138999999994,-0.21742602,5.24230885669388,-1.0452668194186745,-3.2514720064400806,0.3843985788658039,6.2846364999999995,0.3656937,-1.1716356,0.7233925999999999,0
-1.0999999999999994,8.861971,-7.431561,1.6001303999999998,0.16380158,-0.039220646,-0.9257774999999999,-0.33847868,-5.536158599999999,6.158532,0.05332572,-0.93910825,-3.4123987999999996,-0.18789431,5.24230885669388,-1.0452668194186745,-3.2514720064400806,0.3843985788658039,6.2846364999999995,0.3656937,-1.1716356,0.7233925999999999,0
-1.0899999999999994,8.806539,-7.369929300000001,1.6004211000000002,0.14967872,-0.028932847,-0.9283087999999999,-0.3391209,-5.5503025,6.1675973,0.0048812423,-0.95559853,-3.3873177000000005,-0.15981175,5.24230885669388,-1.0452668194186745,-3.2514720064400806,0.3843985788658039,6.2846364999999995,0.3656937,-1.1716356,0.7233925999999999,0
-1.0799999999999994,8.750969,-7.3082139999999995,1.6002296999999999,0.13563825,-0.018625284,-0.9305833,-0.33951595,-5.5634794,6.175176,-0.043050483,-0.9695214,-3.3661482000000005,-0.1331072,5.241543491351447,-0.9725928001351238,-2.1866897220453496,0.5405034837773314,5.9548016,0.44824702,-0.6611577,0.4941812,0
-1.0699999999999994,8.695272000000001,-7.2464304,1.5995618999999999,0.122051805,-0.008474486,-0.9325591000000001,-0.33965588,-5.5757046,6.181272,-0.09049474,-0.97042704,-3.1827443,-0.10010077,5.241543491351447,-0.9725928001351238,-2.1866897220453496,0.5405034837773314,5.9548016,0.44824702,-0.6611577,0.4941812,0
-1.0599999999999994,8.639459,-7.184593,1.5984211000000002,0.10921953599999999,0.0013733441000000001,-0.93422717,-0.33954359999999995,-5.586999,6.1859097,-0.13762346,-0.97069246,-3.0274297999999997,-0.06866614,5.241543491351447,-0.9725928001351238,-2.1866897220453496,0.5405034837773314,5.9548016,0.44824702,-0.6611577,0.4941812,0
-1.0499999999999994,8.583536,-7.1227174,1.5968105,0.097027555,0.010962696999999999,-0.9356324,-0.33920276,-5.597427,6.189143,-0.18445967,-0.9709264000000001,-2.8963356,-0.03877401,5.241543491351447,-0.9725928001351238,-2.1866897220453496,0.5405034837773314,5.9548016,0.44824702,-0.6611577,0.4941812,0
-1.0399999999999994,8.5275135,-7.060816,1.5947326000000002,0.085378975,0.020331841,-0.9368097,-0.33865267,-5.607031,6.1910124,-0.23106742,-0.9711318000000001,-2.7856846,-0.010348696999999999,5.256432959906583,-0.8704687031989606,-0.8185490302947429,0.6665589576301363,7.1171618,-0.20487908,0.40943745,0.5094694000000001,0
-1.0299999999999994,8.4713955,-6.998902,1.5922062,0.07464019,0.029398315,-0.9377540000000001,-0.33790990000000004,-5.616386400000001,6.1915949999999995,-0.27441055,-0.9863555,-2.5099044,0.020086654,5.256432959906583,-0.8704687031989606,-0.8185490302947429,0.6665589576301363,7.1171618,-0.20487908,0.40943745,0.5094694000000001,0
-1.0199999999999994,8.415189,-6.936988400000001,1.5892403999999998,0.065127365,0.03803843,-0.93847984,-0.33699885,-5.6248,6.190872,-0.31898135,-0.985024,-2.2629402,0.050297514,5.256432959906583,-0.8704687031989606,-0.8185490302947429,0.6665589576301363,7.1171618,-0.20487908,0.40943745,0.5094694000000001,0
-1.0099999999999993,8.358901,-6.875088000000001,1.5858226999999998,0.05669534,0.046229735,-0.9390381,-0.33594209999999997,-5.6324153,6.188991000000001,-0.36474591,-0.9706958000000001,-2.041276,0.08020917,5.256432959906583,-0.8704687031989606,-0.8185490302947429,0.6665589576301363,7.1171618,-0.20487908,0.40943745,0.5094694000000001,0
-0.9999999999999991,8.302541999999999,-6.813212400000001,1.5819448,0.049206503,0.053984555999999996,-0.93947005,-0.33475614,-5.639463,6.186033999999999,-0.41084123,-0.95504045,-1.8506095,0.10898153,5.458787958762271,-0.7009035705738199,-0.12225398017138127,0.7723075559808751,6.892765,0.067784764,0.7906734000000001,0.38802335,0
-0.9899999999999991,8.246111,-6.751372999999999,1.5776268,0.042724057999999995,0.061282302999999996,-0.939801,-0.33345836,-5.646571,6.1817694,-0.4530032,-0.9356419,-1.6013391000000001,0.13970889,5.458787958762271,-0.7009035705738199,-0.12225398017138127,0.7723075559808751,6.892765,0.067784764,0.7906734000000001,0.38802335,0
-0.9799999999999991,8.189612,-6.68958,1.5728799999999998,0.037317737999999996,0.06805441,-0.9400584000000001,-0.3320655,-5.653129,6.176641,-0.4965754,-0.9048046999999999,-1.3764693000000001,0.17022246,5.458787958762271,-0.7009035705738199,-0.12225398017138127,0.7723075559808751,6.892765,0.067784764,0.7906734000000001,0.38802335,0
-0.9699999999999993,8.133049,-6.6278429999999995,1.5676934,0.032857,0.07431284,-0.9402725000000001,-0.33058578,-5.6593304,6.170698000000001,-0.54076797,-0.8730051999999999,-1.1808885,0.19976695,5.458787958762271,-0.7009035705738199,-0.12225398017138127,0.7723075559808751,6.892765,0.067784764,0.7906734000000001,0.38802335,0
-0.9599999999999993,8.076426,-6.566169,1.5620643,0.029202667999999998,0.08012747,-0.9404634,-0.32902384,-5.6653139999999995,6.1639743,-0.58502775,-0.84616864,-1.015807,0.22786167,5.458787958762271,-0.7009035705738199,-0.12225398017138127,0.7723075559808751,6.556561500000001,0.11348996,1.4055253,0.40016356,0
-0.9499999999999993,8.019743,-6.5045657,1.5559925,0.026231487999999997,0.08556852,-0.9406445,-0.32738249999999997,-5.67114,6.1565404,-0.62936366,-0.82351995,-0.87646896,0.25457779999999997,5.458787958762271,-0.7009035705738199,-0.12225398017138127,0.7723075559808751,6.556561500000001,0.11348996,1.4055253,0.40016356,0
-0.9399999999999993,7.9630035999999995,-6.4430404,1.5494767,0.023839222,0.09069505,-0.94082445,-0.32566366,-5.6768594000000006,6.1484547,-0.67378205,-0.8044048,-0.7588597,0.27998295,5.458787958762271,-0.7009035705738199,-0.12225398017138127,0.7723075559808751,6.556561500000001,0.11348996,1.4055253,0.40016356,0
-0.9299999999999993,7.906206599999999,-6.381599,1.5425165,0.021937732,0.09555675,-0.941009,-0.32386872,-5.682514,6.139768,-0.7182875,-0.78827155,-0.65959084,0.3041415,5.458787958762271,-0.7009035705738199,-0.12225398017138127,0.7723075559808751,6.556561500000001,0.11348996,1.4055253,0.40016356,0
-0.9199999999999993,7.8493533,-6.320247,1.5351107,0.020452500000000002,0.10019537,-0.9412017,-0.32199878,-5.688141000000001,6.1305237,-0.76288354,-0.7746545,-0.5758023,0.32711452,6.556620005786728,-0.5130469864990674,0.7904054738171112,0.8119533440658164,7.894430000000001,0.013122416999999999,2.3646731,0.36240613,0
-0.9099999999999993,7.792438000000001,-6.2589999999999995,1.527312,0.019640706,0.104457915,-0.9414068999999999,-0.32008913,-5.694909,6.118799,-0.79683036,-0.7338965999999999,-0.36274588,0.35090570000000004,6.556620005786728,-0.5130469864990674,0.7904054738171112,0.8119533440658164,7.894430000000001,0.013122416999999999,2.3646731,0.36240613,0
-0.8999999999999992,7.735455,-6.197873,1.5191735,0.0197032,0.10822583,-0.9416306000000001,-0.31816977,-5.701764,6.1065445,-0.8308854999999999,-0.6994934,-0.18291514,0.3735294,6.556620005786728,-0.5130469864990674,0.7904054738171112,0.8119533440658164,7.894430000000001,0.013122416999999999,2.3646731,0.36240613,0
-0.8899999999999992,7.6784024,-6.1368704,1.510694,0.020505838000000002,0.11157751,-0.9418744000000001,-0.31623375,-5.7087864999999995,6.0938516,-0.8650443000000001,-0.67045367,-0.031128675,0.39504302,6.556620005786728,-0.5130469864990674,0.7904054738171112,0.8119533440658164,7.894430000000001,0.013122416999999999,2.3646731,0.36240613,0
-0.8799999999999992,7.621278299999999,-6.075996400000001,1.5018723999999999,0.02193521,0.11457869400000001,-0.9421376,-0.31427464,-5.716044,6.0807953,-0.89930236,-0.6459403,0.096986584,0.41550094,8.67702457914234,-0.25334633347660424,1.7700727789364632,0.7755850588763882,9.239815,-0.0051737656,3.1733029999999998,0.21218634,0
-0.8699999999999992,7.564068300000001,-6.015276999999999,1.4928107,0.024231786,0.11706379,-0.94241965,-0.31233862,-5.726045,6.0631337,-0.9130395,-0.58479005,0.35791326,0.43317035,8.67702457914234,-0.25334633347660424,1.7700727789364632,0.7755850588763882,9.239815,-0.0051737656,3.1733029999999998,0.21218634,0
-0.8599999999999992,7.506756,-5.9547349999999994,1.4836111,0.02758125,0.1189048,-0.94271666,-0.31046334,-5.7365723,6.04524,-0.9268898000000001,-0.5331699000000001,0.5781476,0.44997275,8.67702457914234,-0.25334633347660424,1.7700727789364632,0.7755850588763882,9.239815,-0.0051737656,3.1733029999999998,0.21218634,0
-0.8499999999999992,7.4493350000000005,-5.894372,1.4742725,0.03182114,0.120202675,-0.9430200000000001,-0.3086313,-5.747755000000001,6.027263,-0.94084215,-0.48959392,0.7640354,0.46595064,8.67702457914234,-0.25334633347660424,1.7700727789364632,0.7755850588763882,9.239815,-0.0051737656,3.1733029999999998,0.21218634,0
-0.8399999999999992,7.391799000000001,-5.8341894,1.4647938,0.036813992999999996,0.12104197,-0.9433197,-0.30682686,-5.759703,6.0093303,-0.9548905999999999,-0.45280796,0.92093307,0.48114452,11.391990292581394,0.01718016513477141,2.656952463163081,0.6634703671360611,11.595684,-0.11448111400000001,3.7194784,0.18685731,0
-0.8299999999999992,7.334119,-5.774213,1.4553056,0.0427435,0.12128318,-0.94359994,-0.30509615,-5.776529,5.9859967,-0.9427633,-0.37960523,1.1916851000000002,0.49009129999999995,11.391990292581394,0.01718016513477141,2.656952463163081,0.6634703671360611,11.595684,-0.11448111400000001,3.7194784,0.18685731,0
-0.8199999999999992,7.2762637,-5.7144675000000005,1.445938,0.049748734,0.12081928,-0.94383866,-0.30347583,-5.7946725,5.963088,-0.93075633,-0.31780753,1.4202106,0.49859905,11.391990292581394,0.01718016513477141,2.656952463163081,0.6634703671360611,11.595684,-0.11448111400000001,3.7194784,0.18685731,0
-0.8099999999999992,7.2182207,-5.6549487,1.43669,0.05766185,0.11975879,-0.9440162,-0.30193946,-5.8143096,5.940814,-0.91887546,-0.26563752,1.6130953000000001,0.50668937,11.391990292581394,0.01718016513477141,2.656952463163081,0.6634703671360611,11.595684,-0.11448111400000001,3.7194784,0.18685731,0
-0.7999999999999992,7.1599727,-5.595649,1.42756,0.06634051,0.11819278400000001,-0.9441144,-0.30046383,-5.835586,5.919352,-0.9071386,-0.22159481,1.7758976000000002,0.5143826,12.879245935254287,0.27912917920093905,2.7569075066933357,0.5167545538497114,13.390854999999998,-0.6523802,3.924707,0.10980657,0
-0.7899999999999991,7.1014886,-5.5365720000000005,1.4186181999999998,0.07566816,0.116087995,-0.94412047,-0.29905770000000004,-5.861633,5.8961806,-0.8812559000000001,-0.14355855,1.9289116000000002,0.51449895,12.879245935254287,0.27912917920093905,2.7569075066933357,0.5167545538497114,13.390854999999998,-0.6523802,3.924707,0.10980657,0
-0.7799999999999991,7.042733,-5.477721,1.4099342,0.0855454,0.11342213,-0.9440208000000001,-0.29772994,-5.889779,5.874283999999999,-0.8556009,-0.07768403,2.0580592,0.51460963,12.879245935254287,0.27912917920093905,2.7569075066933357,0.5167545538497114,13.390854999999998,-0.6523802,3.924707,0.10980657,0
-0.7699999999999991,6.983685,-5.419082,1.4015053999999998,0.09588359,0.11028053,-0.94379884,-0.2964614,-5.920111,5.853828,-0.8302162000000001,-0.022075973,2.1670627999999996,0.5147149000000001,12.879245935254287,0.27912917920093905,2.7569075066933357,0.5167545538497114,13.390854999999998,-0.6523802,3.924707,0.10980657,0
-0.7599999999999991,6.924322999999999,-5.360639599999999,1.3933287,0.10660731,0.106735125,-0.9434403,-0.29523543,-5.952697799999999,5.834953,-0.80515516,0.024865827000000004,2.2590647,0.5148149999999999,12.879245935254287,0.27912917920093905,2.7569075066933357,0.5167545538497114,14.579489,-0.7889049,3.2488801,0.28786490000000003,0
-0.7499999999999991,6.864623,-5.302377,1.3854008999999998,0.117652245,0.10284669,-0.94293344,-0.29403755,-5.9875964999999995,5.8177752,-0.7804797,0.06449197,2.3367164000000002,0.5149102,12.879245935254287,0.27912917920093905,2.7569075066933357,0.5167545538497114,14.579489,-0.7889049,3.2488801,0.28786490000000003,0
-0.7399999999999989,6.804562599999999,-5.2442779999999996,1.3777176000000002,0.12896356,0.09866657,-0.9422686,-0.29285532,-6.0248513,5.8023940000000005,-0.7562595,0.09794247,2.4022565,0.5150007000000001,12.879245935254287,0.27912917920093905,2.7569075066933357,0.5167545538497114,14.579489,-0.7889049,3.2488801,0.28786490000000003,0
-0.7299999999999989,6.744117699999999,-5.1863227,1.370274,0.14049442,0.09423821,-0.94143796,-0.29167798,-6.0644956,5.7888910000000005,-0.7325699999999999,0.12617975,2.4575734000000002,0.51508677,12.879245935254287,0.27912917920093905,2.7569075066933357,0.5167545538497114,14.579489,-0.7889049,3.2488801,0.28786490000000003,0
-0.7199999999999989,6.683264299999999,-5.1284933,1.3630642,0.15220477,0.089598395,-0.94043535,-0.29049644,-6.106554,5.7773330000000005,-0.7094916,0.15001631,2.5042624,0.5151686,14.182841277263892,0.538096266259197,2.6244889737361428,0.3431533023515001,15.324459,-0.65990615,2.816918,0.35292003,0
-0.7099999999999989,6.621956,-5.0707746,1.3561428,0.16397862,0.08469961599999999,-0.93926746,-0.28933463,-6.155538,5.7668114,-0.6749111,0.21054466,2.523031,0.5067278000000001,14.182841277263892,0.538096266259197,2.6244889737361428,0.3431533023515001,15.324459,-0.65990615,2.816918,0.35292003,0
-0.6999999999999991,6.5601444,-5.0131497000000005,1.3495629,0.17572217,0.07950697,-0.93794066,-0.28821617,-6.2071605000000005,5.7585690000000005,-0.64117247,0.26163417,2.5388687,0.49870116,14.182841277263892,0.538096266259197,2.6244889737361428,0.3431533023515001,15.324459,-0.65990615,2.816918,0.35292003,0
-0.6899999999999991,6.4978037,-4.955595,1.3433161,0.18743347,0.074066356,-0.93644994,-0.2871327,-6.2613783,5.7526703,-0.6083531999999999,0.3047567,2.5522335,0.4910684,14.182841277263892,0.538096266259197,2.6244889737361428,0.3431533023515001,15.324459,-0.65990615,2.816918,0.35292003,0
-0.679999999999999,6.4349084,-4.8980875,1.3373924,0.19911054,0.068416625,-0.9347915000000001,-0.28607664,-6.3181496,5.749168,-0.5765340999999999,0.34115434,2.5635116,0.48381016,15.396129016883776,0.7659764749777853,1.9985709486768848,0.16953176033980735,16.415567000000003,-0.46497634,2.4412236000000003,0.25423855,0
-0.669999999999999,6.371407,-4.840604,1.3318368,0.21049023,0.06258152,-0.93301505,-0.28506345,-6.382488700000001,5.7480082999999995,-0.5347698000000001,0.40745783,2.4754262000000002,0.46838844,15.396129016883776,0.7659764749777853,1.9985709486768848,0.16953176033980735,16.415567000000003,-0.46497634,2.4412236000000003,0.25423855,0
-0.659999999999999,6.3072495,-4.7831187,1.3266928,0.22136591,0.05658298,-0.9311693999999999,-0.28411263,-6.449388,5.7494974,-0.49421492,0.46341409999999994,2.4010737,0.45372346,15.396129016883776,0.7659764749777853,1.9985709486768848,0.16953176033980735,16.415567000000003,-0.46497634,2.4412236000000003,0.25423855,0
-0.649999999999999,6.242411,-4.725605000000001,1.3219483,0.23181169,0.050449014,-0.92924947,-0.2832219,-6.5186863,5.7536297,-0.45489700000000005,0.5106384,2.3383130000000003,0.43977812,15.396129016883776,0.7659764749777853,1.9985709486768848,0.16953176033980735,16.415567000000003,-0.46497634,2.4412236000000003,0.25423855,0
-0.639999999999999,6.1768684,-4.6680374,1.3175906000000002,0.24188991,0.04420324,-0.92725044,-0.2823881,-6.5902424,5.760398,-0.41684648,0.55049324,2.2853372000000003,0.42651704,15.725271556214222,0.9649489777166548,1.1042971168670024,0.032818497045593496,16.645376000000002,-0.027717136,1.9544142,0.24550658,1
-0.629999999999999,6.110569,-4.610385,1.3136617,0.25172672,0.038162675,-0.92516196,-0.28152025,-6.6699243,5.770536,-0.36915988,0.46034902,2.2337022,0.41763481,15.725271556214222,0.9649489777166548,1.1042971168670024,0.032818497045593496,16.645376000000002,-0.027717136,1.9544142,0.24550658,1
-0.619999999999999,6.043462,-4.5526175,1.3102023999999999,0.26142502,0.032578367999999996,-0.92298067,-0.28054127,-6.751881,5.7833495,-0.32295250000000003,0.38425925,2.1901245,0.40918845,15.725271556214222,0.9649489777166548,1.1042971168670024,0.032818497045593496,16.645376000000002,-0.027717136,1.9544142,0.24550658,1
-0.6099999999999992,5.9755235,-4.4947095,1.3071973,0.27100173,0.02737995,-0.9207105999999999,-0.27946642,-6.836094,5.798671700000001,-0.2782965,0.32003272,2.1533467999999996,0.40115654,15.725271556214222,0.9649489777166548,1.1042971168670024,0.032818497045593496,16.645376000000002,-0.027717136,1.9544142,0.24550658,1
-0.5999999999999992,5.9067316,-4.4366364,1.3046309,0.28047097,0.022508088,-0.9183544,-0.27830875,-6.922541000000001,5.816358599999999,-0.23525845,0.26581985,2.1223077999999997,0.39351878,15.472233700051065,1.2106289708886442,-0.18328087398613666,-0.10339324991458597,16.547570999999998,0.011609174,1.3087037000000001,0.05670285,0
-0.5899999999999992,5.8370957,-4.3783817,1.3024372,0.2889224,0.017707871,-0.9161593000000001,-0.27724293,-7.004894,5.834878400000001,-0.20369259,0.4132827,1.7627836,0.36913517,15.472233700051065,1.2106289708886442,-0.18328087398613666,-0.10339324991458597,16.547570999999998,0.011609174,1.3087037000000001,0.05670285,0
-0.5799999999999992,5.7666283,-4.3199315,1.3005524,0.29564354,0.012777571000000001,-0.9143414000000001,-0.27642834,-7.088848599999999,5.8553677,-0.17345616,0.53772366,1.4593178999999998,0.34594807,15.472233700051065,1.2106289708886442,-0.18328087398613666,-0.10339324991458597,16.547570999999998,0.011609174,1.3087037000000001,0.05670285,0
-0.5699999999999992,5.695315,-4.2612677,1.2989643999999998,0.30090964,0.007742397,-0.9128533000000001,-0.27585042,-7.173963499999999,5.8777313,-0.14430065,0.6427381,1.2031702,0.32389876,15.472233700051065,1.2106289708886442,-0.18328087398613666,-0.10339324991458597,16.547570999999998,0.011609174,1.3087037000000001,0.05670285,0
-0.5599999999999992,5.6231465,-4.2023706,1.2976635,0.30495107,0.002623281,-0.9116484,-0.27549294,-7.2598696,5.901894,-0.116008416,0.73135954,0.9869628,0.30293143,15.472233700051065,1.2106289708886442,-0.18328087398613666,-0.10339324991458597,16.176695000000002,0.7205423000000001,0.5853059,-0.08174072,1
-0.5499999999999992,5.5500964999999995,-4.1432176,1.2966704,0.30829513,-0.0024691261,-0.91058886,-0.27527672,-7.350214,5.9289727,-0.08268222,0.72969633,0.92431515,0.28405547,15.472233700051065,1.2106289708886442,-0.18328087398613666,-0.10339324991458597,16.176695000000002,0.7205423000000001,0.5853059,-0.08174072,1
-0.5399999999999991,5.476141,-4.083785,1.2960074,0.31136778,-0.0074467696,-0.9095593000000001,-0.27513248,-7.4409600000000005,5.9578074999999995,-0.050007023,0.7282887,0.87143815,0.26610577,15.472233700051065,1.2106289708886442,-0.18328087398613666,-0.10339324991458597,16.176695000000002,0.7205423000000001,0.5853059,-0.08174072,1
-0.5299999999999991,5.401276,-4.0240555,1.2956681,0.31421104,-0.012324095,-0.9085504000000001,-0.27505827,-7.532041499999999,5.9883475,-0.017953886000000002,0.72709763,0.8268075999999999,0.24903683,15.472233700051065,1.2106289708886442,-0.18328087398613666,-0.10339324991458597,16.176695000000002,0.7205423000000001,0.5853059,-0.08174072,1
-0.5199999999999991,5.325499,-3.9640120999999997,1.2956463,0.3168603,-0.017113427,-0.90755415,-0.27505168,-7.623403999999999,6.020549,0.013500515,0.7260899000000001,0.7891376999999999,0.23280548,15.79668836832597,1.4053855613013992,-1.077999466161223,-0.2143662325654169,15.951645000000001,0.6219275,-0.0052167363,-0.10582213,0
-0.5099999999999991,5.248818,-3.9036427000000002,1.2959211000000002,0.31866664,-0.021885752999999997,-0.9067663,-0.27522472,-7.7128086,6.053573,0.04137514,0.83207726,0.49796307,0.21086264,15.79668836832597,1.4053855613013992,-1.077999466161223,-0.2143662325654169,15.951645000000001,0.6219275,-0.0052167363,-0.10582213,0
-0.4999999999999991,5.171243,-3.8429356,1.2964726999999998,0.31911862,-0.026696868,-0.9063424000000001,-0.27567232,-7.802096400000001,6.0881047,0.06892789,0.9215216999999999,0.25219232,0.18999653,15.79668836832597,1.4053855613013992,-1.077999466161223,-0.2143662325654169,15.951645000000001,0.6219275,-0.0052167363,-0.10582213,0
-0.4899999999999989,5.0927777,-3.7818756000000002,1.2972995,0.3184276,-0.03153611,-0.90621847,-0.27636683,-7.890931,6.12407,0.09639944,0.9970065,0.044746254000000006,0.17015433,15.79668836832597,1.4053855613013992,-1.077999466161223,-0.2143662325654169,15.951645000000001,0.6219275,-0.0052167363,-0.10582213,0
-0.47999999999999887,5.0134273,-3.7204492,1.2984014,0.31677073,-0.036394663,-0.9063374,-0.27728242,-7.9790273,6.161409,0.12399065,1.0607108,-0.1303512,0.1512858,15.833132257808106,1.5574337613130236,-1.9870435369164223,-0.29149554053794724,15.7403755,1.0323663,-0.9631900999999999,-0.23327139,0
-0.46999999999999886,4.9331994,-3.6586425000000005,1.2997819,0.31395027,-0.04121641,-0.9067583,-0.27843687,-8.066322,6.200149,0.15217334,1.1381973,-0.41990972,0.12955838,15.833132257808106,1.5574337613130236,-1.9870435369164223,-0.29149554053794724,15.7403755,1.0323663,-0.9631900999999999,-0.23327139,0
-0.45999999999999885,4.8521056,-3.5964422,1.3014468000000001,0.30981544,-0.045955688,-0.9075193000000001,-0.27984357,-8.152279,6.2401029999999995,0.18089527,1.2035888000000001,-0.66431403,0.10889716,15.833132257808106,1.5574337613130236,-1.9870435369164223,-0.29149554053794724,15.7403755,1.0323663,-0.9631900999999999,-0.23327139,0
-0.44999999999999885,4.7701597,-3.5338367999999996,1.3034025,0.30456612,-0.050619937000000004,-0.90854347,-0.28147304,-8.236568,6.2811639999999995,0.21037889999999998,1.2587742,-0.8706050999999999,0.089249775,15.833132257808106,1.5574337613130236,-1.9870435369164223,-0.29149554053794724,15.7403755,1.0323663,-0.9631900999999999,-0.23327139,0
-0.43999999999999884,4.687380999999999,-3.4708160000000006,1.3056576000000002,0.29837020000000003,-0.05521558,-0.90976363,-0.28329825,-8.318909,6.3232417000000005,0.24080062,1.3053477,-1.0447261,0.07056649,16.212377317823627,1.5377309142038484,-2.5807504257241507,-0.362549229261808,15.730553,1.1392183,-1.9429745999999999,-0.29322338,1
-0.4299999999999988,4.6037917,-3.4073703,1.3082178999999998,0.29143298,-0.059600834000000005,-0.91112643,-0.28524446,-8.398541,6.365966,0.27145547,1.2794325,-1.1848236,0.052715215999999995,16.212377317823627,1.5377309142038484,-2.5807504257241507,-0.362549229261808,15.730553,1.1392183,-1.9429745999999999,-0.29322338,1
-0.4199999999999988,4.519418,-3.3434937000000007,1.3110905000000002,0.28392562,-0.06366378,-0.91259015,-0.28725183,-8.475831,6.4094763,0.30326828,1.2575558,-1.3030715,0.03573991,16.212377317823627,1.5377309142038484,-2.5807504257241507,-0.362549229261808,15.730553,1.1392183,-1.9429745999999999,-0.29322338,1
-0.4099999999999988,4.4342837,-3.2791786,1.3142873,0.27593285,-0.06744996,-0.91411614,-0.28931716,-8.550649,6.453639,0.33630290000000007,1.2390888,-1.4028774,0.019597583999999998,16.212377317823627,1.5377309142038484,-2.5807504257241507,-0.362549229261808,15.730553,1.1392183,-1.9429745999999999,-0.29322338,1
-0.3999999999999988,4.348414,-3.214419,1.3178208,0.26752615,-0.07099806,-0.9156719000000001,-0.29143652,-8.622876,6.498337,0.37060222,1.2235003,-1.4871174999999999,0.004247375,15.821609006720982,1.3326554974065667,-3.173342064342056,-0.4035611272300323,16.077978,0.7374399,-2.4857209,-0.1561481,1
-0.3899999999999988,4.2618279999999995,-3.1492052000000004,1.3217185,0.25861275,-0.07413469,-0.9173033000000002,-0.29356313,-8.693941,6.5444455,0.40915164,1.1476913999999998,-1.6428553,-0.003623271,15.821609006720982,1.3326554974065667,-3.173342064342056,-0.4035611272300323,16.077978,0.7374399,-2.4857209,-0.1561481,1
-0.3799999999999988,4.1745453,-3.0835292,1.3260086000000002,0.24912146,-0.07672385,-0.91904265,-0.29565826,-8.762126,6.590771000000001,0.44908822,1.0837038,-1.7743046999999998,-0.011107708,15.821609006720982,1.3326554974065667,-3.173342064342056,-0.4035611272300323,16.077978,0.7374399,-2.4857209,-0.1561481,1
-0.3699999999999988,4.0865955000000005,-3.0173897999999997,1.3307052,0.23913741,-0.07884641,-0.9208451999999999,-0.29772788,-8.8273115,6.6370997,0.49046457,1.0296946,-1.8852541,-0.01822488,15.821609006720982,1.3326554974065667,-3.173342064342056,-0.4035611272300323,16.077978,0.7374399,-2.4857209,-0.1561481,1
-0.35999999999999877,3.9980097000000003,-2.9507875,1.3358229,0.22873259,-0.0805709,-0.922673,-0.29977587,-8.889395,6.6832457,0.5333097,0.9841078000000001,-1.9789004000000001,-0.024992801000000002,15.821609006720982,1.3326554974065667,-3.173342064342056,-0.4035611272300323,16.037159,0.47427157,-2.7616625,-0.017943654,1
-0.34999999999999876,3.9088192000000004,-2.8837264,1.3413747999999999,0.21789613,-0.08182887,-0.9245319,-0.30177367,-8.948127000000001,6.7289205,0.57727426,0.9045976,-2.1009702999999997,-0.024646899,15.821609006720982,1.3326554974065667,-3.173342064342056,-0.4035611272300323,16.037159,0.47427157,-2.7616625,-0.017943654,1
-0.33999999999999875,3.8190582,-2.8162112,1.3473736,0.20662232,-0.08256899,-0.9264228000000001,-0.30369657,-9.003574,6.774031599999999,0.6227308000000001,0.8374872999999999,-2.2040033,-0.024317961000000003,15.821609006720982,1.3326554974065667,-3.173342064342056,-0.4035611272300323,16.037159,0.47427157,-2.7616625,-0.017943654,1
-0.32999999999999874,3.7287593,-2.7482488,1.3538344999999998,0.19497438,-0.08286811,-0.928309,-0.30555102,-9.05565,6.818377000000001,0.66968054,0.7808432,-2.2909691000000003,-0.024005167,15.821609006720982,1.3326554974065667,-3.173342064342056,-0.4035611272300323,16.037159,0.47427157,-2.7616625,-0.017943654,1
-0.31999999999999873,3.6379568999999994,-2.6798472,1.3607723999999999,0.18300606,-0.08279133,-0.9301594999999999,-0.30734164,-9.104277,6.8617797000000005,0.718105,0.73303276,-2.3643723,-0.023707744,15.929430892522607,1.1752492622936586,-2.8266117631377248,-0.4174071149207211,17.85652,-0.9190325999999999,-4.2983117,1.5669247,0
-0.3099999999999987,3.5466873999999997,-2.6110182,1.3681966,0.17065652,-0.08263794,-0.9319135000000001,-0.30916947,-9.149067,6.903817699999999,0.76697475,0.80196434,-2.4364692999999997,-0.04302669,15.929430892522607,1.1752492622936586,-2.8266117631377248,-0.4174071149207211,17.85652,-0.9190325999999999,-4.2983117,1.5669247,0
-0.2999999999999987,3.4549879999999997,-2.5417745,1.3761165000000002,0.15787968,-0.08264783,-0.93351567,-0.3111159,-9.190195,6.9447446,0.8172216999999999,0.86014646,-2.4973235000000003,-0.06139765,15.929430892522607,1.1752492622936586,-2.8266117631377248,-0.4174071149207211,17.85652,-0.9190325999999999,-4.2983117,1.5669247,0
-0.2899999999999987,3.3628967000000003,-2.472127,1.3845454,0.14473817,-0.0827919,-0.93494934,-0.31315717,-9.227501,6.984551400000001,0.8687775,0.90925556,-2.5486882,-0.07886713,15.929430892522607,1.1752492622936586,-2.8266117631377248,-0.4174071149207211,17.85652,-0.9190325999999999,-4.2983117,1.5669247,0
-0.2799999999999987,3.2704517999999996,-2.402087,1.3934963,0.13128564,-0.08304568400000001,-0.9362007,-0.31527308,-9.260849,7.023224400000001,0.92155993,0.950707,-2.5920424,-0.095479384,15.956067128700026,1.0818009471509094,-2.3449701085717454,-0.4603016420613133,18.138428,-1.1540124,-4.9408913,2.1207564,0
-0.2699999999999989,3.1776936,-2.3316658,1.4029818,0.117761016,-0.08341397,-0.9372370999999999,-0.31743109999999997,-9.29018,7.060813400000001,0.9757256,0.9711235,-2.5535243,-0.113381304,15.956067128700026,1.0818009471509094,-2.3449701085717454,-0.4603016420613133,18.138428,-1.1540124,-4.9408913,2.1207564,0
-0.2599999999999989,3.0846622000000004,-2.2608745,1.413014,0.10435789999999999,-0.08390063,-0.93804175,-0.3196079,-9.315418,7.09727,1.0308969000000001,0.988358,-2.5210128,-0.13040479,15.956067128700026,1.0818009471509094,-2.3449701085717454,-0.4603016420613133,18.138428,-1.1540124,-4.9408913,2.1207564,0
-0.2499999999999989,2.9913990000000004,-2.1897242,1.4236026000000002,0.0910575,-0.08448534,-0.9386251,-0.32179964,-9.336569,7.1326149999999995,1.0869447,1.0029064,-2.4935708,-0.14659292,15.956067128700026,1.0818009471509094,-2.3449701085717454,-0.4603016420613133,18.138428,-1.1540124,-4.9408913,2.1207564,0
-0.23999999999999888,2.8979447,-2.1182258,1.4347553999999998,0.07784421,-0.085150965,-0.93899596,-0.32400262,-9.353639,7.166861999999999,1.1437445,1.0151874,-2.4704080000000004,-0.16198668,15.496661830947502,0.8130365904603107,-1.5348453977424836,-0.4577487708805817,17.915909,-0.8477323,-4.760971,2.1015507999999996,0
-0.22999999999999865,2.8043419999999997,-2.0463953,1.4464571000000002,0.06504468,-0.08588764,-0.9391494,-0.32617852,-9.366282,7.199071000000001,1.1966944,0.98365533,-2.3245137000000002,-0.17649983,15.496661830947502,0.8130365904603107,-1.5348453977424836,-0.4577487708805817,17.915909,-0.8477323,-4.760971,2.1015507999999996,0
-0.21999999999999864,2.7106318,-1.9742476999999998,1.458691,0.052918293,-0.08668857,-0.93909764,-0.32830143,-9.375144,7.230282000000001,1.2501228000000002,0.95704174,-2.201371,-0.19030079,15.496661830947502,0.8130365904603107,-1.5348453977424836,-0.4577487708805817,17.915909,-0.8477323,-4.760971,2.1015507999999996,0
-0.20999999999999863,2.6168516,-1.9017929,1.4714608999999998,0.04136213,-0.087544315,-0.93886787,-0.33038425,-9.380398,7.260554300000001,1.3039094,0.9345791999999999,-2.097432,-0.20342454,15.496661830947502,0.8130365904603107,-1.5348453977424836,-0.4577487708805817,17.915909,-0.8477323,-4.760971,2.1015507999999996,0
-0.19999999999999862,2.5230357999999997,-1.8290397,1.4847698999999999,0.030289042999999998,-0.08844667,-0.9384811,-0.33243704,-9.3821945,7.289936999999999,1.3579510000000001,0.9156198,-2.0097017,-0.21590429999999997,14.331869788768818,0.3974779885027333,-0.7695849873987537,-0.4050696159684795,18.598851999999997,-1.4573818,-5.0282445,2.7001047000000002,0
-0.18999999999999884,2.4292185,-1.7560078000000001,1.4985629999999999,0.019967536,-0.089334965,-0.93796486,-0.33443072,-9.380798,7.3163304,1.4007087999999999,0.834832,-1.8162998,-0.22518669,14.331869788768818,0.3974779885027333,-0.7695849873987537,-0.4050696159684795,18.598851999999997,-1.4573818,-5.0282445,2.7001047000000002,0
-0.17999999999999883,2.3354293999999998,-1.6827154999999998,1.5127841999999998,0.0106066875,-0.09016219,-0.9373533000000002,-0.33634585,-9.376591000000001,7.342001400000001,1.4435446,0.7666413000000001,-1.6530596000000002,-0.2340136,14.331869788768818,0.3974779885027333,-0.7695849873987537,-0.4050696159684795,18.598851999999997,-1.4573818,-5.0282445,2.7001047000000002,0
-0.16999999999999882,2.2416954,-1.6091701,1.527434,0.002058116,-0.09093979,-0.9366679,-0.33820176,-9.369823,7.367008,1.4864008,0.709083,-1.5152774,-0.24240735,14.331869788768818,0.3974779885027333,-0.7695849873987537,-0.4050696159684795,18.598851999999997,-1.4573818,-5.0282445,2.7001047000000002,0
-0.1599999999999988,2.148041,-1.5353775,1.5425122,-0.0058037317,-0.09167710000000001,-0.93592405,-0.34001353,-9.360710000000001,7.391400999999999,1.5292329,0.6604995,-1.3989829,-0.25038922,14.331869788768818,0.3974779885027333,-0.7695849873987537,-0.4050696159684795,18.380154,-1.9168496,-4.951654,3.0718145,0
-0.1499999999999988,2.0544887,-1.4613439,1.5580184,-0.013085029,-0.09238168,-0.93513286,-0.34179297,-9.349432,7.415221000000001,1.572006,0.6194909000000001,-1.300825,-0.25797945,14.331869788768818,0.3974779885027333,-0.7695849873987537,-0.4050696159684795,18.380154,-1.9168496,-4.951654,3.0718145,0
-0.1399999999999988,1.9610593,-1.3870748,1.573952,-0.019875526,-0.09305967400000001,-0.9343019,-0.3435494,-9.336141,7.438505,1.6146934,0.58487636,-1.2179751,-0.2651972,14.331869788768818,0.3974779885027333,-0.7695849873987537,-0.4050696159684795,18.380154,-1.9168496,-4.951654,3.0718145,0
-0.12999999999999878,1.8677724999999998,-1.3125756000000002,1.5903119,-0.026251052999999996,-0.09371608,-0.9334368000000001,-0.34529006,-9.320965,7.461284599999999,1.6572732,0.5556585999999999,-1.1480465,-0.27206075,14.331869788768818,0.3974779885027333,-0.7695849873987537,-0.4050696159684795,18.380154,-1.9168496,-4.951654,3.0718145,0
-0.11999999999999877,1.7746463,-1.2378508999999998,1.607097,-0.032275677,-0.094354965,-0.9325414000000001,-0.34702063,-9.304016,7.483585000000001,1.6997273000000002,0.53099626,-1.0890236,-0.27858752,14.560021005124545,0.10104380853507842,0.042818314909080536,-0.3530917476179747,19.803632999999998,-2.3557513,-5.295564700000001,4.1808276,0
-0.10999999999999877,1.6816995,-1.1629037,1.6243173,-0.037659835,-0.094982006,-0.931644,-0.34871322,-9.285110000000001,7.5057826,1.7442773999999999,0.4639754,-0.9125025999999999,-0.28224346,14.560021005124545,0.10104380853507842,0.042818314909080536,-0.3530917476179747,19.803632999999998,-2.3557513,-5.295564700000001,4.1808276,0
