time-since-start [s],throttle_mpc,roll_mpc,pitch_mpc,yaw_mpc,throttle_nw,roll_nw,pitch_nw,yaw_nw,position_x [m],position_y [m],position_z [m],rotation_w [quaternion],rotation_x [quaternion],rotation_y [quaternion],rotation_z [quaternion],velocity_x [m/s],velocity_y [m/s],velocity_z [m/s],omega_x [rad/s],omega_y [rad/s],omega_z [rad/s],network_used
0.0,10.268194143669112,5.999999549813319,-5.999999817882816,-2.4552501119794883,6.814974,0.11029616,1.0583668,-0.54587996,14.639783,-11.364639,2.5943658,-0.2731518,0.32165623,-0.36064142,-0.8317831,-9.3537445,-1.5256376,1.1111474,1.1815052,-0.4159298,-0.28763238,0
0.01,10.268194143669112,5.999999549813319,-5.999999817882816,-2.4552501119794883,12.591929,0.868192,-2.853712,-0.5475187,14.546005,-11.379337,2.6053693,-0.2778144,0.3177077,-0.36483994,-0.8299234,-9.401432,-1.4143804,1.0891844,1.5132151,-0.8672824,-0.35645702,0
0.02,10.268194143669112,5.999999549813319,-5.999999817882816,-2.4552501119794883,12.591929,0.868192,-2.853712,-0.5475187,14.451767,-11.392934,2.6161425,-0.28405192,0.3115997,-0.36964518,-0.8279992,-9.445717,-1.3051307,1.0651554,1.8324863,-1.2875968,-0.42542085,0
0.03,10.268194143669112,5.999999549813319,-5.999999817882816,-2.4552501119794883,12.591929,0.868192,-2.853712,-0.5475187,14.357105,-11.405447,2.6266663,-0.29177612,0.30345204,-0.37501422,-0.8259224,-9.486072,-1.197744,1.0393603,2.1396217,-1.6800714,-0.49437028,0
0.04,10.268194143669112,5.999999549813319,-5.999999817882816,-2.4552501119794883,11.855591,1.0861886,-4.2459364,0.32169193,14.262061,-11.416894,2.6369245,-0.30089757,0.29336774,-0.38089663,-0.823598,-9.5220375,-1.0921252,1.0120398,2.4349906,-2.0475202,-0.5631696,0
0.05,10.268194143669112,5.999999549813319,-5.999999817882816,-2.4552501119794883,11.855591,1.0861886,-4.2459364,0.32169193,14.16668,-11.427294,2.6469028,-0.3113257,0.28143585,-0.38723585,-0.8209253,-9.553211,-0.98823035,0.9833806,2.7190092,-2.3924224,-0.63169885,0
0.060000000000000005,10.268194143669112,5.999999549813319,-5.999999817882816,-2.4552501119794883,11.855591,1.0861886,-4.2459364,0.32169193,14.071014,-11.436665,2.656588,-0.3229684,0.26773447,-0.39397028,-0.8178,-9.5792465,-0.8860677,0.9535203,2.9921231,-2.716966,-0.69985276,0
0.07,10.268194143669112,5.999999549813319,-5.999999817882816,-2.4552501119794883,11.855591,1.0861886,-4.2459364,0.32169193,13.975115,-11.445023,2.6659694,-0.33573195,0.2523331,-0.40103418,-0.81411505,-9.599844,-0.78569674,0.92255104,3.2547941,-3.0230825,-0.7675387,0
0.08,12.116800660847243,5.999999660844059,-5.999999848858742,-2.6034648773320996,9.166172,2.6245506,-5.3207927,-0.47076315,13.879037,-11.452386,2.6750355,-0.3495208,0.23529495,-0.40835822,-0.8097622,-9.614754,-0.68722653,0.8905242,3.5074914,-3.3124838,-0.83467585,0
0.09,12.116800660847243,5.999999660844059,-5.999999848858742,-2.6034648773320996,9.166172,2.6245506,-5.3207927,-0.47076315,13.782833,-11.458709,2.6838202,-0.36430353,0.21660317,-0.415897,-0.8046089,-9.624977,-0.5778499,0.866198,3.7798796,-3.6159635,-0.91107684,0
0.09999999999999999,12.116800660847243,5.999999660844059,-5.999999848858742,-2.6034648773320996,9.166172,2.6245506,-5.3207927,-0.47076315,13.686561,-11.46395,2.6923556,-0.38003963,0.1962395,-0.42359665,-0.79851466,-9.628292,-0.47101304,0.840685,4.042264,-3.904628,-0.9866343,0
0.10999999999999999,12.116800660847243,5.999999660844059,-5.999999848858742,-2.6034648773320996,9.166172,2.6245506,-5.3207927,-0.47076315,13.590291,-11.468138,2.7006295,-0.3966153,0.17426117,-0.4313706,-0.7913587,-9.624523,-0.367,0.81392825,4.295147,-4.1797266,-1.0612948,0
0.11999999999999998,12.116800660847243,5.999999660844059,-5.999999848858742,-2.6034648773320996,9.166172,2.6245506,-5.3207927,-0.47076315,13.494096,-11.471301,2.7086296,-0.4139128,0.15072607,-0.43912983,-0.7830215,-9.613559,-0.26614293,0.78583616,4.539013,-4.4423733,-1.1350129,0
0.12999999999999998,15.144165619092242,5.4227248466889275,-5.999999618736733,-2.5511793497348947,11.952936,2.125714,-5.124412,0.34630913,13.398046,-11.473472,2.7163427,-0.43180272,0.12570786,-0.44677925,-0.77339,-9.595221,-0.16817066,0.75674284,4.7656517,-4.6848726,-1.2069951,0
0.13999999999999999,15.144165619092242,5.4227248466889275,-5.999999618736733,-2.5511793497348947,11.952936,2.125714,-5.124412,0.34630913,13.302248,-11.47455,2.7238503,-0.45006815,0.0994841,-0.45402107,-0.7625,-9.562521,-0.048018157,0.7447851,4.867751,-4.8902555,-1.2729546,0
0.15,15.144165619092242,5.4227248466889275,-5.999999618736733,-2.5511793497348947,11.952936,2.125714,-5.124412,0.34630913,13.206827,-11.4744425,2.7312374,-0.46850073,0.0723527,-0.46060598,-0.75040925,-9.519856,0.06916262,0.73255855,4.9539485,-5.063593,-1.3356775,0
0.16,14.974447964781309,3.274187078094545,-4.964172341661225,-1.0088054507443533,11.821977,-0.46618554,-3.572042,-0.12840886,13.111884,-11.473181,2.7384999,-0.48695037,0.04448452,-0.46649525,-0.7370769,-9.467199,0.18258673,0.71982616,5.0267243,-5.209884,-1.3953226,0
0.17,14.974447964781309,3.274187078094545,-4.964172341661225,-1.0088054507443533,11.821977,-0.46618554,-3.572042,-0.12840886,13.017513,-11.470813,2.7456264,-0.50492823,0.016672112,-0.47125074,-0.72297436,-9.405393,0.29025885,0.70539904,4.7535157,-5.171258,-1.3763561,0
0.18000000000000002,14.974447964781309,3.274187078094545,-4.964172341661225,-1.0088054507443533,11.821977,-0.46618554,-3.572042,-0.12840886,12.923807,-11.467394,2.752605,-0.5220865,-0.01044335,-0.4745843,-0.7085802,-9.334399,0.39280403,0.690121,4.522905,-5.138703,-1.3583204,0
0.19000000000000003,14.974447964781309,3.274187078094545,-4.964172341661225,-1.0088054507443533,11.821977,-0.46618554,-3.572042,-0.12840886,12.830853,-11.462976,2.7594259,-0.53848565,-0.03692878,-0.47666472,-0.69387305,-9.254881,0.48967767,0.67392176,4.3282495,-5.111264,-1.3411696,0
0.20000000000000004,13.722961368567766,1.8313576048886357,-3.2740669570483947,-0.743294040203197,10.645535,-0.91086024,-1.9476072,0.34412998,12.738736,-11.457621,2.76608,-0.55417067,-0.06284195,-0.47763202,-0.6788321,-9.167474,0.5803999,0.65672386,4.1639433,-5.0881376,-1.3248605,0
0.21000000000000005,13.722961368567766,1.8313576048886357,-3.2740669570483947,-0.743294040203197,10.645535,-0.91086024,-1.9476072,0.34412998,12.64749,-11.451426,2.7725232,-0.56888086,-0.08747052,-0.47759917,-0.66379386,-9.080745,0.65755117,0.6317792,3.8005114,-4.8048496,-1.2963228,0
0.22000000000000006,13.722961368567766,1.8313576048886357,-3.2740669570483947,-0.743294040203197,10.645535,-0.91086024,-1.9476072,0.34412998,12.55714,-11.4444895,2.778712,-0.5824625,-0.110264525,-0.47671488,-0.64909315,-8.988176,0.72863185,0.6058268,3.4937057,-4.5658035,-1.2691855,0
0.23000000000000007,13.722961368567766,1.8313576048886357,-3.2740669570483947,-0.743294040203197,10.645535,-0.91086024,-1.9476072,0.34412998,12.467743,-11.436873,2.7846365,-0.59508306,-0.13149078,-0.47512513,-0.6346986,-8.890529,0.79367375,0.5788731,3.2347038,-4.3640885,-1.2433798,0
0.24000000000000007,13.722961368567766,1.8313576048886357,-3.2740669570483947,-0.743294040203197,10.347577,-0.9438951,-0.13530159,0.3589248,12.379345,-11.428637,2.7902863,-0.606876,-0.15137714,-0.4729443,-0.6205724,-8.788461,0.85272753,0.55093235,3.0160577,-4.1938744,-1.2188405,0
0.25000000000000006,13.722961368567766,1.8313576048886357,-3.2740669570483947,-0.743294040203197,10.347577,-0.9438951,-0.13530159,0.3589248,12.291987,-11.419839,2.795652,-0.61794806,-0.17011741,-0.47026193,-0.60667443,-8.682544,0.9058531,0.5220217,2.83148,-4.050241,-1.1955053,0
0.26000000000000006,13.722961368567766,1.8313576048886357,-3.2740669570483947,-0.743294040203197,10.347577,-0.9438951,-0.13530159,0.3589248,12.205706,-11.410539,2.8007233,-0.6283845,-0.18787585,-0.46714836,-0.59296536,-8.573278,0.9531133,0.49215788,2.6756628,-3.9290369,-1.173315,0
0.2700000000000001,13.722961368567766,1.8313576048886357,-3.2740669570483947,-0.743294040203197,10.347577,-0.9438951,-0.13530159,0.3589248,12.120532,-11.400796,2.8054917,-0.63825357,-0.20479132,-0.46365893,-0.5794076,-8.461113,0.9945705,0.46135506,2.5441246,-3.826759,-1.1522138,0
0.2800000000000001,12.62276338883258,0.28085434695139444,-1.3138382693267805,-0.3482937818212881,11.59411,-1.640085,0.63543534,0.50066763,12.036492,-11.390667,2.8099475,-0.64760995,-0.22098085,-0.45983726,-0.56596667,-8.346446,1.0302844,0.42962414,2.4330828,-3.7404516,-1.1321481,0
0.2900000000000001,12.62276338883258,0.28085434695139444,-1.3138382693267805,-0.3482937818212881,11.59411,-1.640085,0.63543534,0.50066763,11.953563,-11.380221,2.8140552,-0.65625983,-0.23572446,-0.4558759,-0.55311286,-8.239023,1.0579549,0.3917382,2.097808,-3.3617222,-1.0936842,0
0.3000000000000001,12.62276338883258,0.28085434695139444,-1.3138382693267805,-0.3482937818212881,11.59411,-1.640085,0.63543534,0.50066763,11.8717165,-11.369525,2.81778,-0.66409576,-0.24847779,-0.45196557,-0.54125994,-8.13007,1.080835,0.35311416,1.8147556,-3.0421104,-1.0571077,0
0.3100000000000001,12.62276338883258,0.28085434695139444,-1.3138382693267805,-0.3482937818212881,11.59411,-1.640085,0.63543534,0.50066763,11.790965,-11.358621,2.8211155,-0.6712656,-0.25956595,-0.4481263,-0.5302927,-8.0199585,1.0993699,0.31387055,1.5757933,-2.7723868,-1.022326,0
0.3200000000000001,12.102952896176891,-1.8388909035134515,0.9746420568292868,0.36569741023627383,12.635391,-2.553587,1.8584427,0.5837024,11.71132,-11.347551,2.8240557,-0.67788535,-0.2692612,-0.44436592,-0.52010405,-7.9089837,1.1139476,0.2741165,1.3740548,-2.5447626,-0.9892511,0
0.3300000000000001,12.102952896176891,-1.8388909035134515,0.9746420568292868,0.36569741023627383,12.635391,-2.553587,1.8584427,0.5837024,11.632764,-11.336357,2.8265843,-0.68383265,-0.27678326,-0.44085,-0.5112872,-7.8019905,1.1245145,0.23158696,0.87343925,-1.9955518,-0.9227634,0
0.34000000000000014,12.102952896176891,-1.8388909035134515,0.9746420568292868,0.36569741023627383,12.635391,-2.553587,1.8584427,0.5837024,11.555281,-11.325071,2.828687,-0.689039,-0.28154197,-0.43772984,-0.5043326,-7.6946893,1.1323558,0.18891734,0.45079544,-1.5320784,-0.85953826,0
0.35000000000000014,12.102952896176891,-1.8388909035134515,0.9746420568292868,0.36569741023627383,12.635391,-2.553587,1.8584427,0.5837024,11.47887,-11.313717,2.830363,-0.6936452,-0.28399688,-0.43497333,-0.49899858,-7.5873137,1.1381799,0.14635558,0.093984544,-1.1409525,-0.7994155,0
0.36000000000000015,13.139695166050076,-4.050389790391829,3.256841886017115,0.5839960456967501,13.164741,-2.6450891,3.2176716,0.5391504,11.403533,-11.302313,2.831615,-0.6977535,-0.2845287,-0.43253988,-0.49506766,-7.4800367,1.1425916,0.10411449,-0.2072437,-0.81087697,-0.7422431,0
0.37000000000000016,13.139695166050076,-4.050389790391829,3.256841886017115,0.5839960456967501,13.164741,-2.6450891,3.2176716,0.5391504,11.329314,-11.290867,2.8324711,-0.70128226,-0.2823953,-0.43058,-0.49300724,-7.363834,1.1464752,0.067226656,-0.8062643,-0.1762618,-0.67716414,0
0.38000000000000017,13.139695166050076,-4.050389790391829,3.256841886017115,0.5839960456967501,13.164741,-2.6450891,3.2176716,0.5391504,11.256255,-11.279383,2.8329625,-0.7041534,-0.27701813,-0.42920467,-0.4931647,-7.2481084,1.15038,0.031234216,-1.311961,0.35930002,-0.61527866,0
0.3900000000000002,13.139695166050076,-4.050389790391829,3.256841886017115,0.5839960456967501,13.164741,-2.6450891,3.2176716,0.5391504,11.184349,-11.267856,2.8330998,-0.70642245,-0.26890185,-0.42830804,-0.49518734,-7.133075,1.155229,-0.0035519619,-1.7388668,0.8112755,-0.5564299,0
0.4000000000000002,16.26757075688796,-5.781848897105707,5.07538123986184,1.0092064200228867,15.1354,-3.0632868,3.7874088,0.72008604,11.11359,-11.256272,2.8328962,-0.7081161,-0.25846496,-0.4277871,-0.49876332,-7.018937,1.1618042,-0.036892675,-2.0992522,1.1927148,-0.50046885,0
0.4100000000000002,16.26757075688796,-5.781848897105707,5.07538123986184,1.0092064200228867,15.1354,-3.0632868,3.7874088,0.72008604,11.044101,-11.2446,2.8324459,-0.7090763,-0.24522203,-0.42769775,-0.5041338,-6.8790073,1.1729674,-0.052792367,-2.6734393,1.798274,-0.42638862,0
0.4200000000000002,16.26757075688796,-5.781848897105707,5.07538123986184,1.0092064200228867,15.1354,-3.0632868,3.7874088,0.72008604,10.976003,-11.232798,2.8318477,-0.7091233,-0.22879227,-0.42804983,-0.51144,-6.740853,1.1882874,-0.066396825,-3.1581569,2.3093276,-0.35594356,0
0.4300000000000002,16.26757075688796,-5.781848897105707,5.07538123986184,1.0092064200228867,15.1354,-3.0632868,3.7874088,0.72008604,10.909276,-11.220817,2.8311262,-0.7082257,-0.20963879,-0.42868477,-0.52028507,-6.604945,1.2088429,-0.077511676,-3.567339,2.7406323,-0.28895524,0
0.4400000000000002,16.26757075688796,-5.781848897105707,5.07538123986184,1.0092064200228867,16.289444,-3.5978026,4.9439945,0.8162846,10.843895,-11.2086,2.8303065,-0.70634377,-0.18815465,-0.4294596,-0.5303208,-6.471801,1.2355236,-0.086059816,-3.9127502,3.1046383,-0.22525412,0
0.45000000000000023,16.26757075688796,-5.781848897105707,5.07538123986184,1.0092064200228867,16.289444,-3.5978026,4.9439945,0.8162846,10.779829,-11.196082,2.8294137,-0.7034369,-0.16467717,-0.43024823,-0.54124284,-6.3419795,1.2690469,-0.09207013,-4.204324,3.411852,-0.16467878,0
0.46000000000000024,16.26757075688796,-5.781848897105707,5.07538123986184,1.0092064200228867,16.289444,-3.5978026,4.9439945,0.8162846,10.717042,-11.183192,2.828473,-0.6994686,-0.13949873,-0.43094137,-0.5527863,-6.2160788,1.3099726,-0.09566591,-4.4504476,3.6711383,-0.107075885,0
0.47000000000000025,16.26757075688796,-5.781848897105707,5.07538123986184,1.0092064200228867,16.289444,-3.5978026,4.9439945,0.8162846,10.655492,-11.169854,2.8275077,-0.69440836,-0.112874985,-0.43144578,-0.5647213,-6.0947237,1.3587148,-0.09705351,-4.658202,3.8899777,-0.052299596,0
0.48000000000000026,18.74341806401022,-5.99999589926052,5.713772238374525,1.5901725238573021,15.633757,-3.565412,5.2031307,0.2864148,10.59513,-11.15599,2.8265383,-0.68823296,-0.08503133,-0.4316828,-0.57684875,-5.978557,1.4155515,-0.09651123,-4.833566,4.074683,-0.0002111923,0
0.49000000000000027,18.74341806401022,-5.99999589926052,5.713772238374525,1.5901725238573021,15.633757,-3.565412,5.2031307,0.2864148,10.535986,-11.141466,2.825659,-0.6807777,-0.055990208,-0.43170366,-0.5890994,-5.8514423,1.49056,-0.07913038,-5.01569,4.3300433,0.077829406,0
0.5000000000000002,18.74341806401022,-5.99999589926052,5.713772238374525,1.5901725238573021,15.633757,-3.565412,5.2031307,0.2864148,10.478076,-11.126145,2.8249605,-0.67189246,-0.025790548,-0.43153626,-0.6013911,-5.731855,1.5752586,-0.06042247,-5.169422,4.5455775,0.15204051,0
0.5100000000000002,18.74341806401022,-5.99999589926052,5.713772238374525,1.5901725238573021,15.633757,-3.565412,5.2031307,0.2864148,10.421321,-11.109929,2.8244534,-0.66158515,0.0053540943,-0.43108967,-0.61354506,-5.620597,1.6696926,-0.040955096,-5.299185,4.7275004,0.22261007,0
0.5200000000000002,19.456359793675546,-5.566875438537995,4.747596707332399,1.2243890452756636,16.474281,-3.3707473,5.2294884,0.5783438,10.365633,-11.092718,2.824142,-0.64986926,0.037251316,-0.43028906,-0.6254064,-5.5184526,1.7737461,-0.021339998,-5.408711,4.881057,0.28971675,0
0.5300000000000002,19.456359793675546,-5.566875438537995,4.747596707332399,1.2243890452756636,16.474281,-3.3707473,5.2294884,0.5783438,10.310936,-11.074399,2.8240473,-0.6369726,0.06939166,-0.42893496,-0.63676137,-5.422646,1.8914394,0.002250827,-5.433518,4.860077,0.33558142,0
0.5400000000000003,19.456359793675546,-5.566875438537995,4.747596707332399,1.2243890452756636,16.474281,-3.3707473,5.2294884,0.5783438,10.257143,-11.054857,2.8241837,-0.62311924,0.101355,-0.42689124,-0.64746654,-5.3376656,2.0182204,0.024749653,-5.454449,4.842376,0.37919545,0
0.5500000000000003,19.456359793675546,-5.566875438537995,4.747596707332399,1.2243890452756636,16.474281,-3.3707473,5.2294884,0.5783438,10.204144,-11.034005,2.824537,-0.60832244,0.13309973,-0.42418674,-0.65749025,-5.2640142,2.153374,0.04559584,-5.472109,4.8274436,0.42066935,0
0.5600000000000003,18.02247345965223,-4.128828535528781,3.1172775337943066,1.014936177377364,15.766179,-3.1380897,4.5056195,1.4174218,10.151822,-11.011763,2.825088,-0.5925987,0.16458525,-0.42084748,-0.6668024,-5.2021337,2.2961397,0.06423495,-5.487008,4.8148465,0.4601081,0
0.5700000000000003,18.02247345965223,-4.128828535528781,3.1172775337943066,1.014936177377364,15.766179,-3.1380897,4.5056195,1.4174218,10.1000395,-10.988113,2.8257701,-0.5763712,0.19501159,-0.41690373,-0.6752463,-5.1560106,2.4346573,0.07174456,-5.275202,4.550081,0.4873337,0
0.5800000000000003,18.02247345965223,-4.128828535528781,3.1172775337943066,1.014936177377364,15.766179,-3.1380897,4.5056195,1.4174218,10.048663,-10.963051,2.8265133,-0.56004685,0.22376116,-0.41243172,-0.6827724,-5.1209903,2.578473,0.07640412,-5.0964284,4.3266068,0.51322323,0
0.5900000000000003,18.02247345965223,-4.128828535528781,3.1172775337943066,1.014936177377364,15.766179,-3.1380897,4.5056195,1.4174218,9.9975815,-10.936528,2.8272877,-0.54361296,0.25104487,-0.4075088,-0.6894908,-5.0968437,2.7266345,0.07797891,-4.945535,4.137984,0.53784245,0
0.6000000000000003,15.41956007267843,-2.33282633122536,1.1429936433494627,0.7262095399310831,15.086342,-3.265612,3.1010103,1.1900364,9.946689,-10.908506,2.8280616,-0.5270538,0.27704135,-0.40219522,-0.6954862,-5.0833416,2.8782835,0.07626865,-4.8181753,3.978776,0.56125355,0
0.6100000000000003,15.41956007267843,-2.33282633122536,1.1429936433494627,0.7262095399310831,15.086342,-3.265612,3.1010103,1.1900364,9.895875,-10.8790655,2.8287337,-0.5109097,0.30099595,-0.3966258,-0.700757,-5.080638,3.010327,0.057709284,-4.430444,3.5366554,0.569348,0
0.6200000000000003,15.41956007267843,-2.33282633122536,1.1429936433494627,0.7262095399310831,15.086342,-3.265612,3.1010103,1.1900364,9.845048,-10.848295,2.8292058,-0.4956632,0.32235345,-0.39095414,-0.70537984,-5.0861716,3.1439548,0.036314834,-4.103199,3.1634657,0.5770452,0
0.6300000000000003,15.41956007267843,-2.33282633122536,1.1429936433494627,0.7262095399310831,15.086342,-3.265612,3.1010103,1.1900364,9.794127,-10.816183,2.8294506,-0.4812073,0.34151953,-0.38523766,-0.7095037,-5.099276,3.2785563,0.012257199,-3.8270056,2.8484597,0.5843647,0
0.6400000000000003,15.41956007267843,-2.33282633122536,1.1429936433494627,0.7262095399310831,14.583446,-2.9068267,2.503199,1.1479907,9.74304,-10.782722,2.8294423,-0.4674385,0.35883456,-0.37951332,-0.7132379,-5.1193705,3.4136457,-0.0142930355,-3.5939,2.5825653,0.59132504,0
0.6500000000000004,15.41956007267843,-2.33282633122536,1.1429936433494627,0.7262095399310831,14.583446,-2.9068267,2.503199,1.1479907,9.691719,-10.74791,2.8291564,-0.4542601,0.37458372,-0.3738037,-0.7166626,-5.1459494,3.5488312,-0.04317417,-3.3971603,2.358126,0.5979439,0
0.6600000000000004,15.41956007267843,-2.33282633122536,1.1429936433494627,0.7262095399310831,14.583446,-2.9068267,2.503199,1.1479907,9.6401005,-10.711746,2.828571,-0.44158423,0.38900587,-0.36812153,-0.71983606,-5.1785765,3.6837935,-0.07423747,-3.2311132,2.1686783,0.6042379,0
0.6700000000000004,15.41956007267843,-2.33282633122536,1.1429936433494627,0.7262095399310831,14.583446,-2.9068267,2.503199,1.1479907,9.588128,-10.674236,2.8276649,-0.42933226,0.40230092,-0.36247277,-0.7228007,-5.216873,3.8182685,-0.10734902,-3.0909708,2.0087667,0.61022305,0
0.6800000000000004,13.583424082196657,-0.6558819841656721,-0.6783616992761331,0.4400831871572413,12.39387,-1.695961,0.41884798,0.4473684,9.535746,-10.635385,2.8264177,-0.41743472,0.41463622,-0.3568588,-0.725587,-5.2605124,3.9520335,-0.14239012,-2.972692,1.8737856,0.6159145,0
0.6900000000000004,13.583424082196657,-0.6558819841656721,-0.6783616992761331,0.4400831871572413,12.39387,-1.695961,0.41884798,0.4473684,9.482929,-10.595279,2.8247743,-0.40640068,0.4253618,-0.35145316,-0.7282762,-5.303361,4.069081,-0.18651527,-2.6112187,1.4759395,0.6072864,0
0.7000000000000004,13.583424082196657,-0.6558819841656721,-0.6783616992761331,0.4400831871572413,12.39387,-1.695961,0.41884798,0.4473684,9.429666,-10.554008,2.8226829,-0.3966511,0.43399283,-0.34641278,-0.7309692,-5.3500705,4.18523,-0.23191372,-2.3061461,1.1401106,0.5990817,0
0.7100000000000004,13.583424082196657,-0.6558819841656721,-0.6783616992761331,0.4400831871572413,12.39387,-1.695961,0.41884798,0.4473684,9.375917,-10.511579,2.8201325,-0.38800478,0.4408753,-0.34170637,-0.7337013,-5.400087,4.300423,-0.27825442,-2.0486734,0.8566319,0.5912796,0
0.7200000000000004,12.487094890619264,1.00532561393227,-2.123832331233689,0.18503503648189928,11.383931,-1.2203364,-0.23336494,0.40333536,9.321654,-10.468002,2.8171153,-0.38030222,0.44629565,-0.33730015,-0.7364907,-5.4529457,4.414636,-0.32524967,-1.8313733,0.61734295,0.5838604,0
0.7300000000000004,12.487094890619264,1.00532561393227,-2.123832331233689,0.18503503648189928,11.383931,-1.2203364,-0.23336494,0.40333536,9.266872,-10.423334,2.8136053,-0.37392145,0.4498263,-0.3334195,-0.73937136,-5.5037518,4.5187364,-0.3767195,-1.3888265,0.19004449,0.5642899,0
0.7400000000000004,12.487094890619264,1.00532561393227,-2.123832331233689,0.18503503648189928,11.383931,-1.2203364,-0.23336494,0.40333536,9.211574,-10.377629,2.8095803,-0.36915997,0.45114747,-0.33024558,-0.7423774,-5.556197,4.6220193,-0.42818642,-1.0153291,-0.17065346,0.54567975,0
0.7500000000000004,12.487094890619264,1.00532561393227,-2.123832331233689,0.18503503648189928,11.383931,-1.2203364,-0.23336494,0.40333536,9.155744,-10.330895,2.8050427,-0.36577582,0.4506165,-0.32768148,-0.7455046,-5.6097183,4.72459,-0.47930333,-0.7001063,-0.47513053,0.5279828,0
0.7600000000000005,11.918056661246082,2.1647068658957354,-3.326197677337899,-0.05789653119554719,10.85478,-0.35040477,-1.4955828,0.3539572,9.099376,-10.283139,2.7999969,-0.36355898,0.44852766,-0.32563832,-0.74873686,-5.6638403,4.826547,-0.5297775,-0.4340647,-0.73214823,0.51115423,0
0.7700000000000005,11.918056661246082,2.1647068658957354,-3.326197677337899,-0.05789653119554719,10.85478,-0.35040477,-1.4955828,0.3539572,9.0424795,-10.234389,2.7944393,-0.36271456,0.4446042,-0.3241959,-0.75210476,-5.715657,4.9233623,-0.58155626,-0.02867335,-1.136553,0.4832307,0
0.7800000000000005,11.918056661246082,2.1647068658957354,-3.326197677337899,-0.05789653119554719,10.85478,-0.35040477,-1.4955828,0.3539572,8.985065,-10.184673,2.7883697,-0.36339062,0.43863204,-0.3234076,-0.75561625,-5.767114,5.0197945,-0.6321511,0.31346518,-1.4779243,0.45667747,0
0.7900000000000005,11.918056661246082,2.1647068658957354,-3.326197677337899,-0.05789653119554719,10.85478,-0.35040477,-1.4955828,0.3539572,8.927141,-10.133993,2.7818012,-0.36534,0.43091592,-0.32316044,-0.7592132,-5.817706,5.1159434,-0.68126553,0.6022222,-1.7660855,0.43142718,0
0.8000000000000005,12.01930066327553,2.6510912692589095,-3.83354745289593,-0.2335679930985492,10.334252,0.14148842,-1.0391755,-0.17352928,8.868716,-10.082354,2.7747502,-0.36835018,0.42170858,-0.3233545,-0.76283747,-5.8669934,5.211878,-0.7286621,0.845928,-2.0093288,0.40741593,0
0.8100000000000005,12.01930066327553,2.6510912692589095,-3.83354745289593,-0.2335679930985492,10.334252,0.14148842,-1.0391755,-0.17352928,8.809805,-10.029752,2.7672367,-0.37240204,0.41100016,-0.32396626,-0.7664467,-5.9149857,5.3084536,-0.7737007,1.127471,-2.2937627,0.37596264,0
0.8200000000000005,12.01930066327553,2.6510912692589095,-3.83354745289593,-0.2335679930985492,10.334252,0.14148842,-1.0391755,-0.17352928,8.750423,-9.976185,2.7592833,-0.37746575,0.39878815,-0.32496613,-0.76998943,-5.9608407,5.4048805,-0.816622,1.3650883,-2.5338593,0.34605283,0
0.8300000000000005,12.01930066327553,2.6510912692589095,-3.83354745289593,-0.2335679930985492,10.334252,0.14148842,-1.0391755,-0.17352928,8.690596,-9.921656,2.7509122,-0.3833575,0.38527718,-0.32626432,-0.773401,-6.004158,5.5011535,-0.8572725,1.565635,-2.7365286,0.31761065,0
0.8400000000000005,12.01930066327553,2.6510912692589095,-3.83354745289593,-0.2335679930985492,10.642863,0.6235298,-1.1432621,-0.30717874,8.630349,-9.866165,2.742146,-0.38992015,0.37064058,-0.3277833,-0.7766241,-6.044585,5.5972357,-0.89554745,1.7348957,-2.9076035,0.29056412,0
0.8500000000000005,12.01930066327553,2.6510912692589095,-3.83354745289593,-0.2335679930985492,10.642863,0.6235298,-1.1432621,-0.30717874,8.5697155,-9.809713,2.7330093,-0.39701948,0.3550259,-0.32945666,-0.7796085,-6.08181,5.693061,-0.9313842,1.8777523,-3.0520084,0.2648448,0
0.8600000000000005,12.01930066327553,2.6510912692589095,-3.83354745289593,-0.2335679930985492,10.642863,0.6235298,-1.1432621,-0.30717874,8.508726,-9.752305,2.7235267,-0.40454087,0.33855963,-0.33122787,-0.7823114,-6.1155577,5.788541,-0.9647573,1.9983246,-3.1739,0.24038753,0
0.8700000000000006,12.01930066327553,2.6510912692589095,-3.83354745289593,-0.2335679930985492,10.642863,0.6235298,-1.1432621,-0.30717874,8.447417,-9.693944,2.7137225,-0.41238648,0.3213507,-0.3330489,-0.7846964,-6.145585,5.883564,-0.99567354,2.1000896,-3.2767873,0.2171304,0
0.8800000000000006,12.128262119330985,2.3231924682152347,-3.6696176278023853,-0.3090410077965882,11.798849,-0.049549997,-1.9447756,-0.110787585,8.385828,-9.634637,2.7036214,-0.42047274,0.30349338,-0.33487928,-0.78673327,-6.1716805,5.9780025,-1.0241678,2.185982,-3.3636332,0.1950145,0
0.8900000000000006,12.128262119330985,2.3231924682152347,-3.6696176278023853,-0.3090410077965882,11.798849,-0.049549997,-1.9447756,-0.110787585,8.3239975,-9.574384,2.6932504,-0.42867523,0.28518045,-0.33660707,-0.7884188,-6.1938653,6.0725636,-1.0496477,2.2073312,-3.4113843,0.17028035,0
0.9000000000000006,12.128262119330985,2.3231924682152347,-3.6696176278023853,-0.3090410077965882,11.798849,-0.049549997,-1.9447756,-0.110787585,8.261966,-9.513188,2.6826363,-0.43689758,0.2665751,-0.33814463,-0.78975654,-6.2117944,6.1662292,-1.0728287,2.225351,-3.4516876,0.14675991,0
0.9100000000000006,12.128262119330985,2.3231924682152347,-3.6696176278023853,-0.3090410077965882,11.798849,-0.049549997,-1.9447756,-0.110787585,8.199777,-9.451062,2.6718016,-0.44511086,0.24771343,-0.3394934,-0.79073226,-6.225391,6.2588334,-1.0938107,2.240562,-3.485705,0.12439363,0
0.9200000000000006,12.2921503475755,1.4661696381021527,-2.9851421125077966,-0.2802121410899719,12.403088,-0.04703203,-1.7599366,-0.25382045,8.137473,-9.388017,2.6607673,-0.4532897,0.22862755,-0.34065503,-0.7913349,-6.2345924,6.3502073,-1.1127048,2.2534018,-3.5144157,0.10312486,0
0.9300000000000006,12.2921503475755,1.4661696381021527,-2.9851421125077966,-0.2802121410899719,12.403088,-0.04703203,-1.7599366,-0.25382045,8.075099,-9.324057,2.6495595,-0.4612417,0.2097193,-0.34148753,-0.79161805,-6.2394357,6.4414024,-1.1285385,2.130586,-3.4319103,0.08431439,0
0.9400000000000006,12.2921503475755,1.4661696381021527,-2.9851421125077966,-0.2802121410899719,12.403088,-0.04703203,-1.7599366,-0.25382045,8.012699,-9.259193,2.6382027,-0.46882948,0.19131745,-0.34188905,-0.7916485,-6.2399173,6.5310326,-1.1425319,2.0269275,-3.3622665,0.06642696,0
0.9500000000000006,12.2921503475755,1.4661696381021527,-2.9851421125077966,-0.2802121410899719,12.403088,-0.04703203,-1.7599366,-0.25382045,7.9503155,-9.193441,2.6267145,-0.4761045,0.17334856,-0.34191465,-0.7914342,-6.236191,6.6189666,-1.1548319,1.9394385,-3.3034794,0.049417283,0
0.9600000000000006,11.996941035856628,0.2672270726092762,-2.1253169592061627,-0.12979092084975877,12.545847,0.47478095,-1.6419721,0.08018474,7.8879895,-9.12682,2.6151114,-0.48310792,0.15574984,-0.34161052,-0.7909804,-6.2283916,6.7050824,-1.1655751,1.8655965,-3.2538571,0.033242278,1
0.9700000000000006,11.996941035856628,0.2672270726092762,-2.1253169592061627,-0.12979092084975877,12.545847,0.47478095,-1.6419721,0.08018474,7.8257623,-9.059339,2.6034172,-0.48959827,0.13907133,-0.34097207,-0.79037315,-6.216433,6.79102,-1.1730666,1.6486987,-3.002487,0.03554576,1
0.9800000000000006,11.996941035856628,0.2672270726092762,-2.1253169592061627,-0.12979092084975877,12.545847,0.47478095,-1.6419721,0.08018474,7.7636733,-8.991008,2.5916545,-0.49540207,0.12374997,-0.34001204,-0.7897173,-6.20081,6.8749924,-1.179281,1.4656259,-2.7903175,0.037736215,1
0.9900000000000007,11.996941035856628,0.2672270726092762,-2.1253169592061627,-0.12979092084975877,12.545847,0.47478095,-1.6419721,0.08018474,7.7017574,-8.921846,2.5798354,-0.50063753,0.10958175,-0.33878684,-0.78903496,-6.181874,6.9570284,-1.1843742,1.3111033,-2.6112356,0.03981919,1
1.0000000000000007,11.627158155373172,-0.9870270120241994,-1.1337756908456855,0.11536496892571535,12.66295,-1.5122675,0.11370316,0.8799615,7.640046,-8.851874,2.5679705,-0.50540054,0.09639223,-0.3373416,-0.788339,-6.159923,7.0371575,-1.1884727,1.1806786,-2.4600813,0.041799944,0
1.0100000000000007,11.627158155373172,-0.9870270120241994,-1.1337756908456855,0.11536496892571535,12.66295,-1.5122675,0.11370316,0.8799615,7.57856,-8.781139,2.5560343,-0.5096448,0.08448829,-0.33535632,-0.78781915,-6.1370516,7.1096816,-1.1986207,0.84262586,-2.253252,0.0454098,0
1.0200000000000007,11.627158155373172,-0.9870270120241994,-1.1337756908456855,0.11536496892571535,12.66295,-1.5122675,0.11370316,0.8799615,7.5173125,-8.709687,2.5440006,-0.51334983,0.07410782,-0.33258325,-0.787634,-6.1120567,7.1804967,-1.2079571,0.55729204,-2.0786774,0.04884252,0
1.0300000000000007,11.627158155373172,-0.9870270120241994,-1.1337756908456855,0.11536496892571535,12.66295,-1.5122675,0.11370316,0.8799615,7.456324,-8.637535,2.5318778,-0.51661694,0.06501917,-0.32915094,-0.7877424,-6.085338,7.2496357,-1.2164773,0.31645587,-1.9313275,0.052106794,0
1.0400000000000007,11.627158155373172,-0.9870270120241994,-1.1337756908456855,0.11536496892571535,13.326687,-2.1422083,0.8450995,1.3495275,7.3956103,-8.564699,2.5196738,-0.5195263,0.057025094,-0.32516536,-0.78810346,-6.0572343,7.31713,-1.224171,0.11317782,-1.8069564,0.055210907,0
1.0500000000000007,11.627158155373172,-0.9870270120241994,-1.1337756908456855,0.11536496892571535,13.326687,-2.1422083,0.8450995,1.3495275,7.3351836,-8.491197,2.5073972,-0.52214116,0.04995792,-0.3207141,-0.7886788,-6.0280285,7.3830113,-1.2310272,-0.05839886,-1.7019806,0.058162697,0
1.0600000000000007,11.627158155373172,-0.9870270120241994,-1.1337756908456855,0.11536496892571535,13.326687,-2.1422083,0.8450995,1.3495275,7.275053,-8.417044,2.495056,-0.5245122,0.043675315,-0.31586978,-0.7894331,-5.99796,7.447306,-1.2370354,-0.20321833,-1.6133753,0.060969636,0
1.0700000000000007,11.627158155373172,-0.9870270120241994,-1.1337756908456855,0.11536496892571535,13.326687,-2.1422083,0.8450995,1.3495275,7.215226,-8.342256,2.4826593,-0.5266796,0.038056567,-0.31069303,-0.7903348,-5.9672318,7.510037,-1.2421867,-0.32545304,-1.5385876,0.06363884,0
1.0800000000000007,11.687446136075106,-2.0509630373206003,-0.1946259979051989,0.43398771030767286,12.203176,-1.6752962,1.0914023,1.1266513,7.15571,-8.266848,2.4702156,-0.52867556,0.032999374,-0.30523425,-0.7913559,-5.936015,7.5712223,-1.246475,-0.42862526,-1.4754624,0.066177055,0
1.0900000000000007,11.687446136075106,-2.0509630373206003,-0.1946259979051989,0.43398771030767286,12.203176,-1.6752962,1.0914023,1.1266513,7.0965085,-8.190835,2.4577353,-0.5303679,0.028928045,-0.29939914,-0.792611,-5.904318,7.631198,-1.2494035,-0.6816214,-1.2757355,0.08422565,0
1.1000000000000008,11.687446136075106,-2.0509630373206003,-0.1946259979051989,0.43398771030767286,12.203176,-1.6752962,1.0914023,1.1266513,7.037624,-8.114229,2.4452305,-0.53165334,0.026174106,-0.29311553,-0.7941926,-5.872608,7.689727,-1.2514398,-0.8951662,-1.1071587,0.101388566,0
1.1100000000000008,11.687446136075106,-2.0509630373206003,-0.1946259979051989,0.43398771030767286,12.203176,-1.6752962,1.0914023,1.1266513,6.9790554,-8.0370455,2.4327097,-0.5325918,0.024532264,-0.28645125,-0.7960457,-5.841197,7.7468967,-1.2525636,-1.0754111,-0.9648729,0.11770931,0
1.1200000000000008,12.086410314352415,-2.9709637237481634,0.6729673563777477,0.7465695849797732,12.304798,-2.100062,1.3609982,1.5536375,6.9207983,-7.959296,2.4201825,-0.5332309,0.023828834,-0.2794624,-0.7981208,-5.81035,7.802779,-1.2527608,-1.2275484,-0.84477735,0.1332292,1
1.1300000000000008,12.086410314352415,-2.9709637237481634,0.6729673563777477,0.7465695849797732,12.304798,-2.100062,1.3609982,1.5536375,6.8628535,-7.88098,2.4076838,-0.5333256,0.024386283,-0.27251568,-0.8004395,-5.7787175,7.8603477,-1.2468139,-1.3636225,-0.5008614,0.20292905,1
1.1400000000000008,12.086410314352415,-2.9709637237481634,0.6729673563777477,0.7465695849797732,12.304798,-2.100062,1.3609982,1.5536375,6.80522,-7.802093,2.3952494,-0.5326725,0.026449729,-0.26590508,-0.803028,-5.748232,7.9168863,-1.2399634,-1.4784983,-0.21058425,0.2692087,1
1.1500000000000008,12.086410314352415,-2.9709637237481634,0.6729673563777477,0.7465695849797732,12.304798,-2.100062,1.3609982,1.5536375,6.7478843,-7.7226453,2.3828874,-0.53135973,0.029779276,-0.25957456,-0.8058475,-5.71918,7.972645,-1.2322925,-1.5754746,0.034421615,0.332236,1
1.1600000000000008,12.891263720075022,-3.656357919474308,1.1829208905457502,1.0355958635043252,12.879883,-2.2519035,1.4078445,1.8925021,6.6908307,-7.6426425,2.370606,-0.5294587,0.03417221,-0.2534757,-0.80886024,-5.6918063,8.027829,-1.2238761,-1.6573374,0.24121816,0.39217052,0
1.1700000000000008,12.891263720075022,-3.656357919474308,1.1829208905457502,1.0355958635043252,12.879883,-2.2519035,1.4078445,1.8925021,6.6340475,-7.562077,2.3584378,-0.5270736,0.039744705,-0.24702187,-0.81215334,-5.6651325,8.085205,-1.2096612,-1.9691288,0.38795635,0.4237436,0
1.1800000000000008,12.891263720075022,-3.656357919474308,1.1829208905457502,1.0355958635043252,12.879883,-2.2519035,1.4078445,1.8925021,6.5775194,-7.48094,2.3464155,-0.5242845,0.046579055,-0.23973936,-0.81576985,-5.640846,8.1421795,-1.1947043,-2.232295,0.51181453,0.45376736,0
1.1900000000000008,12.891263720075022,-3.656357919474308,1.1829208905457502,1.0355958635043252,12.879883,-2.2519035,1.4078445,1.8925021,6.521221,-7.399235,2.3345466,-0.52111155,0.05447136,-0.23174243,-0.81961596,-5.61933,8.19874,-1.1789814,-2.4544194,0.6163622,0.48231786,0
1.2000000000000008,13.892565560875187,-4.049388026100149,1.3451717461337334,1.2120034094701724,13.756725,-3.3171024,2.6426985,1.9547011,6.4651227,-7.316966,2.3228385,-0.5175712,0.063248925,-0.22312804,-0.82360953,-5.600914,8.254857,-1.1624985,-2.6419013,0.70461124,0.5094674,0
1.2100000000000009,13.892565560875187,-4.049388026100149,1.3451717461337334,1.2120034094701724,13.756725,-3.3171024,2.6426985,1.9547011,6.4091973,-7.2341175,2.3113437,-0.51363325,0.07289518,-0.21388373,-0.8277198,-5.5847187,8.314808,-1.1363294,-2.861449,0.80436957,0.543941,0
1.2200000000000009,13.892565560875187,-4.049388026100149,1.3451717461337334,1.2120034094701724,13.756725,-3.3171024,2.6426985,1.9547011,6.353414,-7.150672,2.3001144,-0.5092675,0.083387345,-0.20400292,-0.83191055,-5.5724998,8.374167,-1.1094253,-3.046756,0.88857687,0.57672304,0
1.2300000000000009,13.892565560875187,-4.049388026100149,1.3451717461337334,1.2120034094701724,13.756725,-3.3171024,2.6426985,1.9547011,6.2977324,-7.0666366,2.2891576,-0.50448644,0.094581515,-0.19357082,-0.83610845,-5.564551,8.432856,-1.0818622,-3.2031622,0.9596588,0.60789645,0
1.2400000000000009,13.892565560875187,-4.049388026100149,1.3451717461337334,1.2120034094701724,14.277893,-3.3881316,2.6237369,1.9908955,6.242108,-6.9820175,2.2784793,-0.4993016,0.10635528,-0.18266086,-0.8402504,-5.561118,8.490781,-1.0537422,-3.3351738,1.0196627,0.63754016,0
1.2500000000000009,13.892565560875187,-4.049388026100149,1.3451717461337334,1.2120034094701724,14.277893,-3.3881316,2.6237369,1.9908955,6.186494,-6.8968234,2.2680845,-0.49372363,0.11860433,-0.17133668,-0.8442825,-5.5624056,8.547838,-1.0251881,-3.4465957,1.0703162,0.6657293,0
1.260000000000001,13.892565560875187,-4.049388026100149,1.3451717461337334,1.2120034094701724,14.277893,-3.3881316,2.6237369,1.9908955,6.130843,-6.811064,2.2579768,-0.48776293,0.13123967,-0.15965365,-0.84815884,-5.5685787,8.603916,-0.9963414,-3.540639,1.1130772,0.6925351,0
1.270000000000001,13.892565560875187,-4.049388026100149,1.3451717461337334,1.2120034094701724,14.277893,-3.3881316,2.6237369,1.9908955,6.075106,-6.7247486,2.2481585,-0.48142958,0.1441852,-0.14766006,-0.8518403,-5.579769,8.658897,-0.9673578,-3.6200135,1.1491764,0.71802557,0
1.280000000000001,14.344888952973557,-3.9040696250102185,1.258300030053954,1.2296189893274554,14.267212,-2.7990053,2.1313615,1.7270093,6.019231,-6.63789,2.2386296,-0.47473356,0.15737578,-0.13539831,-0.85529375,-5.596075,8.712656,-0.9384055,-3.6870067,1.1796522,0.7422652,0
1.290000000000001,14.344888952973557,-3.9040696250102185,1.258300030053954,1.2296189893274554,14.267212,-2.7990053,2.1313615,1.7270093,5.9631634,-6.5504913,2.2294102,-0.4676973,0.17069808,-0.12293956,-0.8584908,-5.6182647,8.766772,-0.90553147,-3.7208822,1.1918432,0.7661798,0
1.300000000000001,14.344888952973557,-3.9040696250102185,1.258300030053954,1.2296189893274554,14.267212,-2.7990053,2.1313615,1.7270093,5.906847,-6.4625597,2.2205176,-0.46034217,0.1840594,-0.110344484,-0.8614119,-5.6458254,8.8193655,-0.87305754,-3.7494733,1.2021374,0.7889209,0
1.310000000000001,14.344888952973557,-3.9040696250102185,1.258300030053954,1.2296189893274554,14.267212,-2.7990053,2.1313615,1.7270093,5.8502283,-6.3741097,2.2119467,-0.45267656,0.19743563,-0.0976339,-0.86404276,-5.6787477,8.870304,-0.8411712,-3.773604,1.2108305,0.8105461,0
1.320000000000001,14.87069087716897,-3.391564059583156,0.7249691108511127,1.1935096290545688,14.654601,-2.6957412,1.8393276,1.603688,5.793254,-6.285159,2.2036915,-0.44470894,0.21080561,-0.08482642,-0.866371,-5.717006,8.919458,-0.81006163,-3.79397,1.2181717,0.8311101,0
1.330000000000001,14.87069087716897,-3.391564059583156,0.7249691108511127,1.1935096290545688,14.654601,-2.6957412,1.8393276,1.603688,5.7358627,-6.1957183,2.195766,-0.43651447,0.22387615,-0.07202176,-0.8684162,-5.762137,8.968432,-0.77521104,-3.7311866,1.1412476,0.8488932,0
1.340000000000001,14.87069087716897,-3.391564059583156,0.7249691108511127,1.1935096290545688,14.654601,-2.6957412,1.8393276,1.603688,5.677994,-6.105798,2.1881833,-0.4281607,0.23641782,-0.059303973,-0.870211,-5.812561,9.01528,-0.7415012,-3.6781986,1.0763178,0.86580366,0
1.350000000000001,14.87069087716897,-3.391564059583156,0.7249691108511127,1.1935096290545688,14.654601,-2.6957412,1.8393276,1.603688,5.619594,-6.0154204,2.1809316,-0.41964522,0.24849902,-0.046666875,-0.87176114,-5.8680754,9.059866,-0.7090583,-3.6334782,1.0215119,0.8818843,0
1.360000000000001,14.624863690736458,-2.533972168802088,-0.18122125656394633,1.0031357639770306,14.880773,-2.6813269,0.33493918,1.3021855,5.5606146,-5.924609,2.1739974,-0.41096658,0.26017714,-0.034105156,-0.8730695,-5.9284887,9.102068,-0.6780049,-3.5957348,0.9752521,0.89717585,1
1.370000000000001,14.624863690736458,-2.533972168802088,-0.18122125656394633,1.0031357639770306,14.880773,-2.6813269,0.33493918,1.3021855,5.5010076,-5.8333874,2.1673667,-0.40219384,0.27124837,-0.021802668,-0.87417865,-5.9936457,9.141803,-0.6483664,-3.4530864,0.87543416,0.9170498,1
1.380000000000001,14.624863690736458,-2.533972168802088,-0.18122125656394633,1.0031357639770306,14.880773,-2.6813269,0.33493918,1.3021855,5.4407268,-5.741781,2.1610248,-0.393388,0.28156024,-0.009907775,-0.8751404,-6.0632095,9.178973,-0.6202887,-3.3326902,0.791175,0.93594855,1
1.390000000000001,14.624863690736458,-2.533972168802088,-0.18122125656394633,1.0031357639770306,14.880773,-2.6813269,0.33493918,1.3021855,5.3797293,-5.6498165,2.1549556,-0.38453707,0.29122517,0.0016323105,-0.87596565,-6.13688,9.2135315,-0.5938086,-3.2310753,0.72004926,0.9539198,1
1.400000000000001,14.209978767776834,-1.5757597756628632,-1.160437660445125,0.6883021483206619,15.267946,-2.1293263,-0.0037760139,0.9135138,5.3179755,-5.5575194,2.149143,-0.3756307,0.3003373,0.0128629245,-0.8766601,-6.2143908,9.245432,-0.56896025,-3.1453125,0.6600098,0.9710094,0
1.410000000000001,14.209978767776834,-1.5757597756628632,-1.160437660445125,0.6883021483206619,15.267946,-2.1293263,-0.0037760139,0.9135138,5.255447,-5.4649234,2.1435435,-0.36685336,0.3082866,0.023680657,-0.87739193,-6.2918105,9.273313,-0.55121726,-2.9003587,0.37629324,0.95713687,0
1.420000000000001,14.209978767776834,-1.5757597756628632,-1.160437660445125,0.6883021483206619,15.267946,-2.1293263,-0.0037760139,0.9135138,5.192129,-5.372062,2.1381142,-0.35836455,0.31460232,0.034004297,-0.8783184,-6.3721814,9.298548,-0.5348848,-2.6936376,0.13679305,0.94394505,0
1.430000000000001,14.209978767776834,-1.5757597756628632,-1.160437660445125,0.6883021483206619,15.267946,-2.1293263,-0.0037760139,0.9135138,5.127995,-5.2789617,2.132842,-0.35012054,0.31954283,0.043901246,-0.87942034,-6.4550443,9.32108,-0.5197713,-2.5191813,-0.06538153,0.9314006,0
1.440000000000001,14.209978767776834,-1.5757597756628632,-1.160437660445125,0.6883021483206619,15.334968,-1.75896,-0.8583541,0.65516794,5.0630217,-5.1856494,2.1277153,-0.3420826,0.32332388,0.053430032,-0.8806735,-6.540009,9.34087,-0.50570726,-2.3719535,-0.23604728,0.9194717,0
1.450000000000001,14.209978767776834,-1.5757597756628632,-1.160437660445125,0.6883021483206619,15.334968,-1.75896,-0.8583541,0.65516794,4.997189,-5.0921535,2.1227245,-0.334217,0.3261258,0.0626413,-0.8820525,-6.626743,9.357886,-0.49254602,-2.2477043,-0.3801145,0.90812814,0
1.460000000000001,14.209978767776834,-1.5757597756628632,-1.160437660445125,0.6883021483206619,15.334968,-1.75896,-0.8583541,0.65516794,4.930481,-4.998502,2.1178615,-0.32649475,0.3280994,0.071578756,-0.8835316,-6.7149615,9.37211,-0.4801619,-2.1428463,-0.50172824,0.8973412,0
1.470000000000001,14.209978767776834,-1.5757597756628632,-1.160437660445125,0.6883021483206619,15.334968,-1.75896,-0.8583541,0.65516794,4.862885,-4.9047213,2.1131191,-0.31889108,0.32937104,0.08028003,-0.8850864,-6.804417,9.383527,-0.46844876,-2.0543537,-0.60438824,0.8870836,0
1.480000000000001,14.223165869664099,-0.6241651082258082,-1.7482819745251574,0.33080891068001944,16.108158,-0.98696333,-1.461398,0.2671999,4.794389,-4.810841,2.1084907,-0.31138507,0.33004653,0.08877746,-0.8866944,-6.894895,9.392126,-0.4573182,-1.9796714,-0.691048,0.87732935,0
1.490000000000001,14.223165869664099,-0.6241651082258082,-1.7482819745251574,0.33080891068001944,16.108158,-0.98696333,-1.461398,0.2671999,4.7249837,-4.716889,2.1039715,-0.30410305,0.32988507,0.09684818,-0.8884353,-6.9862723,9.397919,-0.4465798,-1.7682017,-0.85577124,0.85051143,0
1.500000000000001,14.223165869664099,-0.6241651082258082,-1.7482819745251574,0.33080891068001944,16.108158,-0.98696333,-1.461398,0.2671999,4.6546617,-4.622892,2.0995579,-0.2971499,0.32870382,0.10431741,-0.8903782,-7.078165,9.400962,-0.43616372,-1.5897293,-0.99483246,0.82500947,0
1.5100000000000011,14.223165869664099,-0.6241651082258082,-1.7482819745251574,0.33080891068001944,16.108158,-0.98696333,-1.461398,0.2671999,4.5834193,-4.5288787,2.0952477,-0.29047942,0.3266614,0.11127588,-0.8924861,-7.170277,9.401336,-0.42589152,-1.4391044,-1.1122288,0.80075896,0
1.5200000000000011,13.281238007798814,0.22191115675605272,-2.3459743094798773,-0.048145201573507546,15.366844,-0.65164906,-2.1578689,0.022841489,4.511256,-4.4348745,2.0910401,-0.28405207,0.32389015,0.117800675,-0.8947247,-7.262356,9.399115,-0.41561323,-1.3119817,-1.2113348,0.77769834,0
1.5300000000000011,13.281238007798814,0.22191115675605272,-2.3459743094798773,-0.048145201573507546,15.366844,-0.65164906,-2.1578689,0.022841489,4.438204,-4.3409038,2.0869,-0.27795693,0.32018578,0.12373648,-0.89716774,-7.348086,9.394688,-0.4123751,-1.0727189,-1.3881315,0.737174,0
1.5400000000000011,13.281238007798814,0.22191115675605272,-2.3459743094798773,-0.048145201573507546,15.366844,-0.65164906,-2.1578689,0.022841489,4.3642964,-4.246989,2.0827935,-0.27226573,0.31539217,0.12896325,-0.8998707,-7.433275,9.388018,-0.40880382,-0.87078893,-1.5373874,0.69863814,0
1.5500000000000012,13.281238007798814,0.22191115675605272,-2.3459743094798773,-0.048145201573507546,15.366844,-0.65164906,-2.1578689,0.022841489,4.2895412,-4.153151,2.0787256,-0.26692364,0.30967495,0.13358894,-0.9027773,-7.51764,9.379221,-0.40470827,-0.7003651,-1.6633916,0.66199327,0
1.5600000000000012,12.447033788312817,0.8762559250748176,-2.7595203218061193,-0.418046042624084,14.343581,0.6581634,-3.2664182,-0.73413503,4.213947,-4.059411,2.0747018,-0.26188365,0.3031726,0.1377048,-0.9058368,-7.6009364,9.368398,-0.39993295,-0.5565307,-1.7697651,0.62714654,0
1.5700000000000012,12.447033788312817,0.8762559250748176,-2.7595203218061193,-0.418046042624084,14.343581,0.6581634,-3.2664182,-0.73413503,4.1375523,-3.9657855,2.0706973,-0.25720298,0.29577655,0.14120722,-0.9090781,-7.6777887,9.35645,-0.40085566,-0.33308944,-1.924014,0.57585865,0
1.5800000000000012,12.447033788312817,0.8762559250748176,-2.7595203218061193,-0.418046042624084,14.343581,0.6581634,-3.2664182,-0.73413503,4.0603957,-3.872288,2.066688,-0.25292704,0.28740504,0.14401735,-0.9125157,-7.7531767,9.342822,-0.40085712,-0.14450903,-2.054235,0.5270875,0
1.5900000000000012,12.447033788312817,0.8762559250748176,-2.7595203218061193,-0.418046042624084,14.343581,0.6581634,-3.2664182,-0.73413503,3.982494,-3.7789345,2.062684,-0.24900275,0.27820072,0.14623973,-0.9160871,-7.826856,9.327638,-0.39979523,0.014651198,-2.1641693,0.48070955,0
1.6000000000000012,11.928123929140284,1.1678930739453255,-2.9631348384421843,-0.7573356158764772,14.487801,0.8186244,-3.2569797,-0.8640326,3.903865,-3.6857402,2.0586963,-0.24538499,0.26828358,0.14796247,-0.91973746,-7.8986135,9.311007,-0.39756277,0.14898227,-2.2569761,0.43660736,0
1.6100000000000012,11.928123929140284,1.1678930739453255,-2.9631348384421843,-0.7573356158764772,14.487801,0.8186244,-3.2569797,-0.8640326,3.8245437,-3.5927153,2.054716,-0.24209253,0.25764483,0.14918335,-0.9234471,-7.9653497,9.293778,-0.39831343,0.30782187,-2.3670676,0.37802023,0
1.6200000000000012,11.928123929140284,1.1678930739453255,-2.9631348384421843,-0.7573356158764772,14.487801,0.8186244,-3.2569797,-0.8640326,3.744566,-3.4998686,2.0507345,-0.23914146,0.24628136,0.14990413,-0.9271922,-8.02986,9.275364,-0.3977886,0.44188303,-2.4600067,0.32230797,0
1.6300000000000012,11.928123929140284,1.1678930739453255,-2.9631348384421843,-0.7573356158764772,14.487801,0.8186244,-3.2569797,-0.8640326,3.663955,-3.4072115,2.0467649,-0.23649232,0.2342942,0.15019867,-0.9309231,-8.091954,9.255862,-0.39593264,0.55503285,-2.5384643,0.26932958,0
1.6400000000000012,11.928123929140284,1.1678930739453255,-2.9631348384421843,-0.7573356158764772,14.301468,0.9672868,-3.388764,-0.9498918,3.5827358,-3.3147547,2.0428205,-0.23411123,0.22176929,0.15012906,-0.9345969,-8.151468,9.235362,-0.39271632,0.65053403,-2.6046958,0.21895081,0
1.6500000000000012,11.928123929140284,1.1678930739453255,-2.9631348384421843,-0.7573356158764772,14.301468,0.9672868,-3.388764,-0.9498918,3.5009348,-3.2225075,2.0389152,-0.23196912,0.20877972,0.1497476,-0.93817735,-8.208254,9.213941,-0.3881331,0.7311409,-2.6606052,0.17104417,0
1.6600000000000013,11.928123929140284,1.1678930739453255,-2.9631348384421843,-0.7573356158764772,14.301468,0.9672868,-3.388764,-0.9498918,3.4185803,-3.1304789,2.0350626,-0.23004086,0.19538805,0.14909819,-0.94163376,-8.262175,9.19167,-0.3821961,0.7991773,-2.7078004,0.1254883,0
1.6700000000000013,11.928123929140284,1.1678930739453255,-2.9631348384421843,-0.7573356158764772,14.301468,0.9672868,-3.388764,-0.9498918,3.3357017,-3.038677,2.0312755,-0.22830477,0.18164785,0.14821775,-0.9449403,-8.313111,9.168614,-0.3749352,0.8566042,-2.7476392,0.082167864,0
1.6800000000000013,11.533079428609243,1.320326991412464,-2.426970503762486,-0.9634705835563626,13.589926,-0.31079683,-3.6916394,-1.2893265,3.2523289,-2.9471092,2.0275679,-0.22674191,0.16760528,0.14713728,-0.9480754,-8.360957,9.144832,-0.36639458,0.9050767,-2.7812672,0.040973186,0
1.6900000000000013,11.533079428609243,1.320326991412464,-2.426970503762486,-0.9634705835563626,13.589926,-0.31079683,-3.6916394,-1.2893265,3.168501,-2.8557787,2.023934,-0.22540171,0.15348652,0.14578076,-0.9509909,-8.404144,9.121192,-0.3602046,0.9697455,-2.7260442,-0.0083151655,0
1.7000000000000013,11.533079428609243,1.320326991412464,-2.426970503762486,-0.9634705835563626,13.589926,-0.31079683,-3.6916394,-1.2893265,3.0842566,-2.7646873,2.0203674,-0.22432569,0.13947503,0.1440905,-0.9536574,-8.444225,9.097006,-0.3529063,1.0243368,-2.6794355,-0.05518492,0
1.7100000000000013,11.533079428609243,1.320326991412464,-2.426970503762486,-0.9634705835563626,13.589926,-0.31079683,-3.6916394,-1.2893265,2.999627,-2.67384,2.016879,-0.22348747,0.12554999,0.14211494,-0.9560825,-8.481192,9.072373,-0.3445774,1.070421,-2.6400962,-0.09975476,0
1.7200000000000013,11.11406479883312,1.2113547196192798,-1.775874494537578,-1.0957112601606749,13.082022,-0.28672466,-3.1277514,-1.2711118,2.9146435,-2.583241,2.0134792,-0.22286403,0.11169413,0.13989468,-0.9582721,-8.515032,9.047383,-0.33529636,1.1093239,-2.6068926,-0.14213754,0
1.7300000000000013,11.11406479883312,1.2113547196192798,-1.775874494537578,-1.0957112601606749,13.082022,-0.28672466,-3.1277514,-1.2711118,2.8293428,-2.492889,2.0101569,-0.22248301,0.09815087,0.13744976,-0.9601954,-8.54463,9.023028,-0.32907808,1.1251718,-2.4773314,-0.18892969,0
1.7400000000000013,11.11406479883312,1.2113547196192798,-1.775874494537578,-1.0957112601606749,13.082022,-0.28672466,-3.1277514,-1.2711118,2.743761,-2.4027812,2.0069003,-0.22236875,0.085113905,0.13479905,-0.9618404,-8.571287,8.998491,-0.32211223,1.1385566,-2.3679743,-0.23342572,0
1.7500000000000013,11.11406479883312,1.2113547196192798,-1.775874494537578,-1.0957112601606749,13.082022,-0.28672466,-3.1277514,-1.2711118,2.657927,-2.3129194,2.003717,-0.22249757,0.07250293,0.13197227,-0.9632349,-8.595088,8.973851,-0.31448627,1.1498605,-2.2756703,-0.27573833,0
1.7600000000000013,10.81567392531511,0.9369400014707193,-1.0380130996113976,-1.127531461665144,12.405741,-0.27174363,-2.2820349,-1.2942406,2.571869,-2.2233043,2.0006127,-0.22284834,0.060250156,0.12899417,-0.9644008,-8.616104,8.949178,-0.3062795,1.1594068,-2.1977596,-0.31597462,0
1.7700000000000014,10.81567392531511,0.9369400014707193,-1.0380130996113976,-1.127531461665144,12.405741,-0.27174363,-2.2820349,-1.2942406,2.485617,-2.1339324,1.9975789,-0.22343825,0.0486074,0.12592602,-0.9653264,-8.633921,8.92519,-0.3004348,1.1246979,-2.01692,-0.35579798,0
1.7800000000000014,10.81567392531511,0.9369400014707193,-1.0380130996113976,-1.127531461665144,12.405741,-0.27174363,-2.2820349,-1.2942406,2.3991992,-2.0448,1.9946055,-0.22428201,0.03777212,0.12281834,-0.9660157,-8.649251,8.901283,-0.29417548,1.0954062,-1.8642803,-0.3936672,0
1.7900000000000014,10.81567392531511,0.9369400014707193,-1.0380130996113976,-1.127531461665144,12.405741,-0.27174363,-2.2820349,-1.2942406,2.31264,-1.9559064,1.9916967,-0.22535817,0.027617993,0.11967547,-0.96650326,-8.662251,8.877508,-0.28757027,1.0706856,-1.7354434,-0.4296781,0
1.8000000000000014,10.631024353374388,0.5835257922391291,-0.470878849728338,-1.077126703609431,13.477305,-0.26315436,-1.334918,-1.4007487,2.225962,-1.8672494,1.9888552,-0.22664732,0.018038206,0.116500795,-0.9668159,-8.673055,8.853904,-0.2806766,1.0498221,-1.6266971,-0.46392196,0
1.8100000000000014,10.631024353374388,0.5835257922391291,-0.470878849728338,-1.077126703609431,13.477305,-0.26315436,-1.334918,-1.4007487,2.1391869,-1.7788255,1.9860749,-0.22815041,0.009194841,0.11338223,-0.9669576,-8.681637,8.830904,-0.27534112,0.97712934,-1.4464452,-0.49401212,0
1.8200000000000014,10.631024353374388,0.5835257922391291,-0.470878849728338,-1.077126703609431,13.477305,-0.26315436,-1.334918,-1.4007487,2.0523355,-1.6906306,1.9833491,-0.22986744,0.001212041,0.11038983,-0.9669402,-8.688359,8.808125,-0.26981923,0.91577166,-1.2943034,-0.5226257,0
1.8300000000000014,10.631024353374388,0.5835257922391291,-0.470878849728338,-1.077126703609431,13.477305,-0.26315436,-1.334918,-1.4007487,1.9654255,-1.6026622,1.980679,-0.23178022,-0.0060447226,0.10750195,-0.96679085,-8.6933975,8.785578,-0.2641506,0.863981,-1.1658884,-0.5498352,0
1.8400000000000014,10.631024353374388,0.5835257922391291,-0.470878849728338,-1.077126703609431,13.111413,-0.577443,-0.8064588,-1.4187908,1.8784729,-1.5149182,1.9780663,-0.2338722,-0.01268913,0.104700215,-0.96653014,-8.6968975,8.763274,-0.258366,0.82026494,-1.0575004,-0.5757096,0
1.8500000000000014,10.631024353374388,0.5835257922391291,-0.470878849728338,-1.077126703609431,13.111413,-0.577443,-0.8064588,-1.4187908,1.7914923,-1.4273959,1.975512,-0.23612845,-0.01881719,0.10196911,-0.96617365,-8.698984,8.741221,-0.25248972,0.78336436,-0.9660158,-0.60031426,0
1.8600000000000014,10.631024353374388,0.5835257922391291,-0.470878849728338,-1.077126703609431,13.111413,-0.577443,-0.8064588,-1.4187908,1.7044977,-1.3400929,1.9730169,-0.23853543,-0.024509948,0.09929554,-0.9657332,-8.699763,8.719426,-0.24654113,0.7522163,-0.8887988,-0.62371165,0
1.8700000000000014,10.631024353374388,0.5835257922391291,-0.470878849728338,-1.077126703609431,13.111413,-0.577443,-0.8064588,-1.4187908,1.6175014,-1.2530065,1.9705814,-0.24108095,-0.029835785,0.09666851,-0.9652176,-8.699322,8.697893,-0.240536,0.7259235,-0.8236243,-0.64596087,0
1.8800000000000014,10.448960378040782,0.2584253347089521,0.39598906709004716,-0.9190553654836261,12.642276,-0.62530553,-0.37004235,-1.2580588,1.5305152,-1.1661341,1.9682063,-0.243754,-0.03485239,0.09407881,-0.9646339,-8.697735,8.676624,-0.23448758,0.7037291,-0.76861405,-0.6671183,0
1.8900000000000015,10.448960378040782,0.2584253347089521,0.39598906709004716,-0.9190553654836261,12.642276,-0.62530553,-0.37004235,-1.2580588,1.4435501,-1.0794712,1.9658829,-0.24656309,-0.039240193,0.09155999,-0.9639936,-8.6951275,8.655984,-0.2301903,0.63435817,-0.5869699,-0.6794809,0
1.9000000000000015,10.448960378040782,0.2584253347089521,0.39598906709004716,-0.9190553654836261,12.642276,-0.62530553,-0.37004235,-1.2580588,1.3566157,-0.99301344,1.9636027,-0.24951182,-0.042748224,0.08913771,-0.9633125,-8.691638,8.635626,-0.2258629,0.575796,-0.43365657,-0.69123685,0
1.9100000000000015,10.448960378040782,0.2584253347089521,0.39598906709004716,-0.9190553654836261,12.642276,-0.62530553,-0.37004235,-1.2580588,1.26972,-0.90675765,1.9613658,-0.25258392,-0.045513757,0.08679435,-0.9625989,-8.687438,8.615568,-0.22150283,0.5263581,-0.30425543,-0.702416,0
1.9200000000000015,10.37926485813439,-0.04975947880714978,1.0197391115052972,-0.7253072627046442,12.435421,-0.77623475,0.07323143,-1.1133618,1.1828691,-0.82070094,1.9591726,-0.25576505,-0.04765265,0.08451525,-0.9618579,-8.682672,8.595827,-0.21710587,0.4846226,-0.19503698,-0.7130466,0
1.9300000000000015,10.37926485813439,-0.04975947880714978,1.0197391115052972,-0.7253072627046442,12.435421,-0.77623475,0.07323143,-1.1133618,1.0960679,-0.7348394,1.9570203,-0.25904655,-0.048988946,0.08234381,-0.96110064,-8.677507,8.576549,-0.21335018,0.40137398,-0.005554665,-0.7136482,0
1.9400000000000015,10.37926485813439,-0.04975947880714978,1.0197391115052972,-0.7253072627046442,12.435421,-0.77623475,0.07323143,-1.1133618,1.0093198,-0.6491688,1.954906,-0.26241702,-0.049387798,0.0803132,-0.9603374,-8.672101,8.55762,-0.20954151,0.33109424,0.15437183,-0.71422035,0
1.9500000000000015,10.37926485813439,-0.04975947880714978,1.0197391115052972,-0.7253072627046442,12.435421,-0.77623475,0.07323143,-1.1133618,0.9226261,-0.56368566,1.95283,-0.265861,-0.048994802,0.07839866,-0.95956814,-8.666634,8.539061,-0.2056683,0.27176315,0.28935295,-0.71476436,0
1.9600000000000015,10.352109041115433,-0.30394890881235226,1.3626749420525697,-0.5118291331932558,11.214144,-0.66179615,0.40976506,-0.33961573,0.8359868,-0.47838625,1.9507929,-0.26936516,-0.047932874,0.07657958,-0.9587911,-8.661257,8.520887,-0.20172054,0.2216749,0.40327957,-0.71528167,1
1.9700000000000015,10.352109041115433,-0.30394890881235226,1.3626749420525697,-0.5118291331932558,11.214144,-0.66179615,0.40976506,-0.33961573,0.74940234,-0.39327374,1.9488369,-0.27286556,-0.046469778,0.07514202,-0.9579867,-8.655681,8.501675,-0.18947817,0.08389376,0.40435618,-0.6968476,1
1.9800000000000015,10.352109041115433,-0.30394890881235226,1.3626749420525697,-0.5118291331932558,11.214144,-0.66179615,0.40976506,-0.33961573,0.66287214,-0.3083516,1.9470037,-0.27630523,-0.044821575,0.0743132,-0.95714366,-8.650428,8.482792,-0.17716308,-0.03240054,0.40525207,-0.6793181,1
1.9900000000000015,10.352109041115433,-0.30394890881235226,1.3626749420525697,-0.5118291331932558,11.214144,-0.66179615,0.40976506,-0.33961573,0.5763925,-0.22361714,1.945294,-0.27968302,-0.043014638,0.07399792,-0.95626956,-8.64557,8.464129,-0.16479246,-0.13055845,0.40599784,-0.66264874,1
2.0000000000000013,,,,,11.090929,-1.2496678,0.6208034,-0.0015297774,0.48995918,-0.13906857,1.9437083,-0.2829984,-0.041071523,0.07411582,-0.95537,-8.641165,8.445596,-0.15238088,-0.2134086,0.40661898,-0.6467974,1
2.010000000000001,,,,,11.090929,-1.2496678,0.6208034,-0.0015297774,0.4035672,-0.054704033,1.9422406,-0.2862272,-0.038860824,0.07480134,-0.95444673,-8.637319,8.427314,-0.14115657,-0.3750077,0.4400814,-0.61513394,1
2.020000000000001,,,,,11.090929,-1.2496678,0.6208034,-0.0015297774,0.3172107,0.02947748,1.9408852,-0.28934395,-0.036278315,0.07615698,-0.953501,-8.634091,8.408969,-0.12992285,-0.51140845,0.46830946,-0.5850242,1
2.0300000000000007,,,,,11.090929,-1.2496678,0.6208034,-0.0015297774,0.23088288,0.113474764,1.9396421,-0.2923474,-0.03337861,0.07807709,-0.952535,-8.6315975,8.390454,-0.11869845,-0.62653965,0.492123,-0.5563919,1
2.0400000000000005,,,,,11.090929,-1.2496678,0.6208034,-0.0015297774,0.14457592,0.1972857,1.9385111,-0.29523718,-0.03020812,0.08047248,-0.9515496,-8.629932,8.371685,-0.10750189,-0.72371787,0.51221305,-0.5291647,1
2.0500000000000003,,,,,11.097916,-1.4510182,0.7846909,0.29603165,0.0582811,0.28090736,1.9374919,-0.29801375,-0.026806295,0.08326781,-0.9505449,-8.62918,8.352589,-0.09635194,-0.80574256,0.5291623,-0.5032735,1
2.06,,,,,11.097916,-1.4510182,0.7846909,0.29603165,-0.02801107,0.3643361,1.9365842,-0.30065066,-0.023117146,0.08645737,-0.9495261,-8.6294155,8.333094,-0.085199244,-0.9063745,0.5690218,-0.46405137,1
2.07,,,,,11.097916,-1.4510182,0.7846909,0.29603165,-0.114310935,0.44756773,1.9357876,-0.3031223,-0.01909747,0.09003285,-0.94849676,-8.6307335,8.313155,-0.074134395,-0.9913159,0.602657,-0.42675385,1
2.0799999999999996,,,,,11.097916,-1.4510182,0.7846909,0.29603165,-0.20062974,0.5305975,1.935101,-0.3054313,-0.014795556,0.0939321,-0.9474542,-8.633222,8.292725,-0.06318099,-1.063013,0.63104063,-0.39128655,1
2.0899999999999994,,,,,11.0024185,-1.3078172,0.3200609,-0.0032276674,-0.28697962,0.61342037,1.9345233,-0.3075808,-0.010252383,0.09810257,-0.9463957,-8.636955,8.271764,-0.052363984,-1.1235305,0.65499306,-0.35755968,1
2.099999999999999,,,,,11.0024185,-1.3078172,0.3200609,-0.0032276674,-0.37337312,0.69603175,1.9340484,-0.30959052,-0.00569999,0.1025027,-0.9453118,-8.641947,8.2504225,-0.0426454,-1.1522889,0.6027542,-0.34017253,1
2.109999999999999,,,,,11.0024185,-1.3078172,0.3200609,-0.0032276674,-0.45982298,0.7784267,1.9336698,-0.31148228,-0.0013248633,0.10709812,-0.94419646,-8.648222,8.2284775,-0.033115294,-1.1765593,0.5586611,-0.32363856,1
2.1199999999999988,,,,,11.0024185,-1.3078172,0.3200609,-0.0032276674,-0.5463419,0.86059904,1.9333854,-0.31326237,0.0029022123,0.11185739,-0.94305146,-8.655756,8.205886,-0.02380006,-1.197042,0.5214437,-0.30791593,1
2.1299999999999986,,,,,10.755953,-0.92368114,0.23978192,0.07577179,-0.6329423,0.9425421,1.933193,-0.3149366,0.0070057893,0.11675387,-0.941878,-8.664531,8.182612,-0.014724873,-1.2143283,0.49002984,-0.29296476,1
2.1399999999999983,,,,,10.755953,-0.92368114,0.23978192,0.07577179,-0.71963555,1.0242515,1.9330779,-0.3164991,0.010928882,0.12163041,-0.94069904,-8.674301,8.159171,-0.008307146,-1.1690148,0.4509813,-0.27487075,1
2.149999999999998,,,,,10.755953,-0.92368114,0.23978192,0.07577179,-0.8064323,1.1057231,1.9330258,-0.31794602,0.014627331,0.12636171,-0.9395366,-8.685212,8.13505,-0.0021574916,-1.1307658,0.41802546,-0.2576646,1
2.159999999999998,,,,,10.755953,-0.92368114,0.23978192,0.07577179,-0.89334357,1.1869502,1.9330338,-0.31928542,0.01813747,0.13096988,-0.93838936,-8.697212,8.110264,0.0037167226,-1.0984799,0.39021134,-0.24130279,1
2.1699999999999977,,,,,11.156704,-0.32514018,-0.038751304,0.26296225,-0.9803801,1.2679262,1.9330993,-0.32052457,0.021489944,0.13547343,-0.9372561,-8.710254,8.084831,0.00930851,-1.0712277,0.36673686,-0.22574383,1
2.1799999999999975,,,,,11.156704,-0.32514018,-0.038751304,0.26296225,-1.0675546,1.3486398,1.9332385,-0.32163873,0.024532452,0.13969894,-0.9361788,-8.72481,8.0577965,0.0184667,-0.9548897,0.3034691,-0.20176288,1
