time-since-start [s],throttle_mpc,roll_mpc,pitch_mpc,yaw_mpc,throttle_nw,roll_nw,pitch_nw,yaw_nw,position_x [m],position_y [m],position_z [m],rotation_w [quaternion],rotation_x [quaternion],rotation_y [quaternion],rotation_z [quaternion],velocity_x [m/s],velocity_y [m/s],velocity_z [m/s],omega_x [rad/s],omega_y [rad/s],omega_z [rad/s],network_used
0.0,10.268194143669119,5.999999549813319,-5.999999817882816,-2.455250111979484,12.929137,0.88540244,-2.5070958,-0.57868654,14.639783,-11.364639,2.5943658,-0.2731518,0.32165623,-0.36064142,-0.8317831,-9.3537445,-1.5256376,1.1111474,1.1815052,-0.4159298,-0.28763238,0
0.01,10.268194143669119,5.999999549813319,-5.999999817882816,-2.455250111979484,12.400479,1.2198112,-3.9893498,0.5626674,14.546005,-11.379337,2.6053693,-0.2778144,0.3177077,-0.36483994,-0.8299234,-9.401432,-1.4143804,1.0891844,1.5132151,-0.8672824,-0.35645702,0
0.02,10.268194143669119,5.999999549813319,-5.999999817882816,-2.455250111979484,12.400479,1.2198112,-3.9893498,0.5626674,14.451767,-11.392934,2.6161425,-0.28405192,0.3115997,-0.36964518,-0.8279992,-9.445717,-1.3051307,1.0651554,1.8324863,-1.2875968,-0.42542085,0
0.03,10.268194143669119,5.999999549813319,-5.999999817882816,-2.455250111979484,12.400479,1.2198112,-3.9893498,0.5626674,14.357105,-11.405447,2.6266663,-0.29177612,0.30345204,-0.37501422,-0.8259224,-9.486072,-1.197744,1.0393603,2.1396217,-1.6800714,-0.49437028,0
0.04,10.268194143669119,5.999999549813319,-5.999999817882816,-2.455250111979484,7.685849,2.5248537,-4.307098,-0.5114439,14.262061,-11.416894,2.6369245,-0.30089757,0.29336774,-0.38089663,-0.823598,-9.5220375,-1.0921252,1.0120398,2.4349906,-2.0475202,-0.5631696,0
0.05,10.268194143669119,5.999999549813319,-5.999999817882816,-2.455250111979484,7.685849,2.5248537,-4.307098,-0.5114439,14.16668,-11.427294,2.6469028,-0.3113257,0.28143585,-0.38723585,-0.8209253,-9.553211,-0.98823035,0.9833806,2.7190092,-2.3924224,-0.63169885,0
0.060000000000000005,10.268194143669119,5.999999549813319,-5.999999817882816,-2.455250111979484,7.685849,2.5248537,-4.307098,-0.5114439,14.071014,-11.436665,2.656588,-0.3229684,0.26773447,-0.39397028,-0.8178,-9.5792465,-0.8860677,0.9535203,2.9921231,-2.716966,-0.69985276,0
0.07,10.268194143669119,5.999999549813319,-5.999999817882816,-2.455250111979484,7.685849,2.5248537,-4.307098,-0.5114439,13.975115,-11.445023,2.6659694,-0.33573195,0.2523331,-0.40103418,-0.81411505,-9.599844,-0.78569674,0.92255104,3.2547941,-3.0230825,-0.7675387,0
0.08,12.116800660847236,5.999999660844059,-5.999999848858742,-2.6034648773321045,11.78485,2.9980772,-4.1790433,-0.021573257,13.879037,-11.452386,2.6750355,-0.3495208,0.23529495,-0.40835822,-0.8097622,-9.614754,-0.68722653,0.8905242,3.5074914,-3.3124838,-0.83467585,0
0.09,12.116800660847236,5.999999660844059,-5.999999848858742,-2.6034648773321045,11.78485,2.9980772,-4.1790433,-0.021573257,13.782833,-11.458709,2.6838202,-0.36430353,0.21660317,-0.415897,-0.8046089,-9.624977,-0.5778499,0.866198,3.7798796,-3.6159635,-0.91107684,0
0.09999999999999999,12.116800660847236,5.999999660844059,-5.999999848858742,-2.6034648773321045,11.78485,2.9980772,-4.1790433,-0.021573257,13.686561,-11.46395,2.6923556,-0.38003963,0.1962395,-0.42359665,-0.79851466,-9.628292,-0.47101304,0.840685,4.042264,-3.904628,-0.9866343,0
0.10999999999999999,12.116800660847236,5.999999660844059,-5.999999848858742,-2.6034648773321045,11.78485,2.9980772,-4.1790433,-0.021573257,13.590291,-11.468138,2.7006295,-0.3966153,0.17426117,-0.4313706,-0.7913587,-9.624523,-0.367,0.81392825,4.295147,-4.1797266,-1.0612948,0
0.11999999999999998,12.116800660847236,5.999999660844059,-5.999999848858742,-2.6034648773321045,11.78485,2.9980772,-4.1790433,-0.021573257,13.494096,-11.471301,2.7086296,-0.4139128,0.15072607,-0.43912983,-0.7830215,-9.613559,-0.26614293,0.78583616,4.539013,-4.4423733,-1.1350129,0
0.12999999999999998,15.14416561909224,5.422724846688926,-5.999999618736733,-2.55117934973489,11.0413685,1.4348471,-4.398546,0.28720576,13.398046,-11.473472,2.7163427,-0.43180272,0.12570786,-0.44677925,-0.77339,-9.595221,-0.16817066,0.75674284,4.7656517,-4.6848726,-1.2069951,0
0.13999999999999999,15.14416561909224,5.422724846688926,-5.999999618736733,-2.55117934973489,11.0413685,1.4348471,-4.398546,0.28720576,13.302248,-11.47455,2.7238503,-0.45006815,0.0994841,-0.45402107,-0.7625,-9.562521,-0.048018157,0.7447851,4.867751,-4.8902555,-1.2729546,0
0.15,15.14416561909224,5.422724846688926,-5.999999618736733,-2.55117934973489,11.0413685,1.4348471,-4.398546,0.28720576,13.206827,-11.4744425,2.7312374,-0.46850073,0.0723527,-0.46060598,-0.75040925,-9.519856,0.06916262,0.73255855,4.9539485,-5.063593,-1.3356775,0
0.16,14.974447964781321,3.2741870780945477,-4.964172341661226,-1.008805450744351,11.505276,-0.25330767,-4.1812477,0.029141832,13.111884,-11.473181,2.7384999,-0.48695037,0.04448452,-0.46649525,-0.7370769,-9.467199,0.18258673,0.71982616,5.0267243,-5.209884,-1.3953226,0
0.17,14.974447964781321,3.2741870780945477,-4.964172341661226,-1.008805450744351,11.505276,-0.25330767,-4.1812477,0.029141832,13.017513,-11.470813,2.7456264,-0.50492823,0.016672112,-0.47125074,-0.72297436,-9.405393,0.29025885,0.70539904,4.7535157,-5.171258,-1.3763561,0
0.18000000000000002,14.974447964781321,3.2741870780945477,-4.964172341661226,-1.008805450744351,11.505276,-0.25330767,-4.1812477,0.029141832,12.923807,-11.467394,2.752605,-0.5220865,-0.01044335,-0.4745843,-0.7085802,-9.334399,0.39280403,0.690121,4.522905,-5.138703,-1.3583204,0
0.19000000000000003,14.974447964781321,3.2741870780945477,-4.964172341661226,-1.008805450744351,11.505276,-0.25330767,-4.1812477,0.029141832,12.830853,-11.462976,2.7594259,-0.53848565,-0.03692878,-0.47666472,-0.69387305,-9.254881,0.48967767,0.67392176,4.3282495,-5.111264,-1.3411696,0
0.20000000000000004,13.722961368567768,1.8313576048886375,-3.2740669570483947,-0.7432940402031947,10.9075165,-0.7940961,-1.9866078,0.30147594,12.738736,-11.457621,2.76608,-0.55417067,-0.06284195,-0.47763202,-0.6788321,-9.167474,0.5803999,0.65672386,4.1639433,-5.0881376,-1.3248605,0
0.21000000000000005,13.722961368567768,1.8313576048886375,-3.2740669570483947,-0.7432940402031947,10.9075165,-0.7940961,-1.9866078,0.30147594,12.64749,-11.451426,2.7725232,-0.56888086,-0.08747052,-0.47759917,-0.66379386,-9.080745,0.65755117,0.6317792,3.8005114,-4.8048496,-1.2963228,0
0.22000000000000006,13.722961368567768,1.8313576048886375,-3.2740669570483947,-0.7432940402031947,10.9075165,-0.7940961,-1.9866078,0.30147594,12.55714,-11.4444895,2.778712,-0.5824625,-0.110264525,-0.47671488,-0.64909315,-8.988176,0.72863185,0.6058268,3.4937057,-4.5658035,-1.2691855,0
0.23000000000000007,13.722961368567768,1.8313576048886375,-3.2740669570483947,-0.7432940402031947,10.9075165,-0.7940961,-1.9866078,0.30147594,12.467743,-11.436873,2.7846365,-0.59508306,-0.13149078,-0.47512513,-0.6346986,-8.890529,0.79367375,0.5788731,3.2347038,-4.3640885,-1.2433798,0
0.24000000000000007,13.722961368567768,1.8313576048886375,-3.2740669570483947,-0.7432940402031947,10.475875,-1.190377,-0.53466964,0.18012814,12.379345,-11.428637,2.7902863,-0.606876,-0.15137714,-0.4729443,-0.6205724,-8.788461,0.85272753,0.55093235,3.0160577,-4.1938744,-1.2188405,0
0.25000000000000006,13.722961368567768,1.8313576048886375,-3.2740669570483947,-0.7432940402031947,10.475875,-1.190377,-0.53466964,0.18012814,12.291987,-11.419839,2.795652,-0.61794806,-0.17011741,-0.47026193,-0.60667443,-8.682544,0.9058531,0.5220217,2.83148,-4.050241,-1.1955053,0
0.26000000000000006,13.722961368567768,1.8313576048886375,-3.2740669570483947,-0.7432940402031947,10.475875,-1.190377,-0.53466964,0.18012814,12.205706,-11.410539,2.8007233,-0.6283845,-0.18787585,-0.46714836,-0.59296536,-8.573278,0.9531133,0.49215788,2.6756628,-3.9290369,-1.173315,0
0.2700000000000001,13.722961368567768,1.8313576048886375,-3.2740669570483947,-0.7432940402031947,10.475875,-1.190377,-0.53466964,0.18012814,12.120532,-11.400796,2.8054917,-0.63825357,-0.20479132,-0.46365893,-0.5794076,-8.461113,0.9945705,0.46135506,2.5441246,-3.826759,-1.1522138,0
0.2800000000000001,12.622763388832576,0.28085434695139416,-1.3138382693267794,-0.3482937818212883,11.596749,-1.1569253,0.7451439,0.064801976,12.036492,-11.390667,2.8099475,-0.64760995,-0.22098085,-0.45983726,-0.56596667,-8.346446,1.0302844,0.42962414,2.4330828,-3.7404516,-1.1321481,0
0.2900000000000001,12.622763388832576,0.28085434695139416,-1.3138382693267794,-0.3482937818212883,11.596749,-1.1569253,0.7451439,0.064801976,11.953563,-11.380221,2.8140552,-0.65625983,-0.23572446,-0.4558759,-0.55311286,-8.239023,1.0579549,0.3917382,2.097808,-3.3617222,-1.0936842,0
0.3000000000000001,12.622763388832576,0.28085434695139416,-1.3138382693267794,-0.3482937818212883,11.596749,-1.1569253,0.7451439,0.064801976,11.8717165,-11.369525,2.81778,-0.66409576,-0.24847779,-0.45196557,-0.54125994,-8.13007,1.080835,0.35311416,1.8147556,-3.0421104,-1.0571077,0
0.3100000000000001,12.622763388832576,0.28085434695139416,-1.3138382693267794,-0.3482937818212883,11.596749,-1.1569253,0.7451439,0.064801976,11.790965,-11.358621,2.8211155,-0.6712656,-0.25956595,-0.4481263,-0.5302927,-8.0199585,1.0993699,0.31387055,1.5757933,-2.7723868,-1.022326,0
0.3200000000000001,12.102952896176882,-1.8388909035134404,0.9746420568292765,0.36569741023626456,12.450309,-2.0578418,2.0583644,0.16183917,11.71132,-11.347551,2.8240557,-0.67788535,-0.2692612,-0.44436592,-0.52010405,-7.9089837,1.1139476,0.2741165,1.3740548,-2.5447626,-0.9892511,0
0.3300000000000001,12.102952896176882,-1.8388909035134404,0.9746420568292765,0.36569741023626456,12.450309,-2.0578418,2.0583644,0.16183917,11.632764,-11.336357,2.8265843,-0.68383265,-0.27678326,-0.44085,-0.5112872,-7.8019905,1.1245145,0.23158696,0.87343925,-1.9955518,-0.9227634,0
0.34000000000000014,12.102952896176882,-1.8388909035134404,0.9746420568292765,0.36569741023626456,12.450309,-2.0578418,2.0583644,0.16183917,11.555281,-11.325071,2.828687,-0.689039,-0.28154197,-0.43772984,-0.5043326,-7.6946893,1.1323558,0.18891734,0.45079544,-1.5320784,-0.85953826,0
0.35000000000000014,12.102952896176882,-1.8388909035134404,0.9746420568292765,0.36569741023626456,12.450309,-2.0578418,2.0583644,0.16183917,11.47887,-11.313717,2.830363,-0.6936452,-0.28399688,-0.43497333,-0.49899858,-7.5873137,1.1381799,0.14635558,0.093984544,-1.1409525,-0.7994155,0
0.36000000000000015,13.139695166050082,-4.0503897903918205,3.2568418860171087,0.5839960456967521,13.305607,-2.7064805,3.2570305,0.41857487,11.403533,-11.302313,2.831615,-0.6977535,-0.2845287,-0.43253988,-0.49506766,-7.4800367,1.1425916,0.10411449,-0.2072437,-0.81087697,-0.7422431,0
0.37000000000000016,13.139695166050082,-4.0503897903918205,3.2568418860171087,0.5839960456967521,13.305607,-2.7064805,3.2570305,0.41857487,11.329314,-11.290867,2.8324711,-0.70128226,-0.2823953,-0.43058,-0.49300724,-7.363834,1.1464752,0.067226656,-0.8062643,-0.1762618,-0.67716414,0
0.38000000000000017,13.139695166050082,-4.0503897903918205,3.2568418860171087,0.5839960456967521,13.305607,-2.7064805,3.2570305,0.41857487,11.256255,-11.279383,2.8329625,-0.7041534,-0.27701813,-0.42920467,-0.4931647,-7.2481084,1.15038,0.031234216,-1.311961,0.35930002,-0.61527866,0
0.3900000000000002,13.139695166050082,-4.0503897903918205,3.2568418860171087,0.5839960456967521,13.305607,-2.7064805,3.2570305,0.41857487,11.184349,-11.267856,2.8330998,-0.70642245,-0.26890185,-0.42830804,-0.49518734,-7.133075,1.155229,-0.0035519619,-1.7388668,0.8112755,-0.5564299,0
0.4000000000000002,16.267570756887963,-5.781848897105702,5.075381239861841,1.0092064200228876,15.537973,-2.9744823,3.690611,0.9996267,11.11359,-11.256272,2.8328962,-0.7081161,-0.25846496,-0.4277871,-0.49876332,-7.018937,1.1618042,-0.036892675,-2.0992522,1.1927148,-0.50046885,0
0.4100000000000002,16.267570756887963,-5.781848897105702,5.075381239861841,1.0092064200228876,15.537973,-2.9744823,3.690611,0.9996267,11.044101,-11.2446,2.8324459,-0.7090763,-0.24522203,-0.42769775,-0.5041338,-6.8790073,1.1729674,-0.052792367,-2.6734393,1.798274,-0.42638862,0
0.4200000000000002,16.267570756887963,-5.781848897105702,5.075381239861841,1.0092064200228876,15.537973,-2.9744823,3.690611,0.9996267,10.976003,-11.232798,2.8318477,-0.7091233,-0.22879227,-0.42804983,-0.51144,-6.740853,1.1882874,-0.066396825,-3.1581569,2.3093276,-0.35594356,0
0.4300000000000002,16.267570756887963,-5.781848897105702,5.075381239861841,1.0092064200228876,15.537973,-2.9744823,3.690611,0.9996267,10.909276,-11.220817,2.8311262,-0.7082257,-0.20963879,-0.42868477,-0.52028507,-6.604945,1.2088429,-0.077511676,-3.567339,2.7406323,-0.28895524,0
0.4400000000000002,16.267570756887963,-5.781848897105702,5.075381239861841,1.0092064200228876,16.79742,-3.6583729,4.901745,1.0868819,10.843895,-11.2086,2.8303065,-0.70634377,-0.18815465,-0.4294596,-0.5303208,-6.471801,1.2355236,-0.086059816,-3.9127502,3.1046383,-0.22525412,0
0.45000000000000023,16.267570756887963,-5.781848897105702,5.075381239861841,1.0092064200228876,16.79742,-3.6583729,4.901745,1.0868819,10.779829,-11.196082,2.8294137,-0.7034369,-0.16467717,-0.43024823,-0.54124284,-6.3419795,1.2690469,-0.09207013,-4.204324,3.411852,-0.16467878,0
0.46000000000000024,16.267570756887963,-5.781848897105702,5.075381239861841,1.0092064200228876,16.79742,-3.6583729,4.901745,1.0868819,10.717042,-11.183192,2.828473,-0.6994686,-0.13949873,-0.43094137,-0.5527863,-6.2160788,1.3099726,-0.09566591,-4.4504476,3.6711383,-0.107075885,0
0.47000000000000025,16.267570756887963,-5.781848897105702,5.075381239861841,1.0092064200228876,16.79742,-3.6583729,4.901745,1.0868819,10.655492,-11.169854,2.8275077,-0.69440836,-0.112874985,-0.43144578,-0.5647213,-6.0947237,1.3587148,-0.09705351,-4.658202,3.8899777,-0.052299596,0
0.48000000000000026,18.74341806401022,-5.99999589926052,5.7137722383745215,1.5901725238572975,16.640549,-3.5857193,5.292484,0.45812756,10.59513,-11.15599,2.8265383,-0.68823296,-0.08503133,-0.4316828,-0.57684875,-5.978557,1.4155515,-0.09651123,-4.833566,4.074683,-0.0002111923,0
0.49000000000000027,18.74341806401022,-5.99999589926052,5.7137722383745215,1.5901725238572975,16.640549,-3.5857193,5.292484,0.45812756,10.535986,-11.141466,2.825659,-0.6807777,-0.055990208,-0.43170366,-0.5890994,-5.8514423,1.49056,-0.07913038,-5.01569,4.3300433,0.077829406,0
0.5000000000000002,18.74341806401022,-5.99999589926052,5.7137722383745215,1.5901725238572975,16.640549,-3.5857193,5.292484,0.45812756,10.478076,-11.126145,2.8249605,-0.67189246,-0.025790548,-0.43153626,-0.6013911,-5.731855,1.5752586,-0.06042247,-5.169422,4.5455775,0.15204051,0
0.5100000000000002,18.74341806401022,-5.99999589926052,5.7137722383745215,1.5901725238572975,16.640549,-3.5857193,5.292484,0.45812756,10.421321,-11.109929,2.8244534,-0.66158515,0.0053540943,-0.43108967,-0.61354506,-5.620597,1.6696926,-0.040955096,-5.299185,4.7275004,0.22261007,0
0.5200000000000002,19.45635979367553,-5.566875438537998,4.747596707332393,1.2243890452756612,17.562943,-3.4555864,5.503478,0.7336965,10.365633,-11.092718,2.824142,-0.64986926,0.037251316,-0.43028906,-0.6254064,-5.5184526,1.7737461,-0.021339998,-5.408711,4.881057,0.28971675,0
0.5300000000000002,19.45635979367553,-5.566875438537998,4.747596707332393,1.2243890452756612,17.562943,-3.4555864,5.503478,0.7336965,10.310936,-11.074399,2.8240473,-0.6369726,0.06939166,-0.42893496,-0.63676137,-5.422646,1.8914394,0.002250827,-5.433518,4.860077,0.33558142,0
0.5400000000000003,19.45635979367553,-5.566875438537998,4.747596707332393,1.2243890452756612,17.562943,-3.4555864,5.503478,0.7336965,10.257143,-11.054857,2.8241837,-0.62311924,0.101355,-0.42689124,-0.64746654,-5.3376656,2.0182204,0.024749653,-5.454449,4.842376,0.37919545,0
0.5500000000000003,19.45635979367553,-5.566875438537998,4.747596707332393,1.2243890452756612,17.562943,-3.4555864,5.503478,0.7336965,10.204144,-11.034005,2.824537,-0.60832244,0.13309973,-0.42418674,-0.65749025,-5.2640142,2.153374,0.04559584,-5.472109,4.8274436,0.42066935,0
0.5600000000000003,18.022473459652236,-4.128828535528783,3.117277533794306,1.0149361773773624,15.376183,-3.2977188,3.8922095,1.1568215,10.151822,-11.011763,2.825088,-0.5925987,0.16458525,-0.42084748,-0.6668024,-5.2021337,2.2961397,0.06423495,-5.487008,4.8148465,0.4601081,0
0.5700000000000003,18.022473459652236,-4.128828535528783,3.117277533794306,1.0149361773773624,15.376183,-3.2977188,3.8922095,1.1568215,10.1000395,-10.988113,2.8257701,-0.5763712,0.19501159,-0.41690373,-0.6752463,-5.1560106,2.4346573,0.07174456,-5.275202,4.550081,0.4873337,0
0.5800000000000003,18.022473459652236,-4.128828535528783,3.117277533794306,1.0149361773773624,15.376183,-3.2977188,3.8922095,1.1568215,10.048663,-10.963051,2.8265133,-0.56004685,0.22376116,-0.41243172,-0.6827724,-5.1209903,2.578473,0.07640412,-5.0964284,4.3266068,0.51322323,0
0.5900000000000003,18.022473459652236,-4.128828535528783,3.117277533794306,1.0149361773773624,15.376183,-3.2977188,3.8922095,1.1568215,9.9975815,-10.936528,2.8272877,-0.54361296,0.25104487,-0.4075088,-0.6894908,-5.0968437,2.7266345,0.07797891,-4.945535,4.137984,0.53784245,0
0.6000000000000003,15.419560072678427,-2.3328263312253537,1.1429936433494645,0.7262095399310833,14.535054,-3.6708999,2.7711773,1.1091416,9.946689,-10.908506,2.8280616,-0.5270538,0.27704135,-0.40219522,-0.6954862,-5.0833416,2.8782835,0.07626865,-4.8181753,3.978776,0.56125355,0
0.6100000000000003,15.419560072678427,-2.3328263312253537,1.1429936433494645,0.7262095399310833,14.535054,-3.6708999,2.7711773,1.1091416,9.895875,-10.8790655,2.8287337,-0.5109097,0.30099595,-0.3966258,-0.700757,-5.080638,3.010327,0.057709284,-4.430444,3.5366554,0.569348,0
0.6200000000000003,15.419560072678427,-2.3328263312253537,1.1429936433494645,0.7262095399310833,14.535054,-3.6708999,2.7711773,1.1091416,9.845048,-10.848295,2.8292058,-0.4956632,0.32235345,-0.39095414,-0.70537984,-5.0861716,3.1439548,0.036314834,-4.103199,3.1634657,0.5770452,0
0.6300000000000003,15.419560072678427,-2.3328263312253537,1.1429936433494645,0.7262095399310833,14.535054,-3.6708999,2.7711773,1.1091416,9.794127,-10.816183,2.8294506,-0.4812073,0.34151953,-0.38523766,-0.7095037,-5.099276,3.2785563,0.012257199,-3.8270056,2.8484597,0.5843647,0
0.6400000000000003,15.419560072678427,-2.3328263312253537,1.1429936433494645,0.7262095399310833,14.055091,-3.1396005,1.9217362,1.0806191,9.74304,-10.782722,2.8294423,-0.4674385,0.35883456,-0.37951332,-0.7132379,-5.1193705,3.4136457,-0.0142930355,-3.5939,2.5825653,0.59132504,0
0.6500000000000004,15.419560072678427,-2.3328263312253537,1.1429936433494645,0.7262095399310833,14.055091,-3.1396005,1.9217362,1.0806191,9.691719,-10.74791,2.8291564,-0.4542601,0.37458372,-0.3738037,-0.7166626,-5.1459494,3.5488312,-0.04317417,-3.3971603,2.358126,0.5979439,0
0.6600000000000004,15.419560072678427,-2.3328263312253537,1.1429936433494645,0.7262095399310833,14.055091,-3.1396005,1.9217362,1.0806191,9.6401005,-10.711746,2.828571,-0.44158423,0.38900587,-0.36812153,-0.71983606,-5.1785765,3.6837935,-0.07423747,-3.2311132,2.1686783,0.6042379,0
0.6700000000000004,15.419560072678427,-2.3328263312253537,1.1429936433494645,0.7262095399310833,14.055091,-3.1396005,1.9217362,1.0806191,9.588128,-10.674236,2.8276649,-0.42933226,0.40230092,-0.36247277,-0.7228007,-5.216873,3.8182685,-0.10734902,-3.0909708,2.0087667,0.61022305,0
0.6800000000000004,13.583424082196661,-0.6558819841656784,-0.678361699276132,0.44008318715723976,12.667723,-1.8058174,0.37751317,0.7270864,9.535746,-10.635385,2.8264177,-0.41743472,0.41463622,-0.3568588,-0.725587,-5.2605124,3.9520335,-0.14239012,-2.972692,1.8737856,0.6159145,0
0.6900000000000004,13.583424082196661,-0.6558819841656784,-0.678361699276132,0.44008318715723976,12.667723,-1.8058174,0.37751317,0.7270864,9.482929,-10.595279,2.8247743,-0.40640068,0.4253618,-0.35145316,-0.7282762,-5.303361,4.069081,-0.18651527,-2.6112187,1.4759395,0.6072864,0
0.7000000000000004,13.583424082196661,-0.6558819841656784,-0.678361699276132,0.44008318715723976,12.667723,-1.8058174,0.37751317,0.7270864,9.429666,-10.554008,2.8226829,-0.3966511,0.43399283,-0.34641278,-0.7309692,-5.3500705,4.18523,-0.23191372,-2.3061461,1.1401106,0.5990817,0
0.7100000000000004,13.583424082196661,-0.6558819841656784,-0.678361699276132,0.44008318715723976,12.667723,-1.8058174,0.37751317,0.7270864,9.375917,-10.511579,2.8201325,-0.38800478,0.4408753,-0.34170637,-0.7337013,-5.400087,4.300423,-0.27825442,-2.0486734,0.8566319,0.5912796,0
0.7200000000000004,12.48709489061927,1.0053256139322688,-2.1238323312336886,0.18503503648189726,11.454648,-1.3511239,-0.22111201,0.88319373,9.321654,-10.468002,2.8171153,-0.38030222,0.44629565,-0.33730015,-0.7364907,-5.4529457,4.414636,-0.32524967,-1.8313733,0.61734295,0.5838604,0
0.7300000000000004,12.48709489061927,1.0053256139322688,-2.1238323312336886,0.18503503648189726,11.454648,-1.3511239,-0.22111201,0.88319373,9.266872,-10.423334,2.8136053,-0.37392145,0.4498263,-0.3334195,-0.73937136,-5.5037518,4.5187364,-0.3767195,-1.3888265,0.19004449,0.5642899,0
0.7400000000000004,12.48709489061927,1.0053256139322688,-2.1238323312336886,0.18503503648189726,11.454648,-1.3511239,-0.22111201,0.88319373,9.211574,-10.377629,2.8095803,-0.36915997,0.45114747,-0.33024558,-0.7423774,-5.556197,4.6220193,-0.42818642,-1.0153291,-0.17065346,0.54567975,0
0.7500000000000004,12.48709489061927,1.0053256139322688,-2.1238323312336886,0.18503503648189726,11.454648,-1.3511239,-0.22111201,0.88319373,9.155744,-10.330895,2.8050427,-0.36577582,0.4506165,-0.32768148,-0.7455046,-5.6097183,4.72459,-0.47930333,-0.7001063,-0.47513053,0.5279828,0
0.7600000000000005,11.918056661246082,2.1647068658957367,-3.326197677337902,-0.05789653119554865,10.2359705,-0.65733945,-1.0895181,0.47616485,9.099376,-10.283139,2.7999969,-0.36355898,0.44852766,-0.32563832,-0.74873686,-5.6638403,4.826547,-0.5297775,-0.4340647,-0.73214823,0.51115423,0
0.7700000000000005,11.918056661246082,2.1647068658957367,-3.326197677337902,-0.05789653119554865,10.2359705,-0.65733945,-1.0895181,0.47616485,9.0424795,-10.234389,2.7944393,-0.36271456,0.4446042,-0.3241959,-0.75210476,-5.715657,4.9233623,-0.58155626,-0.02867335,-1.136553,0.4832307,0
0.7800000000000005,11.918056661246082,2.1647068658957367,-3.326197677337902,-0.05789653119554865,10.2359705,-0.65733945,-1.0895181,0.47616485,8.985065,-10.184673,2.7883697,-0.36339062,0.43863204,-0.3234076,-0.75561625,-5.767114,5.0197945,-0.6321511,0.31346518,-1.4779243,0.45667747,0
0.7900000000000005,11.918056661246082,2.1647068658957367,-3.326197677337902,-0.05789653119554865,10.2359705,-0.65733945,-1.0895181,0.47616485,8.927141,-10.133993,2.7818012,-0.36534,0.43091592,-0.32316044,-0.7592132,-5.817706,5.1159434,-0.68126553,0.6022222,-1.7660855,0.43142718,0
0.8000000000000005,12.019300663275532,2.65109126925891,-3.8335474528959343,-0.23356799309854873,10.184773,0.09122756,-2.4789171,0.056800768,8.868716,-10.082354,2.7747502,-0.36835018,0.42170858,-0.3233545,-0.76283747,-5.8669934,5.211878,-0.7286621,0.845928,-2.0093288,0.40741593,0
0.8100000000000005,12.019300663275532,2.65109126925891,-3.8335474528959343,-0.23356799309854873,10.184773,0.09122756,-2.4789171,0.056800768,8.809805,-10.029752,2.7672367,-0.37240204,0.41100016,-0.32396626,-0.7664467,-5.9149857,5.3084536,-0.7737007,1.127471,-2.2937627,0.37596264,0
0.8200000000000005,12.019300663275532,2.65109126925891,-3.8335474528959343,-0.23356799309854873,10.184773,0.09122756,-2.4789171,0.056800768,8.750423,-9.976185,2.7592833,-0.37746575,0.39878815,-0.32496613,-0.76998943,-5.9608407,5.4048805,-0.816622,1.3650883,-2.5338593,0.34605283,0
0.8300000000000005,12.019300663275532,2.65109126925891,-3.8335474528959343,-0.23356799309854873,10.184773,0.09122756,-2.4789171,0.056800768,8.690596,-9.921656,2.7509122,-0.3833575,0.38527718,-0.32626432,-0.773401,-6.004158,5.5011535,-0.8572725,1.565635,-2.7365286,0.31761065,0
0.8400000000000005,12.019300663275532,2.65109126925891,-3.8335474528959343,-0.23356799309854873,10.917153,0.53952074,-2.5697155,-0.29929212,8.630349,-9.866165,2.742146,-0.38992015,0.37064058,-0.3277833,-0.7766241,-6.044585,5.5972357,-0.89554745,1.7348957,-2.9076035,0.29056412,0
0.8500000000000005,12.019300663275532,2.65109126925891,-3.8335474528959343,-0.23356799309854873,10.917153,0.53952074,-2.5697155,-0.29929212,8.5697155,-9.809713,2.7330093,-0.39701948,0.3550259,-0.32945666,-0.7796085,-6.08181,5.693061,-0.9313842,1.8777523,-3.0520084,0.2648448,0
0.8600000000000005,12.019300663275532,2.65109126925891,-3.8335474528959343,-0.23356799309854873,10.917153,0.53952074,-2.5697155,-0.29929212,8.508726,-9.752305,2.7235267,-0.40454087,0.33855963,-0.33122787,-0.7823114,-6.1155577,5.788541,-0.9647573,1.9983246,-3.1739,0.24038753,0
0.8700000000000006,12.019300663275532,2.65109126925891,-3.8335474528959343,-0.23356799309854873,10.917153,0.53952074,-2.5697155,-0.29929212,8.447417,-9.693944,2.7137225,-0.41238648,0.3213507,-0.3330489,-0.7846964,-6.145585,5.883564,-0.99567354,2.1000896,-3.2767873,0.2171304,0
0.8800000000000006,12.12826211933098,2.3231924682152303,-3.669617627802386,-0.30904100779658794,11.882019,1.4030547,-2.1709404,-0.2755417,8.385828,-9.634637,2.7036214,-0.42047274,0.30349338,-0.33487928,-0.78673327,-6.1716805,5.9780025,-1.0241678,2.185982,-3.3636332,0.1950145,0
0.8900000000000006,12.12826211933098,2.3231924682152303,-3.669617627802386,-0.30904100779658794,11.882019,1.4030547,-2.1709404,-0.2755417,8.3239975,-9.574384,2.6932504,-0.42867523,0.28518045,-0.33660707,-0.7884188,-6.1938653,6.0725636,-1.0496477,2.2073312,-3.4113843,0.17028035,0
0.9000000000000006,12.12826211933098,2.3231924682152303,-3.669617627802386,-0.30904100779658794,11.882019,1.4030547,-2.1709404,-0.2755417,8.261966,-9.513188,2.6826363,-0.43689758,0.2665751,-0.33814463,-0.78975654,-6.2117944,6.1662292,-1.0728287,2.225351,-3.4516876,0.14675991,0
0.9100000000000006,12.12826211933098,2.3231924682152303,-3.669617627802386,-0.30904100779658794,11.882019,1.4030547,-2.1709404,-0.2755417,8.199777,-9.451062,2.6718016,-0.44511086,0.24771343,-0.3394934,-0.79073226,-6.225391,6.2588334,-1.0938107,2.240562,-3.485705,0.12439363,0
0.9200000000000006,12.292150347575495,1.4661696381021523,-2.9851421125078015,-0.28021214108997083,12.250827,1.1898502,-2.3603623,-0.10294689,8.137473,-9.388017,2.6607673,-0.4532897,0.22862755,-0.34065503,-0.7913349,-6.2345924,6.3502073,-1.1127048,2.2534018,-3.5144157,0.10312486,1
0.9300000000000006,12.292150347575495,1.4661696381021523,-2.9851421125078015,-0.28021214108997083,12.250827,1.1898502,-2.3603623,-0.10294689,8.075099,-9.3240595,2.6495583,-0.46111614,0.20996095,-0.34152016,-0.791613,-6.239432,6.441101,-1.128822,2.0875075,-3.3344667,0.093012854,1
0.9400000000000006,12.292150347575495,1.4661696381021523,-2.9851421125078015,-0.28021214108997083,12.250827,1.1898502,-2.3603623,-0.10294689,8.012699,-9.259201,2.6381972,-0.46835947,0.19223645,-0.34201986,-0.7916475,-6.240014,6.5304837,-1.1431547,1.9474891,-3.1825764,0.083397046,1
0.9500000000000006,12.292150347575495,1.4661696381021523,-2.9851421125078015,-0.28021214108997083,12.250827,1.1898502,-2.3603623,-0.10294689,7.950313,-9.193456,2.6267009,-0.4751135,0.17531538,-0.34220845,-0.7914694,-6.2365828,6.618278,-1.1558903,1.8293105,-3.05437,0.0742531,1
0.9600000000000006,12.003751185759299,0.282856475125341,-2.1597083721022923,-0.13322283029821103,11.822606,-0.3304896,-0.94204485,0.37817058,7.8879805,-9.126841,2.6150844,-0.48145458,0.15907869,-0.3421304,-0.79110104,-6.229348,6.7044196,-1.1671913,1.7295651,-2.9461546,0.065557845,0
0.9700000000000006,12.003751185759299,0.282856475125341,-2.1597083721022923,-0.13322283029821103,11.822606,-0.3304896,-0.94204485,0.37817058,7.825737,-9.0593815,2.6033525,-0.487366,0.14366521,-0.34157428,-0.7906708,-6.21873,6.7871466,-1.1789706,1.5039284,-2.8235283,0.05580361,0
0.9800000000000006,12.003751185759299,0.282856475125341,-2.1597083721022923,-0.13322283029821103,11.822606,-0.3304896,-0.94204485,0.37817058,7.7636166,-8.991104,2.591509,-0.49284765,0.12918262,-0.34037784,-0.7902876,-6.2048626,6.8681297,-1.1895645,1.3134826,-2.720021,0.046528023,0
0.9900000000000007,12.003751185759299,0.282856475125341,-2.1597083721022923,-0.13322283029821103,11.822606,-0.3304896,-0.94204485,0.37817058,7.7016497,-8.922025,2.5795653,-0.49797678,0.11549368,-0.33863994,-0.78993785,-6.1880236,6.9473095,-1.1990359,1.1527394,-2.6326518,0.037707593,0
1.0000000000000007,11.751319523785472,-0.8988636636325796,-1.2275771414741967,0.09820472158543223,10.956732,-0.9835032,0.42453003,0.16962843,7.6398654,-8.852162,2.5675323,-0.502815,0.10248089,-0.336443,-0.78960705,-6.1684494,7.024636,-1.2074391,1.0170658,-2.5589051,0.02931999,0
1.0100000000000007,11.751319523785472,-0.8988636636325796,-1.2275771414741967,0.09820472158543223,10.956732,-0.9835032,0.42453003,0.16962843,7.578287,-8.781546,2.5554104,-0.50721973,0.09056774,-0.33367482,-0.7894208,-6.1468377,7.0984893,-1.2167293,0.718279,-2.3512895,0.03270018,0
1.0200000000000007,11.751319523785472,-0.8988636636325796,-1.2275771414741967,0.09820472158543223,10.956732,-0.9835032,0.42453003,0.16962843,7.5169353,-8.710198,2.5432007,-0.5110905,0.08008602,-0.33025664,-0.7894946,-6.1231465,7.1705146,-1.2250524,0.46608728,-2.1760514,0.035914496,0
1.0300000000000007,11.751319523785472,-0.8988636636325796,-1.2275771414741967,0.09820472158543223,10.956732,-0.9835032,0.42453003,0.16962843,7.455829,-8.638141,2.5309124,-0.5145257,0.07081822,-0.3262946,-0.7897964,-6.0977488,7.2407484,-1.2324275,0.25322437,-2.0281417,0.038971085,0
1.0400000000000007,11.751319523785472,-0.8988636636325796,-1.2275771414741967,0.09820472158543223,11.541244,-1.5131999,0.9037246,0.65608525,7.3949842,-8.56539,2.5185554,-0.5176034,0.0625791,-0.321876,-0.7902941,-6.0709586,7.3092275,-1.238866,0.07355748,-1.9032986,0.041877706,0
1.0500000000000007,11.751319523785472,-0.8988636636325796,-1.2275771414741967,0.09820472158543223,11.541244,-1.5131999,0.9037246,0.65608525,7.334414,-8.4919615,2.5061386,-0.5203859,0.055211205,-0.31707302,-0.7909572,-6.0430403,7.3759847,-1.2443755,-0.07809054,-1.7979244,0.044641692,0
1.0600000000000007,11.751319523785472,-0.8988636636325796,-1.2275771414741967,0.09820472158543223,11.541244,-1.5131999,0.9037246,0.65608525,7.274127,-8.417875,2.4936712,-0.5229231,0.048580837,-0.3119455,-0.7917574,-6.0142164,7.441049,-1.2489618,-0.20608923,-1.7089831,0.047270045,0
1.0700000000000007,11.751319523785472,-0.8988636636325796,-1.2275771414741967,0.09820472158543223,11.541244,-1.5131999,0.9037246,0.65608525,7.2141323,-8.343146,2.4811625,-0.5252548,0.042574592,-0.30654317,-0.79266924,-5.984676,7.5044456,-1.2526306,-0.31412667,-1.6339117,0.04976943,0
1.0800000000000007,11.762563867955357,-1.9087735495059288,-0.2658846174773341,0.4155135397243401,12.246419,-1.1952044,1.1876659,1.1016693,7.1544356,-8.267792,2.4686215,-0.5274132,0.037096348,-0.30090752,-0.7936701,-5.954579,7.5661955,-1.2553879,-0.40531573,-1.5705476,0.052146167,0
1.0900000000000007,11.762563867955357,-1.9087735495059288,-0.2658846174773341,0.4155135397243401,12.246419,-1.1952044,1.1876659,1.1016693,7.0950427,-8.191828,2.4560583,-0.52926433,0.03257197,-0.29495734,-0.79486907,-5.924058,7.626382,-1.257147,-0.63977,-1.3671013,0.0699767,0
1.1000000000000008,11.762563867955357,-1.9087735495059288,-0.2658846174773341,0.4155135397243401,12.246419,-1.1952044,1.1876659,1.1016693,7.035955,-8.115269,2.4434817,-0.5307045,0.029334595,-0.28863102,-0.7963558,-5.8934364,7.6850324,-1.2579948,-0.8376649,-1.1953853,0.08693229,0
1.1100000000000008,11.762563867955357,-1.9087735495059288,-0.2658846174773341,0.4155135397243401,12.246419,-1.1952044,1.1876659,1.1016693,6.9771724,-8.038132,2.4309013,-0.5317953,0.02718379,-0.28198588,-0.7980833,-5.863014,7.74224,-1.2579248,-1.0047007,-1.0504501,0.10305587,0
1.1200000000000008,12.107815992203198,-2.813310994706433,0.6306527938183918,0.7311357362117037,12.331714,-1.843076,1.4111955,1.452005,6.9186926,-7.9604297,2.4183264,-0.532586,0.025949951,-0.2750692,-0.8000087,-5.833046,7.7980824,-1.2569335,-1.1456889,-0.92811835,0.11838826,1
1.1300000000000008,12.107815992203198,-2.813310994706433,0.6306527938183918,0.7311357362117037,12.331714,-1.843076,1.4111955,1.452005,6.860516,-7.8821616,2.4057899,-0.53283185,0.025978005,-0.26830265,-0.8021392,-5.8023443,7.8552933,-1.2501945,-1.254449,-0.5633654,0.18382923,1
1.1400000000000008,12.107815992203198,-2.813310994706433,0.6306527938183918,0.7311357362117037,12.331714,-1.843076,1.4111955,1.452005,6.8026423,-7.8033276,2.3933253,-0.53233224,0.02753144,-0.26202393,-0.8044913,-5.772647,7.9114323,-1.2425902,-1.3462707,-0.25549918,0.24605899,1
1.1500000000000008,12.107815992203198,-2.813310994706433,0.6306527938183918,0.7311357362117037,12.331714,-1.843076,1.4111955,1.452005,6.745059,-7.723936,2.380941,-0.53117955,0.030368013,-0.2561548,-0.8070373,-5.744225,7.9667788,-1.2342203,-1.4237883,0.004353717,0.30523512,1
1.1600000000000008,12.874320047449581,-3.520403371878535,1.1673105332278273,1.0260524609072317,12.853477,-2.7625885,2.3537476,1.794888,6.687753,-7.643994,2.3686435,-0.5294484,0.034282986,-0.25062793,-0.80974877,-5.7173095,8.021566,-1.2251719,-1.4892273,0.22368246,0.36150748,0
1.1700000000000008,12.874320047449581,-3.520403371878535,1.1673105332278273,1.0260524609072317,12.853477,-2.7625885,2.3537476,1.794888,6.6307135,-7.563494,2.3564634,-0.5272411,0.039392054,-0.24478734,-0.8127377,-5.6910167,8.078362,-1.2107668,-1.8060304,0.37072834,0.39411688,0
1.1800000000000008,12.874320047449581,-3.520403371878535,1.1673105332278273,1.0260524609072317,12.853477,-2.7625885,2.3537476,1.794888,6.5739255,-7.482428,2.3444307,-0.52463484,0.04577671,-0.23810367,-0.8160684,-5.6669145,8.134803,-1.195695,-2.0734277,0.4948446,0.42512614,0
1.1900000000000008,12.874320047449581,-3.520403371878535,1.1673105332278273,1.0260524609072317,12.853477,-2.7625885,2.3537476,1.794888,6.517366,-7.4007993,2.3325522,-0.5216511,0.053231124,-0.2306948,-0.8196492,-5.6453915,8.190879,-1.1799251,-2.299123,0.5996089,0.45461378,0
1.2000000000000008,13.863473618682994,-3.9732554335662162,1.3409165064871953,1.2104720558547155,13.13131,-2.8340077,1.9836764,1.6752293,6.4610076,-7.3186116,2.3208349,-0.518307,0.0615811,-0.2226605,-0.82339925,-5.6267776,8.246566,-1.1634539,-2.48962,0.6880401,0.48265445,0
1.2100000000000009,13.863473618682994,-3.9732554335662162,1.3409165064871953,1.2104720558547155,13.13131,-2.8340077,1.9836764,1.6752293,6.4048257,-7.235848,2.30933,-0.51456976,0.07082491,-0.21397321,-0.8272942,-5.610182,8.306069,-1.1374471,-2.7210424,0.7897201,0.51836866,0
1.2200000000000009,13.863473618682994,-3.9732554335662162,1.3409165064871953,1.2104720558547155,13.13131,-2.8340077,1.9836764,1.6752293,6.348791,-7.152492,2.2980886,-0.51040655,0.080951445,-0.20461416,-0.8313023,-5.59737,8.365049,-1.1107451,-2.9163723,0.8755486,0.5523304,0
1.2300000000000009,13.863473618682994,-3.9732554335662162,1.3409165064871953,1.2104720558547155,13.13131,-2.8340077,1.9836764,1.6752293,6.2928643,-7.068549,2.2871172,-0.5058303,0.091811486,-0.19467437,-0.83534825,-5.58865,8.423431,-1.083411,-3.0812385,0.9479985,0.58462554,0
1.2400000000000009,13.863473618682994,-3.9732554335662162,1.3409165064871953,1.2104720558547155,13.583792,-2.8524878,1.9440234,1.7368002,6.2370033,-6.9840255,2.2764223,-0.5008525,0.10327822,-0.18423213,-0.8393672,-5.584279,8.481126,-1.0555338,-3.2203915,1.0091566,0.61533606,0
1.2500000000000009,13.863473618682994,-3.9732554335662162,1.3409165064871953,1.2104720558547155,13.583792,-2.8524878,1.9440234,1.7368002,6.1811633,-6.898929,2.2660081,-0.49548402,0.1152437,-0.17335503,-0.8433036,-5.584472,8.5380335,-1.0272247,-3.337841,1.0607839,0.64453954,0
1.260000000000001,13.863473618682994,-3.9732554335662162,1.3409165064871953,1.2104720558547155,13.583792,-2.8524878,1.9440234,1.7368002,6.1252975,-6.8132677,2.2558787,-0.48973516,0.12761593,-0.16210163,-0.84711,-5.589404,8.5940485,-0.9986133,-3.436972,1.1043667,0.67231,0
1.270000000000001,13.863473618682994,-3.9732554335662162,1.3409165064871953,1.2104720558547155,13.583792,-2.8524878,1.9440234,1.7368002,6.0693583,-6.7270517,2.2460363,-0.48361605,0.14031634,-0.15052295,-0.85074574,-5.599216,8.649056,-0.96984494,-3.5206404,1.1411593,0.6987178,0
1.280000000000001,14.322733371786512,-3.8869557689228804,1.2655699703451888,1.2358672469743792,14.677438,-3.2208014,1.9647121,1.9902916,6.013296,-6.6402907,2.2364817,-0.4771366,0.15327771,-0.13866353,-0.8541766,-5.6140156,8.702936,-0.94107723,-3.5912588,1.1722205,0.7238297,1
1.290000000000001,14.322733371786512,-3.8869557689228804,1.2655699703451888,1.2358672469743792,14.677438,-3.2208014,1.9647121,1.9902916,5.957055,-6.552982,2.2272513,-0.4702391,0.16650036,-0.12695381,-0.8573413,-5.6350417,8.758678,-0.9050471,-3.5335968,1.2956932,0.7859753,1
1.300000000000001,14.322733371786512,-3.8869557689228804,1.2655699703451888,1.2358672469743792,14.677438,-3.2208014,1.9647121,1.9902916,5.9005766,-6.4651217,2.2183795,-0.46287975,0.17998505,-0.115742125,-0.86020344,-5.6614265,8.813141,-0.8694382,-3.4849234,1.3999168,0.8450714,1
1.310000000000001,14.322733371786512,-3.8869557689228804,1.2655699703451888,1.2358672469743792,14.677438,-3.2208014,1.9647121,1.9902916,5.843808,-6.3767233,2.2098603,-0.45508558,0.19367832,-0.10495396,-0.86276823,-5.693142,8.866362,-0.83448935,-3.4438367,1.4878929,0.90126765,1
1.320000000000001,14.829651910602747,-3.4566757192042425,0.732108657017363,1.2043190298582196,14.87873,-3.0766914,1.4928353,1.8607974,5.786696,-6.287799,2.2016866,-0.44687957,0.20753378,-0.09452706,-0.86503845,-5.7301517,8.918357,-0.80042624,-3.4091523,1.5621542,0.9547064,1
1.330000000000001,14.829651910602747,-3.4566757192042425,0.732108657017363,1.2043190298582196,14.87873,-3.0766914,1.4928353,1.8607974,5.729184,-6.198357,2.1938572,-0.43832558,0.22132373,-0.084372506,-0.86704457,-5.772982,8.96981,-0.7656598,-3.3573432,1.5512787,0.9991685,1
1.340000000000001,14.829651910602747,-3.4566757192042425,0.732108657017363,1.2043190298582196,14.87873,-3.0766914,1.4928353,1.8607974,5.6712184,-6.108407,2.1863692,-0.4294796,0.23486628,-0.07441959,-0.86881834,-5.8210087,9.019936,-0.73216903,-3.3136122,1.5421016,1.0414488,1
1.350000000000001,14.829651910602747,-3.4566757192042425,0.732108657017363,1.2043190298582196,14.87873,-3.0766914,1.4928353,1.8607974,5.612747,-6.017963,2.179209,-0.42034972,0.24818555,-0.064644806,-0.87036175,-5.8740983,9.068648,-0.7001001,-3.2766995,1.5343575,1.0816544,1
1.360000000000001,14.58663369723223,-2.817362665881963,-0.29943265507325995,0.9764876477336253,14.758414,-3.0936897,0.91546416,1.5997833,5.55372,-5.927039,2.172362,-0.4109437,0.26130122,-0.05502838,-0.8716751,-5.932122,9.115858,-0.6695927,-3.2455416,1.5278232,1.1198871,0
1.370000000000001,14.58663369723223,-2.817362665881963,-0.29943265507325995,0.9764876477336253,14.758414,-3.0936897,0.91546416,1.5997833,5.494094,-5.8356557,2.165799,-0.40143138,0.27356845,-0.0453236,-0.87290174,-5.993692,9.16055,-0.6432475,-3.1785538,1.242927,1.1128503,0
1.380000000000001,14.58663369723223,-2.817362665881963,-0.29943265507325995,0.9764876477336253,14.758414,-3.0936897,0.91546416,1.5997833,5.4338307,-5.7438345,2.1594913,-0.39196327,0.28448135,-0.03533723,-0.87417674,-6.059633,9.203386,-0.6184981,-3.1220474,1.0024514,1.106159,0
1.390000000000001,14.58663369723223,-2.817362665881963,-0.29943265507325995,0.9764876477336253,14.758414,-3.0936897,0.91546416,1.5997833,5.3728876,-5.651595,2.1534238,-0.38251927,0.2942413,-0.025124228,-0.8754818,-6.1296043,9.244087,-0.59526145,-3.0743825,0.79947037,1.099796,0
1.400000000000001,14.294509254991578,-2.070588541694047,-1.3925306133386843,0.6183027467775021,15.673072,-2.8135283,-0.5929189,0.7618524,5.311226,-5.558961,2.1475813,-0.3730824,0.30301756,-0.014729463,-0.8767961,-6.2033067,9.282416,-0.5734691,-3.0341752,0.6281378,1.0937452,0
1.410000000000001,14.294509254991578,-2.070588541694047,-1.3925306133386843,0.6183027467775021,15.673072,-2.8135283,-0.5929189,0.7618524,5.2488174,-5.4659595,2.1419377,-0.363775,0.3104599,-0.0042767962,-0.87821555,-6.2788982,9.31745,-0.555421,-2.8836749,0.31316692,1.070415,0
1.420000000000001,14.294509254991578,-2.070588541694047,-1.3925306133386843,0.6183027467775021,15.673072,-2.8135283,-0.5929189,0.7618524,5.1856384,-5.3726215,2.136469,-0.35470155,0.31630403,0.0061318506,-0.8798293,-6.3574386,9.349763,-0.5385458,-2.7566884,0.04729271,1.0482297,0
1.430000000000001,14.294509254991578,-2.070588541694047,-1.3925306133386843,0.6183027467775021,15.673072,-2.8135283,-0.5929189,0.7618524,5.12166,-5.2789745,2.1311634,-0.34582335,0.3207952,0.016493704,-0.88160264,-6.438512,9.3791895,-0.5226582,-2.6495404,-0.17713717,1.027133,0
1.440000000000001,14.294509254991578,-2.070588541694047,-1.3925306133386843,0.6183027467775021,16.551956,-2.657741,-1.6009254,0.6646713,5.0568604,-5.185048,2.1260128,-0.33710685,0.32413897,0.026808085,-0.88350034,-6.52176,9.405598,-0.50760084,-2.5591311,-0.36658317,1.0070716,0
1.450000000000001,14.294509254991578,-2.070588541694047,-1.3925306133386843,0.6183027467775021,16.551956,-2.657741,-1.6009254,0.6646713,4.9912186,-5.0908732,2.121009,-0.3285234,0.32650745,0.037075665,-0.8854881,-6.606868,9.428876,-0.4932423,-2.4828448,-0.5264982,0.9879947,0
1.460000000000001,14.294509254991578,-2.070588541694047,-1.3925306133386843,0.6183027467775021,16.551956,-2.657741,-1.6009254,0.6646713,4.924718,-4.996482,2.116146,-0.32004878,0.32804522,0.047297925,-0.8875339,-6.6935596,9.448937,-0.47947502,-2.4184744,-0.66148543,0.96985376,0
1.470000000000001,14.294509254991578,-2.070588541694047,-1.3925306133386843,0.6183027467775021,16.551956,-2.657741,-1.6009254,0.6646713,4.857343,-4.901906,2.111418,-0.3116627,0.32887363,0.057476792,-0.8896085,-6.781591,9.465708,-0.466213,-2.3641586,-0.7754306,0.95260304,0
1.480000000000001,14.319077310850579,-1.2090931884421436,-1.9458592829122434,0.24795409538846258,16.453104,-2.016883,-2.1010933,0.30346224,4.789082,-4.8071795,2.10682,-0.3033483,0.3290947,0.067614384,-0.8916856,-6.870743,9.479129,-0.45338896,-2.3183262,-0.8716136,0.93619883,0
1.490000000000001,14.319077310850579,-1.2090931884421436,-1.9458592829122434,0.24795409538846258,16.453104,-2.016883,-2.1010933,0.30346224,4.7199244,-4.712335,2.1023498,-0.29523087,0.32849056,0.07748679,-0.89382714,-6.9609537,9.489179,-0.44074768,-2.1452627,-1.0389888,0.9024265,0
1.500000000000001,14.319077310850579,-1.2090931884421436,-1.9458592829122434,0.24795409538846258,16.453104,-2.016883,-2.1010933,0.30346224,4.649861,-4.6174073,2.0980043,-0.2874146,0.32689682,0.08691676,-0.89608884,-7.0517664,9.495862,-0.4283438,-1.9992092,-1.180287,0.8703113,0
1.5100000000000011,14.319077310850579,-1.2090931884421436,-1.9458592829122434,0.24795409538846258,16.453104,-2.016883,-2.1010933,0.30346224,4.5788875,-4.522429,2.0937824,-0.27985767,0.32446355,0.095969595,-0.8984383,-7.142879,9.499227,-0.41603604,-1.8759493,-1.2995703,0.8397721,0
1.5200000000000011,13.367958085658353,-0.3480157337621506,-2.4722934079580794,-0.13957237339922576,15.341966,-1.3008047,-2.677961,-0.12428774,4.507003,-4.427434,2.0896838,-0.2725246,0.32131624,0.1047009,-0.90084535,-7.2340307,9.499318,-0.40370908,-1.7719247,-1.4002682,0.8107314,0
1.5300000000000011,13.367958085658353,-0.3480157337621506,-2.4722934079580794,-0.13957237339922576,15.341966,-1.3008047,-2.677961,-0.12428774,4.4342375,-4.332453,2.0856721,-0.2655164,0.31727237,0.11291955,-0.90337527,-7.3189344,9.4964,-0.39859876,-1.5498261,-1.5672853,0.7640997,0
1.5400000000000011,13.367958085658353,-0.3480157337621506,-2.4722934079580794,-0.13957237339922576,15.341966,-1.3008047,-2.677961,-0.12428774,4.3606253,-4.237516,2.0817127,-0.25891498,0.31219402,0.12047633,-0.9060804,-7.4033484,9.490582,-0.39320943,-1.3623835,-1.7082878,0.71975625,0
1.5500000000000012,13.367958085658353,-0.3480157337621506,-2.4722934079580794,-0.13957237339922576,15.341966,-1.3008047,-2.677961,-0.12428774,4.286173,-4.142651,2.0778093,-0.25266644,0.30623725,0.1274716,-0.90891576,-7.486984,9.481981,-0.3873828,-1.2041878,-1.8273265,0.67758876,0
1.5600000000000012,12.50710208312254,0.4044012021646169,-2.7977436926851724,-0.5224585265701438,14.3435135,-0.8215723,-2.5333917,-0.1944666,4.210889,-4.047886,2.0739667,-0.24672483,0.29953235,0.13399024,-0.9118401,-7.5695915,9.470704,-0.380992,-1.0706742,-1.9278218,0.6374904,0
1.5700000000000012,12.50710208312254,0.4044012021646169,-2.7977436926851724,-0.5224585265701438,14.3435135,-0.8215723,-2.5333917,-0.1944666,4.134811,-3.9532416,2.0701575,-0.24116623,0.2919898,0.13987514,-0.91488487,-7.6457033,9.457745,-0.3806993,-0.840657,-2.0633585,0.5805714,0
1.5800000000000012,12.50710208312254,0.4044012021646169,-2.7977436926851724,-0.5224585265701438,14.3435135,-0.8215723,-2.5333917,-0.1944666,4.057979,-3.8587387,2.066355,-0.23605156,0.28354397,0.14500515,-0.9180711,-7.7203884,9.442527,-0.3796395,-0.6465242,-2.1777887,0.52644545,0
1.5900000000000012,12.50710208312254,0.4044012021646169,-2.7977436926851724,-0.5224585265701438,14.3435135,-0.8215723,-2.5333917,-0.1944666,3.9804087,-3.7643986,2.0625677,-0.2313242,0.27432713,0.1494949,-0.9213488,-7.7934055,9.4252,-0.3776876,-0.482676,-2.2743979,0.4749754,0
1.6000000000000012,11.967808725018696,0.8495246027506574,-2.9157225892981913,-0.8799454551814172,14.123787,-0.44662675,-3.5093677,-1.2493575,3.9021175,-3.6702416,2.0588048,-0.22693604,0.26445028,0.15344103,-0.92467314,-7.864545,9.405899,-0.37474945,-0.34438664,-2.3559594,0.42603105,0
1.6100000000000012,11.967808725018696,0.8495246027506574,-2.9157225892981913,-0.8799454551814172,14.123787,-0.44662675,-3.5093677,-1.2493575,3.8231401,-3.5762827,2.0550544,-0.22292632,0.25391608,0.1567822,-0.92803466,-7.930639,9.38566,-0.37515515,-0.15827456,-2.4431953,0.3619464,0
1.6200000000000012,11.967808725018696,0.8495246027506574,-2.9157225892981913,-0.8799454551814172,14.123787,-0.44662675,-3.5093677,-1.2493575,3.7435124,-3.4825342,2.0513055,-0.21932717,0.2427307,0.15947387,-0.93142045,-7.994565,9.363796,-0.37447467,-0.0011913925,-2.5168483,0.30100644,0
1.6300000000000012,11.967808725018696,0.8495246027506574,-2.9157225892981913,-0.8799454551814172,14.123787,-0.44662675,-3.5093677,-1.2493575,3.6632571,-3.3890119,2.047569,-0.21609113,0.23098487,0.16161351,-0.9347889,-8.056146,9.340449,-0.37265086,0.1313921,-2.5790312,0.24305682,0
1.6400000000000012,11.967808725018696,0.8495246027506574,-2.9157225892981913,-0.8799454551814172,13.872625,0.052180924,-3.471148,-1.3621033,3.5823982,-3.2957299,2.0438566,-0.21317777,0.21875532,0.16328308,-0.93810374,-8.115226,9.315744,-0.36965087,0.24329847,-2.6315289,0.18795078,0
1.6500000000000012,11.967808725018696,0.8495246027506574,-2.9157225892981913,-0.8799454551814172,13.872625,0.052180924,-3.471148,-1.3621033,3.5009618,-3.2027013,2.0401802,-0.21055244,0.20610724,0.16455148,-0.94133353,-8.171666,9.28979,-0.3654628,0.33775333,-2.6758485,0.13554879,0
1.6600000000000013,11.967808725018696,0.8495246027506574,-2.9157225892981913,-0.8799454551814172,13.872625,0.052180924,-3.471148,-1.3621033,3.4189746,-3.1099381,2.0365517,-0.2081854,0.19309616,0.16547659,-0.9444516,-8.225345,9.262684,-0.36009306,0.417479,-2.713263,0.085718185,0
1.6700000000000013,11.967808725018696,0.8495246027506574,-2.9157225892981913,-0.8799454551814172,13.872625,0.052180924,-3.471148,-1.3621033,3.336465,-3.0174513,2.0329826,-0.20605108,0.17976958,0.16610695,-0.94743484,-8.276148,9.23451,-0.35356367,0.48477334,-2.7448475,0.03833279,0
1.6800000000000013,11.544259339976893,1.184059530176892,-2.3232041092969484,-1.1057114788232352,13.51889,-0.11773499,-3.0983791,-1.2965344,3.2534618,-2.9252512,2.0294843,-0.20412728,0.16616827,0.16648334,-0.95026416,-8.323977,9.205348,-0.3459102,0.5415754,-2.77151,-0.0067273946,0
1.6900000000000013,11.544259339976893,1.184059530176892,-2.3232041092969484,-1.1057114788232352,13.51889,-0.11773499,-3.0983791,-1.2965344,3.170004,-2.8333423,2.0260491,-0.20248275,0.15252134,0.16646914,-0.9529032,-8.367169,9.176341,-0.34096086,0.6416755,-2.7016196,-0.060654856,0
1.7000000000000013,11.544259339976893,1.184059530176892,-2.3232041092969484,-1.1057114788232352,13.51889,-0.11773499,-3.0983791,-1.2965344,3.0861287,-2.741727,2.0226686,-0.20117363,0.13901421,0.1659591,-0.9553326,-8.407395,9.14659,-0.33502746,0.72617394,-2.6426334,-0.111936085,0
1.7100000000000013,11.544259339976893,1.184059530176892,-2.3232041092969484,-1.1057114788232352,13.51889,-0.11773499,-3.0983791,-1.2965344,3.001866,-2.6504126,2.019352,-0.20016474,0.1256204,0.16502674,-0.9575585,-8.444653,9.116234,-0.3281676,0.797502,-2.5928493,-0.16070095,0
1.7200000000000013,11.11438671059275,1.2557490049577427,-1.6345588619100495,-1.2575257007970395,12.893578,0.11627523,-2.5709808,-1.3370316,2.9172456,-2.5594041,2.0161083,-0.19942571,0.11231769,0.1637338,-0.9595853,-8.478937,9.085388,-0.3204407,0.8577126,-2.5508306,-0.20707288,0
1.7300000000000013,11.11438671059275,1.2557490049577427,-1.6345588619100495,-1.2575257007970395,12.893578,0.11627523,-2.5709808,-1.3370316,2.8323033,-2.4687004,2.012926,-0.19899674,0.09934375,0.16205207,-0.961389,-8.509089,9.055322,-0.31588027,0.9197244,-2.4079778,-0.25861892,0
1.7400000000000013,11.11438671059275,1.2557490049577427,-1.6345588619100495,-1.2575257007970395,12.893578,0.11627523,-2.5709808,-1.3370316,2.7470734,-2.3782985,2.0097933,-0.1989109,0.08688725,0.1599631,-0.9629618,-8.536459,9.025015,-0.3106133,0.9720742,-2.2874036,-0.30763558,0
1.7500000000000013,11.11438671059275,1.2557490049577427,-1.6345588619100495,-1.2575257007970395,12.893578,0.11627523,-2.5709808,-1.3370316,2.6615834,-2.2882004,2.0067163,-0.19913375,0.07486499,0.15752761,-0.96432596,-8.5611315,8.994588,-0.3047044,1.0162668,-2.1856325,-0.35424697,0
1.7600000000000013,10.819162396777891,1.1349842175851574,-0.8850975508420543,-1.3066780798832092,12.498592,0.35956398,-1.823347,-1.3024449,2.5758598,-2.1984067,2.0037012,-0.19963525,0.06320671,0.1547965,-0.96549845,-8.5831785,8.964142,-0.2982129,1.0535728,-2.099732,-0.39857113,0
1.7700000000000014,10.819162396777891,1.1349842175851574,-0.8850975508420543,-1.3066780798832092,12.498592,0.35956398,-1.823347,-1.3024449,2.4899313,-2.1089134,2.0007398,-0.20043875,0.052151717,0.1517999,-0.9664678,-8.602157,8.934571,-0.29398796,1.0662621,-1.9103445,-0.4431322,0
1.7800000000000014,10.819162396777891,1.1349842175851574,-0.8850975508420543,-1.3066780798832092,12.498592,0.35956398,-1.823347,-1.3024449,2.4038248,-2.0197148,1.9978229,-0.20156257,0.041887384,0.14856467,-0.9672359,-8.6187935,8.905163,-0.28930992,1.0769769,-1.7504907,-0.48550662,0
1.7900000000000014,10.819162396777891,1.1349842175851574,-0.8850975508420543,-1.3066780798832092,12.498592,0.35956398,-1.823347,-1.3024449,2.3175628,-1.9308093,1.994955,-0.20297511,0.03228889,0.14512563,-0.9678305,-8.633239,8.876,-0.28423083,1.0860231,-1.6155645,-0.5258018,0
1.8000000000000014,10.637949194168913,0.8740977648375938,-0.3363334796785366,-1.2672608345363445,11.687033,0.50577563,-1.086228,-1.3012735,2.231167,-1.8421937,1.9921396,-0.20464861,0.023250781,0.14151193,-0.9682724,-8.6456175,8.847155,-0.2787945,1.0936599,-1.5016785,-0.56411964,0
1.8100000000000014,10.637949194168913,0.8740977648375938,-0.3363334796785366,-1.2672608345363445,11.687033,0.50577563,-1.086228,-1.3012735,2.1446583,-1.7538625,1.9893714,-0.20658298,0.014918886,0.13780408,-0.96856064,-8.655871,8.81916,-0.27477953,1.0594559,-1.3199548,-0.5986229,0
1.8200000000000014,10.637949194168913,0.8740977648375938,-0.3363334796785366,-1.2672608345363445,11.687033,0.50577563,-1.086228,-1.3012735,2.0580559,-1.6658092,1.9866449,-0.2087765,0.007404668,0.13406734,-0.9687013,-8.664372,8.791581,-0.27049077,1.0305841,-1.1665704,-0.6314332,0
1.8300000000000014,10.637949194168913,0.8740977648375938,-0.3363334796785366,-1.2672608345363445,11.687033,0.50577563,-1.086228,-1.3012735,1.9713767,-1.5780294,1.9839623,-0.21120387,0.00057962514,0.1303037,-0.96871686,-8.671278,8.764454,-0.2659614,1.0062121,-1.037106,-0.6626335,0
1.8400000000000014,10.637949194168913,0.8740977648375938,-0.3363334796785366,-1.2672608345363445,11.479515,0.26493374,-0.58799404,-1.1921084,1.8846356,-1.4905183,1.9813262,-0.2138428,-0.0056647435,0.12651476,-0.96862376,-8.676724,8.737809,-0.26121774,0.9856381,-0.9278312,-0.69230276,1
1.8500000000000014,10.637949194168913,0.8740977648375938,-0.3363334796785366,-1.2672608345363445,11.479515,0.26493374,-0.58799404,-1.1921084,1.7978451,-1.4032817,1.9787793,-0.21665402,-0.01146392,0.1229598,-0.96840554,-8.681149,8.709593,-0.24813335,0.87325454,-0.87479705,-0.7168284,1
1.8600000000000014,10.637949194168913,0.8740977648375938,-0.3363334796785366,-1.2672608345363445,11.479515,0.26493374,-0.58799404,-1.1921084,1.7110173,-1.3163248,1.9763641,-0.2196058,-0.01692904,0.119844966,-0.96805096,-8.684226,8.681847,-0.23488483,0.77839535,-0.830038,-0.7401505,1
1.8700000000000014,10.637949194168913,0.8740977648375938,-0.3363334796785366,-1.2672608345363445,11.479515,0.26493374,-0.58799404,-1.1921084,1.6241649,-1.2296435,1.974082,-0.22268955,-0.022111932,0.11709988,-0.9675779,-8.6860485,8.654491,-0.22151199,0.698328,-0.79226285,-0.76232827,1
1.8800000000000014,10.411274154646058,0.5927771698392543,0.49312912824271127,-1.107359718484107,11.363083,-0.25480327,0.165335,-0.8110394,1.5373003,-1.1432339,1.9719342,-0.22589694,-0.027056452,0.11466511,-0.9670001,-8.686693,8.627458,-0.20804761,0.63074577,-0.76038253,-0.7834177,1
1.8900000000000015,10.411274154646058,0.5927771698392543,0.49312912824271127,-1.107359718484107,11.363083,-0.25480327,0.165335,-0.8110394,1.4504348,-1.0570921,1.9699155,-0.22921501,-0.031455617,0.11262447,-0.96632576,-8.686249,8.600956,-0.1956517,0.49271798,-0.6159473,-0.7847731,1
1.9000000000000015,10.411274154646058,0.5927771698392543,0.49312912824271127,-1.107359718484107,11.363083,-0.25480327,0.165335,-0.8110394,1.3635784,-0.9712142,1.9680212,-0.23262703,-0.03506709,0.11104143,-0.96556896,-8.684899,8.574646,-0.18321735,0.37620428,-0.49404752,-0.786062,1
1.9100000000000015,10.411274154646058,0.5927771698392543,0.49312912824271127,-1.107359718484107,11.363083,-0.25480327,0.165335,-0.8110394,1.2767392,-0.8855987,1.9662513,-0.23612028,-0.03801235,0.1098425,-0.9647463,-8.682833,8.548466,-0.17076302,0.27785125,-0.39116707,-0.78728765,1
1.9200000000000015,10.089458513370374,0.3927475340819777,1.1414502137450433,-0.9140113559724359,11.076839,-0.23584852,0.5887788,-0.66083646,1.1899236,-0.80024457,1.964606,-0.2396834,-0.04039414,0.10896579,-0.96386987,-8.680204,8.522367,-0.15830152,0.19482833,-0.30433854,-0.78845316,1
1.9300000000000015,10.089458513370374,0.3927475340819777,1.1414502137450433,-0.9140113559724359,11.076839,-0.23584852,0.5887788,-0.66083646,1.1031361,-0.7151479,1.9630715,-0.24330664,-0.042135872,0.10831181,-0.9629608,-8.677235,8.496966,-0.14862557,0.1277368,-0.16502224,-0.782191,1
1.9400000000000015,10.089458513370374,0.3927475340819777,1.1414502137450433,-0.9140113559724359,11.076839,-0.23584852,0.5887788,-0.66083646,1.0163796,-0.63030505,1.9616336,-0.24697886,-0.043181445,0.10779868,-0.9620368,-8.674014,8.471603,-0.13894808,0.07109594,-0.047438294,-0.77623606,1
1.9500000000000015,10.089458513370374,0.3927475340819777,1.1414502137450433,-0.9140113559724359,11.076839,-0.23584852,0.5887788,-0.66083646,0.92965597,-0.5457157,1.9602925,-0.2506889,-0.043638565,0.10740231,-0.9611004,-8.6706915,8.446283,-0.12926379,0.023278125,0.051803846,-0.7705734,1
1.9600000000000015,9.831891750757595,0.33885577136702405,1.6004566922208492,-0.7094058561882822,11.085358,-0.45206842,0.6144317,-0.42965338,0.8429656,-0.4613793,1.9590483,-0.2544273,-0.04359821,0.10710256,-0.9601528,-8.66739,8.421011,-0.11956751,-0.017091032,0.13556501,-0.7651885,0
1.9700000000000015,9.831891750757595,0.33885577136702405,1.6004566922208492,-0.7094058561882822,11.085358,-0.45206842,0.6144317,-0.42965338,0.7563059,-0.3772811,1.9578406,-0.258225,-0.042808183,0.10655795,-0.9592346,-8.664582,8.398644,-0.121967584,0.038531873,0.36398667,-0.7624513,0
1.9800000000000015,9.831891750757595,0.33885577136702405,1.6004566922208492,-0.7094058561882822,11.085358,-0.45206842,0.6144317,-0.42965338,0.669673,-0.29340577,1.9566091,-0.26210624,-0.041074093,0.105495386,-0.9583748,-8.662043,8.376464,-0.124317,0.08546208,0.5567904,-0.7598484,0
1.9900000000000015,9.831891750757595,0.33885577136702405,1.6004566922208492,-0.7094058561882822,11.085358,-0.45206842,0.6144317,-0.42965338,0.58306366,-0.20975071,1.9553546,-0.26605412,-0.038544312,0.10399177,-0.957556,-8.659912,8.354607,-0.12658213,0.12505803,0.7195302,-0.75737315,0
2.0000000000000013,,,,,10.148943,-0.55684954,0.8432923,-0.18228981,0.49647307,-0.1263121,1.954078,-0.2700539,-0.035343822,0.10211228,-0.9567617,-8.658309,8.333192,-0.12873727,0.15846607,0.856894,-0.75501937,1
2.010000000000001,,,,,10.148943,-0.55684954,0.8432923,-0.18228981,0.4098956,-0.04308842,1.9527959,-0.27401236,-0.03176371,0.1003398,-0.955949,-8.657294,8.31163,-0.1276702,0.04689636,0.85482854,-0.72691536,1
2.020000000000001,,,,,10.148943,-0.55684954,0.8432923,-0.18228981,0.3233248,0.039922215,1.9515251,-0.27784654,-0.028037379,0.09906172,-0.9550917,-8.656982,8.290567,-0.12649103,-0.047273245,0.8530733,-0.7001904,1
2.0300000000000007,,,,,10.148943,-0.55684954,0.8432923,-0.18228981,0.23675339,0.1227244,1.9502665,-0.28155917,-0.024184708,0.09820024,-0.9541983,-8.657422,8.26993,-0.12522322,-0.12675618,0.8515822,-0.6747769,1
2.0400000000000005,,,,,10.148943,-0.55684954,0.8432923,-0.18228981,0.15017365,0.20532206,1.9490207,-0.28515327,-0.020222804,0.097689606,-0.95327514,-8.658652,8.249657,-0.12388749,-0.19384296,0.85031587,-0.65061045,1
2.0500000000000003,,,,,10.169001,-0.9570847,0.57286507,0.0626644,0.0635775,0.2877186,1.9477887,-0.28863233,-0.016166395,0.097474314,-0.9523271,-8.660707,8.229694,-0.12250244,-0.25046667,0.8492408,-0.6276298,1
2.06,,,,,10.169001,-0.9570847,0.57286507,0.0626644,-0.023043476,0.36991668,1.9465718,-0.291963,-0.012081762,0.09769179,-0.95134956,-8.663624,8.209953,-0.12089005,-0.36069876,0.8061773,-0.59375685,1
2.07,,,,,10.169001,-0.9570847,0.57286507,0.0626644,-0.109698005,0.45191827,1.9453709,-0.29511505,-0.008021139,0.0984487,-0.9503413,-8.667421,8.190382,-0.119273774,-0.453735,0.76981884,-0.5615461,1
2.0799999999999996,,,,,10.169001,-0.9570847,0.57286507,0.0626644,-0.19639501,0.53372455,1.9441862,-0.29809663,-0.003977536,0.099660166,-0.9493094,-8.672122,8.170889,-0.11768079,-0.53225815,0.7391221,-0.5309159,1
2.0899999999999994,,,,,10.440895,-0.82972556,0.3853007,0.23013476,-0.2831436,0.61533606,1.943017,-0.3009155,5.46379e-05,0.10125441,-0.9482591,-8.677745,8.151396,-0.11613553,-0.59853226,0.7132061,-0.50178874,1
2.099999999999999,,,,,10.440895,-0.82972556,0.3853007,0.23013476,-0.369954,0.6967497,1.9418763,-0.30355212,0.003995403,0.10314515,-0.947206,-8.684479,8.131315,-0.11199758,-0.634619,0.6620665,-0.46587303,1
2.109999999999999,,,,,10.440895,-0.82972556,0.3853007,0.23013476,-0.45683646,0.7779619,1.9407767,-0.30598992,0.0077816714,0.10526107,-0.9461647,-8.692159,8.111114,-0.10795033,-0.6650727,0.6188996,-0.43171972,1
2.1199999999999988,,,,,10.440895,-0.82972556,0.3853007,0.23013476,-0.5438004,0.85897136,1.939717,-0.3082404,0.011440242,0.10756632,-0.94513726,-8.7007675,8.090744,-0.10401048,-0.69077283,0.58246243,-0.3992423,1
2.1299999999999986,,,,,10.402878,-0.6926823,0.29888493,0.35674915,-0.63085496,0.9397761,1.9386961,-0.31031436,0.014993579,0.11003051,-0.9441247,-8.710289,8.0701685,-0.10019326,-0.7124615,0.5517064,-0.36835858,1
2.1399999999999983,,,,,10.402878,-0.6926823,0.29888493,0.35674915,-0.71800905,1.0203742,1.937711,-0.3122041,0.018412536,0.11258669,-0.9431394,-8.72067,8.049431,-0.096882835,-0.7093983,0.5122618,-0.33277735,1
2.149999999999998,,,,,10.402878,-0.6926823,0.29888493,0.35674915,-0.80527127,1.1007637,1.936758,-0.31390312,0.021675097,0.11518057,-0.9421923,-8.7319145,8.028436,-0.09371761,-0.70680916,0.47896942,-0.29894212,1
2.159999999999998,,,,,10.402878,-0.6926823,0.29888493,0.35674915,-0.8926502,1.1809419,1.9358361,-0.31542292,0.024808189,0.11780534,-0.94128245,-8.743995,8.007168,-0.090705335,-0.7046211,0.45087016,-0.26676717,1
2.1699999999999977,,,,,11.2112,-0.15909007,0.15244932,0.30672863,-0.980154,1.2609061,1.9349434,-0.31677398,0.027834443,0.120455235,-0.94040835,-8.756884,7.9856167,-0.08785324,-0.7027719,0.42715368,-0.23617104,1
