time-since-start [s],throttle_mpc,roll_mpc,pitch_mpc,yaw_mpc,throttle_nw,roll_nw,pitch_nw,yaw_nw,position_x [m],position_y [m],position_z [m],rotation_w [quaternion],rotation_x [quaternion],rotation_y [quaternion],rotation_z [quaternion],velocity_x [m/s],velocity_y [m/s],velocity_z [m/s],omega_x [rad/s],omega_y [rad/s],omega_z [rad/s],network_used
0.0,10.268194143669113,5.999999549813319,-5.999999817882816,-2.455250111979489,12.971633,0.9130217,-2.5588133,-0.62788385,14.639783,-11.364639,2.5943658,-0.2731518,0.32165623,-0.36064142,-0.8317831,-9.3537445,-1.5256376,1.1111474,1.1815052,-0.4159298,-0.28763238,0
0.01,10.268194143669113,5.999999549813319,-5.999999817882816,-2.455250111979489,12.485664,1.2493503,-4.012366,0.4959343,14.546005,-11.379337,2.6053693,-0.2778144,0.3177077,-0.36483994,-0.8299234,-9.401432,-1.4143804,1.0891844,1.5132151,-0.8672824,-0.35645702,0
0.02,10.268194143669113,5.999999549813319,-5.999999817882816,-2.455250111979489,12.485664,1.2493503,-4.012366,0.4959343,14.451767,-11.392934,2.6161425,-0.28405192,0.3115997,-0.36964518,-0.8279992,-9.445717,-1.3051307,1.0651554,1.8324863,-1.2875968,-0.42542085,0
0.03,10.268194143669113,5.999999549813319,-5.999999817882816,-2.455250111979489,12.485664,1.2493503,-4.012366,0.4959343,14.357105,-11.405447,2.6266663,-0.29177612,0.30345204,-0.37501422,-0.8259224,-9.486072,-1.197744,1.0393603,2.1396217,-1.6800714,-0.49437028,0
0.04,10.268194143669113,5.999999549813319,-5.999999817882816,-2.455250111979489,7.685528,2.5589237,-4.348824,-0.6055609,14.262061,-11.416894,2.6369245,-0.30089757,0.29336774,-0.38089663,-0.823598,-9.5220375,-1.0921252,1.0120398,2.4349906,-2.0475202,-0.5631696,0
0.05,10.268194143669113,5.999999549813319,-5.999999817882816,-2.455250111979489,7.685528,2.5589237,-4.348824,-0.6055609,14.16668,-11.427294,2.6469028,-0.3113257,0.28143585,-0.38723585,-0.8209253,-9.553211,-0.98823035,0.9833806,2.7190092,-2.3924224,-0.63169885,0
0.060000000000000005,10.268194143669113,5.999999549813319,-5.999999817882816,-2.455250111979489,7.685528,2.5589237,-4.348824,-0.6055609,14.071014,-11.436665,2.656588,-0.3229684,0.26773447,-0.39397028,-0.8178,-9.5792465,-0.8860677,0.9535203,2.9921231,-2.716966,-0.69985276,0
0.07,10.268194143669113,5.999999549813319,-5.999999817882816,-2.455250111979489,7.685528,2.5589237,-4.348824,-0.6055609,13.975115,-11.445023,2.6659694,-0.33573195,0.2523331,-0.40103418,-0.81411505,-9.599844,-0.78569674,0.92255104,3.2547941,-3.0230825,-0.7675387,0
0.08,12.116800660847233,5.999999660844059,-5.999999848858742,-2.603464877332099,11.698335,3.0592868,-4.088336,0.0019538887,13.879037,-11.452386,2.6750355,-0.3495208,0.23529495,-0.40835822,-0.8097622,-9.614754,-0.68722653,0.8905242,3.5074914,-3.3124838,-0.83467585,0
0.09,12.116800660847233,5.999999660844059,-5.999999848858742,-2.603464877332099,11.698335,3.0592868,-4.088336,0.0019538887,13.782833,-11.458709,2.6838202,-0.36430353,0.21660317,-0.415897,-0.8046089,-9.624977,-0.5778499,0.866198,3.7798796,-3.6159635,-0.91107684,0
0.09999999999999999,12.116800660847233,5.999999660844059,-5.999999848858742,-2.603464877332099,11.698335,3.0592868,-4.088336,0.0019538887,13.686561,-11.46395,2.6923556,-0.38003963,0.1962395,-0.42359665,-0.79851466,-9.628292,-0.47101304,0.840685,4.042264,-3.904628,-0.9866343,0
0.10999999999999999,12.116800660847233,5.999999660844059,-5.999999848858742,-2.603464877332099,11.698335,3.0592868,-4.088336,0.0019538887,13.590291,-11.468138,2.7006295,-0.3966153,0.17426117,-0.4313706,-0.7913587,-9.624523,-0.367,0.81392825,4.295147,-4.1797266,-1.0612948,0
0.11999999999999998,12.116800660847233,5.999999660844059,-5.999999848858742,-2.603464877332099,11.698335,3.0592868,-4.088336,0.0019538887,13.494096,-11.471301,2.7086296,-0.4139128,0.15072607,-0.43912983,-0.7830215,-9.613559,-0.26614293,0.78583616,4.539013,-4.4423733,-1.1350129,0
0.12999999999999998,15.14416561909224,5.422724846688926,-5.999999618736733,-2.5511793497348902,10.968225,1.4771158,-4.3066335,0.3426513,13.398046,-11.473472,2.7163427,-0.43180272,0.12570786,-0.44677925,-0.77339,-9.595221,-0.16817066,0.75674284,4.7656517,-4.6848726,-1.2069951,0
0.13999999999999999,15.14416561909224,5.422724846688926,-5.999999618736733,-2.5511793497348902,10.968225,1.4771158,-4.3066335,0.3426513,13.302248,-11.47455,2.7238503,-0.45006815,0.0994841,-0.45402107,-0.7625,-9.562521,-0.048018157,0.7447851,4.867751,-4.8902555,-1.2729546,0
0.15,15.14416561909224,5.422724846688926,-5.999999618736733,-2.5511793497348902,10.968225,1.4771158,-4.3066335,0.3426513,13.206827,-11.4744425,2.7312374,-0.46850073,0.0723527,-0.46060598,-0.75040925,-9.519856,0.06916262,0.73255855,4.9539485,-5.063593,-1.3356775,0
0.16,14.974447964781303,3.274187078094543,-4.964172341661224,-1.008805450744354,11.419387,-0.16597143,-3.898165,-0.19892772,13.111884,-11.473181,2.7384999,-0.48695037,0.04448452,-0.46649525,-0.7370769,-9.467199,0.18258673,0.71982616,5.0267243,-5.209884,-1.3953226,0
0.17,14.974447964781303,3.274187078094543,-4.964172341661224,-1.008805450744354,11.419387,-0.16597143,-3.898165,-0.19892772,13.017513,-11.470813,2.7456264,-0.50492823,0.016672112,-0.47125074,-0.72297436,-9.405393,0.29025885,0.70539904,4.7535157,-5.171258,-1.3763561,0
0.18000000000000002,14.974447964781303,3.274187078094543,-4.964172341661224,-1.008805450744354,11.419387,-0.16597143,-3.898165,-0.19892772,12.923807,-11.467394,2.752605,-0.5220865,-0.01044335,-0.4745843,-0.7085802,-9.334399,0.39280403,0.690121,4.522905,-5.138703,-1.3583204,0
0.19000000000000003,14.974447964781303,3.274187078094543,-4.964172341661224,-1.008805450744354,11.419387,-0.16597143,-3.898165,-0.19892772,12.830853,-11.462976,2.7594259,-0.53848565,-0.03692878,-0.47666472,-0.69387305,-9.254881,0.48967767,0.67392176,4.3282495,-5.111264,-1.3411696,0
0.20000000000000004,13.722961368567777,1.8313576048886369,-3.274066957048395,-0.7432940402031959,11.320056,-0.70867366,-2.0321984,0.26704758,12.738736,-11.457621,2.76608,-0.55417067,-0.06284195,-0.47763202,-0.6788321,-9.167474,0.5803999,0.65672386,4.1639433,-5.0881376,-1.3248605,0
0.21000000000000005,13.722961368567777,1.8313576048886369,-3.274066957048395,-0.7432940402031959,11.320056,-0.70867366,-2.0321984,0.26704758,12.64749,-11.451426,2.7725232,-0.56888086,-0.08747052,-0.47759917,-0.66379386,-9.080745,0.65755117,0.6317792,3.8005114,-4.8048496,-1.2963228,0
0.22000000000000006,13.722961368567777,1.8313576048886369,-3.274066957048395,-0.7432940402031959,11.320056,-0.70867366,-2.0321984,0.26704758,12.55714,-11.4444895,2.778712,-0.5824625,-0.110264525,-0.47671488,-0.64909315,-8.988176,0.72863185,0.6058268,3.4937057,-4.5658035,-1.2691855,0
0.23000000000000007,13.722961368567777,1.8313576048886369,-3.274066957048395,-0.7432940402031959,11.320056,-0.70867366,-2.0321984,0.26704758,12.467743,-11.436873,2.7846365,-0.59508306,-0.13149078,-0.47512513,-0.6346986,-8.890529,0.79367375,0.5788731,3.2347038,-4.3640885,-1.2433798,0
0.24000000000000007,13.722961368567777,1.8313576048886369,-3.274066957048395,-0.7432940402031959,10.842126,-1.0075215,-0.7116654,0.10972147,12.379345,-11.428637,2.7902863,-0.606876,-0.15137714,-0.4729443,-0.6205724,-8.788461,0.85272753,0.55093235,3.0160577,-4.1938744,-1.2188405,0
0.25000000000000006,13.722961368567777,1.8313576048886369,-3.274066957048395,-0.7432940402031959,10.842126,-1.0075215,-0.7116654,0.10972147,12.291987,-11.419839,2.795652,-0.61794806,-0.17011741,-0.47026193,-0.60667443,-8.682544,0.9058531,0.5220217,2.83148,-4.050241,-1.1955053,0
0.26000000000000006,13.722961368567777,1.8313576048886369,-3.274066957048395,-0.7432940402031959,10.842126,-1.0075215,-0.7116654,0.10972147,12.205706,-11.410539,2.8007233,-0.6283845,-0.18787585,-0.46714836,-0.59296536,-8.573278,0.9531133,0.49215788,2.6756628,-3.9290369,-1.173315,0
0.2700000000000001,13.722961368567777,1.8313576048886369,-3.274066957048395,-0.7432940402031959,10.842126,-1.0075215,-0.7116654,0.10972147,12.120532,-11.400796,2.8054917,-0.63825357,-0.20479132,-0.46365893,-0.5794076,-8.461113,0.9945705,0.46135506,2.5441246,-3.826759,-1.1522138,0
0.2800000000000001,12.622763388832574,0.28085434695139344,-1.3138382693267814,-0.34829378182128923,11.797672,-1.1613133,0.8196559,0.014077235,12.036492,-11.390667,2.8099475,-0.64760995,-0.22098085,-0.45983726,-0.56596667,-8.346446,1.0302844,0.42962414,2.4330828,-3.7404516,-1.1321481,0
0.2900000000000001,12.622763388832574,0.28085434695139344,-1.3138382693267814,-0.34829378182128923,11.797672,-1.1613133,0.8196559,0.014077235,11.953563,-11.380221,2.8140552,-0.65625983,-0.23572446,-0.4558759,-0.55311286,-8.239023,1.0579549,0.3917382,2.097808,-3.3617222,-1.0936842,0
0.3000000000000001,12.622763388832574,0.28085434695139344,-1.3138382693267814,-0.34829378182128923,11.797672,-1.1613133,0.8196559,0.014077235,11.8717165,-11.369525,2.81778,-0.66409576,-0.24847779,-0.45196557,-0.54125994,-8.13007,1.080835,0.35311416,1.8147556,-3.0421104,-1.0571077,0
0.3100000000000001,12.622763388832574,0.28085434695139344,-1.3138382693267814,-0.34829378182128923,11.797672,-1.1613133,0.8196559,0.014077235,11.790965,-11.358621,2.8211155,-0.6712656,-0.25956595,-0.4481263,-0.5302927,-8.0199585,1.0993699,0.31387055,1.5757933,-2.7723868,-1.022326,0
0.3200000000000001,12.10295289617689,-1.8388909035134466,0.9746420568292843,0.3656974102362654,12.583065,-2.0671515,2.1794977,0.16333418,11.71132,-11.347551,2.8240557,-0.67788535,-0.2692612,-0.44436592,-0.52010405,-7.9089837,1.1139476,0.2741165,1.3740548,-2.5447626,-0.9892511,0
0.3300000000000001,12.10295289617689,-1.8388909035134466,0.9746420568292843,0.3656974102362654,12.583065,-2.0671515,2.1794977,0.16333418,11.632764,-11.336357,2.8265843,-0.68383265,-0.27678326,-0.44085,-0.5112872,-7.8019905,1.1245145,0.23158696,0.87343925,-1.9955518,-0.9227634,0
0.34000000000000014,12.10295289617689,-1.8388909035134466,0.9746420568292843,0.3656974102362654,12.583065,-2.0671515,2.1794977,0.16333418,11.555281,-11.325071,2.828687,-0.689039,-0.28154197,-0.43772984,-0.5043326,-7.6946893,1.1323558,0.18891734,0.45079544,-1.5320784,-0.85953826,0
0.35000000000000014,12.10295289617689,-1.8388909035134466,0.9746420568292843,0.3656974102362654,12.583065,-2.0671515,2.1794977,0.16333418,11.47887,-11.313717,2.830363,-0.6936452,-0.28399688,-0.43497333,-0.49899858,-7.5873137,1.1381799,0.14635558,0.093984544,-1.1409525,-0.7994155,0
0.36000000000000015,13.139695166050078,-4.050389790391828,3.2568418860171153,0.5839960456967521,13.860675,-2.6828518,3.2646425,0.4230712,11.403533,-11.302313,2.831615,-0.6977535,-0.2845287,-0.43253988,-0.49506766,-7.4800367,1.1425916,0.10411449,-0.2072437,-0.81087697,-0.7422431,0
0.37000000000000016,13.139695166050078,-4.050389790391828,3.2568418860171153,0.5839960456967521,13.860675,-2.6828518,3.2646425,0.4230712,11.329314,-11.290867,2.8324711,-0.70128226,-0.2823953,-0.43058,-0.49300724,-7.363834,1.1464752,0.067226656,-0.8062643,-0.1762618,-0.67716414,0
0.38000000000000017,13.139695166050078,-4.050389790391828,3.2568418860171153,0.5839960456967521,13.860675,-2.6828518,3.2646425,0.4230712,11.256255,-11.279383,2.8329625,-0.7041534,-0.27701813,-0.42920467,-0.4931647,-7.2481084,1.15038,0.031234216,-1.311961,0.35930002,-0.61527866,0
0.3900000000000002,13.139695166050078,-4.050389790391828,3.2568418860171153,0.5839960456967521,13.860675,-2.6828518,3.2646425,0.4230712,11.184349,-11.267856,2.8330998,-0.70642245,-0.26890185,-0.42830804,-0.49518734,-7.133075,1.155229,-0.0035519619,-1.7388668,0.8112755,-0.5564299,0
0.4000000000000002,16.267570756887963,-5.7818488971057045,5.075381239861839,1.0092064200228859,15.629518,-2.996791,3.5728002,0.9230936,11.11359,-11.256272,2.8328962,-0.7081161,-0.25846496,-0.4277871,-0.49876332,-7.018937,1.1618042,-0.036892675,-2.0992522,1.1927148,-0.50046885,0
0.4100000000000002,16.267570756887963,-5.7818488971057045,5.075381239861839,1.0092064200228859,15.629518,-2.996791,3.5728002,0.9230936,11.044101,-11.2446,2.8324459,-0.7090763,-0.24522203,-0.42769775,-0.5041338,-6.8790073,1.1729674,-0.052792367,-2.6734393,1.798274,-0.42638862,0
0.4200000000000002,16.267570756887963,-5.7818488971057045,5.075381239861839,1.0092064200228859,15.629518,-2.996791,3.5728002,0.9230936,10.976003,-11.232798,2.8318477,-0.7091233,-0.22879227,-0.42804983,-0.51144,-6.740853,1.1882874,-0.066396825,-3.1581569,2.3093276,-0.35594356,0
0.4300000000000002,16.267570756887963,-5.7818488971057045,5.075381239861839,1.0092064200228859,15.629518,-2.996791,3.5728002,0.9230936,10.909276,-11.220817,2.8311262,-0.7082257,-0.20963879,-0.42868477,-0.52028507,-6.604945,1.2088429,-0.077511676,-3.567339,2.7406323,-0.28895524,0
0.4400000000000002,16.267570756887963,-5.7818488971057045,5.075381239861839,1.0092064200228859,16.884205,-3.6131048,4.8449063,1.0537732,10.843895,-11.2086,2.8303065,-0.70634377,-0.18815465,-0.4294596,-0.5303208,-6.471801,1.2355236,-0.086059816,-3.9127502,3.1046383,-0.22525412,0
0.45000000000000023,16.267570756887963,-5.7818488971057045,5.075381239861839,1.0092064200228859,16.884205,-3.6131048,4.8449063,1.0537732,10.779829,-11.196082,2.8294137,-0.7034369,-0.16467717,-0.43024823,-0.54124284,-6.3419795,1.2690469,-0.09207013,-4.204324,3.411852,-0.16467878,0
0.46000000000000024,16.267570756887963,-5.7818488971057045,5.075381239861839,1.0092064200228859,16.884205,-3.6131048,4.8449063,1.0537732,10.717042,-11.183192,2.828473,-0.6994686,-0.13949873,-0.43094137,-0.5527863,-6.2160788,1.3099726,-0.09566591,-4.4504476,3.6711383,-0.107075885,0
0.47000000000000025,16.267570756887963,-5.7818488971057045,5.075381239861839,1.0092064200228859,16.884205,-3.6131048,4.8449063,1.0537732,10.655492,-11.169854,2.8275077,-0.69440836,-0.112874985,-0.43144578,-0.5647213,-6.0947237,1.3587148,-0.09705351,-4.658202,3.8899777,-0.052299596,0
0.48000000000000026,18.74341806401022,-5.99999589926052,5.713772238374521,1.5901725238572968,16.582668,-3.8354802,5.228866,0.7491155,10.59513,-11.15599,2.8265383,-0.68823296,-0.08503133,-0.4316828,-0.57684875,-5.978557,1.4155515,-0.09651123,-4.833566,4.074683,-0.0002111923,0
0.49000000000000027,18.74341806401022,-5.99999589926052,5.713772238374521,1.5901725238572968,16.582668,-3.8354802,5.228866,0.7491155,10.535986,-11.141466,2.825659,-0.6807777,-0.055990208,-0.43170366,-0.5890994,-5.8514423,1.49056,-0.07913038,-5.01569,4.3300433,0.077829406,0
0.5000000000000002,18.74341806401022,-5.99999589926052,5.713772238374521,1.5901725238572968,16.582668,-3.8354802,5.228866,0.7491155,10.478076,-11.126145,2.8249605,-0.67189246,-0.025790548,-0.43153626,-0.6013911,-5.731855,1.5752586,-0.06042247,-5.169422,4.5455775,0.15204051,0
0.5100000000000002,18.74341806401022,-5.99999589926052,5.713772238374521,1.5901725238572968,16.582668,-3.8354802,5.228866,0.7491155,10.421321,-11.109929,2.8244534,-0.66158515,0.0053540943,-0.43108967,-0.61354506,-5.620597,1.6696926,-0.040955096,-5.299185,4.7275004,0.22261007,0
0.5200000000000002,19.45635979367554,-5.566875438537996,4.747596707332396,1.224389045275664,17.367893,-3.7533567,5.3855247,0.90229064,10.365633,-11.092718,2.824142,-0.64986926,0.037251316,-0.43028906,-0.6254064,-5.5184526,1.7737461,-0.021339998,-5.408711,4.881057,0.28971675,0
0.5300000000000002,19.45635979367554,-5.566875438537996,4.747596707332396,1.224389045275664,17.367893,-3.7533567,5.3855247,0.90229064,10.310936,-11.074399,2.8240473,-0.6369726,0.06939166,-0.42893496,-0.63676137,-5.422646,1.8914394,0.002250827,-5.433518,4.860077,0.33558142,0
0.5400000000000003,19.45635979367554,-5.566875438537996,4.747596707332396,1.224389045275664,17.367893,-3.7533567,5.3855247,0.90229064,10.257143,-11.054857,2.8241837,-0.62311924,0.101355,-0.42689124,-0.64746654,-5.3376656,2.0182204,0.024749653,-5.454449,4.842376,0.37919545,0
0.5500000000000003,19.45635979367554,-5.566875438537996,4.747596707332396,1.224389045275664,17.367893,-3.7533567,5.3855247,0.90229064,10.204144,-11.034005,2.824537,-0.60832244,0.13309973,-0.42418674,-0.65749025,-5.2640142,2.153374,0.04559584,-5.472109,4.8274436,0.42066935,0
0.5600000000000003,18.022473459652236,-4.1288285355287835,3.1172775337943066,1.0149361773773622,15.792264,-3.229148,4.0373907,1.1523702,10.151822,-11.011763,2.825088,-0.5925987,0.16458525,-0.42084748,-0.6668024,-5.2021337,2.2961397,0.06423495,-5.487008,4.8148465,0.4601081,0
0.5700000000000003,18.022473459652236,-4.1288285355287835,3.1172775337943066,1.0149361773773622,15.792264,-3.229148,4.0373907,1.1523702,10.1000395,-10.988113,2.8257701,-0.5763712,0.19501159,-0.41690373,-0.6752463,-5.1560106,2.4346573,0.07174456,-5.275202,4.550081,0.4873337,0
0.5800000000000003,18.022473459652236,-4.1288285355287835,3.1172775337943066,1.0149361773773622,15.792264,-3.229148,4.0373907,1.1523702,10.048663,-10.963051,2.8265133,-0.56004685,0.22376116,-0.41243172,-0.6827724,-5.1209903,2.578473,0.07640412,-5.0964284,4.3266068,0.51322323,0
0.5900000000000003,18.022473459652236,-4.1288285355287835,3.1172775337943066,1.0149361773773622,15.792264,-3.229148,4.0373907,1.1523702,9.9975815,-10.936528,2.8272877,-0.54361296,0.25104487,-0.4075088,-0.6894908,-5.0968437,2.7266345,0.07797891,-4.945535,4.137984,0.53784245,0
0.6000000000000003,15.41956007267843,-2.33282633122536,1.1429936433494623,0.7262095399310833,14.56622,-3.5421453,2.8353891,0.9497667,9.946689,-10.908506,2.8280616,-0.5270538,0.27704135,-0.40219522,-0.6954862,-5.0833416,2.8782835,0.07626865,-4.8181753,3.978776,0.56125355,0
0.6100000000000003,15.41956007267843,-2.33282633122536,1.1429936433494623,0.7262095399310833,14.56622,-3.5421453,2.8353891,0.9497667,9.895875,-10.8790655,2.8287337,-0.5109097,0.30099595,-0.3966258,-0.700757,-5.080638,3.010327,0.057709284,-4.430444,3.5366554,0.569348,0
0.6200000000000003,15.41956007267843,-2.33282633122536,1.1429936433494623,0.7262095399310833,14.56622,-3.5421453,2.8353891,0.9497667,9.845048,-10.848295,2.8292058,-0.4956632,0.32235345,-0.39095414,-0.70537984,-5.0861716,3.1439548,0.036314834,-4.103199,3.1634657,0.5770452,0
0.6300000000000003,15.41956007267843,-2.33282633122536,1.1429936433494623,0.7262095399310833,14.56622,-3.5421453,2.8353891,0.9497667,9.794127,-10.816183,2.8294506,-0.4812073,0.34151953,-0.38523766,-0.7095037,-5.099276,3.2785563,0.012257199,-3.8270056,2.8484597,0.5843647,0
0.6400000000000003,15.41956007267843,-2.33282633122536,1.1429936433494623,0.7262095399310833,14.196511,-2.999419,1.9871614,0.9945405,9.74304,-10.782722,2.8294423,-0.4674385,0.35883456,-0.37951332,-0.7132379,-5.1193705,3.4136457,-0.0142930355,-3.5939,2.5825653,0.59132504,0
0.6500000000000004,15.41956007267843,-2.33282633122536,1.1429936433494623,0.7262095399310833,14.196511,-2.999419,1.9871614,0.9945405,9.691719,-10.74791,2.8291564,-0.4542601,0.37458372,-0.3738037,-0.7166626,-5.1459494,3.5488312,-0.04317417,-3.3971603,2.358126,0.5979439,0
0.6600000000000004,15.41956007267843,-2.33282633122536,1.1429936433494623,0.7262095399310833,14.196511,-2.999419,1.9871614,0.9945405,9.6401005,-10.711746,2.828571,-0.44158423,0.38900587,-0.36812153,-0.71983606,-5.1785765,3.6837935,-0.07423747,-3.2311132,2.1686783,0.6042379,0
0.6700000000000004,15.41956007267843,-2.33282633122536,1.1429936433494623,0.7262095399310833,14.196511,-2.999419,1.9871614,0.9945405,9.588128,-10.674236,2.8276649,-0.42933226,0.40230092,-0.36247277,-0.7228007,-5.216873,3.8182685,-0.10734902,-3.0909708,2.0087667,0.61022305,0
0.6800000000000004,13.583424082196654,-0.6558819841656711,-0.6783616992761343,0.44008318715724076,12.92307,-1.7975613,0.27646625,0.69558036,9.535746,-10.635385,2.8264177,-0.41743472,0.41463622,-0.3568588,-0.725587,-5.2605124,3.9520335,-0.14239012,-2.972692,1.8737856,0.6159145,0
0.6900000000000004,13.583424082196654,-0.6558819841656711,-0.6783616992761343,0.44008318715724076,12.92307,-1.7975613,0.27646625,0.69558036,9.482929,-10.595279,2.8247743,-0.40640068,0.4253618,-0.35145316,-0.7282762,-5.303361,4.069081,-0.18651527,-2.6112187,1.4759395,0.6072864,0
0.7000000000000004,13.583424082196654,-0.6558819841656711,-0.6783616992761343,0.44008318715724076,12.92307,-1.7975613,0.27646625,0.69558036,9.429666,-10.554008,2.8226829,-0.3966511,0.43399283,-0.34641278,-0.7309692,-5.3500705,4.18523,-0.23191372,-2.3061461,1.1401106,0.5990817,0
0.7100000000000004,13.583424082196654,-0.6558819841656711,-0.6783616992761343,0.44008318715724076,12.92307,-1.7975613,0.27646625,0.69558036,9.375917,-10.511579,2.8201325,-0.38800478,0.4408753,-0.34170637,-0.7337013,-5.400087,4.300423,-0.27825442,-2.0486734,0.8566319,0.5912796,0
0.7200000000000004,12.487094890619268,1.0053256139322708,-2.1238323312336904,0.18503503648189829,11.892748,-1.355069,-0.40463316,1.0003661,9.321654,-10.468002,2.8171153,-0.38030222,0.44629565,-0.33730015,-0.7364907,-5.4529457,4.414636,-0.32524967,-1.8313733,0.61734295,0.5838604,0
0.7300000000000004,12.487094890619268,1.0053256139322708,-2.1238323312336904,0.18503503648189829,11.892748,-1.355069,-0.40463316,1.0003661,9.266872,-10.423334,2.8136053,-0.37392145,0.4498263,-0.3334195,-0.73937136,-5.5037518,4.5187364,-0.3767195,-1.3888265,0.19004449,0.5642899,0
0.7400000000000004,12.487094890619268,1.0053256139322708,-2.1238323312336904,0.18503503648189829,11.892748,-1.355069,-0.40463316,1.0003661,9.211574,-10.377629,2.8095803,-0.36915997,0.45114747,-0.33024558,-0.7423774,-5.556197,4.6220193,-0.42818642,-1.0153291,-0.17065346,0.54567975,0
0.7500000000000004,12.487094890619268,1.0053256139322708,-2.1238323312336904,0.18503503648189829,11.892748,-1.355069,-0.40463316,1.0003661,9.155744,-10.330895,2.8050427,-0.36577582,0.4506165,-0.32768148,-0.7455046,-5.6097183,4.72459,-0.47930333,-0.7001063,-0.47513053,0.5279828,0
0.7600000000000005,11.918056661246085,2.164706865895735,-3.3261976773378987,-0.057896531195548405,10.165115,-0.62267363,-0.9832037,0.4879063,9.099376,-10.283139,2.7999969,-0.36355898,0.44852766,-0.32563832,-0.74873686,-5.6638403,4.826547,-0.5297775,-0.4340647,-0.73214823,0.51115423,0
0.7700000000000005,11.918056661246085,2.164706865895735,-3.3261976773378987,-0.057896531195548405,10.165115,-0.62267363,-0.9832037,0.4879063,9.0424795,-10.234389,2.7944393,-0.36271456,0.4446042,-0.3241959,-0.75210476,-5.715657,4.9233623,-0.58155626,-0.02867335,-1.136553,0.4832307,0
0.7800000000000005,11.918056661246085,2.164706865895735,-3.3261976773378987,-0.057896531195548405,10.165115,-0.62267363,-0.9832037,0.4879063,8.985065,-10.184673,2.7883697,-0.36339062,0.43863204,-0.3234076,-0.75561625,-5.767114,5.0197945,-0.6321511,0.31346518,-1.4779243,0.45667747,0
0.7900000000000005,11.918056661246085,2.164706865895735,-3.3261976773378987,-0.057896531195548405,10.165115,-0.62267363,-0.9832037,0.4879063,8.927141,-10.133993,2.7818012,-0.36534,0.43091592,-0.32316044,-0.7592132,-5.817706,5.1159434,-0.68126553,0.6022222,-1.7660855,0.43142718,0
0.8000000000000005,12.01930066327553,2.6510912692589126,-3.8335474528959312,-0.23356799309854964,10.101885,0.0791212,-2.1915214,0.017026348,8.868716,-10.082354,2.7747502,-0.36835018,0.42170858,-0.3233545,-0.76283747,-5.8669934,5.211878,-0.7286621,0.845928,-2.0093288,0.40741593,0
0.8100000000000005,12.01930066327553,2.6510912692589126,-3.8335474528959312,-0.23356799309854964,10.101885,0.0791212,-2.1915214,0.017026348,8.809805,-10.029752,2.7672367,-0.37240204,0.41100016,-0.32396626,-0.7664467,-5.9149857,5.3084536,-0.7737007,1.127471,-2.2937627,0.37596264,0
0.8200000000000005,12.01930066327553,2.6510912692589126,-3.8335474528959312,-0.23356799309854964,10.101885,0.0791212,-2.1915214,0.017026348,8.750423,-9.976185,2.7592833,-0.37746575,0.39878815,-0.32496613,-0.76998943,-5.9608407,5.4048805,-0.816622,1.3650883,-2.5338593,0.34605283,0
0.8300000000000005,12.01930066327553,2.6510912692589126,-3.8335474528959312,-0.23356799309854964,10.101885,0.0791212,-2.1915214,0.017026348,8.690596,-9.921656,2.7509122,-0.3833575,0.38527718,-0.32626432,-0.773401,-6.004158,5.5011535,-0.8572725,1.565635,-2.7365286,0.31761065,0
0.8400000000000005,12.01930066327553,2.6510912692589126,-3.8335474528959312,-0.23356799309854964,10.870169,0.46573168,-2.2825928,-0.3473284,8.630349,-9.866165,2.742146,-0.38992015,0.37064058,-0.3277833,-0.7766241,-6.044585,5.5972357,-0.89554745,1.7348957,-2.9076035,0.29056412,0
0.8500000000000005,12.01930066327553,2.6510912692589126,-3.8335474528959312,-0.23356799309854964,10.870169,0.46573168,-2.2825928,-0.3473284,8.5697155,-9.809713,2.7330093,-0.39701948,0.3550259,-0.32945666,-0.7796085,-6.08181,5.693061,-0.9313842,1.8777523,-3.0520084,0.2648448,0
0.8600000000000005,12.01930066327553,2.6510912692589126,-3.8335474528959312,-0.23356799309854964,10.870169,0.46573168,-2.2825928,-0.3473284,8.508726,-9.752305,2.7235267,-0.40454087,0.33855963,-0.33122787,-0.7823114,-6.1155577,5.788541,-0.9647573,1.9983246,-3.1739,0.24038753,0
0.8700000000000006,12.01930066327553,2.6510912692589126,-3.8335474528959312,-0.23356799309854964,10.870169,0.46573168,-2.2825928,-0.3473284,8.447417,-9.693944,2.7137225,-0.41238648,0.3213507,-0.3330489,-0.7846964,-6.145585,5.883564,-0.99567354,2.1000896,-3.2767873,0.2171304,0
0.8800000000000006,12.128262119330984,2.323192468215231,-3.669617627802383,-0.30904100779658816,11.802363,1.4331752,-2.1976097,-0.45179614,8.385828,-9.634637,2.7036214,-0.42047274,0.30349338,-0.33487928,-0.78673327,-6.1716805,5.9780025,-1.0241678,2.185982,-3.3636332,0.1950145,0
0.8900000000000006,12.128262119330984,2.323192468215231,-3.669617627802383,-0.30904100779658816,11.802363,1.4331752,-2.1976097,-0.45179614,8.3239975,-9.574384,2.6932504,-0.42867523,0.28518045,-0.33660707,-0.7884188,-6.1938653,6.0725636,-1.0496477,2.2073312,-3.4113843,0.17028035,0
0.9000000000000006,12.128262119330984,2.323192468215231,-3.669617627802383,-0.30904100779658816,11.802363,1.4331752,-2.1976097,-0.45179614,8.261966,-9.513188,2.6826363,-0.43689758,0.2665751,-0.33814463,-0.78975654,-6.2117944,6.1662292,-1.0728287,2.225351,-3.4516876,0.14675991,0
0.9100000000000006,12.128262119330984,2.323192468215231,-3.669617627802383,-0.30904100779658816,11.802363,1.4331752,-2.1976097,-0.45179614,8.199777,-9.451062,2.6718016,-0.44511086,0.24771343,-0.3394934,-0.79073226,-6.225391,6.2588334,-1.0938107,2.240562,-3.485705,0.12439363,0
0.9200000000000006,12.292150347575499,1.4661696381021552,-2.9851421125077966,-0.28021214108997167,12.202203,1.2472612,-2.338248,-0.40901712,8.137473,-9.388017,2.6607673,-0.4532897,0.22862755,-0.34065503,-0.7913349,-6.2345924,6.3502073,-1.1127048,2.2534018,-3.5144157,0.10312486,1
0.9300000000000006,12.292150347575499,1.4661696381021552,-2.9851421125077966,-0.28021214108997167,12.202203,1.2472612,-2.338248,-0.40901712,8.075099,-9.32406,2.6495569,-0.46114814,0.20997036,-0.3415339,-0.7915859,-6.239412,6.4407415,-1.1291482,2.096428,-3.331038,0.07799391,1
0.9400000000000006,12.292150347575499,1.4661696381021552,-2.9851421125077966,-0.28021214108997167,12.202203,1.2472612,-2.338248,-0.40901712,8.012699,-9.259208,2.6381907,-0.46848455,0.1922738,-0.34207165,-0.79154205,-6.239985,6.5297756,-1.1438198,1.9639432,-3.1762505,0.054096125,1
0.9500000000000006,12.292150347575499,1.4661696381021552,-2.9851421125077966,-0.28021214108997167,12.202203,1.2472612,-2.338248,-0.40901712,7.9503136,-9.193472,2.6266859,-0.47538856,0.1753987,-0.3423185,-0.7912382,-6.2365475,6.617237,-1.1569113,1.8521272,-3.045596,0.03137103,1
0.9600000000000006,12.012157692692977,0.2805293958447891,-2.1598137538402042,-0.13002558169104614,12.218449,-0.52364504,-0.8523407,0.36993137,7.8879814,-9.126868,2.6150572,-0.4819328,0.15922555,-0.3423156,-0.79070026,-6.229305,6.703066,-1.1685883,1.7577552,-2.935312,0.009761067,0
0.9700000000000006,12.012157692692977,0.2805293958447891,-2.1598137538402042,-0.13002558169104614,12.218449,-0.52364504,-0.8523407,0.36993137,7.82574,-9.059422,2.6033115,-0.48806623,0.14388429,-0.34183186,-0.7900877,-6.218623,6.785894,-1.1803551,1.5273691,-2.8143818,0.002901692,0
0.9800000000000006,12.012157692692977,0.2805293958447891,-2.1598137538402042,-0.13002558169104614,12.218449,-0.52364504,-0.8523407,0.36993137,7.763621,-8.991156,2.591454,-0.49375758,0.12947387,-0.34068948,-0.7895376,-6.204675,6.866988,-1.1909498,1.3329134,-2.7123082,-0.003621098,0
0.9900000000000007,12.012157692692977,0.2805293958447891,-2.1598137538402042,-0.13002558169104614,12.218449,-0.52364504,-0.8523407,0.36993137,7.7016563,-8.922087,2.5794961,-0.49908486,0.11585677,-0.33899054,-0.78903484,-6.1877418,6.9462867,-1.2004316,1.1687844,-2.6261513,-0.009823802,0
1.0000000000000007,11.76277443049918,-0.9072757140573312,-1.2319772694150848,0.11362216910184182,11.030208,-0.8531554,0.38652343,0.23288314,7.6398754,-8.852235,2.5674489,-0.5041106,0.10291525,-0.33681995,-0.7885635,-6.168063,7.0237365,-1.2088515,1.0302521,-2.5534294,-0.015722143,0
1.0100000000000007,11.76277443049918,-0.9072757140573312,-1.2319772694150848,0.11362216910184182,11.030208,-0.8531554,0.38652343,0.23288314,7.5783014,-8.781626,2.5553133,-0.5086915,0.09107218,-0.33406603,-0.78824973,-6.146337,7.097733,-1.218137,0.72810733,-2.3473437,-0.009375175,0
1.0200000000000007,11.76277443049918,-0.9072757140573312,-1.2319772694150848,0.11362216910184182,11.030208,-0.8531554,0.38652343,0.23288314,7.5169554,-8.710286,2.5430896,-0.51272684,0.08065886,-0.33065072,-0.78820956,-6.1225295,7.169901,-1.2264558,0.4730801,-2.1733997,-0.00333966,0
1.0300000000000007,11.76277443049918,-0.9072757140573312,-1.2319772694150848,0.11362216910184182,11.030208,-0.8531554,0.38652343,0.23288314,7.455857,-8.638234,2.5307877,-0.51631564,0.071457684,-0.3266821,-0.78840953,-6.097016,7.2402763,-1.2338248,0.25782222,-2.0265837,0.00239969,0
1.0400000000000007,11.76277443049918,-0.9072757140573312,-1.2319772694150848,0.11362216910184182,11.560201,-1.400777,0.8658286,0.70402646,7.39502,-8.565486,2.5184166,-0.5195365,0.063283384,-0.32224914,-0.78881645,-6.0701127,7.308894,-1.2402536,0.07613233,-1.9026653,0.007857417,0
1.0500000000000007,11.76277443049918,-0.9072757140573312,-1.2319772694150848,0.11362216910184182,11.560201,-1.400777,0.8658286,0.70402646,7.334458,-8.492062,2.5059857,-0.52245224,0.055978455,-0.3174254,-0.7893985,-6.0420866,7.3757877,-1.2457486,-0.07722397,-1.7980729,0.013047311,0
1.0600000000000007,11.76277443049918,-0.9072757140573312,-1.2319772694150848,0.11362216910184182,11.560201,-1.400777,0.8658286,0.70402646,7.274181,-8.417976,2.4935045,-0.52511305,0.04940918,-0.3122717,-0.7901266,-6.0131626,7.4409857,-1.2503145,-0.2066654,-1.7097924,0.017982552,0
1.0700000000000007,11.76277443049918,-0.9072757140573312,-1.2319772694150848,0.11362216910184182,11.560201,-1.400777,0.8658286,0.70402646,7.2141967,-8.343247,2.4809825,-0.5275595,0.043462154,-0.30683878,-0.7909745,-5.983532,7.504512,-1.2539558,-0.315921,-1.6352795,0.022675611,0
1.0800000000000007,11.77308900093758,-1.9196466541647648,-0.27548353160523226,0.4400273375474963,12.363849,-1.5134032,0.8271118,1.1810687,7.154512,-8.267892,2.4684286,-0.5298241,0.03804126,-0.30116886,-0.79191875,-5.953356,7.5663857,-1.2566782,-0.40813887,-1.5723873,0.027138388,0
1.0900000000000007,11.77308900093758,-1.9196466541647648,-0.27548353160523226,0.4400273375474963,12.363849,-1.5134032,0.8271118,1.1810687,7.095131,-8.191925,2.4558525,-0.53177226,0.033571225,-0.2951811,-0.7930687,-5.9227705,7.626689,-1.2584022,-0.643843,-1.3701483,0.047398955,0
1.1000000000000008,11.77308900093758,-1.9196466541647648,-0.27548353160523226,0.4400273375474963,12.363849,-1.5134032,0.8271118,1.1810687,7.0360565,-8.115363,2.4432635,-0.5333001,0.030384274,-0.2888144,-0.7945141,-5.8920965,7.685452,-1.2592071,-0.8427939,-1.1994525,0.066665344,0
1.1100000000000008,11.77308900093758,-1.9196466541647648,-0.27548353160523226,0.4400273375474963,12.363849,-1.5134032,0.8271118,1.1810687,6.977288,-8.03822,2.4306715,-0.53446954,0.028280325,-0.28212655,-0.7962071,-5.8616366,7.742769,-1.2590866,-1.010722,-1.0553793,0.08498633,0
1.1200000000000008,12.117025042951648,-2.824488289189478,0.6146680861476457,0.7614438685546737,12.568686,-2.191554,1.0693898,1.5631065,6.918822,-7.9605117,2.418085,-0.5353302,0.027090076,-0.2751652,-0.7981043,-5.8316455,7.798718,-1.2580373,-1.1524644,-0.9337759,0.10240828,1
1.1300000000000008,12.117025042951648,-2.824488289189478,0.6146680861476457,0.7614438685546737,12.568686,-2.191554,1.0693898,1.5631065,6.860662,-7.8822317,2.4055476,-0.5356614,0.02712055,-0.26817527,-0.8002574,-5.800377,7.857078,-1.2493045,-1.3145006,-0.6214552,0.17408517,1
1.1400000000000008,12.117025042951648,-2.824488289189478,0.6146680861476457,0.7614438685546737,12.568686,-2.191554,1.0693898,1.5631065,6.8028097,-7.8033743,2.393102,-0.5352782,0.028604612,-0.26135337,-0.8027154,-5.7701716,7.91428,-1.2396432,-1.4512898,-0.35784835,0.24224487,1
1.1500000000000008,12.117025042951648,-2.824488289189478,0.6146680861476457,0.7614438685546737,12.568686,-2.191554,1.0693898,1.5631065,6.745253,-7.7239494,2.3807576,-0.5342622,0.031310182,-0.25466987,-0.80543494,-5.741332,7.970545,-1.2291178,-1.5667623,-0.13535553,0.3070599,1
1.1600000000000008,12.842266020264837,-3.5165312702069893,1.1641609760360208,1.062350440056216,12.84323,-2.6170888,2.3206542,1.9442279,6.687977,-7.643966,2.3685222,-0.53267974,0.03504123,-0.2480989,-0.8083749,-5.7141137,8.026053,-1.217788,-1.6642375,0.05243774,0.36869448,0
1.1700000000000008,12.842266020264837,-3.5165312702069893,1.1641609760360208,1.062350440056216,12.84323,-2.6170888,2.3206542,1.9442279,6.630967,-7.5634246,2.3564162,-0.53060526,0.039960098,-0.2412061,-0.81159073,-5.6882086,8.082138,-1.2033031,-1.9531479,0.22569802,0.40273237,0
1.1800000000000008,12.842266020264837,-3.5165312702069893,1.1641609760360208,1.062350440056216,12.84323,-2.6170888,2.3206542,1.9442279,6.5742044,-7.482325,2.344459,-0.5280972,0.046186794,-0.23364013,-0.8151018,-5.664583,8.137657,-1.1880394,-2.197003,0.37194082,0.43510002,0
1.1900000000000008,12.842266020264837,-3.5165312702069893,1.1641609760360208,1.062350440056216,12.84323,-2.6170888,2.3206542,1.9442279,6.517666,-7.4006734,2.3326583,-0.5251836,0.053511288,-0.2254925,-0.81882256,-5.643609,8.192634,-1.1719935,-2.4028273,0.49538076,0.46587938,0
1.2000000000000008,13.80654242828346,-3.904097708193228,1.3847516653697367,1.25390543991832,13.27805,-2.7958844,1.7417738,1.5548122,6.4613223,-7.3184743,2.3210218,-0.52188665,0.061755706,-0.21684094,-0.82267797,-5.6256046,8.247072,-1.1551856,-2.5765517,0.59957504,0.4951484,0
1.2100000000000009,13.80654242828346,-3.904097708193228,1.3847516653697367,1.25390543991832,13.27805,-2.7958844,1.7417738,1.5548122,6.4051485,-7.235713,2.3096004,-0.5181755,0.07091757,-0.20767117,-0.8266415,-5.6097436,8.305005,-1.1289748,-2.7836385,0.721889,0.5323808,0
1.2200000000000009,13.80654242828346,-3.904097708193228,1.3847516653697367,1.25390543991832,13.27805,-2.7958844,1.7417738,1.5548122,6.349115,-7.152376,2.298445,-0.51401925,0.080985196,-0.19797422,-0.83068067,-5.597696,8.362317,-1.102051,-2.9584281,0.8251335,0.5677862,0
1.2300000000000009,13.80654242828346,-3.904097708193228,1.3847516653697367,1.25390543991832,13.27805,-2.7958844,1.7417738,1.5548122,6.2931805,-7.068469,2.287562,-0.50943536,0.09180663,-0.18781948,-0.8347273,-5.5897527,8.418964,-1.0744988,-3.1059568,0.9122829,0.6014543,0
1.2400000000000009,13.80654242828346,-3.904097708193228,1.3847516653697367,1.25390543991832,13.762727,-2.8977523,1.6577957,1.6076517,6.237304,-6.9839997,2.276957,-0.50443894,0.10325265,-0.1772669,-0.83872235,-5.586158,8.474888,-1.0464238,-3.230476,0.985848,0.6334703,0
1.2500000000000009,13.80654242828346,-3.904097708193228,1.3847516653697367,1.25390543991832,13.762727,-2.8977523,1.6577957,1.6076517,6.1814413,-6.8989744,2.2666352,-0.49904382,0.11521324,-0.16636862,-0.84261566,-5.587114,8.530012,-1.0179509,-3.3355732,1.0479472,0.6639152,0
1.260000000000001,13.80654242828346,-3.904097708193228,1.3847516653697367,1.25390543991832,13.762727,-2.8977523,1.6577957,1.6076517,6.125546,-6.813402,2.2565994,-0.4932626,0.12759459,-0.15517016,-0.8463642,-5.592787,8.584251,-0.98922014,-3.4242775,1.1003687,0.6928662,0
1.270000000000001,13.80654242828346,-3.904097708193228,1.3847516653697367,1.25390543991832,13.762727,-2.8977523,1.6577957,1.6076517,6.0695696,-6.727293,2.2468514,-0.48710713,0.1403166,-0.14371143,-0.8499314,-5.6033077,8.637512,-0.96038437,-3.4991457,1.1446216,0.7203965,0
1.280000000000001,14.257595582826298,-3.7825852376572566,1.326753152425936,1.2796265083177523,14.773101,-3.2060688,1.8183792,1.9988673,6.0134635,-6.640656,2.2373915,-0.4805888,0.15331073,-0.13202757,-0.85328627,-5.6187787,8.689692,-0.9316066,-3.5623357,1.1819794,0.74657595,1
1.290000000000001,14.257595582826298,-3.7825852376572566,1.326753152425936,1.2796265083177523,14.773101,-3.2060688,1.8183792,1.9988673,5.95717,-6.553485,2.228263,-0.4736627,0.16652142,-0.12048594,-0.8563854,-5.640699,8.744269,-0.8941973,-3.5068755,1.2811121,0.80802625,1
1.300000000000001,14.257595582826298,-3.7825852376572566,1.326753152425936,1.2796265083177523,14.773101,-3.2060688,1.8183792,1.9988673,5.900631,-6.4657745,2.219506,-0.46629444,0.17990476,-0.10938471,-0.85920745,-5.6679735,8.797596,-0.85726213,-3.4600606,1.3647913,0.86646116,1
1.310000000000001,14.257595582826298,-3.7825852376572566,1.326753152425936,1.2796265083177523,14.773101,-3.2060688,1.8183792,1.9988673,5.843792,-6.3775373,2.2111151,-0.45850775,0.19342151,-0.09865937,-0.86175627,-5.700559,8.8496895,-0.8210247,-3.4205425,1.4354264,0.92202866,1
1.320000000000001,14.740460648793958,-3.3418404814204394,0.7958646635646968,1.244802105513757,14.926156,-3.0273407,1.2876465,1.8623745,5.786601,-6.2887855,2.2030826,-0.450323,0.20703745,-0.088256046,-0.86403376,-5.738407,8.900548,-0.7856965,-3.3871827,1.4950509,0.9748694,1
1.330000000000001,14.740460648793958,-3.3418404814204394,0.7958646635646968,1.244802105513757,14.926156,-3.0273407,1.2876465,1.8623745,5.729004,-6.199528,2.1954048,-0.44180667,0.22050872,-0.078093365,-0.8660733,-5.7818975,8.950657,-0.7501013,-3.3310869,1.4626472,1.0184195,1
1.340000000000001,14.740460648793958,-3.3418404814204394,0.7958646635646968,1.244802105513757,14.926156,-3.0273407,1.2876465,1.8623745,5.670946,-6.1097765,2.1880763,-0.4330172,0.23364158,-0.06810717,-0.8679101,-5.8305025,8.999404,-0.7157701,-3.2837384,1.4352987,1.0598327,1
1.350000000000001,14.740460648793958,-3.3418404814204394,0.7958646635646968,1.244802105513757,14.926156,-3.0273407,1.2876465,1.8623745,5.612377,-6.0195446,2.1810844,-0.42396057,0.24647553,-0.05827883,-0.8695456,-5.8840723,9.046687,-0.68283045,-3.2437737,1.4122168,1.0992137,1
1.360000000000001,14.454175002796665,-2.694342975728458,-0.19971611182421392,1.0196251415322681,14.767665,-2.8696718,0.9602333,1.4379864,5.553248,-5.928848,2.1744144,-0.41464293,0.25904343,-0.048592582,-0.8709794,-5.9424624,9.092408,-0.6514044,-3.2100413,1.3927357,1.1366622,0
1.370000000000001,14.454175002796665,-2.694342975728458,-0.19971611182421392,1.0196251415322681,14.767665,-2.8696718,0.9602333,1.4379864,5.493521,-5.8377094,2.1680305,-0.40522522,0.27080476,-0.0388796,-0.87232125,-6.0035152,9.135056,-0.625633,-3.1294303,1.1444652,1.1309192,0
1.380000000000001,14.454175002796665,-2.694342975728458,-0.19971611182421392,1.0196251415322681,14.767665,-2.8696718,0.9602333,1.4379864,5.433163,-5.7461534,2.1618965,-0.39585117,0.2813368,-0.029007236,-0.8736754,-6.0687757,9.175848,-0.60139096,-3.061421,0.9349017,1.125458,0
1.390000000000001,14.454175002796665,-2.694342975728458,-0.19971611182421392,1.0196251415322681,14.767665,-2.8696718,0.9602333,1.4379864,5.372133,-5.6541996,2.1559978,-0.38650233,0.2908225,-0.019010391,-0.8750289,-6.1379232,9.214553,-0.57861394,-3.0040429,0.7580108,1.1202648,0
1.400000000000001,14.157200245137851,-1.9451254017805664,-1.2482043366933462,0.6663453071212206,15.664453,-2.32789,-0.48477548,0.6785865,5.310393,-5.5618706,2.150319,-0.377163,0.29941568,-0.008917185,-0.87636614,-6.2106743,9.25097,-0.55724907,-2.9556344,0.60869867,1.1153263,0
1.410000000000001,14.157200245137851,-1.9451254017805664,-1.2482043366933462,0.6663453071212206,15.664453,-2.32789,-0.48477548,0.6785865,5.2479157,-5.4691925,2.1448355,-0.36795264,0.30676714,0.0011566009,-0.87778264,-6.2851863,9.284227,-0.5396633,-2.797831,0.31927055,1.0932946,0
1.420000000000001,14.157200245137851,-1.9451254017805664,-1.2482043366933462,0.6663453071212206,15.664453,-2.32789,-0.48477548,0.6785865,5.184679,-5.3761945,2.1395216,-0.35897362,0.3126124,0.011116308,-0.87936723,-6.3625565,9.314911,-0.5232478,-2.664677,0.07495479,1.0723441,0
1.430000000000001,14.157200245137851,-1.9451254017805664,-1.2482043366933462,0.6663453071212206,15.664453,-2.32789,-0.48477548,0.6785865,5.120656,-5.282903,2.1343668,-0.3501892,0.31718367,0.020970896,-0.8810908,-6.44239,9.34288,-0.5078319,-2.552321,-0.13127951,1.0524217,0
1.440000000000001,14.157200245137851,-1.9451254017805664,-1.2482043366933462,0.6663453071212206,16.471977,-2.2360308,-1.4578404,0.56104684,5.055824,-5.189346,2.1293616,-0.34156758,0.3206753,0.030729474,-0.8829232,-6.5243454,9.368022,-0.49326968,-2.4575136,-0.30536795,1.0334768,0
1.450000000000001,14.157200245137851,-1.9451254017805664,-1.2482043366933462,0.6663453071212206,16.471977,-2.2360308,-1.4578404,0.56104684,4.990163,-5.095552,2.1244986,-0.33308128,0.32325026,0.040400904,-0.8848348,-6.608126,9.390245,-0.47943836,-2.3775134,-0.45232087,1.0154617,0
1.460000000000001,14.157200245137851,-1.9451254017805664,-1.2482043366933462,0.6663453071212206,16.471977,-2.2360308,-1.4578404,0.56104684,4.923656,-5.001551,2.1197705,-0.324707,0.32504523,0.04999355,-0.88679785,-6.6934705,9.409476,-0.46623632,-2.3100069,-0.5763681,0.9983305,0
1.470000000000001,14.157200245137851,-1.9451254017805664,-1.2482043366933462,0.6663453071212206,16.471977,-2.2360308,-1.4578404,0.56104684,4.856289,-4.907373,2.1151721,-0.3164252,0.3261749,0.05951511,-0.88878673,-6.78015,9.425653,-0.45358118,-2.253043,-0.6810796,0.98203987,0
1.480000000000001,14.194908440580132,-1.1046988334638053,-1.8017497288849877,0.2970347635467799,16.41253,-1.926975,-1.8896375,0.37584302,4.7880487,-4.813049,2.1106975,-0.30821937,0.3267358,0.068972595,-0.8907784,-6.8679595,9.438729,-0.44140756,-2.2049747,-0.7694692,0.9665487,0
1.490000000000001,14.194908440580132,-1.1046988334638053,-1.8017497288849877,0.2970347635467799,16.41253,-1.926975,-1.8896375,0.37584302,4.718925,-4.718609,2.1063437,-0.30021122,0.3265062,0.07815501,-0.89283687,-6.956933,9.448699,-0.42935774,-2.0333056,-0.9303011,0.93369544,0
1.500000000000001,14.194908440580132,-1.1046988334638053,-1.8017497288849877,0.2970347635467799,16.41253,-1.926975,-1.8896375,0.37584302,4.648908,-4.6240845,2.102109,-0.2925021,0.3253183,0.08689559,-0.89501876,-7.0465484,9.455558,-0.41759002,-1.8884289,-1.0660764,0.9024543,0
1.5100000000000011,14.194908440580132,-1.1046988334638053,-1.8017497288849877,0.2970347635467799,16.41253,-1.926975,-1.8896375,0.37584302,4.577993,-4.5295067,2.0979915,-0.28505152,0.3233182,0.09526021,-0.8972933,-7.1365175,9.459352,-0.4059631,-1.7661619,-1.180698,0.87274617,0
1.5200000000000011,13.252431665850361,-0.2764467119919495,-2.3580740029425233,-0.09075126916051392,15.221674,-0.9718566,-2.3045619,-0.007654683,4.5061774,-4.4349074,2.0939898,-0.27782503,0.3206281,0.10330493,-0.89963204,-7.226592,9.460124,-0.3943603,-1.6629755,-1.2774614,0.8444959,0
1.5300000000000011,13.252431665850361,-0.2764467119919495,-2.3580740029425233,-0.09075126916051392,15.221674,-0.9718566,-2.3045619,-0.007654683,4.433492,-4.340314,2.090068,-0.27091908,0.317054,0.110855624,-0.9021029,-7.310567,9.458074,-0.38996133,-1.4466975,-1.4458197,0.798603,0
1.5400000000000011,13.252431665850361,-0.2764467119919495,-2.3580740029425233,-0.09075126916051392,15.221674,-0.9718566,-2.3045619,-0.007654683,4.359968,-4.2457542,2.0861914,-0.26441205,0.31244844,0.11777653,-0.9047596,-7.3941364,9.453349,-0.38531914,-1.2641685,-1.587954,0.75496215,0
1.5500000000000012,13.252431665850361,-0.2764467119919495,-2.3580740029425233,-0.09075126916051392,15.221674,-0.9718566,-2.3045619,-0.007654683,4.2856116,-4.151255,2.0823631,-0.25825197,0.30696747,0.12416357,-0.9075568,-7.47702,9.446054,-0.3802726,-1.1101209,-1.7079479,0.7134627,0
1.5600000000000012,12.401054490117772,0.43638641402133,-2.732330192762363,-0.4733631446917356,14.26895,-0.715894,-2.3165326,-0.29150394,4.210431,-4.0568414,2.0785878,-0.25239462,0.30074152,0.1300979,-0.9104532,-7.5589757,9.436286,-0.37469137,-0.98010916,-1.8092488,0.67399967,0
1.5700000000000012,12.401054490117772,0.43638641402133,-2.732330192762363,-0.4733631446917356,14.26895,-0.715894,-2.3165326,-0.29150394,4.1344624,-3.962534,2.0748377,-0.24691078,0.29366592,0.13543975,-0.9134826,-7.6345916,9.424916,-0.3751643,-0.7592159,-1.9530776,0.61769825,0
1.5800000000000012,12.401054490117772,0.43638641402133,-2.732330192762363,-0.4733631446917356,14.26895,-0.715894,-2.3165326,-0.29150394,4.057744,-3.8683505,2.0710866,-0.24185728,0.28566262,0.14008151,-0.9166668,-7.708883,9.411449,-0.37489015,-0.5727857,-2.0745063,0.5641596,0
1.5900000000000012,12.401054490117772,0.43638641402133,-2.732330192762363,-0.4733631446917356,14.26895,-0.715894,-2.3165326,-0.29150394,3.98029,-3.7743115,2.0673425,-0.23718008,0.2768679,0.1441297,-0.91995394,-7.781611,9.396021,-0.37374,-0.4154401,-2.1770217,0.513248,0
1.6000000000000012,11.873929597191587,0.8442642115834321,-2.905913138623252,-0.8298445742644693,13.701356,0.9900651,-2.3799303,-1.4501128,3.9021177,-3.6804361,2.0636148,-0.2328332,0.26739603,0.14767416,-0.92329806,-7.852567,9.378748,-0.37161592,-0.28264058,-2.2635682,0.46483475,0
1.6100000000000012,11.873929597191587,0.8442642115834321,-2.905913138623252,-0.8298445742644693,13.701356,0.9900651,-2.3799303,-1.4501128,3.8232603,-3.5867383,2.0598922,-0.22885093,0.2572346,0.1506674,-0.92669076,-7.918629,9.36055,-0.3727468,-0.10696788,-2.3636837,0.40130445,0
1.6200000000000012,11.873929597191587,0.8442642115834321,-2.905913138623252,-0.8298445742644693,13.701356,0.9900651,-2.3799303,-1.4501128,3.7437522,-3.4932303,2.0561635,-0.22526148,0.24637775,0.15307537,-0.9301194,-7.9826207,9.340817,-0.372795,0.041302104,-2.4482064,0.34089163,0
1.6300000000000012,11.873929597191587,0.8442642115834321,-2.905913138623252,-0.8298445742644693,13.701356,0.9900651,-2.3799303,-1.4501128,3.6636157,-3.3999267,2.0524402,-0.22202036,0.23492286,0.15498592,-0.93353975,-8.044358,9.319674,-0.37169972,0.16644521,-2.519564,0.28344327,0
1.6400000000000012,11.873929597191587,0.8442642115834321,-2.905913138623252,-0.8298445742644693,13.729381,1.4021641,-2.5819213,-1.4785972,3.5828736,-3.3068411,2.0487337,-0.21908946,0.22295241,0.15647288,-0.9369136,-8.1036825,9.297227,-0.36942506,0.2720701,-2.579805,0.22881395,0
1.6500000000000012,11.873929597191587,0.8442642115834321,-2.905913138623252,-0.8298445742644693,13.729381,1.4021641,-2.5819213,-1.4785972,3.5015512,-3.2139862,2.045056,-0.21643615,0.21053642,0.15759832,-0.9402082,-8.160449,9.273574,-0.36595637,0.36122206,-2.63066,0.17686528,0
1.6600000000000013,11.873929597191587,0.8442642115834321,-2.905913138623252,-0.8298445742644693,13.729381,1.4021641,-2.5819213,-1.4785972,3.4196742,-3.1213734,2.041419,-0.2140323,0.19773455,0.15841436,-0.9433955,-8.214533,9.248798,-0.36129755,0.43647113,-2.6735911,0.1274657,0
1.6700000000000013,11.873929597191587,0.8442642115834321,-2.905913138623252,-0.8298445742644693,13.729381,1.4021641,-2.5819213,-1.4785972,3.33727,-3.0290139,2.0378342,-0.21185364,0.18459779,0.15896472,-0.9464517,-8.265819,9.222978,-0.35546848,0.4999863,-2.7098317,0.080490194,0
1.6800000000000013,11.474956977326686,1.1482506312921956,-2.358200655286549,-1.0565236054562261,13.481274,-0.14103994,-3.1750426,-1.3967812,3.2543676,-2.9369173,2.0343134,-0.20987907,0.17116989,0.15928605,-0.9493569,-8.314204,9.196178,-0.34850267,0.553598,-2.7404237,0.03581981,0
1.6900000000000013,11.474956977326686,1.1482506312921956,-2.358200655286549,-1.0565236054562261,13.481274,-0.14103994,-3.1750426,-1.3967812,3.1710036,-2.8450887,2.03085,-0.20817237,0.15766719,0.15925254,-0.952073,-8.358081,9.169406,-0.34401265,0.64623857,-2.6808364,-0.017781802,0
1.7000000000000013,11.474956977326686,1.1482506312921956,-2.358200655286549,-1.0565236054562261,13.481274,-0.14103994,-3.1750426,-1.3967812,3.0872157,-2.7535317,2.0274365,-0.2067859,0.14426503,0.15876721,-0.954578,-8.399045,9.141881,-0.33852252,0.72444016,-2.6305463,-0.06875315,0
1.7100000000000013,11.474956977326686,1.1482506312921956,-2.358200655286549,-1.0565236054562261,13.481274,-0.14103994,-3.1750426,-1.3967812,3.0030327,-2.662253,2.0240827,-0.20568693,0.1309429,0.157897,-0.9568774,-8.437085,9.113729,-0.33209044,0.79045314,-2.588102,-0.11722334,0
1.7200000000000013,11.067575143398908,1.1989591575188483,-1.7066056013200608,-1.2100777104694225,12.916534,-0.05554112,-2.7529788,-1.472453,2.9184837,-2.5712585,2.0207977,-0.20484705,0.117683746,0.15669808,-0.9589749,-8.472192,9.085055,-0.32477656,0.8461774,-2.5522788,-0.16331506,0
1.7300000000000013,11.067575143398908,1.1989591575188483,-1.7066056013200608,-1.2100777104694225,12.916534,-0.05554112,-2.7529788,-1.472453,2.8336046,-2.4805481,2.0175712,-0.20430331,0.104716845,0.15514731,-0.9608448,-8.503222,9.056993,-0.32041633,0.9011261,-2.4204323,-0.21468,0
1.7400000000000013,11.067575143398908,1.1989591575188483,-1.7066056013200608,-1.2100777104694225,12.916534,-0.05554112,-2.7529788,-1.472453,2.748429,-2.39012,2.014392,-0.20408654,0.092224464,0.15322994,-0.9624775,-8.5314865,9.02864,-0.31533742,0.94751483,-2.309148,-0.26352447,0
1.7500000000000013,11.067575143398908,1.1989591575188483,-1.7066056013200608,-1.2100777104694225,12.916534,-0.05554112,-2.7529788,-1.472453,2.6629841,-2.2999763,2.0112667,-0.20416504,0.080130115,0.15100054,-0.963895,-8.557058,9.000109,-0.30960742,0.9866761,-2.2152185,-0.3099721,0
1.7600000000000013,10.78823521731139,1.068141828217507,-0.9806241154803296,-1.262885172814738,12.662838,0.39924398,-2.1137393,-1.307151,2.5772967,-2.2101183,2.0082018,-0.20451108,0.06836922,0.14850487,-0.96511453,-8.580003,8.971495,-0.3032885,1.0197358,-2.1359365,-0.35414055,0
1.7700000000000014,10.78823521731139,1.068141828217507,-0.9806241154803296,-1.262885172814738,12.662838,0.39924398,-2.1137393,-1.307151,2.4913955,-2.120543,2.0051897,-0.20514657,0.057177745,0.14577308,-0.9661236,-8.599874,8.943599,-0.2990893,1.027269,-1.9557979,-0.39873293,0
1.7800000000000014,10.78823521731139,1.068141828217507,-0.9806241154803296,-1.262885172814738,12.662838,0.39924398,-2.1137393,-1.307151,2.4053073,-2.0312462,2.0022218,-0.20608905,0.046740703,0.14283188,-0.96692324,-8.617384,8.915789,-0.29443663,1.0336325,-1.8037504,-0.44113714,0
1.7900000000000014,10.78823521731139,1.068141828217507,-0.9806241154803296,-1.262885172814738,12.662838,0.39924398,-2.1137393,-1.307151,2.3190556,-1.9422268,1.9993024,-0.20730945,0.036939006,0.13971174,-0.9675422,-8.632674,8.88814,-0.28938618,1.0390068,-1.6754131,-0.48146054,0
1.8000000000000014,10.617805490034065,0.8094358622970395,-0.4367030733206275,-1.2289134496587135,12.005157,0.3422245,-1.3466419,-1.3159249,2.2326615,-1.8534826,1.9964353,-0.20878217,0.02767203,0.13643818,-0.968002,-8.6458645,8.86072,-0.28398514,1.043545,-1.5670886,-0.51980525,0
1.8100000000000014,10.617805490034065,0.8094358622970395,-0.4367030733206275,-1.2289134496587135,12.005157,0.3422245,-1.3466419,-1.3159249,2.146146,-1.7650093,1.9936156,-0.21050769,0.01908787,0.13308725,-0.9683021,-8.656889,8.834011,-0.2799155,1.0070634,-1.3908162,-0.55460143,0
1.8200000000000014,10.617805490034065,0.8094358622970395,-0.4367030733206275,-1.2289134496587135,12.005157,0.3422245,-1.3466419,-1.3159249,2.0595298,-1.6768014,1.9908379,-0.21248503,0.011299964,0.12972051,-0.9684493,-8.666114,8.807626,-0.2755842,0.9762702,-1.2420329,-0.58769006,0
1.8300000000000014,10.617805490034065,0.8094358622970395,-0.4367030733206275,-1.2289134496587135,12.005157,0.3422245,-1.3466419,-1.3159249,1.9728295,-1.5888556,1.9881047,-0.2146907,0.004183169,0.12633817,-0.9684669,-8.6736965,8.781596,-0.2710268,0.9502774,-1.1164516,-0.61915505,0
1.8400000000000014,10.617805490034065,0.8094358622970395,-0.4367030733206275,-1.2289134496587135,11.766903,0.13793102,-0.7918038,-1.160775,1.8860611,-1.5011683,1.985418,-0.21710385,-0.0023681978,0.12294025,-0.96837234,-8.679768,8.755954,-0.2662718,0.92833614,-1.0104545,-0.6490761,0
1.8500000000000014,10.617805490034065,0.8094358622970395,-0.4367030733206275,-1.2289134496587135,11.766903,0.13793102,-0.7918038,-1.160775,1.7992389,-1.4137353,1.9827797,-0.21970595,-0.008443326,0.11952681,-0.96817887,-8.684439,8.7307205,-0.26134244,0.9098144,-0.9209874,-0.6775289,0
1.8600000000000014,10.617805490034065,0.8094358622970395,-0.4367030733206275,-1.2289134496587135,11.766903,0.13793102,-0.7918038,-1.160775,1.7123767,-1.3265525,1.9801916,-0.22248057,-0.014117445,0.11609793,-0.9678964,-8.687803,8.705916,-0.25625798,0.89417875,-0.8454724,-0.70458555,0
1.8700000000000014,10.617805490034065,0.8094358622970395,-0.4367030733206275,-1.2289134496587135,11.766903,0.13793102,-0.7918038,-1.160775,1.6254871,-1.2396154,1.977655,-0.22541304,-0.019453978,0.1126537,-0.9675323,-8.689936,8.681556,-0.25103498,0.88097936,-0.7817338,-0.7303145,0
1.8800000000000014,10.44663661767923,0.5318589763201782,0.4013400347662984,-1.0759227848100492,11.409599,-0.17662606,-0.058978494,-0.90265226,1.5385821,-1.1529199,1.9751712,-0.2284903,-0.024506364,0.109194316,-0.96709216,-8.690903,8.657651,-0.24568789,0.8698361,-0.727935,-0.7547809,1
1.8900000000000015,10.44663661767923,0.5318589763201782,0.4013400347662984,-1.0759227848100492,11.409599,-0.17662606,-0.058978494,-0.90265226,1.4516729,-1.0664697,1.9727801,-0.2316886,-0.029078385,0.10606794,-0.9665523,-8.690765,8.632451,-0.2325102,0.7066891,-0.6235348,-0.762037,1
1.9000000000000015,10.44663661767923,0.5318589763201782,0.4013400347662984,-1.0759227848100492,11.409599,-0.17662606,-0.058978494,-0.90265226,1.3647704,-0.9802694,1.9705213,-0.23498525,-0.033015147,0.10355078,-0.9659027,-8.689603,8.607654,-0.21924798,0.5689779,-0.5354268,-0.768937,1
1.9100000000000015,10.44663661767923,0.5318589763201782,0.4013400347662984,-1.0759227848100492,11.409599,-0.17662606,-0.058978494,-0.90265226,1.2778839,-0.8943155,1.9683954,-0.23837014,-0.036414165,0.101546034,-0.9651637,-8.687578,8.583159,-0.20593095,0.45273674,-0.46106884,-0.77549845,1
1.9200000000000015,10.271139659370709,0.24153764458447682,1.0154595745002046,-0.8811317616513696,11.285055,-0.5075224,0.33753258,-0.7166894,1.1910213,-0.8086054,1.9664026,-0.24183396,-0.039357986,0.099972114,-0.9643504,-8.68483,8.558885,-0.19258128,0.35461795,-0.39831492,-0.781738,0
1.9300000000000015,10.271139659370709,0.24153764458447682,1.0154595745002046,-0.8811317616513696,11.285055,-0.5075224,0.33753258,-0.7166894,1.1041877,-0.7231251,1.964488,-0.24540181,-0.041542504,0.09849437,-0.96350914,-8.681823,8.537182,-0.19033398,0.3370947,-0.17782974,-0.78661525,0
1.9400000000000015,10.271139659370709,0.24153764458447682,1.0154595745002046,-0.8811317616513696,11.285055,-0.5075224,0.33753258,-0.7166894,1.0173861,-0.63786095,1.9625959,-0.24909112,-0.04273158,0.09684266,-0.96267754,-8.678462,8.515681,-0.18805443,0.3222879,0.008269653,-0.7912532,0
1.9500000000000015,10.271139659370709,0.24153764458447682,1.0154595745002046,-0.8811317616513696,11.285055,-0.5075224,0.33753258,-0.7166894,0.93061906,-0.5528105,1.960727,-0.25288346,-0.043081004,0.095040664,-0.9618525,-8.674927,8.494458,-0.18572176,0.30977628,0.16534588,-0.7956636,0
1.9600000000000015,10.1510962561227,0.06908682886258509,1.4358195153710223,-0.6666403407134052,11.283039,-0.5843676,0.5683988,-0.57130516,0.8438876,-0.4679706,1.9588816,-0.25676286,-0.042722132,0.09310868,-0.9610294,-8.671362,8.47358,-0.18331791,0.29920387,0.29792535,-0.79985756,0
1.9700000000000015,10.1510962561227,0.06908682886258509,1.4358195153710223,-0.6666403407134052,11.283039,-0.5843676,0.5683988,-0.57130516,0.75719124,-0.3833363,1.9570551,-0.26070854,-0.041583806,0.09108809,-0.9602103,-8.66794,8.453345,-0.18200314,0.26340768,0.47539902,-0.79332054,0
1.9800000000000015,10.1510962561227,0.06908682886258509,1.4358195153710223,-0.6666403407134052,11.283039,-0.5843676,0.5683988,-0.57130516,0.67052794,-0.29890212,1.955242,-0.26469877,-0.039614826,0.08901212,-0.95939624,-8.664776,8.433567,-0.18058798,0.23317829,0.6251927,-0.78710425,0
1.9900000000000015,10.1510962561227,0.06908682886258509,1.4358195153710223,-0.6666403407134052,11.283039,-0.5843676,0.5683988,-0.57130516,0.5838943,-0.2146632,1.9534439,-0.26871976,-0.03694424,0.086886115,-0.95857954,-8.662015,8.414299,-0.17906073,0.20765015,0.75162345,-0.7811931,0
2.0000000000000013,,,,,10.8278675,-1.0665287,0.6855424,-0.13784352,0.49728584,-0.1306142,1.9516613,-0.27275985,-0.033681005,0.08471491,-0.9577527,-8.65978,8.395591,-0.1774139,0.18609247,0.8583351,-0.7755719,0
2.010000000000001,,,,,10.8278675,-1.0665287,0.6855424,-0.13784352,0.41069657,-0.046749145,1.9498949,-0.27678767,-0.029885413,0.082544304,-0.95691234,-8.658176,8.37752,-0.1758358,0.14943811,0.95515287,-0.7600204,0
2.020000000000001,,,,,10.8278675,-1.0665287,0.6855424,-0.13784352,0.3241198,0.036938347,1.948145,-0.2807743,-0.025609624,0.080411,-0.9560561,-8.657298,8.360079,-0.17413649,0.11849135,1.0368683,-0.745232,0
2.0300000000000007,,,,,10.8278675,-1.0665287,0.6855424,-0.13784352,0.23754784,0.120454684,1.9464127,-0.28471434,-0.020927671,0.07830687,-0.95517904,-8.657227,8.343294,-0.17232096,0.09236346,1.1058376,-0.7311692,0
2.0400000000000005,,,,,10.8278675,-1.0665287,0.6855424,-0.13784352,0.15097226,0.20380656,1.9446989,-0.2886037,-0.01590219,0.07622524,-0.9542766,-8.658032,8.3271885,-0.17039686,0.070304446,1.1640486,-0.71779656,0
2.0500000000000003,,,,,10.809301,-1.1855952,0.6056362,0.013086742,0.06438397,0.2870009,1.9430051,-0.29243937,-0.010586202,0.07416068,-0.95334494,-8.659774,8.311786,-0.16837417,0.051680777,1.2131796,-0.7050801,1
2.06,,,,,10.809301,-1.1855952,0.6056362,0.013086742,-0.022227466,0.37003976,1.9413654,-0.2961424,-0.0052196444,0.07264555,-0.9523625,-8.66268,8.296098,-0.15956576,-0.14134102,1.1185192,-0.6698394,1
2.07,,,,,10.809301,-1.1855952,0.6056362,0.013086742,-0.10887334,0.45292485,1.939814,-0.2996421,7.727533e-06,0.07210266,-0.9513228,-8.666664,8.280994,-0.15070787,-0.30424955,1.0386,-0.636328,1
2.0799999999999996,,,,,10.809301,-1.1855952,0.6056362,0.013086742,-0.19556457,0.53566104,1.9383513,-0.302948,0.005121574,0.07237991,-0.9502403,-8.671755,8.26629,-0.14184146,-0.4417431,0.97112745,-0.604461,1
2.0899999999999994,,,,,11.689373,-1.6377369,-0.15094608,0.17345522,-0.28231233,0.61825144,1.9369771,-0.30606923,0.010143052,0.07334862,-0.9491248,-8.677974,8.251824,-0.13300195,-0.55778694,0.91416407,-0.5741578,1
2.099999999999999,,,,,11.689373,-1.6377369,-0.15094608,0.17345522,-0.3691309,0.70069194,1.9357346,-0.30897123,0.0148594435,0.07516446,-0.9479797,-8.685935,8.236282,-0.11552051,-0.72628474,0.74810666,-0.5374721,1
2.109999999999999,,,,,11.689373,-1.6377369,-0.15094608,0.17345522,-0.45603517,0.78297657,1.9346663,-0.3116241,0.019104004,0.0779457,-0.94680995,-8.695105,8.22061,-0.09814608,-0.8684883,0.60793,-0.5025867,1
2.1199999999999988,,,,,11.689373,-1.6377369,-0.15094608,0.17345522,-0.543037,0.8651028,1.9337711,-0.31404254,0.0229544,0.08154121,-0.94562185,-8.705446,8.204582,-0.080919646,-0.98850167,0.48960173,-0.46941316,1
2.1299999999999986,,,,,11.49114,-1.5045503,-0.34358644,0.32435575,-0.630148,0.94706625,1.9330473,-0.31623974,0.026475746,0.08582298,-0.94441783,-8.716932,8.188008,-0.06387888,-1.0897883,0.3897175,-0.43786743,1
2.1399999999999983,,,,,11.49114,-1.5045503,-0.34358644,0.32435575,-0.71737844,1.028862,1.9324831,-0.31820506,0.029634578,0.0906563,-0.9432115,-8.729322,8.171021,-0.04900787,-1.1545098,0.27534938,-0.40046492,1
2.149999999999998,,,,,11.49114,-1.5045503,-0.34358644,0.32435575,-0.8047381,1.1104839,1.9320664,-0.31992942,0.03240726,0.095928825,-0.9420147,-8.742762,8.153208,-0.034384515,-1.2091278,0.17881283,-0.36489776,1
2.159999999999998,,,,,11.49114,-1.5045503,-0.34358644,0.32435575,-0.8922372,1.191923,1.9317945,-0.32142672,0.03485729,0.101570524,-0.9408254,-8.757198,8.134454,-0.020037442,-1.2552203,0.09732841,-0.33107588,1
2.1699999999999977,,,,,10.972378,-0.73412275,-0.16968864,0.41610554,-0.9798854,1.2731695,1.9316647,-0.3227099,0.037038077,0.10752209,-0.93964076,-8.772592,8.114666,-0.005994862,-1.2941189,0.028549273,-0.29891366,1
2.1799999999999975,,,,,10.972378,-0.73412275,-0.16968864,0.41610554,-1.0676885,1.3542173,1.9316484,-0.32379988,0.038961504,0.11342097,-0.93849385,-8.788162,8.094723,0.0026711028,-1.2067939,-0.0024105273,-0.26382744,1
