time-since-start [s],throttle_mpc,roll_mpc,pitch_mpc,yaw_mpc,throttle_nw,roll_nw,pitch_nw,yaw_nw,position_x [m],position_y [m],position_z [m],rotation_w [quaternion],rotation_x [quaternion],rotation_y [quaternion],rotation_z [quaternion],velocity_x [m/s],velocity_y [m/s],velocity_z [m/s],omega_x [rad/s],omega_y [rad/s],omega_z [rad/s],network_used,gaze_2d_norm_x,gaze_2d_norm_y,gaze_2d_x,gaze_2d_y,gaze_3d_x,gaze_3d_y,gaze_3d_z,angle_rad,angle_deg,high_level_label
0.0,10.847972804304282,-0.15600557483626296,0.01621072781238873,0.14647535556005,15.01575,-1.782727,-0.14575878,0.21064222,13.396557,-12.33937,0.97381216,-0.35651958,0.13343911,-0.051845204,-0.923255,-0.07835528,0.07319449,0.34271842,-0.070974864,-2.3167253,-2.2127347,0,-0.08344928741455078,0.04152575492858887,0.4582753562927246,0.5207628774642944,-0.779669413774343,0.5957242825488327,0.19294606605590847,-0.09891084019999674,-5.667173691552732,0
0.01,10.847972804304282,-0.15600557483626296,0.01621072781238873,0.14647535556005,15.349571,-1.9025046,0.4138045,0.013491517,13.3956585,-12.338534,0.977269,-0.35573488,0.133754,-0.05125164,-0.9235453,-0.101121396,0.09385833,0.34864995,-0.15600558,0.016210727,0.14647536,0,-0.08344928741455078,0.04152575492858887,0.4582753562927246,0.5207628774642944,-0.779669413774343,0.5957242825488327,0.19294606605590847,-0.09891084019999674,-5.667173691552732,0
0.02,10.847972804304282,-0.15600557483626296,0.01621072781238873,0.14647535556005,15.349571,-1.9025046,0.4138045,0.013491517,13.394531,-12.337493,0.9807852,-0.35494983,0.13406873,-0.050658014,-0.9238344,-0.124013565,0.114408016,0.35457644,-0.15600558,0.016210727,0.14647536,0,-0.08344928741455078,0.04152575492858887,0.4582753562927246,0.5207628774642944,-0.779669413774343,0.5957242825488327,0.19294606605590847,-0.09891084019999674,-5.667173691552732,0
0.03,10.847972804304282,-0.15600557483626296,0.01621072781238873,0.14647535556005,15.349571,-1.9025046,0.4138045,0.013491517,13.393175,-12.3362465,0.9843605,-0.35416433,0.1343833,-0.05006433,-0.9241225,-0.14703158,0.13484329,0.36049768,-0.15600558,0.016210727,0.14647536,0,-0.08344928741455078,0.04152575492858887,0.4582753562927246,0.5207628774642944,-0.779669413774343,0.5957242825488327,0.19294606605590847,-0.09891084019999674,-5.667173691552732,0
0.04,10.847972804304282,-0.15600557483626296,0.01621072781238873,0.14647535556005,16.420607,-1.8846222,0.7465392,-0.34561455,13.391589,-12.334797,0.98799497,-0.35337844,0.13469772,-0.049470585,-0.92440945,-0.17017521,0.15516394,0.3664135,-0.15600558,0.016210727,0.14647536,0,-0.08344928741455078,0.04152575492858887,0.4582753562927246,0.5207628774642944,-0.779669413774343,0.5957242825488327,0.19294606605590847,-0.09891084019999674,-5.667173691552732,0
0.05,10.847972804304282,-0.15600557483626296,0.01621072781238873,0.14647535556005,16.420607,-1.8846222,0.7465392,-0.34561455,13.389771,-12.333144,0.99168855,-0.35259214,0.13501197,-0.04887678,-0.92469543,-0.19344425,0.17536974,0.37232375,-0.15600558,0.016210727,0.14647536,0,-0.08344928741455078,0.04152575492858887,0.4582753562927246,0.5207628774642944,-0.779669413774343,0.5957242825488327,0.19294606605590847,-0.09891084019999674,-5.667173691552732,0
0.060000000000000005,10.847972804304282,-0.15600557483626296,0.01621072781238873,0.14647535556005,16.420607,-1.8846222,0.7465392,-0.34561455,13.38772,-12.331289,0.99544126,-0.35180542,0.13532609,-0.048282918,-0.9249803,-0.21683848,0.19546045,0.37822816,-0.15600558,0.016210727,0.14647536,0,-0.08344928741455078,0.04152575492858887,0.4582753562927246,0.5207628774642944,-0.779669413774343,0.5957242825488327,0.19294606605590847,-0.09891084019999674,-5.667173691552732,0
0.07,10.847972804304282,-0.15600557483626296,0.01621072781238873,0.14647535556005,16.420607,-1.8846222,0.7465392,-0.34561455,13.385434,-12.329235,0.9992531,-0.35101834,0.13564004,-0.04768901,-0.9252641,-0.24035767,0.21543586,0.38412663,-0.15600558,0.016210727,0.14647536,0,-0.05986798763275147,0.08230194091796875,0.47006600618362426,0.5411509704589844,-0.7791391619633101,0.6082132807534659,0.1517193837656104,-0.06796156907870676,-3.893911077296696,0
0.08,11.320144927654676,-0.0965397965083001,2.520858818713302,0.14356709984579416,16.180607,-3.3499856,1.4345177,-1.3583542,13.382913,-12.3269825,1.0031239,-0.3502308,0.13595384,-0.04709504,-0.9255468,-0.2640016,0.23529573,0.39001894,-0.15600558,0.016210727,0.14647536,0,-0.05986798763275147,0.08230194091796875,0.47006600618362426,0.5411509704589844,-0.7791391619633101,0.6082132807534659,0.1517193837656104,-0.06796156907870676,-3.893911077296696,0
0.09,11.320144927654676,-0.0965397965083001,2.520858818713302,0.14356709984579416,16.180607,-3.3499856,1.4345177,-1.3583542,13.380147,-12.324525,1.0070753,-0.34887928,0.14774379,-0.05115642,-0.9240335,-0.28954962,0.2565921,0.40012103,-0.096539795,2.5208588,0.1435671,0,-0.05986798763275147,0.08230194091796875,0.47006600618362426,0.5411509704589844,-0.7791391619633101,0.6082132807534659,0.1517193837656104,-0.06796156907870676,-3.893911077296696,0
0.09999999999999999,11.320144927654676,-0.0965397965083001,2.520858818713302,0.14356709984579416,16.180607,-3.3499856,1.4345177,-1.3583542,13.377114,-12.321845,1.0111233,-0.34747207,0.15951015,-0.055209633,-0.9223727,-0.31720582,0.27960515,0.40934983,-0.096539795,2.5208588,0.1435671,0,-0.05986798763275147,0.08230194091796875,0.47006600618362426,0.5411509704589844,-0.7791391619633101,0.6082132807534659,0.1517193837656104,-0.06796156907870676,-3.893911077296696,0
0.10999999999999999,11.320144927654676,-0.0965397965083001,2.520858818713302,0.14356709984579416,16.180607,-3.3499856,1.4345177,-1.3583542,13.373795,-12.318927,1.015259,-0.34600937,0.17125106,-0.059254035,-0.9205647,-0.3469552,0.30431712,0.41763696,-0.096539795,2.5208588,0.1435671,0,-0.05986798763275147,0.08230194091796875,0.47006600618362426,0.5411509704589844,-0.7791391619633101,0.6082132807534659,0.1517193837656104,-0.06796156907870676,-3.893911077296696,0
0.11999999999999998,11.320144927654676,-0.0965397965083001,2.520858818713302,0.14356709984579416,16.180607,-3.3499856,1.4345177,-1.3583542,13.370168,-12.315753,1.0194726,-0.34449148,0.18296462,-0.06328898,-0.91860974,-0.37878144,0.33070913,0.42491478,-0.096539795,2.5208588,0.1435671,0,-0.05986798763275147,0.08230194091796875,0.47006600618362426,0.5411509704589844,-0.7791391619633101,0.6082132807534659,0.1517193837656104,-0.06796156907870676,-3.893911077296696,0
0.12999999999999998,12.262533426490267,-0.007817391864492249,4.958243920719524,0.16175385506603654,17.673943,-2.50956,0.8820016,-1.1980953,13.366212,-12.312307,1.0237535,-0.34291857,0.194649,-0.06731382,-0.9165082,-0.41266686,0.35876113,0.43111625,-0.096539795,2.5208588,0.1435671,0,-0.05986798763275147,0.08230194091796875,0.47006600618362426,0.5411509704589844,-0.7791391619633101,0.6082132807534659,0.1517193837656104,-0.06796156907870676,-3.893911077296696,0
0.13999999999999999,12.262533426490267,-0.007817391864492249,4.958243920719524,0.16175385506603654,17.673943,-2.50956,0.8820016,-1.1980953,13.36189,-12.308558,1.0281326,-0.34039572,0.21726711,-0.075915195,-0.9116811,-0.45232138,0.39162293,0.44428936,-0.007817392,4.958244,0.16175385,0,-0.030167362689971923,-0.06936151504516602,0.48491631865501406,0.46531924247741696,-0.7706497543758145,0.6243171795410554,0.12777721005875253,-0.0327193250493405,-1.8746792338438845,0
0.15,12.262533426490267,-0.007817391864492249,4.958243920719524,0.16175385506603654,17.673943,-2.50956,0.8820016,-1.1980953,13.35715,-12.304463,1.0326301,-0.3376634,0.23975158,-0.08446988,-0.90629315,-0.4960905,0.42806154,0.45477375,-0.007817392,4.958244,0.16175385,0,-0.030167362689971923,-0.06936151504516602,0.48491631865501406,0.46531924247741696,-0.7706497543758145,0.6243171795410554,0.12777721005875253,-0.0327193250493405,-1.8746792338438845,0
0.16,13.265187712569718,0.051504028029682375,4.89585088058591,0.15892093313286063,17.985493,-2.5419834,1.5770336,-0.6899018,13.351953,-12.299986,1.037218,-0.33472338,0.26208854,-0.092972584,-0.9003476,-0.543873,0.46797994,0.4623025,-0.007817392,4.958244,0.16175385,0,-0.030167362689971923,-0.06936151504516602,0.48491631865501406,0.46531924247741696,-0.7706497543758145,0.6243171795410554,0.12777721005875253,-0.0327193250493405,-1.8746792338438845,0
0.17,13.265187712569718,0.051504028029682375,4.89585088058591,0.15892093313286063,17.985493,-2.5419834,1.5770336,-0.6899018,13.346238,-12.295074,1.0419073,-0.33169946,0.2838875,-0.10157773,-0.89390445,-0.59974533,0.5148179,0.47500733,0.051504027,4.8958507,0.15892093,0,-0.030167362689971923,-0.06936151504516602,0.48491631865501406,0.46531924247741696,-0.7706497543758145,0.6243171795410554,0.12777721005875253,-0.0327193250493405,-1.8746792338438845,0
0.18000000000000002,13.265187712569718,0.051504028029682375,4.89585088058591,0.15892093313286063,17.985493,-2.5419834,1.5770336,-0.6899018,13.339945,-12.289677,1.0467054,-0.32847655,0.30551615,-0.110121936,-0.8869251,-0.6596075,0.5651994,0.48401213,0.051504027,4.8958507,0.15892093,0,-0.030167362689971923,-0.06936151504516602,0.48491631865501406,0.46531924247741696,-0.7706497543758145,0.6243171795410554,0.12777721005875253,-0.0327193250493405,-1.8746792338438845,0
0.19000000000000003,13.265187712569718,0.051504028029682375,4.89585088058591,0.15892093313286063,17.985493,-2.5419834,1.5770336,-0.6899018,13.333033,-12.283757,1.051574,-0.32505655,0.32696152,-0.11860008,-0.87941366,-0.7233229,0.61899585,0.48906007,0.051504027,4.8958507,0.15892093,0,-0.030167362689971923,-0.06936151504516602,0.48491631865501406,0.46531924247741696,-0.7706497543758145,0.6243171795410554,0.12777721005875253,-0.0327193250493405,-1.8746792338438845,0
0.20000000000000004,13.59145417065872,0.051564927437044564,3.674398321687857,0.16459841016923965,17.008577,-2.294234,0.9408074,-0.7101228,13.325465,-12.277285,1.0564722,-0.32144156,0.34821072,-0.12700707,-0.87137467,-0.79074556,0.67607063,0.48990384,0.051504027,4.8958507,0.15892093,0,-0.003737946152687073,-0.24778488159179687,0.49813102692365646,0.37610755920410155,-0.7634323555720461,0.645849118740802,0.00706783470706851,-0.0052212646657627815,-0.2991564290689918,0
0.21000000000000005,13.59145417065872,0.051564927437044564,3.674398321687857,0.16459841016923965,17.008577,-2.294234,0.9408074,-0.7101228,13.317198,-12.270219,1.0613697,-0.31842664,0.3639724,-0.13340199,-0.8650621,-0.86313146,0.7374736,0.48907033,0.05156493,3.6743984,0.1645984,0,-0.003737946152687073,-0.24778488159179687,0.49813102692365646,0.37610755920410155,-0.7634323555720461,0.645849118740802,0.00706783470706851,-0.0052212646657627815,-0.2991564290689918,0
0.22000000000000006,13.59145417065872,0.051564927437044564,3.674398321687857,0.16459841016923965,17.008577,-2.294234,0.9408074,-0.7101228,13.308193,-12.262527,1.0662413,-0.315304,0.37961096,-0.13975178,-0.85845697,-0.93814164,0.80120736,0.48468423,0.05156493,3.6743984,0.1645984,0,-0.003737946152687073,-0.24778488159179687,0.49813102692365646,0.37610755920410155,-0.7634323555720461,0.645849118740802,0.00706783470706851,-0.0052212646657627815,-0.2991564290689918,0
0.23000000000000007,13.59145417065872,0.051564927437044564,3.674398321687857,0.16459841016923965,17.008577,-2.294234,0.9408074,-0.7101228,13.298426,-12.254187,1.0710506,-0.31207472,0.39512116,-0.14605428,-0.85156137,-1.0156801,0.86717975,0.47661898,0.05156493,3.6743984,0.1645984,0,-0.003737946152687073,-0.24778488159179687,0.49813102692365646,0.37610755920410155,-0.7634323555720461,0.645849118740802,0.00706783470706851,-0.0052212646657627815,-0.2991564290689918,0
0.24000000000000007,13.59145417065872,0.051564927437044564,3.674398321687857,0.16459841016923965,16.989296,-1.5300809,0.09051397,-0.85674536,13.287871,-12.245176,1.0757605,-0.30873987,0.4104977,-0.15230739,-0.84437776,-1.0956476,0.93529534,0.46475288,0.05156493,3.6743984,0.1645984,0,-0.003737946152687073,-0.24778488159179687,0.49813102692365646,0.37610755920410155,-0.7634323555720461,0.645849118740802,0.00706783470706851,-0.0052212646657627815,-0.2991564290689918,0
0.25000000000000006,13.59145417065872,0.051564927437044564,3.674398321687857,0.16459841016923965,16.989296,-1.5300809,0.09051397,-0.85674536,13.276505,-12.235474,1.0803323,-0.3053006,0.42573532,-0.15850899,-0.8369085,-1.1779413,1.0054561,0.44896945,0.05156493,3.6743984,0.1645984,0,-0.003737946152687073,-0.24778488159179687,0.49813102692365646,0.37610755920410155,-0.7634323555720461,0.645849118740802,0.00706783470706851,-0.0052212646657627815,-0.2991564290689918,0
0.26000000000000006,13.59145417065872,0.051564927437044564,3.674398321687857,0.16459841016923965,16.989296,-1.5300809,0.09051397,-0.85674536,13.264306,-12.22506,1.0847261,-0.30175802,0.44082895,-0.16465697,-0.82915616,-1.2624559,1.0775608,0.4291575,0.05156493,3.6743984,0.1645984,0,-0.003737946152687073,-0.24778488159179687,0.49813102692365646,0.37610755920410155,-0.7634323555720461,0.645849118740802,0.00706783470706851,-0.0052212646657627815,-0.2991564290689918,0
0.2700000000000001,13.59145417065872,0.051564927437044564,3.674398321687857,0.16459841016923965,16.989296,-1.5300809,0.09051397,-0.85674536,13.251249,-12.213917,1.0889012,-0.2981134,0.45577347,-0.17074925,-0.8211233,-1.3490824,1.1515062,0.40521124,0.05156493,3.6743984,0.1645984,0,0.01672248125076294,-0.30267834981282554,0.5083612406253815,0.3486608250935872,-0.7395668866561137,0.6433341641067752,-0.19789384390329012,0.009372559402373692,0.5370080969916697,0
0.2800000000000001,14.538696406422396,0.08387706183803573,2.768803318045447,0.1675375029129215,16.611612,-1.1933218,0.045324944,-0.66545415,13.237317,-12.202024,1.0928156,-0.2943679,0.47056383,-0.17678377,-0.81281275,-1.4377087,1.227186,0.37703055,0.05156493,3.6743984,0.1645984,0,0.01672248125076294,-0.30267834981282554,0.5083612406253815,0.3486608250935872,-0.7395668866561137,0.6433341641067752,-0.19789384390329012,0.009372559402373692,0.5370080969916697,0
0.2900000000000001,14.538696406422396,0.08387706183803573,2.768803318045447,0.1675375029129215,16.611612,-1.1933218,0.045324944,-0.66545415,13.222459,-12.189341,1.0964512,-0.29140872,0.48149922,-0.18157691,-0.80639267,-1.5343345,1.3097442,0.34952563,0.083877064,2.7688034,0.1675375,0,0.01672248125076294,-0.30267834981282554,0.5083612406253815,0.3486608250935872,-0.7395668866561137,0.6433341641067752,-0.19789384390329012,0.009372559402373692,0.5370080969916697,0
0.3000000000000001,14.538696406422396,0.08387706183803573,2.768803318045447,0.1675375029129215,16.611612,-1.1933218,0.045324944,-0.66545415,13.206627,-12.175825,1.0997939,-0.28839344,0.4923419,-0.18633509,-0.7998173,-1.6323657,1.3935924,0.318474,0.083877064,2.7688034,0.1675375,0,0.01672248125076294,-0.30267834981282554,0.5083612406253815,0.3486608250935872,-0.7395668866561137,0.6433341641067752,-0.19789384390329012,0.009372559402373692,0.5370080969916697,0
0.3100000000000001,14.538696406422396,0.08387706183803573,2.768803318045447,0.1675375029129215,16.611612,-1.1933218,0.045324944,-0.66545415,13.189807,-12.161465,1.1028084,-0.28532264,0.50308985,-0.19105738,-0.79308796,-1.7317314,1.4786607,0.28382418,0.083877064,2.7688034,0.1675375,0,0.01672248125076294,-0.30267834981282554,0.5083612406253815,0.3486608250935872,-0.7395668866561137,0.6433341641067752,-0.19789384390329012,0.009372559402373692,0.5370080969916697,0
0.3200000000000001,15.050511234130834,0.08503928577521036,1.254572576232908,0.15327491135512816,15.671605,-0.9223913,0.23507628,-0.56575674,13.1719885,-12.146248,1.1054579,-0.2821969,0.51374084,-0.19574289,-0.78620595,-1.8323598,1.5648791,0.24552734,0.083877064,2.7688034,0.1675375,0,0.01672248125076294,-0.30267834981282554,0.5083612406253815,0.3486608250935872,-0.7395668866561137,0.6433341641067752,-0.19789384390329012,0.009372559402373692,0.5370080969916697,0
0.3300000000000001,15.050511234130834,0.08503928577521036,1.254572576232908,0.15327491135512816,15.671605,-0.9223913,0.23507628,-0.56575674,13.153138,-12.130148,1.1077185,-0.2805793,0.51839226,-0.19823714,-0.78310066,-1.9375014,1.6550488,0.20630154,0.08503929,1.2545726,0.15327491,0,0.01672248125076294,-0.30267834981282554,0.5083612406253815,0.3486608250935872,-0.7395668866561137,0.6433341641067752,-0.19789384390329012,0.009372559402373692,0.5370080969916697,0
0.34000000000000014,15.050511234130834,0.08503928577521036,1.254572576232908,0.15327491135512816,15.671605,-0.9223913,0.23507628,-0.56575674,13.133235,-12.113144,1.1095779,-0.27895042,0.52302283,-0.20072342,-0.7799639,-2.0431385,1.74576,0.16533133,0.08503929,1.2545726,0.15327491,0,-0.1051857089996338,-0.21668416341145832,0.4474071455001831,0.3916579182942708,-0.7555192899565899,0.492165121255479,-0.4323934503702277,-0.12969470695926244,-7.430959333951725,0
0.35000000000000014,15.050511234130834,0.08503928577521036,1.254572576232908,0.15327491135512816,15.671605,-0.9223913,0.23507628,-0.56575674,13.112273,-12.09523,1.1110189,-0.27731037,0.5276324,-0.20320167,-0.77679586,-2.1492562,1.8369962,0.122607574,0.08503929,1.2545726,0.15327491,0,-0.1051857089996338,-0.21668416341145832,0.4474071455001831,0.3916579182942708,-0.7555192899565899,0.492165121255479,-0.4323934503702277,-0.12969470695926244,-7.430959333951725,0
0.36000000000000015,16.062208598802737,0.11928263138516473,0.5240848664064296,0.14185352484459857,15.098199,-1.0072113,0.19652197,-0.6305628,13.090247,-12.076401,1.1120238,-0.2756592,0.5322209,-0.20567177,-0.7735967,-2.2558393,1.9287409,0.07812139,0.08503929,1.2545726,0.15327491,0,-0.1051857089996338,-0.21668416341145832,0.4474071455001831,0.3916579182942708,-0.7555192899565899,0.492165121255479,-0.4323934503702277,-0.12969470695926244,-7.430959333951725,0
0.37000000000000016,16.062208598802737,0.11928263138516473,0.5240848664064296,0.14185352484459857,15.098199,-1.0072113,0.19652197,-0.6305628,13.067119,-12.056622,1.1125939,-0.27488792,0.5339357,-0.20723218,-0.77227193,-2.3699327,2.0271032,0.0357615,0.11928263,0.52408487,0.14185353,0,-0.1051857089996338,-0.21668416341145832,0.4474071455001831,0.3916579182942708,-0.7555192899565899,0.492165121255479,-0.4323934503702277,-0.12969470695926244,-7.430959333951725,0
0.38000000000000017,16.062208598802737,0.11928263138516473,0.5240848664064296,0.14185352484459857,15.098199,-1.0072113,0.19652197,-0.6305628,13.042848,-12.035857,1.1127363,-0.27411452,0.53564644,-0.20879099,-0.7709412,-2.484137,2.1257832,-0.007393364,0.11928263,0.52408487,0.14185353,0,-0.1051857089996338,-0.21668416341145832,0.4474071455001831,0.3916579182942708,-0.7555192899565899,0.492165121255479,-0.4323934503702277,-0.12969470695926244,-7.430959333951725,0
0.3900000000000002,16.062208598802737,0.11928263138516473,0.5240848664064296,0.14185352484459857,15.098199,-1.0072113,0.19652197,-0.6305628,13.017436,-12.014104,1.1124433,-0.273339,0.537353,-0.21034819,-0.7696045,-2.5984502,2.2247775,-0.05134502,0.11928263,0.52408487,0.14185353,0,-0.1051857089996338,-0.21668416341145832,0.4474071455001831,0.3916579182942708,-0.7555192899565899,0.492165121255479,-0.4323934503702277,-0.12969470695926244,-7.430959333951725,0
0.4000000000000002,16.08686322804742,0.11721208650832067,0.08782170166247674,0.12423141606658888,15.358567,-0.96590024,-0.25884715,-0.7409718,12.99088,-11.991359,1.1117069,-0.27256137,0.5390554,-0.21190378,-0.76826185,-2.7128696,2.3240821,-0.09609525,0.11928263,0.52408487,0.14185353,0,-0.029221696853637694,-0.18297218322753905,0.48538915157318113,0.4085139083862305,-0.6858868191863583,0.5241295768408661,-0.5048241851843416,-0.055859714464330246,-3.200525883612001,0
0.4100000000000002,16.08686322804742,0.11721208650832067,0.08782170166247674,0.12423141606658888,15.358567,-0.96590024,-0.25884715,-0.7409718,12.963179,-11.96762,1.1105198,-0.27230692,0.5391012,-0.21280845,-0.7680699,-2.8274984,2.4237955,-0.1413166,0.11721209,0.0878217,0.12423141,0,-0.029221696853637694,-0.18297218322753905,0.48538915157318113,0.4085139083862305,-0.6858868191863583,0.5241295768408661,-0.5048241851843416,-0.055859714464330246,-3.200525883612001,0
0.4200000000000002,16.08686322804742,0.11721208650832067,0.08782170166247674,0.12423141606658888,15.358567,-0.96590024,-0.25884715,-0.7409718,12.93433,-11.942883,1.1088799,-0.2720522,0.5391464,-0.21371292,-0.7678773,-2.9420433,2.523679,-0.18667755,0.11721209,0.0878217,0.12423141,0,-0.029221696853637694,-0.18297218322753905,0.48538915157318113,0.4085139083862305,-0.6858868191863583,0.5241295768408661,-0.5048241851843416,-0.055859714464330246,-3.200525883612001,0
0.4300000000000002,16.08686322804742,0.11721208650832067,0.08782170166247674,0.12423141606658888,15.358567,-0.96590024,-0.25884715,-0.7409718,12.904337,-11.917146,1.1067858,-0.2717972,0.5391911,-0.21461721,-0.7676839,-3.0565042,2.6237328,-0.23217843,0.11721209,0.0878217,0.12423141,0,-0.029221696853637694,-0.18297218322753905,0.48538915157318113,0.4085139083862305,-0.6858868191863583,0.5241295768408661,-0.5048241851843416,-0.055859714464330246,-3.200525883612001,0
0.4400000000000002,16.08686322804742,0.11721208650832067,0.08782170166247674,0.12423141606658888,15.080411,-0.5306773,-0.007600464,-0.5593314,12.873199,-11.890408,1.1042358,-0.27154198,0.53923535,-0.21552129,-0.76748985,-3.1708813,2.7239559,-0.2778196,0.11721209,0.0878217,0.12423141,0,-0.029221696853637694,-0.18297218322753905,0.48538915157318113,0.4085139083862305,-0.6858868191863583,0.5241295768408661,-0.5048241851843416,-0.055859714464330246,-3.200525883612001,0
0.45000000000000023,16.08686322804742,0.11721208650832067,0.08782170166247674,0.12423141606658888,15.080411,-0.5306773,-0.007600464,-0.5593314,12.840919,-11.862666,1.1012288,-0.27128652,0.5392791,-0.21642517,-0.76729506,-3.2851744,2.8243484,-0.32360134,0.11721209,0.0878217,0.12423141,0,-0.029221696853637694,-0.18297218322753905,0.48538915157318113,0.4085139083862305,-0.6858868191863583,0.5241295768408661,-0.5048241851843416,-0.055859714464330246,-3.200525883612001,0
0.46000000000000024,16.08686322804742,0.11721208650832067,0.08782170166247674,0.12423141606658888,15.080411,-0.5306773,-0.007600464,-0.5593314,12.807496,-11.833919,1.0977633,-0.2710308,0.5393224,-0.21732886,-0.76709956,-3.3993828,2.92491,-0.36952397,0.11721209,0.0878217,0.12423141,0,-0.029221696853637694,-0.18297218322753905,0.48538915157318113,0.4085139083862305,-0.6858868191863583,0.5241295768408661,-0.5048241851843416,-0.055859714464330246,-3.200525883612001,0
0.47000000000000025,16.08686322804742,0.11721208650832067,0.08782170166247674,0.12423141606658888,15.080411,-0.5306773,-0.007600464,-0.5593314,12.772932,-11.804167,1.0938379,-0.27077487,0.5393652,-0.21823233,-0.76690334,-3.5135071,3.0256402,-0.41558787,0.11721209,0.0878217,0.12423141,0,0.04390489101409912,-0.13355300903320313,0.5219524455070496,0.43322349548339845,-0.618928977372556,0.5574971894776395,-0.5532845603241567,0.0222974905446498,1.2775521019412928,0
0.48000000000000026,16.99798025420456,0.16812681422439704,0.19407942360900324,0.11014700311857259,14.656388,-0.40470245,-0.35154054,-0.2108357,12.7372265,-11.773405,1.0894511,-0.27051863,0.53940743,-0.21913561,-0.76670647,-3.6275473,3.126539,-0.46179336,0.11721209,0.0878217,0.12423141,0,0.04390489101409912,-0.13355300903320313,0.5219524455070496,0.43322349548339845,-0.618928977372556,0.5574971894776395,-0.5532845603241567,0.0222974905446498,1.2775521019412928,0
0.49000000000000027,16.99798025420456,0.16812681422439704,0.19407942360900324,0.11014700311857259,14.656388,-0.40470245,-0.35154054,-0.2108357,12.700348,-11.741606,1.084616,-0.2703369,0.53980285,-0.2203395,-0.766147,-3.7479544,3.2333667,-0.50527513,0.16812682,0.19407943,0.11014701,0,0.04390489101409912,-0.13355300903320313,0.5219524455070496,0.43322349548339845,-0.618928977372556,0.5574971894776395,-0.5532845603241567,0.0222974905446498,1.2775521019412928,0
0.5000000000000002,16.99798025420456,0.16812681422439704,0.19407942360900324,0.11014700311857259,14.656388,-0.40470245,-0.35154054,-0.2108357,12.662268,-11.708737,1.0793444,-0.27015468,0.5401972,-0.22154297,-0.76558614,-3.8682644,3.340469,-0.5490821,0.16812682,0.19407943,0.11014701,0,0.04390489101409912,-0.13355300903320313,0.5219524455070496,0.43322349548339845,-0.618928977372556,0.5574971894776395,-0.5532845603241567,0.0222974905446498,1.2775521019412928,0
0.5100000000000002,16.99798025420456,0.16812681422439704,0.19407942360900324,0.11014700311857259,14.656388,-0.40470245,-0.35154054,-0.2108357,12.622984,-11.674796,1.0736332,-0.26997188,0.54059047,-0.22274598,-0.7650237,-3.9884772,3.4478445,-0.5932148,0.16812682,0.19407943,0.11014701,0,0.04390489101409912,-0.13355300903320313,0.5219524455070496,0.43322349548339845,-0.618928977372556,0.5574971894776395,-0.5532845603241567,0.0222974905446498,1.2775521019412928,0
0.5200000000000002,16.54356253061216,0.17648038535485053,-0.5269128079170213,0.09007900660663909,14.855861,-0.67843515,-0.9359295,0.3546716,12.582499,-11.639779,1.0674789,-0.2697886,0.5409827,-0.22394857,-0.7644598,-4.108592,3.5554929,-0.6376741,0.16812682,0.19407943,0.11014701,0,0.04390489101409912,-0.13355300903320313,0.5219524455070496,0.43322349548339845,-0.618928977372556,0.5574971894776395,-0.5532845603241567,0.0222974905446498,1.2775521019412928,0
0.5300000000000002,16.54356253061216,0.17648038535485053,-0.5269128079170213,0.09007900660663909,14.855861,-0.67843515,-0.9359295,0.3546716,12.540829,-11.6037,1.0608726,-0.27051058,0.5386276,-0.22415513,-0.76580596,-4.225276,3.6604555,-0.683462,0.17648038,-0.5269128,0.09007901,0,0.04390489101409912,-0.13355300903320313,0.5219524455070496,0.43322349548339845,-0.618928977372556,0.5574971894776395,-0.5532845603241567,0.0222974905446498,1.2775521019412928,0
0.5400000000000003,16.54356253061216,0.17648038535485053,-0.5269128079170213,0.09007900660663909,14.855861,-0.67843515,-0.9359295,0.3546716,12.497994,-11.566569,1.0538124,-0.27123043,0.53626823,-0.2243599,-0.767146,-4.341531,3.7654874,-0.72844,0.17648038,-0.5269128,0.09007901,0,-0.05257020950317383,-0.2231377410888672,0.4737148952484131,0.3884311294555664,-0.7116035723024146,0.5196974188830634,-0.4727948272694238,-0.0836767779057106,-4.794326217250753,0
0.5500000000000003,16.54356253061216,0.17648038535485053,-0.5269128079170213,0.09007900660663909,14.855861,-0.67843515,-0.9359295,0.3546716,12.4539995,-11.52839,1.0463065,-0.27194813,0.5339047,-0.22456291,-0.76848,-4.4573517,3.8705866,-0.77260995,0.17648038,-0.5269128,0.09007901,0,-0.05257020950317383,-0.2231377410888672,0.4737148952484131,0.3884311294555664,-0.7116035723024146,0.5196974188830634,-0.4727948272694238,-0.0836767779057106,-4.794326217250753,0
0.5600000000000003,17.41483486660377,0.21967180041607598,-0.5569310884413049,0.07872382789404891,15.2464,-0.69132453,-0.38749757,0.9406731,12.408849,-11.489158,1.038363,-0.27266368,0.5315368,-0.22476414,-0.7698079,-4.572736,3.9757502,-0.81597394,0.17648038,-0.5269128,0.09007901,0,-0.05257020950317383,-0.2231377410888672,0.4737148952484131,0.3884311294555664,-0.7116035723024146,0.5196974188830634,-0.4727948272694238,-0.0836767779057106,-4.794326217250753,0
0.5700000000000003,17.41483486660377,0.21967180041607598,-0.5569310884413049,0.07872382789404891,15.2464,-0.69132453,-0.38749757,0.9406731,12.362515,-11.448847,1.0300044,-0.27356914,0.5290028,-0.22505859,-0.7711449,-4.693708,4.086535,-0.855592,0.2196718,-0.5569311,0.078723826,0,-0.05257020950317383,-0.2231377410888672,0.4737148952484131,0.3884311294555664,-0.7116035723024146,0.5196974188830634,-0.4727948272694238,-0.0836767779057106,-4.794326217250753,0
0.5800000000000003,17.41483486660377,0.21967180041607598,-0.5569310884413049,0.07872382789404891,15.2464,-0.69132453,-0.38749757,0.9406731,12.314975,-11.407427,1.0212541,-0.2744721,0.526464,-0.22535099,-0.772475,-4.8141465,4.197428,-0.89432114,0.2196718,-0.5569311,0.078723826,0,-0.05257020950317383,-0.2231377410888672,0.4737148952484131,0.3884311294555664,-0.7116035723024146,0.5196974188830634,-0.4727948272694238,-0.0836767779057106,-4.794326217250753,0
0.5900000000000003,17.41483486660377,0.21967180041607598,-0.5569310884413049,0.07872382789404891,15.2464,-0.69132453,-0.38749757,0.9406731,12.266233,-11.364898,1.012121,-0.27537253,0.5239204,-0.22564133,-0.773798,-4.9340463,4.308427,-0.9321637,0.2196718,-0.5569311,0.078723826,0,-0.05257020950317383,-0.2231377410888672,0.4737148952484131,0.3884311294555664,-0.7116035723024146,0.5196974188830634,-0.4727948272694238,-0.0836767779057106,-4.794326217250753,0
0.6000000000000003,16.418642267351512,0.1952842659382292,-1.4767110838349213,0.05787287683455808,15.571687,-0.78586006,-0.07824174,1.0975008,12.216296,-11.321259,1.0026138,-0.27627048,0.5213721,-0.22592962,-0.77511394,-5.0534024,4.419527,-0.96912223,0.2196718,-0.5569311,0.078723826,0,-0.1133500576019287,-0.14578961690266928,0.44332497119903563,0.42710519154866533,-0.7317348817261655,0.4603276393211297,-0.5026554757905562,-0.1570476926968576,-8.998169973797461,0
0.6100000000000003,16.418642267351512,0.1952842659382292,-1.4767110838349213,0.05787287683455808,15.571687,-0.78586006,-0.07824174,1.0975008,12.165202,-11.276539,0.9927253,-0.27821574,0.5152994,-0.2247912,-0.7788013,-5.165251,4.5242424,-1.0082191,0.19528426,-1.476711,0.057872877,0,-0.1133500576019287,-0.14578961690266928,0.44332497119903563,0.42710519154866533,-0.7317348817261655,0.4603276393211297,-0.5026554757905562,-0.1570476926968576,-8.998169973797461,0
0.6200000000000003,16.418642267351512,0.1952842659382292,-1.4767110838349213,0.05787287683455808,15.571687,-0.78586006,-0.07824174,1.0975008,12.112994,-11.230774,0.9824571,-0.28014556,0.50919807,-0.2236403,-0.78244543,-5.276127,4.6287107,-1.0450853,0.19528426,-1.476711,0.057872877,0,-0.1133500576019287,-0.14578961690266928,0.44332497119903563,0.42710519154866533,-0.7317348817261655,0.4603276393211297,-0.5026554757905562,-0.1570476926968576,-8.998169973797461,0
0.6300000000000003,16.418642267351512,0.1952842659382292,-1.4767110838349213,0.05787287683455808,15.571687,-0.78586006,-0.07824174,1.0975008,12.059684,-11.183966,0.9718313,-0.2820598,0.5030685,-0.22247697,-0.7860461,-5.386006,4.732909,-1.0797347,0.19528426,-1.476711,0.057872877,0,-0.1133500576019287,-0.14578961690266928,0.44332497119903563,0.42710519154866533,-0.7317348817261655,0.4603276393211297,-0.5026554757905562,-0.1570476926968576,-8.998169973797461,0
0.6400000000000003,16.418642267351512,0.1952842659382292,-1.4767110838349213,0.05787287683455808,15.614451,-0.7327994,-0.55833143,1.008816,12.005279,-11.136118,0.96087,-0.28395838,0.496911,-0.22130129,-0.78960305,-5.4948626,4.836816,-1.1121818,0.19528426,-1.476711,0.057872877,1,-0.1133500576019287,-0.14578961690266928,0.44332497119903563,0.42710519154866533,-0.7317348817261655,0.4603276393211297,-0.5026554757905562,-0.1570476926968576,-8.998169973797461,0
0.6500000000000004,16.418642267351512,0.1952842659382292,-1.4767110838349213,0.05787287683455808,15.614451,-0.7327994,-0.55833143,1.008816,11.949815,-11.087257,0.9495774,-0.2787661,0.49461925,-0.22011678,-0.793215,-5.5979404,4.9350567,-1.146215,-0.7327994,-0.55833143,1.008816,1,-0.1133500576019287,-0.14578961690266928,0.44332497119903563,0.42710519154866533,-0.7317348817261655,0.4603276393211297,-0.5026554757905562,-0.1570476926968576,-8.998169973797461,0
0.6600000000000004,16.418642267351512,0.1952842659382292,-1.4767110838349213,0.05787287683455808,15.614451,-0.7327994,-0.55833143,1.008816,11.893318,-11.03742,0.9379488,-0.27356076,0.49230447,-0.21892197,-0.79678994,-5.701466,5.0322475,-1.1793736,-0.7327994,-0.55833143,1.008816,1,-0.1133500576019287,-0.14578961690266928,0.44332497119903563,0.42710519154866533,-0.7317348817261655,0.4603276393211297,-0.5026554757905562,-0.1570476926968576,-8.998169973797461,0
0.6700000000000004,16.418642267351512,0.1952842659382292,-1.4767110838349213,0.05787287683455808,15.614451,-0.7327994,-0.55833143,1.008816,11.835785,-10.986616,0.925993,-0.2683427,0.4899667,-0.21771698,-0.8003277,-5.8054214,5.1283827,-1.2116535,-0.7327994,-0.55833143,1.008816,1,-0.018252408504486083,-0.2956349182128906,0.49087379574775697,0.3521825408935547,-0.7538864476929759,0.5787815833450767,-0.31091333642259933,-0.06880311325741051,-3.942128007010224,0
0.6800000000000004,17.400998204988277,0.32140088490391355,-0.9863523997611979,0.01998471316228872,16.739222,-0.8391282,-1.2277611,1.0155883,11.777209,-10.934855,0.9137188,-0.26311216,0.48760605,-0.21650182,-0.80382806,-5.909786,5.2234592,-1.2430503,-0.7327994,-0.55833143,1.008816,0,-0.018252408504486083,-0.2956349182128906,0.49087379574775697,0.3521825408935547,-0.7538864476929759,0.5787815833450767,-0.31091333642259933,-0.06880311325741051,-3.942128007010224,0
0.6900000000000004,17.400998204988277,0.32140088490391355,-0.9863523997611979,0.01998471316228872,16.739222,-0.8391282,-1.2277611,1.0155883,11.717529,-10.882096,0.90117425,-0.2648796,0.48319077,-0.21654178,-0.8059004,-6.0259857,5.328698,-1.2656405,0.32140088,-0.9863524,0.019984713,0,-0.018252408504486083,-0.2956349182128906,0.49087379574775697,0.3521825408935547,-0.7538864476929759,0.5787815833450767,-0.31091333642259933,-0.06880311325741051,-3.942128007010224,0
0.7000000000000004,17.400998204988277,0.32140088490391355,-0.9863523997611979,0.01998471316228872,16.739222,-0.8391282,-1.2277611,1.0155883,11.6566925,-10.828284,0.88841116,-0.26663992,0.47876248,-0.2165759,-0.80795103,-6.1411567,5.4339933,-1.2867482,0.32140088,-0.9863524,0.019984713,0,-0.018252408504486083,-0.2956349182128906,0.49087379574775697,0.3521825408935547,-0.7538864476929759,0.5787815833450767,-0.31091333642259933,-0.06880311325741051,-3.942128007010224,0
0.7100000000000004,17.400998204988277,0.32140088490391355,-0.9863523997611979,0.01998471316228872,16.739222,-0.8391282,-1.2277611,1.0155883,11.594709,-10.773418,0.8754443,-0.26839307,0.47432128,-0.2166042,-0.80997986,-6.255287,5.539333,-1.3063816,0.32140088,-0.9863524,0.019984713,0,-0.018252408504486083,-0.2956349182128906,0.49087379574775697,0.3521825408935547,-0.7538864476929759,0.5787815833450767,-0.31091333642259933,-0.06880311325741051,-3.942128007010224,0
0.7200000000000004,16.527394627739962,0.5655840088988398,-2.3157050358155473,-0.07693222246253716,16.088062,-0.07924553,-2.4374464,0.29113698,11.531591,-10.717497,0.8622885,-0.27013898,0.46986735,-0.21662667,-0.811987,-6.3683643,5.644707,-1.3245493,0.32140088,-0.9863524,0.019984713,1,-0.018252408504486083,-0.2956349182128906,0.49087379574775697,0.3521825408935547,-0.7538864476929759,0.5787815833450767,-0.31091333642259933,-0.06880311325741051,-3.942128007010224,0
0.7300000000000004,16.527394627739962,0.5655840088988398,-2.3157050358155473,-0.07693222246253716,16.088062,-0.07924553,-2.4374464,0.29113698,11.46739,-10.660563,0.84893,-0.2713905,0.459728,-0.21368042,-0.8181311,-6.471712,5.741758,-1.3466109,-0.07924553,-2.4374464,0.29113698,1,-0.018252408504486083,-0.2956349182128906,0.49087379574775697,0.3521825408935547,-0.7538864476929759,0.5787815833450767,-0.31091333642259933,-0.06880311325741051,-3.942128007010224,0
0.7400000000000004,16.527394627739962,0.5655840088988398,-2.3157050358155473,-0.07693222246253716,16.088062,-0.07924553,-2.4374464,0.29113698,11.402163,-10.602666,0.83536804,-0.27260107,0.4495193,-0.21070193,-0.8241518,-6.5734644,5.8377466,-1.3652496,-0.07924553,-2.4374464,0.29113698,1,0.03809797763824463,-0.360237782796224,0.5190489888191223,0.319881108601888,-0.743504270733096,0.6471645247640467,-0.16846209451557081,-0.009955981606659225,-0.5704357269714501,0
0.7500000000000004,16.527394627739962,0.5655840088988398,-2.3157050358155473,-0.07693222246253716,16.088062,-0.07924553,-2.4374464,0.29113698,11.335926,-10.543813,0.8216367,-0.27377054,0.43924284,-0.20769167,-0.8300482,-6.6735525,5.9326253,-1.3805133,-0.07924553,-2.4374464,0.29113698,1,0.03809797763824463,-0.360237782796224,0.5190489888191223,0.319881108601888,-0.743504270733096,0.6471645247640467,-0.16846209451557081,-0.009955981606659225,-0.5704357269714501,0
0.7600000000000005,17.30362171409069,0.7017251308509269,-1.6906325976127703,-0.11989860515278608,15.759498,-0.52865654,-2.9779139,0.3213446,11.268697,-10.484017,0.80776924,-0.27489874,0.42890012,-0.20465009,-0.8358195,-6.7719097,6.0263457,-1.392452,-0.07924553,-2.4374464,0.29113698,0,0.03809797763824463,-0.360237782796224,0.5190489888191223,0.319881108601888,-0.743504270733096,0.6471645247640467,-0.16846209451557081,-0.009955981606659225,-0.5704357269714501,0
0.7700000000000005,17.30362171409069,0.7017251308509269,-1.6906325976127703,-0.11989860515278608,15.759498,-0.52865654,-2.9779139,0.3213446,11.200458,-10.423254,0.7938311,-0.27862298,0.42097503,-0.20499316,-0.83852696,-6.875681,6.126378,-1.3948135,0.7017251,-1.6906326,-0.1198986,0,0.03809797763824463,-0.360237782796224,0.5190489888191223,0.319881108601888,-0.743504270733096,0.6471645247640467,-0.16846209451557081,-0.009955981606659225,-0.5704357269714501,0
0.7800000000000005,17.30362171409069,0.7017251308509269,-1.6906325976127703,-0.11989860515278608,15.759498,-0.52865654,-2.9779139,0.3213446,11.131191,-10.361489,0.7798808,-0.28232378,0.41301453,-0.20531899,-0.8411639,-6.9772453,6.226476,-1.3949044,0.7017251,-1.6906326,-0.1198986,0,0.03809797763824463,-0.360237782796224,0.5190489888191223,0.319881108601888,-0.743504270733096,0.6471645247640467,-0.16846209451557081,-0.009955981606659225,-0.5704357269714501,0
0.7900000000000005,17.30362171409069,0.7017251308509269,-1.6906325976127703,-0.11989860515278608,15.759498,-0.52865654,-2.9779139,0.3213446,11.06092,-10.298724,0.7659408,-0.28600082,0.4050193,-0.20562756,-0.8437301,-7.07657,6.326604,-1.3927557,0.7017251,-1.6906326,-0.1198986,0,0.03809797763824463,-0.360237782796224,0.5190489888191223,0.319881108601888,-0.743504270733096,0.6471645247640467,-0.16846209451557081,-0.009955981606659225,-0.5704357269714501,0
0.8000000000000005,16.23470062000296,0.4923688822535745,-2.5353216486084893,-0.13531337441146604,16.514156,-0.062816225,-3.5775576,-0.1529324,10.989667,-10.234958,0.7520333,-0.2896538,0.39699,-0.20591882,-0.8462254,-7.173623,6.426725,-1.3883996,0.7017251,-1.6906326,-0.1198986,0,0.02274139165878296,-0.26681831359863284,0.5113706958293914,0.3665908432006836,-0.7417477833329852,0.6561599693370639,-0.13879596737724942,-0.0062868156007178655,-0.360208000498137,0
0.8100000000000005,16.23470062000296,0.4923688822535745,-2.5353216486084893,-0.13531337441146604,16.514156,-0.062816225,-3.5775576,-0.1529324,10.917485,-10.170221,0.73814934,-0.2937897,0.3856561,-0.2040445,-0.8504841,-7.262336,6.5203533,-1.387914,0.49236888,-2.5353217,-0.13531338,0,0.02274139165878296,-0.26681831359863284,0.5113706958293914,0.3665908432006836,-0.7417477833329852,0.6561599693370639,-0.13879596737724942,-0.0062868156007178655,-0.360208000498137,0
0.8200000000000005,16.23470062000296,0.4923688822535745,-2.5353216486084893,-0.13531337441146604,16.514156,-0.062816225,-3.5775576,-0.1529324,10.844431,-10.104553,0.7242857,-0.29787645,0.37425768,-0.20213608,-0.8546006,-7.3483486,6.6131754,-1.3843229,0.49236888,-2.5353217,-0.13531338,0,0.02274139165878296,-0.26681831359863284,0.5113706958293914,0.3665908432006836,-0.7417477833329852,0.6561599693370639,-0.13879596737724942,-0.0062868156007178655,-0.360208000498137,0
0.8300000000000005,16.23470062000296,0.4923688822535745,-2.5353216486084893,-0.13531337441146604,16.514156,-0.062816225,-3.5775576,-0.1529324,10.770529,-10.037961,0.7104733,-0.30191338,0.3627967,-0.20019385,-0.8585742,-7.4316077,6.7051253,-1.3776929,0.49236888,-2.5353217,-0.13531338,0,0.02274139165878296,-0.26681831359863284,0.5113706958293914,0.3665908432006836,-0.7417477833329852,0.6561599693370639,-0.13879596737724942,-0.0062868156007178655,-0.360208000498137,0
0.8400000000000005,16.23470062000296,0.4923688822535745,-2.5353216486084893,-0.13531337441146604,15.805275,-0.24467751,-3.1054058,-0.0062513296,10.695809,-9.970454,0.6967421,-0.30589986,0.35127506,-0.19821815,-0.8624043,-7.5120606,6.796137,-1.3680924,0.49236888,-2.5353217,-0.13531338,1,0.02274139165878296,-0.26681831359863284,0.5113706958293914,0.3665908432006836,-0.7417477833329852,0.6561599693370639,-0.13879596737724942,-0.0062868156007178655,-0.360208000498137,0
0.8500000000000005,16.23470062000296,0.4923688822535745,-2.5353216486084893,-0.13531337441146604,15.805275,-0.24467751,-3.1054058,-0.0062513296,10.620308,-9.902055,0.68310773,-0.30853757,0.33822283,-0.19237858,-0.8679866,-7.587702,6.8833094,-1.3582197,-0.24467751,-3.1054058,-0.0062513296,1,0.02274139165878296,-0.26681831359863284,0.5113706958293914,0.3665908432006836,-0.7417477833329852,0.6561599693370639,-0.13879596737724942,-0.0062868156007178655,-0.360208000498137,0
0.8600000000000005,16.23470062000296,0.4923688822535745,-2.5353216486084893,-0.13531337441146604,15.805275,-0.24467751,-3.1054058,-0.0062513296,10.544064,-9.832796,0.6695898,-0.31110045,0.32508856,-0.18649234,-0.8733584,-7.660759,6.9682183,-1.3448211,-0.24467751,-3.1054058,-0.0062513296,1,0.02274139165878296,-0.26681831359863284,0.5113706958293914,0.3665908432006836,-0.7417477833329852,0.6561599693370639,-0.13879596737724942,-0.0062868156007178655,-0.360208000498137,0
0.8700000000000006,16.23470062000296,0.4923688822535745,-2.5353216486084893,-0.13531337441146604,15.805275,-0.24467751,-3.1054058,-0.0062513296,10.467102,-9.762699,0.6562231,-0.3135879,0.3118754,-0.18056086,-0.87851834,-7.731161,7.0507803,-1.3280047,-0.24467751,-3.1054058,-0.0062513296,1,-0.04455843448638916,-0.36229820251464845,0.4777207827568054,0.3188508987426758,-0.7517662878279995,0.6431620314718214,0.1455680245052087,-0.03170452973263105,-1.8165357451267914,0
0.8800000000000006,16.899957455525573,0.4046320605858018,-1.0674581401008656,-0.14457268252284625,15.746379,-0.4316946,-2.6500762,0.06706048,10.389451,-9.691789,0.6430412,-0.31599927,0.29858658,-0.17458558,-0.88346523,-7.79884,7.130916,-1.307882,-0.24467751,-3.1054058,-0.0062513296,0,-0.04455843448638916,-0.36229820251464845,0.4777207827568054,0.3188508987426758,-0.7517662878279995,0.6431620314718214,0.1455680245052087,-0.03170452973263105,-1.8165357451267914,0
0.8900000000000006,16.899957455525573,0.4046320605858018,-1.0674581401008656,-0.14457268252284625,15.746379,-0.4316946,-2.6500762,0.06706048,10.311112,-9.620059,0.63011587,-0.31816852,0.29335323,-0.17446767,-0.8844626,-7.8687625,7.214822,-1.2770195,0.40463206,-1.0674582,-0.14457268,0,-0.04455843448638916,-0.36229820251464845,0.4777207827568054,0.3188508987426758,-0.7517662878279995,0.6431620314718214,0.1455680245052087,-0.03170452973263105,-1.8165357451267914,0
0.9000000000000006,16.899957455525573,0.4046320605858018,-1.0674581401008656,-0.14457268252284625,15.746379,-0.4316946,-2.6500762,0.06706048,10.232082,-9.547493,0.6175044,-0.32032728,0.28811017,-0.17434399,-0.8854307,-7.937103,7.298402,-1.2451022,0.40463206,-1.0674582,-0.14457268,0,-0.04455843448638916,-0.36229820251464845,0.4777207827568054,0.3188508987426758,-0.7517662878279995,0.6431620314718214,0.1455680245052087,-0.03170452973263105,-1.8165357451267914,0
0.9100000000000006,16.899957455525573,0.4046320605858018,-1.0674581401008656,-0.14457268252284625,15.746379,-0.4316946,-2.6500762,0.06706048,10.152376,-9.4740925,0.60521734,-0.3224754,0.28285757,-0.17421453,-0.88636947,-8.003853,7.381643,-1.2121457,0.40463206,-1.0674582,-0.14457268,0,-0.04455843448638916,-0.36229820251464845,0.4777207827568054,0.3188508987426758,-0.7517662878279995,0.6431620314718214,0.1455680245052087,-0.03170452973263105,-1.8165357451267914,0
0.9200000000000006,16.030926305243202,0.40240171084157816,-1.3794754795811641,-0.1389704001367023,17.17323,0.104935564,-2.3369107,-0.17457151,10.072011,-9.399861,0.593265,-0.3246129,0.2775956,-0.1740793,-0.8872789,-8.069006,7.4645324,-1.1781663,0.40463206,-1.0674582,-0.14457268,0,-0.04455843448638916,-0.36229820251464845,0.4777207827568054,0.3188508987426758,-0.7517662878279995,0.6431620314718214,0.1455680245052087,-0.03170452973263105,-1.8165357451267914,0
0.9300000000000006,16.030926305243202,0.40240171084157816,-1.3794754795811641,-0.1389704001367023,17.17323,0.104935564,-2.3369107,-0.17457151,9.991018,-9.324824,0.5816237,-0.32698014,0.27093634,-0.17342812,-0.8885946,-8.129168,7.5427217,-1.1499112,0.40240172,-1.3794755,-0.1389704,0,-0.04455843448638916,-0.36229820251464845,0.4777207827568054,0.3188508987426758,-0.7517662878279995,0.6431620314718214,0.1455680245052087,-0.03170452973263105,-1.8165357451267914,0
0.9400000000000006,16.030926305243202,0.40240171084157816,-1.3794754795811641,-0.1389704001367023,17.17323,0.104935564,-2.3369107,-0.17457151,9.909434,-9.249009,0.570271,-0.32933035,0.26426297,-0.17276789,-0.8898641,-8.187481,7.620305,-1.1204219,0.40240172,-1.3794755,-0.1389704,0,-0.05686841011047363,-0.28674171447753904,0.4715657949447632,0.3566291427612305,-0.7393409213297317,0.6495976215430547,0.17719461654607277,-0.028659053969048554,-1.6420428372641327,0
0.9500000000000006,16.030926305243202,0.40240171084157816,-1.3794754795811641,-0.1389704001367023,17.17323,0.104935564,-2.3369107,-0.17457151,9.827275,-9.172421,0.5592193,-0.3316634,0.25757587,-0.17209867,-0.8910872,-8.243935,7.6972632,-1.0897237,0.40240172,-1.3794755,-0.1389704,0,-0.05686841011047363,-0.28674171447753904,0.4715657949447632,0.3566291427612305,-0.7393409213297317,0.6495976215430547,0.17719461654607277,-0.028659053969048554,-1.6420428372641327,0
0.9600000000000006,16.369628741222304,0.21777257704363895,-0.6694761917761245,-0.12901755437152648,16.484676,0.13439503,-1.8738207,-0.17127609,9.744562,-9.095067,0.5484806,-0.3339792,0.25087535,-0.17142048,-0.8922638,-8.298521,7.7735777,-1.0578424,0.40240172,-1.3794755,-0.1389704,0,-0.05686841011047363,-0.28674171447753904,0.4715657949447632,0.3566291427612305,-0.7393409213297317,0.6495976215430547,0.17719461654607277,-0.028659053969048554,-1.6420428372641327,0
0.9700000000000006,16.369628741222304,0.21777257704363895,-0.6694761917761245,-0.12901755437152648,16.484676,0.13439503,-1.8738207,-0.17127609,9.661305,-9.016944,0.5380796,-0.33539963,0.24763393,-0.17111115,-0.89269584,-8.352704,7.8509703,-1.0222601,0.21777257,-0.6694762,-0.12901756,0,-0.05686841011047363,-0.28674171447753904,0.4715657949447632,0.3566291427612305,-0.7393409213297317,0.6495976215430547,0.17719461654607277,-0.028659053969048554,-1.6420428372641327,0
0.9800000000000006,16.369628741222304,0.21777257704363895,-0.6694761917761245,-0.12901755437152648,16.484676,0.13439503,-1.8738207,-0.17127609,9.577511,-8.938048,0.5280373,-0.33681577,0.24438934,-0.17079963,-0.8931164,-8.405929,7.928056,-0.98611647,0.21777257,-0.6694762,-0.12901756,0,-0.05686841011047363,-0.28674171447753904,0.4715657949447632,0.3566291427612305,-0.7393409213297317,0.6495976215430547,0.17719461654607277,-0.028659053969048554,-1.6420428372641327,0
0.9900000000000007,16.369628741222304,0.21777257704363895,-0.6694761917761245,-0.12901755437152648,16.484676,0.13439503,-1.8738207,-0.17127609,9.493189,-8.858384,0.51835924,-0.33822763,0.24114163,-0.1704859,-0.89352554,-8.458192,8.004829,-0.9494177,0.21777257,-0.6694762,-0.12901756,0,-0.05686841011047363,-0.28674171447753904,0.4715657949447632,0.3566291427612305,-0.7393409213297317,0.6495976215430547,0.17719461654607277,-0.028659053969048554,-1.6420428372641327,0
1.0000000000000007,15.585932633845774,0.001985015554424758,-2.1417810954660474,-0.0905600147819425,16.480173,0.2239944,-1.6275221,-0.260772,9.40835,-8.777953,0.50905085,-0.33963507,0.23789082,-0.17017001,-0.8939232,-8.509494,8.081285,-0.91217,0.21777257,-0.6694762,-0.12901756,1,-0.07882668018341064,-0.15033594767252603,0.46058665990829467,0.424832026163737,-0.7574865424234539,0.6444584573005738,0.10434287163542011,-0.05464404927329314,-3.13087339886461,0
1.0100000000000007,15.585932633845774,0.001985015554424758,-2.1417810954660474,-0.0905600147819425,16.480173,0.2239944,-1.6275221,-0.260772,9.323002,-8.696757,0.50012314,-0.34244007,0.23044978,-0.16809133,-0.89519477,-8.559779,8.157621,-0.87314534,0.2239944,-1.6275221,-0.260772,1,-0.07882668018341064,-0.15033594767252603,0.46058665990829467,0.424832026163737,-0.7574865424234539,0.6444584573005738,0.10434287163542011,-0.05464404927329314,-3.13087339886461,0
1.0200000000000007,15.585932633845774,0.001985015554424758,-2.1417810954660474,-0.0905600147819425,16.480173,0.2239944,-1.6275221,-0.260772,9.237161,-8.614805,0.4915926,-0.34522134,0.22299278,-0.166001,-0.8964044,-8.608044,8.232785,-0.8327537,0.2239944,-1.6275221,-0.260772,1,-0.07882668018341064,-0.15033594767252603,0.46058665990829467,0.424832026163737,-0.7574865424234539,0.6444584573005738,0.10434287163542011,-0.05464404927329314,-3.13087339886461,0
1.0300000000000007,15.585932633845774,0.001985015554424758,-2.1417810954660474,-0.0905600147819425,16.480173,0.2239944,-1.6275221,-0.260772,9.1508465,-8.532106,0.48347265,-0.34797874,0.21552037,-0.16389923,-0.897552,-8.654278,8.306752,-0.7910309,0.2239944,-1.6275221,-0.260772,1,-0.07882668018341064,-0.15033594767252603,0.46058665990829467,0.424832026163737,-0.7574865424234539,0.6444584573005738,0.10434287163542011,-0.05464404927329314,-3.13087339886461,0
1.0400000000000007,15.585932633845774,0.001985015554424758,-2.1417810954660474,-0.0905600147819425,16.430582,0.17085841,-1.823602,-0.16915727,9.064081,-8.448673,0.47577643,-0.3507121,0.20803306,-0.1617861,-0.8986375,-8.698471,8.379497,-0.7480131,0.2239944,-1.6275221,-0.260772,1,-0.07882668018341064,-0.15033594767252603,0.46058665990829467,0.424832026163737,-0.7574865424234539,0.6444584573005738,0.10434287163542011,-0.05464404927329314,-3.13087339886461,0
1.0500000000000007,15.585932633845774,0.001985015554424758,-2.1417810954660474,-0.0905600147819425,16.430582,0.17085841,-1.823602,-0.16915727,8.976885,-8.364521,0.46851477,-0.35311016,0.1996678,-0.15917324,-0.9000615,-8.740433,8.4506855,-0.7041029,0.17085841,-1.823602,-0.16915727,1,-0.07882668018341064,-0.15033594767252603,0.46058665990829467,0.424832026163737,-0.7574865424234539,0.6444584573005738,0.10434287163542011,-0.05464404927329314,-3.13087339886461,0
1.0600000000000007,15.585932633845774,0.001985015554424758,-2.1417810954660474,-0.0905600147819425,16.430582,0.17085841,-1.823602,-0.16915727,8.88928,-8.279664,0.46169913,-0.35547838,0.19128568,-0.15654694,-0.90140927,-8.78019,8.520361,-0.65881395,0.17085841,-1.823602,-0.16915727,1,-0.07882668018341064,-0.15033594767252603,0.46058665990829467,0.424832026163737,-0.7574865424234539,0.6444584573005738,0.10434287163542011,-0.05464404927329314,-3.13087339886461,0
1.0700000000000007,15.585932633845774,0.001985015554424758,-2.1417810954660474,-0.0905600147819425,16.430582,0.17085841,-1.823602,-0.16915727,8.80129,-8.1941185,0.45534307,-0.35781652,0.18288739,-0.15390737,-0.90268093,-8.817733,8.588495,-0.6121934,0.17085841,-1.823602,-0.16915727,1,-0.09029211997985839,-0.11755245208740234,0.4548539400100708,0.44122377395629886,-0.7343454214580367,0.6519913841568987,0.18879628430874823,-0.04616527735486686,-2.645075552484744,0
1.0800000000000007,15.576957073636933,-0.1931630208787965,-1.556288509442958,-0.0475359266626966,16.376009,-0.19307503,-1.7305694,0.004990345,8.712934,-8.1079,0.4494597,-0.36012438,0.17447363,-0.15125479,-0.9038761,-8.853049,8.655061,-0.56428885,0.17085841,-1.823602,-0.16915727,1,-0.09029211997985839,-0.11755245208740234,0.4548539400100708,0.44122377395629886,-0.7343454214580367,0.6519913841568987,0.18879628430874823,-0.04616527735486686,-2.645075552484744,0
1.0900000000000007,15.576957073636933,-0.1931630208787965,-1.556288509442958,-0.0475359266626966,16.376009,-0.19307503,-1.7305694,0.004990345,8.624235,-8.021025,0.44405913,-0.36122853,0.1669899,-0.14726478,-0.90550655,-8.886219,8.719697,-0.5156282,-0.19307503,-1.7305694,0.004990345,1,-0.09029211997985839,-0.11755245208740234,0.4548539400100708,0.44122377395629886,-0.7343454214580367,0.6519913841568987,0.18879628430874823,-0.04616527735486686,-2.645075552484744,0
1.1000000000000008,15.576957073636933,-0.1931630208787965,-1.556288509442958,-0.0475359266626966,16.376009,-0.19307503,-1.7305694,0.004990345,8.535214,-7.9335127,0.4391513,-0.36230528,0.15949349,-0.1432636,-0.9070684,-8.917677,8.7824,-0.46575725,-0.19307503,-1.7305694,0.004990345,1,-0.09029211997985839,-0.11755245208740234,0.4548539400100708,0.44122377395629886,-0.7343454214580367,0.6519913841568987,0.18879628430874823,-0.04616527735486686,-2.645075552484744,0
1.1100000000000008,15.576957073636933,-0.1931630208787965,-1.556288509442958,-0.0475359266626966,16.376009,-0.19307503,-1.7305694,0.004990345,8.445888,-7.8453836,0.434748,-0.3633546,0.15198499,-0.13925157,-0.90856135,-8.9474125,8.843152,-0.41472083,-0.19307503,-1.7305694,0.004990345,1,-0.09029211997985839,-0.11755245208740234,0.4548539400100708,0.44122377395629886,-0.7343454214580367,0.6519913841568987,0.18879628430874823,-0.04616527735486686,-2.645075552484744,0
1.1200000000000008,14.810206902075537,-0.3667897491044881,-2.2183606823396937,-0.0014609511701376724,15.909373,-0.05223068,-1.8167138,-0.012326473,8.356273,-7.7566566,0.4308607,-0.36437634,0.14446497,-0.13522899,-0.9099855,-8.975416,8.901936,-0.36256427,-0.19307503,-1.7305694,0.004990345,0,-0.09029211997985839,-0.11755245208740234,0.4548539400100708,0.44122377395629886,-0.7343454214580367,0.6519913841568987,0.18879628430874823,-0.04616527735486686,-2.645075552484744,0
1.1300000000000008,14.810206902075537,-0.3667897491044881,-2.2183606823396937,-0.0014609511701376724,15.909373,-0.05223068,-1.8167138,-0.012326473,8.266399,-7.6673794,0.42742842,-0.36559492,0.13503191,-0.12950905,-0.91177565,-8.999048,8.953063,-0.32369417,-0.36678976,-2.2183607,-0.0014609512,0,-0.09029211997985839,-0.11755245208740234,0.4548539400100708,0.44122377395629886,-0.7343454214580367,0.6519913841568987,0.18879628430874823,-0.04616527735486686,-2.645075552484744,0
1.1400000000000008,14.810206902075537,-0.3667897491044881,-2.2183606823396937,-0.0014609511701376724,15.909373,-0.05223068,-1.8167138,-0.012326473,8.176298,-7.5776033,0.4243909,-0.3667673,0.12558177,-0.12377275,-0.91345066,-9.020775,9.0017395,-0.28362066,-0.36678976,-2.2183607,-0.0014609512,0,-0.09118028640747071,-0.0036730575561523438,0.45440985679626467,0.49816347122192384,-0.7350661682051183,0.645774811791838,0.20652510940672758,-0.0635183683660201,-3.6393344289302303,0
1.1500000000000008,14.810206902075537,-0.3667897491044881,-2.2183606823396937,-0.0014609511701376724,15.909373,-0.05223068,-1.8167138,-0.012326473,8.085991,-7.487353,0.42175987,-0.3678933,0.11611576,-0.1180208,-0.91501015,-9.040587,9.047939,-0.24241358,-0.36678976,-2.2183607,-0.0014609512,0,-0.09118028640747071,-0.0036730575561523438,0.45440985679626467,0.49816347122192384,-0.7350661682051183,0.645774811791838,0.20652510940672758,-0.0635183683660201,-3.6393344289302303,0
1.1600000000000008,14.803265093880734,-0.37345044451540244,-1.2864180492456938,0.03338963996168645,15.668944,-0.20555899,-1.3781952,0.015891796,7.9954953,-7.3966527,0.4195463,-0.36897284,0.106635064,-0.112253934,-0.916454,-9.058474,9.091638,-0.20014338,-0.36678976,-2.2183607,-0.0014609512,1,-0.09118028640747071,-0.0036730575561523438,0.45440985679626467,0.49816347122192384,-0.7350661682051183,0.645774811791838,0.20652510940672758,-0.0635183683660201,-3.6393344289302303,0
1.1700000000000008,14.803265093880734,-0.37345044451540244,-1.2864180492456938,0.03338963996168645,15.668944,-0.20555899,-1.3781952,0.015891796,7.904824,-7.3055153,0.41780093,-0.369555,0.10068757,-0.1087752,-0.9173113,-9.075633,9.135592,-0.14882872,-0.20555899,-1.3781952,0.015891796,1,-0.09118028640747071,-0.0036730575561523438,0.45440985679626467,0.49816347122192384,-0.7350661682051183,0.645774811791838,0.20652510940672758,-0.0635183683660201,-3.6393344289302303,0
1.1800000000000008,14.803265093880734,-0.37345044451540244,-1.2864180492456938,0.03338963996168645,15.668944,-0.20555899,-1.3781952,0.015891796,7.8139873,-7.213947,0.41657186,-0.3701192,0.09473519,-0.10529119,-0.918124,-9.091492,9.177905,-0.09689759,-0.20555899,-1.3781952,0.015891796,1,-0.09118028640747071,-0.0036730575561523438,0.45440985679626467,0.49816347122192384,-0.7350661682051183,0.645774811791838,0.20652510940672758,-0.0635183683660201,-3.6393344289302303,0
1.1900000000000008,14.803265093880734,-0.37345044451540244,-1.2864180492456938,0.03338963996168645,15.668944,-0.20555899,-1.3781952,0.015891796,7.7229986,-7.1219625,0.415865,-0.37066546,0.088778205,-0.10180206,-0.91889215,-9.106047,9.218568,-0.044379164,-0.20555899,-1.3781952,0.015891796,1,-0.09118028640747071,-0.0036730575561523438,0.45440985679626467,0.49816347122192384,-0.7350661682051183,0.645774811791838,0.20652510940672758,-0.0635183683660201,-3.6393344289302303,0
1.2000000000000008,14.309899287006157,-0.4115228787564453,-1.4871099432895285,0.06228995966440772,15.719325,-0.19548151,-1.3420452,-0.10835337,7.6318707,-7.0295806,0.4156862,-0.3711937,0.082816906,-0.098308,-0.9196157,-9.119296,9.257571,0.0086972825,-0.20555899,-1.3781952,0.015891796,0,-0.14246041297912598,0.08400679270426432,0.428769793510437,0.5420033963521321,-0.7683860638356346,0.600054426067987,0.22252537531571293,-0.1299192150657107,-7.443822700917682,0
1.2100000000000009,14.309899287006157,-0.4115228787564453,-1.4871099432895285,0.06228995966440772,15.719325,-0.19548151,-1.3420452,-0.10835337,7.5406218,-6.9368334,0.41597512,-0.3714568,0.0767098,-0.09367867,-0.9205219,-9.130236,9.291554,0.04916992,-0.41152287,-1.4871099,0.06228996,0,-0.14246041297912598,0.08400679270426432,0.428769793510437,0.5420033963521321,-0.7683860638356346,0.600054426067987,0.22252537531571293,-0.1299192150657107,-7.443822700917682,0
1.2200000000000009,14.309899287006157,-0.4115228787564453,-1.4871099432895285,0.06228995966440772,15.719325,-0.19548151,-1.3420452,-0.10835337,7.4492693,-6.8437557,0.41667143,-0.37169772,0.07059812,-0.08904375,-0.9213733,-9.140072,9.323698,0.09016333,-0.41152287,-1.4871099,0.06228996,0,-0.14246041297912598,0.08400679270426432,0.428769793510437,0.5420033963521321,-0.7683860638356346,0.600054426067987,0.22252537531571293,-0.1299192150657107,-7.443822700917682,0
1.2300000000000009,14.309899287006157,-0.4115228787564453,-1.4871099432895285,0.06228995966440772,15.719325,-0.19548151,-1.3420452,-0.10835337,7.357824,-6.750366,0.4177801,-0.37191653,0.06448224,-0.08440352,-0.92216974,-9.1488,9.353995,0.13164432,-0.41152287,-1.4871099,0.06228996,0,-0.14246041297912598,0.08400679270426432,0.428769793510437,0.5420033963521321,-0.7683860638356346,0.600054426067987,0.22252537531571293,-0.1299192150657107,-7.443822700917682,0
1.2400000000000009,14.309899287006157,-0.4115228787564453,-1.4871099432895285,0.06228995966440772,15.547089,-0.26121053,-1.8775945,-0.017791027,7.266297,-6.6566825,0.41930586,-0.37211317,0.058362514,-0.079758264,-0.92291117,-9.156416,9.38244,0.17357957,-0.41152287,-1.4871099,0.06228996,0,-0.14246041297912598,0.08400679270426432,0.428769793510437,0.5420033963521321,-0.7683860638356346,0.600054426067987,0.22252537531571293,-0.1299192150657107,-7.443822700917682,0
1.2500000000000009,14.309899287006157,-0.4115228787564453,-1.4871099432895285,0.06228995966440772,15.547089,-0.26121053,-1.8775945,-0.017791027,7.1746993,-6.562724,0.42125311,-0.37228757,0.052239306,-0.07510825,-0.92359763,-9.162918,9.409024,0.2159357,-0.41152287,-1.4871099,0.06228996,0,-0.14246041297912598,0.08400679270426432,0.428769793510437,0.5420033963521321,-0.7683860638356346,0.600054426067987,0.22252537531571293,-0.1299192150657107,-7.443822700917682,0
1.260000000000001,14.309899287006157,-0.4115228787564453,-1.4871099432895285,0.06228995966440772,15.547089,-0.26121053,-1.8775945,-0.017791027,7.0830426,-6.468509,0.42362592,-0.3724398,0.046112984,-0.07045376,-0.924229,-9.168304,9.4337435,0.25867918,-0.41152287,-1.4871099,0.06228996,0,-0.14246041297912598,0.08400679270426432,0.428769793510437,0.5420033963521321,-0.7683860638356346,0.600054426067987,0.22252537531571293,-0.1299192150657107,-7.443822700917682,0
1.270000000000001,14.309899287006157,-0.4115228787564453,-1.4871099432895285,0.06228995966440772,15.547089,-0.26121053,-1.8775945,-0.017791027,6.991338,-6.3740563,0.42642793,-0.37256983,0.039983913,-0.06579507,-0.9248053,-9.172572,9.456593,0.30177638,-0.41152287,-1.4871099,0.06228996,0,-0.10312219619750977,0.08713655471801758,0.44843890190124513,0.5435682773590088,-0.7297347562664878,0.6072257077316917,0.3142676015220721,-0.10662228857110945,-6.109007137150525,0
