t,px,py,pz,qx,qy,qz,qw,vx,vy,vz,wx,wy,wz,throttle_mpc,roll_mpc,pitch_mpc,yaw_mpc,throttle_nw,roll_nw,pitch_nw,yaw_nw,network_used
-2.0,19.780336,-9.4559555,2.096834,0.48357797,-0.21206595,-0.8446950999999999,0.08758204,-10.582685000000001,-5.98996,-0.36935806,1.1471577,0.24454348,0.35477722,9.445615318196724,5.999999757810363,-5.9999999390204986,-4.635838740740953,6.2869806,-2.5459695,-3.1728572999999995,-0.3697473,0
-1.99,19.67375,-9.51561,2.0930419999999996,0.4845576,-0.21724541,-0.8429494000000001,0.08628264,-10.734264999999999,-5.9408097,-0.3894039,1.0422834,0.13228515,0.18716973,9.445615318196724,5.999999757810363,-5.9999999390204986,-4.635838740740953,14.966553,-4.711629,-5.822903,-0.7094225000000001,0
-1.98,19.56566,-9.574769,2.0890388,0.48518359999999994,-0.22170855,-0.84161985,0.08436981,-10.883784,-5.8907742999999995,-0.41154799999999997,0.9763698000000001,0.014930583999999998,0.025526576000000002,9.445615318196724,5.999999757810363,-5.9999999390204986,-4.635838740740953,14.966553,-4.711629,-5.822903,-0.7094225000000001,0
-1.97,19.456083,-9.633424,2.0848044999999997,0.485446,-0.22562999,-0.84068245,0.08176964,-11.0311775,-5.839925,-0.43553516,0.9454566999999999,-0.10885441,-0.13039607,9.445615318196724,5.999999757810363,-5.9999999390204986,-4.635838740740953,14.966553,-4.711629,-5.822903,-0.7094225000000001,0
-1.96,19.345045000000002,-9.6915655,2.0803220000000002,0.48533013,-0.22916116,-0.84011334,0.07841789,-11.176275,-5.7883059999999995,-0.46118748,0.94478565,-0.23877728,-0.28094158,9.445615318196724,5.999999757810363,-5.9999999390204986,-4.635838740740953,4.5459785,-3.2536507,-3.7067687999999994,0.15603837,0
-1.95,19.232569,-9.749187,2.0755756,0.48481807,-0.23243254,-0.8398880999999999,0.07425946,-11.31891,-5.735913,-0.48834234,0.9702145000000001,-0.37446409999999997,-0.42642529999999995,9.445615318196724,5.999999757810363,-5.9999999390204986,-4.635838740740953,4.5459785,-3.2536507,-3.7067687999999994,0.15603837,0
-1.94,19.118676999999998,-9.806280000000001,2.0705506999999996,0.48388925,-0.23555619,-0.8399815999999999,0.069247454,-11.458917999999999,-5.682698,-0.5168505,1.0181344,-0.5154835999999999,-0.56713706,9.445615318196724,5.999999757810363,-5.9999999390204986,-4.635838740740953,4.5459785,-3.2536507,-3.7067687999999994,0.15603837,0
-1.93,19.0034,-9.862836999999999,2.0652343999999996,0.48252097,-0.23862773,-0.84036773,0.06334231,-11.596138,-5.628586,-0.5465741,1.0853978000000002,-0.66136825,-0.70334315,9.445615318196724,5.999999757810363,-5.9999999390204986,-4.635838740740953,4.5459785,-3.2536507,-3.7067687999999994,0.15603837,0
-1.92,18.886766,-9.918847999999999,2.0596156000000003,0.48068854,-0.2417284,-0.84101856,0.056511045,-11.730411,-5.573478700000001,-0.5773853,1.1692563,-0.8116309,-0.83528876,12.05501127875486,5.999999907520799,-5.999999983198854,-4.714473150911791,13.480689000000002,-2.2259402,-7.667347,-0.07063642,0
-1.91,18.768719,-9.974266,2.053727,0.47825244,-0.24504957,-0.84194016,0.048598796,-11.878563,-5.509967,-0.60056686,1.326763,-1.0253197,-0.9723716,12.05501127875486,5.999999907520799,-5.999999983198854,-4.714473150911791,13.480689000000002,-2.2259402,-7.667347,-0.07063642,0
-1.9,18.64921,-10.029042,2.0476007,0.47507662,-0.24875793,-0.84312755,0.039463896,-12.022778500000001,-5.445043599999999,-0.6247778,1.4928783,-1.2389216,-1.1056961,12.05501127875486,5.999999907520799,-5.999999983198854,-4.714473150911791,13.480689000000002,-2.2259402,-7.667347,-0.07063642,0
-1.89,18.528278,-10.083160000000001,2.041228,0.4711384,-0.25288045,-0.8445312,0.029100977000000004,-12.162823,-5.3784633,-0.64985955,1.6660526000000002,-1.4522407,-1.2354281999999999,12.05501127875486,5.999999907520799,-5.999999983198854,-4.714473150911791,13.480689000000002,-2.2259402,-7.667347,-0.07063642,0
-1.8800000000000001,18.405967999999998,-10.136605,2.0346007,0.466412,-0.25743547,-0.84609693,0.017508663,-12.298453,-5.310002,-0.67566556,1.8449369999999998,-1.6650718,-1.3617216,12.05501127875486,5.999999907520799,-5.999999983198854,-4.714473150911791,13.480689000000002,-2.2259402,-7.667347,-0.07063642,0
-1.87,18.282324,-10.189354,2.0277126,0.460869,-0.26243330000000004,-0.8477654,0.0046895285999999994,-12.429422,-5.239464,-0.7020605999999999,2.0283580000000003,-1.8772054,-1.48472,16.13028571582307,5.999999978058315,-6.0,-4.337842146466779,11.54727,-0.6375114000000001,-7.717728999999999,0.9611668999999999,0
-1.8599999999999999,18.157295,-10.24133,2.0206136999999997,0.45412344,-0.26822937,-0.8495478999999999,-0.009638971,-12.575014,-5.1553497,-0.7178488000000001,2.3777702,-2.2512369999999997,-1.6006031,16.13028571582307,5.999999978058315,-6.0,-4.337842146466779,11.54727,-0.6375114000000001,-7.717728999999999,0.9611668999999999,0
-1.85,18.030844000000002,-10.292452,2.0133538,0.4458072,-0.27511805,-0.8514129,-0.025724900000000002,-12.713888,-5.068533400000001,-0.7342536999999999,2.7162473,-2.6105682999999997,-1.7146974,16.13028571582307,5.999999978058315,-6.0,-4.337842146466779,11.54727,-0.6375114000000001,-7.717728999999999,0.9611668999999999,0
-1.84,17.903042000000003,-10.34269,2.0059276,0.43591237,-0.2830094,-0.8532249,-0.043508787,-12.845553,-4.9786525,-0.7510559,3.0442767,-2.9562682999999996,-1.8269813999999998,20.146480559639212,5.9999999974110825,-6.0,-3.754182196265032,13.343778,0.84626323,-7.1516147,-0.19732729,0
-1.83,17.773867000000003,-10.391946,1.9983916000000002,0.42406464,-0.29213223,-0.85489017,-0.06316928599999999,-12.988203,-4.871331,-0.7558026,3.5044447999999995,-3.4316986000000003,-1.9215498,20.146480559639212,5.9999999974110825,-6.0,-3.754182196265032,13.343778,0.84626323,-7.1516147,-0.19732729,0
-1.82,17.6433,-10.440094,1.9908186999999997,0.41005605,-0.30252904,-0.85624355,-0.084716074,-13.124126,-4.757328500000001,-0.7584662,3.8929004999999997,-3.8329367999999997,-2.0114775000000003,20.146480559639212,5.9999999974110825,-6.0,-3.754182196265032,13.343778,0.84626323,-7.1516147,-0.19732729,0
-1.81,17.511412,-10.487067,1.9832300999999999,0.3941031,-0.31386417,-0.85705227,-0.10785706,-13.252104999999998,-4.6362834,-0.75885475,4.2208276,-4.1715527,-2.0969925,20.146480559639212,5.9999999974110825,-6.0,-3.754182196265032,13.343778,0.84626323,-7.1516147,-0.19732729,0
-1.8,17.378286,-10.532796000000001,1.9756497,0.37639508,-0.32584983,-0.85710955,-0.13233146,-13.370957999999998,-4.508097599999999,-0.7568629,4.497662999999999,-4.457314,-2.178311,20.999999857438965,5.999999980940692,-6.0,-3.2916617627895794,14.647362,-0.8583405000000001,-8.28088,1.0934514,0
-1.79,17.244001,-10.577177,1.9681227,0.35708252,-0.33826083,-0.8562436,-0.15785569,-13.484156,-4.367182700000001,-0.74812293,4.731443,-4.698395,-2.2329435,20.999999857438965,5.999999980940692,-6.0,-3.2916617627895794,14.647362,-0.8583405000000001,-8.28088,1.0934514,0
-1.7799999999999998,17.108643,-10.620115,1.9606956000000002,0.33630115,-0.35090518,-0.8543113000000001,-0.18417168,-13.58555,-4.21934,-0.73692566,4.9288125,-4.901833,-2.2848952000000002,20.999999857438965,5.999999980940692,-6.0,-3.2916617627895794,14.647362,-0.8583405000000001,-8.28088,1.0934514,0
-1.77,16.972336,-10.661543,1.9533923999999998,0.31419343,-0.3635988,-0.85118675,-0.21109107,-13.674108499999999,-4.065138,-0.723392,5.095445,-5.073504,-2.3342977000000005,20.999999857438965,5.999999980940692,-6.0,-3.2916617627895794,14.647362,-0.8583405000000001,-8.28088,1.0934514,0
-1.7599999999999998,16.835209,-10.7014,1.9462351999999998,0.29089177,-0.37618375,-0.84676635,-0.23844172,-13.748894,-3.9053204,-0.70770556,5.23613,-5.2183647,-2.3812757,20.999999857438965,5.999999980940692,-6.0,-3.2916617627895794,15.4803,-0.65277064,-8.33215,0.57615834,0
-1.75,16.697407000000002,-10.739633999999999,1.9392449,0.26652032,-0.38852465,-0.8409664000000001,-0.26606563,-13.809080999999999,-3.7407856,-0.690105,5.3549104000000005,-5.3406005,-2.4259486,20.999999857438965,5.999999980940692,-6.0,-3.2916617627895794,15.4803,-0.65277064,-8.33215,0.57615834,0
-1.7399999999999998,16.559079999999998,-10.776204,1.9324386999999998,0.24119598,-0.40050542,-0.83372134,-0.29381722,-13.853962,-3.5725605000000002,-0.6708765,5.4551983,-5.4437428,-2.4684293,20.999999857438965,5.999999980940692,-6.0,-3.2916617627895794,15.4803,-0.65277064,-8.33215,0.57615834,0
-1.73,16.420382999999998,-10.811078,1.9258316999999998,0.21502946,-0.41202644,-0.8249815,-0.32156184,-13.882964000000001,-3.401783,-0.650346,5.5398746,-5.530773,-2.5088258,20.999999857438965,5.999999980940692,-6.0,-3.2916617627895794,15.4803,-0.65277064,-8.33215,0.57615834,0
-1.72,16.281479,-10.844236,1.9194349999999998,0.18812609,-0.4230023,-0.81471145,-0.3491745,-13.895648999999999,-3.2296786,-0.6288724,5.6113706,-5.604205599999999,-2.5472398,21.0,5.999999509743769,-5.9999998545316195,-2.8575589718387566,16.260773,-0.52032375,-7.928064999999999,0.7380416999999999,0
-1.71,16.142529,-10.875671,1.9132563000000002,0.16056345,-0.4333698,-0.8029078000000001,-0.3764956,-13.891726,-3.0575417999999996,-0.60684055,5.671818,-5.666086,-2.562467,21.0,5.999999509743769,-5.9999998545316195,-2.8575589718387566,16.260773,-0.52032375,-7.928064999999999,0.7380416999999999,0
-1.7,16.003702,-10.905391999999999,1.9072988999999998,0.13241589,-0.44307452,-0.7895805,-0.4033777,-13.871053,-2.886715,-0.58465606,5.7228565,-5.718299,-2.5769472,21.0,5.999999509743769,-5.9999998545316195,-2.8575589718387566,16.260773,-0.52032375,-7.928064999999999,0.7380416999999999,0
-1.69,15.865166,-10.933415,1.9015623,0.10377703,-0.45206037,-0.7747303000000001,-0.42972627,-13.833634,-2.7185678,-0.5627403,5.765951,-5.7623544,-2.5907167999999996,21.0,5.999999509743769,-5.9999998545316195,-2.8575589718387566,16.260773,-0.52032375,-7.928064999999999,0.7380416999999999,0
-1.68,15.727087,-10.959777,1.8960418,0.07473683,-0.4602794,-0.75836647,-0.45545325,-13.77963,-2.554482,-0.5415247,5.8023386,-5.7995257,-2.6038107999999998,21.0,3.3732708107651503,-5.4595613141634205,0.5352828419982578,16.608196,-0.36374262,-6.7170176999999995,0.8246959,0
-1.67,15.58963,-10.984525,1.890728,0.045841087,-0.46704292,-0.7411920999999999,-0.480004,-13.709427,-2.3958308999999995,-0.52139246,5.4241953,-5.7453203,-2.4497744999999997,21.0,3.3732708107651503,-5.4595613141634205,0.5352828419982578,16.608196,-0.36374262,-6.7170176999999995,0.8246959,0
-1.66,15.452951,-11.007717999999999,1.8856096999999998,0.017533625,-0.47187048,-0.7239081,-0.50297904,-13.624025,-2.2439098,-0.50242114,5.104971400000001,-5.699757599999999,-2.3032967999999996,21.0,3.3732708107651503,-5.4595613141634205,0.5352828419982578,16.608196,-0.36374262,-6.7170176999999995,0.8246959,0
-1.65,15.317198000000001,-11.02943,1.8806756000000002,-0.010250273,-0.47499827,-0.7065146999999999,-0.52450794,-13.524588,-2.0998442,-0.48460096,4.835485,-5.661454,-2.164007,21.0,3.3732708107651503,-5.4595613141634205,0.5352828419982578,16.608196,-0.36374262,-6.7170176999999995,0.8246959,0
-1.64,15.182504000000002,-11.049745,1.8759137,-0.037568025,-0.47662055,-0.68900454,-0.5446965,-13.412235999999998,-1.9645994999999998,-0.46795169999999997,4.607985,-5.629249,-2.0315518,21.0,1.95905539605697,-2.9914022073690183,0.7393219438351535,17.27508,-0.22327855,-3.402978,1.0805183999999999,0
-1.63,15.048993,-11.068755,1.8713123999999999,-0.063495964,-0.47706786,-0.6717135999999999,-0.56318325,-13.288132000000001,-1.83893,-0.45252684,4.195895,-5.216958999999999,-1.8955843,21.0,1.95905539605697,-2.9914022073690183,0.7393219438351535,17.27508,-0.22327855,-3.402978,1.0805183999999999,0
-1.6199999999999999,14.916776,-11.086557,1.8668586999999999,-0.08732292,-0.47668615,-0.6550026,-0.5797555999999999,-13.153764,-1.7230031000000003,-0.43841374,3.8479028,-4.8691287,-1.7662887999999999,21.0,1.95905539605697,-2.9914022073690183,0.7393219438351535,17.27508,-0.22327855,-3.402978,1.0805183999999999,0
-1.6099999999999999,14.785948000000001,-11.10325,1.8625394,-0.109384105,-0.47562897,-0.63887435,-0.59468627,-13.010557,-1.6167296999999998,-0.42567533,3.5540432999999996,-4.575673999999999,-1.6433378,21.0,1.95905539605697,-2.9914022073690183,0.7393219438351535,17.27508,-0.22327855,-3.402978,1.0805183999999999,0
-1.5999999999999999,14.656591,-11.118925,1.8583404,-0.12996536,-0.47401148,-0.623311,-0.6081986,-12.859721,-1.5199683000000002,-0.41434679999999996,3.3059017999999996,-4.3280888,-1.52642,20.999999944628748,0.288884750843662,-0.6213968408891044,1.4204701762319492,16.437033,-0.6807591,-0.76554656,0.9177429,0
-1.5899999999999999,14.528776,-11.133681,1.8542477,-0.14835620000000002,-0.4720866,-0.608792,-0.62007815,-12.702346,-1.4324613000000002,-0.40443674,2.8363313999999997,-3.7492952000000006,-1.3818153,20.999999944628748,0.288884750843662,-0.6213968408891044,1.4204701762319492,16.437033,-0.6807591,-0.76554656,0.9177429,0
-1.5799999999999998,14.402562,-11.147604,1.8502473000000002,-0.16403024,-0.47010487,-0.59575456,-0.6302158,-12.539661,-1.3534087,-0.39587107,2.4397926,-3.2609239,-1.2443063,20.999999944628748,0.288884750843662,-0.6213968408891044,1.4204701762319492,16.437033,-0.6807591,-0.76554656,0.9177429,0
-1.5699999999999998,14.277996,-11.160776,1.8463261000000002,-0.1774568,-0.46812555,-0.5840920999999999,-0.63890845,-12.372744,-1.2818834,-0.38853073,2.1049382999999997,-2.8488386,-1.1135451,20.999999944628748,0.288884750843662,-0.6213968408891044,1.4204701762319492,16.437033,-0.6807591,-0.76554656,0.9177429,0
-1.5599999999999998,14.155118,-11.173264999999999,1.8424726999999999,-0.18902893,-0.46618059999999995,-0.5736905999999999,-0.6463922,-12.202435000000001,-1.2170495000000001,-0.38228795,1.8221822,-2.5011162999999996,-0.9892003,20.999999944628748,0.288884750843662,-0.6213968408891044,1.4204701762319492,16.750410000000002,-1.6136799,0.79143023,0.88212305,0
-1.5499999999999998,14.033957000000001,-11.185137,1.8386768,-0.19907513,-0.46428385,-0.5644365,-0.65285605,-12.029391,-1.1581651000000002,-0.37701690000000004,1.5834253999999999,-2.2076976000000004,-0.870957,20.999999944628748,0.288884750843662,-0.6213968408891044,1.4204701762319492,16.750410000000002,-1.6136799,0.79143023,0.88212305,0
-1.5399999999999998,13.914535999999998,-11.196447000000001,1.8349293000000002,-0.20786937,-0.46243770000000006,-0.55622137,-0.6584524,-11.85413,-1.1045798999999998,-0.3725994,1.3818277,-1.9600983,-0.7585161,20.999999944628748,0.288884750843662,-0.6213968408891044,1.4204701762319492,16.750410000000002,-1.6136799,0.79143023,0.88212305,0
-1.5299999999999998,13.796879999999998,-11.207245,1.8312223,-0.21563992,-0.46063748,-0.5489439,-0.6633048,-11.677059,-1.0557284,-0.36892787,1.21161,-1.7511593,-0.6515926,20.999999944628748,0.288884750843662,-0.6213968408891044,1.4204701762319492,16.750410000000002,-1.6136799,0.79143023,0.88212305,0
-1.5199999999999998,13.681001,-11.217576,1.8275486,-0.22257674,-0.45887464,-0.5425114000000001,-0.6675142,-11.498501,-1.0111219999999999,-0.36590657,1.0678912,-1.5748413,-0.5499159,20.999999649724728,-1.0911068697189463,1.431401763519197,1.9531876511922823,18.974669,-3.1508484,2.1654515,0.5919749,0
-1.5099999999999998,13.566915,-11.22748,1.8239022,-0.22805589999999998,-0.45737746,-0.53732467,-0.67087907,-11.318738,-0.9702521000000001,-0.36343867,0.7314553,-1.105839,-0.42708789999999996,20.999999649724728,-1.0911068697189463,1.431401763519197,1.9531876511922823,18.974669,-3.1508484,2.1654515,0.5919749,0
-1.4999999999999998,13.454629999999998,-11.236989999999999,1.8202784,-0.23159984,-0.45633559999999995,-0.5337121,-0.673254,-11.138143,-0.93217564,-0.36136383,0.44739354,-0.71004343,-0.3102871,20.999999649724728,-1.0911068697189463,1.431401763519197,1.9531876511922823,18.974669,-3.1508484,2.1654515,0.5919749,0
-1.4899999999999998,13.344153,-11.24613,1.8166741999999998,-0.23354723,-0.45567998,-0.53148913,-0.67478216,-10.95705,-0.89591354,-0.35951350000000004,0.2075614,-0.37602153,-0.19921774,20.999999649724728,-1.0911068697189463,1.431401763519197,1.9531876511922823,18.974669,-3.1508484,2.1654515,0.5919749,0
-1.4799999999999998,13.235489999999999,-11.254913,1.8130879,-0.23417877,-0.45534497,-0.5304897,-0.67557544,-10.775721,-0.8606334000000001,-0.35774076,0.005079053300000001,-0.09412745,-0.09359858,20.999999584555198,-3.1635015434181626,3.830370504706615,2.2344391363845197,19.729053,-4.8989296,3.7476726,0.49617645,0
-1.4699999999999998,13.128639000000002,-11.263346,1.8095195,-0.23267336,-0.4554707,-0.5311905,-0.6754601,-10.594399000000001,-0.8255209000000001,-0.355891,-0.4890581,0.51789176,0.020638906999999998,20.999999584555198,-3.1635015434181626,3.830370504706615,2.2344391363845197,19.729053,-4.8989296,3.7476726,0.49617645,0
-1.4599999999999997,13.0236,-11.2714205,1.8059714,-0.22838743,-0.45615384,-0.53394973,-0.6742853,-10.413513,-0.7892603,-0.3536683,-0.9062140999999999,1.0344028,0.12927072,20.999999584555198,-3.1635015434181626,3.830370504706615,2.2344391363845197,19.729053,-4.8989296,3.7476726,0.49617645,0
-1.4499999999999997,12.920366,-11.279122000000001,1.8024485000000001,-0.22176959,-0.45727095,-0.538458,-0.6721493000000001,-10.233513,-0.7505310000000001,-0.35077676,-1.2583708999999998,1.4703196000000003,0.23257193,20.999999584555198,-3.1635015434181626,3.830370504706615,2.2344391363845197,19.729053,-4.8989296,3.7476726,0.49617645,0
-1.4399999999999997,12.818927,-11.286419,1.7989589,-0.21319259999999998,-0.4587082,-0.5444389000000001,-0.66912043,-10.054831,-0.70823,-0.34698614,-1.5556469,1.8382246,0.33080414,20.99999981065036,-4.466926906315998,5.277572761459137,2.1150813271057154,20.73075,-5.1065083,5.099732,0.11913189,0
-1.4299999999999997,12.719264,-11.293271,1.7955124,-0.20229439999999999,-0.46046486,-0.5519954,-0.6650941999999999,-9.877916,-0.661379,-0.3421099,-2.0099084,2.374378,0.41835909999999993,20.99999981065036,-4.466926906315998,5.277572761459137,2.1150813271057154,20.73075,-5.1065083,5.099732,0.11913189,0
-1.4199999999999997,12.621359,-11.299626,1.7921212,-0.18879227,-0.46250870000000005,-0.5611608,-0.65995586,-9.703397,-0.6088034000000001,-0.33592674,-2.3933547,2.8268964,0.5016178,20.99999981065036,-4.466926906315998,5.277572761459137,2.1150813271057154,20.73075,-5.1065083,5.099732,0.11913189,0
-1.4099999999999997,12.525186,-11.305424,1.7887990000000002,-0.1730805,-0.4646988,-0.57160723,-0.65373033,-9.531977000000001,-0.5494286,-0.32827014,-2.7170162,3.2088330000000003,0.5807909000000001,20.99999981065036,-4.466926906315998,5.277572761459137,2.1150813271057154,20.73075,-5.1065083,5.099732,0.11913189,0
-1.3999999999999997,12.430705999999999,-11.31059,1.7855612,-0.1554934,-0.46691099999999996,-0.58304507,-0.64643204,-9.364386999999999,-0.48240656,-0.31906244,-2.990208,3.5312026,0.65607893,20.999999856380477,-4.750017245745648,5.381687766991964,1.7380072315985258,21.536697,-4.1825852,6.0284915,-0.77756745,0
-1.3899999999999997,12.33788,-11.315044,1.7824231,-0.13619720000000002,-0.46900448,-0.59524804,-0.6380946999999999,-9.201389,-0.40708762,-0.30829948,-3.264904,3.8195550000000003,0.7091695,20.999999856380477,-4.750017245745648,5.381687766991964,1.7380072315985258,21.536697,-4.1825852,6.0284915,-0.77756745,0
-1.3799999999999997,12.246658,-11.318702,1.7794003,-0.11533967,-0.47085598,-0.60800695,-0.6287439,-9.04381,-0.32297355,-0.2960153,-3.4967525,4.062947299999999,0.75965494,20.999999856380477,-4.750017245745648,5.381687766991964,1.7380072315985258,21.536697,-4.1825852,6.0284915,-0.77756745,0
-1.3699999999999997,12.156982000000001,-11.321473,1.7765077,-0.09316295,-0.47239053,-0.6211072,-0.61837983,-8.892501,-0.22973372,-0.28230536,-3.6924334,4.2683919999999995,0.80766296,20.999999856380477,-4.750017245745648,5.381687766991964,1.7380072315985258,21.536697,-4.1825852,6.0284915,-0.77756745,0
-1.3599999999999997,12.068785,-11.323265,1.7737585999999999,-0.06987813,-0.47354564,-0.6343615,-0.6070066,-8.748311,-0.12720458,-0.26733145,-3.857586,4.441808,0.85331523,20.999999856380477,-4.750017245745648,5.381687766991964,1.7380072315985258,22.357065,-3.4761406999999998,5.8825400000000005,-0.35610417,0
-1.3499999999999996,11.981988000000001,-11.323985,1.7711648999999998,-0.045670338,-0.47427002,-0.6476066999999999,-0.5946324000000001,-8.612082000000001,-0.015375328999999998,-0.25131178,-3.9969711,4.5881915,0.8967273000000001,20.999999856380477,-4.750017245745648,5.381687766991964,1.7380072315985258,22.357065,-3.4761406999999998,5.8825400000000005,-0.35610417,0
-1.3399999999999996,11.896511,-11.323542,1.7687351999999998,-0.020702854,-0.47452209999999995,-0.66070074,-0.5812696999999999,-8.484631,0.105625175,-0.23451181,-4.114607299999999,4.711757700000001,0.93800914,20.999999856380477,-4.750017245745648,5.381687766991964,1.7380072315985258,22.357065,-3.4761406999999998,5.8825400000000005,-0.35610417,0
-1.3299999999999996,11.812263,-11.321843,1.7664762999999999,0.0048795515,-0.47426903,-0.67352027,-0.56693506,-8.366747,0.23554063,-0.21723567,-4.2138862999999995,4.816065,0.97726536,20.999999856380477,-4.750017245745648,5.381687766991964,1.7380072315985258,22.357065,-3.4761406999999998,5.8825400000000005,-0.35610417,0
-1.3199999999999996,11.729141,-11.318802,1.7643911,0.030947852999999997,-0.4734851,-0.68595755,-0.5516486999999999,-8.259179,0.37399882,-0.19981857,-4.297671299999999,4.9041157,1.0145952,20.999999797700465,-4.372224504338433,4.593627121348642,1.44428076772489,21.361923,-3.4033897000000004,4.5794935,0.04783603,0
-1.3099999999999996,11.647041,-11.314336,1.7624793,0.05710382,-0.47208540000000004,-0.69784504,-0.53561807,-8.162605000000001,0.5205015000000001,-0.1826109,-4.3093330000000005,4.855628,1.0356799,20.999999797700465,-4.372224504338433,4.593627121348642,1.44428076772489,21.361923,-3.4033897000000004,4.5794935,0.04783603,0
-1.2999999999999996,11.56585,-11.308366,1.7607372,0.083022796,-0.47002444,-0.7090715,-0.51903915,-8.07751,0.67434794,-0.16592646,-4.319175700000001,4.814706299999999,1.0557299999999998,20.999999797700465,-4.372224504338433,4.593627121348642,1.44428076772489,21.361923,-3.4033897000000004,4.5794935,0.04783603,0
-1.2899999999999996,11.485452,-11.300824,1.7591578999999997,0.10869684,-0.467337,-0.7196241,-0.5019183,-8.004273,0.83476824,-0.15006422,-4.327483999999999,4.7801695,1.0747962,20.999999797700465,-4.372224504338433,4.593627121348642,1.44428076772489,21.361923,-3.4033897000000004,4.5794935,0.04783603,0
-1.2799999999999996,11.405725,-11.29165,1.757732,0.13411628,-0.46405312,-0.72948956,-0.48426455,-7.943227,1.0009788,-0.13532332,-4.334497,4.7510223,1.0929269,20.999999464680013,-3.4049191103507748,3.2572294609913444,1.0688178546512566,21.216093,-3.1291773,3.3772763999999995,-0.13301751,0
-1.2699999999999996,11.326546,-11.280787,1.7564466,0.15871662,-0.46022707,-0.7385395,-0.46643224,-7.894592299999999,1.17216,-0.12198781,-4.1893606,4.5181727,1.091744,20.999999464680013,-3.4049191103507748,3.2572294609913444,1.0688178546512566,21.216093,-3.1291773,3.3772763999999995,-0.13301751,0
-1.2599999999999996,11.247791000000001,-11.268191999999999,1.7552866999999999,0.18206201,-0.45594156,-0.7467249,-0.4487452,-7.858221,1.3473753000000002,-0.11025138,-4.0668845000000005,4.321619,1.090619,20.999999464680013,-3.4049191103507748,3.2572294609913444,1.0688178546512566,21.216093,-3.1291773,3.3772763999999995,-0.13301751,0
-1.2499999999999996,11.169341000000001,-11.253828,1.7542356,0.20431638,-0.45125383,-0.7541346,-0.43116757,-7.833843700000001,1.5257283000000001,-0.10025839,-3.9635307999999996,4.1557045,1.0895493,20.999999464680013,-3.4049191103507748,3.2572294609913444,1.0688178546512566,21.216093,-3.1291773,3.3772763999999995,-0.13301751,0
-1.2399999999999995,11.091075,-11.237668,1.7532752,0.22561806,-0.44620812,-0.76083815,-0.41366637,-7.8212004,1.7064101999999999,-0.09213633,-3.8763137000000003,4.0156517,1.088532,20.605727545729252,-2.1265321172807035,1.5785241014118727,0.6627182718607789,20.386595,-3.3491578,2.4433032999999997,-0.82066333,0
-1.2299999999999995,11.012877,-11.219710000000001,1.7523762999999999,0.24538834,-0.44095045,-0.7668095,-0.39667379999999997,-7.819988700000001,1.8852482,-0.087935805,-3.6031169999999997,3.6358260000000002,1.0676371,20.605727545729252,-2.1265321172807035,1.5785241014118727,0.6627182718607789,20.386595,-3.3491578,2.4433032999999997,-0.82066333,0
-1.2199999999999995,10.934639,-11.19996,1.7515098999999998,0.26319718,-0.43563450000000004,-0.77208793,-0.38056502,-7.829245599999999,2.064917,-0.085612535,-3.3725784,3.3151949999999997,1.0477676,20.605727545729252,-2.1265321172807035,1.5785241014118727,0.6627182718607789,20.386595,-3.3491578,2.4433032999999997,-0.82066333,0
-1.2099999999999995,10.856259,-11.178411,1.7506578999999998,0.27935115,-0.43029308,-0.7768005,-0.365228,-7.848186,2.244811,-0.085061535,-3.178036,3.0445344,1.0288732,20.605727545729252,-2.1265321172807035,1.5785241014118727,0.6627182718607789,20.386595,-3.3491578,2.4433032999999997,-0.82066333,0
-1.1999999999999995,10.777643,-11.155064,1.7498029999999998,0.29410776,-0.42494512,-0.78104365,-0.35056072,-7.876124000000001,2.4244413,-0.08617715,-3.0138683,2.8160562999999996,1.0109059999999999,18.683278061416935,-0.6142827592037873,-0.12816125987697466,0.2389081548443171,18.604166,-3.2320497,1.3691806,-0.2129902,0
-1.1899999999999995,10.698723,-11.130007,1.7488843999999997,0.30696535,-0.41982713,-0.78482944,-0.33698657,-7.908999400000001,2.5867157000000005,-0.09774029,-2.6392937,2.3572192000000003,0.97302383,18.683278061416935,-0.6142827592037873,-0.12816125987697466,0.2389081548443171,18.604166,-3.2320497,1.3691806,-0.2129902,0
-1.1799999999999995,10.619439999999999,-11.103332,1.7478441999999998,0.31755890000000003,-0.41514948,-0.78820986,-0.3248572,-7.9484710000000005,2.7481422,-0.11047676,-2.3232021,1.9698808,0.9370006,18.683278061416935,-0.6142827592037873,-0.12816125987697466,0.2389081548443171,18.604166,-3.2320497,1.3691806,-0.2129902,0
-1.1699999999999995,10.539734,-11.0750475,1.7466718,0.32626724,-0.41087598,-0.79129285,-0.31398404,-7.993590400000001,2.908573,-0.12413523,-2.0564601000000002,1.6429014,0.90274495,18.683278061416935,-0.6142827592037873,-0.12816125987697466,0.2389081548443171,18.604166,-3.2320497,1.3691806,-0.2129902,0
-1.1599999999999995,10.459551,-11.045164,1.7453592,0.33340496,-0.40696567,-0.794155,-0.30419984,-8.043561,3.0679283,-0.13848834,-1.8313616999999998,1.3668766,0.8701703000000002,18.683278061416935,-0.6142827592037873,-0.12816125987697466,0.2389081548443171,16.775188,-3.011286,0.86179376,-0.07988205599999999,0
-1.1499999999999995,10.378848,-11.013693,1.7439004,0.33923367,-0.40337658,-0.7968509,-0.29535767,-8.097712,3.2261736,-0.15333414,-1.6414036,1.1338673000000001,0.8391940999999999,18.683278061416935,-0.6142827592037873,-0.12816125987697466,0.2389081548443171,16.775188,-3.011286,0.86179376,-0.07988205599999999,0
-1.1399999999999995,10.2975855,-10.980644,1.7422915,0.343971,-0.40006799,-0.7994190999999999,-0.2873297,-8.155478500000001,3.3833034,-0.16849554,-1.4810991000000002,0.9371709,0.80973786,18.683278061416935,-0.6142827592037873,-0.12816125987697466,0.2389081548443171,16.775188,-3.011286,0.86179376,-0.07988205599999999,0
-1.1299999999999994,10.215729,-10.946031,1.7405298999999999,0.34779835,-0.39700159999999995,-0.8018871,-0.2800052,-8.216385,3.5393295,-0.18381889,-1.3458178,0.77112895,0.7817271,18.683278061416935,-0.6142827592037873,-0.12816125987697466,0.2389081548443171,16.775188,-3.011286,0.86179376,-0.07988205599999999,0
-1.1199999999999994,10.133249000000001,-10.909862,1.7386148999999997,0.3508667,-0.39414245,-0.8042745,-0.27328855,-8.280032,3.6942739999999996,-0.19917174,-1.2316531000000002,0.6309647,0.75509083,17.417693112617332,0.5283257407274464,-1.4262936515175575,-0.05889237906491855,16.717855,-2.8554685,-0.029446382000000004,-0.3413295,0
-1.1099999999999994,10.050141,-10.8722,1.7365186999999997,0.35277554,-0.39167467,-0.80659014,-0.26749313,-8.341558000000001,3.8377529999999997,-0.22003575,-0.95701927,0.31029674,0.7151484,17.417693112617332,0.5283257407274464,-1.4262936515175575,-0.05889237906491855,16.717855,-2.8554685,-0.029446382000000004,-0.3413295,0
-1.0999999999999994,9.966411,-10.833109,1.7342153000000002,0.35321906,-0.3897467,-0.8088474,-0.26286770000000004,-8.404683,3.9803808,-0.24061128,-0.7252531,0.039602532999999995,0.6771659999999999,17.417693112617332,0.5283257407274464,-1.4262936515175575,-0.05889237906491855,16.717855,-2.8554685,-0.029446382000000004,-0.3413295,0
-1.0899999999999994,9.882045,-10.792595,1.7317083,0.35243833,-0.3882781,-0.8110598000000001,-0.2592473,-8.468811,4.1222962999999995,-0.26070327,-0.5296616,-0.18890405,0.64104736,17.417693112617332,0.5283257407274464,-1.4262936515175575,-0.05889237906491855,16.717855,-2.8554685,-0.029446382000000004,-0.3413295,0
-1.0799999999999994,9.797033,-10.750665,1.7290033999999999,0.35063362,-0.38719709999999996,-0.8132325,-0.25649017,-8.533438,4.263626599999999,-0.28014907,-0.36459678,-0.3817969,0.60670114,16.870441734747068,1.4729280942929812,-2.494834301469954,-0.3607202876949048,15.616568,-2.4058576,-0.5307529000000001,-0.52855945,0
-1.0699999999999994,9.711385,-10.707346000000001,1.7260957,0.34754124,-0.386626,-0.8153593000000001,-0.2548028,-8.596069,4.400071,-0.30129874,-0.077927075,-0.7112078000000001,0.55922943,16.870441734747068,1.4729280942929812,-2.494834301469954,-0.3607202876949048,15.616568,-2.4058576,-0.5307529000000001,-0.52855945,0
-1.0599999999999994,9.625113,-10.662664,1.7229808999999998,0.34295952,-0.38665494,-0.8174265000000001,-0.2543429,-8.658126,4.536239,-0.32149914,0.16400036,-0.9892798,0.51408726,16.870441734747068,1.4729280942929812,-2.494834301469954,-0.3607202876949048,15.616568,-2.4058576,-0.5307529000000001,-0.52855945,0
-1.0499999999999994,9.538225,-10.616622,1.7196695,0.33712327,-0.38718012,-0.81942004,-0.25493115,-8.719009,4.672292700000001,-0.34058338,0.3681716,-1.224012,0.4711602,16.870441734747068,1.4729280942929812,-2.494834301469954,-0.3607202876949048,15.616568,-2.4058576,-0.5307529000000001,-0.52855945,0
-1.0399999999999994,9.450738000000001,-10.569219,1.7161734,0.3302283,-0.38811088,-0.8213226,-0.25641379999999997,-8.778209,4.808361,-0.35842285,0.5404810999999999,-1.4221573,0.4303396,16.659174844998187,1.970695897521641,-3.14894906567978,-0.5896179196373403,14.90995,-2.1732879,-0.9787437,-0.6560383000000001,0
-1.0299999999999994,9.362672,-10.520463000000001,1.7125006,0.32218224,-0.38945532,-0.823116,-0.25884926,-8.834547,4.9428377,-0.3759369,0.7635430000000001,-1.6914115,0.38029,16.659174844998187,1.970695897521641,-3.14894906567978,-0.5896179196373403,14.90995,-2.1732879,-0.9787437,-0.6560383000000001,0
-1.0199999999999994,9.2740555,-10.470362,1.7086596,0.31291740000000007,-0.39121,-0.82477194,-0.26227543,-8.888243,5.0775228,-0.39200836,0.9517949,-1.9186961999999999,0.33269632,16.659174844998187,1.970695897521641,-3.14894906567978,-0.5896179196373403,14.90995,-2.1732879,-0.9787437,-0.6560383000000001,0
-1.0099999999999993,9.184917,-10.418911999999999,1.7046656999999998,0.30261740000000004,-0.39328608,-0.82625884,-0.26654229999999995,-8.938796,5.2124809999999995,-0.40654832,1.1106715,-2.1105514,0.2874381,16.659174844998187,1.970695897521641,-3.14894906567978,-0.5896179196373403,14.90995,-2.1732879,-0.9787437,-0.6560383000000001,0
-0.9999999999999991,9.095291,-10.366112,1.7005343000000002,0.29143673,-0.39560726,-0.8275476999999999,-0.2715214,-8.985776,5.3477387,-0.4195038,1.2447584999999999,-2.2724986,0.24440068,16.47115642285493,1.9756463193726,-3.2780164451348313,-0.7124005370895526,14.305088,-1.6675379000000001,-0.7787378,-0.8837976000000001,0
-0.9899999999999991,9.005217,-10.311964999999999,1.6962764,0.27946863,-0.39809152,-0.8286226000000001,-0.2771363,-9.028319999999999,5.481757,-0.431829,1.358691,-2.429332,0.19745018,16.47115642285493,1.9756463193726,-3.2780164451348313,-0.7124005370895526,14.305088,-1.6675379000000001,-0.7787378,-0.8837976000000001,0
-0.9799999999999991,8.914738999999999,-10.256476,1.6919034,0.26679447,-0.40066874,-0.82946616,-0.28332075,-9.066622,5.6160190000000005,-0.44255036,1.4548476000000001,-2.5617137000000003,0.15280353,16.47115642285493,1.9756463193726,-3.2780164451348313,-0.7124005370895526,14.305088,-1.6675379000000001,-0.7787378,-0.8837976000000001,0
-0.9699999999999993,8.8239,-10.199645,1.6874311000000002,0.2535193,-0.4032952,-0.8300533000000001,-0.28998622,-9.10038,5.7504506,-0.45167592,1.5360032,-2.673455,0.11034772,16.47115642285493,1.9756463193726,-3.2780164451348313,-0.7124005370895526,14.305088,-1.6675379000000001,-0.7787378,-0.8837976000000001,0
-0.9599999999999993,8.732747999999999,-10.141467,1.6828753,0.23973258,-0.40593409999999996,-0.8303630999999999,-0.29705662,-9.129338,5.884956400000001,-0.45923640000000004,1.6044995000000002,-2.7677734,0.069975235,16.47115642285493,1.9756463193726,-3.2780164451348313,-0.7124005370895526,13.745762,-1.6564037,-0.7304883000000001,-0.92597145,0
-0.9499999999999993,8.641331,-10.081945,1.6782515,0.2255107,-0.40855476,-0.8303783000000001,-0.3044662,-9.153277000000001,6.019419999999999,-0.46528155,1.6623122,-2.8473845,0.03158384,16.47115642285493,1.9756463193726,-3.2780164451348313,-0.7124005370895526,13.745762,-1.6564037,-0.7304883000000001,-0.92597145,0
-0.9399999999999993,8.5497,-10.021078,1.6735746999999999,0.21091910000000003,-0.41113162,-0.8300850000000001,-0.31215814,-9.172008,6.15371,-0.4698771,1.7111087999999999,-2.9145806,-0.004923689,16.47115642285493,1.9756463193726,-3.2780164451348313,-0.7124005370895526,13.745762,-1.6564037,-0.7304883000000001,-0.92597145,0
-0.9299999999999993,8.457908999999999,-9.958871,1.6688588,0.19601396,-0.41364342,-0.82947224,-0.32008323,-9.185369999999999,6.287678700000001,-0.47310218,1.7522959999999999,-2.9712977,-0.03963978,16.47115642285493,1.9756463193726,-3.2780164451348313,-0.7124005370895526,13.745762,-1.6564037,-0.7304883000000001,-0.92597145,0
-0.9199999999999993,8.366012,-9.895325999999999,1.6641169999999998,0.18084355,-0.41607276,-0.82853156,-0.32819864,-9.1932335,6.4211693,-0.47504702,1.7870611,-3.0191696,-0.07265235,16.51377087339416,1.5530980325006591,-2.8867391599508165,-0.7967230450399907,12.613045,-1.7785895,-0.18249013,-0.7824486999999999,0
-0.9099999999999993,8.274064,-9.830447999999999,1.6593630000000001,0.16564004,-0.41831616,-0.82729816,-0.3363815,-9.195514,6.554358000000001,-0.47555855,1.7505061999999998,-2.998556,-0.1081827,16.51377087339416,1.5530980325006591,-2.8867391599508165,-0.7967230450399907,12.613045,-1.7785895,-0.18249013,-0.7824486999999999,0
-0.8999999999999992,8.18212,-9.764242,1.6546093999999998,0.15059397,-0.42029740000000004,-0.8258114,-0.34453857,-9.192217,6.686723700000001,-0.47498566,1.719656,-2.981154,-0.14196958,16.51377087339416,1.5530980325006591,-2.8867391599508165,-0.7967230450399907,12.613045,-1.7785895,-0.18249013,-0.7824486999999999,0
-0.8899999999999992,8.090238000000001,-9.696717999999999,1.6498667,0.13568743,-0.42203954,-0.82407033,-0.35267442,-9.183406,6.818095,-0.47342685,1.6936203999999997,-2.9664632999999996,-0.17409852,16.51377087339416,1.5530980325006591,-2.8867391599508165,-0.7967230450399907,12.613045,-1.7785895,-0.18249013,-0.7824486999999999,0
-0.8799999999999992,7.998471,-9.627885000000001,1.6451441000000002,0.12090517,-0.42356202,-0.8220744000000001,-0.36079141,-9.169141,6.948305599999999,-0.47097978,1.6716486000000002,-2.9540610000000003,-0.20465088,15.978004317276206,0.7721700058672271,-2.3095988495030797,-0.7734298113177523,12.10731,-2.1235332000000002,0.21271633,-0.57959175,0
-0.8699999999999992,7.9068704,-9.557775999999999,1.6404334999999999,0.10653694,-0.4247108,-0.81993294,-0.36875498,-9.150148,7.073011999999999,-0.47102368,1.5313368,-2.8535666,-0.23256104,15.978004317276206,0.7721700058672271,-2.3095988495030797,-0.7734298113177523,12.10731,-2.1235332000000002,0.21271633,-0.57959175,0
-0.8599999999999992,7.815485000000001,-9.486429,1.6357262,0.09281519999999999,-0.42537415,-0.8177494000000001,-0.3764675,-9.126201,7.196291400000001,-0.47034960000000003,1.41291,-2.7687416000000002,-0.25910163,15.978004317276206,0.7721700058672271,-2.3095988495030797,-0.7734298113177523,12.10731,-2.1235332000000002,0.21271633,-0.57959175,0
-0.8499999999999992,7.724363,-9.413856,1.6310288999999998,0.07964988,-0.42562312,-0.81551325,-0.3839774,-9.097558,7.318012700000001,-0.46899524,1.3129547,-2.6971436,-0.28433985,15.978004317276206,0.7721700058672271,-2.3095988495030797,-0.7734298113177523,12.10731,-2.1235332000000002,0.21271633,-0.57959175,0
-0.8399999999999992,7.633549,-9.340075,1.6263485,0.06696384,-0.42551696,-0.8132138000000001,-0.39132348,-9.064446,7.4380616999999996,-0.4669960999999999,1.2285894,-2.63671,-0.30833963,15.4540549235503,-0.21746622074004676,-1.4787355448363142,-0.6535490972405571,13.015792,-2.6258204,0.48064503,-0.52074844,0
-0.8299999999999992,7.543082000000001,-9.265121,1.6216747,0.05511112,-0.424917,-0.8109978,-0.39835984,-9.028324000000001,7.5524592,-0.4676813,1.0030868,-2.4560904999999997,-0.32527915,15.4540549235503,-0.21746622074004676,-1.4787355448363142,-0.6535490972405571,13.015792,-2.6258204,0.48064503,-0.52074844,0
-0.8199999999999992,7.4529952999999995,-9.189033,1.616997,0.04437036,-0.42372572,-0.8089979,-0.40498117,-8.9885,7.6650863,-0.46774736,0.81275004,-2.3036408,-0.34138742,15.4540549235503,-0.21746622074004676,-1.4787355448363142,-0.6535490972405571,13.015792,-2.6258204,0.48064503,-0.52074844,0
-0.8099999999999992,7.363322999999999,-9.111825999999999,1.6123221,0.034577783,-0.42204177,-0.80718243,-0.41126797,-8.945376,7.775912,-0.46715690000000004,0.65209514,-2.1749680000000002,-0.35670528,15.4540549235503,-0.21746622074004676,-1.4787355448363142,-0.6535490972405571,13.015792,-2.6258204,0.48064503,-0.52074844,0
-0.7999999999999992,7.2740974000000005,-9.033521,1.6076563999999998,0.025593663,-0.41994604,-0.8055205,-0.417285,-8.899295,7.884914,-0.46587449999999997,0.51649314,-2.0663648,-0.37127146,15.199250542483068,-1.1708753610395786,-0.6264251072186882,-0.4424960479035265,13.5576,-2.988732,0.82186913,-0.29715076,0
-0.7899999999999991,7.185342299999999,-8.954143,1.6029989,0.017722603,-0.4173429,-0.80414885,-0.42291284,-8.851383,7.9903193,-0.46551076,0.25339904,-1.8417441000000003,-0.37476647,15.199250542483068,-1.1708753610395786,-0.6264251072186882,-0.4424960479035265,13.5576,-2.988732,0.82186913,-0.29715076,0
-0.7799999999999991,7.097077400000001,-8.87372,1.598349,0.011199498,-0.41416508,-0.8031835,-0.42806298,-8.801339,8.093967,-0.4643446,0.03132696,-1.6521616000000001,-0.37809,15.199250542483068,-1.1708753610395786,-0.6264251072186882,-0.4424960479035265,13.5576,-2.988732,0.82186913,-0.29715076,0
-0.7699999999999991,7.009321000000001,-8.79227,1.5937151000000003,0.0058198035999999995,-0.41050974,-0.80256623,-0.4328223,-8.749614,8.195917999999999,-0.46228559999999996,-0.15611947,-1.4921518999999999,-0.38125040000000004,15.199250542483068,-1.1708753610395786,-0.6264251072186882,-0.4424960479035265,13.5576,-2.988732,0.82186913,-0.29715076,0
-0.7599999999999991,6.922089,-8.709808,1.5891066999999999,0.0014098444,-0.406456,-0.8022435,-0.43726048,-8.696588,8.296228,-0.4592545,-0.31433916,-1.3571023000000002,-0.38425574,15.199250542483068,-1.1708753610395786,-0.6264251072186882,-0.4424960479035265,13.363185999999999,-3.8562595999999996,1.3501499,0.24169007,0
-0.7499999999999991,6.8353925,-8.62635,1.5845336,-0.00217775,-0.40206853,-0.8021672,-0.4414338,-8.642583,8.39495,-0.45518315,-0.4478893,-1.2431193999999999,-0.3871136,15.199250542483068,-1.1708753610395786,-0.6264251072186882,-0.4424960479035265,13.363185999999999,-3.8562595999999996,1.3501499,0.24169007,0
-0.7399999999999989,6.7492399999999995,-8.541913000000001,1.5800067,-0.0050679697,-0.39740053,-0.8022946999999999,-0.44538766,-8.587872,8.492128999999998,-0.4500146,-0.56061655,-1.1469167,-0.38983124,15.199250542483068,-1.1708753610395786,-0.6264251072186882,-0.4424960479035265,13.363185999999999,-3.8562595999999996,1.3501499,0.24169007,0
-0.7299999999999989,6.6636367,-8.456512,1.5755371999999999,-0.007366795600000001,-0.3924959,-0.80258876,-0.44915900000000003,-8.532686,8.587805,-0.44370186,-0.65576726,-1.065721,-0.39241550000000003,15.199250542483068,-1.1708753610395786,-0.6264251072186882,-0.4424960479035265,13.363185999999999,-3.8562595999999996,1.3501499,0.24169007,0
-0.7199999999999989,6.578587,-8.370163,1.5711366000000002,-0.009164074,-0.38739085,-0.8030172,-0.45277762,-8.477221499999999,8.682012,-0.43620744,-0.73608214,-0.99719113,-0.39487293,14.866923178419194,-1.8941390697753344,0.06480318838361288,-0.15990606656081274,14.558774,-3.7788146,1.6044180000000001,0.8806646,0
-0.7099999999999989,6.4940866999999995,-8.282888,1.5668055,-0.010195876500000001,-0.38200843,-0.8036824,-0.45613593,-8.422888,8.7727585,-0.42983136,-0.9166315,-0.8315341999999999,-0.38334307,14.866923178419194,-1.8941390697753344,0.06480318838361288,-0.15990606656081274,14.558774,-3.7788146,1.6044180000000001,0.8806646,0
-0.6999999999999991,6.410128,-8.194711999999999,1.5625443,-0.01025762,-0.37628934,-0.80466443,-0.45914707,-8.368775,8.862178,-0.42220473,-1.0690334,-0.6917205,-0.37237895,14.866923178419194,-1.8941390697753344,0.06480318838361288,-0.15990606656081274,14.558774,-3.7788146,1.6044180000000001,0.8806646,0
-0.6899999999999991,6.326708999999999,-8.105648,1.558366,-0.009499758,-0.37028423,-0.805906,-0.46185997,-8.315191,8.950351,-0.4132697,-1.1976756000000002,-0.5737179,-0.36195279999999996,14.866923178419194,-1.8941390697753344,0.06480318838361288,-0.15990606656081274,14.558774,-3.7788146,1.6044180000000001,0.8806646,0
-0.679999999999999,6.2438215999999995,-8.015709,1.5542837,-0.008049615,-0.36403486,-0.80735713,-0.46431455,-8.262399,9.037342,-0.40298320000000004,-1.3062621,-0.4741237,-0.35203832,14.370922843163244,-2.4417026308695458,0.4186039977505641,0.16846600995832425,14.473410000000001,-4.191173600000001,1.7391976000000002,1.415685,0
-0.669999999999999,6.1614485,-7.924919999999999,1.5502928,-0.00581335,-0.35746405,-0.8090735,-0.46646065,-8.212363999999999,9.120341999999999,-0.39497218,-1.4832959,-0.33488733,-0.32649705,14.370922843163244,-2.4417026308695458,0.4186039977505641,0.16846600995832425,14.473410000000001,-4.191173600000001,1.7391976000000002,1.415685,0
-0.659999999999999,6.0795699999999995,-7.833305999999999,1.5463891,-0.0027233353000000004,-0.35051072,-0.81109387,-0.46825343,-8.163616000000001,9.202311,-0.38556892,-1.6327302,-0.21737462,-0.30220908,14.370922843163244,-2.4417026308695458,0.4186039977505641,0.16846600995832425,14.473410000000001,-4.191173600000001,1.7391976000000002,1.415685,0
-0.649999999999999,5.998171,-7.740877,1.5425866000000001,0.0010855522000000001,-0.3432281,-0.8133554000000001,-0.46972970000000003,-8.116434,9.283292,-0.37473,-1.7588675999999999,-0.11819569,-0.27911290000000005,14.370922843163244,-2.4417026308695458,0.4186039977505641,0.16846600995832425,14.473410000000001,-4.191173600000001,1.7391976000000002,1.415685,0
-0.639999999999999,5.917235,-7.6476429999999995,1.5388997,0.0054992144,-0.33566067,-0.8158039,-0.4709197,-8.071061,9.363323,-0.36243054,-1.8653395000000002,-0.034489263,-0.25715008,13.95282915146933,-2.7747712644474256,0.6162978282932078,0.5085445799681877,13.658179999999998,-4.9340725,1.879633,1.7375327,0
-0.629999999999999,5.8367357,-7.553625599999999,1.5353268,0.010534498,-0.3277743,-0.8184559,-0.47178665,-8.028975,9.440125,-0.35191372,-2.0071491999999997,0.06697538,-0.21957724,13.95282915146933,-2.7747712644474256,0.6162978282932078,0.5085445799681877,13.658179999999998,-4.9340725,1.879633,1.7375327,0
-0.619999999999999,5.756647599999999,-7.458844,1.5318664,0.016198294,-0.3195428,-0.82131994,-0.47229564,-7.9890895,9.516046000000001,-0.33995524,-2.1268506,0.15260968,-0.1838481,13.95282915146933,-2.7747712644474256,0.6162978282932078,0.5085445799681877,13.658179999999998,-4.9340725,1.879633,1.7375327,0
-0.6099999999999992,5.6769457,-7.3633074999999995,1.5285327,0.022388052000000002,-0.31101137,-0.8243421000000001,-0.47247273,-7.9516273,9.591089,-0.32655463,-2.2278895,0.22488439,-0.14987217,13.95282915146933,-2.7747712644474256,0.6162978282932078,0.5085445799681877,13.658179999999998,-4.9340725,1.879633,1.7375327,0
-0.5999999999999992,5.5976057,-7.267025500000001,1.5253402,0.029017038999999998,-0.30221856,-0.82747597,-0.47234,-7.916778999999999,9.665255,-0.31172776,-2.3131754,0.28588474,-0.11756348,13.462727591359837,-2.8607120870388014,0.5271589051507658,0.8049835725424442,13.512532,-5.1370153,1.8468015,2.0091240000000004,0
-0.5899999999999992,5.5185947,-7.170019,1.522283,0.035987563,-0.2931528,-0.8307108,-0.47189558,-7.885836599999999,9.735952000000001,-0.29951847,-2.39857,0.32344709999999993,-0.07229382,13.462727591359837,-2.8607120870388014,0.5271589051507658,0.8049835725424442,13.512532,-5.1370153,1.8468015,2.0091240000000004,0
-0.5799999999999992,5.439879,-7.072310000000001,1.5193545,0.043216947,-0.28380734,-0.83403724,-0.47113395,-7.857717,9.805753,-0.28598958,-2.4706495,0.35515,-0.02924557,13.462727591359837,-2.8607120870388014,0.5271589051507658,0.8049835725424442,13.512532,-5.1370153,1.8468015,2.0091240000000004,0
-0.5699999999999992,5.3614296999999995,-6.9739075,1.5165677,0.050657815999999994,-0.274219,-0.8374206,-0.4700682,-7.8325415,9.874608,-0.27117909999999995,-2.5314891,0.38190840000000004,0.011690276999999999,13.462727591359837,-2.8607120870388014,0.5271589051507658,0.8049835725424442,13.512532,-5.1370153,1.8468015,2.0091240000000004,0
-0.5599999999999992,5.283217,-6.8748217,1.5139351,0.05827024,-0.26441938,-0.8408312,-0.4687104,-7.810414999999999,9.94247,-0.25513586,-2.5828419,0.40449417,0.050617397,13.462727591359837,-2.8607120870388014,0.5271589051507658,0.8049835725424442,14.144962,-4.9660845,1.3699923999999999,2.5759053,0
-0.5499999999999992,5.20521,-6.775061999999999,1.5114688,0.066020556,-0.25443575,-0.8442437,-0.46707170000000003,-7.791426700000001,10.009286999999999,-0.23791753,-2.6261861,0.42355909999999997,0.08763436,13.462727591359837,-2.8607120870388014,0.5271589051507658,0.8049835725424442,14.144962,-4.9660845,1.3699923999999999,2.5759053,0
-0.5399999999999991,5.127377500000001,-6.674639999999999,1.5091803,0.0738804,-0.24429168,-0.84763604,-0.4651625,-7.775652,10.0750065,-0.21958932,-2.6627712000000003,0.43965217,0.12283489,13.462727591359837,-2.8607120870388014,0.5271589051507658,0.8049835725424442,14.144962,-4.9660845,1.3699923999999999,2.5759053,0
-0.5299999999999991,5.049686,-6.5735660000000005,1.5070803999999998,0.08182584,-0.23400751,-0.8509893,-0.46299246,-7.763155,10.139573,-0.20022263,-2.693651,0.45323774,0.15630813,13.462727591359837,-2.8607120870388014,0.5271589051507658,0.8049835725424442,14.144962,-4.9660845,1.3699923999999999,2.5759053,0
-0.5199999999999991,4.9721036,-6.4718523,1.505179,0.08983669999999999,-0.22360100000000002,-0.8542871,-0.46057070000000006,-7.7539880000000005,10.2029295,-0.17989406,-2.7197148999999996,0.46470654,0.18813883,13.191454556559416,-2.7448918913884515,0.19664042825204892,1.060427372026736,15.234723,-5.269251000000001,0.004896622,3.5271285000000003,0
-0.5099999999999991,4.8945947,-6.369518,1.5034735000000001,0.09775457,-0.21306947,-0.8575322,-0.45791242,-7.748304400000001,10.263763,-0.1610865,-2.723648,0.42282543,0.2309423,13.191454556559416,-2.7448918913884515,0.19664042825204892,1.060427372026736,15.234723,-5.269251000000001,0.004896622,3.5271285000000003,0
-0.4999999999999991,4.817126,-6.266582,1.50196,0.10545237,-0.20241383,-0.86073154,-0.4550269,-7.7459087,10.323264,-0.14148206,-2.7269661,0.38747919999999997,0.27164537,13.191454556559416,-2.7448918913884515,0.19664042825204892,1.060427372026736,15.234723,-5.269251000000001,0.004896622,3.5271285000000003,0
-0.4899999999999989,4.739664599999999,-6.163058,1.5006464,0.11295681,-0.19165324,-0.8638764999999999,-0.45191476,-7.746775599999999,10.381341,-0.12114793,-2.7297657,0.35764864,0.31035113,13.191454556559416,-2.7448918913884515,0.19664042825204892,1.060427372026736,15.234723,-5.269251000000001,0.004896622,3.5271285000000003,0
-0.47999999999999887,4.662179,-6.058960400000001,1.4995393999999997,0.12029069,-0.18080403,-0.866959,-0.44857773,-7.750880199999999,10.437911999999999,-0.10015413,-2.7321277000000004,0.33247346,0.34715759999999996,12.702322725584473,-2.499137794659357,-0.4000235923199869,1.1918050641717195,16.039476,-4.998335,-0.71463156,3.6888154,0
-0.46999999999999886,4.5846376,-5.954315,1.4986231,0.12721942,-0.16986099999999998,-0.86999106,-0.4450593,-7.7579139999999995,10.490851,-0.08300675,-2.6957734,0.21817642,0.38860473,12.702322725584473,-2.499137794659357,-0.4000235923199869,1.1918050641717195,16.039476,-4.998335,-0.71463156,3.6888154,0
-0.45999999999999885,4.507010500000001,-5.849149,1.497881,0.13355829,-0.15882337,-0.87298894,-0.44139257,-7.7679224,10.54214,-0.065333985,-2.6650872000000003,0.12170778,0.42801803,12.702322725584473,-2.499137794659357,-0.4000235923199869,1.1918050641717195,16.039476,-4.998335,-0.71463156,3.6888154,0
-0.44999999999999885,4.429269000000001,-5.743479,1.4973183,0.13939258,-0.14770968,-0.87594897,-0.4375669,-7.780786999999999,10.5916605,-0.047174558,-2.6391861,0.040286634,0.46549731,12.702322725584473,-2.499137794659357,-0.4000235923199869,1.1918050641717195,16.039476,-4.998335,-0.71463156,3.6888154,0
-0.43999999999999884,4.351385,-5.6373224,1.4969393,0.14479467,-0.13653535,-0.878866,-0.43357453,-7.796403,10.639308,-0.028570475,-2.6173243999999998,-0.028433679,0.50113744,12.474565910107454,-2.174294763896144,-0.9179892995676846,1.2370214074143806,17.218245,-4.3406444,-2.0523326,3.4481870000000003,0
-0.4299999999999988,4.2733335,-5.5307035,1.496738,0.14958678,-0.125339,-0.88175076,-0.42945233,-7.8143344,10.684169,-0.01166304,-2.5481849999999997,-0.16719697,0.5372475,12.474565910107454,-2.174294763896144,-0.9179892995676846,1.2370214074143806,17.218245,-4.3406444,-2.0523326,3.4481870000000003,0
-0.4199999999999988,4.195091000000001,-5.423646499999999,1.4967073,0.15363197,-0.114153825,-0.8846162000000001,-0.4252294,-7.834695,10.726988,0.005617832,-2.4898298,-0.28431815,0.57158554,12.474565910107454,-2.174294763896144,-0.9179892995676846,1.2370214074143806,17.218245,-4.3406444,-2.0523326,3.4481870000000003,0
-0.4099999999999988,4.116632,-5.316171,1.4968514,0.15704194,-0.102983765,-0.88745856,-0.42089093,-7.857313,10.767663,0.023253287999999997,-2.4405775000000003,-0.38317257,0.6042387,12.474565910107454,-2.174294763896144,-0.9179892995676846,1.2370214074143806,17.218245,-4.3406444,-2.0523326,3.4481870000000003,0
-0.3999999999999988,4.0379366999999995,-5.2083010000000005,1.4971733999999999,0.1599112,-0.091831625,-0.8902723,-0.41642559999999995,-7.8820380000000005,10.806107,0.04122024,-2.3990088,-0.46660918,0.6352895000000001,12.518778541299085,-1.8476564223643697,-1.362928174742992,1.23224117380081,15.817907,-3.7457998,-2.0455077,2.7379525,0
-0.3899999999999988,3.9589837,-5.100057,1.4976789,0.16210704,-0.08074204,-0.8930683,-0.4118625,-7.9088197000000005,10.842366,0.059907444000000004,-2.3129566,-0.6063982,0.66458213,12.518778541299085,-1.8476564223643697,-1.362928174742992,1.23224117380081,15.817907,-3.7457998,-2.0455077,2.7379525,0
-0.3799999999999988,3.879754,-4.991462,1.4983727,0.16352907,-0.06975169,-0.8958575999999999,-0.40722457,-7.937373599999999,10.876224,0.07889577,-2.240329,-0.72438794,0.69243735,12.518778541299085,-1.8476564223643697,-1.362928174742992,1.23224117380081,15.817907,-3.7457998,-2.0455077,2.7379525,0
-0.3699999999999988,3.8002309999999997,-4.882541000000001,1.4992579,0.16429473,-0.058851182,-0.89863247,-0.40249622,-7.967505,10.907602,0.098178975,-2.1790326,-0.8239780000000001,0.7189257,12.518778541299085,-1.8476564223643697,-1.362928174742992,1.23224117380081,15.817907,-3.7457998,-2.0455077,2.7379525,0
-0.35999999999999877,3.7203991000000003,-4.7733192,1.5003374,0.16450323,-0.048032034,-0.9013843,-0.39766535,-7.999042,10.936438,0.11774483,-2.1273002999999995,-0.90803784,0.7441142,12.518778541299085,-1.8476564223643697,-1.362928174742992,1.23224117380081,16.33969,-3.6361977999999997,-3.1252397999999997,2.7330892,0
-0.34999999999999876,3.6402457000000004,-4.663821700000001,1.5016139,0.16423838,-0.037286647,-0.90410393,-0.39272290000000004,-8.031834,10.962672999999999,0.13757555,-2.08364,-0.9789891,0.76806676,12.518778541299085,-1.8476564223643697,-1.362928174742992,1.23224117380081,16.33969,-3.6361977999999997,-3.1252397999999997,2.7330892,0
-0.33999999999999875,3.5597584,-4.554075,1.5030898000000001,0.16357106,-0.026608275,-0.9067823,-0.38766226,-8.065745,10.986264,0.1576483,-2.046793,-1.0388763,0.7908439,12.518778541299085,-1.8476564223643697,-1.362928174742992,1.23224117380081,16.33969,-3.6361977999999997,-3.1252397999999997,2.7330892,0
-0.32999999999999874,3.4789271,-4.444105599999999,1.5047675,0.16256116,-0.015990991,-0.90941066,-0.38247892,-8.100655999999999,11.00717,0.17793575,-2.0156963,-1.0894246,0.81250346,12.518778541299085,-1.8476564223643697,-1.362928174742992,1.23224117380081,16.33969,-3.6361977999999997,-3.1252397999999997,2.7330892,0
-0.31999999999999873,3.3977422999999995,-4.333941,1.5066491000000002,0.1612594,-0.005429610600000001,-0.91198045,-0.37717006,-8.136455999999999,11.025352499999999,0.19840659,-1.9894526999999997,-1.1320903,0.8331001,12.488345946377747,-1.5034329742025616,-1.63388689731945,1.1330688655583179,17.330969,-3.7105277,-3.8356295,2.681078,0
-0.3099999999999987,3.3161959999999997,-4.2236085,1.5087347,0.15955812,0.004997217,-0.91449684,-0.37176803,-8.172947,11.040749,0.21874022,-1.9136041000000001,-1.2103225,0.8478196,12.488345946377747,-1.5034329742025616,-1.63388689731945,1.1330688655583179,17.330969,-3.7105277,-3.8356295,2.681078,0
-0.2999999999999987,3.2342812999999997,-4.113136,1.5110244,0.15737504,0.015226689,-0.91696525,-0.36629996,-8.210066000000001,11.053389,0.23920554,-1.8495901000000001,-1.2763586999999998,0.8618169,12.488345946377747,-1.5034329742025616,-1.63388689731945,1.1330688655583179,17.330969,-3.7105277,-3.8356295,2.681078,0
-0.2899999999999987,3.151993,-4.0025496,1.5135192,0.15478379,0.025284562000000003,-0.91937804,-0.36075804,-8.247658,11.063261,0.25978452,-1.7955643000000001,-1.3321003999999999,0.87512726,12.488345946377747,-1.5034329742025616,-1.63388689731945,1.1330688655583179,17.330969,-3.7105277,-3.8356295,2.681078,0
-0.2799999999999987,3.0693269,-3.8918796,1.5162202,0.15184647,0.035192844,-0.92172766,-0.35513649999999997,-8.285585000000001,11.070362,0.28045473,-1.7499685,-1.3791523,0.8877845,12.570994429420905,-1.1421442602797274,-1.8065407607377089,0.9677876641311878,17.722502,-3.4783312999999993,-4.075649299999999,2.6017978,0
-0.2699999999999989,2.9862792000000002,-3.7811519999999996,1.5191324,0.14850006,0.044864383,-0.92401606,-0.34946954,-8.323972,11.074719,0.30197862,-1.6551365000000002,-1.4457527000000001,0.8917101999999999,12.570994429420905,-1.1421442602797274,-1.8065407607377089,0.9677876641311878,17.722502,-3.4783312999999993,-4.075649299999999,2.6017978,0
-0.2599999999999989,2.9028473,-3.6703949999999996,1.5222601,0.14469801,0.054230873,-0.9262461,-0.34378687,-8.362404,11.076311,0.32355675,-1.5750993,-1.5019748,0.8954434000000001,12.570994429420905,-1.1421442602797274,-1.8065407607377089,0.9677876641311878,17.722502,-3.4783312999999993,-4.075649299999999,2.6017978,0
-0.2499999999999989,2.8190317000000005,-3.5596356,1.5256037,0.14051075,0.0633352,-0.92841136,-0.33807907,-8.4007225,11.075168,0.34517625,-1.507549,-1.5494357,0.8989934000000002,12.570994429420905,-1.1421442602797274,-1.8065407607377089,0.9677876641311878,17.722502,-3.4783312999999993,-4.075649299999999,2.6017978,0
-0.23999999999999888,2.734834,-3.4489012000000003,1.5291636999999998,0.13599758,0.07221382,-0.9305055,-0.33233872,-8.438789,11.071316,0.3668197,-1.4505371999999999,-1.5895008999999998,0.90236914,12.682869998709394,-0.7324638394357269,-1.6507686321285993,0.7547934653973256,19.166298,-3.772015,-4.82179,2.9367876,0
-0.22999999999999865,2.6502557,-3.338219,1.5329454,0.13121058,0.08072805,-0.9325187,-0.32661188,-8.476814,11.064735,0.38953283,-1.3385562,-1.5989833999999998,0.89512753,12.682869998709394,-0.7324638394357269,-1.6507686321285993,0.7547934653973256,19.166298,-3.772015,-4.82179,2.9367876,0
-0.21999999999999864,2.5652997,-3.2276156000000005,1.5369544,0.12619479,0.08877049,-0.9344474,-0.32094002,-8.514327999999999,11.05555,0.41223556,-1.2440388999999998,-1.6069988000000002,0.88824135,12.682869998709394,-0.7324638394357269,-1.6507686321285993,0.7547934653973256,19.166298,-3.772015,-4.82179,2.9367876,0
-0.20999999999999863,2.4799714,-3.1171165000000003,1.5411903,0.12098642,0.09641186,-0.9362935,-0.31531170000000003,-8.551215,11.043855,0.43491490000000005,-1.1642620000000001,-1.6137736,0.8816930000000001,12.682869998709394,-0.7324638394357269,-1.6507686321285993,0.7547934653973256,19.166298,-3.772015,-4.82179,2.9367876,0
-0.19999999999999862,2.3942778,-3.0067467999999997,1.5456526000000002,0.11561566599999999,0.10371196,-0.93805754,-0.30971736,-8.587372,11.029738,0.457556,-1.0969267,-1.6194997,0.875466,12.551864179995649,-0.34798828922931796,-1.3938354278209188,0.5231310691307289,17.670256,-2.5899687,-3.7501905,2.0887764,0
-0.18999999999999884,2.3082287,-2.896529,1.550335,0.11015414,0.11054866,-0.9397363999999999,-0.30420467,-8.622345,11.013454,0.47889727,-0.9801681000000001,-1.5842298000000001,0.8581768,12.551864179995649,-0.34798828922931796,-1.3938354278209188,0.5231310691307289,17.670256,-2.5899687,-3.7501905,2.0887764,0
-0.17999999999999883,2.2218342,-2.7864852000000004,1.5552305,0.10466064,0.11682897,-0.941332,-0.2988163,-8.656429,10.994993,0.5001789000000001,-0.8816132999999999,-1.5544733,0.841736,12.551864179995649,-0.34798828922931796,-1.3938354278209188,0.5231310691307289,17.670256,-2.5899687,-3.7501905,2.0887764,0
-0.16999999999999882,2.1351035,-2.6766360000000002,1.5603385,0.099140815,0.12263863,-0.9428502000000001,-0.29353768,-8.689557,10.974491,0.5213966,-0.7984241,-1.5293682,0.826102,12.551864179995649,-0.34798828922931796,-1.3938354278209188,0.5231310691307289,17.670256,-2.5899687,-3.7501905,2.0887764,0
-0.1599999999999988,2.0480466,-2.5670017999999994,1.5656583,0.09359904,0.12804994,-0.9442950000000001,-0.28835618,-8.721671,10.952065,0.54254544,-0.72820497,-1.5081870000000002,0.81123513,12.551864179995649,-0.34798828922931796,-1.3938354278209188,0.5231310691307289,17.658583,-2.294451,-3.9115481,1.9923964,0
-0.1499999999999988,1.9606736,-2.457601,1.5711892,0.08803866,0.13312384,-0.9456693000000002,-0.28326090000000004,-8.752723,10.927817999999998,0.5636194999999999,-0.6689337,-1.4903166,0.7970978,12.551864179995649,-0.34798828922931796,-1.3938354278209188,0.5231310691307289,17.658583,-2.294451,-3.9115481,1.9923964,0
-0.1399999999999988,1.8729956,-2.3484515999999998,1.5769303,0.08246227,0.13791172,-0.9469749,-0.27824238,-8.782667,10.901836999999999,0.58461154,-0.6189031,-1.475239,0.78365415,12.551864179995649,-0.34798828922931796,-1.3938354278209188,0.5231310691307289,17.658583,-2.294451,-3.9115481,1.9923964,0
-0.12999999999999878,1.7850238999999999,-2.2395701,1.582881,0.07687189,0.14245684,-0.94821304,-0.27329240000000005,-8.81147,10.874202,0.60551316,-0.5766728,-1.4625177,0.7708702,12.551864179995649,-0.34798828922931796,-1.3938354278209188,0.5231310691307289,17.658583,-2.294451,-3.9115481,1.9923964,0
-0.11999999999999877,1.6967701000000002,-2.1309728999999997,1.58904,0.07126909,0.14679566,-0.94938457,-0.26840386,-8.839096000000001,10.844978999999999,0.62631464,-0.54102653,-1.4517845,0.75871354,12.421264140430665,-0.10695026876466092,-1.162115468949256,0.3153444017433379,17.931093,-2.4383485,-4.5372195,2.1655385,0
-0.10999999999999877,1.6082473999999998,-2.0226740000000003,1.5954006,0.06571376,0.15084442,-0.95049167,-0.26361558,-8.865243,10.814559,0.6457706,-0.4733749,-1.4065707,0.7369573,12.421264140430665,-0.10695026876466092,-1.162115468949256,0.3153444017433379,17.931093,-2.4383485,-4.5372195,2.1655385,0
-0.09999999999999876,1.5194693000000001,-1.9146863999999997,1.6019552,0.060253485999999995,0.15453917,-0.9515386999999998,-0.25896186,-8.890184,10.782734,0.66511667,-0.416268,-1.368415,0.71626866,12.421264140430665,-0.10695026876466092,-1.162115468949256,0.3153444017433379,17.931093,-2.4383485,-4.5372195,2.1655385,0
