t,px,py,pz,qx,qy,qz,qw,vx,vy,vz,wx,wy,wz,throttle_mpc,roll_mpc,pitch_mpc,yaw_mpc,throttle_nw,roll_nw,pitch_nw,yaw_nw,network_used
-2.0,18.534008,-9.471707,2.1169748,0.38699266,-0.2633276,-0.8833873,0.02284832,-10.956827,-4.3283760000000004,0.55791456,1.4621271999999998,-0.13551906,-0.22049215,9.056360699912679,5.999999669998201,-5.9999999176737235,-4.477015763979561,11.975752,-0.87466574,-2.9896147,-1.0753165,0
-1.99,18.423876,-9.5146265,2.1225185,0.38655558,-0.26914677,-0.881926,0.018476753000000002,-11.069297,-4.255103,0.5504595999999999,1.425974,-0.3064289,-0.36285618,9.056360699912679,5.999999669998201,-5.9999999176737235,-4.477015763979561,11.495968,-3.7298593999999996,-5.2059417,0.14389000000000002,0
-1.98,18.312632,-9.556807000000001,2.1279767000000005,0.38553283,-0.27460572,-0.8807834000000001,0.013297528999999999,-11.1793785,-4.180857700000001,0.54084647,1.4205424,-0.47579792,-0.5004788,9.056360699912679,5.999999669998201,-5.9999999176737235,-4.477015763979561,11.495968,-3.7298593999999996,-5.2059417,0.14389000000000002,0
-1.97,18.2003,-9.598239999999999,2.1333287,0.3839284,-0.27983309999999995,-0.87990886,0.0072739897,-11.286853,-4.105685,0.52925384,1.4414314,-0.6442616,-0.63362753,9.056360699912679,5.999999669998201,-5.9999999176737235,-4.477015763979561,11.495968,-3.7298593999999996,-5.2059417,0.14389000000000002,0
-1.96,18.086906,-9.638916,2.1385555,0.38174040000000004,-0.28493738,-0.8792525,0.00037597724999999997,-11.391509,-4.0295987,0.5158376,1.4848367,-0.8122646,-0.76254857,9.056360699912679,5.999999669998201,-5.9999999176737235,-4.477015763979561,7.1442194,-3.1304352000000004,-5.116340599999999,-0.39558378,0
-1.95,17.972479999999997,-9.678827,2.1436396,0.37896198,-0.29000917,-0.87876475,-0.007420758299999999,-11.493138,-3.9525894999999998,0.50073403,1.5474653,-0.98010015,-0.88746893,9.056360699912679,5.999999669998201,-5.9999999176737235,-4.477015763979561,7.1442194,-3.1304352000000004,-5.116340599999999,-0.39558378,0
-1.94,17.857056,-9.717964,2.1485646000000003,0.37558237,-0.29512355,-0.8783960999999999,-0.01613505,-11.591536,-3.8746347,0.484062,1.626465,-1.1479414,-1.0085979999999999,9.056360699912679,5.999999669998201,-5.9999999176737235,-4.477015763979561,7.1442194,-3.1304352000000004,-5.116340599999999,-0.39558378,0
-1.93,17.740664000000002,-9.756316,2.1533158,0.37158754,-0.3003417,-0.8780962,-0.025780732,-11.6865,-3.7957044,0.46592543,1.7193621,-1.3158675,-1.1261287,9.056360699912679,5.999999669998201,-5.9999999176737235,-4.477015763979561,7.1442194,-3.1304352000000004,-5.116340599999999,-0.39558378,0
-1.92,17.623339,-9.793875,2.1578784,0.36696082,-0.3057125,-0.8778138000000001,-0.036366962,-11.777827,-3.7157676,0.44641516,1.8240107,-1.4838862,-1.2402395,10.924097415457792,5.999999807447206,-5.999999947428933,-4.386911859796394,9.012404,-3.1862178,-6.566858,1.4957606,0
-1.91,17.505081,-9.830592,2.162274,0.36153713,-0.31140566,-0.87750363,-0.04800824,-11.873088000000001,-3.6275861000000003,0.43248630000000005,2.0015116,-1.7150294999999998,-1.3523028999999998,10.924097415457792,5.999999807447206,-5.999999947428933,-4.386911859796394,9.012404,-3.1862178,-6.566858,1.4957606,0
-1.9,17.385893,-9.866423,2.1665227000000002,0.35516003,-0.3175619,-0.87710804,-0.06080457,-11.963714,-3.538331,0.41709682,2.1824048,-1.9412508999999998,-1.4616476999999999,10.924097415457792,5.999999807447206,-5.999999947428933,-4.386911859796394,9.012404,-3.1862178,-6.566858,1.4957606,0
-1.89,17.265823,-9.901355,2.1706107000000006,0.34782228,-0.32417232,-0.87655365,-0.07473722,-12.049417,-3.4479172,0.40033603,2.3657255,-2.1628795,-1.5683681,10.924097415457792,5.999999807447206,-5.999999947428933,-4.386911859796394,9.012404,-3.1862178,-6.566858,1.4957606,0
-1.8800000000000001,17.144922,-9.935378,2.1745248,0.33951402,-0.33122113,-0.8757635,-0.08978397,-12.129916,-3.3562977,0.3822771,2.5506496,-2.3801825,-1.6725526999999998,10.924097415457792,5.999999807447206,-5.999999947428933,-4.386911859796394,9.012404,-3.1862178,-6.566858,1.4957606,0
-1.87,17.023243,-9.968478,2.178252,0.33022338,-0.33868632,-0.8746572,-0.105918854,-12.204936,-3.263466,0.3629779,2.7364740000000003,-2.5933785,-1.7742856,14.038969358689373,5.999999896006178,-5.999999970613872,-4.101085973352657,11.6657715,-0.92476916,-7.383717,0.1457859,0
-1.8599999999999999,16.900793,-10.000579,2.1818337000000003,0.31962284,-0.34677979999999997,-0.8731429,-0.12331449,-12.283696,-3.156529,0.3531428,3.0464783,-2.926816,-1.8706985,14.038969358689373,5.999999896006178,-5.999999970613872,-4.101085973352657,11.6657715,-0.92476916,-7.383717,0.1457859,0
-1.85,16.777592000000002,-10.031605,2.1853093999999995,0.30740559999999995,-0.35566390000000003,-0.87109613,-0.1421144,-12.355191,-3.0485580000000003,0.34172702,3.3459458,-3.2461064,-1.9657627,14.038969358689373,5.999999896006178,-5.999999970613872,-4.101085973352657,11.6657715,-0.92476916,-7.383717,0.1457859,0
-1.84,16.653713,-10.061546,2.188663,0.29358864,-0.36523518,-0.8683815,-0.1622424,-12.418979,-2.9395785,0.32878405,3.6354012000000004,-3.5523322,-2.0594444,17.690786123325825,5.999999933835106,-5.999999981292327,-3.38527999595964,12.840109,0.32543775,-7.4431020000000006,-0.5003702999999999,0
-1.83,16.529188,-10.090292999999999,2.1919568,0.27791065,-0.37557316,-0.8648461,-0.18371654,-12.485072,-2.8090305,0.33007398,4.003481,-3.9347072,-2.1245036,17.690786123325825,5.999999933835106,-5.999999981292327,-3.38527999595964,12.840109,0.32543775,-7.4431020000000006,-0.5003702999999999,0
-1.82,16.404045,-10.117714999999999,2.1952658,0.26027113,-0.38662708,-0.8603284999999999,-0.20643033,-12.542159,-2.6746266,0.33179793,4.314220400000001,-4.2573915,-2.1863704,17.690786123325825,5.999999933835106,-5.999999981292327,-3.38527999595964,12.840109,0.32543775,-7.4431020000000006,-0.5003702999999999,0
-1.81,16.27838,-10.143774,2.1985938999999997,0.24090768,-0.39812574,-0.85469145,-0.23013502,-12.589255999999999,-2.5366487999999996,0.33385235,4.576556,-4.529699,-2.2452012999999997,17.690786123325825,5.999999933835106,-5.999999981292327,-3.38527999595964,12.840109,0.32543775,-7.4431020000000006,-0.5003702999999999,0
-1.8,16.152298000000002,-10.168436999999999,2.2019433999999998,0.22003166,-0.40983668,-0.8478181999999999,-0.25460657,-12.625491,-2.3955572,0.33608204,4.7980328000000005,-4.75949,-2.3011453,20.99999210289123,5.999999947486804,-5.999999984039838,-2.858717666975581,13.295878,-0.118454956,-7.818732000000001,-0.19907919,0
-1.79,16.025887,-10.191542,2.2054095,0.19780622,-0.42157543,-0.8396296999999998,-0.27958733,-12.654719,-2.22511,0.35705033,4.9851003,-4.953316,-2.3285055,20.99999210289123,5.999999947486804,-5.999999984039838,-2.858717666975581,13.295878,-0.118454956,-7.818732000000001,-0.19907919,0
-1.7799999999999998,15.899254999999998,-10.212932,2.2090838,0.17437802,-0.43318447,-0.83006895,-0.30484313,-12.66942,-2.0525901,0.37770775,5.1430387,-5.116873,-2.3545232000000005,20.99999210289123,5.999999947486804,-5.999999984039838,-2.858717666975581,13.295878,-0.118454956,-7.818732000000001,-0.19907919,0
-1.77,15.772551000000002,-10.23259,2.2129617,0.14990625,-0.4445161,-0.81908053,-0.33021352,-12.6690035,-1.8790182,0.3977349,5.276385299999999,-5.2548857,-2.379264,20.99999210289123,5.999999947486804,-5.999999984039838,-2.858717666975581,13.295878,-0.118454956,-7.818732000000001,-0.19907919,0
-1.7599999999999998,15.645928,-10.250511999999999,2.2170353,0.124537386,-0.45544422,-0.8066249,-0.35555246,-12.653041,-1.7055193,0.41678350000000003,5.38897,-5.371343,-2.402791,20.99999210289123,5.999999947486804,-5.999999984039838,-2.858717666975581,14.529632999999999,-0.090464376,-6.7897906,-0.042855177,0
-1.75,15.519545,-10.266705,2.2212927000000002,0.09840704,-0.46586132,-0.7926770000000001,-0.38072672,-12.621261,-1.5332992,0.43448496,5.4840264,-5.4696107000000005,-2.4251635,20.99999210289123,5.999999947486804,-5.999999984039838,-2.858717666975581,14.529632999999999,-0.090464376,-6.7897906,-0.042855177,0
-1.7399999999999998,15.3935585,-10.281187,2.225719,0.07164127,-0.4756758,-0.7772241999999999,-0.40561426,-12.573555,-1.3636215,0.45045805,5.564285,-5.552529,-2.4464382999999996,20.99999210289123,5.999999947486804,-5.999999984039838,-2.858717666975581,14.529632999999999,-0.090464376,-6.7897906,-0.042855177,0
-1.73,15.268127999999999,-10.293991,2.230295,0.04435774,-0.4848098,-0.76026535,-0.43010324,-12.509976,-1.1977859,0.46431676,5.632048999999999,-5.622493700000001,-2.4666688,20.99999210289123,5.999999947486804,-5.999999984039838,-2.858717666975581,14.529632999999999,-0.090464376,-6.7897906,-0.042855177,0
-1.72,15.143413,-10.305161,2.2349968,0.016666682,-0.49319732,-0.7418089,-0.45409092,-12.4307375,-1.0371073,0.47567677,5.689265,-5.681528599999999,-2.4859068,20.99999951094492,4.483398254931238,-5.999997918794847,-1.1267213628961354,14.353287,0.10655562,-4.641126,0.18360636,0
-1.71,15.019566000000001,-10.314755,2.2397982999999995,-0.011153333,-0.50034577,-0.7222811,-0.47732600000000003,-12.336243,-0.8829013000000001,0.48420307,5.5013804,-5.7306504,-2.4192113999999996,20.99999951094492,4.483398254931238,-5.999997918794847,-1.1267213628961354,14.353287,0.10655562,-4.641126,0.18360636,0
-1.7,14.896737,-10.322845,2.2446706,-0.03886854,-0.50589556,-0.70209247,-0.49962527,-12.227257,-0.7364586999999999,0.4898093,5.342798999999999,-5.7721844,-2.3557884999999996,20.99999951094492,4.483398254931238,-5.999997918794847,-1.1267213628961354,14.353287,0.10655562,-4.641126,0.18360636,0
-1.69,14.775068,-10.329514999999999,2.2495844,-0.0664452,-0.5099729000000001,-0.68123615,-0.5209897,-12.104692,-0.5989717,0.49247754,5.20895,-5.807301,-2.2954779,20.99999951094492,4.483398254931238,-5.999997918794847,-1.1267213628961354,14.353287,0.10655562,-4.641126,0.18360636,0
-1.68,14.654688,-10.33486,2.25451,-0.09385195,-0.5126837000000001,-0.65970975,-0.5414153,-11.969517,-0.47152108,0.49216884,5.095974,-5.8369922999999995,-2.2381268,20.700849352968408,2.5317025995967524,-3.999334951888952,-0.4389028745347869,14.465203,-0.14987567,-2.9506009,0.43095013,0
-1.67,14.535707999999998,-10.338992,2.2594106,-0.12015519,-0.51405436,-0.63806313,-0.5605234,-11.824905000000001,-0.35666883,0.48750293,4.6968155,-5.5495567,-2.1498382,20.700849352968408,2.5317025995967524,-3.999334951888952,-0.4389028745347869,14.465203,-0.14987567,-2.9506009,0.43095013,0
-1.66,14.418223999999999,-10.342032000000001,2.26425,-0.14463522,-0.51420045,-0.61683947,-0.5780899,-11.670396,-0.25295356,0.47998673,4.3597975,-5.3070889999999995,-2.0658822,20.700849352968408,2.5317025995967524,-3.999334951888952,-0.4389028745347869,14.465203,-0.14987567,-2.9506009,0.43095013,0
-1.65,14.30233,-10.34409,2.269001,-0.16755618,-0.5133115,-0.5960145,-0.59430903,-11.507427999999999,-0.16047527,0.46978593,4.075248,-5.1025496,-1.986046,20.700849352968408,2.5317025995967524,-3.999334951888952,-0.4389028745347869,14.465203,-0.14987567,-2.9506009,0.43095013,0
-1.64,14.188101000000001,-10.345281,2.273637,-0.18914354,-0.5115360999999999,-0.5755539000000001,-0.60933864,-11.337267,-0.07926275,0.4570579000000001,3.835,-4.9300027,-1.9101272,17.966824236727398,0.4620317266101736,-1.6452743736662492,0.4321671627632489,13.5245,-1.1998137,0.22640692,0.94444484,0
-1.63,14.075489000000001,-10.345761,2.2780788,-0.20860438,-0.5090915,-0.55610627,-0.6229416999999999,-11.184355,-0.018451013,0.4310107,3.3099587,-4.416847,-1.7951901999999997,17.966824236727398,0.4620317266101736,-1.6452743736662492,0.4321671627632489,13.5245,-1.1998137,0.22640692,0.94444484,0
-1.6199999999999999,13.964428,-10.34568,2.2822511000000003,-0.22535715,-0.5062229,-0.53825635,-0.6350063,-11.027343,0.033320107,0.40320036,2.8666174,-3.9838974,-1.6858932,17.966824236727398,0.4620317266101736,-1.6452743736662492,0.4321671627632489,13.5245,-1.1998137,0.22640692,0.94444484,0
-1.6099999999999999,13.854953,-10.345123,2.2861377999999997,-0.23986045,-0.5030562,-0.52186006,-0.6458048000000001,-10.867204,0.07682364400000001,0.3739353,2.492271,-3.6186089999999997,-1.5819591999999998,17.966824236727398,0.4620317266101736,-1.6452743736662492,0.4321671627632489,13.5245,-1.1998137,0.22640692,0.94444484,0
-1.5999999999999999,13.747091000000001,-10.34417,2.289726,-0.25249845,-0.49967706,-0.50677323,-0.65555215,-10.704701,0.11276284,0.3434934,2.1761880000000002,-3.3104013999999995,-1.4831253999999998,15.987360847400995,-1.1432804970741457,0.4471942979897506,0.9725458096020408,15.249504,-2.1196442,2.0166414,1.0720954,0
-1.5899999999999999,13.640773999999999,-10.342907,2.2929678,-0.26278558,-0.4963619000000001,-0.49344343,-0.6641404000000001,-10.558551,0.13864253,0.30478330000000003,1.6593014,-2.7237742000000003,-1.3626249,15.987360847400995,-1.1432804970741457,0.4471942979897506,0.9725458096020408,15.249504,-2.1196442,2.0166414,1.0720954,0
-1.5799999999999998,13.535924,-10.341413000000001,2.2958198,-0.2703733,-0.4933575,-0.48224148,-0.67152077,-10.41137,0.1593933,0.26554856,1.2228478999999999,-2.2287827,-1.2480375,15.987360847400995,-1.1432804970741457,0.4471942979897506,0.9725458096020408,15.249504,-2.1196442,2.0166414,1.0720954,0
-1.5699999999999998,13.4325485,-10.339733,2.2982779,-0.27573526,-0.4906608,-0.472922,-0.67791384,-10.263566,0.17600077,0.2260698,0.85432094,-1.8111038000000002,-1.1390729,15.987360847400995,-1.1432804970741457,0.4471942979897506,0.9725458096020408,15.249504,-2.1196442,2.0166414,1.0720954,0
-1.5599999999999998,13.330651999999999,-10.337905000000001,2.3003411,-0.27926272,-0.48825097,-0.46526009999999995,-0.6834886,-10.115425,0.18931346,0.18658718,0.5431571,-1.4586546,-1.0354553,15.987360847400995,-1.1432804970741457,0.4471942979897506,0.9725458096020408,15.949556,-3.3988621,2.7469006,0.66400534,0
-1.5499999999999998,13.23024,-10.335957,2.3020104999999997,-0.28127936,-0.48609793,-0.45905358,-0.6883755,-9.967153999999999,0.20005801,0.14730333,0.28043413,-1.1612425,-0.93692213,15.987360847400995,-1.1432804970741457,0.4471942979897506,0.9725458096020408,15.949556,-3.3988621,2.7469006,0.66400534,0
-1.5399999999999998,13.1313095,-10.333910000000001,2.3032885,-0.28205302,-0.48416758,-0.45412305,-0.6926762,-9.8189,0.20885457,0.10838738,0.05861603,-0.91026795,-0.843224,15.987360847400995,-1.1432804970741457,0.4471942979897506,0.9725458096020408,15.949556,-3.3988621,2.7469006,0.66400534,0
-1.5299999999999998,13.033861,-10.331783,2.30418,-0.28180572,-0.48242518,-0.4503108,-0.696471,-9.670772999999999,0.21623111,0.069979206,-0.12866166,-0.69847643,-0.75412357,15.987360847400995,-1.1432804970741457,0.4471942979897506,0.9725458096020408,15.949556,-3.3988621,2.7469006,0.66400534,0
-1.5199999999999998,12.937892999999999,-10.329588000000001,2.3046901,-0.2807216,-0.48083746,-0.447479,-0.6998238,-9.522852,0.22263637,0.032193594,-0.28677395,-0.5197475,-0.6693954000000001,16.461258697977463,-4.1706785644748905,3.3438562637507236,2.8643555837596293,15.743560999999998,-3.8523872000000003,3.8404550000000004,0.05243882,0
-1.5099999999999998,12.843471000000001,-10.32733,2.304854,-0.2776889,-0.4795906,-0.446561,-0.7024706999999999,-9.362403,0.22907828,0.00045876484,-0.8902556999999999,0.08490360000000001,-0.50449,16.461258697977463,-4.1706785644748905,3.3438562637507236,2.8643555837596293,15.743560999999998,-3.8523872000000003,3.8404550000000004,0.05243882,0
-1.4999999999999998,12.750630000000001,-10.325005,2.3046975,-0.27184752,-0.4788214,-0.44830492,-0.7041675000000001,-9.206423,0.23598243,-0.03179971,-1.3983927999999999,0.59649277,-0.34366876,16.461258697977463,-4.1706785644748905,3.3438562637507236,2.8643555837596293,15.743560999999998,-3.8523872000000003,3.8404550000000004,0.05243882,0
-1.4899999999999998,12.659327000000001,-10.322604,2.3042173,-0.2636687,-0.47841543,-0.45233902,-0.7049731,-9.054763000000001,0.24450013,-0.06417408599999999,-1.8282973000000002,1.0272926,-0.18707538,16.461258697977463,-4.1706785644748905,3.3438562637507236,2.8643555837596293,15.743560999999998,-3.8523872000000003,3.8404550000000004,0.05243882,0
-1.4799999999999998,12.56953,-10.3201065,2.3034186,-0.25353497,-0.4782464,-0.45833388,-0.70493305,-8.904836,0.25571588,-0.09525014,-2.19368,1.3883917,-0.03734078,18.634724949370142,-5.999997786119338,5.7697772002321335,3.5219525220320778,16.754368,-4.422778599999999,5.261639,-0.2539319,0
-1.4699999999999998,12.481333,-10.317468,2.3023677000000005,-0.24082017,-0.4784749,-0.46664402,-0.7037833,-8.735049,0.27266943,-0.1147383,-2.803083,2.0557702,0.13589972,18.634724949370142,-5.999997786119338,5.7697772002321335,3.5219525220320778,16.754368,-4.422778599999999,5.261639,-0.2539319,0
-1.4599999999999997,12.394816,-10.314634,2.3011296000000003,-0.22504584,-0.47926486,-0.47747883,-0.70119447,-8.568399000000001,0.29502472,-0.13251519,-3.3020384,2.6345034,0.3020482,18.634724949370142,-5.999997786119338,5.7697772002321335,3.5219525220320778,16.754368,-4.422778599999999,5.261639,-0.2539319,0
-1.4499999999999997,12.309957,-10.311542999999999,2.2997257999999996,-0.20667960000000002,-0.48042887,-0.490367,-0.6971456,-8.404065,0.32427627,-0.14780004,-3.7231987,3.122984,0.46004987,18.634724949370142,-5.999997786119338,5.7697772002321335,3.5219525220320778,16.754368,-4.422778599999999,5.261639,-0.2539319,0
-1.4399999999999997,12.226727,-10.308122000000001,2.298182,-0.18610924,-0.48176458,-0.5048959,-0.6916260000000001,-8.242682,0.3615302,-0.16054200000000002,-4.0787315,3.535246,0.61029834,18.611073304286837,-5.999999570084491,5.999998909120762,3.775977383068104,19.097258,-4.898201,5.388500700000001,0.2934622,0
-1.4299999999999997,12.14509,-10.304283,2.2965229,-0.16363524,-0.48315248,-0.5207383,-0.6845576,-8.085182000000001,0.40760255,-0.17089306,-4.3788996,3.9190621,0.76563907,18.611073304286837,-5.999999570084491,5.999998909120762,3.775977383068104,19.097258,-4.898201,5.388500700000001,0.2934622,0
-1.4199999999999997,12.065007000000001,-10.299936,2.2947721000000003,-0.13952035,-0.48448282,-0.5375989000000001,-0.6758684,-7.9321703999999995,0.46323088,-0.1788816,-4.6322779999999995,4.243012,0.91335726,18.611073304286837,-5.999999570084491,5.999998909120762,3.775977383068104,19.097258,-4.898201,5.388500700000001,0.2934622,0
-1.4099999999999997,11.986428,-10.294983,2.2929527999999997,-0.11402631,-0.48560634,-0.5551783,-0.66555375,-7.784522,0.52890414,-0.1847147,-4.846148,4.5164433,1.0538268,18.611073304286837,-5.999999570084491,5.999998909120762,3.775977383068104,19.097258,-4.898201,5.388500700000001,0.2934622,0
-1.3999999999999997,11.909294000000001,-10.289322,2.2910845,-0.087384716,-0.48639756,-0.5732111999999999,-0.6536133000000001,-7.643165,0.6049071,-0.18865259,-5.026661,4.7472425000000005,1.1874034,20.220895198582234,-5.999999350227144,5.999975259867961,3.822771819136392,19.520863000000002,-4.356971700000001,4.996951999999999,0.66981345,0
-1.3899999999999997,11.833598,-10.282812,2.2892265,-0.059804954,-0.48675206,-0.5914659000000001,-0.64005005,-7.4974527,0.69880825,-0.18271744,-5.179019,4.942052400000001,1.3167216999999998,20.220895198582234,-5.999999350227144,5.999975259867961,3.822771819136392,19.520863000000002,-4.356971700000001,4.996951999999999,0.66981345,0
-1.3799999999999997,11.7593155,-10.275307000000002,2.2874347999999998,-0.031475168,-0.48658422,-0.60973644,-0.6248734,-7.360661500000001,0.8039379,-0.17542416,-5.3076,5.1064989999999995,1.4396943000000002,20.220895198582234,-5.999999350227144,5.999975259867961,3.822771819136392,19.520863000000002,-4.356971700000001,4.996951999999999,0.66981345,0
-1.3699999999999997,11.686351,-10.266696000000001,2.2857213,-0.0025627035999999997,-0.48582542,-0.62783563,-0.6081034000000001,-7.2338309999999995,0.9200166,-0.16717316,-5.416109,5.245322,1.5566326000000001,20.220895198582234,-5.999999350227144,5.999975259867961,3.822771819136392,19.520863000000002,-4.356971700000001,4.996951999999999,0.66981345,0
-1.3599999999999997,11.6146,-10.256871,2.2840931,0.026780427000000002,-0.48442116,-0.64559615,-0.5897666,-7.1179705,1.0465931999999998,-0.15838702,-5.5076737,5.362519,1.6678327000000002,20.220895198582234,-5.999999350227144,5.999975259867961,3.822771819136392,19.422705,-3.8431660000000005,4.1471324,1.0264893,0
-1.3499999999999996,11.54395,-10.245731,2.282554,0.056415472,-0.48232895,-0.66286826,-0.56989634,-7.0140424,1.1830581,-0.14950277,-5.5849357,5.461461,1.7735763,20.220895198582234,-5.999999350227144,5.999975259867961,3.822771819136392,19.422705,-3.8431660000000005,4.1471324,1.0264893,0
-1.3399999999999996,11.474276,-10.23318,2.2811022000000003,0.08621521,-0.47951666,-0.6795173000000001,-0.54853165,-6.922946499999999,1.3286561000000001,-0.14096482,-5.6501245,5.544996299999999,1.8741308,20.220895198582234,-5.999999350227144,5.999975259867961,3.822771819136392,19.422705,-3.8431660000000005,4.1471324,1.0264893,0
-1.3299999999999996,11.405444000000001,-10.219130499999999,2.279732,0.11606254,-0.47596094,-0.6954224,-0.525717,-6.8455070000000005,1.4825,-0.13321833,-5.705124,5.6155276,1.9697512,20.220895198582234,-5.999999350227144,5.999975259867961,3.822771819136392,19.422705,-3.8431660000000005,4.1471324,1.0264893,0
-1.3199999999999996,11.337315,-10.203505499999999,2.2784332999999997,0.14584921,-0.4716459,-0.7104745,-0.501502,-6.782457000000001,1.6435843,-0.12670309999999999,-5.7515220000000005,5.675081700000001,2.0606793999999997,19.329069072547824,-5.911632241246233,3.70159395355073,1.5594319645749612,18.978199,-3.2977717000000006,2.8776789000000003,0.7851712,0
-1.3099999999999996,11.2697315,-10.1862755,2.2771697,0.17493407,-0.46610135,-0.7245767,-0.4765882000000001,-6.7365070000000005,1.8033822,-0.1263357,-5.775992400000001,5.3673773,2.036083,19.329069072547824,-5.911632241246233,3.70159395355073,1.5594319645749612,18.978199,-3.2977717000000006,2.8776789000000003,0.7851712,0
-1.2999999999999996,11.202535000000001,-10.167423,2.2759012999999997,0.20281400000000002,-0.45900545,-0.7377186,-0.45161033,-6.7050977,1.9676011999999998,-0.12753901,-5.796723,5.107660299999999,2.0126936,19.329069072547824,-5.911632241246233,3.70159395355073,1.5594319645749612,18.978199,-3.2977717000000006,2.8776789000000003,0.7851712,0
-1.2899999999999996,11.135579,-10.146914,2.2746136000000003,0.22958566,-0.45054382,-0.74991786,-0.42652538,-6.688268700000001,2.1348252,-0.13026108,-5.814285,4.888447,1.9904519,19.329069072547824,-5.911632241246233,3.70159395355073,1.5594319645749612,18.978199,-3.2977717000000006,2.8776789000000003,0.7851712,0
-1.2799999999999996,11.068719999999999,-10.124721000000001,2.2732909,0.25533122,-0.44087103,-0.76118153,-0.40129966,-6.6859746,2.30372,-0.13447843,-5.829161,4.7034187,1.9693015999999999,17.224562406156863,-4.17075672398921,1.71734823158062,0.8675207682254201,19.021182999999997,-3.1777365,1.5646111999999999,-0.14180723,0
-1.2699999999999996,11.001816,-10.100928999999999,2.2718682,0.27928346,-0.43032703,-0.77139896,-0.37651443,-6.696695299999999,2.4545844,-0.15023066,-5.5697865,4.2382717,1.9152368000000002,17.224562406156863,-4.17075672398921,1.71734823158062,0.8675207682254201,19.021182999999997,-3.1777365,1.5646111999999999,-0.14180723,0
-1.2599999999999996,10.934744,-10.075632,2.270282,0.30088159999999997,-0.41925374,-0.78058153,-0.35268837,-6.7194963,2.6047506,-0.16716486,-5.350989299999999,3.8455873,1.863825,17.224562406156863,-4.17075672398921,1.71734823158062,0.8675207682254201,19.021182999999997,-3.1777365,1.5646111999999999,-0.14180723,0
-1.2499999999999996,10.867386999999999,-10.0488405,2.2685215,0.32046685,-0.40775892,-0.78887874,-0.32970282,-6.753576,2.7533216,-0.18511422,-5.1664176,3.5140781000000003,1.814936,17.224562406156863,-4.17075672398921,1.71734823158062,0.8675207682254201,19.021182999999997,-3.1777365,1.5646111999999999,-0.14180723,0
-1.2399999999999995,10.799636999999999,-10.020575,2.2665772,0.33832693,-0.39592075,-0.79640234,-0.30744898,-6.798196300000001,2.8995482999999997,-0.20392644,-5.0107155,3.2342150000000003,1.768446,15.358544556357828,-2.0426551850431482,-0.3158304891378616,0.2291161773643673,17.611952,-3.2120642999999998,1.1595036,0.06336841,0
-1.2299999999999995,10.731411999999999,-9.990917,2.2644092999999996,0.35397485,-0.38415167,-0.80318224,-0.28640464,-6.848024400000001,3.0307896,-0.23004678,-4.590229,2.724385,1.6968014999999999,15.358544556357828,-2.0426551850431482,-0.3158304891378616,0.2291161773643673,17.611952,-3.2120642999999998,1.1595036,0.06336841,0
-1.2199999999999995,10.662656,-9.95998,2.2619686000000003,0.36692435,-0.37289038,-0.8093099,-0.26708946,-6.904456599999999,3.1559222,-0.25828698,-4.196778299999999,2.2553637,1.6251972,15.358544556357828,-2.0426551850431482,-0.3158304891378616,0.2291161773643673,17.611952,-3.2120642999999998,1.1595036,0.06336841,0
-1.2099999999999995,10.593302,-9.927811,2.2592425,0.37752002,-0.36215985,-0.8149436999999999,-0.24937059,-6.96745,3.2775207,-0.28688678,-3.860336,1.8549165,1.556691,15.358544556357828,-2.0426551850431482,-0.3158304891378616,0.2291161773643673,17.611952,-3.2120642999999998,1.1595036,0.06336841,0
-1.1999999999999995,10.523287,-9.894441,2.2562307999999995,0.38615236,-0.35191438,-0.8202029000000001,-0.23304477,-7.036270599999999,3.3958716,-0.31540114,-3.5764617999999997,1.5168298,1.4915466,14.328956975331499,-0.04320126829724994,-1.9954438262858905,-0.3290411341837905,17.901672,-2.7459817,-0.47421578,-0.3560342,0
-1.1899999999999995,10.452552,-9.859893,2.252942,0.3928003,-0.34238320000000005,-0.8251363000000002,-0.21824720000000003,-7.111211999999999,3.5126733999999997,-0.34258047,-3.155364,1.1000376,1.4138997,14.328956975331499,-0.04320126829724994,-1.9954438262858905,-0.3290411341837905,17.901672,-2.7459817,-0.47421578,-0.3560342,0
-1.1799999999999995,10.381056,-9.824208,2.2493746,0.39733183,-0.33383164,-0.8298065,-0.20519514,-7.1883216,3.6233437000000004,-0.37108904,-2.7575958,0.70577854,1.336271,14.328956975331499,-0.04320126829724994,-1.9954438262858905,-0.3290411341837905,17.901672,-2.7459817,-0.47421578,-0.3560342,0
-1.1699999999999995,10.308782,-9.787446000000001,2.2455168,0.39990455,-0.32625390000000004,-0.8343065999999999,-0.19382274,-7.2666492,3.7283912000000003,-0.40065327,-2.3812537,0.33228326,1.2588158,14.328956975331499,-0.04320126829724994,-1.9954438262858905,-0.3290411341837905,17.901672,-2.7459817,-0.47421578,-0.3560342,0
-1.1599999999999995,10.235722,-9.749659,2.241359,0.4006572,-0.3196357,-0.8387062,-0.18406196,-7.345453,3.8284203999999997,-0.43096307,-2.0260884999999997,-0.020588227,1.1817962,14.328956975331499,-0.04320126829724994,-1.9954438262858905,-0.3290411341837905,16.455982000000002,-2.174525,-0.71418667,-0.61160004,0
-1.1499999999999995,10.161868,-9.710887,2.2369,0.39977357,-0.31391695,-0.8430501,-0.17579451,-7.4254355,3.925618,-0.46060407,-1.7166365000000001,-0.3282441,1.107659,14.328956975331499,-0.04320126829724994,-1.9954438262858905,-0.3290411341837905,16.455982000000002,-2.174525,-0.71418667,-0.61160004,0
-1.1399999999999995,10.087209,-9.671153,2.2321513,0.39751664,-0.30897018,-0.84735805,-0.16882627,-7.506547500000001,4.0209364999999995,-0.4889425,-1.4555042,-0.58798724,1.0371597,14.328956975331499,-0.04320126829724994,-1.9954438262858905,-0.3290411341837905,16.455982000000002,-2.174525,-0.71418667,-0.61160004,0
-1.1299999999999994,10.011735,-9.630473,2.2271264,0.39411506,-0.3046747,-0.8516360000000001,-0.16298106,-7.5883020000000005,4.114621,-0.5158319,-1.235143,-0.80727595,0.9701197,14.328956975331499,-0.04320126829724994,-1.9954438262858905,-0.3290411341837905,16.455982000000002,-2.174525,-0.71418667,-0.61160004,0
-1.1199999999999994,9.935442,-9.588864,2.2218401,0.38975778,-0.30092493,-0.85588247,-0.15810846,-7.670288,4.206887999999999,-0.5411539000000001,-1.0491841999999998,-0.9924086,0.9063694999999999,14.565908619480105,1.5175340082931272,-3.0752070798453333,-0.8636291094627027,16.023525,-1.2104253999999999,-1.1897321,-0.9404504000000001,0
-1.1099999999999994,9.858314,-9.546321,2.2163236,0.3842393,-0.29801354,-0.86005557,-0.15444238,-7.755028200000001,4.301177,-0.56217784,-0.6765076999999999,-1.2892542,0.82202303,14.565908619480105,1.5175340082931272,-3.0752070798453333,-0.8636291094627027,16.023525,-1.2104253999999999,-1.1897321,-0.9404504000000001,0
-1.0999999999999994,9.780349000000001,-9.502849000000001,2.210598,0.37729618,-0.29624084,-0.8641236999999999,-0.15224667,-7.8376174,4.392936,-0.58275294,-0.33544296,-1.5664113000000002,0.7394161,14.565908619480105,1.5175340082931272,-3.0752070798453333,-0.8636291094627027,16.023525,-1.2104253999999999,-1.1897321,-0.9404504000000001,0
-1.0899999999999994,9.701564999999999,-9.458463,2.204675,0.36909682,-0.29545775,-0.8680795,-0.15136106,-7.9189215,4.484102200000001,-0.6015145000000001,-0.04645069,-1.8015648000000002,0.6607542,14.565908619480105,1.5175340082931272,-3.0752070798453333,-0.8636291094627027,16.023525,-1.2104253999999999,-1.1897321,-0.9404504000000001,0
-1.0799999999999994,9.621976,-9.413167,2.1985740000000003,0.35983652,-0.29549566,-0.8719036,-0.15160497,-7.9985285,4.5750589999999995,-0.6183404,0.19744029999999999,-2.0000927,0.5859523,15.011962398632832,2.5208030992729973,-3.769132483540569,-1.2505051987305784,15.356885,-0.14591220000000002,-1.4099607,-1.2234260000000001,0
-1.0699999999999994,9.541587,-9.366944,2.1923306,0.34941766,-0.29647976,-0.8755437,-0.15306924,-8.078759,4.669308,-0.63024247,0.5526495,-2.26878,0.49649248,15.011962398632832,2.5208030992729973,-3.769132483540569,-1.2505051987305784,15.356885,-0.14591220000000002,-1.4099607,-1.2234260000000001,0
-1.0599999999999994,9.460411,-9.319780999999999,2.1859752999999995,0.3377166,-0.2985305,-0.8789406999999999,-0.15585256,-8.155874,4.763501,-0.64050215,0.8595183000000001,-2.502707,0.41076678,15.011962398632832,2.5208030992729973,-3.769132483540569,-1.2505051987305784,15.356885,-0.14591220000000002,-1.4099607,-1.2234260000000001,0
-1.0499999999999994,9.37848,-9.271673,2.1795275000000003,0.32491428,-0.30145922,-0.8820573,-0.15977359,-8.229725,4.858381700000001,-0.6487224,1.1185046,-2.7001948,0.32924768,15.011962398632832,2.5208030992729973,-3.769132483540569,-1.2505051987305784,15.356885,-0.14591220000000002,-1.4099607,-1.2234260000000001,0
-1.0399999999999994,9.295829,-9.222610000000001,2.1730080000000003,0.31117016,-0.30509913,-0.8848562,-0.1646719,-8.299843,4.9541736,-0.65494263,1.3370836000000001,-2.8669152,0.25172877,15.521336545391344,2.865669857562061,-3.919512114602073,-1.5061322272879478,15.961854999999998,0.13563022,-0.82716954,-1.4669865,0
-1.0299999999999994,9.212485000000001,-9.172568,2.1664515,0.29655218,-0.30940998,-0.8872723,-0.17049886,-8.368039999999999,5.0543260000000005,-0.6560486,1.5753226999999999,-3.031116,0.16547005,15.521336545391344,2.865669857562061,-3.919512114602073,-1.5061322272879478,15.961854999999998,0.13563022,-0.82716954,-1.4669865,0
-1.0199999999999994,9.128484,-9.121519000000001,2.1598935,0.281121,-0.3143491,-0.8892426999999999,-0.17720814,-8.431502,5.155733000000001,-0.6552641,1.7763976000000001,-3.1697338,0.08344404400000001,15.521336545391344,2.865669857562061,-3.919512114602073,-1.5061322272879478,15.961854999999998,0.13563022,-0.82716954,-1.4669865,0
-1.0099999999999993,9.043873,-9.069449,2.1533525,0.26499215,-0.31978148,-0.89073765,-0.18467529,-8.489827,5.258485299999999,-0.65272194,1.9461085999999999,-3.2867506,0.0054430775,15.521336545391344,2.865669857562061,-3.919512114602073,-1.5061322272879478,15.961854999999998,0.13563022,-0.82716954,-1.4669865,0
-0.9999999999999991,8.958706,-9.016345,2.1468446,0.24826504,-0.32559237,-0.8917312,-0.19279312,-8.542653,5.3626165,-0.64857507,2.0893507,-3.3855293,-0.06873035400000001,15.681464984634456,2.612486000370737,-3.588446892759491,-1.6359869625506105,15.662460000000001,0.43539307,-0.75553834,-1.7158360000000001,0
-0.9899999999999991,8.873037,-8.962187,2.140391,0.23116929999999997,-0.331617,-0.89220077,-0.20141567,-8.590160000000001,5.469192,-0.6419252,2.1707606,-3.4172864,-0.14563610000000002,15.681464984634456,2.612486000370737,-3.588446892759491,-1.6359869625506105,15.662460000000001,0.43539307,-0.75553834,-1.7158360000000001,0
-0.9799999999999991,8.786924,-8.906957,2.1340106,0.21389748,-0.33772355,-0.8921386999999998,-0.21042533,-8.631594999999999,5.577053500000001,-0.6340214,2.2394807,-3.4440915999999997,-0.21876803,15.681464984634456,2.612486000370737,-3.588446892759491,-1.6359869625506105,15.662460000000001,0.43539307,-0.75553834,-1.7158360000000001,0
-0.9699999999999993,8.700426,-8.850641,2.1277144,0.19647922,-0.34386700000000003,-0.891544,-0.21977347,-8.666794,5.6860824,-0.6250638000000001,2.2974901,-3.4667158,-0.28831136,15.681464984634456,2.612486000370737,-3.588446892759491,-1.6359869625506105,15.662460000000001,0.43539307,-0.75553834,-1.7158360000000001,0
-0.9599999999999993,8.613608000000001,-8.79323,2.121512,0.17894086,-0.35000947,-0.89041626,-0.22941677,-8.695621000000001,5.796135400000001,-0.61525273,2.3464596,-3.4858097999999997,-0.35444218,15.681464984634456,2.612486000370737,-3.588446892759491,-1.6359869625506105,15.206593,0.17586967,-0.51538575,-1.5994403,0
-0.9499999999999993,8.526535,-8.7347145,2.1154113,0.16130605,-0.35611904,-0.8887558000000001,-0.23931636,-8.717958,5.9070506,-0.6047883000000001,2.3877987999999997,-3.5019236000000005,-0.41732797,15.681464984634456,2.612486000370737,-3.588446892759491,-1.6359869625506105,15.206593,0.17586967,-0.51538575,-1.5994403,0
-0.9399999999999993,8.439271000000002,-8.675086,2.1094174,0.143596,-0.36216894,-0.8865632999999999,-0.24943706,-8.733708,6.0186486,-0.5938694999999999,2.4226978,-3.5155206,-0.47712794,15.681464984634456,2.612486000370737,-3.588446892759491,-1.6359869625506105,15.206593,0.17586967,-0.51538575,-1.5994403,0
-0.9299999999999993,8.351882000000002,-8.614339,2.1035345000000003,0.12582986,-0.3681366,-0.8838401,-0.259747,-8.742792,6.130736,-0.5826938,2.4521610000000003,-3.5269932999999996,-0.5339935,15.681464984634456,2.612486000370737,-3.588446892759491,-1.6359869625506105,15.206593,0.17586967,-0.51538575,-1.5994403,0
-0.9199999999999993,8.264437,-8.55247,2.0977638,0.10802507,-0.37400302,-0.8805877000000001,-0.27021688,-8.745152000000001,6.243106,-0.5714566,2.4770353,-3.5366727999999994,-0.5880685999999999,15.107295021914751,1.8860358131064736,-2.894563655465661,-1.6015899725843097,14.600244,-0.1932067,-0.25354233,-1.7421775000000002,0
-0.9099999999999993,8.177000999999999,-8.489499,2.092085,0.090520315,-0.37957516,-0.8768950999999999,-0.28068343,-8.740936999999999,6.351422299999999,-0.56434464,2.3847959999999997,-3.4365785000000004,-0.63780236,15.107295021914751,1.8860358131064736,-2.894563655465661,-1.6015899725843097,14.600244,-0.1932067,-0.25354233,-1.7421775000000002,0
-0.8999999999999992,8.089641,-8.425445,2.0864759999999998,0.07358968,-0.38471234,-0.8728606,-0.2910236,-8.730385,6.4595675,-0.55750036,2.3069463,-3.3520906000000004,-0.68509567,15.107295021914751,1.8860358131064736,-2.894563655465661,-1.6015899725843097,14.600244,-0.1932067,-0.25354233,-1.7421775000000002,0
-0.8899999999999992,8.002415,-8.36031,2.0809338,0.0571597,-0.38946894,-0.86849606,-0.30126518,-8.713689,6.567317500000001,-0.55104744,2.241241,-3.2807760000000004,-0.7300683000000001,15.107295021914751,1.8860358131064736,-2.894563655465661,-1.6015899725843097,14.600244,-0.1932067,-0.25354233,-1.7421775000000002,0
-0.8799999999999992,7.9153867,-8.2941,2.0754535,0.041167606,-0.3938902,-0.86380965,-0.31142908,-8.691024,6.6744647,-0.54509914,2.1857857999999997,-3.2205812999999996,-0.7728341999999999,14.376625968794196,0.7616066835828785,-2.1258211681307304,-1.4404762068333468,14.371141,-0.7834631,0.15731953,-1.5627358,0
-0.8699999999999992,7.8286076,-8.226849000000001,2.0700046999999997,0.02595931,-0.39772588,-0.8589853999999999,-0.32137778,-8.6639595,6.775666,-0.5447502,1.9637063000000001,-3.0497843999999996,-0.8055956,14.376625968794196,0.7616066835828785,-2.1258211681307304,-1.4404762068333468,14.371141,-0.7834631,0.15731953,-1.5627358,0
-0.8599999999999992,7.742125,-8.158589,2.0645566000000004,0.011808343999999998,-0.40079440000000005,-0.8541979,-0.33101323,-8.631751,6.8759103,-0.5449702,1.7762558000000002,-2.905631,-0.8367493,14.376625968794196,0.7616066835828785,-2.1258211681307304,-1.4404762068333468,14.371141,-0.7834631,0.15731953,-1.5627358,0
-0.8499999999999992,7.6559887,-8.089334,2.0591035,-0.0014338432999999999,-0.40322024,-0.8494341999999999,-0.34040028,-8.594766,6.9750266000000005,-0.54572994,1.6180341999999999,-2.7839652999999998,-0.8663744000000001,14.376625968794196,0.7616066835828785,-2.1258211681307304,-1.4404762068333468,14.371141,-0.7834631,0.15731953,-1.5627358,0
-0.8399999999999992,7.5702453,-8.0190935,2.0536401,-0.013894486999999999,-0.405106,-0.8446787,-0.34959042,-8.553325,7.072872599999999,-0.5470001999999999,1.4844832000000001,-2.6812804,-0.89454573,13.876839579930914,-0.5769410004212271,-1.1143773858025776,-1.1218513765139042,14.145645000000002,-1.7825471999999998,0.37709770000000004,-1.2447721,0
-0.8299999999999992,7.484928999999999,-7.9478979999999995,2.048145,-0.025168193999999998,-0.40622944,-0.84015805,-0.35843850000000005,-8.509325,7.165973700000001,-0.55208653,1.1631298,-2.4367442,-0.9056996999999999,13.876839579930914,-0.5769410004212271,-1.1143773858025776,-1.1218513765139042,14.145645000000002,-1.7825471999999998,0.37709770000000004,-1.2447721,0
-0.8199999999999992,7.4000707,-7.8757787,2.0425975,-0.034940194,-0.40643206,-0.8360745999999999,-0.36683902,-8.461805,7.2576466,-0.5574844,0.8918729,-2.2303681,-0.9163063,13.876839579930914,-0.5769410004212271,-1.1143773858025776,-1.1218513765139042,14.145645000000002,-1.7825471999999998,0.37709770000000004,-1.2447721,0
-0.8099999999999992,7.3157034,-7.8027505999999995,2.036995,-0.04343427,-0.4058735,-0.83237314,-0.37487929999999997,-8.411247,7.3478354999999995,-0.56303334,0.66290236,-2.0561979999999997,-0.9263925,13.876839579930914,-0.5769410004212271,-1.1143773858025776,-1.1218513765139042,14.145645000000002,-1.7825471999999998,0.37709770000000004,-1.2447721,0
-0.7999999999999992,7.231855,-7.728828,2.0313368,-0.050840892,-0.40468407,-0.8289996999999999,-0.3826288,-8.358055,7.4365053,-0.5685901,0.46962607,-1.9092078999999997,-0.9359837,13.799186423277568,-1.8755812841002768,-0.08903568988192848,-0.6671648686516098,13.5785885,-2.473346,0.91242456,-0.6636058000000001,0
-0.7899999999999991,7.148548,-7.654028,2.025621,-0.056804917999999996,-0.4026966,-0.8261596999999999,-0.38995916,-8.302919000000001,7.523153,-0.57452977,0.10407931,-1.6251292,-0.92279273,13.799186423277568,-1.8755812841002768,-0.08903568988192848,-0.6671648686516098,13.5785885,-2.473346,0.91242456,-0.6636058000000001,0
-0.7799999999999991,7.065802000000001,-7.578369599999999,2.0198471999999996,-0.06105489,-0.3997895,-0.8240224,-0.39677070000000003,-8.246075,7.6083016,-0.58011097,-0.20449221,-1.3853924,-0.910249,13.799186423277568,-1.8755812841002768,-0.08903568988192848,-0.6671648686516098,13.5785885,-2.473346,0.91242456,-0.6636058000000001,0
-0.7699999999999991,6.9836307,-7.501867,2.0140206999999997,-0.06385342,-0.39611802,-0.8224859,-0.40314937,-8.188039,7.6919975,-0.58510715,-0.46496859999999995,-1.1830755,-0.8983208,13.799186423277568,-1.8755812841002768,-0.08903568988192848,-0.6671648686516098,13.5785885,-2.473346,0.91242456,-0.6636058000000001,0
-0.7599999999999991,6.902043300000001,-7.4245342999999995,2.008148,-0.06542286,-0.39180803,-0.8214566999999999,-0.4091632,-8.1292515,7.7742906000000005,-0.5893267,-0.6848454,-1.012337,-0.88697785,13.799186423277568,-1.8755812841002768,-0.08903568988192848,-0.6671648686516098,13.187304000000001,-3.6030235,1.6921375,0.012668338000000001,0
-0.7499999999999991,6.821047,-7.346385499999999,2.0022376,-0.06595143,-0.38696223,-0.8208506,-0.41486648,-8.070088,7.855228,-0.5926099,-0.8704504999999999,-0.86824757,-0.87619156,13.799186423277568,-1.8755812841002768,-0.08903568988192848,-0.6671648686516098,13.187304000000001,-3.6030235,1.6921375,0.012668338000000001,0
-0.7399999999999989,6.740642,-7.2674335999999995,1.9962995,-0.065598495,-0.38166479999999997,-0.82059354,-0.42030259999999997,-8.010866,7.9348545,-0.5948259,-1.0271257,-0.74664736,-0.86593455,13.799186423277568,-1.8755812841002768,-0.08903568988192848,-0.6671648686516098,13.187304000000001,-3.6030235,1.6921375,0.012668338000000001,0
-0.7299999999999989,6.660829,-7.187692599999999,1.9903451,-0.06449902,-0.37598512,-0.8206208,-0.42550656,-7.9518580000000005,8.01321,-0.5958697,-1.1593801000000001,-0.644026,-0.8561809000000001,13.799186423277568,-1.8755812841002768,-0.08903568988192848,-0.6671648686516098,13.187304000000001,-3.6030235,1.6921375,0.012668338000000001,0
-0.7199999999999989,6.581604,-7.1071740000000005,1.9843863999999998,-0.06276730400000001,-0.36998042,-0.8208764000000001,-0.43050662,-7.8933005000000005,8.09033,-0.5956587,-1.2710197,-0.55742097,-0.84690577,14.26540893556689,-2.8530517470223717,0.8161905549932452,-0.08027004182593353,14.614967000000002,-4.4284916,2.3339220000000003,0.32724515,0
-0.7099999999999989,6.5029707000000005,-7.025877499999999,1.9784533,-0.06006034,-0.36352903,-0.8215091999999998,-0.43515676,-7.833471,8.168816,-0.5907525,-1.5176098,-0.34310794,-0.8092866999999999,14.26540893556689,-2.8530517470223717,0.8161905549932452,-0.08027004182593353,14.614967000000002,-4.4284916,2.3339220000000003,0.32724515,0
-0.6999999999999991,6.4249306,-6.943802000000001,1.9725765,-0.056112225999999994,-0.3565355,-0.82263005,-0.43933228,-7.7747364,8.246144000000001,-0.5843523,-1.7257718999999998,-0.16224627,-0.7735135999999999,14.26540893556689,-2.8530517470223717,0.8161905549932452,-0.08027004182593353,14.614967000000002,-4.4284916,2.3339220000000003,0.32724515,0
-0.6899999999999991,6.3474708,-6.860958,1.9667716,-0.051116407,-0.3490777,-0.82414174,-0.44308174,-7.717492999999999,8.3224,-0.5763494,-1.9014933999999997,-0.00961303,-0.73949593,14.26540893556689,-2.8530517470223717,0.8161905549932452,-0.08027004182593353,14.614967000000002,-4.4284916,2.3339220000000003,0.32724515,0
-0.679999999999999,6.2705746,-6.777357,1.9610551999999999,-0.045236588,-0.34121996,-0.82595944,-0.44644457,-7.6620812,8.397651,-0.56666934,-2.0498288000000002,0.119198985,-0.7071475,14.450631128760572,-3.567801339575201,1.2064139179473965,0.5049912187038834,14.899761999999999,-4.9301233,2.7724613999999996,1.3201200000000002,0
-0.669999999999999,6.1942260000000005,-6.693003999999999,1.9554513,-0.038378745,-0.33284548,-0.8281443000000002,-0.4493519,-7.6081275999999995,8.472911999999999,-0.5538373999999999,-2.2864888,0.28877035,-0.64766747,14.450631128760572,-3.567801339575201,1.2064139179473965,0.5049912187038834,14.899761999999999,-4.9301233,2.7724613999999996,1.3201200000000002,0
-0.659999999999999,6.118403400000001,-6.6079025,1.9499847,-0.030477075,-0.3238611,-0.8307334999999999,-0.45173690000000005,-7.556741000000001,8.547252,-0.5391804,-2.4862642000000004,0.4318694,-0.5911062,14.450631128760572,-3.567801339575201,1.2064139179473965,0.5049912187038834,14.899761999999999,-4.9301233,2.7724613999999996,1.3201200000000002,0
-0.649999999999999,6.0430803,-6.5220623,1.9446740000000002,-0.021697897,-0.3143479,-0.83362573,-0.45363180000000003,-7.508300299999999,8.620696,-0.5226487,-2.6549017000000004,0.55263114,-0.5373204,14.450631128760572,-3.567801339575201,1.2064139179473965,0.5049912187038834,14.899761999999999,-4.9301233,2.7724613999999996,1.3201200000000002,0
-0.639999999999999,5.9682260000000005,-6.435492,1.9395381,-0.012182258999999999,-0.30437434,-0.8367341,-0.45506369999999996,-7.4631367,8.693255,-0.50423133,-2.7972537999999996,0.65454465,-0.48617384,14.649813931726696,-3.972942707534389,1.3365564152502762,1.0139486363425307,14.069799,-5.583979599999999,2.9492416,1.3241538,0
-0.629999999999999,5.8938084,-6.3481955999999995,1.9346039000000002,-0.0019513892,-0.29388544,-0.8400603999999999,-0.45598809999999995,-7.4209757,8.765908,-0.48231417,-2.9806042,0.76081955,-0.41256237,14.649813931726696,-3.972942707534389,1.3365564152502762,1.0139486363425307,14.069799,-5.583979599999999,2.9492416,1.3241538,0
-0.619999999999999,5.819792700000001,-6.260177,1.9298984000000001,0.008969495,-0.28283963,-0.8435974,-0.45635936,-7.382762,8.837625,-0.45852706,-3.1353734,0.8505043999999999,-0.3425631,14.649813931726696,-3.972942707534389,1.3365564152502762,1.0139486363425307,14.069799,-5.583979599999999,2.9492416,1.3241538,0
-0.6099999999999992,5.746137999999999,-6.171447,1.9254397,0.020464178,-0.27130920000000003,-0.8472632999999999,-0.45619807,-7.348797,8.908355,-0.43292007,-3.2660147999999998,0.9261915999999999,-0.27599868,14.649813931726696,-3.972942707534389,1.3365564152502762,1.0139486363425307,14.069799,-5.583979599999999,2.9492416,1.3241538,0
-0.5999999999999992,5.672801,-6.082014599999999,1.9212459,0.03243384,-0.25935656,-0.8509879000000001,-0.45552287,-7.3193410000000005,8.978038,-0.40557557,-3.3762891,0.99006844,-0.21270058,14.66981643452125,-3.985220963817728,1.0518816924720384,1.3770894321232334,15.036703,-5.3706017,2.5116169999999998,1.8022991000000002,0
-0.5899999999999992,5.599735,-5.9918904,1.9173346999999998,0.044688012,-0.24698128,-0.8547372999999999,-0.45434192,-7.294582000000001,9.04669,-0.37642723,-3.4713013,0.9995451,-0.13468911,14.66981643452125,-3.985220963817728,1.0518816924720384,1.3770894321232334,15.036703,-5.3706017,2.5116169999999998,1.8022991000000002,0
-0.5799999999999992,5.526892,-5.901086,1.9137226000000003,0.057069387,-0.23418868,-0.8584866,-0.45265734,-7.274726400000001,9.114096,-0.34576297,-3.5514947999999995,1.0075425999999998,-0.060505692,14.66981643452125,-3.985220963817728,1.0518816924720384,1.3770894321232334,15.036703,-5.3706017,2.5116169999999998,1.8022991000000002,0
-0.5699999999999992,5.454223000000001,-5.8096137,1.9104244,0.0695451,-0.22103699,-0.8621916,-0.4504785,-7.259905000000001,9.180124000000001,-0.31371477,-3.6191807000000003,1.0142938,0.010037512,14.66981643452125,-3.985220963817728,1.0518816924720384,1.3770894321232334,15.036703,-5.3706017,2.5116169999999998,1.8022991000000002,0
-0.5599999999999992,5.3816767,-5.7174883,1.9074528000000002,0.0820872,-0.20757678,-0.865814,-0.4478156,-7.250227000000001,9.244644000000001,-0.28043179999999995,-3.6763093000000002,1.0199945,0.07711914,14.66981643452125,-3.985220963817728,1.0518816924720384,1.3770894321232334,16.141531,-5.0006385,1.5068156000000001,2.696907,0
-0.5499999999999992,5.3092012,-5.6247263,1.9048194999999999,0.09467187,-0.19385211,-0.8693201999999999,-0.44467962,-7.24578,9.307525,-0.24607736,-3.7245269999999997,1.0248101,0.14090906,14.66981643452125,-3.985220963817728,1.0518816924720384,1.3770894321232334,16.141531,-5.0006385,1.5068156000000001,2.696907,0
-0.5399999999999991,5.236744,-5.531344,1.9025343999999997,0.107278734,-0.17990158,-0.87268114,-0.441082,-7.2466307,9.368636,-0.21082628,-3.7652227999999996,1.0288793999999999,0.20156877,14.66981643452125,-3.985220963817728,1.0518816924720384,1.3770894321232334,16.141531,-5.0006385,1.5068156000000001,2.696907,0
-0.5299999999999991,5.1642513,-5.43736,1.9006054000000001,0.119890295,-0.16575904,-0.87587106,-0.43703443,-7.2528276,9.42785,-0.17486274,-3.7995706,1.0323191999999999,0.2592519,14.66981643452125,-3.985220963817728,1.0518816924720384,1.3770894321232334,16.141531,-5.0006385,1.5068156000000001,2.696907,0
-0.5199999999999991,5.0916695999999995,-5.3427935,1.8990388999999999,0.13249147,-0.15145424,-0.8788674000000001,-0.43254897,-7.2644020000000005,9.485041,-0.13837834,-3.8285603999999998,1.0352283000000002,0.3141045,14.43580063291385,-3.6857889760215032,0.4446027467898537,1.5599828317770654,17.529875,-4.627322,0.5134244000000001,3.0746932,0
-0.5099999999999991,5.018946,-5.247669999999999,1.8978283,0.14480065,-0.13701771,-0.8816776,-0.42767079999999996,-7.2810807,9.5392,-0.103717774,-3.806314,0.94297326,0.37524009999999997,14.43580063291385,-3.6857889760215032,0.4446027467898537,1.5599828317770654,17.529875,-4.627322,0.5134244000000001,3.0746932,0
-0.4999999999999991,4.9460296999999995,-5.1520176,1.8969653000000002,0.15659489,-0.12247981,-0.8843204,-0.42243695,-7.302945599999999,9.591075,-0.06889807,-3.7875322999999996,0.86511356,0.43337575,14.43580063291385,-3.6857889760215032,0.4446027467898537,1.5599828317770654,17.529875,-4.627322,0.5134244000000001,3.0746932,0
-0.4899999999999989,4.872869000000001,-5.055858,1.8964504,0.16794139,-0.10786451400000001,-0.88679034,-0.41684848,-7.329864,9.640503,-0.034073237,-3.7716760000000003,0.79940367,0.48865870000000006,14.43580063291385,-3.6857889760215032,0.4446027467898537,1.5599828317770654,17.529875,-4.627322,0.5134244000000001,3.0746932,0
-0.47999999999999887,4.7994156,-4.9592165999999995,1.8962833,0.17889696,-0.09319237,-0.88908046,-0.41090846,-7.361708,9.687336,0.00060259737,-3.7582898,0.74394804,0.5412289,13.871698104575312,-3.128095207196435,-0.561749672110822,1.5752400379649265,18.302155,-4.312276,-0.6843895999999999,3.1595087000000004,0
-0.46999999999999886,4.725626,-4.862129,1.8964356,0.18906052,-0.07851576,-0.8912405999999999,-0.40469772,-7.396897999999999,9.729704,0.029808586,-3.6599576000000003,0.5402385000000001,0.5919681,13.871698104575312,-3.128095207196435,-0.561749672110822,1.5752400379649265,18.302155,-4.312276,-0.6843895999999999,3.1595087000000004,0
-0.45999999999999885,4.651463,-4.764632,1.8968782,0.19812007,-0.06388197,-0.8933288,-0.39828354,-7.436394,9.769264,0.058654994,-3.5769596,0.36830333,0.64021754,13.871698104575312,-3.128095207196435,-0.561749672110822,1.5752400379649265,18.302155,-4.312276,-0.6843895999999999,3.1595087000000004,0
-0.44999999999999885,4.5768847,-4.666754,1.8976073,0.20623991,-0.049299307,-0.89534444,-0.39165258,-7.4798946,9.805849,0.087084785,-3.506906,0.2231862,0.6860994,13.871698104575312,-3.128095207196435,-0.561749672110822,1.5752400379649265,18.302155,-4.312276,-0.6843895999999999,3.1595087000000004,0
-0.43999999999999884,4.5018525,-4.5685253,1.8986183,0.21355872,-0.034773856,-0.8972819,-0.38479525,-7.5271277,9.8393135,0.11503907,-3.447779,0.10070402,0.72972983,13.540683275506435,-2.399871875090059,-1.4318752324652797,1.434175852256559,18.401982999999998,-3.7103919999999997,-2.5642517000000002,3.0161827000000003,0
-0.4299999999999988,4.426337,-4.4699826,1.8998913,0.21977073,-0.02043511,-0.8991955,-0.37779546,-7.5766160000000005,9.868811,0.13947171,-3.2842422,-0.13829756,0.7642972,13.540683275506435,-2.399871875090059,-1.4318752324652797,1.434175852256559,18.401982999999998,-3.7103919999999997,-2.5642517000000002,3.0161827000000003,0
-0.4199999999999988,4.350310299999999,-4.371161,1.9014060000000002,0.2246438,-0.006388295400000001,-0.9011418,-0.37072432,-7.6291046,9.895024000000001,0.16340163,-3.1462176,-0.3400292,0.7971684,13.540683275506435,-2.399871875090059,-1.4318752324652797,1.434175852256559,18.401982999999998,-3.7103919999999997,-2.5642517000000002,3.0161827000000003,0
-0.4099999999999988,4.2737455,-4.272094200000001,1.9031577000000002,0.22838429999999998,0.0073963935,-0.90311116,-0.36355865,-7.684212700000001,9.917854,0.18685597,-3.0297267000000003,-0.51030344,0.8284265,13.540683275506435,-2.399871875090059,-1.4318752324652797,1.434175852256559,18.401982999999998,-3.7103919999999997,-2.5642517000000002,3.0161827000000003,0
-0.3999999999999988,4.1966186,-4.172816,1.9051416,0.23116586,0.020945475,-0.90508944,-0.35628000000000004,-7.741607000000001,9.937221000000001,0.20985307,-2.9314112999999997,-0.6540259,0.8581508,13.287648215968945,-1.5920080673361572,-2.032954805197815,1.1767347344938774,18.074965,-3.4575595999999997,-3.4954690000000004,2.9879339,0
-0.3899999999999988,4.1189127,-4.073363,1.9073421000000002,0.23280215,0.03408195,-0.9071154,-0.34897265,-7.799863,9.952767,0.23015718,-2.7224033,-0.8689803,0.8737838,13.287648215968945,-1.5920080673361572,-2.032954805197815,1.1767347344938774,18.074965,-3.4575595999999997,-3.4954690000000004,2.9879339,0
-0.3799999999999988,4.040615600000001,-3.9737720000000003,1.9097435,0.23315637,0.04666635400000001,-0.9092273999999999,-0.34170842,-7.859659,9.964837,0.2500986,-2.5460052,-1.050426,0.8886497,13.287648215968945,-1.5920080673361572,-2.032954805197815,1.1767347344938774,18.074965,-3.4575595999999997,-3.4954690000000004,2.9879339,0
-0.3699999999999988,3.9617147000000004,-3.874078,1.9123430000000001,0.23242882,0.05877181,-0.91140544,-0.33445704,-7.920614200000001,9.973431,0.26975155,-2.3971303,-1.2035869,0.90278614,13.287648215968945,-1.5920080673361572,-2.032954805197815,1.1767347344938774,18.074965,-3.4575595999999997,-3.4954690000000004,2.9879339,0
-0.35999999999999877,3.8822002,-3.7743154000000003,1.9151378000000001,0.23078747,0.070461206,-0.91362756,-0.32719377,-7.9823966,9.978556,0.28917515,-2.2714844,-1.3328725000000001,0.9162289,13.287648215968945,-1.5920080673361572,-2.032954805197815,1.1767347344938774,18.03763,-3.0997529999999998,-4.176837399999999,2.713034,0
-0.34999999999999876,3.8020650999999996,-3.6745186000000003,1.9181258999999997,0.22837332,0.081788525,-0.9158710999999999,-0.31989858,-8.044719,9.98022,0.30841374,-2.1654433999999996,-1.4420049,0.9290120000000001,13.287648215968945,-1.5920080673361572,-2.032954805197815,1.1767347344938774,18.03763,-3.0997529999999998,-4.176837399999999,2.713034,0
-0.33999999999999875,3.7213051,-3.5747225,1.9213054,0.22530479999999997,0.09280000599999999,-0.9181140999999999,-0.31255576,-8.107327,9.978437,0.32749817,-2.0759485,-1.5341254,0.94116783,13.287648215968945,-1.5920080673361572,-2.032954805197815,1.1767347344938774,18.03763,-3.0997529999999998,-4.176837399999999,2.713034,0
-0.32999999999999874,3.6399182999999997,-3.4749617999999995,1.9246752,0.22168146,0.10353525,-0.9203359,-0.30515307,-8.169998,9.973227,0.34644663,-2.0004183999999996,-1.6118864,0.9527271999999999,13.287648215968945,-1.5920080673361572,-2.032954805197815,1.1767347344938774,18.03763,-3.0997529999999998,-4.176837399999999,2.713034,0
-0.31999999999999873,3.5579052000000004,-3.3752701000000003,1.9282339,0.21758708,0.11402808,-0.92251724,-0.29768136,-8.2325325,9.964604,0.36526653,-1.9366743999999998,-1.6775259999999999,0.9637193000000002,13.122281063562314,-0.8867161668107467,-2.322356691426306,0.8869535541523201,17.580837,-2.5651495,-4.045301,2.1404867000000003,0
-0.3099999999999987,3.4752727,-3.2756805,1.9319728999999999,0.21289816,0.12408879,-0.9246895,-0.29021478,-8.293965,9.952753999999999,0.38250992,-1.7728753000000002,-1.77798,0.95995235,13.122281063562314,-0.8867161668107467,-2.322356691426306,0.8869535541523201,17.580837,-2.5651495,-4.045301,2.1404867000000003,0
-0.2999999999999987,3.392028,-3.1762261,1.9358839,0.20752239,0.13356857,-0.9268808000000001,-0.282816,-8.354830999999999,9.937652,0.39967468,-1.6346303999999998,-1.862785,0.95637023,13.122281063562314,-0.8867161668107467,-2.322356691426306,0.8869535541523201,17.580837,-2.5651495,-4.045301,2.1404867000000003,0
-0.2899999999999987,3.308179,-3.0769384,1.9399663,0.2015661,0.14254946,-0.9290691999999999,-0.27546350000000003,-8.414888000000001,9.919394500000001,0.41680634,-1.5179534,-1.934379,0.9529639000000001,13.122281063562314,-0.8867161668107467,-2.322356691426306,0.8869535541523201,17.580837,-2.5651495,-4.045301,2.1404867000000003,0
-0.2799999999999987,3.223734,-2.9778488,1.9442201000000001,0.19511847,0.15110114,-0.93123424,-0.26813987,-8.473931,9.898072,0.43393648,-1.4194792999999999,-1.9948198000000001,0.9497247999999999,12.630419756229804,-0.2484697366116101,-2.49879489878402,0.5462344242011461,17.107094,-1.6512238999999997,-4.1608443,1.5102152,0
-0.2699999999999989,3.1387153,-2.8789825,1.9486235,0.18811451,0.15907164,-0.93339944,-0.26090917,-8.529597,9.874689,0.44677103,-1.2368392,-2.0732858,0.92992544,12.630419756229804,-0.2484697366116101,-2.49879489878402,0.5462344242011461,17.107094,-1.6512238999999997,-4.1608443,1.5102152,0
-0.2599999999999989,3.0531467999999995,-2.780364,1.9531556,0.18050739999999998,0.16634384,-0.9355844999999999,-0.2538257,-8.583884,9.848583,0.45968184,-1.0826895,-2.1395369,0.9110976000000001,12.630419756229804,-0.2484697366116101,-2.49879489878402,0.5462344242011461,17.107094,-1.6512238999999997,-4.1608443,1.5102152,0
-0.2499999999999989,2.9670432,-2.6820195,1.9578174,0.17239009,0.17301932,-0.937765,-0.24686383,-8.636586,9.819898,0.4727197,-0.95258576,-2.1954746,0.89319366,12.630419756229804,-0.2484697366116101,-2.49879489878402,0.5462344242011461,17.107094,-1.6512238999999997,-4.1608443,1.5102152,0
-0.23999999999999888,2.8804212000000002,-2.5839744,1.9626105,0.16384038,0.17918406,-0.93991876,-0.24000233,-8.687526,9.788762,0.48591986,-0.8427768,-2.2427040000000003,0.87616825,12.216994256162687,0.29964266305123743,-2.24865199344836,0.21261569014443368,16.78833,-1.086275,-4.290973999999999,1.152089,0
-0.22999999999999865,2.7933075,-2.4862467999999995,1.9675183,0.15495853,0.18468758,-0.9420408000000001,-0.23331639,-8.734943,9.756401,0.49565846,-0.66466427,-2.2435155,0.8436075000000001,12.216994256162687,0.29964266305123743,-2.24865199344836,0.21261569014443368,16.78833,-1.086275,-4.290973999999999,1.152089,0
-0.21999999999999864,2.7057292,-2.3888535,1.9725244999999998,0.14582846,0.18941627,-0.9441315999999998,-0.2268703,-8.780377,9.721983999999999,0.5056141,-0.5143259,-2.2442234,0.81264454,12.216994256162687,0.29964266305123743,-2.24865199344836,0.21261569014443368,16.78833,-1.086275,-4.290973999999999,1.152089,0
-0.20999999999999863,2.617707,-2.2918136000000002,1.9776314,0.1364879,0.19348662,-0.9461787,-0.22063333,-8.823717,9.685698,0.51581866,-0.3874307,-2.2448392000000004,0.783201,12.216994256162687,0.29964266305123743,-2.24865199344836,0.21261569014443368,16.78833,-1.086275,-4.290973999999999,1.152089,0
-0.19999999999999862,2.5292623,-2.1951454,1.9828417,0.12696816,0.1969969,-0.94816995,-0.21457939999999998,-8.864867,9.64771,0.52629286,-0.28032270000000004,-2.245374,0.7552021,11.876262571998335,0.630436613410318,-1.7853688232472944,-0.07677601572633448,15.970501,-0.8379103999999999,-4.1864996,0.91206944,0
-0.18999999999999884,2.4404228,-2.0988592999999995,1.9881431,0.11743624,0.19986972,-0.9500913000000001,-0.20877399,-8.90267,9.609278,0.53401315,-0.13838357,-2.173563,0.71437675,11.876262571998335,0.630436613410318,-1.7853688232472944,-0.07677601572633448,15.970501,-0.8379103999999999,-4.1864996,0.91206944,0
-0.17999999999999883,2.3512162999999995,-2.002964,1.993523,0.10802641,0.20205034,-0.9519376,-0.20327304,-8.938247,9.569537,0.5420214,-0.018568308999999998,-2.1129682,0.67555463,11.876262571998335,0.630436613410318,-1.7853688232472944,-0.07677601572633448,15.970501,-0.8379103999999999,-4.1864996,0.91206944,0
-0.16999999999999882,2.2616656,-1.9074721000000001,1.9989845000000002,0.098718174,0.20364523,-0.9537093000000001,-0.19804323,-8.971588,9.528672,0.55032873,0.082571484,-2.0618365,0.6386376,11.876262571998335,0.630436613410318,-1.7853688232472944,-0.07677601572633448,15.970501,-0.8379103999999999,-4.1864996,0.91206944,0
-0.1599999999999988,2.1717925,-1.8123938000000002,2.0045304,0.0894938,0.20474385,-0.9554054,-0.19305588,-9.002687,9.486847000000001,0.55894077,0.16794656,-2.0186898999999996,0.603532,11.876262571998335,0.630436613410318,-1.7853688232472944,-0.07677601572633448,15.975745000000002,-0.7618381999999999,-3.9629605000000003,0.6531519,0
-0.1499999999999988,2.0816195,-1.7177379000000002,2.0101643,0.08033809,0.20542137,-0.9570242,-0.18828638,-9.031542,9.4442,0.56785804,0.24001406,-1.9822804,0.5701491,11.876262571998335,0.630436613410318,-1.7853688232472944,-0.07677601572633448,15.975745000000002,-0.7618381999999999,-3.9629605000000003,0.6531519,0
-0.1399999999999988,1.991169,-1.6235121000000001,2.0158885,0.071238056,0.20574103,-0.9585636999999999,-0.18371345,-9.058147,9.400852,0.5770764,0.30084829999999996,-1.9515557000000001,0.53840435,11.876262571998335,0.630436613410318,-1.7853688232472944,-0.07677601572633448,15.975745000000002,-0.7618381999999999,-3.9629605000000003,0.6531519,0
-0.12999999999999878,1.900464,-1.5297228999999999,2.0217063000000004,0.062182706,0.20575596,-0.9600218,-0.17931873,-9.082499499999999,9.356910000000001,0.58658737,0.35220045,-1.9256278000000002,0.5082172,11.876262571998335,0.630436613410318,-1.7853688232472944,-0.07677601572633448,15.975745000000002,-0.7618381999999999,-3.9629605000000003,0.6531519,0
-0.11999999999999877,1.8095267,-1.4363756,2.0276213,0.0531628,0.20551085,-0.96139646,-0.17508626,-9.104597,9.312466,0.5963786999999999,0.39554834,-1.9037473999999999,0.47951144,11.487637456626912,0.7329589081857708,-1.2741880330636866,-0.3059360298198025,15.138287,-1.3649089,-3.8323684,0.5721782,0
