time-since-start [s],throttle_mpc,roll_mpc,pitch_mpc,yaw_mpc,throttle_nw,roll_nw,pitch_nw,yaw_nw,position_x [m],position_y [m],position_z [m],rotation_w [quaternion],rotation_x [quaternion],rotation_y [quaternion],rotation_z [quaternion],velocity_x [m/s],velocity_y [m/s],velocity_z [m/s],omega_x [rad/s],omega_y [rad/s],omega_z [rad/s],network_used
0.0,10.05396075577257,5.9999988439420155,-5.999999898230598,-3.883356191022881,12.7070675,1.0905328,-4.6593685,-0.8356653,17.93395,-9.856148,1.608035,0.12631741,0.40383235,-0.16233017,-0.8914103,-9.325946,-4.78188,-0.4484683,2.780125,-0.2111253,-0.62311405,0
0.01,10.05396075577257,5.9999988439420155,-5.999999898230598,-3.883356191022881,13.61255,0.4642847,-4.9131484,-0.5705541,17.840313,-9.903864,1.6033739,0.09189919,0.38359916,-0.18483597,-0.9001344,-9.401136,-4.760195,-0.48349115,5.999999,-6.0,-3.883356,0
0.02,10.05396075577257,5.9999988439420155,-5.999999898230598,-3.883356191022881,13.61255,0.4642847,-4.9131484,-0.5705541,17.745943,-9.951326,1.5983704,0.05728094,0.36253104,-0.20693946,-0.90689915,-9.472404,-4.7311015,-0.51696026,5.999999,-6.0,-3.883356,0
0.03,10.05396075577257,5.9999988439420155,-5.999999898230598,-3.883356191022881,13.61255,0.4642847,-4.9131484,-0.5705541,17.650883,-9.998462,1.5930393,0.02253801,0.34067383,-0.22859251,-0.91169006,-9.53907,-4.694957,-0.5490933,5.999999,-6.0,-3.883356,0
0.04,10.05396075577257,5.9999988439420155,-5.999999898230598,-3.883356191022881,13.404872,-1.4043951,-3.5518234,-0.028091963,17.555182,-10.045201,1.5873923,-0.0122539755,0.3180751,-0.24974802,-0.91449654,-9.6005,-4.652177,-0.58011967,5.999999,-6.0,-3.883356,0
0.05,10.05396075577257,5.9999988439420155,-5.999999898230598,-3.883356191022881,13.404872,-1.4043951,-3.5518234,-0.028091963,17.458893,-10.091483,1.5814397,-0.047019288,0.29478407,-0.27035993,-0.9153125,-9.656099,-4.603237,-0.6102785,5.999999,-6.0,-3.883356,0
0.060000000000000005,10.05396075577257,5.9999988439420155,-5.999999898230598,-3.883356191022881,13.404872,-1.4043951,-3.5518234,-0.028091963,17.36208,-10.137247,1.5751889,-0.081682265,0.2708514,-0.29038337,-0.91413623,-9.70533,-4.548665,-0.63981616,5.999999,-6.0,-3.883356,0
0.07,10.05396075577257,5.9999988439420155,-5.999999898230598,-3.883356191022881,13.404872,-1.4043951,-3.5518234,-0.028091963,17.264809,-10.18244,1.5686446,-0.11616744,0.24632917,-0.30977476,-0.9109702,-9.747705,-4.489039,-0.6689846,5.999999,-6.0,-3.883356,0
0.08,16.84841701946273,5.73139548666363,-5.999999785218388,-1.7345074635921625,14.598858,-1.8388321,-1.9728328,-0.094646275,17.16715,-10.227013,1.5618095,-0.15039977,0.2212708,-0.3284919,-0.9058214,-9.782801,-4.424979,-0.698039,5.999999,-6.0,-3.883356,0
0.09,16.84841701946273,5.73139548666363,-5.999999785218388,-1.7345074635921625,14.598858,-1.8388321,-1.9728328,-0.094646275,17.069082,-10.270699,1.5549165,-0.17430899,0.19244486,-0.3477182,-0.9009293,-9.828886,-4.3114057,-0.68060184,5.7313957,-6.0,-1.7345074,0
0.09999999999999999,16.84841701946273,5.73139548666363,-5.999999785218388,-1.7345074635921625,14.598858,-1.8388321,-1.9728328,-0.094646275,16.970617,-10.313224,1.5481955,-0.19790511,0.16327327,-0.36631995,-0.89441895,-9.86195,-4.192804,-0.66375864,5.7313957,-6.0,-1.7345074,0
0.10999999999999999,16.84841701946273,5.73139548666363,-5.999999785218388,-1.7345074635921625,14.598858,-1.8388321,-1.9728328,-0.094646275,16.87189,-10.354541,1.5416371,-0.22114576,0.13380842,-0.3842637,-0.8863021,-9.8817,-4.070142,-0.64812386,5.7313957,-6.0,-1.7345074,0
0.11999999999999998,16.84841701946273,5.73139548666363,-5.999999785218388,-1.7345074635921625,14.598858,-1.8388321,-1.9728328,-0.094646275,16.773031,-10.394616,1.5352266,-0.2439892,0.10410321,-0.40151724,-0.87659335,-9.887938,-3.9444182,-0.6343032,5.7313957,-6.0,-1.7345074,0
0.12999999999999998,20.999956957373236,2.651551995609333,-5.999999133133352,-0.07767073244953299,14.642564,-3.0157037,-0.90265304,0.023352329,16.674177,-10.433422,1.5289428,-0.26639438,0.07421102,-0.41804957,-0.86531,-9.880566,-3.8166525,-0.6228895,5.7313957,-6.0,-1.7345074,0
0.13999999999999999,20.999956957373236,2.651551995609333,-5.999999133133352,-0.07767073244953299,14.642564,-3.0157037,-0.90265304,0.023352329,16.575487,-10.47079,1.5228955,-0.28011,0.04484762,-0.4212755,-0.86142564,-9.855679,-3.6573172,-0.5865356,2.651552,-5.999999,-0.07767073,0
0.15,20.999956957373236,2.651551995609333,-5.999999133133352,-0.07767073244953299,14.642564,-3.0157037,-0.90265304,0.023352329,16.47711,-10.506578,1.5172126,-0.29352424,0.015435975,-0.42404822,-0.85661453,-9.817309,-3.5007813,-0.5500646,2.651552,-5.999999,-0.07767073,0
0.16,20.86721311163121,0.36055164902396614,-2.8874258155735473,-0.08834845687785889,15.202427,-3.5040302,1.0625196,-0.65839607,16.379187,-10.540818,1.5118926,-0.3066227,-0.013992276,-0.42636472,-0.8508818,-9.765624,-3.3477254,-0.5140472,2.651552,-5.999999,-0.07767073,0
0.17,20.86721311163121,0.36055164902396614,-2.8874258155735473,-0.08834845687785889,15.202427,-3.5040302,1.0625196,-0.65839607,16.281834,-10.573551,1.5069261,-0.3130961,-0.026639061,-0.423433,-0.84968555,-9.7041235,-3.1992028,-0.47910652,0.36055166,-2.887426,-0.088348456,0
0.18000000000000002,20.86721311163121,0.36055164902396614,-2.8874258155735473,-0.08834845687785889,15.202427,-3.5040302,1.0625196,-0.65839607,16.185123,-10.604813,1.502313,-0.3195032,-0.039280202,-0.4204116,-0.84830934,-9.637397,-3.053671,-0.44338137,0.36055166,-2.887426,-0.088348456,0
0.19000000000000003,20.86721311163121,0.36055164902396614,-2.8874258155735473,-0.08834845687785889,15.202427,-3.5040302,1.0625196,-0.65839607,16.089106,-10.634635,1.4980606,-0.32584256,-0.051913023,-0.4173011,-0.84675336,-9.565503,-2.9112556,-0.406981,0.36055166,-2.887426,-0.088348456,0
0.20000000000000004,19.573004607415132,-0.11905906005068928,-0.32727412464378397,-0.30240859813520976,14.5153475,-3.5563722,3.2581549,-0.65229374,15.993833,-10.66305,1.4941752,-0.3321129,-0.06453484,-0.4141022,-0.84501797,-9.488506,-2.7720802,-0.3700152,0.36055166,-2.887426,-0.088348456,0
0.21000000000000005,19.573004607415132,-0.11905906005068928,-0.32727412464378397,-0.30240859813520976,14.5153475,-3.5563722,3.2581549,-0.65229374,15.899323,-10.690127,1.4906197,-0.33410576,-0.06509359,-0.4131522,-0.84465444,-9.413181,-2.643675,-0.34103855,-0.11905906,-0.3272741,-0.3024086,0
0.22000000000000006,19.573004607415132,-0.11905906005068928,-0.32727412464378397,-0.30240859813520976,14.5153475,-3.5563722,3.2581549,-0.65229374,15.80557,-10.715924,1.4873552,-0.33609685,-0.06565198,-0.41219997,-0.84428644,-9.337483,-2.5157673,-0.3117827,-0.11905906,-0.3272741,-0.3024086,0
0.23000000000000007,19.573004607415132,-0.11905906005068928,-0.32727412464378397,-0.30240859813520976,14.5153475,-3.5563722,3.2581549,-0.65229374,15.712575,-10.740445,1.4843849,-0.33808616,-0.06621004,-0.41124558,-0.843914,-9.261414,-2.3883588,-0.28224784,-0.11905906,-0.3272741,-0.3024086,0
0.24000000000000007,19.573004607415132,-0.11905906005068928,-0.32727412464378397,-0.30240859813520976,15.39122,-3.160769,4.7385554,-0.7928501,15.620343,-10.763694,1.4817114,-0.34007365,-0.066767745,-0.410289,-0.843537,-9.184975,-2.261451,-0.25243425,-0.11905906,-0.3272741,-0.3024086,0
0.25000000000000006,19.573004607415132,-0.11905906005068928,-0.32727412464378397,-0.30240859813520976,15.39122,-3.160769,4.7385554,-0.7928501,15.528877,-10.785676,1.4793373,-0.3420593,-0.06732509,-0.40933022,-0.8431555,-9.10817,-2.1350462,-0.22234215,-0.11905906,-0.3272741,-0.3024086,0
0.26000000000000006,19.573004607415132,-0.11905906005068928,-0.32727412464378397,-0.30240859813520976,15.39122,-3.160769,4.7385554,-0.7928501,15.438181,-10.8063965,1.4772655,-0.3440432,-0.06788208,-0.40836927,-0.84276956,-9.031002,-2.0091467,-0.19197178,-0.11905906,-0.3272741,-0.3024086,0
0.2700000000000001,19.573004607415132,-0.11905906005068928,-0.32727412464378397,-0.30240859813520976,15.39122,-3.160769,4.7385554,-0.7928501,15.348259,-10.82586,1.4754987,-0.34602523,-0.068438716,-0.40740615,-0.8423791,-8.953473,-1.883754,-0.1613234,-0.11905906,-0.3272741,-0.3024086,0
0.2800000000000001,18.24587689644498,-0.4453923166980886,1.4148615496107664,-0.467304869850327,17.098633,-3.4797397,5.3073874,-0.7514468,15.259113,-10.844072,1.4740399,-0.3480054,-0.06899497,-0.40644085,-0.8419842,-8.875586,-1.7588702,-0.13039725,-0.11905906,-0.3272741,-0.3024086,0
0.2900000000000001,18.24587689644498,-0.4453923166980886,1.4148615496107664,-0.467304869850327,17.098633,-3.4797397,5.3073874,-0.7514468,15.170719,-10.861079,1.4728478,-0.34724057,-0.061311845,-0.40717658,-0.84253883,-8.8036585,-1.6422619,-0.10799995,-0.4453923,1.4148616,-0.46730486,0
0.3000000000000001,18.24587689644498,-0.4453923166980886,1.4148615496107664,-0.467304869850327,17.098633,-3.4797397,5.3073874,-0.7514468,15.083033,-10.876914,1.4718803,-0.34645474,-0.053625017,-0.40788773,-0.8430425,-8.734105,-1.5243591,-0.08546926,-0.4453923,1.4148616,-0.46730486,0
0.3100000000000001,18.24587689644498,-0.4453923166980886,1.4148615496107664,-0.467304869850327,17.098633,-3.4797397,5.3073874,-0.7514468,14.996029,-10.891562,1.4711387,-0.34564793,-0.045934953,-0.4085742,-0.84349525,-8.666936,-1.4051801,-0.062841184,-0.4453923,1.4148616,-0.46730486,0
0.3200000000000001,17.142415920037735,-0.7283526235369543,3.1175770571288184,-0.5819043228392413,17.456873,-3.4175875,4.96939,-0.65226203,14.909686,-10.905013,1.4706236,-0.34482026,-0.03824211,-0.40923592,-0.843897,-8.602162,-1.2847438,-0.040151767,-0.4453923,1.4148616,-0.46730486,0
0.3300000000000001,17.142415920037735,-0.7283526235369543,3.1175770571288184,-0.5819043228392413,17.456873,-3.4175875,4.96939,-0.65226203,14.8239565,-10.917289,1.4702988,-0.34099028,-0.022636732,-0.4115947,-0.8448684,-8.544501,-1.169843,-0.024863046,-0.7283526,3.117577,-0.58190435,0
0.34000000000000014,17.142415920037735,-0.7283526235369543,3.1175770571288184,-0.5819043228392413,17.456873,-3.4175875,4.96939,-0.65226203,14.738779,-10.928401,1.470125,-0.33707002,-0.007025365,-0.41384447,-0.8456162,-8.491628,-1.0522859,-0.009964883,-0.7283526,3.117577,-0.58190435,0
0.35000000000000014,17.142415920037735,-0.7283526235369543,3.1175770571288184,-0.5819043228392413,17.456873,-3.4175875,4.96939,-0.65226203,14.654107,-10.938324,1.4700975,-0.33306053,0.008587863,-0.41598472,-0.84614015,-8.443583,-0.9321756,0.0044030454,-0.7283526,3.117577,-0.58190435,0
0.36000000000000015,16.385713886333406,-0.7644859042038534,3.030682324481772,-0.651365590373211,17.231384,-3.676935,5.4512515,-0.57424194,14.569891,-10.947036,1.4702107,-0.32896286,0.024198817,-0.41801485,-0.8464402,-8.400402,-0.8096175,0.018101636,-0.7283526,3.117577,-0.58190435,0
0.37000000000000016,16.385713886333406,-0.7644859042038534,3.030682324481772,-0.651365590373211,17.231384,-3.676935,5.4512515,-0.57424194,14.486073,-10.954537,1.4704324,-0.32525095,0.03964037,-0.41963217,-0.8464921,-8.36378,-0.6902706,0.02612565,-0.7644859,3.0306823,-0.6513656,0
0.38000000000000017,16.385713886333406,-0.7644859042038534,3.030682324481772,-0.651365590373211,17.231384,-3.676935,5.4512515,-0.57424194,14.402599,-10.9608345,1.4707304,-0.32145616,0.055071823,-0.42114255,-0.8463283,-8.331786,-0.56888866,0.033334542,-0.7644859,3.0306823,-0.6513656,0
0.3900000000000002,16.385713886333406,-0.7644859042038534,3.030682324481772,-0.651365590373211,17.231384,-3.676935,5.4512515,-0.57424194,14.319422,-10.965909,1.4710959,-0.31757945,0.07048924,-0.42254558,-0.84594876,-8.3044405,-0.44557187,0.03960053,-0.7644859,3.0306823,-0.6513656,0
0.4000000000000002,15.938953788097972,-0.6451626033938119,2.1226931703786684,-0.7000532281520159,15.194192,-3.1049204,4.66436,-0.7222267,14.236494,-10.969741,1.4715188,-0.3136218,0.085888706,-0.4238409,-0.84535366,-8.281755,-0.32042256,0.04479681,-0.7644859,3.0306823,-0.6513656,0
0.4100000000000002,15.938953788097972,-0.6451626033938119,2.1226931703786684,-0.7000532281520159,15.194192,-3.1049204,4.66436,-0.7222267,14.1537695,-10.972329,1.4719743,-0.3117841,0.09735001,-0.42411324,-0.8446544,-8.26376,-0.19721459,0.046195533,-0.6451626,2.122693,-0.7000532,0
0.4200000000000002,15.938953788097972,-0.6451626033938119,2.1226931703786684,-0.7000532281520159,15.194192,-3.1049204,4.66436,-0.7222267,14.071207,-10.9736805,1.47244,-0.3099042,0.10879814,-0.4243282,-0.84384084,-8.249052,-0.07295663,0.04682587,-0.6451626,2.122693,-0.7000532,0
0.4300000000000002,15.938953788097972,-0.6451626033938119,2.1226931703786684,-0.7000532281520159,15.194192,-3.1049204,4.66436,-0.7222267,13.988776,-10.9737835,1.4729078,-0.30798236,0.12023155,-0.42448574,-0.8429131,-8.237631,0.052303933,0.046620615,-0.6451626,2.122693,-0.7000532,0
0.4400000000000002,15.938953788097972,-0.6451626033938119,2.1226931703786684,-0.7000532281520159,14.205115,-3.0577548,4.329265,-0.602753,13.906444,-10.97263,1.4733691,-0.30601892,0.13164869,-0.42458588,-0.8418713,-8.229492,0.17851913,0.045513023,-0.6451626,2.122693,-0.7000532,0
0.45000000000000023,15.938953788097972,-0.6451626033938119,2.1226931703786684,-0.7000532281520159,14.205115,-3.0577548,4.329265,-0.602753,13.824176,-10.970209,1.4738146,-0.30401403,0.14304802,-0.42462856,-0.84071565,-8.224632,0.3056405,0.043436825,-0.6451626,2.122693,-0.7000532,0
0.46000000000000024,15.938953788097972,-0.6451626033938119,2.1226931703786684,-0.7000532281520159,14.205115,-3.0577548,4.329265,-0.602753,13.7419405,-10.966513,1.4742343,-0.30196804,0.15442799,-0.42461377,-0.8394462,-8.223042,0.43361905,0.0403263,-0.6451626,2.122693,-0.7000532,0
0.47000000000000025,15.938953788097972,-0.6451626033938119,2.1226931703786684,-0.7000532281520159,14.205115,-3.0577548,4.329265,-0.602753,13.659704,-10.961534,1.4746175,-0.29988116,0.16578707,-0.42454153,-0.83806324,-8.224714,0.56240535,0.03611628,-0.6451626,2.122693,-0.7000532,0
0.48000000000000026,15.62137867746277,-0.5257716864869493,1.2972230304864516,-0.6942266421714679,13.4997,-3.4205284,3.9745827,-0.29330713,13.577435,-10.955263,1.4749527,-0.29775372,0.17712374,-0.42441186,-0.8365668,-8.229639,0.6919495,0.030742183,-0.6451626,2.122693,-0.7000532,0
0.49000000000000027,15.62137867746277,-0.5257716864869493,1.2972230304864516,-0.6942266421714679,13.4997,-3.4205284,3.9745827,-0.29330713,13.495102,-10.947706,1.4752197,-0.29743007,0.18480027,-0.42351615,-0.8354746,-8.237228,0.8194738,0.022543836,-0.5257717,1.297223,-0.6942266,0
0.5000000000000002,15.62137867746277,-0.5257716864869493,1.2972230304864516,-0.6942266421714679,13.4997,-3.4205284,3.9745827,-0.29330713,13.4126835,-10.938872,1.4754014,-0.2970883,0.19246553,-0.42259458,-0.8343314,-8.246884,0.9473087,0.013703819,-0.5257717,1.297223,-0.6942266,0
0.5100000000000002,15.62137867746277,-0.5257716864869493,1.2972230304864516,-0.6942266421714679,13.4997,-3.4205284,3.9745827,-0.29330713,13.330158,-10.92876,1.4754914,-0.2967284,0.20011905,-0.42164722,-0.83313733,-8.258601,1.0754378,0.004193042,-0.5257717,1.297223,-0.6942266,0
0.5200000000000002,15.500212615232776,-0.38390316953650855,0.3305731533500812,-0.6644518784209476,12.655988,-3.294846,3.255784,-0.22191769,13.247505,-10.917364,1.4754828,-0.2963504,0.20776035,-0.42067412,-0.8318924,-8.27237,1.2038441,-0.00601741,-0.5257717,1.297223,-0.6942266,0
0.5300000000000002,15.500212615232776,-0.38390316953650855,0.3305731533500812,-0.6644518784209476,12.655988,-3.294846,3.255784,-0.22191769,13.164707,-10.904688,1.475366,-0.29801747,0.21109998,-0.41887322,-0.83136463,-8.287593,1.3313748,-0.017343199,-0.38390318,0.33057314,-0.6644519,0
0.5400000000000003,15.500212615232776,-0.38390316953650855,0.3305731533500812,-0.6644518784209476,12.655988,-3.294846,3.255784,-0.22191769,13.081752,-10.890738,1.475136,-0.2996793,0.21443592,-0.41706502,-0.8308224,-8.303592,1.4587883,-0.028636381,-0.38390318,0.33057314,-0.6644519,0
0.5500000000000003,15.500212615232776,-0.38390316953650855,0.3305731533500812,-0.6644518784209476,12.655988,-3.294846,3.255784,-0.22191769,12.9986315,-10.875513,1.4747934,-0.3013359,0.21776812,-0.41524953,-0.83026564,-8.320367,1.5860842,-0.039903503,-0.38390318,0.33057314,-0.6644519,0
0.5600000000000003,15.427505163908357,-0.25338536491757063,-0.24370493657370426,-0.605637757188821,12.776687,-2.908943,1.6454722,-0.38970977,12.91534,-10.859015,1.4743383,-0.30298725,0.2210965,-0.41342676,-0.82969445,-8.337917,1.7132622,-0.051151108,-0.38390318,0.33057314,-0.6644519,0
0.5700000000000003,15.427505163908357,-0.25338536491757063,-0.24370493657370426,-0.605637757188821,12.776687,-2.908943,1.6454722,-0.38970977,12.831871,-10.84125,1.4737691,-0.30572152,0.22171994,-0.41133434,-0.82956505,-8.355869,1.8396552,-0.06262918,-0.25338537,-0.24370493,-0.6056377,0
0.5800000000000003,15.427505163908357,-0.25338536491757063,-0.24370493657370426,-0.605637757188821,12.776687,-2.908943,1.6454722,-0.38970977,12.748222,-10.822223,1.4730873,-0.308452,0.22234066,-0.40923688,-0.8294255,-8.373821,1.9657407,-0.07366044,-0.25338537,-0.24370493,-0.6056377,0
0.5900000000000003,15.427505163908357,-0.25338536491757063,-0.24370493657370426,-0.605637757188821,12.776687,-2.908943,1.6454722,-0.38970977,12.664394,-10.801936,1.4722974,-0.31117877,0.22295864,-0.40713438,-0.8292758,-8.391776,2.091517,-0.084246196,-0.25338537,-0.24370493,-0.6056377,0
0.6000000000000003,15.474058703606834,-0.26613583808883573,-0.26779293714937424,-0.5327894753780235,12.710686,-2.4212415,0.8488968,-0.40725452,12.580387,-10.780394,1.4714038,-0.31390172,0.22357391,-0.40502694,-0.82911587,-8.409738,2.2169821,-0.094387755,-0.25338537,-0.24370493,-0.6056377,0
0.6100000000000003,15.474058703606834,-0.26613583808883573,-0.26779293714937424,-0.5327894753780235,12.710686,-2.4212415,0.8488968,-0.40725452,12.4962,-10.757596,1.4704124,-0.31635356,0.22395925,-0.40290558,-0.82911354,-8.427758,2.3425035,-0.10380707,-0.26613584,-0.26779294,-0.53278947,0
0.6200000000000003,15.474058703606834,-0.26613583808883573,-0.26779293714937424,-0.5327894753780235,12.710686,-2.4212415,0.8488968,-0.40725452,12.411832,-10.733544,1.4693292,-0.31880206,0.22434221,-0.4007799,-0.8291024,-8.445779,2.467687,-0.11274988,-0.26613584,-0.26779294,-0.53278947,0
0.6300000000000003,15.474058703606834,-0.26613583808883573,-0.26779293714937424,-0.5327894753780235,12.710686,-2.4212415,0.8488968,-0.40725452,12.327284,-10.708242,1.4681591,-0.32124713,0.22472274,-0.39865002,-0.8290824,-8.463802,2.59253,-0.121217676,-0.26613584,-0.26779294,-0.53278947,0
0.6400000000000003,15.474058703606834,-0.26613583808883573,-0.26779293714937424,-0.5327894753780235,12.614755,-2.2200296,0.5049928,-0.396334,12.242556,-10.681694,1.4669065,-0.3236888,0.22510087,-0.39651588,-0.8290536,-8.4818325,2.7170312,-0.12921198,-0.26613584,-0.26779294,-0.53278947,0
0.6500000000000004,15.474058703606834,-0.26613583808883573,-0.26779293714937424,-0.5327894753780235,12.614755,-2.2200296,0.5049928,-0.396334,12.157647,-10.653903,1.4655765,-0.32612702,0.22547662,-0.3943775,-0.8290159,-8.499871,2.8411882,-0.1367343,-0.26613584,-0.26779294,-0.53278947,0
0.6600000000000004,15.474058703606834,-0.26613583808883573,-0.26779293714937424,-0.5327894753780235,12.614755,-2.2200296,0.5049928,-0.396334,12.072558,-10.624871,1.4641737,-0.32856175,0.22584999,-0.39223492,-0.8289694,-8.5179205,2.9649985,-0.14378622,-0.26613584,-0.26779294,-0.53278947,0
0.6700000000000004,15.474058703606834,-0.26613583808883573,-0.26779293714937424,-0.5327894753780235,12.614755,-2.2200296,0.5049928,-0.396334,11.987288,-10.594604,1.4627025,-0.330993,0.2262209,-0.39008817,-0.82891405,-8.535985,3.088461,-0.15036927,-0.26613584,-0.26779294,-0.53278947,0
0.6800000000000004,15.380010532236385,-0.23263109894398162,-0.45618368629305317,-0.4622626244387604,12.58418,-1.81523,-0.15587293,-0.26995522,11.901839,-10.563103,1.4611678,-0.3334207,0.22658944,-0.38793725,-0.82884985,-8.554066,3.211573,-0.15648507,-0.26613584,-0.26779294,-0.53278947,0
0.6900000000000004,15.380010532236385,-0.23263109894398162,-0.45618368629305317,-0.4622626244387604,12.58418,-1.81523,-0.15587293,-0.26995522,11.816209,-10.530376,1.4595717,-0.33595574,0.22598203,-0.38568664,-0.8290424,-8.571969,3.3335547,-0.1626377,-0.2326311,-0.45618367,-0.46226263,0
0.7000000000000004,15.380010532236385,-0.23263109894398162,-0.45618368629305317,-0.4622626244387604,12.58418,-1.81523,-0.15587293,-0.26995522,11.7304,-10.496432,1.4579171,-0.3384868,0.22537191,-0.38343143,-0.829225,-8.589663,3.455098,-0.16817091,-0.2326311,-0.45618367,-0.46226263,0
0.7100000000000004,15.380010532236385,-0.23263109894398162,-0.45618368629305317,-0.4622626244387604,12.58418,-1.81523,-0.15587293,-0.26995522,11.644416,-10.461275,1.4562103,-0.3410138,0.22475912,-0.38117167,-0.82939774,-8.607149,3.5761986,-0.17308661,-0.2326311,-0.45618367,-0.46226263,0
0.7200000000000004,15.33332818019566,-0.28862142049644657,-0.38754873144319757,-0.38398637488019305,12.633908,-1.6032264,-0.24029106,-0.13651878,11.558258,-10.424909,1.4544574,-0.34353673,0.22414365,-0.37890738,-0.82956064,-8.624431,3.6968524,-0.17738672,-0.2326311,-0.45618367,-0.46226263,0
0.7300000000000004,15.33332818019566,-0.28862142049644657,-0.38754873144319757,-0.38398637488019305,12.633908,-1.6032264,-0.24029106,-0.13651878,11.471929,-10.387341,1.4526631,-0.34553856,0.22375834,-0.37661242,-0.8298783,-8.64151,3.8166912,-0.18136942,-0.28862143,-0.38754874,-0.38398638,0
0.7400000000000004,15.33332818019566,-0.28862142049644657,-0.38754873144319757,-0.38398637488019305,12.633908,-1.6032264,-0.24029106,-0.13651878,11.385428,-10.348577,1.4508319,-0.34753707,0.22337088,-0.3743139,-0.830188,-8.658524,3.9360783,-0.18476832,-0.28862143,-0.38754874,-0.38398638,0
0.7500000000000004,15.33332818019566,-0.28862142049644657,-0.38754873144319757,-0.38398637488019305,12.633908,-1.6032264,-0.24029106,-0.13651878,11.2987585,-10.308621,1.4489697,-0.34953234,0.22298133,-0.37201178,-0.83048975,-8.675476,4.0550103,-0.1875856,-0.28862143,-0.38754874,-0.38398638,0
0.7600000000000005,15.03486217353876,-0.329106292548967,-0.6829235572340608,-0.308614930344424,13.177648,-1.98182,-0.3217792,0.15157408,11.211919,-10.267478,1.4470822,-0.35152426,0.22258964,-0.36970612,-0.83078367,-8.692368,4.173485,-0.18982351,-0.28862143,-0.38754874,-0.38398638,0
0.7700000000000005,15.03486217353876,-0.329106292548967,-0.6829235572340608,-0.308614930344424,13.177648,-1.98182,-0.3217792,0.15157408,11.124912,-10.225164,1.445166,-0.35369942,0.22089991,-0.36679214,-0.8316027,-8.708783,4.2891197,-0.19324647,-0.3291063,-0.68292356,-0.30861494,0
0.7800000000000005,15.03486217353876,-0.329106292548967,-0.6829235572340608,-0.308614930344424,13.177648,-1.98182,-0.3217792,0.15157408,11.037744,-10.181699,1.4432201,-0.3558686,0.21920648,-0.36387205,-0.83240783,-8.724898,4.4040804,-0.19580063,-0.3291063,-0.68292356,-0.30861494,0
0.7900000000000005,15.03486217353876,-0.329106292548967,-0.6829235572340608,-0.308614930344424,13.177648,-1.98182,-0.3217792,0.15157408,10.950416,-10.137086,1.441253,-0.35803184,0.21750937,-0.36094585,-0.83319896,-8.740718,4.5183587,-0.197491,-0.3291063,-0.68292356,-0.30861494,0
0.8000000000000005,14.94148760891648,-0.39675823097384993,-0.5613078787592107,-0.24673493879386832,13.357699,-1.8760296,-0.040920034,0.14698261,10.86293,-10.091334,1.4392731,-0.36018908,0.21580862,-0.3580136,-0.8339762,-8.756244,4.6319475,-0.19832267,-0.3291063,-0.68292356,-0.30861494,0
0.8100000000000005,14.94148760891648,-0.39675823097384993,-0.5613078787592107,-0.24673493879386832,13.357699,-1.8760296,-0.040920034,0.14698261,10.775291,-10.044454,1.4372863,-0.3617922,0.21462278,-0.35507962,-0.8348422,-8.771457,4.74415,-0.19893542,-0.39675823,-0.5613079,-0.24673493,0
0.8200000000000005,14.94148760891648,-0.39675823097384993,-0.5613078787592107,-0.24673493879386832,13.357699,-1.8760296,-0.040920034,0.14698261,10.6875,-9.996455,1.4352971,-0.36339048,0.21343409,-0.35214096,-0.83569705,-8.786575,4.855687,-0.19877216,-0.39675823,-0.5613079,-0.24673493,0
0.8300000000000005,14.94148760891648,-0.39675823097384993,-0.5613078787592107,-0.24673493879386832,13.357699,-1.8760296,-0.040920034,0.14698261,10.59956,-9.947344,1.4333135,-0.36498392,0.21224257,-0.3491976,-0.83654076,-8.801601,4.966552,-0.19783753,-0.39675823,-0.5613079,-0.24673493,0
0.8400000000000005,14.94148760891648,-0.39675823097384993,-0.5613078787592107,-0.24673493879386832,13.454497,-1.7107793,-0.20683637,0.20010799,10.511469,-9.897127,1.4313432,-0.3665725,0.21104822,-0.34624958,-0.8373733,-8.81654,5.07674,-0.19613624,-0.39675823,-0.5613079,-0.24673493,0
0.8500000000000005,14.94148760891648,-0.39675823097384993,-0.5613078787592107,-0.24673493879386832,13.454497,-1.7107793,-0.20683637,0.20010799,10.423229,-9.845812,1.4293934,-0.3681562,0.20985106,-0.34329695,-0.8381947,-8.831388,5.1862445,-0.19367298,-0.39675823,-0.5613079,-0.24673493,0
0.8600000000000005,14.94148760891648,-0.39675823097384993,-0.5613078787592107,-0.24673493879386832,13.454497,-1.7107793,-0.20683637,0.20010799,10.334842,-9.793405,1.4274722,-0.36973497,0.2086511,-0.34033972,-0.83900493,-8.846151,5.2950606,-0.19045253,-0.39675823,-0.5613079,-0.24673493,0
0.8700000000000006,14.94148760891648,-0.39675823097384993,-0.5613078787592107,-0.24673493879386832,13.454497,-1.7107793,-0.20683637,0.20010799,10.246307,-9.739913,1.4255869,-0.37130883,0.20744835,-0.33737797,-0.83980393,-8.86083,5.403183,-0.18647969,-0.39675823,-0.5613079,-0.24673493,0
0.8800000000000006,14.552284378205133,-0.4168717222082016,-0.8284369815215183,-0.19176712877536917,14.067298,-1.169727,-0.442103,0.124824226,10.157625,-9.685344,1.4237452,-0.37287772,0.20624284,-0.3344117,-0.8405918,-8.875425,5.510606,-0.1817593,-0.39675823,-0.5613079,-0.24673493,1
0.8900000000000006,14.552284378205133,-0.4168717222082016,-0.8284369815215183,-0.19176712877536917,14.067298,-1.169727,-0.442103,0.124824226,10.068802,-9.629735,1.4219245,-0.3718787,0.20635276,-0.32879332,-0.8432197,-8.889442,5.6109066,-0.18222749,-1.169727,-0.442103,0.124824226,1
0.9000000000000006,14.552284378205133,-0.4168717222082016,-0.8284369815215183,-0.19176712877536917,14.067298,-1.169727,-0.442103,0.124824226,9.979834,-9.573131,1.4201041,-0.37086502,0.2064545,-0.32316193,-0.8458143,-8.904318,5.710069,-0.1816655,-1.169727,-0.442103,0.124824226,1
0.9100000000000006,14.552284378205133,-0.4168717222082016,-0.8284369815215183,-0.19176712877536917,14.067298,-1.169727,-0.442103,0.124824226,9.890713,-9.515538,1.4182945,-0.3698367,0.2065481,-0.3175178,-0.8483755,-8.920048,5.808078,-0.18008785,-1.169727,-0.442103,0.124824226,1
0.9200000000000006,14.331685532772553,-0.3047923827196953,-1.036249502380172,-0.16200347511041618,14.234129,-1.14471,-0.70356613,0.19463748,9.801431,-9.456972,1.4165058,-0.36879376,0.20663354,-0.31186107,-0.85090315,-8.936628,5.9049153,-0.17750925,-1.169727,-0.442103,0.124824226,1
0.9300000000000006,14.331685532772553,-0.3047923827196953,-1.036249502380172,-0.16200347511041618,14.234129,-1.14471,-0.70356613,0.19463748,9.711977,-9.397439,1.414754,-0.36787158,0.20544276,-0.3058875,-0.8537543,-8.954161,6.0016384,-0.17266296,-1.14471,-0.70356613,0.19463748,1
0.9400000000000006,14.331685532772553,-0.3047923827196953,-1.036249502380172,-0.16200347511041618,14.234129,-1.14471,-0.70356613,0.19463748,9.622346,-9.336945,1.4130566,-0.36693245,0.20424251,-0.29989982,-0.8565661,-8.972277,6.0969777,-0.16663301,-1.14471,-0.70356613,0.19463748,1
0.9500000000000006,14.331685532772553,-0.3047923827196953,-1.036249502380172,-0.16200347511041618,14.234129,-1.14471,-0.70356613,0.19463748,9.532531,-9.275503,1.4114252,-0.3659764,0.20303285,-0.2938983,-0.8593384,-8.990969,6.1909146,-0.15943712,-1.14471,-0.70356613,0.19463748,1
0.9600000000000006,13.96812817842274,0.1262031885425009,-1.4323794790207196,-0.16371057565215086,13.84125,-0.8577919,-0.7514587,-0.21601635,9.442525,-9.213131,1.4098716,-0.3650035,0.20181385,-0.28788325,-0.8620711,-9.010231,6.283432,-0.15109323,-1.14471,-0.70356613,0.19463748,1
0.9700000000000006,13.96812817842274,0.1262031885425009,-1.4323794790207196,-0.16371057565215086,13.84125,-0.8577919,-0.7514587,-0.21601635,9.352326,-9.149853,1.4083922,-0.36614454,0.20044783,-0.28259167,-0.8636553,-9.029382,6.372071,-0.1446263,-0.8577919,-0.7514587,-0.21601635,1
0.9800000000000006,13.96812817842274,0.1262031885425009,-1.4323794790207196,-0.16371057565215086,13.84125,-0.8577919,-0.7514587,-0.21601635,9.261936,-9.085693,1.4069824,-0.3672732,0.19907506,-0.27729055,-0.86521053,-9.04874,6.4594917,-0.13717698,-0.8577919,-0.7514587,-0.21601635,1
0.9900000000000007,13.96812817842274,0.1262031885425009,-1.4323794790207196,-0.16371057565215086,13.84125,-0.8577919,-0.7514587,-0.21601635,9.1713505,-9.020666,1.4056519,-0.3683896,0.19769557,-0.2719801,-0.86673653,-9.068307,6.5456834,-0.12875964,-0.8577919,-0.7514587,-0.21601635,1
1.0000000000000007,13.694042527539247,0.4847042094347761,-1.5776749276159163,-0.13681178873025665,13.637505,-0.0687283,-1.0723516,0.04600114,9.08057,-8.954783,1.4044104,-0.36949354,0.19630943,-0.26666045,-0.8682333,-9.088083,6.6306353,-0.119388774,-0.8577919,-0.7514587,-0.21601635,1
1.0100000000000007,13.694042527539247,0.4847042094347761,-1.5776749276159163,-0.13681178873025665,13.637505,-0.0687283,-1.0723516,0.04600114,8.989593,-8.888064,1.4032593,-0.3706508,0.191717,-0.2644223,-0.8694499,-9.107367,6.713251,-0.11071465,-0.0687283,-1.0723516,0.04600114,1
1.0200000000000007,13.694042527539247,0.4847042094347761,-1.5776749276159163,-0.13681178873025665,13.637505,-0.0687283,-1.0723516,0.04600114,8.898425,-8.820522,1.4021989,-0.37179735,0.187119,-0.2621765,-0.8706414,-9.125769,6.7950187,-0.101235,-0.0687283,-1.0723516,0.04600114,1
1.0300000000000007,13.694042527539247,0.4847042094347761,-1.5776749276159163,-0.13681178873025665,13.637505,-0.0687283,-1.0723516,0.04600114,8.807078,-8.752167,1.4012374,-0.37293315,0.18251562,-0.2599231,-0.8718077,-9.143285,6.8759294,-0.09096243,-0.0687283,-1.0723516,0.04600114,1
1.0400000000000007,13.694042527539247,0.4847042094347761,-1.5776749276159163,-0.13681178873025665,13.344095,0.33493438,-0.9346566,0.13781899,8.715562,-8.683006,1.4003824,-0.37405816,0.17790695,-0.25766215,-0.87294877,-9.159912,6.9559746,-0.07990964,-0.0687283,-1.0723516,0.04600114,1
1.0500000000000007,13.694042527539247,0.4847042094347761,-1.5776749276159163,-0.13681178873025665,13.344095,0.33493438,-0.9346566,0.13781899,8.623885,-8.613058,1.3996297,-0.374954,0.17302121,-0.2574953,-0.8735955,-9.175205,7.033599,-0.070552886,0.33493438,-0.9346566,0.13781899,1
1.0600000000000007,13.694042527539247,0.4847042094347761,-1.5776749276159163,-0.13681178873025665,13.344095,0.33493438,-0.9346566,0.13781899,8.532062,-8.5423355,1.398973,-0.3758404,0.16813113,-0.25732204,-0.87422025,-9.189344,7.11078,-0.06071991,0.33493438,-0.9346566,0.13781899,1
1.0700000000000007,13.694042527539247,0.4847042094347761,-1.5776749276159163,-0.13681178873025665,13.344095,0.33493438,-0.9346566,0.13781899,8.440103,-8.470843,1.398417,-0.37671736,0.16323684,-0.25714228,-0.8748231,-9.202326,7.187511,-0.050422214,0.33493438,-0.9346566,0.13781899,1
1.0800000000000007,13.36248807082723,0.41005840201297833,-1.8406519754691417,-0.1434643923123618,13.115745,0.5516064,-1.0328659,0.14185017,8.34802,-8.398585,1.397966,-0.37758484,0.15833844,-0.25695607,-0.875404,-9.214151,7.2637873,-0.03967134,0.33493438,-0.9346566,0.13781899,1
1.0900000000000007,13.36248807082723,0.41005840201297833,-1.8406519754691417,-0.1434643923123618,13.115745,0.5516064,-1.0328659,0.14185017,8.255825,-8.325574,1.3976154,-0.3787211,0.15259123,-0.25752833,-0.8757657,-9.224521,7.338338,-0.03036207,0.5516064,-1.0328659,0.14185017,1
1.1000000000000008,13.36248807082723,0.41005840201297833,-1.8406519754691417,-0.1434643923123618,13.115745,0.5516064,-1.0328659,0.14185017,8.163533,-8.25182,1.39736,-0.3798442,0.14683868,-0.25809163,-0.87609684,-9.233451,7.4125175,-0.020667225,0.5516064,-1.0328659,0.14185017,1
1.1100000000000008,13.36248807082723,0.41005840201297833,-1.8406519754691417,-0.1434643923123618,13.115745,0.5516064,-1.0328659,0.14185017,8.071159,-8.177325,1.3972034,-0.38095406,0.14108102,-0.25864595,-0.8763975,-9.240939,7.4863176,-0.010602704,0.5516064,-1.0328659,0.14185017,1
1.1200000000000008,13.260586603123855,0.01714503586474321,-1.566241905059308,-0.1735061443900063,12.967499,0.44479635,-1.2772579,0.1304819,7.9787183,-8.102096,1.3971492,-0.38205066,0.13531846,-0.25919127,-0.8766676,-9.2469845,7.55973,-0.00018445915,0.5516064,-1.0328659,0.14185017,1
1.1300000000000008,13.260586603123855,0.01714503586474321,-1.566241905059308,-0.1735061443900063,12.967499,0.44479635,-1.2772579,0.1304819,7.8862247,-8.026137,1.397195,-0.38342613,0.12869796,-0.2587834,-0.8771844,-9.251492,7.631819,0.009410551,0.44479635,-1.2772579,0.1304819,1
1.1400000000000008,13.260586603123855,0.01714503586474321,-1.566241905059308,-0.1735061443900063,12.967499,0.44479635,-1.2772579,0.1304819,7.793694,-7.949461,1.3973392,-0.38478386,0.12207152,-0.2583636,-0.87766063,-9.254457,7.7032356,0.019505866,0.44479635,-1.2772579,0.1304819,1
1.1500000000000008,13.260586603123855,0.01714503586474321,-1.566241905059308,-0.1735061443900063,12.967499,0.44479635,-1.2772579,0.1304819,7.701141,-7.872074,1.3975868,-0.38612387,0.115439445,-0.2579319,-0.87809634,-9.255882,7.7739687,0.030080605,0.44479635,-1.2772579,0.1304819,1
1.1600000000000008,13.119533405980322,-0.5076998312711047,-1.529217210931258,-0.17204079301666791,12.30824,-0.09630689,-0.79381317,0.23215455,7.6085815,-7.793984,1.3979424,-0.38744602,0.10880204,-0.25748825,-0.8784916,-9.255763,7.8440065,0.0411138,0.44479635,-1.2772579,0.1304819,1
1.1700000000000008,13.119533405980322,-0.5076998312711047,-1.529217210931258,-0.17204079301666791,12.30824,-0.09630689,-0.79381317,0.23215455,7.51603,-7.7152147,1.3983828,-0.3873925,0.105202,-0.2556515,-0.8794896,-9.2545185,7.909812,0.04702005,-0.09630689,-0.79381317,0.23215455,1
1.1800000000000008,13.119533405980322,-0.5076998312711047,-1.529217210931258,-0.17204079301666791,12.30824,-0.09630689,-0.79381317,0.23215455,7.4234934,-7.6357903,1.3988843,-0.3873323,0.10160013,-0.25381032,-0.88047236,-9.2527,7.974937,0.05334519,-0.09630689,-0.79381317,0.23215455,1
1.1900000000000008,13.119533405980322,-0.5076998312711047,-1.529217210931258,-0.17204079301666791,12.30824,-0.09630689,-0.79381317,0.23215455,7.3309784,-7.5557184,1.3994511,-0.3872654,0.09799651,-0.25196475,-0.88143986,-9.250304,8.039379,0.060081813,-0.09630689,-0.79381317,0.23215455,1
1.2000000000000008,13.269203024174756,-0.9080445041441242,-1.0516153425909263,-0.18673806127346246,12.596399,-0.44115123,-1.0242519,0.22171944,7.2384896,-7.4750056,1.4000874,-0.38719174,0.094391175,-0.2501148,-0.8823921,-9.247329,8.103135,0.06722248,-0.09630689,-0.79381317,0.23215455,1
1.2100000000000009,13.269203024174756,-0.9080445041441242,-1.0516153425909263,-0.18673806127346246,12.596399,-0.44115123,-1.0242519,0.22171944,7.1460342,-7.393652,1.4008098,-0.38727996,0.09044748,-0.24628617,-0.8838422,-9.243737,8.167514,0.07733142,-0.44115123,-1.0242519,0.22171944,1
1.2200000000000009,13.269203024174756,-0.9080445041441242,-1.0516153425909263,-0.18673806127346246,12.596399,-0.44115123,-1.0242519,0.22171944,7.053617,-7.31166,1.4016364,-0.38735566,0.086500876,-0.24244957,-0.8852636,-9.239668,8.230746,0.088097505,-0.44115123,-1.0242519,0.22171944,1
1.2300000000000009,13.269203024174756,-0.9080445041441242,-1.0516153425909263,-0.18673806127346246,12.596399,-0.44115123,-1.0242519,0.22171944,6.961242,-7.2290406,1.402574,-0.38741884,0.082551464,-0.23860513,-0.88665646,-9.235121,8.292826,0.09950659,-0.44115123,-1.0242519,0.22171944,1
1.2400000000000009,13.269203024174756,-0.9080445041441242,-1.0516153425909263,-0.18673806127346246,12.737902,-0.6798724,-1.0613985,0.20219201,6.868916,-7.1458063,1.4036287,-0.3874695,0.078599386,-0.234753,-0.8880207,-9.230091,8.3537445,0.11154444,-0.44115123,-1.0242519,0.22171944,1
1.2500000000000009,13.269203024174756,-0.9080445041441242,-1.0516153425909263,-0.18673806127346246,12.737902,-0.6798724,-1.0613985,0.20219201,6.7766423,-7.061966,1.4048132,-0.38754252,0.07496491,-0.22975272,-0.8896095,-9.2245865,8.414089,0.12548678,-0.6798724,-1.0613985,0.20219201,1
1.260000000000001,13.269203024174756,-0.9080445041441242,-1.0516153425909263,-0.18673806127346246,12.737902,-0.6798724,-1.0613985,0.20219201,6.684425,-6.977529,1.4061407,-0.3875997,0.07132737,-0.22474305,-0.8911621,-9.21878,8.473034,0.14015618,-0.6798724,-1.0613985,0.20219201,1
1.270000000000001,13.269203024174756,-0.9080445041441242,-1.0516153425909263,-0.18673806127346246,12.737902,-0.6798724,-1.0613985,0.20219201,6.5922675,-6.8925104,1.4076186,-0.38764113,0.06768694,-0.21972424,-0.89267826,-9.212666,8.530571,0.1555343,-0.6798724,-1.0613985,0.20219201,1
1.280000000000001,13.219081715900519,-1.0857187626567968,-0.7014564704129477,-0.17552049632986885,12.710524,-0.66647005,-0.8182617,0.2873053,6.5001726,-6.806923,1.4092538,-0.38766676,0.064043745,-0.2146965,-0.8941581,-9.206244,8.586691,0.1716027,-0.6798724,-1.0613985,0.20219201,1
1.290000000000001,13.219081715900519,-1.0857187626567968,-0.7014564704129477,-0.17552049632986885,12.710524,-0.66647005,-0.8182617,0.2873053,6.408143,-6.720782,1.4110516,-0.38704145,0.061367948,-0.21021959,-0.89567906,-9.199603,8.641351,0.1880619,-0.66647005,-0.8182617,0.2873053,1
1.300000000000001,13.219081715900519,-1.0857187626567968,-0.7014564704129477,-0.17552049632986885,12.710524,-0.66647005,-0.8182617,0.2873053,6.316181,-6.6341004,1.413017,-0.38640457,0.058690317,-0.20573641,-0.8971732,-9.192851,8.694798,0.20508507,-0.66647005,-0.8182617,0.2873053,1
1.310000000000001,13.219081715900519,-1.0857187626567968,-0.7014564704129477,-0.17552049632986885,12.710524,-0.66647005,-0.8182617,0.2873053,6.224286,-6.5468903,1.4151553,-0.38575613,0.05601093,-0.20124708,-0.8986406,-9.185985,8.747029,0.22265907,-0.66647005,-0.8182617,0.2873053,1
1.320000000000001,13.180230579340046,-1.163866886125647,0.07821244235324379,-0.17193351129259335,12.822004,-0.6824547,-1.2876111,0.52616113,6.1324615,-6.459164,1.417472,-0.3850962,0.05332987,-0.19675173,-0.9000811,-9.179,8.798037,0.2407707,-0.66647005,-0.8182617,0.2873053,0
1.330000000000001,13.180230579340046,-1.163866886125647,0.07821244235324379,-0.17193351129259335,12.822004,-0.6824547,-1.2876111,0.52616113,6.0407066,-6.3709245,1.419994,-0.385476,0.05609106,-0.19161521,-0.90085846,-9.172118,8.849798,0.2636875,-1.1638669,0.07821244,-0.17193352,0
1.340000000000001,13.180230579340046,-1.163866886125647,0.07821244235324379,-0.17193351129259335,12.822004,-0.6824547,-1.2876111,0.52616113,5.949015,-6.2821712,1.4227474,-0.38584238,0.0588503,-0.18647204,-0.9016046,-9.166407,8.900664,0.28704405,-1.1638669,0.07821244,-0.17193352,0
1.350000000000001,13.180230579340046,-1.163866886125647,0.07821244235324379,-0.17193351129259335,12.822004,-0.6824547,-1.2876111,0.52616113,5.8573747,-6.192914,1.4257364,-0.38619536,0.061607495,-0.18132238,-0.9023193,-9.161867,8.95063,0.31082314,-1.1638669,0.07821244,-0.17193352,0
1.360000000000001,12.942895307332476,-1.0636830491667095,0.2714754937681246,-0.14568161045013395,13.255321,-0.8636062,-0.95635223,0.16216439,5.765774,-6.1031623,1.4289653,-0.38653493,0.06436255,-0.17616642,-0.90300274,-9.158502,8.999691,0.33500746,-1.1638669,0.07821244,-0.17193352,0
1.370000000000001,12.942895307332476,-1.0636830491667095,0.2714754937681246,-0.14568161045013395,13.255321,-0.8636062,-0.95635223,0.16216439,5.6742005,-6.0129275,1.4324269,-0.38660532,0.06777132,-0.17183898,-0.90355694,-9.156383,9.047069,0.3573342,-1.063683,0.2714755,-0.1456816,0
1.380000000000001,12.942895307332476,-1.0636830491667095,0.2714754937681246,-0.14568161045013395,13.255321,-0.8636062,-0.95635223,0.16216439,5.5826426,-5.922223,1.436113,-0.38666388,0.07117803,-0.16750628,-0.9040835,-9.1555,9.093801,0.37992847,-1.063683,0.2714755,-0.1456816,0
1.390000000000001,12.942895307332476,-1.0636830491667095,0.2714754937681246,-0.14568161045013395,13.255321,-0.8636062,-0.95635223,0.16216439,5.4910865,-5.831054,1.4400264,-0.38671055,0.074582554,-0.16316845,-0.90458214,-9.155857,9.139882,0.40277508,-1.063683,0.2714755,-0.1456816,0
1.400000000000001,12.680029095908896,-0.8345232408228911,0.11427404514891354,-0.1071558371240344,12.834809,-1.1563574,-1.7873211,0.49053258,5.399521,-5.7394276,1.4441694,-0.38674542,0.0779848,-0.1588256,-0.90505314,-9.157453,9.185309,0.42585886,-1.063683,0.2714755,-0.1456816,0
1.410000000000001,12.680029095908896,-0.8345232408228911,0.11427404514891354,-0.1071558371240344,12.834809,-1.1563574,-1.7873211,0.49053258,5.307934,-5.6473546,1.448532,-0.3868107,0.08020004,-0.15522693,-0.90545595,-9.160099,9.229191,0.44669443,-0.83452326,0.11427405,-0.10715584,0
1.420000000000001,12.680029095908896,-0.8345232408228911,0.11427404514891354,-0.1071558371240344,12.834809,-1.1563574,-1.7873211,0.49053258,5.216316,-5.554846,1.453104,-0.38686898,0.08241384,-0.15162547,-0.9058424,-9.163613,9.272478,0.46772447,-0.83452326,0.11427405,-0.10715584,0
1.430000000000001,12.680029095908896,-0.8345232408228911,0.11427404514891354,-0.1071558371240344,12.834809,-1.1563574,-1.7873211,0.49053258,5.1246586,-5.4619064,1.4578872,-0.38692033,0.08462615,-0.14802128,-0.90621257,-9.1679945,9.315172,0.4889402,-0.83452326,0.11427405,-0.10715584,0
1.440000000000001,12.680029095908896,-0.8345232408228911,0.11427404514891354,-0.1071558371240344,12.654302,-0.97617567,-1.5873934,0.51209253,5.032953,-5.3685436,1.4628835,-0.38696468,0.086836934,-0.1444144,-0.9065664,-9.173245,9.357269,0.5103328,-0.83452326,0.11427405,-0.10715584,0
1.450000000000001,12.680029095908896,-0.8345232408228911,0.11427404514891354,-0.1071558371240344,12.654302,-0.97617567,-1.5873934,0.51209253,4.9411902,-5.274763,1.4680946,-0.38700208,0.08904616,-0.14080493,-0.90690386,-9.179362,9.398768,0.53189343,-0.83452326,0.11427405,-0.10715584,0
1.460000000000001,12.680029095908896,-0.8345232408228911,0.11427404514891354,-0.1071558371240344,12.654302,-0.97617567,-1.5873934,0.51209253,4.849362,-5.1805706,1.473522,-0.38703248,0.09125378,-0.13719292,-0.90722495,-9.186349,9.439666,0.5536133,-0.83452326,0.11427405,-0.10715584,0
1.470000000000001,12.680029095908896,-0.8345232408228911,0.11427404514891354,-0.1071558371240344,12.654302,-0.97617567,-1.5873934,0.51209253,4.7574596,-5.085972,1.4791672,-0.3870559,0.09345975,-0.13357843,-0.9075298,-9.194205,9.47996,0.57548356,-0.83452326,0.11427405,-0.10715584,0
1.480000000000001,12.376438948653345,-0.6553553513081531,-0.10218395861958025,-0.07754111082620517,14.8873625,-0.6357913,-2.648604,0.031200591,4.6654744,-4.990973,1.4850321,-0.38707235,0.09566404,-0.12996157,-0.90781814,-9.202928,9.51965,0.5974953,-0.83452326,0.11427405,-0.10715584,0
1.490000000000001,12.376438948653345,-0.6553553513081531,-0.10218395861958025,-0.07754111082620517,14.8873625,-0.6357913,-2.648604,0.031200591,4.573399,-4.895585,1.4911034,-0.38717505,0.09651843,-0.12675126,-0.90813774,-9.212161,9.557784,0.61677533,-0.65535533,-0.10218396,-0.07754111,0
1.500000000000001,12.376438948653345,-0.6553553513081531,-0.10218395861958025,-0.07754111082620517,14.8873625,-0.6357913,-2.648604,0.031200591,4.481229,-4.799819,1.4973682,-0.38727346,0.097371735,-0.12353956,-0.9084472,-9.221898,9.595291,0.6362167,-0.65535533,-0.10218396,-0.07754111,0
1.5100000000000011,12.376438948653345,-0.6553553513081531,-0.10218395861958025,-0.07754111082620517,14.8873625,-0.6357913,-2.648604,0.031200591,4.388959,-4.7036815,1.5038283,-0.38736758,0.09822395,-0.12032648,-0.90874654,-9.232139,9.632169,0.6558141,-0.65535533,-0.10218396,-0.07754111,0
1.5200000000000011,12.066497643062474,-0.4564504611708723,-0.27957384096814336,-0.04191285816745828,14.623064,-0.51351714,-2.6812303,0.10743755,4.296584,-4.607178,1.510485,-0.3874574,0.09907507,-0.117112055,-0.90903574,-9.242886,9.668417,0.67556226,-0.65535533,-0.10218396,-0.07754111,0
1.5300000000000011,12.066497643062474,-0.4564504611708723,-0.27957384096814336,-0.04191285816745828,14.623064,-0.51351714,-2.6812303,0.10743755,4.204101,-4.51032,1.5173252,-0.38758412,0.098712824,-0.114474624,-0.909357,-9.253734,9.703147,0.6925105,-0.45645046,-0.27957383,-0.041912857,0
1.5400000000000011,12.066497643062474,-0.4564504611708723,-0.27957384096814336,-0.04191285816745828,14.623064,-0.51351714,-2.6812303,0.10743755,4.111509,-4.4131174,1.5243357,-0.387708,0.09834986,-0.11183636,-0.9096718,-9.264753,9.737277,0.7096222,-0.45645046,-0.27957383,-0.041912857,0
1.5500000000000012,12.066497643062474,-0.4564504611708723,-0.27957384096814336,-0.04191285816745828,14.623064,-0.51351714,-2.6812303,0.10743755,4.0188055,-4.3155766,1.5315182,-0.38782912,0.097986184,-0.10919728,-0.90997994,-9.275944,9.770804,0.72689396,-0.45645046,-0.27957383,-0.041912857,0
1.5600000000000012,11.741754357178394,-0.3163404496311232,-0.5849994405374006,-0.013141602007756343,13.616247,-0.71309423,-1.4832135,0.6651022,3.9259894,-4.217704,1.5388743,-0.38794744,0.097621806,-0.10655742,-0.9102816,-9.287306,9.803729,0.7443225,-0.45645046,-0.27957383,-0.041912857,0
1.5700000000000012,11.741754357178394,-0.3163404496311232,-0.5849994405374006,-0.013141602007756343,13.616247,-0.71309423,-1.4832135,0.6651022,3.833061,-4.1195087,1.5463897,-0.38816243,0.09557932,-0.103975885,-0.91070515,-9.298393,9.835131,0.7588186,-0.31634045,-0.58499944,-0.013141602,0
1.5800000000000012,11.741754357178394,-0.3163404496311232,-0.5849994405374006,-0.013141602007756343,13.616247,-0.71309423,-1.4832135,0.6651022,3.7400224,-4.0210037,1.5540513,-0.38837314,0.09353577,-0.1013932,-0.9111186,-9.309282,9.8658085,0.77353317,-0.31634045,-0.58499944,-0.013141602,0
1.5900000000000012,11.741754357178394,-0.3163404496311232,-0.5849994405374006,-0.013141602007756343,13.616247,-0.71309423,-1.4832135,0.6651022,3.646876,-3.9221952,1.561861,-0.38857943,0.09149119,-0.09880939,-0.91152203,-9.319973,9.8957615,0.7884612,-0.31634045,-0.58499944,-0.013141602,0
1.6000000000000012,11.515373868291174,-0.2521740057098848,-0.36658874791138973,0.018284007847062876,12.548795,-0.32066593,-1.1782095,0.30073637,3.553624,-3.823091,1.5698212,-0.38878143,0.0894456,-0.09622449,-0.91191536,-9.330465,9.924989,0.8035976,-0.31634045,-0.58499944,-0.013141602,0
1.6100000000000012,11.515373868291174,-0.2521740057098848,-0.36658874791138973,0.018284007847062876,12.548795,-0.32066593,-1.1782095,0.30073637,3.4602685,-3.7237005,1.5779227,-0.3887607,0.08825529,-0.09437001,-0.9122339,-9.340607,9.953023,0.81672525,-0.25217402,-0.36658874,0.018284008,0
1.6200000000000012,11.515373868291174,-0.2521740057098848,-0.36658874791138973,0.018284007847062876,12.548795,-0.32066593,-1.1782095,0.30073637,3.366812,-3.6240323,1.5861561,-0.38873804,0.08706456,-0.09251505,-0.91254795,-9.350672,9.980569,0.8299822,-0.25217402,-0.36658874,0.018284008,0
1.6300000000000012,11.515373868291174,-0.2521740057098848,-0.36658874791138973,0.018284007847062876,12.548795,-0.32066593,-1.1782095,0.30073637,3.2732553,-3.5240908,1.5945227,-0.38871348,0.08587338,-0.09065965,-0.9128575,-9.360657,10.007623,0.84336627,-0.25217402,-0.36658874,0.018284008,0
1.6400000000000012,11.515373868291174,-0.2521740057098848,-0.36658874791138973,0.018284007847062876,12.41375,-0.45503983,-1.3419828,0.3193764,3.1795988,-3.423881,1.6030238,-0.38868698,0.08468178,-0.08880379,-0.91316247,-9.370565,10.034186,0.85687524,-0.25217402,-0.36658874,0.018284008,1
1.6500000000000012,11.515373868291174,-0.2521740057098848,-0.36658874791138973,0.018284007847062876,12.41375,-0.45503983,-1.3419828,0.3193764,3.085841,-3.3233993,1.6117045,-0.3876217,0.07929488,-0.08425103,-0.9145293,-9.380919,10.061913,0.8793319,-0.45503983,-1.3419828,0.3193764,1
1.6600000000000013,11.515373868291174,-0.2521740057098848,-0.36658874791138973,0.018284007847062876,12.41375,-0.45503983,-1.3419828,0.3193764,2.991983,-3.222648,1.6206118,-0.386536,0.07390381,-0.079693824,-0.91584796,-9.390538,10.088093,0.9021944,-0.45503983,-1.3419828,0.3193764,1
1.6700000000000013,11.515373868291174,-0.2521740057098848,-0.36658874791138973,0.018284007847062876,12.41375,-0.45503983,-1.3419828,0.3193764,2.8980324,-3.1216426,1.6297497,-0.3854299,0.06850883,-0.07513241,-0.91711825,-9.399416,10.112725,0.9254382,-0.45503983,-1.3419828,0.3193764,1
1.6800000000000013,11.187148621873712,-0.21730084925682142,-0.5358802661460399,0.03995312720800325,13.795172,-0.7327702,-3.1482868,0.9255733,2.803997,-3.0203986,1.6391218,-0.38430348,0.06311024,-0.070567034,-0.91834015,-9.407544,10.135806,0.949039,-0.45503983,-1.3419828,0.3193764,0
1.6900000000000013,11.187148621873712,-0.21730084925682142,-0.5358802661460399,0.03995312720800325,13.795172,-0.7327702,-3.1482868,0.9255733,2.7098875,-2.9189415,1.648671,-0.38423893,0.061052825,-0.06855187,-0.9186589,-9.414353,10.155513,0.96085036,-0.21730085,-0.53588027,0.039953128,0
1.7000000000000013,11.187148621873712,-0.21730084925682142,-0.5358802661460399,0.03995312720800325,13.795172,-0.7327702,-3.1482868,0.9255733,2.615711,-2.8172903,1.6583391,-0.38417116,0.0589949,-0.06653612,-0.9189698,-9.420918,10.174632,0.9727803,-0.21730085,-0.53588027,0.039953128,0
1.7100000000000013,11.187148621873712,-0.21730084925682142,-0.5358802661460399,0.03995312720800325,13.795172,-0.7327702,-3.1482868,0.9255733,2.5214698,-2.715451,1.6681271,-0.38410014,0.05693648,-0.064519815,-0.9192731,-9.4272375,10.193164,0.984825,-0.21730085,-0.53588027,0.039953128,0
1.7200000000000013,10.75797162193027,-0.17120259893632608,0.17783499606572006,0.04762379311948017,13.785492,-0.8007959,-3.8997548,0.65034455,2.4271667,-2.6134293,1.678036,-0.3840259,0.05487758,-0.06250297,-0.9195686,-9.4333105,10.211106,0.9969809,-0.21730085,-0.53588027,0.039953128,0
1.7300000000000013,10.75797162193027,-0.17120259893632608,0.17783499606572006,0.04762379311948017,13.785492,-0.8007959,-3.8997548,0.65034455,2.332805,-2.5112338,1.6880457,-0.38370407,0.05600904,-0.062070295,-0.919664,-9.439103,10.228008,1.0049665,-0.1712026,0.177835,0.047623795,0
1.7400000000000013,10.75797162193027,-0.17120259893632608,0.17783499606572006,0.04762379311948017,13.785492,-0.8007959,-3.8997548,0.65034455,2.2383835,-2.408869,1.6981353,-0.38338163,0.05714041,-0.061637517,-0.91975796,-9.445161,10.244916,1.0129362,-0.1712026,0.177835,0.047623795,0
1.7500000000000013,10.75797162193027,-0.17120259893632608,0.17783499606572006,0.04762379311948017,13.785492,-0.8007959,-3.8997548,0.65034455,2.1439004,-2.3063352,1.7083044,-0.3830586,0.05827169,-0.061204646,-0.91985047,-9.451484,10.261828,1.0208899,-0.1712026,0.177835,0.047623795,0
1.7600000000000013,10.4784279692734,-0.2439305281179474,-0.013076469881125473,0.08763334396726835,13.635404,-0.83692575,-3.1323228,0.43423814,2.049353,-2.2036324,1.718553,-0.38273495,0.059402883,-0.060771674,-0.91994154,-9.458072,10.278746,1.0288266,-0.1712026,0.177835,0.047623795,0
1.7700000000000014,10.4784279692734,-0.2439305281179474,-0.013076469881125473,0.08763334396726835,13.635404,-0.83692575,-3.1323228,0.43423814,1.954739,-2.1007628,1.7288672,-0.38226306,0.05978286,-0.05965062,-0.9201865,-9.464714,10.295156,1.0340046,-0.24393053,-0.01307647,0.08763334,0
1.7800000000000014,10.4784279692734,-0.2439305281179474,-0.013076469881125473,0.08763334396726835,13.635404,-0.83692575,-3.1323228,0.43423814,1.860058,-1.9977299,1.7392331,-0.38179052,0.060162738,-0.058529463,-0.9204299,-9.471528,10.311378,1.039201,-0.24393053,-0.01307647,0.08763334,0
1.7900000000000014,10.4784279692734,-0.2439305281179474,-0.013076469881125473,0.08763334396726835,13.635404,-0.83692575,-3.1323228,0.43423814,1.7653079,-1.8945358,1.7496512,-0.38131735,0.060542513,-0.057408206,-0.92067176,-9.478515,10.32741,1.0444155,-0.24393053,-0.01307647,0.08763334,0
1.8000000000000014,10.28978086817751,-0.37063695322439544,-0.24676278502527066,0.1340078504314102,11.622947,-0.8374789,-1.5480337,0.4181587,1.6704872,-1.7911823,1.7601216,-0.38084352,0.060922187,-0.056286857,-0.920912,-9.485673,10.343254,1.0496476,-0.24393053,-0.01307647,0.08763334,0
1.8100000000000014,10.28978086817751,-0.37063695322439544,-0.24676278502527066,0.1340078504314102,11.622947,-0.8374789,-1.5480337,0.4181587,1.5755947,-1.687673,1.770635,-0.380182,0.06045385,-0.05415102,-0.92134416,-9.492841,10.35853,1.0530524,-0.37063694,-0.24676278,0.13400786,0
1.8200000000000014,10.28978086817751,-0.37063695322439544,-0.24676278502527066,0.1340078504314102,11.622947,-0.8374789,-1.5480337,0.4181587,1.4806302,-1.5840131,1.7811828,-0.37951842,0.059985187,-0.052014887,-0.92177135,-9.5001,10.37336,1.0565168,-0.37063694,-0.24676278,0.13400786,0
1.8300000000000014,10.28978086817751,-0.37063695322439544,-0.24676278502527066,0.1340078504314102,11.622947,-0.8374789,-1.5480337,0.4181587,1.3855925,-1.4802072,1.7917655,-0.37885278,0.059516195,-0.049878474,-0.9221935,-9.507451,10.387745,1.0600386,-0.37063694,-0.24676278,0.13400786,0
1.8400000000000014,10.28978086817751,-0.37063695322439544,-0.24676278502527066,0.1340078504314102,11.670354,-0.856395,-1.8701613,0.40451163,1.2904809,-1.3762597,1.8023837,-0.37818512,0.059046883,-0.04774179,-0.92261076,-9.514891,10.401684,1.0636159,-0.37063694,-0.24676278,0.13400786,0
1.8500000000000014,10.28978086817751,-0.37063695322439544,-0.24676278502527066,0.1340078504314102,11.670354,-0.856395,-1.8701613,0.40451163,1.1952944,-1.2721751,1.8130379,-0.37751538,0.058577254,-0.045604847,-0.923023,-9.52242,10.415176,1.0672469,-0.37063694,-0.24676278,0.13400786,0
1.8600000000000014,10.28978086817751,-0.37063695322439544,-0.24676278502527066,0.1340078504314102,11.670354,-0.856395,-1.8701613,0.40451163,1.1000322,-1.1679577,1.8237287,-0.3768436,0.058107305,-0.043467663,-0.9234302,-9.530037,10.428223,1.0709296,-0.37063694,-0.24676278,0.13400786,0
1.8700000000000014,10.28978086817751,-0.37063695322439544,-0.24676278502527066,0.1340078504314102,11.670354,-0.856395,-1.8701613,0.40451163,1.0046934,-1.0636121,1.8344566,-0.3761698,0.057637043,-0.04133024,-0.9238325,-9.537741,10.440822,1.0746621,-0.37063694,-0.24676278,0.13400786,0
1.8800000000000014,10.071856688898082,-0.5186568517931411,-0.4226968765369304,0.1932250197946775,12.980327,-0.63566005,-1.5172688,0.79675263,0.9092771,-0.95914274,1.8452221,-0.37549397,0.057166472,-0.039192595,-0.92422974,-9.545531,10.452974,1.0784423,-0.37063694,-0.24676278,0.13400786,0
1.8900000000000015,10.071856688898082,-0.5186568517931411,-0.4226968765369304,0.1932250197946775,12.980327,-0.63566005,-1.5172688,0.79675263,0.81378335,-0.85455567,1.8560148,-0.37453336,0.056148678,-0.0360572,-0.9248094,-9.553233,10.464345,1.08012,-0.51865685,-0.4226969,0.19322503,0
1.9000000000000015,10.071856688898082,-0.5186568517931411,-0.4226968765369304,0.1932250197946775,12.980327,-0.63566005,-1.5172688,0.79675263,0.7182123,-0.74985814,1.8668246,-0.37356818,0.055130202,-0.03292137,-0.9253778,-9.560996,10.475048,1.0818667,-0.51865685,-0.4226969,0.19322503,0
1.9100000000000015,10.071856688898082,-0.5186568517931411,-0.4226968765369304,0.1932250197946775,12.980327,-0.63566005,-1.5172688,0.79675263,0.6225633,-0.645057,1.8776523,-0.37259847,0.05411106,-0.029785141,-0.925935,-9.568817,10.485083,1.0836784,-0.51865685,-0.4226969,0.19322503,0
1.9200000000000015,9.826484030879895,-0.7423868649577505,-0.4493756286675018,0.25627823491128454,12.891434,-0.76846147,-1.428465,0.7390687,0.52683574,-0.5401588,1.8884984,-0.3716243,0.05309126,-0.026648551,-0.92648095,-9.576695,10.494448,1.0855503,-0.51865685,-0.4226969,0.19322503,0
1.9300000000000015,9.826484030879895,-0.7423868649577505,-0.4493756286675018,0.25627823491128454,12.891434,-0.76846147,-1.428465,0.7390687,0.43103,-0.4351716,1.8993514,-0.3702961,0.052354325,-0.022442294,-0.9271659,-9.584486,10.502866,1.0850432,-0.7423869,-0.44937563,0.25627825,0
1.9400000000000015,9.826484030879895,-0.7423868649577505,-0.4493756286675018,0.25627823491128454,12.891434,-0.76846147,-1.428465,0.7390687,0.3351454,-0.33010435,1.9101995,-0.36896035,0.05161632,-0.018235574,-0.9278318,-9.592463,10.510453,1.084589,-0.7423869,-0.44937563,0.25627825,0
1.9500000000000015,9.826484030879895,-0.7423868649577505,-0.4493756286675018,0.25627823491128454,12.891434,-0.76846147,-1.428465,0.7390687,0.23918015,-0.22496536,1.9210433,-0.36761704,0.05087726,-0.014028483,-0.9284788,-9.60062,10.517209,1.0841811,-0.7423869,-0.44937563,0.25627825,0
1.9600000000000015,9.586401272944896,-0.9606427916711662,-1.0426163758315878,0.35248501668491267,12.006962,-1.4699193,-1.8751286,0.8867287,0.1431324,-0.119763,1.9318832,-0.3662662,0.05013716,-0.009821104,-0.9291068,-9.608957,10.523132,1.083812,-0.7423869,-0.44937563,0.25627825,0
1.9700000000000015,9.586401272944896,-0.9606427916711662,-1.0426163758315878,0.35248501668491267,12.006962,-1.4699193,-1.8751286,0.8867287,0.04700174,-0.014506809,1.9427078,-0.36442935,0.047034286,-0.003537186,-0.9300361,-9.617161,10.527896,1.0811048,-0.9606428,-1.0426164,0.35248503,0
1.9800000000000015,9.586401272944896,-0.9606427916711662,-1.0426163758315878,0.35248501668491267,12.006962,-1.4699193,-1.8751286,0.8867287,-0.049210455,0.09079026,1.9535056,-0.36257306,0.043928906,0.002746921,-0.9309158,-9.625261,10.531305,1.0784644,-0.9606428,-1.0426164,0.35248503,0
1.9900000000000015,9.586401272944896,-0.9606427916711662,-1.0426163758315878,0.35248501668491267,12.006962,-1.4699193,-1.8751286,0.8867287,-0.1455031,0.19611463,1.9642773,-0.36069742,0.04082118,0.009030881,-0.9317457,-9.63325,10.533361,1.0758722,-0.9606428,-1.0426164,0.35248503,0
2.0000000000000013,,,,,12.83241,-1.4102179,-1.8934181,1.3373523,-0.24187507,0.30145282,1.9750232,-0.35880253,0.037711274,0.015314359,-0.932526,-9.641123,10.534063,1.0733091,-0.9606428,-1.0426164,0.35248503,0
2.010000000000001,,,,,12.83241,-1.4102179,-1.8934181,1.3373523,-0.33832422,0.40679088,1.9857341,-0.35626975,0.033097934,0.023052897,-0.9335125,-9.648659,10.533289,1.068889,-1.1283189,-1.4309521,0.47067645,0
2.020000000000001,,,,,12.83241,-1.4102179,-1.8934181,1.3373523,-0.43484724,0.5121128,1.9964008,-0.35370544,0.028481662,0.030789394,-0.93441635,-9.655898,10.530828,1.0644633,-1.1283189,-1.4309521,0.47067645,0
2.0300000000000007,,,,,12.83241,-1.4102179,-1.8934181,1.3373523,-0.5314411,0.6174017,2.0070233,-0.35110977,0.023862867,0.038523164,-0.93523747,-9.662831,10.526683,1.0600013,-1.1283189,-1.4309521,0.47067645,0
2.0400000000000005,,,,,12.83241,-1.4102179,-1.8934181,1.3373523,-0.6281027,0.72264075,2.0176005,-0.34848306,0.019241957,0.04625353,-0.93597573,-9.669448,10.520855,1.0554725,-1.1283189,-1.4309521,0.47067645,0
2.0500000000000003,,,,,12.779145,-1.4547088,-1.5455366,1.2657311,-0.72482896,0.8278131,2.028132,-0.34582546,0.014619346,0.05397979,-0.936631,-9.675739,10.513349,1.0508465,-1.1283189,-1.4309521,0.47067645,1
2.06,,,,,12.779145,-1.4547088,-1.5455366,1.2657311,-0.8216274,0.93288547,2.0387845,-0.33934814,0.010237348,0.06336797,-0.93846846,-9.683893,10.500712,1.0796477,-1.4547088,-1.5455366,1.2657311,1
2.07,,,,,12.779145,-1.4547088,-1.5455366,1.2657311,-0.9185058,1.0378182,2.0497236,-0.332819,0.0058537894,0.07274647,-0.9401626,-9.691713,10.485398,1.1081747,-1.4547088,-1.5455366,1.2657311,1
2.0799999999999996,,,,,12.779145,-1.4547088,-1.5455366,1.2657311,-1.0154605,1.1425842,2.0609465,-0.32623905,0.0014693366,0.08211387,-0.9417132,-9.6991625,10.467418,1.1363732,-1.4547088,-1.5455366,1.2657311,1
2.0899999999999994,,,,,13.444202,-1.460118,-2.4126048,1.2629025,-1.1124877,1.2471572,2.0724494,-0.3196093,-0.002915341,0.09146873,-0.94312,-9.706204,10.446783,1.1641887,-1.4547088,-1.5455366,1.2657311,1
2.099999999999999,,,,,13.444202,-1.460118,-2.4126048,1.2629025,-1.2095839,1.3515038,2.0842612,-0.312534,-0.011380618,0.10221659,-0.9443226,-9.712797,10.422035,1.1980644,-1.460118,-2.4126048,1.2629025,1
2.109999999999999,,,,,13.444202,-1.460118,-2.4126048,1.2629025,-1.3067387,1.4555858,2.0964086,-0.3053841,-0.01984318,0.11294004,-0.9452998,-9.717949,10.393837,1.2313107,-1.460118,-2.4126048,1.2629025,1
2.1199999999999988,,,,,13.444202,-1.460118,-2.4126048,1.2629025,-1.4039377,1.5593688,2.1088848,-0.29816133,-0.028301004,0.123636544,-0.94605136,-9.721615,10.362229,1.2638285,-1.460118,-2.4126048,1.2629025,1
2.1299999999999986,,,,,12.920583,-1.56272,-2.782653,1.2949711,-1.5011657,1.6628188,2.1216822,-0.29086736,-0.036752075,0.13430353,-0.9465772,-9.723745,10.327255,1.2955196,-1.460118,-2.4126048,1.2629025,1
2.1399999999999983,,,,,12.920583,-1.56272,-2.782653,1.2949711,-1.5984067,1.7659094,2.1347668,-0.28311422,-0.04677379,0.14596409,-0.9467594,-9.724153,10.290318,1.3212267,-1.56272,-2.782653,1.2949711,1
