time-since-start [s],throttle_mpc,roll_mpc,pitch_mpc,yaw_mpc,throttle_nw,roll_nw,pitch_nw,yaw_nw,position_x [m],position_y [m],position_z [m],rotation_w [quaternion],rotation_x [quaternion],rotation_y [quaternion],rotation_z [quaternion],velocity_x [m/s],velocity_y [m/s],velocity_z [m/s],omega_x [rad/s],omega_y [rad/s],omega_z [rad/s],network_used
0.0,10.053960755772584,5.9999988439420155,-5.999999898230598,-3.8833561910228735,12.668512,1.0630695,-4.6432443,-0.8555979,17.93395,-9.856148,1.608035,0.12631741,0.40383235,-0.16233017,-0.8914103,-9.325946,-4.78188,-0.4484683,2.780125,-0.2111253,-0.62311405,0
0.01,10.053960755772584,5.9999988439420155,-5.999999898230598,-3.8833561910228735,13.641089,0.56475294,-5.0813,-0.6049177,17.840313,-9.903864,1.6033739,0.09189919,0.38359916,-0.18483597,-0.9001344,-9.401136,-4.760195,-0.48349115,5.999999,-6.0,-3.883356,0
0.02,10.053960755772584,5.9999988439420155,-5.999999898230598,-3.8833561910228735,13.641089,0.56475294,-5.0813,-0.6049177,17.745943,-9.951326,1.5983704,0.05728094,0.36253104,-0.20693946,-0.90689915,-9.472404,-4.7311015,-0.51696026,5.999999,-6.0,-3.883356,0
0.03,10.053960755772584,5.9999988439420155,-5.999999898230598,-3.8833561910228735,13.641089,0.56475294,-5.0813,-0.6049177,17.650883,-9.998462,1.5930393,0.02253801,0.34067383,-0.22859251,-0.91169006,-9.53907,-4.694957,-0.5490933,5.999999,-6.0,-3.883356,0
0.04,10.053960755772584,5.9999988439420155,-5.999999898230598,-3.8833561910228735,13.324656,-1.353197,-3.6333992,-0.08830267,17.555182,-10.045201,1.5873923,-0.0122539755,0.3180751,-0.24974802,-0.91449654,-9.6005,-4.652177,-0.58011967,5.999999,-6.0,-3.883356,0
0.05,10.053960755772584,5.9999988439420155,-5.999999898230598,-3.8833561910228735,13.324656,-1.353197,-3.6333992,-0.08830267,17.458893,-10.091483,1.5814397,-0.047019288,0.29478407,-0.27035993,-0.9153125,-9.656099,-4.603237,-0.6102785,5.999999,-6.0,-3.883356,0
0.060000000000000005,10.053960755772584,5.9999988439420155,-5.999999898230598,-3.8833561910228735,13.324656,-1.353197,-3.6333992,-0.08830267,17.36208,-10.137247,1.5751889,-0.081682265,0.2708514,-0.29038337,-0.91413623,-9.70533,-4.548665,-0.63981616,5.999999,-6.0,-3.883356,0
0.07,10.053960755772584,5.9999988439420155,-5.999999898230598,-3.8833561910228735,13.324656,-1.353197,-3.6333992,-0.08830267,17.264809,-10.18244,1.5686446,-0.11616744,0.24632917,-0.30977476,-0.9109702,-9.747705,-4.489039,-0.6689846,5.999999,-6.0,-3.883356,0
0.08,16.84841701946273,5.731395486663638,-5.999999785218388,-1.7345074635921804,14.728535,-1.8451538,-2.1766393,-0.18737084,17.16715,-10.227013,1.5618095,-0.15039977,0.2212708,-0.3284919,-0.9058214,-9.782801,-4.424979,-0.698039,5.999999,-6.0,-3.883356,0
0.09,16.84841701946273,5.731395486663638,-5.999999785218388,-1.7345074635921804,14.728535,-1.8451538,-2.1766393,-0.18737084,17.069082,-10.270699,1.5549165,-0.17430899,0.19244486,-0.3477182,-0.9009293,-9.828886,-4.3114057,-0.68060184,5.7313957,-6.0,-1.7345074,0
0.09999999999999999,16.84841701946273,5.731395486663638,-5.999999785218388,-1.7345074635921804,14.728535,-1.8451538,-2.1766393,-0.18737084,16.970617,-10.313224,1.5481955,-0.19790511,0.16327327,-0.36631995,-0.89441895,-9.86195,-4.192804,-0.66375864,5.7313957,-6.0,-1.7345074,0
0.10999999999999999,16.84841701946273,5.731395486663638,-5.999999785218388,-1.7345074635921804,14.728535,-1.8451538,-2.1766393,-0.18737084,16.87189,-10.354541,1.5416371,-0.22114576,0.13380842,-0.3842637,-0.8863021,-9.8817,-4.070142,-0.64812386,5.7313957,-6.0,-1.7345074,0
0.11999999999999998,16.84841701946273,5.731395486663638,-5.999999785218388,-1.7345074635921804,14.728535,-1.8451538,-2.1766393,-0.18737084,16.773031,-10.394616,1.5352266,-0.2439892,0.10410321,-0.40151724,-0.87659335,-9.887938,-3.9444182,-0.6343032,5.7313957,-6.0,-1.7345074,0
0.12999999999999998,20.999956957373236,2.6515519956093327,-5.999999133133352,-0.07767073244952577,14.664636,-3.0499084,-0.99417216,-0.10478455,16.674177,-10.433422,1.5289428,-0.26639438,0.07421102,-0.41804957,-0.86531,-9.880566,-3.8166525,-0.6228895,5.7313957,-6.0,-1.7345074,0
0.13999999999999999,20.999956957373236,2.6515519956093327,-5.999999133133352,-0.07767073244952577,14.664636,-3.0499084,-0.99417216,-0.10478455,16.575487,-10.47079,1.5228955,-0.28011,0.04484762,-0.4212755,-0.86142564,-9.855679,-3.6573172,-0.5865356,2.651552,-5.999999,-0.07767073,0
0.15,20.999956957373236,2.6515519956093327,-5.999999133133352,-0.07767073244952577,14.664636,-3.0499084,-0.99417216,-0.10478455,16.47711,-10.506578,1.5172126,-0.29352424,0.015435975,-0.42404822,-0.85661453,-9.817309,-3.5007813,-0.5500646,2.651552,-5.999999,-0.07767073,0
0.16,20.867213111631205,0.3605516490239599,-2.8874258155735406,-0.08834845687786222,15.006783,-3.62383,1.2179389,-0.52592283,16.379187,-10.540818,1.5118926,-0.3066227,-0.013992276,-0.42636472,-0.8508818,-9.765624,-3.3477254,-0.5140472,2.651552,-5.999999,-0.07767073,0
0.17,20.867213111631205,0.3605516490239599,-2.8874258155735406,-0.08834845687786222,15.006783,-3.62383,1.2179389,-0.52592283,16.281834,-10.573551,1.5069261,-0.3130961,-0.026639061,-0.423433,-0.84968555,-9.7041235,-3.1992028,-0.47910652,0.36055166,-2.887426,-0.088348456,0
0.18000000000000002,20.867213111631205,0.3605516490239599,-2.8874258155735406,-0.08834845687786222,15.006783,-3.62383,1.2179389,-0.52592283,16.185123,-10.604813,1.502313,-0.3195032,-0.039280202,-0.4204116,-0.84830934,-9.637397,-3.053671,-0.44338137,0.36055166,-2.887426,-0.088348456,0
0.19000000000000003,20.867213111631205,0.3605516490239599,-2.8874258155735406,-0.08834845687786222,15.006783,-3.62383,1.2179389,-0.52592283,16.089106,-10.634635,1.4980606,-0.32584256,-0.051913023,-0.4173011,-0.84675336,-9.565503,-2.9112556,-0.406981,0.36055166,-2.887426,-0.088348456,0
0.20000000000000004,19.57300460741513,-0.11905906005068805,-0.327274124643784,-0.3024085981352055,13.982252,-3.6724446,2.997455,-0.53819555,15.993833,-10.66305,1.4941752,-0.3321129,-0.06453484,-0.4141022,-0.84501797,-9.488506,-2.7720802,-0.3700152,0.36055166,-2.887426,-0.088348456,0
0.21000000000000005,19.57300460741513,-0.11905906005068805,-0.327274124643784,-0.3024085981352055,13.982252,-3.6724446,2.997455,-0.53819555,15.899323,-10.690127,1.4906197,-0.33410576,-0.06509359,-0.4131522,-0.84465444,-9.413181,-2.643675,-0.34103855,-0.11905906,-0.3272741,-0.3024086,0
0.22000000000000006,19.57300460741513,-0.11905906005068805,-0.327274124643784,-0.3024085981352055,13.982252,-3.6724446,2.997455,-0.53819555,15.80557,-10.715924,1.4873552,-0.33609685,-0.06565198,-0.41219997,-0.84428644,-9.337483,-2.5157673,-0.3117827,-0.11905906,-0.3272741,-0.3024086,0
0.23000000000000007,19.57300460741513,-0.11905906005068805,-0.327274124643784,-0.3024085981352055,13.982252,-3.6724446,2.997455,-0.53819555,15.712575,-10.740445,1.4843849,-0.33808616,-0.06621004,-0.41124558,-0.843914,-9.261414,-2.3883588,-0.28224784,-0.11905906,-0.3272741,-0.3024086,0
0.24000000000000007,19.57300460741513,-0.11905906005068805,-0.327274124643784,-0.3024085981352055,14.711814,-3.2201777,4.4751506,-0.61775094,15.620343,-10.763694,1.4817114,-0.34007365,-0.066767745,-0.410289,-0.843537,-9.184975,-2.261451,-0.25243425,-0.11905906,-0.3272741,-0.3024086,0
0.25000000000000006,19.57300460741513,-0.11905906005068805,-0.327274124643784,-0.3024085981352055,14.711814,-3.2201777,4.4751506,-0.61775094,15.528877,-10.785676,1.4793373,-0.3420593,-0.06732509,-0.40933022,-0.8431555,-9.10817,-2.1350462,-0.22234215,-0.11905906,-0.3272741,-0.3024086,0
0.26000000000000006,19.57300460741513,-0.11905906005068805,-0.327274124643784,-0.3024085981352055,14.711814,-3.2201777,4.4751506,-0.61775094,15.438181,-10.8063965,1.4772655,-0.3440432,-0.06788208,-0.40836927,-0.84276956,-9.031002,-2.0091467,-0.19197178,-0.11905906,-0.3272741,-0.3024086,0
0.2700000000000001,19.57300460741513,-0.11905906005068805,-0.327274124643784,-0.3024085981352055,14.711814,-3.2201777,4.4751506,-0.61775094,15.348259,-10.82586,1.4754987,-0.34602523,-0.068438716,-0.40740615,-0.8423791,-8.953473,-1.883754,-0.1613234,-0.11905906,-0.3272741,-0.3024086,0
0.2800000000000001,18.245876896444972,-0.4453923166980916,1.4148615496107608,-0.46730486985032726,17.149923,-3.6182427,5.123409,-0.64691,15.259113,-10.844072,1.4740399,-0.3480054,-0.06899497,-0.40644085,-0.8419842,-8.875586,-1.7588702,-0.13039725,-0.11905906,-0.3272741,-0.3024086,0
0.2900000000000001,18.245876896444972,-0.4453923166980916,1.4148615496107608,-0.46730486985032726,17.149923,-3.6182427,5.123409,-0.64691,15.170719,-10.861079,1.4728478,-0.34724057,-0.061311845,-0.40717658,-0.84253883,-8.8036585,-1.6422619,-0.10799995,-0.4453923,1.4148616,-0.46730486,0
0.3000000000000001,18.245876896444972,-0.4453923166980916,1.4148615496107608,-0.46730486985032726,17.149923,-3.6182427,5.123409,-0.64691,15.083033,-10.876914,1.4718803,-0.34645474,-0.053625017,-0.40788773,-0.8430425,-8.734105,-1.5243591,-0.08546926,-0.4453923,1.4148616,-0.46730486,0
0.3100000000000001,18.245876896444972,-0.4453923166980916,1.4148615496107608,-0.46730486985032726,17.149923,-3.6182427,5.123409,-0.64691,14.996029,-10.891562,1.4711387,-0.34564793,-0.045934953,-0.4085742,-0.84349525,-8.666936,-1.4051801,-0.062841184,-0.4453923,1.4148616,-0.46730486,0
0.3200000000000001,17.14241592003774,-0.7283526235369561,3.117577057128824,-0.5819043228392394,17.308544,-3.4935434,4.8880563,-0.5915697,14.909686,-10.905013,1.4706236,-0.34482026,-0.03824211,-0.40923592,-0.843897,-8.602162,-1.2847438,-0.040151767,-0.4453923,1.4148616,-0.46730486,0
0.3300000000000001,17.14241592003774,-0.7283526235369561,3.117577057128824,-0.5819043228392394,17.308544,-3.4935434,4.8880563,-0.5915697,14.8239565,-10.917289,1.4702988,-0.34099028,-0.022636732,-0.4115947,-0.8448684,-8.544501,-1.169843,-0.024863046,-0.7283526,3.117577,-0.58190435,0
0.34000000000000014,17.14241592003774,-0.7283526235369561,3.117577057128824,-0.5819043228392394,17.308544,-3.4935434,4.8880563,-0.5915697,14.738779,-10.928401,1.470125,-0.33707002,-0.007025365,-0.41384447,-0.8456162,-8.491628,-1.0522859,-0.009964883,-0.7283526,3.117577,-0.58190435,0
0.35000000000000014,17.14241592003774,-0.7283526235369561,3.117577057128824,-0.5819043228392394,17.308544,-3.4935434,4.8880563,-0.5915697,14.654107,-10.938324,1.4700975,-0.33306053,0.008587863,-0.41598472,-0.84614015,-8.443583,-0.9321756,0.0044030454,-0.7283526,3.117577,-0.58190435,0
0.36000000000000015,16.385713886333416,-0.7644859042038435,3.0306823244817456,-0.6513655903732131,16.393047,-3.646364,4.891198,-0.6516693,14.569891,-10.947036,1.4702107,-0.32896286,0.024198817,-0.41801485,-0.8464402,-8.400402,-0.8096175,0.018101636,-0.7283526,3.117577,-0.58190435,0
0.37000000000000016,16.385713886333416,-0.7644859042038435,3.0306823244817456,-0.6513655903732131,16.393047,-3.646364,4.891198,-0.6516693,14.486073,-10.954537,1.4704324,-0.32525095,0.03964037,-0.41963217,-0.8464921,-8.36378,-0.6902706,0.02612565,-0.7644859,3.0306823,-0.6513656,0
0.38000000000000017,16.385713886333416,-0.7644859042038435,3.0306823244817456,-0.6513655903732131,16.393047,-3.646364,4.891198,-0.6516693,14.402599,-10.9608345,1.4707304,-0.32145616,0.055071823,-0.42114255,-0.8463283,-8.331786,-0.56888866,0.033334542,-0.7644859,3.0306823,-0.6513656,0
0.3900000000000002,16.385713886333416,-0.7644859042038435,3.0306823244817456,-0.6513655903732131,16.393047,-3.646364,4.891198,-0.6516693,14.319422,-10.965909,1.4710959,-0.31757945,0.07048924,-0.42254558,-0.84594876,-8.3044405,-0.44557187,0.03960053,-0.7644859,3.0306823,-0.6513656,0
0.4000000000000002,15.938953788097974,-0.6451626033938196,2.1226931703786853,-0.7000532281520236,15.362835,-3.3299212,4.8240175,-0.6578997,14.236494,-10.969741,1.4715188,-0.3136218,0.085888706,-0.4238409,-0.84535366,-8.281755,-0.32042256,0.04479681,-0.7644859,3.0306823,-0.6513656,0
0.4100000000000002,15.938953788097974,-0.6451626033938196,2.1226931703786853,-0.7000532281520236,15.362835,-3.3299212,4.8240175,-0.6578997,14.1537695,-10.972329,1.4719743,-0.3117841,0.09735001,-0.42411324,-0.8446544,-8.26376,-0.19721459,0.046195533,-0.6451626,2.122693,-0.7000532,0
0.4200000000000002,15.938953788097974,-0.6451626033938196,2.1226931703786853,-0.7000532281520236,15.362835,-3.3299212,4.8240175,-0.6578997,14.071207,-10.9736805,1.47244,-0.3099042,0.10879814,-0.4243282,-0.84384084,-8.249052,-0.07295663,0.04682587,-0.6451626,2.122693,-0.7000532,0
0.4300000000000002,15.938953788097974,-0.6451626033938196,2.1226931703786853,-0.7000532281520236,15.362835,-3.3299212,4.8240175,-0.6578997,13.988776,-10.9737835,1.4729078,-0.30798236,0.12023155,-0.42448574,-0.8429131,-8.237631,0.052303933,0.046620615,-0.6451626,2.122693,-0.7000532,0
0.4400000000000002,15.938953788097974,-0.6451626033938196,2.1226931703786853,-0.7000532281520236,14.479919,-3.3610911,4.7114472,-0.5117958,13.906444,-10.97263,1.4733691,-0.30601892,0.13164869,-0.42458588,-0.8418713,-8.229492,0.17851913,0.045513023,-0.6451626,2.122693,-0.7000532,0
0.45000000000000023,15.938953788097974,-0.6451626033938196,2.1226931703786853,-0.7000532281520236,14.479919,-3.3610911,4.7114472,-0.5117958,13.824176,-10.970209,1.4738146,-0.30401403,0.14304802,-0.42462856,-0.84071565,-8.224632,0.3056405,0.043436825,-0.6451626,2.122693,-0.7000532,0
0.46000000000000024,15.938953788097974,-0.6451626033938196,2.1226931703786853,-0.7000532281520236,14.479919,-3.3610911,4.7114472,-0.5117958,13.7419405,-10.966513,1.4742343,-0.30196804,0.15442799,-0.42461377,-0.8394462,-8.223042,0.43361905,0.0403263,-0.6451626,2.122693,-0.7000532,0
0.47000000000000025,15.938953788097974,-0.6451626033938196,2.1226931703786853,-0.7000532281520236,14.479919,-3.3610911,4.7114472,-0.5117958,13.659704,-10.961534,1.4746175,-0.29988116,0.16578707,-0.42454153,-0.83806324,-8.224714,0.56240535,0.03611628,-0.6451626,2.122693,-0.7000532,0
0.48000000000000026,15.621378677462777,-0.5257716864869475,1.2972230304864558,-0.6942266421714719,13.975111,-3.6360903,4.477972,-0.21523362,13.577435,-10.955263,1.4749527,-0.29775372,0.17712374,-0.42441186,-0.8365668,-8.229639,0.6919495,0.030742183,-0.6451626,2.122693,-0.7000532,0
0.49000000000000027,15.621378677462777,-0.5257716864869475,1.2972230304864558,-0.6942266421714719,13.975111,-3.6360903,4.477972,-0.21523362,13.495102,-10.947706,1.4752197,-0.29743007,0.18480027,-0.42351615,-0.8354746,-8.237228,0.8194738,0.022543836,-0.5257717,1.297223,-0.6942266,0
0.5000000000000002,15.621378677462777,-0.5257716864869475,1.2972230304864558,-0.6942266421714719,13.975111,-3.6360903,4.477972,-0.21523362,13.4126835,-10.938872,1.4754014,-0.2970883,0.19246553,-0.42259458,-0.8343314,-8.246884,0.9473087,0.013703819,-0.5257717,1.297223,-0.6942266,0
0.5100000000000002,15.621378677462777,-0.5257716864869475,1.2972230304864558,-0.6942266421714719,13.975111,-3.6360903,4.477972,-0.21523362,13.330158,-10.92876,1.4754914,-0.2967284,0.20011905,-0.42164722,-0.83313733,-8.258601,1.0754378,0.004193042,-0.5257717,1.297223,-0.6942266,0
0.5200000000000002,15.500212615232773,-0.3839031695365062,0.33057315335008275,-0.6644518784209478,13.070139,-3.5198784,3.8390775,-0.19631058,13.247505,-10.917364,1.4754828,-0.2963504,0.20776035,-0.42067412,-0.8318924,-8.27237,1.2038441,-0.00601741,-0.5257717,1.297223,-0.6942266,0
0.5300000000000002,15.500212615232773,-0.3839031695365062,0.33057315335008275,-0.6644518784209478,13.070139,-3.5198784,3.8390775,-0.19631058,13.164707,-10.904688,1.475366,-0.29801747,0.21109998,-0.41887322,-0.83136463,-8.287593,1.3313748,-0.017343199,-0.38390318,0.33057314,-0.6644519,0
0.5400000000000003,15.500212615232773,-0.3839031695365062,0.33057315335008275,-0.6644518784209478,13.070139,-3.5198784,3.8390775,-0.19631058,13.081752,-10.890738,1.475136,-0.2996793,0.21443592,-0.41706502,-0.8308224,-8.303592,1.4587883,-0.028636381,-0.38390318,0.33057314,-0.6644519,0
0.5500000000000003,15.500212615232773,-0.3839031695365062,0.33057315335008275,-0.6644518784209478,13.070139,-3.5198784,3.8390775,-0.19631058,12.9986315,-10.875513,1.4747934,-0.3013359,0.21776812,-0.41524953,-0.83026564,-8.320367,1.5860842,-0.039903503,-0.38390318,0.33057314,-0.6644519,0
0.5600000000000003,15.427505163908355,-0.25338536491757063,-0.24370493657370512,-0.6056377571888182,12.684936,-2.9766135,2.3612747,-0.38986117,12.91534,-10.859015,1.4743383,-0.30298725,0.2210965,-0.41342676,-0.82969445,-8.337917,1.7132622,-0.051151108,-0.38390318,0.33057314,-0.6644519,0
0.5700000000000003,15.427505163908355,-0.25338536491757063,-0.24370493657370512,-0.6056377571888182,12.684936,-2.9766135,2.3612747,-0.38986117,12.831871,-10.84125,1.4737691,-0.30572152,0.22171994,-0.41133434,-0.82956505,-8.355869,1.8396552,-0.06262918,-0.25338537,-0.24370493,-0.6056377,0
0.5800000000000003,15.427505163908355,-0.25338536491757063,-0.24370493657370512,-0.6056377571888182,12.684936,-2.9766135,2.3612747,-0.38986117,12.748222,-10.822223,1.4730873,-0.308452,0.22234066,-0.40923688,-0.8294255,-8.373821,1.9657407,-0.07366044,-0.25338537,-0.24370493,-0.6056377,0
0.5900000000000003,15.427505163908355,-0.25338536491757063,-0.24370493657370512,-0.6056377571888182,12.684936,-2.9766135,2.3612747,-0.38986117,12.664394,-10.801936,1.4722974,-0.31117877,0.22295864,-0.40713438,-0.8292758,-8.391776,2.091517,-0.084246196,-0.25338537,-0.24370493,-0.6056377,0
0.6000000000000003,15.474058703606826,-0.26613583808883834,-0.2677929371493748,-0.5327894753780263,12.812267,-2.5203917,1.1562176,-0.4200464,12.580387,-10.780394,1.4714038,-0.31390172,0.22357391,-0.40502694,-0.82911587,-8.409738,2.2169821,-0.094387755,-0.25338537,-0.24370493,-0.6056377,0
0.6100000000000003,15.474058703606826,-0.26613583808883834,-0.2677929371493748,-0.5327894753780263,12.812267,-2.5203917,1.1562176,-0.4200464,12.4962,-10.757596,1.4704124,-0.31635356,0.22395925,-0.40290558,-0.82911354,-8.427758,2.3425035,-0.10380707,-0.26613584,-0.26779294,-0.53278947,0
0.6200000000000003,15.474058703606826,-0.26613583808883834,-0.2677929371493748,-0.5327894753780263,12.812267,-2.5203917,1.1562176,-0.4200464,12.411832,-10.733544,1.4693292,-0.31880206,0.22434221,-0.4007799,-0.8291024,-8.445779,2.467687,-0.11274988,-0.26613584,-0.26779294,-0.53278947,0
0.6300000000000003,15.474058703606826,-0.26613583808883834,-0.2677929371493748,-0.5327894753780263,12.812267,-2.5203917,1.1562176,-0.4200464,12.327284,-10.708242,1.4681591,-0.32124713,0.22472274,-0.39865002,-0.8290824,-8.463802,2.59253,-0.121217676,-0.26613584,-0.26779294,-0.53278947,0
0.6400000000000003,15.474058703606826,-0.26613583808883834,-0.2677929371493748,-0.5327894753780263,12.659058,-2.3816342,0.8439949,-0.34060675,12.242556,-10.681694,1.4669065,-0.3236888,0.22510087,-0.39651588,-0.8290536,-8.4818325,2.7170312,-0.12921198,-0.26613584,-0.26779294,-0.53278947,0
0.6500000000000004,15.474058703606826,-0.26613583808883834,-0.2677929371493748,-0.5327894753780263,12.659058,-2.3816342,0.8439949,-0.34060675,12.157647,-10.653903,1.4655765,-0.32612702,0.22547662,-0.3943775,-0.8290159,-8.499871,2.8411882,-0.1367343,-0.26613584,-0.26779294,-0.53278947,0
0.6600000000000004,15.474058703606826,-0.26613583808883834,-0.2677929371493748,-0.5327894753780263,12.659058,-2.3816342,0.8439949,-0.34060675,12.072558,-10.624871,1.4641737,-0.32856175,0.22584999,-0.39223492,-0.8289694,-8.5179205,2.9649985,-0.14378622,-0.26613584,-0.26779294,-0.53278947,0
0.6700000000000004,15.474058703606826,-0.26613583808883834,-0.2677929371493748,-0.5327894753780263,12.659058,-2.3816342,0.8439949,-0.34060675,11.987288,-10.594604,1.4627025,-0.330993,0.2262209,-0.39008817,-0.82891405,-8.535985,3.088461,-0.15036927,-0.26613584,-0.26779294,-0.53278947,0
0.6800000000000004,15.380010532236382,-0.23263109894397982,-0.4561836862930619,-0.4622626244387576,12.797244,-1.8877453,0.11437901,-0.33195525,11.901839,-10.563103,1.4611678,-0.3334207,0.22658944,-0.38793725,-0.82884985,-8.554066,3.211573,-0.15648507,-0.26613584,-0.26779294,-0.53278947,0
0.6900000000000004,15.380010532236382,-0.23263109894397982,-0.4561836862930619,-0.4622626244387576,12.797244,-1.8877453,0.11437901,-0.33195525,11.816209,-10.530376,1.4595717,-0.33595574,0.22598203,-0.38568664,-0.8290424,-8.571969,3.3335547,-0.1626377,-0.2326311,-0.45618367,-0.46226263,0
0.7000000000000004,15.380010532236382,-0.23263109894397982,-0.4561836862930619,-0.4622626244387576,12.797244,-1.8877453,0.11437901,-0.33195525,11.7304,-10.496432,1.4579171,-0.3384868,0.22537191,-0.38343143,-0.829225,-8.589663,3.455098,-0.16817091,-0.2326311,-0.45618367,-0.46226263,0
0.7100000000000004,15.380010532236382,-0.23263109894397982,-0.4561836862930619,-0.4622626244387576,12.797244,-1.8877453,0.11437901,-0.33195525,11.644416,-10.461275,1.4562103,-0.3410138,0.22475912,-0.38117167,-0.82939774,-8.607149,3.5761986,-0.17308661,-0.2326311,-0.45618367,-0.46226263,0
0.7200000000000004,15.33332818019566,-0.2886214204964537,-0.3875487314431934,-0.38398637488019427,12.900932,-1.6682259,-0.009818563,-0.21202904,11.558258,-10.424909,1.4544574,-0.34353673,0.22414365,-0.37890738,-0.82956064,-8.624431,3.6968524,-0.17738672,-0.2326311,-0.45618367,-0.46226263,0
0.7300000000000004,15.33332818019566,-0.2886214204964537,-0.3875487314431934,-0.38398637488019427,12.900932,-1.6682259,-0.009818563,-0.21202904,11.471929,-10.387341,1.4526631,-0.34553856,0.22375834,-0.37661242,-0.8298783,-8.64151,3.8166912,-0.18136942,-0.28862143,-0.38754874,-0.38398638,0
0.7400000000000004,15.33332818019566,-0.2886214204964537,-0.3875487314431934,-0.38398637488019427,12.900932,-1.6682259,-0.009818563,-0.21202904,11.385428,-10.348577,1.4508319,-0.34753707,0.22337088,-0.3743139,-0.830188,-8.658524,3.9360783,-0.18476832,-0.28862143,-0.38754874,-0.38398638,0
0.7500000000000004,15.33332818019566,-0.2886214204964537,-0.3875487314431934,-0.38398637488019427,12.900932,-1.6682259,-0.009818563,-0.21202904,11.2987585,-10.308621,1.4489697,-0.34953234,0.22298133,-0.37201178,-0.83048975,-8.675476,4.0550103,-0.1875856,-0.28862143,-0.38754874,-0.38398638,0
0.7600000000000005,15.034862173538768,-0.32910629254896107,-0.6829235572340552,-0.30861493034442106,13.0638685,-1.8357917,-0.34152365,0.07903856,11.211919,-10.267478,1.4470822,-0.35152426,0.22258964,-0.36970612,-0.83078367,-8.692368,4.173485,-0.18982351,-0.28862143,-0.38754874,-0.38398638,0
0.7700000000000005,15.034862173538768,-0.32910629254896107,-0.6829235572340552,-0.30861493034442106,13.0638685,-1.8357917,-0.34152365,0.07903856,11.124912,-10.225164,1.445166,-0.35369942,0.22089991,-0.36679214,-0.8316027,-8.708783,4.2891197,-0.19324647,-0.3291063,-0.68292356,-0.30861494,0
0.7800000000000005,15.034862173538768,-0.32910629254896107,-0.6829235572340552,-0.30861493034442106,13.0638685,-1.8357917,-0.34152365,0.07903856,11.037744,-10.181699,1.4432201,-0.3558686,0.21920648,-0.36387205,-0.83240783,-8.724898,4.4040804,-0.19580063,-0.3291063,-0.68292356,-0.30861494,0
0.7900000000000005,15.034862173538768,-0.32910629254896107,-0.6829235572340552,-0.30861493034442106,13.0638685,-1.8357917,-0.34152365,0.07903856,10.950416,-10.137086,1.441253,-0.35803184,0.21750937,-0.36094585,-0.83319896,-8.740718,4.5183587,-0.197491,-0.3291063,-0.68292356,-0.30861494,0
0.8000000000000005,14.94148760891648,-0.3967582309738505,-0.5613078787592134,-0.24673493879387082,13.446385,-1.517413,-0.5607992,-0.016614493,10.86293,-10.091334,1.4392731,-0.36018908,0.21580862,-0.3580136,-0.8339762,-8.756244,4.6319475,-0.19832267,-0.3291063,-0.68292356,-0.30861494,0
0.8100000000000005,14.94148760891648,-0.3967582309738505,-0.5613078787592134,-0.24673493879387082,13.446385,-1.517413,-0.5607992,-0.016614493,10.775291,-10.044454,1.4372863,-0.3617922,0.21462278,-0.35507962,-0.8348422,-8.771457,4.74415,-0.19893542,-0.39675823,-0.5613079,-0.24673493,0
0.8200000000000005,14.94148760891648,-0.3967582309738505,-0.5613078787592134,-0.24673493879387082,13.446385,-1.517413,-0.5607992,-0.016614493,10.6875,-9.996455,1.4352971,-0.36339048,0.21343409,-0.35214096,-0.83569705,-8.786575,4.855687,-0.19877216,-0.39675823,-0.5613079,-0.24673493,0
0.8300000000000005,14.94148760891648,-0.3967582309738505,-0.5613078787592134,-0.24673493879387082,13.446385,-1.517413,-0.5607992,-0.016614493,10.59956,-9.947344,1.4333135,-0.36498392,0.21224257,-0.3491976,-0.83654076,-8.801601,4.966552,-0.19783753,-0.39675823,-0.5613079,-0.24673493,0
0.8400000000000005,14.94148760891648,-0.3967582309738505,-0.5613078787592134,-0.24673493879387082,13.542358,-1.3670517,-0.7129899,0.038454954,10.511469,-9.897127,1.4313432,-0.3665725,0.21104822,-0.34624958,-0.8373733,-8.81654,5.07674,-0.19613624,-0.39675823,-0.5613079,-0.24673493,0
0.8500000000000005,14.94148760891648,-0.3967582309738505,-0.5613078787592134,-0.24673493879387082,13.542358,-1.3670517,-0.7129899,0.038454954,10.423229,-9.845812,1.4293934,-0.3681562,0.20985106,-0.34329695,-0.8381947,-8.831388,5.1862445,-0.19367298,-0.39675823,-0.5613079,-0.24673493,0
0.8600000000000005,14.94148760891648,-0.3967582309738505,-0.5613078787592134,-0.24673493879387082,13.542358,-1.3670517,-0.7129899,0.038454954,10.334842,-9.793405,1.4274722,-0.36973497,0.2086511,-0.34033972,-0.83900493,-8.846151,5.2950606,-0.19045253,-0.39675823,-0.5613079,-0.24673493,0
0.8700000000000006,14.94148760891648,-0.3967582309738505,-0.5613078787592134,-0.24673493879387082,13.542358,-1.3670517,-0.7129899,0.038454954,10.246307,-9.739913,1.4255869,-0.37130883,0.20744835,-0.33737797,-0.83980393,-8.86083,5.403183,-0.18647969,-0.39675823,-0.5613079,-0.24673493,0
0.8800000000000006,14.552284378205131,-0.4168717222082016,-0.8284369815215114,-0.19176712877536825,14.1533985,-0.9748919,-0.42894906,0.13279456,10.157625,-9.685344,1.4237452,-0.37287772,0.20624284,-0.3344117,-0.8405918,-8.875425,5.510606,-0.1817593,-0.39675823,-0.5613079,-0.24673493,1
0.8900000000000006,14.552284378205131,-0.4168717222082016,-0.8284369815215114,-0.19176712877536825,14.1533985,-0.9748919,-0.42894906,0.13279456,10.068802,-9.629733,1.4219273,-0.37202615,0.20603256,-0.32964668,-0.8428997,-8.889453,5.611576,-0.18167585,-0.9748919,-0.42894906,0.13279456,1
0.9000000000000006,14.552284378205131,-0.4168717222082016,-0.8284369815215114,-0.19176712877536825,14.1533985,-0.9748919,-0.42894906,0.13279456,9.979835,-9.573117,1.4201149,-0.37116385,0.20581634,-0.32487217,-0.84518325,-8.904146,5.711551,-0.18067607,-0.9748919,-0.42894906,0.13279456,1
0.9100000000000006,14.552284378205131,-0.4168717222082016,-0.8284369815215114,-0.19176712877536825,14.1533985,-0.9748919,-0.42894906,0.13279456,9.890716,-9.515506,1.418317,-0.37029085,0.2055942,-0.3200883,-0.8474425,-8.919501,5.81052,-0.17877044,-0.9748919,-0.42894906,0.13279456,1
0.9200000000000006,14.324002606676427,-0.3470905643430149,-1.0415946186282816,-0.16343345246747937,14.313739,-0.95140326,-0.6768795,0.19884008,9.801441,-9.456909,1.4165425,-0.36940718,0.20536612,-0.31529522,-0.8496773,-8.935516,5.90847,-0.17596956,-0.9748919,-0.42894906,0.13279456,1
0.9300000000000006,14.324002606676427,-0.3470905643430149,-1.0415946186282816,-0.16343345246747937,14.313739,-0.95140326,-0.6768795,0.19884008,9.712004,-9.397333,1.4148066,-0.3686461,0.20393069,-0.3102017,-0.8522246,-8.952279,6.0064287,-0.17105862,-0.95140326,-0.6768795,0.19884008,1
0.9400000000000006,14.324002606676427,-0.3470905643430149,-1.0415946186282816,-0.16343345246747937,14.313739,-0.95140326,-0.6768795,0.19884008,9.6223955,-9.336784,1.413125,-0.36787212,0.20248811,-0.30509737,-0.854742,-8.969446,6.1031733,-0.16507241,-0.95140326,-0.6768795,0.19884008,1
0.9500000000000006,14.324002606676427,-0.3470905643430149,-1.0415946186282816,-0.16343345246747937,14.313739,-0.95140326,-0.6768795,0.19884008,9.532613,-9.275274,1.4115087,-0.36708522,0.20103842,-0.2999823,-0.8572294,-8.987012,6.19869,-0.1580243,-0.95140326,-0.6768795,0.19884008,1
0.9600000000000006,13.944515575114517,-0.03812471794254099,-1.4612265806106102,-0.16831402819313904,14.028492,-0.6522423,-0.39721417,0.09041256,9.442654,-9.212814,1.4099681,-0.36628544,0.19958168,-0.29485673,-0.85968673,-9.00497,6.292966,-0.14992777,-0.95140326,-0.6768795,0.19884008,0
0.9700000000000006,13.944515575114517,-0.03812471794254099,-1.4612265806106102,-0.16831402819313904,14.028492,-0.6522423,-0.39721417,0.09041256,9.352516,-9.14943,1.4085,-0.3691152,0.19361334,-0.29184082,-0.8608696,-9.022218,6.383643,-0.14350632,-0.038124718,-1.4612266,-0.16831402,0
0.9800000000000006,13.944515575114517,-0.03812471794254099,-1.4612265806106102,-0.16831402819313904,14.028492,-0.6522423,-0.39721417,0.09041256,9.262213,-9.085145,1.4071018,-0.37192497,0.1876345,-0.28880915,-0.8620058,-9.038175,6.473229,-0.13594492,-0.038124718,-1.4612266,-0.16831402,0
0.9900000000000007,13.944515575114517,-0.03812471794254099,-1.4612265806106102,-0.16831402819313904,14.028492,-0.6522423,-0.39721417,0.09041256,9.171757,-9.019971,1.4057848,-0.37471464,0.1816455,-0.2857618,-0.86309546,-9.052842,6.561702,-0.12726492,-0.038124718,-1.4612266,-0.16831402,0
1.0000000000000007,13.655716473088125,-0.10800393418888675,-1.1701990905885722,-0.15633830012204916,13.506314,-0.01105437,-0.5415073,0.06329864,9.081161,-8.953916,1.4045602,-0.37748402,0.17564666,-0.282699,-0.8641384,-9.066218,6.649042,-0.117487945,-0.038124718,-1.4612266,-0.16831402,1
1.0100000000000007,13.655716473088125,-0.10800393418888675,-1.1701990905885722,-0.15633830012204916,13.506314,-0.01105437,-0.5415073,0.06329864,8.990438,-8.887006,1.403421,-0.37796482,0.17323771,-0.2816837,-0.86474586,-9.0782175,6.732787,-0.11030339,-0.01105437,-0.5415073,0.06329864,1
1.0200000000000007,13.655716473088125,-0.10800393418888675,-1.1701990905885722,-0.15633830012204916,13.506314,-0.01105437,-0.5415073,0.06329864,8.899598,-8.819261,1.4023554,-0.37844285,0.17082748,-0.28066635,-0.8653469,-9.089749,6.8161173,-0.10273825,-0.01105437,-0.5415073,0.06329864,1
1.0300000000000007,13.655716473088125,-0.10800393418888675,-1.1701990905885722,-0.15633830012204916,13.506314,-0.01105437,-0.5415073,0.06329864,8.808645,-8.750685,1.4013675,-0.37891802,0.16841598,-0.2796469,-0.8659415,-9.100813,6.8990307,-0.09479578,-0.01105437,-0.5415073,0.06329864,1
1.0400000000000007,13.655716473088125,-0.10800393418888675,-1.1701990905885722,-0.15633830012204916,13.343647,0.06924918,-0.35616928,0.1139819,8.717583,-8.681281,1.4004608,-0.3793904,0.16600323,-0.27862537,-0.8665297,-9.111408,6.9815245,-0.08647925,-0.01105437,-0.5415073,0.06329864,1
1.0500000000000007,13.655716473088125,-0.10800393418888675,-1.1701990905885722,-0.15633830012204916,13.343647,0.06924918,-0.35616928,0.1139819,8.626418,-8.61106,1.3996326,-0.37944955,0.16416961,-0.2783439,-0.86694354,-9.121443,7.062684,-0.07913852,0.06924918,-0.35616928,0.1139819,1
1.0600000000000007,13.655716473088125,-0.10800393418888675,-1.1701990905885722,-0.15633830012204916,13.343647,0.06924918,-0.35616928,0.1139819,8.535154,-8.540029,1.3988788,-0.3795073,0.1623354,-0.27806136,-0.8673542,-9.131096,7.1436257,-0.07159499,0.06924918,-0.35616928,0.1139819,1
1.0700000000000007,13.655716473088125,-0.10800393418888675,-1.1701990905885722,-0.15633830012204916,13.343647,0.06924918,-0.35616928,0.1139819,8.443796,-8.468188,1.3982015,-0.3795637,0.16050062,-0.27777788,-0.86776173,-9.1403675,7.224349,-0.06385031,0.06924918,-0.35616928,0.1139819,1
1.0800000000000007,13.356414327079172,-0.30982183171662914,-1.7725170449828191,-0.1570673129718795,12.748562,0.19719556,-1.169008,0.098632514,8.352347,-8.395542,1.3976027,-0.3796187,0.15866524,-0.27749333,-0.86816615,-9.149255,7.304853,-0.05590611,0.06924918,-0.35616928,0.1139819,1
1.0900000000000007,13.356414327079172,-0.30982183171662914,-1.7725170449828191,-0.1570673129718795,12.748562,0.19719556,-1.169008,0.098632514,8.260816,-8.32211,1.3970609,-0.38096222,0.15307686,-0.27620378,-0.8689918,-9.157077,7.3813677,-0.052336726,0.19719556,-1.169008,0.098632514,1
1.1000000000000008,13.356414327079172,-0.30982183171662914,-1.7725170449828191,-0.1570673129718795,12.748562,0.19719556,-1.169008,0.098632514,8.16921,-8.247916,1.396558,-0.38229227,0.14748305,-0.27490446,-0.8697867,-9.163724,7.457163,-0.048146714,0.19719556,-1.169008,0.098632514,1
1.1100000000000008,13.356414327079172,-0.30982183171662914,-1.7725170449828191,-0.1570673129718795,12.748562,0.19719556,-1.169008,0.098632514,8.077545,-8.172968,1.3961002,-0.3836088,0.14188403,-0.2735954,-0.8705508,-9.169193,7.53223,-0.0433511,0.19719556,-1.169008,0.098632514,1
1.1200000000000008,13.311345917311163,-0.6746775839938017,-1.7560713717347007,-0.17213373536192725,12.723094,0.010417488,-1.1351306,0.14003605,7.985831,-8.097273,1.3956931,-0.38491175,0.13627999,-0.27227667,-0.8712841,-9.173484,7.606558,-0.037964996,0.19719556,-1.169008,0.098632514,1
1.1300000000000008,13.311345917311163,-0.6746775839938017,-1.7560713717347007,-0.17213373536192725,12.723094,0.010417488,-1.1351306,0.14003605,7.8940797,-8.020839,1.3953418,-0.38584784,0.131122,-0.27022842,-0.8722986,-9.176665,7.67995,-0.03218566,0.010417488,-1.1351306,0.14003605,1
1.1400000000000008,13.311345917311163,-0.6746775839938017,-1.7560713717347007,-0.17213373536192725,12.723094,0.010417488,-1.1351306,0.14003605,7.802301,-7.9436765,1.3950515,-0.3867713,0.12595971,-0.2681713,-0.8732847,-9.178873,7.7524815,-0.025777914,0.010417488,-1.1351306,0.14003605,1
1.1500000000000008,13.311345917311163,-0.6746775839938017,-1.7560713717347007,-0.17213373536192725,12.723094,0.010417488,-1.1351306,0.14003605,7.710505,-7.8657923,1.3948283,-0.3876821,0.120793305,-0.26610544,-0.8742422,-9.180105,7.8241434,-0.018755984,0.010417488,-1.1351306,0.14003605,1
1.1600000000000008,13.283438419707874,-1.084651761574739,-1.7856874393417081,-0.15843931577563883,12.326996,-0.32226917,-0.92482907,0.18613857,7.6187015,-7.787196,1.3946784,-0.38858023,0.115622945,-0.26403084,-0.87517107,-9.180359,7.8949275,-0.011134174,0.010417488,-1.1351306,0.14003605,1
1.1700000000000008,13.283438419707874,-1.084651761574739,-1.7856874393417081,-0.15843931577563883,12.326996,-0.32226917,-0.92482907,0.18613857,7.5269003,-7.707907,1.3945912,-0.3887955,0.11195501,-0.26092812,-0.87648195,-9.179834,7.9626245,-0.0062184185,-0.32226917,-0.92482907,0.18613857,1
1.1800000000000008,13.283438419707874,-1.084651761574739,-1.7856874393417081,-0.15843931577563883,12.326996,-0.32226917,-0.92482907,0.18613857,7.4351068,-7.6279464,1.3945562,-0.3890011,0.1082843,-0.2578189,-0.877771,-9.178837,8.029388,-0.00069919997,-0.32226917,-0.92482907,0.18613857,1
1.1900000000000008,13.283438419707874,-1.084651761574739,-1.7856874393417081,-0.15843931577563883,12.326996,-0.32226917,-0.92482907,0.18613857,7.343325,-7.547323,1.3945793,-0.38919705,0.1046109,-0.25470328,-0.87903833,-9.177366,8.095214,0.0054130536,-0.32226917,-0.92482907,0.18613857,1
1.2000000000000008,13.491458931873478,-1.396063638907468,-1.3132427216184726,-0.15834878867679938,12.540333,-0.560686,-0.5872441,0.3215366,7.2515607,-7.4660463,1.3946666,-0.38938332,0.10093489,-0.25158137,-0.8802837,-9.175419,8.160094,0.012107849,-0.32226917,-0.92482907,0.18613857,1
1.2100000000000009,13.491458931873478,-1.396063638907468,-1.3132427216184726,-0.15834878867679938,12.540333,-0.560686,-0.5872441,0.3215366,7.159818,-7.3841195,1.3948326,-0.3884201,0.099036366,-0.24813014,-0.881903,-9.173141,8.225171,0.0211801,-0.560686,-0.5872441,0.3215366,1
1.2200000000000009,13.491458931873478,-1.396063638907468,-1.3132427216184726,-0.15834878867679938,12.540333,-0.560686,-0.5872441,0.3215366,7.0680985,-7.3015466,1.395092,-0.3874495,0.09713596,-0.24467416,-0.88350546,-9.17088,8.289374,0.030777458,-0.560686,-0.5872441,0.3215366,1
1.2300000000000009,13.491458931873478,-1.396063638907468,-1.3132427216184726,-0.15834878867679938,12.540333,-0.560686,-0.5872441,0.3215366,6.9764013,-7.2183356,1.39545,-0.3864715,0.0952337,-0.24121352,-0.88509107,-9.168633,8.352701,0.040892795,-0.560686,-0.5872441,0.3215366,1
1.2400000000000009,13.491458931873478,-1.396063638907468,-1.3132427216184726,-0.15834878867679938,12.796833,-0.74761987,-0.6594356,0.3247047,6.8847256,-7.134496,1.3959117,-0.38548616,0.09332962,-0.23774827,-0.8866598,-9.166397,8.415148,0.05151895,-0.560686,-0.5872441,0.3215366,1
1.2500000000000009,13.491458931873478,-1.396063638907468,-1.3132427216184726,-0.15834878867679938,12.796833,-0.74761987,-0.6594356,0.3247047,6.7930727,-7.0500298,1.3964934,-0.38447636,0.09145987,-0.2333111,-0.8884699,-9.164164,8.477893,0.06492596,-0.74761987,-0.6594356,0.3247047,1
1.260000000000001,13.491458931873478,-1.396063638907468,-1.3132427216184726,-0.15834878867679938,12.796833,-0.74761987,-0.6594356,0.3247047,6.701442,-6.964942,1.3972123,-0.38345605,0.089587614,-0.22886752,-0.8902556,-9.1620455,8.539529,0.07895223,-0.74761987,-0.6594356,0.3247047,1
1.270000000000001,13.491458931873478,-1.396063638907468,-1.3132427216184726,-0.15834878867679938,12.796833,-0.74761987,-0.6594356,0.3247047,6.609832,-6.879243,1.3980745,-0.38242513,0.087712884,-0.22441767,-0.8920168,-9.160037,8.600049,0.09358673,-0.74761987,-0.6594356,0.3247047,1
1.280000000000001,13.513102162915587,-1.5477599778861455,-1.3582523141412297,-0.16994853736564638,13.544062,-0.681795,-0.5981327,0.42371124,6.518241,-6.792945,1.3990861,-0.38138372,0.085835755,-0.21996164,-0.8937535,-9.158135,8.659447,0.108818375,-0.74761987,-0.6594356,0.3247047,1
1.290000000000001,13.513102162915587,-1.5477599778861455,-1.3582523141412297,-0.16994853736564638,13.544062,-0.681795,-0.5981327,0.42371124,6.426669,-6.7060413,1.400286,-0.3798507,0.0839959,-0.21595338,-0.8955568,-9.15623,8.721159,0.1312671,-0.681795,-0.5981327,0.42371124,1
1.300000000000001,13.513102162915587,-1.5477599778861455,-1.3582523141412297,-0.16994853736564638,13.544062,-0.681795,-0.5981327,0.42371124,6.335116,-6.618526,1.4017133,-0.37830812,0.08215394,-0.21193969,-0.8973377,-9.154422,8.781779,0.1542701,-0.681795,-0.5981327,0.42371124,1
1.310000000000001,13.513102162915587,-1.5477599778861455,-1.3582523141412297,-0.16994853736564638,13.544062,-0.681795,-0.5981327,0.42371124,6.2435803,-6.5304103,1.4033732,-0.37675613,0.08030991,-0.20792073,-0.89909613,-9.152705,8.841303,0.17781752,-0.681795,-0.5981327,0.42371124,1
1.320000000000001,13.433126089458185,-1.6312235232449674,-0.9986754303832197,-0.189669015390286,13.58477,-0.6776525,-0.6511097,0.4317152,6.152062,-6.4417048,1.4052714,-0.37519467,0.07846388,-0.20389654,-0.900832,-9.151076,8.899723,0.20189944,-0.681795,-0.5981327,0.42371124,1
1.330000000000001,13.433126089458185,-1.6312235232449674,-0.9986754303832197,-0.189669015390286,13.58477,-0.6776525,-0.6511097,0.4317152,6.060559,-6.3524194,1.4074148,-0.3736431,0.07636127,-0.19978948,-0.9025761,-9.149506,8.957191,0.22688195,-0.6776525,-0.6511097,0.4317152,1
1.340000000000001,13.433126089458185,-1.6312235232449674,-0.9986754303832197,-0.189669015390286,13.58477,-0.6776525,-0.6511097,0.4317152,5.969071,-6.2625647,1.4098108,-0.37208152,0.074256614,-0.19567707,-0.9042961,-9.147957,9.0135,0.2523993,-0.6776525,-0.6511097,0.4317152,1
1.350000000000001,13.433126089458185,-1.6312235232449674,-0.9986754303832197,-0.189669015390286,13.58477,-0.6776525,-0.6511097,0.4317152,5.8775983,-6.172153,1.4124646,-0.37051,0.07214998,-0.19155943,-0.9059919,-9.146425,9.0686455,0.2784405,-0.6776525,-0.6511097,0.4317152,1
1.360000000000001,13.081640617421188,-1.7233246759120342,-0.7508068456384631,-0.2115214999582585,13.499719,-1.1896721,-1.3200297,0.21032184,5.786141,-6.081196,1.4153813,-0.36892858,0.0700414,-0.18743668,-0.90766346,-9.144905,9.1226225,0.3049946,-0.6776525,-0.6511097,0.4317152,1
1.370000000000001,13.081640617421188,-1.7233246759120342,-0.7508068456384631,-0.2115214999582585,13.499719,-1.1896721,-1.3200297,0.21032184,5.6946993,-5.989708,1.4185628,-0.3687798,0.066045344,-0.17966884,-0.90959233,-9.143338,9.1747055,0.33142856,-1.1896721,-1.3200297,0.21032184,1
1.380000000000001,13.081640617421188,-1.7233246759120342,-0.7508068456384631,-0.2115214999582585,13.499719,-1.1896721,-1.3200297,0.21032184,5.6032743,-5.89771,1.422013,-0.36860147,0.062043995,-0.17188662,-0.91144836,-9.141604,9.224571,0.35876438,-1.1896721,-1.3200297,0.21032184,1
1.390000000000001,13.081640617421188,-1.7233246759120342,-0.7508068456384631,-0.2115214999582585,13.499719,-1.1896721,-1.3200297,0.21032184,5.5118675,-5.8052244,1.4257411,-0.36839366,0.058037687,-0.16409065,-0.91323143,-9.139702,9.272206,0.38696232,-1.1896721,-1.3200297,0.21032184,1
1.400000000000001,12.710308919948025,-1.5744518035037351,0.11439380258465302,-0.17875393719113505,13.430378,-1.2040434,-1.3015162,0.76624864,5.4204807,-5.7122736,1.4297552,-0.36815634,0.05402673,-0.15628153,-0.9149414,-9.137625,9.317593,0.41598225,-1.1896721,-1.3200297,0.21032184,0
1.410000000000001,12.710308919948025,-1.5744518035037351,0.11439380258465302,-0.17875393719113505,13.430378,-1.2040434,-1.3015162,0.76624864,5.329113,-5.618892,1.4340259,-0.36844778,0.057586208,-0.1492363,-0.91578287,-9.136122,9.358522,0.43820435,-1.5744518,0.1143938,-0.17875394,0
1.420000000000001,12.710308919948025,-1.5744518035037351,0.11439380258465302,-0.17875393719113505,13.430378,-1.2040434,-1.3015162,0.76624864,5.237753,-5.525108,1.4385209,-0.36871594,0.061142053,-0.14218166,-0.91656655,-9.136108,9.398179,0.4608611,-1.5744518,0.1143938,-0.17875394,0
1.430000000000001,12.710308919948025,-1.5744518035037351,0.11439380258465302,-0.17875393719113505,13.430378,-1.2040434,-1.3015162,0.76624864,5.146385,-5.430933,1.4432445,-0.36896086,0.06469404,-0.13511805,-0.91729236,-9.137588,9.436558,0.48392147,-1.5744518,0.1143938,-0.17875394,0
1.440000000000001,12.710308919948025,-1.5744518035037351,0.11439380258465302,-0.17875393719113505,13.264853,-1.2456532,-1.7393651,0.6980285,5.0549955,-5.3363814,1.4482006,-0.3691825,0.06824195,-0.12804592,-0.91796035,-9.140559,9.473649,0.5073545,-1.5744518,0.1143938,-0.17875394,0
1.450000000000001,12.710308919948025,-1.5744518035037351,0.11439380258465302,-0.17875393719113505,13.264853,-1.2456532,-1.7393651,0.6980285,4.9635687,-5.241465,1.4533927,-0.3693808,0.07178555,-0.1209657,-0.9185704,-9.145026,9.509448,0.53112906,-1.5744518,0.1143938,-0.17875394,0
1.460000000000001,12.710308919948025,-1.5744518035037351,0.11439380258465302,-0.17875393719113505,13.264853,-1.2456532,-1.7393651,0.6980285,4.87209,-5.1461973,1.4588242,-0.36955586,0.07532462,-0.11387785,-0.91912246,-9.150992,9.543946,0.555214,-1.5744518,0.1143938,-0.17875394,0
1.470000000000001,12.710308919948025,-1.5744518035037351,0.11439380258465302,-0.17875393719113505,13.264853,-1.2456532,-1.7393651,0.6980285,4.7805443,-5.050591,1.4644979,-0.36970755,0.07885894,-0.10678281,-0.9196166,-9.158455,9.577139,0.5795779,-1.5744518,0.1143938,-0.17875394,0
1.480000000000001,12.41687989461463,-1.0610301627213738,0.029071817210692758,-0.14380276442308992,13.198731,-0.49033508,-2.2890646,0.4416644,4.6889167,-4.9546595,1.4704167,-0.36983594,0.08238829,-0.099681035,-0.92005265,-9.167416,9.609021,0.6041895,-1.5744518,0.1143938,-0.17875394,0
1.490000000000001,12.41687989461463,-1.0610301627213738,0.029071817210692758,-0.14380276442308992,13.198731,-0.49033508,-2.2890646,0.4416644,4.5971932,-4.8584185,1.4765682,-0.3700406,0.08455454,-0.094793126,-0.9202904,-9.177439,9.639024,0.62616104,-1.0610301,0.029071817,-0.14380276,0
1.500000000000001,12.41687989461463,-1.0610301627213738,0.029071817210692758,-0.14380276442308992,13.198731,-0.49033508,-2.2890646,0.4416644,4.505365,-4.761882,1.4829402,-0.37023464,0.086718366,-0.089902505,-0.92050177,-9.188406,9.668117,0.6482736,-1.0610301,0.029071817,-0.14380276,0
1.5100000000000011,12.41687989461463,-1.0610301627213738,0.029071817210692758,-0.14380276442308992,13.198731,-0.49033508,-2.2890646,0.4416644,4.413422,-4.665059,1.489534,-0.37041807,0.088879704,-0.08500931,-0.9206867,-9.200317,9.6963,0.6705131,-1.0610301,0.029071817,-0.14380276,0
1.5200000000000011,12.09144500621977,-0.5069583745240996,-0.02095935502578306,-0.10330067302213579,13.095278,-0.012095663,-1.9823674,0.3539049,4.3213553,-4.567959,1.4963508,-0.37059087,0.091038495,-0.08011367,-0.9208452,-9.213173,9.72357,0.6928657,-1.0610301,0.029071817,-0.14380276,0
1.5300000000000011,12.09144500621977,-0.5069583745240996,-0.02095935502578306,-0.10330067302213579,13.095278,-0.012095663,-1.9823674,0.3539049,4.229158,-4.4705935,1.5033758,-0.37084287,0.09192244,-0.077693395,-0.92086333,-9.226419,9.749399,0.71214396,-0.50695837,-0.020959355,-0.103300676,0
1.5400000000000011,12.09144500621977,-0.5069583745240996,-0.02095935502578306,-0.10330067302213579,13.095278,-0.012095663,-1.9823674,0.3539049,4.136825,-4.3729725,1.5105938,-0.3710924,0.092805766,-0.0752726,-0.92087525,-9.240076,9.774775,0.7314743,-0.50695837,-0.020959355,-0.103300676,0
1.5500000000000012,12.09144500621977,-0.5069583745240996,-0.02095935502578306,-0.10330067302213579,13.095278,-0.012095663,-1.9823674,0.3539049,4.0443544,-4.2751,1.5180054,-0.37133944,0.093688466,-0.0728513,-0.920881,-9.254143,9.799696,0.75085354,-0.50695837,-0.020959355,-0.103300676,0
1.5600000000000012,11.735238900936102,-0.1617891239377095,-0.3111753752616426,-0.07887056456503222,14.121527,-0.3870307,-3.1048853,0.44647568,3.951741,-4.1769805,1.5256109,-0.371584,0.09457054,-0.070429504,-0.9208806,-9.268618,9.8241625,0.7702785,-0.50695837,-0.020959355,-0.103300676,0
1.5700000000000012,11.735238900936102,-0.1617891239377095,-0.3111753752616426,-0.07887056456503222,14.121527,-0.3870307,-3.1048853,0.44647568,3.8589835,-4.078622,1.5333939,-0.37197965,0.09346598,-0.06906902,-0.92093676,-9.282868,9.847491,0.7863026,-0.16178912,-0.31117538,-0.078870565,0
1.5800000000000012,11.735238900936102,-0.1617891239377095,-0.3111753752616426,-0.07887056456503222,14.121527,-0.3870307,-3.1048853,0.44647568,3.7660837,-3.9800317,1.5413374,-0.37237406,0.092361115,-0.067708306,-0.9209898,-9.296994,9.870439,0.80241954,-0.16178912,-0.31117538,-0.078870565,0
1.5900000000000012,11.735238900936102,-0.1617891239377095,-0.3111753752616426,-0.07887056456503222,14.121527,-0.3870307,-3.1048853,0.44647568,3.6730437,-3.8812144,1.5494424,-0.37276727,0.091255955,-0.066347376,-0.92104,-9.310994,9.893004,0.81862783,-0.16178912,-0.31117538,-0.078870565,0
1.6000000000000012,11.477307528933489,-0.01629482481780172,-0.15048129536910881,-0.04641609397439025,12.576223,-0.40363213,-1.5629746,0.27206033,3.5798643,-3.7821734,1.5577102,-0.3731593,0.0901505,-0.06498623,-0.92108715,-9.324869,9.915189,0.834926,-0.16178912,-0.31117538,-0.078870565,0
1.6100000000000012,11.477307528933489,-0.01629482481780172,-0.15048129536910881,-0.04641609397439025,12.576223,-0.40363213,-1.5629746,0.27206033,3.4865482,-3.6829143,1.5661287,-0.37341452,0.08950292,-0.064609475,-0.9210734,-9.338322,9.936603,0.84877837,-0.016294824,-0.1504813,-0.046416093,0
1.6200000000000012,11.477307528933489,-0.01629482481780172,-0.15048129536910881,-0.04641609397439025,12.576223,-0.40363213,-1.5629746,0.27206033,3.393098,-3.5834417,1.5746859,-0.3736695,0.08885529,-0.06423268,-0.9210591,-9.351667,9.957886,0.8626685,-0.016294824,-0.1504813,-0.046416093,0
1.6300000000000012,11.477307528933489,-0.01629482481780172,-0.15048129536910881,-0.04641609397439025,12.576223,-0.40363213,-1.5629746,0.27206033,3.299515,-3.483757,1.5833822,-0.37392426,0.0882076,-0.06385584,-0.9210442,-9.3649025,9.979038,0.8765962,-0.016294824,-0.1504813,-0.046416093,0
1.6400000000000012,11.477307528933489,-0.01629482481780172,-0.15048129536910881,-0.04641609397439025,12.548973,-0.18107268,-2.0106905,0.19906253,3.2058003,-3.3838613,1.592218,-0.37417877,0.087559864,-0.06347897,-0.9210287,-9.378031,10.000061,0.8905612,-0.016294824,-0.1504813,-0.046416093,0
1.6500000000000012,11.477307528933489,-0.01629482481780172,-0.15048129536910881,-0.04641609397439025,12.548973,-0.18107268,-2.0106905,0.19906253,3.111955,-3.283756,1.6011935,-0.37443304,0.086912066,-0.06310205,-0.9210126,-9.391048,10.020954,0.9045633,-0.016294824,-0.1504813,-0.046416093,0
1.6600000000000013,11.477307528933489,-0.01629482481780172,-0.15048129536910881,-0.04641609397439025,12.548973,-0.18107268,-2.0106905,0.19906253,3.0179799,-3.1834424,1.6103094,-0.37468708,0.08626421,-0.0627251,-0.9209959,-9.403959,10.041716,0.9186022,-0.016294824,-0.1504813,-0.046416093,0
1.6700000000000013,11.477307528933489,-0.01629482481780172,-0.15048129536910881,-0.04641609397439025,12.548973,-0.18107268,-2.0106905,0.19906253,2.9238763,-3.0829222,1.6195657,-0.37494087,0.085616305,-0.0623481,-0.92097867,-9.41676,10.062346,0.9326777,-0.016294824,-0.1504813,-0.046416093,0
1.6800000000000013,11.183083849198729,0.010588170292214429,-0.5336356273352835,-0.020697291471090583,13.940552,-0.2089605,-3.4403183,0.7073484,2.8296452,-2.982196,1.6289632,-0.37519443,0.08496834,-0.06197107,-0.92096084,-9.429454,10.082847,0.94678944,-0.016294824,-0.1504813,-0.046416093,0
1.6900000000000013,11.183083849198729,0.010588170292214429,-0.5336356273352835,-0.020697291471090583,13.940552,-0.2089605,-3.4403183,0.7073484,2.7352896,-2.8812687,1.6384875,-0.37545824,0.0824973,-0.061009724,-0.92114216,-9.441596,10.1025915,0.95809144,0.01058817,-0.5336356,-0.020697292,0
1.7000000000000013,11.183083849198729,0.010588170292214429,-0.5336356273352835,-0.020697291471090583,13.940552,-0.2089605,-3.4403183,0.7073484,2.6408145,-2.7801456,1.6481253,-0.37571937,0.08002567,-0.060047947,-0.92131686,-9.453307,10.12194,0.96951133,0.01058817,-0.5336356,-0.020697292,0
1.7100000000000013,11.183083849198729,0.010588170292214429,-0.5336356273352835,-0.020697291471090583,13.940552,-0.2089605,-3.4403183,0.7073484,2.5462246,-2.6788313,1.657878,-0.37597784,0.07755347,-0.05908574,-0.92148507,-9.464591,10.140888,0.98104584,0.01058817,-0.5336356,-0.020697292,0
1.7200000000000013,10.91489049266305,-0.004053708585789301,-0.4419080910062569,0.019724977840951417,14.181577,-0.2614827,-3.490184,0.96818775,2.451524,-2.5773296,1.6677465,-0.3762336,0.07508072,-0.05812312,-0.9216466,-9.475445,10.159437,0.992692,0.01058817,-0.5336356,-0.020697292,0
1.7300000000000013,10.91489049266305,-0.004053708585789301,-0.4419080910062569,0.019724977840951417,14.181577,-0.2614827,-3.490184,0.96818775,2.3567183,-2.4756463,1.677719,-0.37626868,0.07304601,-0.0572804,-0.92184854,-9.485649,10.177172,1.0018057,-0.0040537086,-0.4419081,0.019724978,0
1.7400000000000013,10.91489049266305,-0.004053708585789301,-0.4419080910062569,0.019724977840951417,14.181577,-0.2614827,-3.490184,0.96818775,2.2618124,-2.3737874,1.687783,-0.37630194,0.07101095,-0.0564374,-0.92204595,-9.495518,10.194574,1.0110054,-0.0040537086,-0.4419081,0.019724978,0
1.7500000000000013,10.91489049266305,-0.004053708585789301,-0.4419080910062569,0.019724977840951417,14.181577,-0.2614827,-3.490184,0.96818775,2.1668093,-2.2717562,1.6979395,-0.37633336,0.06897554,-0.055594124,-0.9222388,-9.505048,10.211641,1.0202894,-0.0040537086,-0.4419081,0.019724978,0
1.7600000000000013,10.61706936052299,-0.08768625197940028,-0.4980717679343246,0.06515745483098481,13.403137,-0.5247363,-2.4411252,1.34949,2.0717127,-2.1695557,1.7081891,-0.37636292,0.06693979,-0.054750577,-0.92242724,-9.51424,10.228375,1.0296555,-0.0040537086,-0.4419081,0.019724978,0
1.7700000000000014,10.61706936052299,-0.08768625197940028,-0.4980717679343246,0.06515745483098481,13.403137,-0.5247363,-2.4411252,1.34949,1.9765271,-2.067192,1.7185181,-0.3761682,0.06478957,-0.053430513,-0.92273754,-9.522861,10.2442875,1.0361723,-0.087686256,-0.49807176,0.06515746,0
1.7800000000000014,10.61706936052299,-0.08768625197940028,-0.4980717679343246,0.06515745483098481,13.403137,-0.5247363,-2.4411252,1.34949,1.8812566,-1.9646713,1.7289127,-0.375971,0.06263893,-0.0521101,-0.9230419,-9.531171,10.259771,1.0427785,-0.087686256,-0.49807176,0.06515746,0
1.7900000000000014,10.61706936052299,-0.08768625197940028,-0.4980717679343246,0.06515745483098481,13.403137,-0.5247363,-2.4411252,1.34949,1.7859046,-1.861998,1.7393738,-0.37577137,0.060487885,-0.05078934,-0.9233402,-9.539172,10.274824,1.0494715,-0.087686256,-0.49807176,0.06515746,0
1.8000000000000014,10.389482223894133,-0.2219419419467952,-0.3836255730362913,0.11442167914015747,14.094116,-0.54905236,-3.1823876,1.2804956,1.6904744,-1.7591764,1.7499024,-0.37556928,0.058336448,-0.049468257,-0.92363256,-9.546863,10.289447,1.0562487,-0.087686256,-0.49807176,0.06515746,0
1.8100000000000014,10.389482223894133,-0.2219419419467952,-0.3836255730362913,0.11442167914015747,14.094116,-0.54905236,-3.1823876,1.2804956,1.5949693,-1.6562121,1.7604878,-0.37507004,0.05695312,-0.04775615,-0.92401177,-9.5541525,10.3033285,1.0608534,-0.22194195,-0.38362557,0.11442168,0
1.8200000000000014,10.389482223894133,-0.2219419419467952,-0.3836255730362913,0.11442167914015747,14.094116,-0.54905236,-3.1823876,1.2804956,1.4993918,-1.5531112,1.7711196,-0.37456882,0.055569496,-0.046043795,-0.9243862,-9.56132,10.3167715,1.065525,-0.22194195,-0.38362557,0.11442168,0
1.8300000000000014,10.389482223894133,-0.2219419419467952,-0.3836255730362913,0.11442167914015747,14.094116,-0.54905236,-3.1823876,1.2804956,1.4037433,-1.4498781,1.7817986,-0.37406564,0.05418558,-0.044331193,-0.92475575,-9.568364,10.329776,1.0702617,-0.22194195,-0.38362557,0.11442168,0
1.8400000000000014,10.389482223894133,-0.2219419419467952,-0.3836255730362913,0.11442167914015747,14.123683,-0.5794203,-3.2360802,1.2929058,1.308025,-1.3465172,1.7925253,-0.37356052,0.05280138,-0.042618364,-0.9251204,-9.575284,10.342341,1.0750614,-0.22194195,-0.38362557,0.11442168,0
1.8500000000000014,10.389482223894133,-0.2219419419467952,-0.3836255730362913,0.11442167914015747,14.123683,-0.5794203,-3.2360802,1.2929058,1.2122381,-1.2430327,1.8033001,-0.3730534,0.051416907,-0.040905308,-0.9254803,-9.582079,10.354467,1.0799221,-0.22194195,-0.38362557,0.11442168,0
1.8600000000000014,10.389482223894133,-0.2219419419467952,-0.3836255730362913,0.11442167914015747,14.123683,-0.5794203,-3.2360802,1.2929058,1.1163839,-1.1394292,1.8141239,-0.37254438,0.050032165,-0.03919204,-0.9258354,-9.588749,10.366155,1.0848416,-0.22194195,-0.38362557,0.11442168,0
1.8700000000000014,10.389482223894133,-0.2219419419467952,-0.3836255730362913,0.11442167914015747,14.123683,-0.5794203,-3.2360802,1.2929058,1.0204636,-1.0357112,1.8249972,-0.37203336,0.048647158,-0.037478566,-0.9261855,-9.595293,10.377402,1.089818,-0.22194195,-0.38362557,0.11442168,0
1.8800000000000014,10.13484256409354,-0.3872298590279757,-0.39378390060801854,0.1753290581073786,13.730004,-0.7371659,-2.5806842,1.2743944,0.9244784,-0.93188274,1.8359205,-0.3715204,0.047261897,-0.035764895,-0.92653084,-9.60171,10.388211,1.0948495,-0.22194195,-0.38362557,0.11442168,0
1.8900000000000015,10.13484256409354,-0.3872298590279757,-0.39378390060801854,0.1753290581073786,13.730004,-0.7371659,-2.5806842,1.2743944,0.8284304,-0.8279498,1.8468817,-0.37068552,0.0461254,-0.03328079,-0.92701495,-9.607888,10.398278,1.0974071,-0.38722986,-0.3937839,0.17532906,0
1.9000000000000015,10.13484256409354,-0.3872298590279757,-0.39378390060801854,0.1753290581073786,13.730004,-0.7371659,-2.5806842,1.2743944,0.7323207,-0.72391903,1.8578688,-0.36984754,0.044988517,-0.0307964,-0.9274913,-9.614048,10.407788,1.10002,-0.38722986,-0.3937839,0.17532906,0
1.9100000000000015,10.13484256409354,-0.3872298590279757,-0.39378390060801854,0.1753290581073786,13.730004,-0.7371659,-2.5806842,1.2743944,0.6361495,-0.6197959,1.8688823,-0.36900645,0.043851256,-0.028311752,-0.9279598,-9.620191,10.416741,1.1026851,-0.38722986,-0.3937839,0.17532906,0
1.9200000000000015,9.847127669163728,-0.6382242700020712,-0.24854422523891137,0.2385669856821917,13.443929,-0.8373072,-2.2425425,1.2546282,0.539917,-0.51558614,1.8799226,-0.36816227,0.042713627,-0.025826866,-0.92842054,-9.626314,10.4251375,1.1053993,-0.38722986,-0.3937839,0.17532906,0
1.9300000000000015,9.847127669163728,-0.6382242700020712,-0.24854422523891137,0.2385669856821917,13.443929,-0.8373072,-2.2425425,1.2546282,0.4436239,-0.41129637,1.8909761,-0.3669482,0.04270362,-0.022457428,-0.92898905,-9.632346,10.432723,1.1052923,-0.63822424,-0.24854423,0.23856698,0
1.9400000000000015,9.847127669163728,-0.6382242700020712,-0.24854422523891137,0.2385669856821917,13.443929,-0.8373072,-2.2425425,1.2546282,0.3472692,-0.30693382,1.9020286,-0.36572927,0.042693056,-0.019087695,-0.9295454,-9.638631,10.439683,1.1052159,-0.63822424,-0.24854423,0.23856698,0
1.9500000000000015,9.847127669163728,-0.6382242700020712,-0.24854422523891137,0.2385669856821917,13.443929,-0.8373072,-2.2425425,1.2546282,0.25085044,-0.20250483,1.9130805,-0.3645056,0.042681925,-0.01571771,-0.93008953,-9.6451645,10.446017,1.1051655,-0.63822424,-0.24854423,0.23856698,0
1.9600000000000015,9.56861335603859,-0.8874687592481949,-0.8038186735378535,0.3313259656873948,12.374225,-0.9618156,-1.86157,1.1707114,0.15436508,-0.09801562,1.924132,-0.3632771,0.042670235,-0.0123475185,-0.9306214,-9.651947,10.451726,1.1051368,-0.63822424,-0.24854423,0.23856698,0
1.9700000000000015,9.56861335603859,-0.8874687592481949,-0.8038186735378535,0.3313259656873948,12.374225,-0.9618156,-1.86157,1.1707114,0.0578119,0.006526213,1.9351695,-0.36158872,0.040520705,-0.006828472,-0.9314315,-9.658691,10.456462,1.1023667,-0.88746876,-0.8038187,0.33132598,0
1.9800000000000015,9.56861335603859,-0.8874687592481949,-0.8038186735378535,0.3313259656873948,12.374225,-0.9618156,-1.86157,1.1707114,-0.03880877,0.11110969,1.9461795,-0.35988635,0.038369607,-0.001309163,-0.9322057,-9.665444,10.460053,1.0996461,-0.88746876,-0.8038187,0.33132598,0
1.9900000000000015,9.56861335603859,-0.8874687592481949,-0.8038186735378535,0.3313259656873948,12.374225,-0.9618156,-1.86157,1.1707114,-0.13549699,0.21572335,1.9571625,-0.35817012,0.03621703,0.0042101964,-0.9329439,-9.6722,10.462501,1.0969615,-0.88746876,-0.8038187,0.33132598,0
2.0000000000000013,,,,,12.585975,-1.3203415,-1.9990472,1.7540559,-0.23225275,0.32035577,1.9681188,-0.3564401,0.034063052,0.009729394,-0.9336461,-9.678954,10.463802,1.0942996,-0.88746876,-0.8038187,0.33132598,0
2.010000000000001,,,,,12.585975,-1.3203415,-1.9990472,1.7540559,-0.32907504,0.42499495,1.9790376,-0.35409737,0.030107487,0.016963147,-0.9345696,-9.685472,10.463797,1.089474,-1.082946,-1.2651662,0.4463261,0
2.020000000000001,,,,,12.585975,-1.3203415,-1.9990472,1.7540559,-0.42596146,0.52962637,1.9899082,-0.35172826,0.026149685,0.024195641,-0.93542373,-9.691775,10.462246,1.0846499,-1.082946,-1.2651662,0.4463261,0
2.0300000000000007,,,,,12.585975,-1.3203415,-1.9990472,1.7540559,-0.5229098,0.63423455,2.0007305,-0.34933308,0.022189941,0.031426337,-0.93620825,-9.697857,10.459155,1.0798024,-1.082946,-1.2651662,0.4463261,0
2.0400000000000005,,,,,12.585975,-1.3203415,-1.9990472,1.7540559,-0.61991787,0.73880416,2.0115042,-0.3469119,0.018228546,0.038654692,-0.93692315,-9.703707,10.454526,1.0749059,-1.082946,-1.2651662,0.4463261,0
2.0500000000000003,,,,,12.541527,-1.3924004,-1.7694478,1.6156607,-0.71698314,0.8433198,2.0222287,-0.34446493,0.014265798,0.04588018,-0.9375684,-9.709318,10.44836,1.0699352,-1.082946,-1.2651662,0.4463261,1
2.06,,,,,12.541527,-1.3924004,-1.7694478,1.6156607,-0.8141123,0.9477526,2.0330615,-0.33635294,0.008738513,0.055335145,-0.9400679,-9.71642,10.43777,1.096598,-1.3924004,-1.7694478,1.6156607,1
2.07,,,,,12.541527,-1.3924004,-1.7694478,1.6156607,-0.9113095,1.0520657,2.0441597,-0.32817638,0.0032095495,0.06477949,-0.9423868,-9.722914,10.424431,1.1230303,-1.3924004,-1.7694478,1.6156607,1
2.0799999999999996,,,,,12.541527,-1.3924004,-1.7694478,1.6156607,-1.0085683,1.1562319,2.055521,-0.31993678,-0.0023200298,0.07421139,-0.9445247,-9.728751,10.4083605,1.1491722,-1.3924004,-1.7694478,1.6156607,1
2.0899999999999994,,,,,12.272062,-1.1288385,-1.5924196,0.7826708,-1.1058822,1.2602237,2.067142,-0.31163576,-0.007849163,0.08362905,-0.94648135,-9.733886,10.389579,1.1749641,-1.3924004,-1.7694478,1.6156607,1
2.099999999999999,,,,,12.272062,-1.1288385,-1.5924196,0.7826708,-1.203243,1.364017,2.0790055,-0.30729312,-0.013298404,0.0914784,-0.94711405,-9.7381735,10.3687105,1.1977195,-1.1288385,-1.5924196,0.7826708,1
2.109999999999999,,,,,12.272062,-1.1288385,-1.5924196,0.7826708,-1.300643,1.4675903,2.0910947,-0.30291653,-0.018746175,0.09931763,-0.947642,-9.741689,10.345607,1.2200925,-1.1288385,-1.5924196,0.7826708,1
2.1199999999999988,,,,,12.272062,-1.1288385,-1.5924196,0.7826708,-1.3980742,1.5709215,2.1034057,-0.2985064,-0.024191873,0.10714588,-0.9480652,-9.744413,10.320283,1.242039,-1.1288385,-1.5924196,0.7826708,1
2.1299999999999986,,,,,11.613638,-1.2828416,-2.8067672,0.4412896,-1.4955285,1.6739885,2.115934,-0.29406333,-0.029634897,0.11496229,-0.9483835,-9.746327,10.292754,1.2635149,-1.1288385,-1.5924196,0.7826708,1
